TimeStamp[ms];Prox[Cm];Lux[lux];AccX[m/s^2];AccY[m/s^2];AccZ[m/s^2];GyroX[rad/s];GyroY[rad/s];GyroZ[rad/s];MagnX[uT];MagnY[uT];MagnZ[uT];OrienYaw[degrees];OrienPitch[degrees];OrienRoll[degrees];Press[Pa];Temp[C°];Batt[%];Lat;Lng;Speed[m/s]
1512468147524;-;-;8.832703;0.92315674;-1.6800537;-;-;-;-;-;-;-;-;-;-;-;-;-;-;-
1512468147526;-;-;8.855438;0.9004059;-1.6465302;-;-;-;-;-;-;-;-;-;-;-;-;-;-;-
1512468147529;-;-;8.855438;0.9004059;-1.6465302;-;-;-;-;-;-;-;-;-;-;-;-;-;-;-
1512468147549;-;-;9.025436;0.88723755;-1.7303314;-;-;-;-;-;-;-;-;-;-;-;-;-;-;-
1512468147570;-;-;9.00029;0.8992157;-1.9984741;-;-;-;-;-;-;-;-;-;-;-;-;-;-;-
1512468147591;-;-;9.091278;1.0093536;-2.1564941;-;-;-;-;-;-;-;-;-;-;-;-;-;-;-
1512468147611;-;-;9.1523285;0.8920288;-1.9996796;-;-;-;-;-;-;-;-;-;-;-;-;-;-;-
1512468147632;-;-;9.104446;0.89682007;-2.1433258;-;-;-;-;-;-;-;-;-;-;-;-;-;-;-
1512468147652;-;-;9.00029;0.8992157;-2.1672668;-;-;-;-;-;-;-;-;-;-;-;-;-;-;-
1512468147672;-;-;8.896149;0.9135742;-2.1110077;-;-;-;-;-;-;-;-;-;-;-;-;-;-;-
1512468147693;-;-;8.903336;1.0177307;-1.8955231;-;-;-;-;-;-;-;-;-;-;-;-;-;-;-
1512468147713;-;-;8.991913;0.9291382;-2.124176;-;-;-;-;-;-;-;-;-;-;-;-;-;-;-
1512468147734;-;-;8.958389;0.8453522;-1.7710266;-;-;-;-;-;-;-;-;-;-;-;-;-;-;-
1512468147767;-;-;8.844666;0.8453522;-1.3496399;-;-;-;-;-;-;-;-;-;-;-;-;-;-;-
1512468147774;-;-;8.953613;0.6861267;-0.8791809;-;-;-;-;-;-;-;-;-;-;-;-;-;-;-
1512468147794;-;-;9.081696;1.051239;-2.0750885;-;-;-;-;-;-;-;-;-;-;-;-;-;-;-
1512468147814;-;-;9.086487;0.9937897;-1.6788483;-;-;-;-;-;-;-;-;-;-;-;-;-;-;-
1512468147835;-;-;8.914108;0.55804443;-0.79060364;-;-;-;-;-;-;-;-;-;-;-;-;-;-;-
1512468147856;-;-;8.893753;0.66578674;-1.595047;-;-;-;-;-;-;-;-;-;-;-;-;-;-;-
1512468147876;-;-;9.1523285;0.5472717;-1.3759766;-;-;-;-;-;-;-;-;-;-;-;-;-;-;-
1512468147896;-;-;8.953613;0.8010559;-1.4705505;-;-;-;-;-;-;-;-;-;-;-;-;-;-;-
1512468147917;-;-;8.34668;1.125473;-0.56674194;-;-;-;-;-;-;-;-;-;-;-;-;-;-;-
1512468147937;-;-;8.843475;0.89442444;-0.5068817;-;-;-;-;-;-;-;-;-;-;-;-;-;-;-
1512468147957;-;-;8.893753;1.0428619;-1.2969818;-;-;-;-;-;-;-;-;-;-;-;-;-;-;-
1512468147978;-;-;8.970367;1.125473;-1.5244293;-;-;-;-;-;-;-;-;-;-;-;-;-;-;-
1512468147998;-;-;9.035004;1.1410217;-1.4549866;-;-;-;-;-;-;-;-;-;-;-;-;-;-;-
1512468148019;-;-;9.031418;1.209259;-1.3149261;-;-;-;-;-;-;-;-;-;-;-;-;-;-;-
1512468148038;-;-;9.049377;1.2116547;-1.3065491;-;-;-;-;-;-;-;-;-;-;-;-;-;-;-
1512468148059;-;-;9.070923;1.1589813;-1.4118958;-;-;-;-;-;-;-;-;-;-;-;-;-;-;-
1512468148079;-;-;9.074509;1.062027;-1.3017578;-;-;-;-;-;-;-;-;-;-;-;-;-;-;-
1512468148100;-;-;9.035004;0.9937897;-1.1868439;-;-;-;-;-;-;-;-;-;-;-;-;-;-;-
1512468148119;-;-;8.987122;0.9506836;-1.0671387;-;-;-;-;-;-;-;-;-;-;-;-;-;-;-
1512468148139;-;-;8.98114;0.9135742;-1.0731201;-;-;-;-;-;-;-;-;-;-;-;-;-;-;-
1512468148160;-;-;9.070923;0.8561249;-1.1784668;-;-;-;-;-;-;-;-;-;-;-;-;-;-;-
1512468148180;-;-;9.12001;0.89682007;-1.1844482;-;-;-;-;-;-;-;-;-;-;-;-;-;-;-
1512468148200;-;-;9.074509;0.9866028;-1.1221924;-;-;-;-;-;-;-;-;-;-;-;-;-;-;-
1512468148221;-;-;8.98233;1.0356903;-1.1461334;-;-;-;-;-;-;-;-;-;-;-;-;-;-;-
1512468148241;-;-;8.989517;1.1266632;-1.2215576;-;-;-;-;-;-;-;-;-;-;-;-;-;-;-
1512468148262;-;-;9.045776;1.130249;-1.2790222;-;-;-;-;-;-;-;-;-;-;-;-;-;-;-
1512468148282;-;-;9.136765;1.0979309;-1.2024078;-;-;-;-;-;-;-;-;-;-;-;-;-;-;-
1512468148303;-;-;9.173874;1.0500488;-1.3292999;-;-;-;-;-;-;-;-;-;-;-;-;-;-;-
1512468148323;-;-;9.072113;1.2164459;-1.4262543;-;-;-;-;-;-;-;-;-;-;-;-;-;-;-
1512468148344;-;-;8.947617;1.4115753;-1.571106;-;-;-;-;-;-;-;-;-;-;-;-;-;-;-
1512468148363;-;-;9.201401;1.5229034;-1.7470856;-;-;-;-;-;-;-;-;-;-;-;-;-;-;-
1512468148384;-;-;9.419281;1.1075134;-1.5148468;-;-;-;-;-;-;-;-;-;-;-;-;-;-;-
1512468148404;-;-;9.091278;1.4965668;-1.1940308;-;-;-;-;-;-;-;-;-;-;-;-;-;-;-
1512468148425;-;-;8.811157;1.8844299;-1.5064697;-;-;-;-;-;-;-;-;-;-;-;-;-;-;-
1512468148445;-;-;9.442017;1.6964874;-2.0499573;-;-;-;-;-;-;-;-;-;-;-;-;-;-;-
1512468148465;-;-;9.091278;1.4343262;-1.6058197;-;-;-;-;-;-;-;-;-;-;-;-;-;-;-
1512468148486;-;-;8.783615;1.1685638;-1.5040741;-;-;-;-;-;-;-;-;-;-;-;-;-;-;-
1512468148507;-;-;8.608841;1.5971222;-1.3077545;-;-;-;-;-;-;-;-;-;-;-;-;-;-;-
1512468148527;-;-;8.857834;1.5420532;-1.2024078;-;-;-;-;-;-;-;-;-;-;-;-;-;-;-
1512468148548;-;-;8.833893;1.3229828;-1.2227478;-;-;-;-;-;-;-;-;-;-;-;-;-;-;-
1512468148568;-;-;8.8207245;1.382843;-1.1605072;-;-;-;-;-;-;-;-;-;-;-;-;-;-;-
1512468148589;-;-;8.933258;1.3385468;-1.2933807;-;-;-;-;-;-;-;-;-;-;-;-;-;-;-
1512468148608;-;-;8.975159;1.4331207;-1.243103;-;-;-;-;-;-;-;-;-;-;-;-;-;-;-
1512468148628;-;-;9.086487;1.5468445;-1.3400726;-;-;-;-;-;-;-;-;-;-;-;-;-;-;-
1512468148649;-;-;9.012268;1.3888245;-1.2897949;-;-;-;-;-;-;-;-;-;-;-;-;-;-;-
1512468148670;-;-;9.175064;1.2559509;-1.085083;-;-;-;-;-;-;-;-;-;-;-;-;-;-;-
1512468148690;-;-;8.735733;1.1577911;-0.7080078;-;-;-;-;-;-;-;-;-;-;-;-;-;-;-
1512468148711;-;-;8.845871;1.2691193;-1.0443878;-;-;-;-;-;-;-;-;-;-;-;-;-;-;-
1512468148731;-;-;9.212173;1.2379913;-0.6996155;-;-;-;-;-;-;-;-;-;-;-;-;-;-;-
1512468148752;-;-;9.313934;1.3852386;-0.946228;-;-;-;-;-;-;-;-;-;-;-;-;-;-;-
1512468148772;-;-;9.215775;1.4307251;-1.001297;-;-;-;-;-;-;-;-;-;-;-;-;-;-;-
1512468148793;-;-;9.171478;1.3325653;-0.90312195;-;-;-;-;-;-;-;-;-;-;-;-;-;-;-
1512468148812;-;-;9.427658;0.9937897;-0.63139343;-;-;-;-;-;-;-;-;-;-;-;-;-;-;-
1512468148833;-;-;8.791992;1.3696747;-0.6589203;-;-;-;-;-;-;-;-;-;-;-;-;-;-;-
1512468148853;-;-;9.086487;1.3062286;-0.63856506;-;-;-;-;-;-;-;-;-;-;-;-;-;-;-
1512468148873;-;-;8.745316;1.2715149;-1.5531616;-;-;-;-;-;-;-;-;-;-;-;-;-;-;-
1512468148894;-;-;8.845871;1.4570618;-0.46020508;-;-;-;-;-;-;-;-;-;-;-;-;-;-;-
1512468148915;-;-;9.050568;1.4008026;-1.0240326;-;-;-;-;-;-;-;-;-;-;-;-;-;-;-
1512468148935;-;-;9.032608;1.4570618;-1.104248;-;-;-;-;-;-;-;-;-;-;-;-;-;-;-
1512468148956;-;-;9.631165;1.6318359;-1.2119751;-;-;-;-;-;-;-;-;-;-;-;-;-;-;-
1512468148976;-;-;8.784821;2.2100372;-1.1964111;-;-;-;-;-;-;-;-;-;-;-;-;-;-;-
1512468148997;-;-;8.344284;1.9526672;-0.64216614;-;-;-;-;-;-;-;-;-;-;-;-;-;-;-
1512468149016;-;-;8.395752;1.6462097;-0.66371155;-;-;-;-;-;-;-;-;-;-;-;-;-;-;-
1512468149036;-;-;9.002686;0.9087982;-0.7175751;-;-;-;-;-;-;-;-;-;-;-;-;-;-;-
1512468149057;-;-;9.066132;0.97462463;-1.0683289;-;-;-;-;-;-;-;-;-;-;-;-;-;-;-
1512468149077;-;-;9.099655;1.3373566;-1.0240326;-;-;-;-;-;-;-;-;-;-;-;-;-;-;-
1512468149097;-;-;7.892975;1.4163666;-0.63497925;-;-;-;-;-;-;-;-;-;-;-;-;-;-;-
1512468149118;-;-;9.564133;1.2595367;-0.4925232;-;-;-;-;-;-;-;-;-;-;-;-;-;-;-
1512468149138;-;-;8.382584;1.5851593;-0.17170715;-;-;-;-;-;-;-;-;-;-;-;-;-;-;-
1512468149159;-;-;7.818756;0.115112305;-1.6692657;-;-;-;-;-;-;-;-;-;-;-;-;-;-;-
1512468149178;-;-;13.25;-1.8002472;0.64112854;-;-;-;-;-;-;-;-;-;-;-;-;-;-;-
1512468149199;-;-;8.236542;0.7184448;-2.2175446;-;-;-;-;-;-;-;-;-;-;-;-;-;-;-
1512468149219;-;-;9.425262;1.0380707;-0.76187134;-;-;-;-;-;-;-;-;-;-;-;-;-;-;-
1512468149241;-;-;8.950012;0.16659546;-1.8751678;-;-;-;-;-;-;-;-;-;-;-;-;-;-;-
1512468149260;-;-;9.737701;-1.2591553;-1.8033447;-;-;-;-;-;-;-;-;-;-;-;-;-;-;-
1512468149281;-;-;8.331116;-0.30625916;0.01864624;-;-;-;-;-;-;-;-;-;-;-;-;-;-;-
1512468149301;-;-;8.381393;-0.30267334;-1.2083893;-;-;-;-;-;-;-;-;-;-;-;-;-;-;-
1512468149322;-;-;10.1566925;-0.63786316;-2.9286194;-;-;-;-;-;-;-;-;-;-;-;-;-;-;-
1512468149342;-;-;9.768829;-0.20570374;1.2971497;-;-;-;-;-;-;-;-;-;-;-;-;-;-;-
1512468149363;-;-;8.183868;0.040893555;-2.4078827;-;-;-;-;-;-;-;-;-;-;-;-;-;-;-
1512468149383;-;-;9.311539;-0.08001709;-0.43266296;-;-;-;-;-;-;-;-;-;-;-;-;-;-;-
1512468149404;-;-;9.436035;-0.09677124;-1.3460541;-;-;-;-;-;-;-;-;-;-;-;-;-;-;-
1512468149425;-;-;8.8207245;-0.030929565;-1.3245087;-;-;-;-;-;-;-;-;-;-;-;-;-;-;-
1512468149445;-;-;9.559341;-0.26556396;-0.79418945;-;-;-;-;-;-;-;-;-;-;-;-;-;-;-
1512468149466;-;-;8.850662;-0.047698975;-1.5375977;-;-;-;-;-;-;-;-;-;-;-;-;-;-;-
1512468149485;-;-;9.002686;0.08039856;-0.98931885;-;-;-;-;-;-;-;-;-;-;-;-;-;-;-
1512468149506;-;-;8.995499;-0.109939575;-0.9737549;-;-;-;-;-;-;-;-;-;-;-;-;-;-;-
1512468149527;-;-;9.17627;-0.105148315;-1.1676941;-;-;-;-;-;-;-;-;-;-;-;-;-;-;-
1512468149546;-;-;9.373795;0.08758545;-1.4537964;-;-;-;-;-;-;-;-;-;-;-;-;-;-;-
1512468149567;-;-;9.37738;0.17855835;-1.4286499;-;-;-;-;-;-;-;-;-;-;-;-;-;-;-
1512468149587;-;-;9.181061;0.3030548;-1.3831635;-;-;-;-;-;-;-;-;-;-;-;-;-;-;-
1512468149608;-;-;8.932053;0.48143005;-1.2850037;-;-;-;-;-;-;-;-;-;-;-;-;-;-;-
1512468149628;-;-;8.874603;0.38206482;-1.1233978;-;-;-;-;-;-;-;-;-;-;-;-;-;-;-
1512468149649;-;-;8.92009;0.2013092;-1.1700745;-;-;-;-;-;-;-;-;-;-;-;-;-;-;-
1512468149669;-;-;9.082901;0.16299438;-1.3041534;-;-;-;-;-;-;-;-;-;-;-;-;-;-;-
1512468149690;-;-;9.234924;0.20489502;-1.3951416;-;-;-;-;-;-;-;-;-;-;-;-;-;-;-
1512468149710;-;-;9.303162;0.18693542;-1.5208282;-;-;-;-;-;-;-;-;-;-;-;-;-;-;-
1512468149731;-;-;9.233734;0.30784607;-1.452591;-;-;-;-;-;-;-;-;-;-;-;-;-;-;-
1512468149750;-;-;9.009872;0.35453796;-1.2658539;-;-;-;-;-;-;-;-;-;-;-;-;-;-;-
1512468149771;-;-;9.019455;0.27671814;-1.219162;-;-;-;-;-;-;-;-;-;-;-;-;-;-;-
1512468149792;-;-;9.1523285;0.10673523;-1.3508453;-;-;-;-;-;-;-;-;-;-;-;-;-;-;-
1512468149812;-;-;9.181061;0.062438965;-1.4250641;-;-;-;-;-;-;-;-;-;-;-;-;-;-;-
1512468149832;-;-;9.096069;0.18095398;-1.3544312;-;-;-;-;-;-;-;-;-;-;-;-;-;-;-
1512468149853;-;-;9.087677;0.12109375;-1.2478943;-;-;-;-;-;-;-;-;-;-;-;-;-;-;-
1512468149873;-;-;9.195419;-0.06564331;-1.2227478;-;-;-;-;-;-;-;-;-;-;-;-;-;-;-
1512468149893;-;-;9.14035;-0.17459106;-1.2275391;-;-;-;-;-;-;-;-;-;-;-;-;-;-;-
1512468149914;-;-;9.030228;-0.109939575;-1.322113;-;-;-;-;-;-;-;-;-;-;-;-;-;-;-
1512468149935;-;-;8.802765;0.13905334;-1.0515747;-;-;-;-;-;-;-;-;-;-;-;-;-;-;-
1512468149955;-;-;8.454422;0.30903625;-0.87080383;-;-;-;-;-;-;-;-;-;-;-;-;-;-;-
1512468149975;-;-;8.5238495;0.30545044;-0.82650757;-;-;-;-;-;-;-;-;-;-;-;-;-;-;-
1512468149996;-;-;9.261261;0.45388794;-1.1365662;-;-;-;-;-;-;-;-;-;-;-;-;-;-;-
1512468150016;-;-;10.151901;0.59155273;-1.8117218;-;-;-;-;-;-;-;-;-;-;-;-;-;-;-
1512468150037;-;-;10.132751;0.6837311;-1.911087;-;-;-;-;-;-;-;-;-;-;-;-;-;-;-
1512468150057;-;-;9.527023;0.556839;-1.4023132;-;-;-;-;-;-;-;-;-;-;-;-;-;-;-
1512468150078;-;-;8.957199;0.3964386;-0.6792755;-;-;-;-;-;-;-;-;-;-;-;-;-;-;-
1512468150098;-;-;8.551376;0.45388794;-0.32373047;-;-;-;-;-;-;-;-;-;-;-;-;-;-;-
1512468150119;-;-;8.951218;0.3102417;-0.42549133;-;-;-;-;-;-;-;-;-;-;-;-;-;-;-
1512468150139;-;-;9.306747;0.34136963;-0.81573486;-;-;-;-;-;-;-;-;-;-;-;-;-;-;-
1512468150160;-;-;9.485123;0.52093506;-0.843277;-;-;-;-;-;-;-;-;-;-;-;-;-;-;-
1512468150181;-;-;9.525818;0.5269165;-0.9976959;-;-;-;-;-;-;-;-;-;-;-;-;-;-;-
1512468150201;-;-;9.522232;0.35932922;-0.9151001;-;-;-;-;-;-;-;-;-;-;-;-;-;-;-
1512468150221;-;-;9.249298;0.016952515;-1.0814972;-;-;-;-;-;-;-;-;-;-;-;-;-;-;-
1512468150242;-;-;9.032608;-0.066848755;-1.0659332;-;-;-;-;-;-;-;-;-;-;-;-;-;-;-
1512468150261;-;-;8.7812195;0.10673523;-0.93785095;-;-;-;-;-;-;-;-;-;-;-;-;-;-;-
1512468150281;-;-;8.76207;0.1797638;-0.72117615;-;-;-;-;-;-;-;-;-;-;-;-;-;-;-
1512468150302;-;-;8.917694;0.13665771;-0.94981384;-;-;-;-;-;-;-;-;-;-;-;-;-;-;-
1512468150323;-;-;9.127182;0.27313232;-1.3185272;-;-;-;-;-;-;-;-;-;-;-;-;-;-;-
1512468150344;-;-;9.254074;0.41558838;-1.0826874;-;-;-;-;-;-;-;-;-;-;-;-;-;-;-
1512468150363;-;-;9.588074;0.1953125;-1.1676941;-;-;-;-;-;-;-;-;-;-;-;-;-;-;-
1512468150384;-;-;9.67067;0.091171265;-1.5423737;-;-;-;-;-;-;-;-;-;-;-;-;-;-;-
1512468150403;-;-;9.364212;0.22764587;-1.1892395;-;-;-;-;-;-;-;-;-;-;-;-;-;-;-
1512468150424;-;-;8.835098;0.52931213;-0.75468445;-;-;-;-;-;-;-;-;-;-;-;-;-;-;-
1512468150444;-;-;8.660324;0.70529175;-0.9833374;-;-;-;-;-;-;-;-;-;-;-;-;-;-;-
1512468150464;-;-;9.013458;0.64782715;-0.95939636;-;-;-;-;-;-;-;-;-;-;-;-;-;-;-
1512468150485;-;-;9.221756;0.70648193;-0.8767853;-;-;-;-;-;-;-;-;-;-;-;-;-;-;-
1512468150506;-;-;9.276825;0.6729584;-0.9689636;-;-;-;-;-;-;-;-;-;-;-;-;-;-;-
1512468150526;-;-;9.170288;0.7950592;-0.9905243;-;-;-;-;-;-;-;-;-;-;-;-;-;-;-
1512468150547;-;-;9.187042;0.9243469;-0.9294586;-;-;-;-;-;-;-;-;-;-;-;-;-;-;-
1512468150567;-;-;9.203796;1.0045624;-0.843277;-;-;-;-;-;-;-;-;-;-;-;-;-;-;-
1512468150587;-;-;9.130783;0.64901733;-0.5966644;-;-;-;-;-;-;-;-;-;-;-;-;-;-;-
1512468150608;-;-;9.045776;0.41677856;-0.6014557;-;-;-;-;-;-;-;-;-;-;-;-;-;-;-
1512468150628;-;-;9.148727;0.43473816;-0.94981384;-;-;-;-;-;-;-;-;-;-;-;-;-;-;-
1512468150649;-;-;9.009872;0.73760986;-0.7295532;-;-;-;-;-;-;-;-;-;-;-;-;-;-;-
1512468150670;-;-;9.051773;0.5161438;-0.5643463;-;-;-;-;-;-;-;-;-;-;-;-;-;-;-
1512468150690;-;-;9.209793;0.32699585;-0.58470154;-;-;-;-;-;-;-;-;-;-;-;-;-;-;-
1512468150710;-;-;9.214569;0.3102417;-0.60983276;-;-;-;-;-;-;-;-;-;-;-;-;-;-;-
1512468150731;-;-;9.209793;0.4945984;-0.74272156;-;-;-;-;-;-;-;-;-;-;-;-;-;-;-
1512468150752;-;-;9.146347;0.536499;-0.5224457;-;-;-;-;-;-;-;-;-;-;-;-;-;-;-
1512468150772;-;-;9.019455;0.5233307;-0.491333;-;-;-;-;-;-;-;-;-;-;-;-;-;-;-
1512468150792;-;-;8.954803;0.52931213;-0.58709717;-;-;-;-;-;-;-;-;-;-;-;-;-;-;-
1512468150813;-;-;8.904526;0.6466217;-0.7343445;-;-;-;-;-;-;-;-;-;-;-;-;-;-;-
1512468150833;-;-;8.960785;0.61550903;-0.67807007;-;-;-;-;-;-;-;-;-;-;-;-;-;-;-
1512468150854;-;-;9.135559;0.57121277;-0.7056122;-;-;-;-;-;-;-;-;-;-;-;-;-;-;-
1512468150874;-;-;9.3103485;0.48980713;-0.7379303;-;-;-;-;-;-;-;-;-;-;-;-;-;-;-
1512468150896;-;-;9.372589;0.32341003;-0.630188;-;-;-;-;-;-;-;-;-;-;-;-;-;-;-
1512468150915;-;-;9.319916;0.33059692;-0.6589203;-;-;-;-;-;-;-;-;-;-;-;-;-;-;-
1512468150936;-;-;9.190628;0.36410522;-0.630188;-;-;-;-;-;-;-;-;-;-;-;-;-;-;-
1512468150956;-;-;9.058945;0.24919128;-0.7080078;-;-;-;-;-;-;-;-;-;-;-;-;-;-;-
1512468150977;-;-;9.014664;0.16659546;-0.52963257;-;-;-;-;-;-;-;-;-;-;-;-;-;-;-
1512468150998;-;-;9.164291;0.32939148;-0.2962036;-;-;-;-;-;-;-;-;-;-;-;-;-;-;-
1512468151017;-;-;8.972763;0.7842865;-0.2111969;-;-;-;-;-;-;-;-;-;-;-;-;-;-;-
1512468151038;-;-;8.990723;1.2810822;-0.73194885;-;-;-;-;-;-;-;-;-;-;-;-;-;-;-
1512468151058;-;-;9.06134;1.6330414;-1.4023132;-;-;-;-;-;-;-;-;-;-;-;-;-;-;-
1512468151079;-;-;9.092468;1.5109406;-1.6249847;-;-;-;-;-;-;-;-;-;-;-;-;-;-;-
1512468151098;-;-;8.867416;1.2571411;-1.361618;-;-;-;-;-;-;-;-;-;-;-;-;-;-;-
1512468151118;-;-;8.924881;1.0045624;-1.1389618;-;-;-;-;-;-;-;-;-;-;-;-;-;-;-
1512468151139;-;-;9.033813;0.96266174;-1.2909851;-;-;-;-;-;-;-;-;-;-;-;-;-;-;-
1512468151160;-;-;9.100845;0.69929504;-1.3029633;-;-;-;-;-;-;-;-;-;-;-;-;-;-;-
1512468151180;-;-;9.209793;0.16778564;-1.203598;-;-;-;-;-;-;-;-;-;-;-;-;-;-;-
1512468151200;-;-;8.910507;-0.29429626;-0.9055176;-;-;-;-;-;-;-;-;-;-;-;-;-;-;-
1512468151221;-;-;8.696228;-0.54689026;-0.71398926;-;-;-;-;-;-;-;-;-;-;-;-;-;-;-
1512468151241;-;-;8.608841;-0.7587738;-0.69363403;-;-;-;-;-;-;-;-;-;-;-;-;-;-;-
1512468151262;-;-;8.557373;-1.3501434;-0.8348999;-;-;-;-;-;-;-;-;-;-;-;-;-;-;-
1512468151283;-;-;8.383789;-1.9307251;-1.0551605;-;-;-;-;-;-;-;-;-;-;-;-;-;-;-
1512468151303;-;-;8.758484;-1.7056732;-1.0120697;-;-;-;-;-;-;-;-;-;-;-;-;-;-;-
1512468151323;-;-;8.884171;-1.1274719;-1.322113;-;-;-;-;-;-;-;-;-;-;-;-;-;-;-
1512468151344;-;-;9.25528;-0.4092102;-2.4976654;-;-;-;-;-;-;-;-;-;-;-;-;-;-;-
1512468151364;-;-;9.683838;0.27792358;-2.9118652;-;-;-;-;-;-;-;-;-;-;-;-;-;-;-
1512468151384;-;-;9.340271;0.3461609;-3.2817688;-;-;-;-;-;-;-;-;-;-;-;-;-;-;-
1512468151405;-;-;8.654327;-0.059661865;-3.0124207;-;-;-;-;-;-;-;-;-;-;-;-;-;-;-
1512468151426;-;-;8.116837;-0.21647644;-2.4653473;-;-;-;-;-;-;-;-;-;-;-;-;-;-;-
1512468151446;-;-;7.6391907;-0.37330627;-2.0798798;-;-;-;-;-;-;-;-;-;-;-;-;-;-;-
1512468151466;-;-;7.277664;-0.8748932;-2.4042969;-;-;-;-;-;-;-;-;-;-;-;-;-;-;-
1512468151487;-;-;6.810791;-1.3609161;-2.5383606;-;-;-;-;-;-;-;-;-;-;-;-;-;-;-
1512468151507;-;-;6.3966064;-1.6937103;-3.0040436;-;-;-;-;-;-;-;-;-;-;-;-;-;-;-
1512468151528;-;-;6.1511993;-1.5727997;-2.5778656;-;-;-;-;-;-;-;-;-;-;-;-;-;-;-
1512468151548;-;-;6.7006683;-0.9658661;-1.9003143;-;-;-;-;-;-;-;-;-;-;-;-;-;-;-
1512468151569;-;-;7.4644165;-0.3768921;-1.8955231;-;-;-;-;-;-;-;-;-;-;-;-;-;-;-
1512468151589;-;-;8.684265;-0.4774475;-1.9541779;-;-;-;-;-;-;-;-;-;-;-;-;-;-;-
1512468151610;-;-;9.058945;-1.5536499;-3.1632538;-;-;-;-;-;-;-;-;-;-;-;-;-;-;-
1512468151630;-;-;8.570541;-1.6027222;-3.566681;-;-;-;-;-;-;-;-;-;-;-;-;-;-;-
1512468151651;-;-;8.357452;-0.8964386;-3.1943817;-;-;-;-;-;-;-;-;-;-;-;-;-;-;-
1512468151672;-;-;8.817139;0.4909973;-2.6532898;-;-;-;-;-;-;-;-;-;-;-;-;-;-;-
1512468151692;-;-;9.333084;1.9777985;-3.4936523;-;-;-;-;-;-;-;-;-;-;-;-;-;-;-
1512468151713;-;-;9.562927;1.6629639;-4.041931;-;-;-;-;-;-;-;-;-;-;-;-;-;-;-
1512468151732;-;-;9.151123;0.45988464;-3.978485;-;-;-;-;-;-;-;-;-;-;-;-;-;-;-
1512468151753;-;-;9.163101;-0.80545044;-2.5180206;-;-;-;-;-;-;-;-;-;-;-;-;-;-;-
1512468151773;-;-;9.803543;0.122299194;-3.0327759;-;-;-;-;-;-;-;-;-;-;-;-;-;-;-
1512468151794;-;-;9.6467285;0.6107178;-4.052704;-;-;-;-;-;-;-;-;-;-;-;-;-;-;-
1512468151814;-;-;9.318726;0.48860168;-4.393875;-;-;-;-;-;-;-;-;-;-;-;-;-;-;-
1512468151835;-;-;9.141556;0.754364;-3.3990784;-;-;-;-;-;-;-;-;-;-;-;-;-;-;-
1512468151856;-;-;8.648346;0.6549988;-3.764206;-;-;-;-;-;-;-;-;-;-;-;-;-;-;-
1512468151876;-;-;8.220978;0.21447754;-3.4349976;-;-;-;-;-;-;-;-;-;-;-;-;-;-;-
1512468151896;-;-;8.029449;0.095962524;-3.85997;-;-;-;-;-;-;-;-;-;-;-;-;-;-;-
1512468151917;-;-;8.046204;0.40960693;-4.19635;-;-;-;-;-;-;-;-;-;-;-;-;-;-;-
1512468151937;-;-;8.03064;1.085968;-4.270569;-;-;-;-;-;-;-;-;-;-;-;-;-;-;-
1512468151958;-;-;7.7050323;1.4726257;-4.29451;-;-;-;-;-;-;-;-;-;-;-;-;-;-;-
1512468151978;-;-;7.6703186;1.4702301;-4.615341;-;-;-;-;-;-;-;-;-;-;-;-;-;-;-
1512468151998;-;-;7.794815;1.2727051;-4.5423126;-;-;-;-;-;-;-;-;-;-;-;-;-;-;-
1512468152019;-;-;7.93248;1.2188416;-4.5459137;-;-;-;-;-;-;-;-;-;-;-;-;-;-;-
1512468152039;-;-;7.125641;1.2284241;-4.369934;-;-;-;-;-;-;-;-;-;-;-;-;-;-;-
1512468152060;-;-;7.114853;0.8130188;-3.5475311;-;-;-;-;-;-;-;-;-;-;-;-;-;-;-
1512468152081;-;-;6.6228485;0.536499;-3.393097;-;-;-;-;-;-;-;-;-;-;-;-;-;-;-
1512468152101;-;-;6.3115997;0.17855835;-3.3907013;-;-;-;-;-;-;-;-;-;-;-;-;-;-;-
1512468152121;-;-;6.671936;0.03251648;-3.7127228;-;-;-;-;-;-;-;-;-;-;-;-;-;-;-
1512468152141;-;-;6.8921967;0.4862213;-3.733078;-;-;-;-;-;-;-;-;-;-;-;-;-;-;-
1512468152162;-;-;7.296814;0.88723755;-3.705536;-;-;-;-;-;-;-;-;-;-;-;-;-;-;-
1512468152183;-;-;7.4021606;0.88604736;-3.7713776;-;-;-;-;-;-;-;-;-;-;-;-;-;-;-
1512468152202;-;-;7.3901978;0.35812378;-4.0670624;-;-;-;-;-;-;-;-;-;-;-;-;-;-;-
1512468152223;-;-;7.324356;0.11869812;-4.3519745;-;-;-;-;-;-;-;-;-;-;-;-;-;-;-
1512468152243;-;-;7.4249115;0.63345337;-4.5064087;-;-;-;-;-;-;-;-;-;-;-;-;-;-;-
1512468152264;-;-;7.5314484;1.2679291;-4.598572;-;-;-;-;-;-;-;-;-;-;-;-;-;-;-
1512468152284;-;-;7.4919434;1.082367;-4.365143;-;-;-;-;-;-;-;-;-;-;-;-;-;-;-
1512468152305;-;-;8.022263;0.5077667;-4.472885;-;-;-;-;-;-;-;-;-;-;-;-;-;-;-
1512468152325;-;-;8.754883;0.16419983;-4.266983;-;-;-;-;-;-;-;-;-;-;-;-;-;-;-
1512468152346;-;-;9.312744;0.31861877;-4.262192;-;-;-;-;-;-;-;-;-;-;-;-;-;-;-
1512468152367;-;-;9.201401;0.44192505;-3.669632;-;-;-;-;-;-;-;-;-;-;-;-;-;-;-
1512468152387;-;-;9.096069;0.30065918;-3.871933;-;-;-;-;-;-;-;-;-;-;-;-;-;-;-
1512468152407;-;-;9.076904;-0.097976685;-4.3208466;-;-;-;-;-;-;-;-;-;-;-;-;-;-;-
1512468152428;-;-;9.698196;0.51493835;-3.8539886;-;-;-;-;-;-;-;-;-;-;-;-;-;-;-
1512468152448;-;-;10.576874;1.1422272;-4.207123;-;-;-;-;-;-;-;-;-;-;-;-;-;-;-
1512468152469;-;-;10.654694;1.1110992;-4.426193;-;-;-;-;-;-;-;-;-;-;-;-;-;-;-
1512468152488;-;-;10.259644;0.70887756;-4.089813;-;-;-;-;-;-;-;-;-;-;-;-;-;-;-
1512468152508;-;-;10.178238;0.6669769;-3.8743286;-;-;-;-;-;-;-;-;-;-;-;-;-;-;-
1512468152529;-;-;11.697357;1.4486847;-4.0251617;-;-;-;-;-;-;-;-;-;-;-;-;-;-;-
1512468152549;-;-;12.522171;1.5779724;-3.9880524;-;-;-;-;-;-;-;-;-;-;-;-;-;-;-
1512468152569;-;-;12.637085;1.3600922;-4.0036163;-;-;-;-;-;-;-;-;-;-;-;-;-;-;-
1512468152590;-;-;12.311478;0.4945984;-3.5427399;-;-;-;-;-;-;-;-;-;-;-;-;-;-;-
1512468152610;-;-;11.061707;-0.33021545;-3.111786;-;-;-;-;-;-;-;-;-;-;-;-;-;-;-
1512468152631;-;-;10.212952;-0.799469;-2.4318237;-;-;-;-;-;-;-;-;-;-;-;-;-;-;-
1512468152652;-;-;9.758057;-0.47027588;-2.3839417;-;-;-;-;-;-;-;-;-;-;-;-;-;-;-
1512468152671;-;-;9.699402;-0.11114502;-1.9697418;-;-;-;-;-;-;-;-;-;-;-;-;-;-;-
1512468152692;-;-;9.058945;-0.06324768;-1.6824341;-;-;-;-;-;-;-;-;-;-;-;-;-;-;-
1512468152711;-;-;8.650742;-0.14225769;-1.5136566;-;-;-;-;-;-;-;-;-;-;-;-;-;-;-
1512468152731;-;-;7.9995117;-0.069244385;-1.6034393;-;-;-;-;-;-;-;-;-;-;-;-;-;-;-
1512468152752;-;-;8.062958;-0.0105896;-1.2861938;-;-;-;-;-;-;-;-;-;-;-;-;-;-;-
1512468152772;-;-;8.340698;0.0025787354;-1.2802124;-;-;-;-;-;-;-;-;-;-;-;-;-;-;-
1512468152793;-;-;8.587296;0.052871704;-1.3795776;-;-;-;-;-;-;-;-;-;-;-;-;-;-;-
1512468152813;-;-;9.137955;-0.009384155;-1.452591;-;-;-;-;-;-;-;-;-;-;-;-;-;-;-
1512468152834;-;-;9.595245;0.11631775;-1.5447693;-;-;-;-;-;-;-;-;-;-;-;-;-;-;-
1512468152854;-;-;9.869385;0.1330719;-1.550766;-;-;-;-;-;-;-;-;-;-;-;-;-;-;-
1512468152875;-;-;9.685028;0.21687317;-1.5495605;-;-;-;-;-;-;-;-;-;-;-;-;-;-;-
1512468152896;-;-;9.644333;0.3605194;-1.1940308;-;-;-;-;-;-;-;-;-;-;-;-;-;-;-
1512468152916;-;-;9.884949;0.49578857;-0.7594757;-;-;-;-;-;-;-;-;-;-;-;-;-;-;-
1512468152937;-;-;9.459976;0.46107483;-0.5032959;-;-;-;-;-;-;-;-;-;-;-;-;-;-;-
1512468152958;-;-;8.938049;0.05885315;-0.22557068;-;-;-;-;-;-;-;-;-;-;-;-;-;-;-
1512468152978;-;-;8.746506;-0.4882202;0.108428955;-;-;-;-;-;-;-;-;-;-;-;-;-;-;-
1512468152998;-;-;8.914108;-0.97184753;0.2808075;-;-;-;-;-;-;-;-;-;-;-;-;-;-;-
1512468153019;-;-;9.062546;-1.0412903;0.28918457;-;-;-;-;-;-;-;-;-;-;-;-;-;-;-
1512468153039;-;-;9.114014;-0.7372284;0.070114136;-;-;-;-;-;-;-;-;-;-;-;-;-;-;-
1512468153060;-;-;9.15712;-0.2320404;0.06892395;-;-;-;-;-;-;-;-;-;-;-;-;-;-;-
1512468153080;-;-;9.240906;-0.059661865;0.2927704;-;-;-;-;-;-;-;-;-;-;-;-;-;-;-
1512468153101;-;-;9.141556;-0.33499146;0.64352417;-;-;-;-;-;-;-;-;-;-;-;-;-;-;-
1512468153120;-;-;9.054169;-0.502594;0.85661316;-;-;-;-;-;-;-;-;-;-;-;-;-;-;-
1512468153141;-;-;8.972763;-0.5037842;1.1115875;-;-;-;-;-;-;-;-;-;-;-;-;-;-;-
1512468153161;-;-;9.137955;-0.5648346;1.1068115;-;-;-;-;-;-;-;-;-;-;-;-;-;-;-
1512468153181;-;-;9.323517;-0.53012085;1.2432709;-;-;-;-;-;-;-;-;-;-;-;-;-;-;-
1512468153202;-;-;9.189438;-0.34936523;1.1953888;-;-;-;-;-;-;-;-;-;-;-;-;-;-;-
1512468153223;-;-;9.151123;-0.22007751;1.0254059;-;-;-;-;-;-;-;-;-;-;-;-;-;-;-
1512468153243;-;-;9.175064;-0.22366333;0.96315;-;-;-;-;-;-;-;-;-;-;-;-;-;-;-
1512468153263;-;-;9.273239;-0.23683167;1.0768738;-;-;-;-;-;-;-;-;-;-;-;-;-;-;-
1512468153284;-;-;9.0793;-0.3361969;1.152298;-;-;-;-;-;-;-;-;-;-;-;-;-;-;-
1512468153304;-;-;8.942825;-0.34098816;1.2839813;-;-;-;-;-;-;-;-;-;-;-;-;-;-;-
1512468153324;-;-;8.964386;-0.2320404;1.0517426;-;-;-;-;-;-;-;-;-;-;-;-;-;-;-
1512468153345;-;-;9.212173;-0.11592102;0.96315;-;-;-;-;-;-;-;-;-;-;-;-;-;-;-
1512468153366;-;-;9.346252;0.08518982;0.67944336;-;-;-;-;-;-;-;-;-;-;-;-;-;-;-
1512468153386;-;-;9.020645;0.2803192;0.49150085;-;-;-;-;-;-;-;-;-;-;-;-;-;-;-
1512468153407;-;-;8.942825;0.27192688;0.75245667;-;-;-;-;-;-;-;-;-;-;-;-;-;-;-
1512468153427;-;-;8.878189;0.0013885498;0.96554565;-;-;-;-;-;-;-;-;-;-;-;-;-;-;-
1512468153448;-;-;9.048172;-0.15663147;0.8542175;-;-;-;-;-;-;-;-;-;-;-;-;-;-;-
1512468153468;-;-;9.21817;-0.085998535;0.78718567;-;-;-;-;-;-;-;-;-;-;-;-;-;-;-
1512468153489;-;-;9.534195;0.060043335;0.96195984;-;-;-;-;-;-;-;-;-;-;-;-;-;-;-
1512468153510;-;-;9.45639;-0.026138306;1.0373688;-;-;-;-;-;-;-;-;-;-;-;-;-;-;-
1512468153533;-;-;9.325912;-0.33499146;1.3043213;-;-;-;-;-;-;-;-;-;-;-;-;-;-;-
1512468153551;-;-;9.069733;-0.8473511;1.5641022;-;-;-;-;-;-;-;-;-;-;-;-;-;-;-
1512468153571;-;-;8.890167;-1.1478271;1.6802216;-;-;-;-;-;-;-;-;-;-;-;-;-;-;-
1512468153592;-;-;8.752487;-0.7851105;2.18898;-;-;-;-;-;-;-;-;-;-;-;-;-;-;-
1512468153612;-;-;8.587296;-0.078811646;2.117157;-;-;-;-;-;-;-;-;-;-;-;-;-;-;-
1512468153633;-;-;8.679474;0.19412231;1.7149353;-;-;-;-;-;-;-;-;-;-;-;-;-;-;-
1512468153653;-;-;9.226547;0.20729065;0.8949127;-;-;-;-;-;-;-;-;-;-;-;-;-;-;-
1512468153674;-;-;9.208588;0.093566895;0.71055603;-;-;-;-;-;-;-;-;-;-;-;-;-;-;-
1512468153695;-;-;9.125992;-0.4152069;0.90808105;-;-;-;-;-;-;-;-;-;-;-;-;-;-;-
1512468153715;-;-;8.972763;-0.1985321;0.76683044;-;-;-;-;-;-;-;-;-;-;-;-;-;-;-
1512468153736;-;-;9.0972595;-0.2320404;0.9571686;-;-;-;-;-;-;-;-;-;-;-;-;-;-;-
1512468153756;-;-;9.203796;-0.17817688;0.77879333;-;-;-;-;-;-;-;-;-;-;-;-;-;-;-
1512468153776;-;-;9.548569;-0.21647644;0.72972107;-;-;-;-;-;-;-;-;-;-;-;-;-;-;-
1512468153797;-;-;9.669479;-0.37210083;0.8314667;-;-;-;-;-;-;-;-;-;-;-;-;-;-;-
1512468153818;-;-;9.328293;-0.63786316;1.1929932;-;-;-;-;-;-;-;-;-;-;-;-;-;-;-
1512468153838;-;-;8.854248;-0.65940857;1.7364807;-;-;-;-;-;-;-;-;-;-;-;-;-;-;-
1512468153858;-;-;8.722565;-0.5648346;1.9854736;-;-;-;-;-;-;-;-;-;-;-;-;-;-;-
1512468153879;-;-;8.734543;-0.26197815;1.749649;-;-;-;-;-;-;-;-;-;-;-;-;-;-;-
1512468153899;-;-;9.105637;-0.1482544;1.4527588;-;-;-;-;-;-;-;-;-;-;-;-;-;-;-
1512468153919;-;-;8.944031;-0.1302948;1.6933899;-;-;-;-;-;-;-;-;-;-;-;-;-;-;-
1512468153940;-;-;8.964386;-0.19134521;1.6263428;-;-;-;-;-;-;-;-;-;-;-;-;-;-;-
1512468153961;-;-;9.184647;-0.083602905;1.3773499;-;-;-;-;-;-;-;-;-;-;-;-;-;-;-
1512468153981;-;-;9.309143;0.08039856;1.073288;-;-;-;-;-;-;-;-;-;-;-;-;-;-;-
1512468154001;-;-;9.289993;0.30665588;1.0433502;-;-;-;-;-;-;-;-;-;-;-;-;-;-;-
1512468154022;-;-;9.114014;0.29348755;1.0289917;-;-;-;-;-;-;-;-;-;-;-;-;-;-;-
1512468154042;-;-;9.070923;0.35214233;0.6351471;-;-;-;-;-;-;-;-;-;-;-;-;-;-;-
1512468154063;-;-;9.268448;0.33776855;0.1539154;-;-;-;-;-;-;-;-;-;-;-;-;-;-;-
1512468154084;-;-;9.457581;0.35812378;-0.11663818;-;-;-;-;-;-;-;-;-;-;-;-;-;-;-
1512468154104;-;-;9.63237;0.18334961;-0.102264404;-;-;-;-;-;-;-;-;-;-;-;-;-;-;-
1512468154123;-;-;9.348648;-0.035720825;-0.11782837;-;-;-;-;-;-;-;-;-;-;-;-;-;-;-
1512468154144;-;-;9.371399;-0.090789795;-0.15733337;-;-;-;-;-;-;-;-;-;-;-;-;-;-;-
1512468154164;-;-;9.1128235;-0.012969971;-0.23394775;-;-;-;-;-;-;-;-;-;-;-;-;-;-;-
1512468154184;-;-;8.826721;-0.16619873;-0.09628296;-;-;-;-;-;-;-;-;-;-;-;-;-;-;-
1512468154205;-;-;9.030228;-0.35055542;0.22692871;-;-;-;-;-;-;-;-;-;-;-;-;-;-;-
1512468154226;-;-;9.586868;-0.20690918;-0.15493774;-;-;-;-;-;-;-;-;-;-;-;-;-;-;-
1512468154246;-;-;9.770035;0.05645752;-0.38957214;-;-;-;-;-;-;-;-;-;-;-;-;-;-;-
1512468154266;-;-;9.637146;0.098358154;-0.24232483;-;-;-;-;-;-;-;-;-;-;-;-;-;-;-
1512468154287;-;-;9.261261;0.028915405;-0.10824585;-;-;-;-;-;-;-;-;-;-;-;-;-;-;-
1512468154307;-;-;8.951218;0.21687317;-0.097473145;-;-;-;-;-;-;-;-;-;-;-;-;-;-;-
1512468154328;-;-;8.98114;0.20489502;0.20059204;-;-;-;-;-;-;-;-;-;-;-;-;-;-;-
1512468154348;-;-;8.856644;-0.14585876;0.44960022;-;-;-;-;-;-;-;-;-;-;-;-;-;-;-
1512468154369;-;-;9.227737;-0.6043396;0.7752075;-;-;-;-;-;-;-;-;-;-;-;-;-;-;-
1512468154389;-;-;9.626373;-0.4451294;0.41607666;-;-;-;-;-;-;-;-;-;-;-;-;-;-;-
1512468154410;-;-;9.497086;-0.25598145;0.20179749;-;-;-;-;-;-;-;-;-;-;-;-;-;-;-
1512468154430;-;-;9.307953;0.074417114;0.4795227;-;-;-;-;-;-;-;-;-;-;-;-;-;-;-
1512468154451;-;-;9.092468;0.4407196;-0.022064209;-;-;-;-;-;-;-;-;-;-;-;-;-;-;-
1512468154470;-;-;8.8602295;0.61190796;0.24249268;-;-;-;-;-;-;-;-;-;-;-;-;-;-;-
1512468154491;-;-;9.050568;0.21806335;0.4615631;-;-;-;-;-;-;-;-;-;-;-;-;-;-;-
1512468154511;-;-;9.15831;-0.25239563;0.255661;-;-;-;-;-;-;-;-;-;-;-;-;-;-;-
1512468154532;-;-;9.263657;-0.10395813;-0.13578796;-;-;-;-;-;-;-;-;-;-;-;-;-;-;-
1512468154553;-;-;9.092468;0.03970337;0.0030822754;-;-;-;-;-;-;-;-;-;-;-;-;-;-;-
1512468154573;-;-;9.175064;0.067230225;0.2520752;-;-;-;-;-;-;-;-;-;-;-;-;-;-;-
1512468154593;-;-;9.33429;0.079193115;-5.187988E-4;-;-;-;-;-;-;-;-;-;-;-;-;-;-;-
1512468154614;-;-;9.273239;0.20729065;0.07130432;-;-;-;-;-;-;-;-;-;-;-;-;-;-;-
1512468154635;-;-;9.212173;0.08279419;0.6243744;-;-;-;-;-;-;-;-;-;-;-;-;-;-;-
1512468154655;-;-;9.090073;-0.10874939;0.81829834;-;-;-;-;-;-;-;-;-;-;-;-;-;-;-
1512468154676;-;-;9.033813;0.014556885;0.4615631;-;-;-;-;-;-;-;-;-;-;-;-;-;-;-
1512468154696;-;-;9.109222;0.31143188;0.45318604;-;-;-;-;-;-;-;-;-;-;-;-;-;-;-
1512468154717;-;-;9.23851;0.43832397;0.7141571;-;-;-;-;-;-;-;-;-;-;-;-;-;-;-
1512468154737;-;-;9.309143;0.39523315;0.87815857;-;-;-;-;-;-;-;-;-;-;-;-;-;-;-
1512468154758;-;-;9.224152;0.25517273;1.057724;-;-;-;-;-;-;-;-;-;-;-;-;-;-;-
1512468154778;-;-;8.945221;0.16299438;1.2372894;-;-;-;-;-;-;-;-;-;-;-;-;-;-;-
1512468154798;-;-;9.049377;0.10194397;1.1534882;-;-;-;-;-;-;-;-;-;-;-;-;-;-;-
1512468154819;-;-;9.091278;0.19172668;1.1678619;-;-;-;-;-;-;-;-;-;-;-;-;-;-;-
1512468154839;-;-;9.082901;0.15342712;1.3162994;-;-;-;-;-;-;-;-;-;-;-;-;-;-;-
1512468154860;-;-;9.104446;0.009765625;1.3222809;-;-;-;-;-;-;-;-;-;-;-;-;-;-;-
1512468154881;-;-;9.1523285;0.013366699;1.2887573;-;-;-;-;-;-;-;-;-;-;-;-;-;-;-
1512468154901;-;-;9.0733185;-0.05847168;1.3569946;-;-;-;-;-;-;-;-;-;-;-;-;-;-;-
1512468154921;-;-;9.06134;-0.18296814;1.4826965;-;-;-;-;-;-;-;-;-;-;-;-;-;-;-
1512468154942;-;-;9.054169;-0.2966919;1.5293732;-;-;-;-;-;-;-;-;-;-;-;-;-;-;-
1512468154962;-;-;9.063736;-0.41400146;1.4659271;-;-;-;-;-;-;-;-;-;-;-;-;-;-;-
1512468154983;-;-;9.075714;-0.49899292;1.413269;-;-;-;-;-;-;-;-;-;-;-;-;-;-;-
1512468155003;-;-;9.15712;-0.49899292;1.3893127;-;-;-;-;-;-;-;-;-;-;-;-;-;-;-
1512468155024;-;-;9.23851;-0.36732483;1.2241211;-;-;-;-;-;-;-;-;-;-;-;-;-;-;-
1512468155043;-;-;9.189438;-0.14944458;1.0684967;-;-;-;-;-;-;-;-;-;-;-;-;-;-;-
1512468155064;-;-;9.099655;0.01574707;1.0158234;-;-;-;-;-;-;-;-;-;-;-;-;-;-;-
1512468155084;-;-;9.067337;0.052871704;1.0110321;-;-;-;-;-;-;-;-;-;-;-;-;-;-;-
1512468155104;-;-;9.147537;-0.09437561;0.844635;-;-;-;-;-;-;-;-;-;-;-;-;-;-;-
1512468155125;-;-;9.187042;-0.2033081;0.8326721;-;-;-;-;-;-;-;-;-;-;-;-;-;-;-
1512468155144;-;-;9.294785;-0.28710938;0.8697815;-;-;-;-;-;-;-;-;-;-;-;-;-;-;-
1512468155164;-;-;9.325912;-0.31584167;0.860199;-;-;-;-;-;-;-;-;-;-;-;-;-;-;-
1512468155185;-;-;9.193024;-0.2212677;0.923645;-;-;-;-;-;-;-;-;-;-;-;-;-;-;-
1512468155206;-;-;9.06134;-0.121917725;0.9607544;-;-;-;-;-;-;-;-;-;-;-;-;-;-;-
1512468155225;-;-;9.0733185;-0.13388062;0.88653564;-;-;-;-;-;-;-;-;-;-;-;-;-;-;-
1512468155246;-;-;9.214569;-0.11114502;0.8661804;-;-;-;-;-;-;-;-;-;-;-;-;-;-;-
1512468155266;-;-;9.254074;-0.13986206;0.73809814;-;-;-;-;-;-;-;-;-;-;-;-;-;-;-
1512468155287;-;-;9.291183;-0.21528625;0.7752075;-;-;-;-;-;-;-;-;-;-;-;-;-;-;-
1512468155307;-;-;9.261261;-0.35295105;0.82069397;-;-;-;-;-;-;-;-;-;-;-;-;-;-;-
1512468155328;-;-;9.17746;-0.39485168;0.8769531;-;-;-;-;-;-;-;-;-;-;-;-;-;-;-
1512468155349;-;-;9.062546;-0.43196106;0.97273254;-;-;-;-;-;-;-;-;-;-;-;-;-;-;-
1512468155369;-;-;9.081696;-0.4834442;1.0385742;-;-;-;-;-;-;-;-;-;-;-;-;-;-;-
1512468155389;-;-;9.188232;-0.4846344;0.96554565;-;-;-;-;-;-;-;-;-;-;-;-;-;-;-
1512468155410;-;-;9.1918335;-0.46427917;0.9212494;-;-;-;-;-;-;-;-;-;-;-;-;-;-;-
1512468155429;-;-;9.197815;-0.49780273;0.96554565;-;-;-;-;-;-;-;-;-;-;-;-;-;-;-
1512468155450;-;-;9.249298;-0.47505188;0.9020996;-;-;-;-;-;-;-;-;-;-;-;-;-;-;-
1512468155470;-;-;9.225342;-0.49301147;0.91407776;-;-;-;-;-;-;-;-;-;-;-;-;-;-;-
1512468155491;-;-;9.134369;-0.4666748;0.9284363;-;-;-;-;-;-;-;-;-;-;-;-;-;-;-
1512468155512;-;-;9.128387;-0.4092102;0.8925171;-;-;-;-;-;-;-;-;-;-;-;-;-;-;-
1512468155532;-;-;9.173874;-0.39964294;0.8422394;-;-;-;-;-;-;-;-;-;-;-;-;-;-;-
1512468155552;-;-;9.267242;-0.37809753;0.765625;-;-;-;-;-;-;-;-;-;-;-;-;-;-;-
1512468155573;-;-;9.234924;-0.35653687;0.6602783;-;-;-;-;-;-;-;-;-;-;-;-;-;-;-
1512468155592;-;-;9.207397;-0.33499146;0.6207886;-;-;-;-;-;-;-;-;-;-;-;-;-;-;-
1512468155613;-;-;9.273239;-0.3541565;0.61120605;-;-;-;-;-;-;-;-;-;-;-;-;-;-;-
1512468155633;-;-;9.248093;-0.40682983;0.67344666;-;-;-;-;-;-;-;-;-;-;-;-;-;-;-
1512468155653;-;-;9.147537;-0.33259583;0.7368927;-;-;-;-;-;-;-;-;-;-;-;-;-;-;-
1512468155674;-;-;9.145142;-0.37928772;0.7967529;-;-;-;-;-;-;-;-;-;-;-;-;-;-;-
1512468155694;-;-;9.189438;-0.44033813;0.7440796;-;-;-;-;-;-;-;-;-;-;-;-;-;-;-
1512468155715;-;-;9.21817;-0.5349121;0.7045746;-;-;-;-;-;-;-;-;-;-;-;-;-;-;-
1512468155735;-;-;9.263657;-0.48104858;0.6710663;-;-;-;-;-;-;-;-;-;-;-;-;-;-;-
1512468155756;-;-;9.212173;-0.43077087;0.6052246;-;-;-;-;-;-;-;-;-;-;-;-;-;-;-
1512468155775;-;-;9.239716;-0.32421875;0.57289124;-;-;-;-;-;-;-;-;-;-;-;-;-;-;-
1512468155795;-;-;9.254074;-0.289505;0.59324646;-;-;-;-;-;-;-;-;-;-;-;-;-;-;-
1512468155816;-;-;9.264847;-0.24520874;0.5764923;-;-;-;-;-;-;-;-;-;-;-;-;-;-;-
1512468155836;-;-;9.251678;-0.25239563;0.5693054;-;-;-;-;-;-;-;-;-;-;-;-;-;-;-
1512468155857;-;-;9.194229;-0.29908752;0.59085083;-;-;-;-;-;-;-;-;-;-;-;-;-;-;-
1512468155877;-;-;9.109222;-0.32901;0.63993835;-;-;-;-;-;-;-;-;-;-;-;-;-;-;-
1512468155897;-;-;9.15712;-0.35534668;0.7069702;-;-;-;-;-;-;-;-;-;-;-;-;-;-;-
1512468155918;-;-;9.21936;-0.36013794;0.65071106;-;-;-;-;-;-;-;-;-;-;-;-;-;-;-
1512468155938;-;-;9.246902;-0.40682983;0.6279602;-;-;-;-;-;-;-;-;-;-;-;-;-;-;-
1512468155959;-;-;9.248093;-0.39485168;0.58966064;-;-;-;-;-;-;-;-;-;-;-;-;-;-;-
1512468155979;-;-;9.225342;-0.33499146;0.55015564;-;-;-;-;-;-;-;-;-;-;-;-;-;-;-
1512468156000;-;-;9.187042;-0.28710938;0.47114563;-;-;-;-;-;-;-;-;-;-;-;-;-;-;-
1512468156020;-;-;9.179855;-0.21409607;0.4974823;-;-;-;-;-;-;-;-;-;-;-;-;-;-;-
1512468156041;-;-;9.194229;-0.2715454;0.55015564;-;-;-;-;-;-;-;-;-;-;-;-;-;-;-
1512468156061;-;-;9.182251;-0.3469696;0.6279602;-;-;-;-;-;-;-;-;-;-;-;-;-;-;-
1512468156082;-;-;9.15712;-0.33380127;0.6674652;-;-;-;-;-;-;-;-;-;-;-;-;-;-;-
1512468156102;-;-;9.179855;-0.29309082;0.72972107;-;-;-;-;-;-;-;-;-;-;-;-;-;-;-
1512468156123;-;-;9.222961;-0.25837708;0.6674652;-;-;-;-;-;-;-;-;-;-;-;-;-;-;-
1512468156143;-;-;9.209793;-0.18655396;0.71894836;-;-;-;-;-;-;-;-;-;-;-;-;-;-;-
1512468156163;-;-;9.305557;-0.28710938;0.69859314;-;-;-;-;-;-;-;-;-;-;-;-;-;-;-
1512468156184;-;-;9.220566;-0.36372375;0.70936584;-;-;-;-;-;-;-;-;-;-;-;-;-;-;-
1512468156204;-;-;9.233734;-0.35176086;0.6542969;-;-;-;-;-;-;-;-;-;-;-;-;-;-;-
1512468156225;-;-;9.206192;-0.36732483;0.5226135;-;-;-;-;-;-;-;-;-;-;-;-;-;-;-
1512468156244;-;-;9.202606;-0.43315125;0.563324;-;-;-;-;-;-;-;-;-;-;-;-;-;-;-
1512468156265;-;-;9.207397;-0.48942566;0.57888794;-;-;-;-;-;-;-;-;-;-;-;-;-;-;-
1512468156284;-;-;9.182251;-0.44154358;0.70098877;-;-;-;-;-;-;-;-;-;-;-;-;-;-;-
1512468156305;-;-;9.185837;-0.31584167;0.7428894;-;-;-;-;-;-;-;-;-;-;-;-;-;-;-
1512468156324;-;-;9.173874;-0.29071045;0.76683044;-;-;-;-;-;-;-;-;-;-;-;-;-;-;-
1512468156345;-;-;9.115219;-0.41160583;0.7249298;-;-;-;-;-;-;-;-;-;-;-;-;-;-;-
1512468156364;-;-;9.161896;-0.4954071;0.75845337;-;-;-;-;-;-;-;-;-;-;-;-;-;-;-
1512468156385;-;-;9.212173;-0.5456848;0.77879333;-;-;-;-;-;-;-;-;-;-;-;-;-;-;-
1512468156405;-;-;9.272034;-0.53730774;0.74528503;-;-;-;-;-;-;-;-;-;-;-;-;-;-;-
1512468156426;-;-;9.233734;-0.5253296;0.78479004;-;-;-;-;-;-;-;-;-;-;-;-;-;-;-
1512468156445;-;-;9.153519;-0.5349121;0.8482361;-;-;-;-;-;-;-;-;-;-;-;-;-;-;-
1512468156466;-;-;9.102051;-0.4918213;0.86380005;-;-;-;-;-;-;-;-;-;-;-;-;-;-;-
1512468156487;-;-;9.175064;-0.5049896;0.8338623;-;-;-;-;-;-;-;-;-;-;-;-;-;-;-
1512468156507;-;-;9.23732;-0.49661255;0.8829498;-;-;-;-;-;-;-;-;-;-;-;-;-;-;-
1512468156528;-;-;9.215775;-0.48223877;0.78479004;-;-;-;-;-;-;-;-;-;-;-;-;-;-;-
1512468156548;-;-;9.212173;-0.46548462;0.7752075;-;-;-;-;-;-;-;-;-;-;-;-;-;-;-
1512468156569;-;-;9.188232;-0.44752502;0.69140625;-;-;-;-;-;-;-;-;-;-;-;-;-;-;-
1512468156589;-;-;9.210983;-0.3469696;0.765625;-;-;-;-;-;-;-;-;-;-;-;-;-;-;-
1512468156610;-;-;9.285202;-0.3433838;0.78837585;-;-;-;-;-;-;-;-;-;-;-;-;-;-;-
1512468156630;-;-;9.246902;-0.4547119;0.78118896;-;-;-;-;-;-;-;-;-;-;-;-;-;-;-
1512468156651;-;-;9.147537;-0.4954071;0.8518219;-;-;-;-;-;-;-;-;-;-;-;-;-;-;-
1512468156670;-;-;9.227737;-0.49301147;0.76683044;-;-;-;-;-;-;-;-;-;-;-;-;-;-;-
1512468156690;-;-;9.233734;-0.46427917;0.79196167;-;-;-;-;-;-;-;-;-;-;-;-;-;-;-
1512468156711;-;-;9.230133;-0.4259796;0.8721771;-;-;-;-;-;-;-;-;-;-;-;-;-;-;-
1512468156731;-;-;9.165497;-0.43196106;0.86738586;-;-;-;-;-;-;-;-;-;-;-;-;-;-;-
1512468156752;-;-;9.171478;-0.37091064;0.9427948;-;-;-;-;-;-;-;-;-;-;-;-;-;-;-
1512468156771;-;-;9.188232;-0.3577423;0.98350525;-;-;-;-;-;-;-;-;-;-;-;-;-;-;-
1512468156791;-;-;9.160706;-0.31704712;0.99069214;-;-;-;-;-;-;-;-;-;-;-;-;-;-;-
1512468156812;-;-;9.130783;-0.27633667;0.86499023;-;-;-;-;-;-;-;-;-;-;-;-;-;-;-
1512468156832;-;-;9.165497;-0.19613647;0.8518219;-;-;-;-;-;-;-;-;-;-;-;-;-;-;-
1512468156853;-;-;9.212173;-0.12908936;0.8230896;-;-;-;-;-;-;-;-;-;-;-;-;-;-;-
1512468156872;-;-;9.187042;-0.13748169;0.75605774;-;-;-;-;-;-;-;-;-;-;-;-;-;-;-
1512468156893;-;-;9.17627;-0.14944458;0.76683044;-;-;-;-;-;-;-;-;-;-;-;-;-;-;-
1512468156913;-;-;9.167892;-0.20570374;0.80513;-;-;-;-;-;-;-;-;-;-;-;-;-;-;-
1512468156934;-;-;9.151123;-0.23443604;0.8661804;-;-;-;-;-;-;-;-;-;-;-;-;-;-;-
1512468156954;-;-;9.228943;-0.23443604;0.8542175;-;-;-;-;-;-;-;-;-;-;-;-;-;-;-
1512468156974;-;-;9.194229;-0.16859436;0.85780334;-;-;-;-;-;-;-;-;-;-;-;-;-;-;-
1512468156995;-;-;9.160706;-0.08958435;0.8518219;-;-;-;-;-;-;-;-;-;-;-;-;-;-;-
1512468157015;-;-;9.185837;-0.018966675;0.8554077;-;-;-;-;-;-;-;-;-;-;-;-;-;-;-
1512468157036;-;-;9.146347;0.06124878;0.90808105;-;-;-;-;-;-;-;-;-;-;-;-;-;-;-
1512468157056;-;-;9.147537;0.03730774;0.9116821;-;-;-;-;-;-;-;-;-;-;-;-;-;-;-
1512468157077;-;-;9.099655;0.024139404;0.91407776;-;-;-;-;-;-;-;-;-;-;-;-;-;-;-
1512468157097;-;-;9.12001;0.010971069;0.89611816;-;-;-;-;-;-;-;-;-;-;-;-;-;-;-
1512468157118;-;-;9.110428;-0.00819397;0.9020996;-;-;-;-;-;-;-;-;-;-;-;-;-;-;-
1512468157138;-;-;9.146347;-0.04170227;0.93322754;-;-;-;-;-;-;-;-;-;-;-;-;-;-;-
1512468157158;-;-;9.245697;-0.011779785;0.91645813;-;-;-;-;-;-;-;-;-;-;-;-;-;-;-
1512468157179;-;-;9.205002;-0.117126465;0.84942627;-;-;-;-;-;-;-;-;-;-;-;-;-;-;-
1512468157199;-;-;9.208588;-0.17098999;0.8326721;-;-;-;-;-;-;-;-;-;-;-;-;-;-;-
1512468157220;-;-;9.262466;-0.24760437;0.75964355;-;-;-;-;-;-;-;-;-;-;-;-;-;-;-
1512468157240;-;-;9.194229;-0.2392273;0.8302765;-;-;-;-;-;-;-;-;-;-;-;-;-;-;-
1512468157261;-;-;9.130783;-0.2272644;0.80513;-;-;-;-;-;-;-;-;-;-;-;-;-;-;-
1512468157282;-;-;9.110428;-0.1530304;0.83984375;-;-;-;-;-;-;-;-;-;-;-;-;-;-;-
1512468157302;-;-;9.142746;-0.05128479;0.86499023;-;-;-;-;-;-;-;-;-;-;-;-;-;-;-
1512468157323;-;-;9.153519;-0.012969971;0.9404144;-;-;-;-;-;-;-;-;-;-;-;-;-;-;-
1512468157343;-;-;9.189438;-0.033325195;0.95118713;-;-;-;-;-;-;-;-;-;-;-;-;-;-;-
1512468157364;-;-;9.214569;-0.11352539;1.0313873;-;-;-;-;-;-;-;-;-;-;-;-;-;-;-
1512468157384;-;-;9.23613;-0.20570374;1.0864563;-;-;-;-;-;-;-;-;-;-;-;-;-;-;-
1512468157405;-;-;9.15831;-0.22007751;1.176239;-;-;-;-;-;-;-;-;-;-;-;-;-;-;-
1512468157425;-;-;9.087677;-0.1590271;1.2217255;-;-;-;-;-;-;-;-;-;-;-;-;-;-;-
1512468157445;-;-;9.033813;-0.035720825;1.2528534;-;-;-;-;-;-;-;-;-;-;-;-;-;-;-
1512468157466;-;-;8.951218;0.064834595;1.3402405;-;-;-;-;-;-;-;-;-;-;-;-;-;-;-
1512468157487;-;-;8.946426;0.05645752;1.3198853;-;-;-;-;-;-;-;-;-;-;-;-;-;-;-
1512468157507;-;-;8.951218;-0.02015686;1.3617859;-;-;-;-;-;-;-;-;-;-;-;-;-;-;-
1512468157528;-;-;9.171478;-0.1530304;1.4240417;-;-;-;-;-;-;-;-;-;-;-;-;-;-;-
1512468157548;-;-;9.322311;-0.29190063;1.413269;-;-;-;-;-;-;-;-;-;-;-;-;-;-;-
1512468157569;-;-;9.0972595;-0.4056244;1.4120636;-;-;-;-;-;-;-;-;-;-;-;-;-;-;-
1512468157588;-;-;9.0577545;-0.43077087;1.3330536;-;-;-;-;-;-;-;-;-;-;-;-;-;-;-
1512468157609;-;-;9.12001;-0.44033813;1.291153;-;-;-;-;-;-;-;-;-;-;-;-;-;-;-
1512468157628;-;-;9.129578;-0.463089;1.4324188;-;-;-;-;-;-;-;-;-;-;-;-;-;-;-
1512468157648;-;-;9.359421;-0.59716797;1.4144592;-;-;-;-;-;-;-;-;-;-;-;-;-;-;-
1512468157669;-;-;9.0733185;-0.59117126;0.7692261;-;-;-;-;-;-;-;-;-;-;-;-;-;-;-
1512468157689;-;-;8.76207;-0.28710938;0.5010681;-;-;-;-;-;-;-;-;-;-;-;-;-;-;-
1512468157710;-;-;8.98114;-0.37809753;0.21257019;-;-;-;-;-;-;-;-;-;-;-;-;-;-;-
1512468157731;-;-;9.437241;-0.6701813;0.28918457;-;-;-;-;-;-;-;-;-;-;-;-;-;-;-
1512468157751;-;-;9.518631;-0.62709045;0.686615;-;-;-;-;-;-;-;-;-;-;-;-;-;-;-
1512468157772;-;-;9.163101;-0.25598145;0.67944336;-;-;-;-;-;-;-;-;-;-;-;-;-;-;-
1512468157792;-;-;9.0577545;-0.030929565;0.77760315;-;-;-;-;-;-;-;-;-;-;-;-;-;-;-
1512468157812;-;-;9.043396;0.13546753;0.8087311;-;-;-;-;-;-;-;-;-;-;-;-;-;-;-
1512468157833;-;-;9.163101;-0.0069885254;0.6255646;-;-;-;-;-;-;-;-;-;-;-;-;-;-;-
1512468157854;-;-;9.145142;-0.15065002;0.79914856;-;-;-;-;-;-;-;-;-;-;-;-;-;-;-
1512468157873;-;-;9.068527;-0.25120544;1.033783;-;-;-;-;-;-;-;-;-;-;-;-;-;-;-
1512468157894;-;-;9.039795;-0.19013977;1.2372894;-;-;-;-;-;-;-;-;-;-;-;-;-;-;-
1512468157914;-;-;9.114014;-0.06086731;1.0661011;-;-;-;-;-;-;-;-;-;-;-;-;-;-;-
1512468157935;-;-;9.159515;0.10673523;1.0553284;-;-;-;-;-;-;-;-;-;-;-;-;-;-;-
1512468157954;-;-;9.367798;0.1618042;1.2767944;-;-;-;-;-;-;-;-;-;-;-;-;-;-;-
1512468157974;-;-;9.448013;-0.17338562;1.2241211;-;-;-;-;-;-;-;-;-;-;-;-;-;-;-
1512468157995;-;-;9.402527;-0.31344604;1.0768738;-;-;-;-;-;-;-;-;-;-;-;-;-;-;-
1512468158015;-;-;9.458786;-0.43196106;0.9272461;-;-;-;-;-;-;-;-;-;-;-;-;-;-;-
1512468158036;-;-;9.329498;-0.26437378;0.54776;-;-;-;-;-;-;-;-;-;-;-;-;-;-;-
1512468158056;-;-;9.254074;-0.08241272;0.48550415;-;-;-;-;-;-;-;-;-;-;-;-;-;-;-
1512468158077;-;-;9.239716;0.0037841797;0.09286499;-;-;-;-;-;-;-;-;-;-;-;-;-;-;-
1512468158097;-;-;9.337875;-0.012969971;-0.28303528;-;-;-;-;-;-;-;-;-;-;-;-;-;-;-
1512468158118;-;-;9.622787;0.079193115;-0.3153534;-;-;-;-;-;-;-;-;-;-;-;-;-;-;-
1512468158137;-;-;9.153519;-0.13867188;-0.25549316;-;-;-;-;-;-;-;-;-;-;-;-;-;-;-
1512468158158;-;-;9.288788;-0.3757019;0.15870667;-;-;-;-;-;-;-;-;-;-;-;-;-;-;-
1512468158179;-;-;9.264847;-0.1877594;-0.15254211;-;-;-;-;-;-;-;-;-;-;-;-;-;-;-
1512468158199;-;-;9.165497;-0.66778564;0.65789795;-;-;-;-;-;-;-;-;-;-;-;-;-;-;-
1512468158220;-;-;9.81073;-0.7024994;0.6926117;-;-;-;-;-;-;-;-;-;-;-;-;-;-;-
1512468158240;-;-;9.374985;-0.03453064;-0.09867859;-;-;-;-;-;-;-;-;-;-;-;-;-;-;-
1512468158260;-;-;9.137955;0.20489502;0.27122498;-;-;-;-;-;-;-;-;-;-;-;-;-;-;-
1512468158281;-;-;9.742493;0.7028961;-0.3835907;-;-;-;-;-;-;-;-;-;-;-;-;-;-;-
1512468158301;-;-;9.453995;1.0787811;-0.9941101;-;-;-;-;-;-;-;-;-;-;-;-;-;-;-
1512468158322;-;-;9.267242;0.6741638;-0.14775085;-;-;-;-;-;-;-;-;-;-;-;-;-;-;-
1512468158341;-;-;9.123596;0.26475525;0.22813416;-;-;-;-;-;-;-;-;-;-;-;-;-;-;-
1512468158362;-;-;9.580887;-0.01776123;0.7979584;-;-;-;-;-;-;-;-;-;-;-;-;-;-;-
1512468158381;-;-;9.301956;0.06364441;0.6938019;-;-;-;-;-;-;-;-;-;-;-;-;-;-;-
1512468158402;-;-;9.638351;-0.14346313;1.3222809;-;-;-;-;-;-;-;-;-;-;-;-;-;-;-
1512468158421;-;-;8.876999;0.040893555;1.2636261;-;-;-;-;-;-;-;-;-;-;-;-;-;-;-
1512468158441;-;-;8.588486;-0.0045928955;0.7752075;-;-;-;-;-;-;-;-;-;-;-;-;-;-;-
1512468158462;-;-;9.039795;0.15701294;1.0984192;-;-;-;-;-;-;-;-;-;-;-;-;-;-;-
1512468158482;-;-;9.518631;-0.28471375;1.2959442;-;-;-;-;-;-;-;-;-;-;-;-;-;-;-
1512468158503;-;-;9.14035;-0.22486877;1.212143;-;-;-;-;-;-;-;-;-;-;-;-;-;-;-
1512468158523;-;-;9.266052;-0.37809753;0.99427795;-;-;-;-;-;-;-;-;-;-;-;-;-;-;-
1512468158544;-;-;9.25528;-0.30148315;1.6802216;-;-;-;-;-;-;-;-;-;-;-;-;-;-;-
1512468158565;-;-;9.197815;0.2132721;1.3809357;-;-;-;-;-;-;-;-;-;-;-;-;-;-;-
1512468158584;-;-;9.252884;0.09954834;1.6658478;-;-;-;-;-;-;-;-;-;-;-;-;-;-;-
1512468158605;-;-;9.181061;0.47305298;1.4599457;-;-;-;-;-;-;-;-;-;-;-;-;-;-;-
1512468158625;-;-;9.467163;0.21447754;1.3665771;-;-;-;-;-;-;-;-;-;-;-;-;-;-;-
1512468158646;-;-;8.965576;0.4371338;0.71055603;-;-;-;-;-;-;-;-;-;-;-;-;-;-;-
1512468158665;-;-;8.955994;0.19770813;1.1103973;-;-;-;-;-;-;-;-;-;-;-;-;-;-;-
1512468158686;-;-;8.92009;0.20489502;1.6299438;-;-;-;-;-;-;-;-;-;-;-;-;-;-;-
1512468158706;-;-;8.571732;-0.46069336;1.9794922;-;-;-;-;-;-;-;-;-;-;-;-;-;-;-
1512468158727;-;-;8.666306;-0.58639526;2.18779;-;-;-;-;-;-;-;-;-;-;-;-;-;-;-
1512468158747;-;-;8.46759;-0.47027588;2.0596924;-;-;-;-;-;-;-;-;-;-;-;-;-;-;-
1512468158768;-;-;8.880585;-0.2679596;1.6239471;-;-;-;-;-;-;-;-;-;-;-;-;-;-;-
1512468158788;-;-;9.49469;0.45988464;1.7113342;-;-;-;-;-;-;-;-;-;-;-;-;-;-;-
1512468158809;-;-;9.55455;0.93392944;2.0130157;-;-;-;-;-;-;-;-;-;-;-;-;-;-;-
1512468158829;-;-;9.473145;0.6274719;2.070465;-;-;-;-;-;-;-;-;-;-;-;-;-;-;-
1512468158850;-;-;8.875793;0.16419983;2.2404633;-;-;-;-;-;-;-;-;-;-;-;-;-;-;-
1512468158871;-;-;8.353867;-0.085998535;2.7815552;-;-;-;-;-;-;-;-;-;-;-;-;-;-;-
1512468158891;-;-;8.003113;-0.24880981;3.0963898;-;-;-;-;-;-;-;-;-;-;-;-;-;-;-
1512468158912;-;-;7.9983215;-0.43675232;3.0688477;-;-;-;-;-;-;-;-;-;-;-;-;-;-;-
1512468158932;-;-;8.280838;-0.29190063;3.1203308;-;-;-;-;-;-;-;-;-;-;-;-;-;-;-
1512468158953;-;-;8.593277;-0.124313354;3.0951843;-;-;-;-;-;-;-;-;-;-;-;-;-;-;-
1512468158973;-;-;8.739319;0.067230225;2.9263916;-;-;-;-;-;-;-;-;-;-;-;-;-;-;-
1512468158993;-;-;8.796783;0.2132721;2.6917725;-;-;-;-;-;-;-;-;-;-;-;-;-;-;-
1512468159014;-;-;9.153519;0.15940857;2.896469;-;-;-;-;-;-;-;-;-;-;-;-;-;-;-
1512468159034;-;-;9.264847;0.02293396;2.9718933;-;-;-;-;-;-;-;-;-;-;-;-;-;-;-
1512468159055;-;-;8.917694;-0.114730835;3.208908;-;-;-;-;-;-;-;-;-;-;-;-;-;-;-
1512468159075;-;-;8.334702;-0.2715454;3.4591064;-;-;-;-;-;-;-;-;-;-;-;-;-;-;-
1512468159096;-;-;8.311966;-0.4559021;3.5261383;-;-;-;-;-;-;-;-;-;-;-;-;-;-;-
1512468159116;-;-;8.638763;-0.5169525;3.406433;-;-;-;-;-;-;-;-;-;-;-;-;-;-;-
1512468159137;-;-;8.736938;-0.45350647;3.350174;-;-;-;-;-;-;-;-;-;-;-;-;-;-;-
1512468159157;-;-;8.562149;-0.37210083;3.532135;-;-;-;-;-;-;-;-;-;-;-;-;-;-;-
1512468159178;-;-;8.424484;-0.42358398;3.7045135;-;-;-;-;-;-;-;-;-;-;-;-;-;-;-
1512468159198;-;-;8.613632;-0.40802002;3.718872;-;-;-;-;-;-;-;-;-;-;-;-;-;-;-
1512468159219;-;-;8.666306;-0.3984375;3.5417023;-;-;-;-;-;-;-;-;-;-;-;-;-;-;-
1512468159239;-;-;8.673492;-0.37210083;3.4758606;-;-;-;-;-;-;-;-;-;-;-;-;-;-;-
1512468159259;-;-;8.568146;-0.3876648;3.3992462;-;-;-;-;-;-;-;-;-;-;-;-;-;-;-
1512468159280;-;-;8.538208;-0.5037842;3.449524;-;-;-;-;-;-;-;-;-;-;-;-;-;-;-
1512468159299;-;-;8.461594;-0.46188354;3.5034027;-;-;-;-;-;-;-;-;-;-;-;-;-;-;-
1512468159320;-;-;8.548981;-0.36611938;3.4914246;-;-;-;-;-;-;-;-;-;-;-;-;-;-;-
1512468159340;-;-;8.691437;-0.39485168;3.386078;-;-;-;-;-;-;-;-;-;-;-;-;-;-;-
1512468159361;-;-;8.620819;-0.4559021;3.4710846;-;-;-;-;-;-;-;-;-;-;-;-;-;-;-
1512468159381;-;-;8.531036;-0.47027588;3.5429077;-;-;-;-;-;-;-;-;-;-;-;-;-;-;-
1512468159401;-;-;8.393356;-0.48104858;3.5464935;-;-;-;-;-;-;-;-;-;-;-;-;-;-;-
1512468159422;-;-;8.460403;-0.4547119;3.6410675;-;-;-;-;-;-;-;-;-;-;-;-;-;-;-
1512468159442;-;-;8.496307;-0.4271698;3.7332458;-;-;-;-;-;-;-;-;-;-;-;-;-;-;-
1512468159463;-;-;8.534622;-0.40682983;3.6638184;-;-;-;-;-;-;-;-;-;-;-;-;-;-;-
1512468159484;-;-;8.503494;-0.37809753;3.7691498;-;-;-;-;-;-;-;-;-;-;-;-;-;-;-
1512468159504;-;-;8.440048;-0.27035522;3.753601;-;-;-;-;-;-;-;-;-;-;-;-;-;-;-
1512468159525;-;-;8.515472;-0.23085022;3.6171265;-;-;-;-;-;-;-;-;-;-;-;-;-;-;-
1512468159545;-;-;8.521454;-0.26914978;3.623108;-;-;-;-;-;-;-;-;-;-;-;-;-;-;-
1512468159566;-;-;8.58371;-0.2966919;3.655426;-;-;-;-;-;-;-;-;-;-;-;-;-;-;-
1512468159586;-;-;8.562149;-0.3864746;3.7595825;-;-;-;-;-;-;-;-;-;-;-;-;-;-;-
1512468159607;-;-;8.526245;-0.41160583;3.6386719;-;-;-;-;-;-;-;-;-;-;-;-;-;-;-
1512468159627;-;-;8.430481;-0.55166626;3.6542358;-;-;-;-;-;-;-;-;-;-;-;-;-;-;-
1512468159648;-;-;8.364639;-0.56604004;3.6661987;-;-;-;-;-;-;-;-;-;-;-;-;-;-;-
1512468159668;-;-;8.4687805;-0.5217438;3.6386719;-;-;-;-;-;-;-;-;-;-;-;-;-;-;-
1512468159688;-;-;8.550186;-0.42477417;3.7069092;-;-;-;-;-;-;-;-;-;-;-;-;-;-;-
1512468159709;-;-;8.6818695;-0.32302856;3.6207123;-;-;-;-;-;-;-;-;-;-;-;-;-;-;-
1512468159729;-;-;8.732147;-0.29190063;3.4674835;-;-;-;-;-;-;-;-;-;-;-;-;-;-;-
1512468159750;-;-;8.557373;-0.32421875;3.587204;-;-;-;-;-;-;-;-;-;-;-;-;-;-;-
1512468159771;-;-;8.414917;-0.40203857;3.65065;-;-;-;-;-;-;-;-;-;-;-;-;-;-;-
1512468159790;-;-;8.44603;-0.44154358;3.7763367;-;-;-;-;-;-;-;-;-;-;-;-;-;-;-
1512468159810;-;-;8.411316;-0.5241394;3.8002777;-;-;-;-;-;-;-;-;-;-;-;-;-;-;-
1512468159831;-;-;8.483139;-0.55766296;3.6446533;-;-;-;-;-;-;-;-;-;-;-;-;-;-;-
1512468159851;-;-;8.560959;-0.5827942;3.6099396;-;-;-;-;-;-;-;-;-;-;-;-;-;-;-
1512468159872;-;-;8.545395;-0.54927063;3.5632477;-;-;-;-;-;-;-;-;-;-;-;-;-;-;-
1512468159893;-;-;8.648346;-0.49780273;3.5345306;-;-;-;-;-;-;-;-;-;-;-;-;-;-;-
1512468159913;-;-;8.701019;-0.45350647;3.5596619;-;-;-;-;-;-;-;-;-;-;-;-;-;-;-
1512468159933;-;-;8.655533;-0.43315125;3.6219177;-;-;-;-;-;-;-;-;-;-;-;-;-;-;-
1512468159953;-;-;8.657928;-0.45231628;3.6482544;-;-;-;-;-;-;-;-;-;-;-;-;-;-;-
1512468159974;-;-;8.667496;-0.41999817;3.6482544;-;-;-;-;-;-;-;-;-;-;-;-;-;-;-
1512468159994;-;-;8.572922;-0.29071045;3.444748;-;-;-;-;-;-;-;-;-;-;-;-;-;-;-
1512468160015;-;-;8.562149;-0.25239563;3.4662933;-;-;-;-;-;-;-;-;-;-;-;-;-;-;-
1512468160035;-;-;8.322739;-0.3254242;3.5488892;-;-;-;-;-;-;-;-;-;-;-;-;-;-;-
1512468160055;-;-;8.164719;-0.32661438;3.3813019;-;-;-;-;-;-;-;-;-;-;-;-;-;-;-
1512468160075;-;-;8.343079;-0.19013977;3.4986115;-;-;-;-;-;-;-;-;-;-;-;-;-;-;-
1512468160096;-;-;8.620819;0.028915405;3.6219177;-;-;-;-;-;-;-;-;-;-;-;-;-;-;-
1512468160116;-;-;8.813553;-0.03691101;3.5728302;-;-;-;-;-;-;-;-;-;-;-;-;-;-;-
1512468160137;-;-;8.836288;-0.3757019;3.5632477;-;-;-;-;-;-;-;-;-;-;-;-;-;-;-
1512468160157;-;-;8.588486;-0.55166626;3.7523956;-;-;-;-;-;-;-;-;-;-;-;-;-;-;-
1512468160177;-;-;8.2114105;-0.46548462;3.8649292;-;-;-;-;-;-;-;-;-;-;-;-;-;-;-
1512468160198;-;-;8.158737;-0.35295105;4.003784;-;-;-;-;-;-;-;-;-;-;-;-;-;-;-
1512468160218;-;-;8.298798;-0.38049316;3.9654846;-;-;-;-;-;-;-;-;-;-;-;-;-;-;-
1512468160239;-;-;8.375412;-0.50019836;3.9247742;-;-;-;-;-;-;-;-;-;-;-;-;-;-;-
1512468160259;-;-;8.498703;-0.49661255;3.978653;-;-;-;-;-;-;-;-;-;-;-;-;-;-;-
1512468160279;-;-;8.522644;-0.42956543;3.9846344;-;-;-;-;-;-;-;-;-;-;-;-;-;-;-
1512468160300;-;-;8.420898;-0.29429626;3.9092102;-;-;-;-;-;-;-;-;-;-;-;-;-;-;-
1512468160320;-;-;8.321533;-0.17219543;3.9582977;-;-;-;-;-;-;-;-;-;-;-;-;-;-;-
1512468160341;-;-;8.368225;-0.27394104;4.021744;-;-;-;-;-;-;-;-;-;-;-;-;-;-;-
1512468160361;-;-;8.471176;-0.45231628;3.9331665;-;-;-;-;-;-;-;-;-;-;-;-;-;-;-
1512468160381;-;-;8.430481;-0.39604187;4.0516663;-;-;-;-;-;-;-;-;-;-;-;-;-;-;-
1512468160402;-;-;8.314362;-0.2966919;4.168991;-;-;-;-;-;-;-;-;-;-;-;-;-;-;-
1512468160422;-;-;8.24852;-0.24281311;4.027725;-;-;-;-;-;-;-;-;-;-;-;-;-;-;-
1512468160443;-;-;8.18985;-0.2272644;3.9499207;-;-;-;-;-;-;-;-;-;-;-;-;-;-;-
1512468160463;-;-;8.195847;-0.27394104;4.0923767;-;-;-;-;-;-;-;-;-;-;-;-;-;-;-
1512468160483;-;-;8.326324;-0.33140564;4.1318817;-;-;-;-;-;-;-;-;-;-;-;-;-;-;-
1512468160504;-;-;8.392166;-0.29429626;4.160614;-;-;-;-;-;-;-;-;-;-;-;-;-;-;-
1512468160524;-;-;8.279633;-0.17578125;4.1857452;-;-;-;-;-;-;-;-;-;-;-;-;-;-;-
1512468160545;-;-;8.226959;-0.18057251;4.239624;-;-;-;-;-;-;-;-;-;-;-;-;-;-;-
1512468160564;-;-;8.204224;-0.19374084;4.2312317;-;-;-;-;-;-;-;-;-;-;-;-;-;-;-
1512468160585;-;-;8.264084;-0.24043274;4.1977234;-;-;-;-;-;-;-;-;-;-;-;-;-;-;-
1512468160605;-;-;8.284424;-0.066848755;4.140259;-;-;-;-;-;-;-;-;-;-;-;-;-;-;-
1512468160626;-;-;8.222183;0.031311035;4.14624;-;-;-;-;-;-;-;-;-;-;-;-;-;-;-
1512468160646;-;-;8.277252;-0.114730835;4.30307;-;-;-;-;-;-;-;-;-;-;-;-;-;-;-
1512468160667;-;-;8.26886;-0.33380127;4.342575;-;-;-;-;-;-;-;-;-;-;-;-;-;-;-
1512468160687;-;-;8.323929;-0.47625732;4.311447;-;-;-;-;-;-;-;-;-;-;-;-;-;-;-
1512468160708;-;-;8.349075;-0.45231628;4.2180634;-;-;-;-;-;-;-;-;-;-;-;-;-;-;-
1512468160729;-;-;8.307175;-0.2799225;4.106735;-;-;-;-;-;-;-;-;-;-;-;-;-;-;-
1512468160749;-;-;8.139572;-0.112335205;4.0887756;-;-;-;-;-;-;-;-;-;-;-;-;-;-;-
1512468160769;-;-;8.15155;0.008575439;4.315033;-;-;-;-;-;-;-;-;-;-;-;-;-;-;-
1512468160790;-;-;8.276047;-0.32781982;4.671768;-;-;-;-;-;-;-;-;-;-;-;-;-;-;-
1512468160810;-;-;8.413712;-0.3972473;4.7052917;-;-;-;-;-;-;-;-;-;-;-;-;-;-;-
1512468160831;-;-;8.537018;-0.27633667;4.4227753;-;-;-;-;-;-;-;-;-;-;-;-;-;-;-
1512468160852;-;-;8.459198;-0.038116455;4.1546173;-;-;-;-;-;-;-;-;-;-;-;-;-;-;-
1512468160872;-;-;8.179077;-0.016571045;4.3688965;-;-;-;-;-;-;-;-;-;-;-;-;-;-;-
1512468160892;-;-;8.119232;-0.107543945;4.592758;-;-;-;-;-;-;-;-;-;-;-;-;-;-;-
1512468160913;-;-;8.095291;-0.12550354;4.7483826;-;-;-;-;-;-;-;-;-;-;-;-;-;-;-
1512468160933;-;-;8.086899;-0.16142273;4.662201;-;-;-;-;-;-;-;-;-;-;-;-;-;-;-
1512468160954;-;-;8.195847;-0.19493103;4.513748;-;-;-;-;-;-;-;-;-;-;-;-;-;-;-
1512468160975;-;-;8.220978;-0.14465332;4.4072113;-;-;-;-;-;-;-;-;-;-;-;-;-;-;-
1512468160995;-;-;8.039017;0.08279419;4.489807;-;-;-;-;-;-;-;-;-;-;-;-;-;-;-
1512468161015;-;-;7.99234;0.06602478;4.823807;-;-;-;-;-;-;-;-;-;-;-;-;-;-;-
1512468161036;-;-;7.944458;-0.1769867;4.924362;-;-;-;-;-;-;-;-;-;-;-;-;-;-;-
1512468161056;-;-;8.010284;-0.33021545;4.9231567;-;-;-;-;-;-;-;-;-;-;-;-;-;-;-
1512468161077;-;-;8.200638;-0.2320404;4.8118286;-;-;-;-;-;-;-;-;-;-;-;-;-;-;-
1512468161096;-;-;8.295197;0.06124878;4.7962646;-;-;-;-;-;-;-;-;-;-;-;-;-;-;-
1512468161117;-;-;8.064163;0.15342712;4.7364197;-;-;-;-;-;-;-;-;-;-;-;-;-;-;-
1512468161137;-;-;7.635605;-0.062057495;4.8657074;-;-;-;-;-;-;-;-;-;-;-;-;-;-;-
1512468161158;-;-;7.1471863;-0.38287354;5.228424;-;-;-;-;-;-;-;-;-;-;-;-;-;-;-
1512468161178;-;-;6.932907;-0.4152069;5.259552;-;-;-;-;-;-;-;-;-;-;-;-;-;-;-
1512468161199;-;-;6.967621;-0.3182373;5.1518097;-;-;-;-;-;-;-;-;-;-;-;-;-;-;-
1512468161219;-;-;7.1806946;-0.20211792;5.3050385;-;-;-;-;-;-;-;-;-;-;-;-;-;-;-
1512468161240;-;-;7.3901978;-0.18415833;5.3996124;-;-;-;-;-;-;-;-;-;-;-;-;-;-;-
1512468161261;-;-;7.446457;-0.12071228;5.362503;-;-;-;-;-;-;-;-;-;-;-;-;-;-;-
1512468161281;-;-;7.487152;-0.06803894;5.362503;-;-;-;-;-;-;-;-;-;-;-;-;-;-;-
1512468161302;-;-;7.6763;0.26235962;5.386444;-;-;-;-;-;-;-;-;-;-;-;-;-;-;-
1512468161322;-;-;7.77446;0.46826172;5.571991;-;-;-;-;-;-;-;-;-;-;-;-;-;-;-
1512468161343;-;-;7.7361603;0.42636108;5.709656;-;-;-;-;-;-;-;-;-;-;-;-;-;-;-
1512468161363;-;-;7.4656067;-0.0105896;5.3756714;-;-;-;-;-;-;-;-;-;-;-;-;-;-;-
1512468161383;-;-;7.399765;-0.36013794;5.0596313;-;-;-;-;-;-;-;-;-;-;-;-;-;-;-
1512468161403;-;-;7.4680023;-0.2571869;4.888443;-;-;-;-;-;-;-;-;-;-;-;-;-;-;-
1512468161424;-;-;7.387802;-0.0021972656;5.199692;-;-;-;-;-;-;-;-;-;-;-;-;-;-;-
1512468161445;-;-;7.348297;0.1725769;5.156601;-;-;-;-;-;-;-;-;-;-;-;-;-;-;-
1512468161464;-;-;7.2022552;0.16897583;5.2427826;-;-;-;-;-;-;-;-;-;-;-;-;-;-;-
1512468161485;-;-;7.126831;0.03970337;5.2415924;-;-;-;-;-;-;-;-;-;-;-;-;-;-;-
1512468161504;-;-;7.1651306;-0.02255249;5.2487793;-;-;-;-;-;-;-;-;-;-;-;-;-;-;-
1512468161525;-;-;7.4297028;0.086380005;5.3301697;-;-;-;-;-;-;-;-;-;-;-;-;-;-;-
1512468161546;-;-;8.070145;0.1043396;5.580368;-;-;-;-;-;-;-;-;-;-;-;-;-;-;-
1512468161566;-;-;8.633987;0.3138275;5.544464;-;-;-;-;-;-;-;-;-;-;-;-;-;-;-
1512468161586;-;-;8.544205;0.17018127;5.1757507;-;-;-;-;-;-;-;-;-;-;-;-;-;-;-
1512468161606;-;-;8.048599;-0.009384155;5.034485;-;-;-;-;-;-;-;-;-;-;-;-;-;-;-
1512468161627;-;-;7.588913;-0.21768188;5.1985016;-;-;-;-;-;-;-;-;-;-;-;-;-;-;-
1512468161648;-;-;7.2118225;-0.41400146;5.406784;-;-;-;-;-;-;-;-;-;-;-;-;-;-;-
1512468161667;-;-;7.320755;-0.4666748;5.3996124;-;-;-;-;-;-;-;-;-;-;-;-;-;-;-
1512468161688;-;-;7.6343994;-0.47146606;5.3876343;-;-;-;-;-;-;-;-;-;-;-;-;-;-;-
1512468161708;-;-;7.91333;-0.36611938;5.4163666;-;-;-;-;-;-;-;-;-;-;-;-;-;-;-
1512468161729;-;-;7.8163605;-0.30506897;5.6067047;-;-;-;-;-;-;-;-;-;-;-;-;-;-;-
1512468161748;-;-;7.6343994;-0.26197815;5.642624;-;-;-;-;-;-;-;-;-;-;-;-;-;-;-
1512468161769;-;-;7.508713;-0.19493103;5.5504456;-;-;-;-;-;-;-;-;-;-;-;-;-;-;-
1512468161789;-;-;7.3183746;-0.17219543;5.494171;-;-;-;-;-;-;-;-;-;-;-;-;-;-;-
1512468161810;-;-;7.327942;-0.16500854;5.458267;-;-;-;-;-;-;-;-;-;-;-;-;-;-;-
1512468161831;-;-;7.502716;-0.18536377;5.3888397;-;-;-;-;-;-;-;-;-;-;-;-;-;-;-
1512468161851;-;-;7.7577057;-0.097976685;5.1949005;-;-;-;-;-;-;-;-;-;-;-;-;-;-;-
1512468161872;-;-;7.7517242;-0.095581055;5.2774963;-;-;-;-;-;-;-;-;-;-;-;-;-;-;-
1512468161892;-;-;7.6463776;-0.17098999;5.3253937;-;-;-;-;-;-;-;-;-;-;-;-;-;-;-
1512468161913;-;-;7.514694;-0.25360107;5.3493347;-;-;-;-;-;-;-;-;-;-;-;-;-;-;-
1512468161933;-;-;7.4644165;-0.3086548;5.3648987;-;-;-;-;-;-;-;-;-;-;-;-;-;-;-
1512468161954;-;-;7.5913086;-0.2320404;5.3960114;-;-;-;-;-;-;-;-;-;-;-;-;-;-;-
1512468161974;-;-;7.6475677;-0.20690918;5.3014526;-;-;-;-;-;-;-;-;-;-;-;-;-;-;-
1512468161995;-;-;7.6655273;-0.28831482;5.247574;-;-;-;-;-;-;-;-;-;-;-;-;-;-;-
1512468162015;-;-;7.748123;-0.30267334;5.1853333;-;-;-;-;-;-;-;-;-;-;-;-;-;-;-
1512468162036;-;-;7.7361603;-0.29908752;5.1194916;-;-;-;-;-;-;-;-;-;-;-;-;-;-;-
1512468162057;-;-;7.719391;-0.28710938;5.0524445;-;-;-;-;-;-;-;-;-;-;-;-;-;-;-
1512468162077;-;-;7.636795;-0.1302948;5.3217926;-;-;-;-;-;-;-;-;-;-;-;-;-;-;-
1512468162098;-;-;7.643982;-0.062057495;5.3050385;-;-;-;-;-;-;-;-;-;-;-;-;-;-;-
1512468162118;-;-;7.640381;-0.05368042;5.2727203;-;-;-;-;-;-;-;-;-;-;-;-;-;-;-
1512468162138;-;-;7.6942596;-0.04170227;5.2858887;-;-;-;-;-;-;-;-;-;-;-;-;-;-;-
1512468162159;-;-;7.727768;-0.02734375;5.3206024;-;-;-;-;-;-;-;-;-;-;-;-;-;-;-
1512468162179;-;-;7.624832;-0.05607605;5.412781;-;-;-;-;-;-;-;-;-;-;-;-;-;-;-
1512468162200;-;-;7.566162;-0.08480835;5.39003;-;-;-;-;-;-;-;-;-;-;-;-;-;-;-
1512468162220;-;-;7.5589905;-0.15782166;5.3852386;-;-;-;-;-;-;-;-;-;-;-;-;-;-;-
1512468162240;-;-;7.6619415;-0.28831482;5.324188;-;-;-;-;-;-;-;-;-;-;-;-;-;-;-
1512468162261;-;-;7.6966553;-0.41281128;5.2774963;-;-;-;-;-;-;-;-;-;-;-;-;-;-;-
1512468162281;-;-;7.6391907;-0.3936615;5.2655334;-;-;-;-;-;-;-;-;-;-;-;-;-;-;-
1512468162302;-;-;7.5996857;-0.36732483;5.3170013;-;-;-;-;-;-;-;-;-;-;-;-;-;-;-
1512468162321;-;-;7.6308136;-0.31584167;5.275116;-;-;-;-;-;-;-;-;-;-;-;-;-;-;-
1512468162342;-;-;7.6260223;-0.30148315;5.1506042;-;-;-;-;-;-;-;-;-;-;-;-;-;-;-
1512468162362;-;-;7.667923;-0.22964478;5.153;-;-;-;-;-;-;-;-;-;-;-;-;-;-;-
1512468162383;-;-;7.787628;-0.25360107;5.2332153;-;-;-;-;-;-;-;-;-;-;-;-;-;-;-
1512468162403;-;-;7.8283386;-0.24520874;5.2415924;-;-;-;-;-;-;-;-;-;-;-;-;-;-;-
1512468162423;-;-;7.779251;-0.23803711;5.350525;-;-;-;-;-;-;-;-;-;-;-;-;-;-;-
1512468162444;-;-;7.6631317;-0.22007751;5.366089;-;-;-;-;-;-;-;-;-;-;-;-;-;-;-
1512468162464;-;-;7.5961;-0.22366333;5.3541107;-;-;-;-;-;-;-;-;-;-;-;-;-;-;-
1512468162485;-;-;7.550598;-0.20930481;5.366089;-;-;-;-;-;-;-;-;-;-;-;-;-;-;-
1512468162505;-;-;7.590103;-0.29071045;5.4163666;-;-;-;-;-;-;-;-;-;-;-;-;-;-;-
1512468162526;-;-;7.6786957;-0.29190063;5.386444;-;-;-;-;-;-;-;-;-;-;-;-;-;-;-
1512468162546;-;-;7.6619415;-0.31584167;5.397217;-;-;-;-;-;-;-;-;-;-;-;-;-;-;-
1512468162566;-;-;7.6822815;-0.3649292;5.3720703;-;-;-;-;-;-;-;-;-;-;-;-;-;-;-
1512468162587;-;-;7.6152496;-0.40203857;5.425949;-;-;-;-;-;-;-;-;-;-;-;-;-;-;-
1512468162608;-;-;7.5673676;-0.35176086;5.39003;-;-;-;-;-;-;-;-;-;-;-;-;-;-;-
1512468162628;-;-;7.5865173;-0.29788208;5.3062286;-;-;-;-;-;-;-;-;-;-;-;-;-;-;-
1512468162649;-;-;7.541031;-0.27514648;5.29187;-;-;-;-;-;-;-;-;-;-;-;-;-;-;-
1512468162669;-;-;7.469208;-0.33738708;5.339752;-;-;-;-;-;-;-;-;-;-;-;-;-;-;-
1512468162690;-;-;7.574539;-0.37809753;5.446289;-;-;-;-;-;-;-;-;-;-;-;-;-;-;-
1512468162710;-;-;7.6511536;-0.37091064;5.4822083;-;-;-;-;-;-;-;-;-;-;-;-;-;-;-
1512468162731;-;-;7.6104584;-0.28231812;5.441513;-;-;-;-;-;-;-;-;-;-;-;-;-;-;-
1512468162751;-;-;7.4727936;-0.210495;5.473831;-;-;-;-;-;-;-;-;-;-;-;-;-;-;-
1512468162772;-;-;7.3614655;-0.18296814;5.5743866;-;-;-;-;-;-;-;-;-;-;-;-;-;-;-
1512468162791;-;-;7.41893;-0.21528625;5.5276947;-;-;-;-;-;-;-;-;-;-;-;-;-;-;-
1512468162811;-;-;7.513489;-0.2212677;5.504959;-;-;-;-;-;-;-;-;-;-;-;-;-;-;-
1512468162832;-;-;7.552994;-0.25837708;5.460663;-;-;-;-;-;-;-;-;-;-;-;-;-;-;-
1512468162852;-;-;7.5865173;-0.28710938;5.4271393;-;-;-;-;-;-;-;-;-;-;-;-;-;-;-
1512468162873;-;-;7.6427765;-0.25479126;5.394821;-;-;-;-;-;-;-;-;-;-;-;-;-;-;-
1512468162894;-;-;7.6188354;-0.24401855;5.37088;-;-;-;-;-;-;-;-;-;-;-;-;-;-;-
1512468162914;-;-;7.5625763;-0.28471375;5.4008026;-;-;-;-;-;-;-;-;-;-;-;-;-;-;-
1512468162934;-;-;7.624832;-0.27275085;5.4786224;-;-;-;-;-;-;-;-;-;-;-;-;-;-;-
