TimeStamp[ms];Prox[Cm];Lux[lux];AccX[m/s^2];AccY[m/s^2];AccZ[m/s^2];GyroX[rad/s];GyroY[rad/s];GyroZ[rad/s];MagnX[uT];MagnY[uT];MagnZ[uT];OrienYaw[degrees];OrienPitch[degrees];OrienRoll[degrees];Press[Pa];Temp[C°];Batt[%];Lat;Lng;Speed[m/s]
1512467470801;-;-;8.673492;0.05885315;-0.44343567;-;-;-;-;-;-;-;-;-;-;-;-;-;-;-
1512467470804;-;-;8.869812;-0.09677124;-0.23873901;-;-;-;-;-;-;-;-;-;-;-;-;-;-;-
1512467470817;-;-;8.947617;0.21806335;-0.46618652;-;-;-;-;-;-;-;-;-;-;-;-;-;-;-
1512467470837;-;-;9.537796;-0.55526733;-0.13697815;-;-;-;-;-;-;-;-;-;-;-;-;-;-;-
1512467470857;-;-;9.424072;-0.15663147;-0.9581909;-;-;-;-;-;-;-;-;-;-;-;-;-;-;-
1512467470878;-;-;7.5673676;-0.27394104;-1.6118164;-;-;-;-;-;-;-;-;-;-;-;-;-;-;-
1512467470897;-;-;8.303574;-0.24043274;-0.3261261;-;-;-;-;-;-;-;-;-;-;-;-;-;-;-
1512467470917;-;-;9.814316;-0.28352356;-0.16931152;-;-;-;-;-;-;-;-;-;-;-;-;-;-;-
1512467470937;-;-;8.969162;-0.05368042;-0.4673767;-;-;-;-;-;-;-;-;-;-;-;-;-;-;-
1512467470958;-;-;9.151123;-0.49899292;1.5724792;-;-;-;-;-;-;-;-;-;-;-;-;-;-;-
1512467470979;-;-;10.867767;-0.7695465;-2.5287933;-;-;-;-;-;-;-;-;-;-;-;-;-;-;-
1512467470999;-;-;9.0972595;-0.076416016;0.27601624;-;-;-;-;-;-;-;-;-;-;-;-;-;-;-
1512467471019;-;-;8.941635;0.44432068;-1.74469;-;-;-;-;-;-;-;-;-;-;-;-;-;-;-
1512467471049;-;-;8.540604;0.29109192;-2.0343933;-;-;-;-;-;-;-;-;-;-;-;-;-;-;-
1512467471081;-;-;8.959595;-0.5444946;-1.4047089;-;-;-;-;-;-;-;-;-;-;-;-;-;-;-
1512467471081;-;-;8.959595;-0.5444946;-1.4047089;-;-;-;-;-;-;-;-;-;-;-;-;-;-;-
1512467471100;-;-;8.639969;-0.3469696;-0.16091919;-;-;-;-;-;-;-;-;-;-;-;-;-;-;-
1512467471121;-;-;9.522232;-0.20690918;-0.080718994;-;-;-;-;-;-;-;-;-;-;-;-;-;-;-
1512467471156;-;-;9.293579;-0.14225769;-0.5918884;-;-;-;-;-;-;-;-;-;-;-;-;-;-;-
1512467471163;-;-;9.29837;-0.109939575;-0.20761108;-;-;-;-;-;-;-;-;-;-;-;-;-;-;-
1512467471184;-;-;9.284012;-0.078811646;-0.4338684;-;-;-;-;-;-;-;-;-;-;-;-;-;-;-
1512467471204;-;-;9.525818;0.057647705;-0.5523834;-;-;-;-;-;-;-;-;-;-;-;-;-;-;-
1512467471224;-;-;9.596451;-0.20930481;-0.491333;-;-;-;-;-;-;-;-;-;-;-;-;-;-;-
1512467471245;-;-;8.680664;-0.20690918;0.043777466;-;-;-;-;-;-;-;-;-;-;-;-;-;-;-
1512467471265;-;-;9.114014;-0.20809937;-0.5894928;-;-;-;-;-;-;-;-;-;-;-;-;-;-;-
1512467471285;-;-;9.51265;-0.3541565;-0.6661072;-;-;-;-;-;-;-;-;-;-;-;-;-;-;-
1512467471305;-;-;9.384567;0.18334961;-0.73313904;-;-;-;-;-;-;-;-;-;-;-;-;-;-;-
1512467471336;-;-;8.958389;0.083984375;-0.57032776;-;-;-;-;-;-;-;-;-;-;-;-;-;-;-
1512467471380;-;-;9.341461;-0.08001709;-0.4015503;-;-;-;-;-;-;-;-;-;-;-;-;-;-;-
1512467471440;-;-;8.911713;-0.29190063;-0.14176941;-;-;-;-;-;-;-;-;-;-;-;-;-;-;-
1512467471500;-;-;9.300766;0.38327026;-0.39915466;-;-;-;-;-;-;-;-;-;-;-;-;-;-;-
1512467471560;-;-;9.723343;-0.95988464;-1.3436584;-;-;-;-;-;-;-;-;-;-;-;-;-;-;-
1512467471620;-;-;9.3941345;-0.66778564;-0.84207153;-;-;-;-;-;-;-;-;-;-;-;-;-;-;-
1512467471680;-;-;9.438431;0.7819061;0.3310852;-;-;-;-;-;-;-;-;-;-;-;-;-;-;-
1512467471740;-;-;8.859039;-0.49301147;0.53578186;-;-;-;-;-;-;-;-;-;-;-;-;-;-;-
1512467471801;-;-;9.135559;-0.3768921;0.40769958;-;-;-;-;-;-;-;-;-;-;-;-;-;-;-
1512467471860;-;-;9.728134;-0.3876648;-0.12620544;-;-;-;-;-;-;-;-;-;-;-;-;-;-;-
1512467471921;-;-;8.709396;-0.77433777;-0.3249359;-;-;-;-;-;-;-;-;-;-;-;-;-;-;-
1512467471980;-;-;9.698196;-0.12908936;-1.234726;-;-;-;-;-;-;-;-;-;-;-;-;-;-;-
1512467472041;-;-;9.519836;1.4127655;-1.1030426;-;-;-;-;-;-;-;-;-;-;-;-;-;-;-
1512467472090;-;-;9.319916;0.055252075;-0.60505676;-;-;-;-;-;-;-;-;-;-;-;-;-;-;-
1512467472150;-;-;9.331894;1.0129395;-0.91030884;-;-;-;-;-;-;-;-;-;-;-;-;-;-;-
1512467472210;-;-;8.983536;0.65979004;-0.7989807;-;-;-;-;-;-;-;-;-;-;-;-;-;-;-
1512467472271;-;-;8.928467;0.6633911;-0.7750397;-;-;-;-;-;-;-;-;-;-;-;-;-;-;-
1512467472331;-;-;9.328293;0.62628174;-0.8779907;-;-;-;-;-;-;-;-;-;-;-;-;-;-;-
1512467472391;-;-;9.284012;0.62268066;-0.88038635;-;-;-;-;-;-;-;-;-;-;-;-;-;-;-
1512467472452;-;-;9.123596;0.64064026;-0.8253174;-;-;-;-;-;-;-;-;-;-;-;-;-;-;-
1512467472516;-;-;8.818329;0.848938;0.99069214;-;-;-;-;-;-;-;-;-;-;-;-;-;-;-
1512467472567;-;-;9.224152;0.3617096;-2.2283173;-;-;-;-;-;-;-;-;-;-;-;-;-;-;-
1512467472613;-;-;8.872208;0.6466217;-0.417099;-;-;-;-;-;-;-;-;-;-;-;-;-;-;-
1512467472671;-;-;9.766434;0.52931213;-0.8241272;-;-;-;-;-;-;-;-;-;-;-;-;-;-;-
1512467472731;-;-;9.106842;0.69810486;-0.77264404;-;-;-;-;-;-;-;-;-;-;-;-;-;-;-
1512467472791;-;-;9.199005;0.73760986;-0.7570801;-;-;-;-;-;-;-;-;-;-;-;-;-;-;-
1512467472850;-;-;9.17627;0.5951538;-0.69602966;-;-;-;-;-;-;-;-;-;-;-;-;-;-;-
1512467472910;-;-;10.282394;0.69810486;-1.4813232;-;-;-;-;-;-;-;-;-;-;-;-;-;-;-
1512467472970;-;-;8.967972;0.52212524;-0.7020111;-;-;-;-;-;-;-;-;-;-;-;-;-;-;-
1512467473031;-;-;9.181061;0.43115234;-0.7283478;-;-;-;-;-;-;-;-;-;-;-;-;-;-;-
1512467473091;-;-;9.311539;0.62268066;-0.8791809;-;-;-;-;-;-;-;-;-;-;-;-;-;-;-
1512467473152;-;-;9.121201;0.55804443;-0.6732788;-;-;-;-;-;-;-;-;-;-;-;-;-;-;-
1512467473210;-;-;8.976349;0.86569214;-0.5966644;-;-;-;-;-;-;-;-;-;-;-;-;-;-;-
1512467473273;-;-;9.329498;0.5987396;-0.7582855;-;-;-;-;-;-;-;-;-;-;-;-;-;-;-
1512467473333;-;-;9.274429;0.5855713;-0.8169403;-;-;-;-;-;-;-;-;-;-;-;-;-;-;-
1512467473391;-;-;9.262466;0.6107178;-0.84088135;-;-;-;-;-;-;-;-;-;-;-;-;-;-;-
1512467473451;-;-;9.337875;0.45269775;-0.9246826;-;-;-;-;-;-;-;-;-;-;-;-;-;-;-
1512467473500;-;-;8.991913;0.60113525;-0.73313904;-;-;-;-;-;-;-;-;-;-;-;-;-;-;-
1512467473561;-;-;9.728134;0.85731506;-1.6884308;-;-;-;-;-;-;-;-;-;-;-;-;-;-;-
1512467473621;-;-;7.620041;0.7424011;0.71894836;-;-;-;-;-;-;-;-;-;-;-;-;-;-;-
1512467473668;-;-;7.691864;0.55804443;0.28678894;-;-;-;-;-;-;-;-;-;-;-;-;-;-;-
1512467473721;-;-;10.8797455;0.8381653;-2.5718842;-;-;-;-;-;-;-;-;-;-;-;-;-;-;-
1512467473780;-;-;8.917694;0.635849;-0.6266022;-;-;-;-;-;-;-;-;-;-;-;-;-;-;-
1512467473840;-;-;9.125992;0.57121277;-0.5416107;-;-;-;-;-;-;-;-;-;-;-;-;-;-;-
1512467473900;-;-;8.8997345;0.7507782;-0.51527405;-;-;-;-;-;-;-;-;-;-;-;-;-;-;-
1512467473960;-;-;9.188232;0.5628357;-0.83010864;-;-;-;-;-;-;-;-;-;-;-;-;-;-;-
1512467474022;-;-;9.165497;0.69929504;-0.7463074;-;-;-;-;-;-;-;-;-;-;-;-;-;-;-
1512467474081;-;-;9.254074;0.6861267;-0.64933777;-;-;-;-;-;-;-;-;-;-;-;-;-;-;-
1512467474141;-;-;9.105637;0.5987396;-0.6337738;-;-;-;-;-;-;-;-;-;-;-;-;-;-;-
1512467474204;-;-;9.597641;0.556839;-0.93066406;-;-;-;-;-;-;-;-;-;-;-;-;-;-;-
1512467474261;-;-;9.451599;0.8381653;0.6531067;-;-;-;-;-;-;-;-;-;-;-;-;-;-;-
1512467474316;-;-;9.175064;0.59394836;-0.43745422;-;-;-;-;-;-;-;-;-;-;-;-;-;-;-
1512467474349;-;-;9.600037;0.8405609;-0.7522888;-;-;-;-;-;-;-;-;-;-;-;-;-;-;-
1512467474384;-;-;9.165497;0.47184753;-0.45899963;-;-;-;-;-;-;-;-;-;-;-;-;-;-;-
1512467474440;-;-;9.233734;0.77830505;-0.7379303;-;-;-;-;-;-;-;-;-;-;-;-;-;-;-
1512467474501;-;-;9.23613;0.6286621;-0.535614;-;-;-;-;-;-;-;-;-;-;-;-;-;-;-
1512467474560;-;-;9.134369;0.43354797;-0.5021057;-;-;-;-;-;-;-;-;-;-;-;-;-;-;-
1512467474621;-;-;9.1523285;0.39164734;-0.41830444;-;-;-;-;-;-;-;-;-;-;-;-;-;-;-
1512467474680;-;-;9.523422;0.8345642;-0.6613159;-;-;-;-;-;-;-;-;-;-;-;-;-;-;-
1512467474740;-;-;9.153519;0.5077667;-0.6804657;-;-;-;-;-;-;-;-;-;-;-;-;-;-;-
1512467474800;-;-;9.21817;0.596344;-0.6038513;-;-;-;-;-;-;-;-;-;-;-;-;-;-;-
1512467474851;-;-;9.372589;0.4514923;-0.57032776;-;-;-;-;-;-;-;-;-;-;-;-;-;-;-
1512467474910;-;-;7.813965;0.6430359;1.7161255;-;-;-;-;-;-;-;-;-;-;-;-;-;-;-
1512467474950;-;-;9.96994;0.8417511;-1.6213837;-;-;-;-;-;-;-;-;-;-;-;-;-;-;-
1512467475010;-;-;9.418076;0.1725769;0.5489502;-;-;-;-;-;-;-;-;-;-;-;-;-;-;-
1512467475070;-;-;9.143951;0.7759094;-0.38957214;-;-;-;-;-;-;-;-;-;-;-;-;-;-;-
1512467475130;-;-;9.23613;0.7112732;-0.37161255;-;-;-;-;-;-;-;-;-;-;-;-;-;-;-
1512467475190;-;-;9.37619;0.5855713;-0.50450134;-;-;-;-;-;-;-;-;-;-;-;-;-;-;-
1512467475252;-;-;9.233734;0.67056274;-0.491333;-;-;-;-;-;-;-;-;-;-;-;-;-;-;-
1512467475313;-;-;9.212173;0.6238861;-0.42070007;-;-;-;-;-;-;-;-;-;-;-;-;-;-;-
1512467475376;-;-;9.087677;0.5987396;-0.2351532;-;-;-;-;-;-;-;-;-;-;-;-;-;-;-
1512467475436;-;-;9.360626;0.6131134;-0.40393066;-;-;-;-;-;-;-;-;-;-;-;-;-;-;-
1512467475492;-;-;9.052963;0.6562042;-0.27226257;-;-;-;-;-;-;-;-;-;-;-;-;-;-;-
1512467475551;-;-;8.531036;0.67056274;0.6710663;-;-;-;-;-;-;-;-;-;-;-;-;-;-;-
1512467475619;-;-;9.070923;0.6454315;-0.2399292;-;-;-;-;-;-;-;-;-;-;-;-;-;-;-
1512467475635;-;-;9.208588;0.53170776;-0.30937195;-;-;-;-;-;-;-;-;-;-;-;-;-;-;-
1512467475663;-;-;9.246902;0.64183044;-0.37998962;-;-;-;-;-;-;-;-;-;-;-;-;-;-;-
1512467475679;-;-;9.193024;0.6645813;-0.33091736;-;-;-;-;-;-;-;-;-;-;-;-;-;-;-
1512467475691;-;-;9.153519;0.6538086;-0.3440857;-;-;-;-;-;-;-;-;-;-;-;-;-;-;-
1512467475710;-;-;9.196625;0.7040863;-0.36442566;-;-;-;-;-;-;-;-;-;-;-;-;-;-;-
1512467475730;-;-;9.178665;0.79745483;-0.38838196;-;-;-;-;-;-;-;-;-;-;-;-;-;-;-
1512467475750;-;-;9.304352;0.6897278;-0.43745422;-;-;-;-;-;-;-;-;-;-;-;-;-;-;-
1512467475770;-;-;9.194229;0.576004;-0.37521362;-;-;-;-;-;-;-;-;-;-;-;-;-;-;-
1512467475790;-;-;9.272034;0.5700073;-0.3871765;-;-;-;-;-;-;-;-;-;-;-;-;-;-;-
1512467475811;-;-;9.410904;0.54008484;-0.36442566;-;-;-;-;-;-;-;-;-;-;-;-;-;-;-
1512467475831;-;-;9.3498535;0.5484619;-0.26507568;-;-;-;-;-;-;-;-;-;-;-;-;-;-;-
1512467475851;-;-;8.940445;0.79626465;-0.17170715;-;-;-;-;-;-;-;-;-;-;-;-;-;-;-
1512467475871;-;-;8.90094;0.7005005;-0.2962036;-;-;-;-;-;-;-;-;-;-;-;-;-;-;-
1512467475891;-;-;9.188232;0.4191742;0.04498291;-;-;-;-;-;-;-;-;-;-;-;-;-;-;-
1512467475912;-;-;9.208588;0.5281067;-0.4063263;-;-;-;-;-;-;-;-;-;-;-;-;-;-;-
1512467475933;-;-;9.210983;0.6921234;-0.64456177;-;-;-;-;-;-;-;-;-;-;-;-;-;-;-
1512467475965;-;-;9.129578;0.6669769;-0.49731445;-;-;-;-;-;-;-;-;-;-;-;-;-;-;-
1512467475988;-;-;9.725739;0.29588318;-0.099868774;-;-;-;-;-;-;-;-;-;-;-;-;-;-;-
1512467476010;-;-;9.285202;0.5245209;-0.09867859;-;-;-;-;-;-;-;-;-;-;-;-;-;-;-
1512467476038;-;-;9.117615;0.58917236;-0.575119;-;-;-;-;-;-;-;-;-;-;-;-;-;-;-
1512467476053;-;-;9.096069;0.49699402;-1.0204468;-;-;-;-;-;-;-;-;-;-;-;-;-;-;-
1512467476088;-;-;9.801147;0.6789551;-1.021637;-;-;-;-;-;-;-;-;-;-;-;-;-;-;-
1512467476088;-;-;9.220566;0.89323425;-0.9234772;-;-;-;-;-;-;-;-;-;-;-;-;-;-;-
1512467476104;-;-;8.146759;1.2104645;0.058151245;-;-;-;-;-;-;-;-;-;-;-;-;-;-;-
1512467476139;-;-;9.963959;0.22764587;-0.18606567;-;-;-;-;-;-;-;-;-;-;-;-;-;-;-
1512467476155;-;-;9.327103;0.3461609;0.32987976;-;-;-;-;-;-;-;-;-;-;-;-;-;-;-
1512467476172;-;-;8.789597;0.8776703;-0.64694214;-;-;-;-;-;-;-;-;-;-;-;-;-;-;-
1512467476190;-;-;9.151123;0.9423065;-0.040023804;-;-;-;-;-;-;-;-;-;-;-;-;-;-;-
1512467476220;-;-;9.31633;0.30665588;-0.6613159;-;-;-;-;-;-;-;-;-;-;-;-;-;-;-
1512467476237;-;-;9.086487;1.0117493;-1.5172424;-;-;-;-;-;-;-;-;-;-;-;-;-;-;-
1512467476254;-;-;8.758484;1.3660889;-1.2466888;-;-;-;-;-;-;-;-;-;-;-;-;-;-;-
1512467476272;-;-;9.274429;0.7016907;0.84703064;-;-;-;-;-;-;-;-;-;-;-;-;-;-;-
1512467476289;-;-;8.844666;1.0608215;-0.52604675;-;-;-;-;-;-;-;-;-;-;-;-;-;-;-
1512467476322;-;-;9.506668;0.6095123;-0.31414795;-;-;-;-;-;-;-;-;-;-;-;-;-;-;-
1512467476339;-;-;9.51265;0.34854126;0.17546082;-;-;-;-;-;-;-;-;-;-;-;-;-;-;-
1512467476356;-;-;8.975159;0.35932922;-0.083114624;-;-;-;-;-;-;-;-;-;-;-;-;-;-;-
1512467476371;-;-;9.154724;-0.012969971;-0.071136475;-;-;-;-;-;-;-;-;-;-;-;-;-;-;-
1512467476403;-;-;8.727356;0.7040863;-0.029251099;-;-;-;-;-;-;-;-;-;-;-;-;-;-;-
1512467476420;-;-;9.406113;1.1123047;-0.7403259;-;-;-;-;-;-;-;-;-;-;-;-;-;-;-
1512467476439;-;-;10.924042;0.32341003;1.7472534;-;-;-;-;-;-;-;-;-;-;-;-;-;-;-
1512467476454;-;-;8.493927;0.5185394;-0.35246277;-;-;-;-;-;-;-;-;-;-;-;-;-;-;-
1512467476470;-;-;9.600037;0.34495544;0.18144226;-;-;-;-;-;-;-;-;-;-;-;-;-;-;-
1512467476504;-;-;9.33429;0.4479065;0.765625;-;-;-;-;-;-;-;-;-;-;-;-;-;-;-
1512467476522;-;-;8.393356;1.868866;0.041381836;-;-;-;-;-;-;-;-;-;-;-;-;-;-;-
1512467476539;-;-;9.402527;1.2344055;-0.104660034;-;-;-;-;-;-;-;-;-;-;-;-;-;-;-
1512467476554;-;-;9.21817;0.9925842;-0.2578888;-;-;-;-;-;-;-;-;-;-;-;-;-;-;-
1512467476586;-;-;9.093674;0.37368774;-0.63139343;-;-;-;-;-;-;-;-;-;-;-;-;-;-;-
1512467476606;-;-;8.034241;0.6645813;0.101242065;-;-;-;-;-;-;-;-;-;-;-;-;-;-;-
1512467476619;-;-;8.596878;1.1194763;-0.91989136;-;-;-;-;-;-;-;-;-;-;-;-;-;-;-
1512467476637;-;-;11.307114;0.8453522;-0.62779236;-;-;-;-;-;-;-;-;-;-;-;-;-;-;-
1512467476654;-;-;10.804321;0.96984863;-0.48773193;-;-;-;-;-;-;-;-;-;-;-;-;-;-;-
1512467476688;-;-;9.027832;0.88604736;-0.38478088;-;-;-;-;-;-;-;-;-;-;-;-;-;-;-
1512467476703;-;-;9.402527;0.58317566;0.11201477;-;-;-;-;-;-;-;-;-;-;-;-;-;-;-
1512467476720;-;-;8.72377;0.9387207;0.36938477;-;-;-;-;-;-;-;-;-;-;-;-;-;-;-
1512467476738;-;-;8.447235;1.1170807;0.39093018;-;-;-;-;-;-;-;-;-;-;-;-;-;-;-
1512467476755;-;-;8.708206;0.71725464;0.74887085;-;-;-;-;-;-;-;-;-;-;-;-;-;-;-
1512467476789;-;-;9.720947;0.7040863;-1.2502899;-;-;-;-;-;-;-;-;-;-;-;-;-;-;-
1512467476806;-;-;9.534195;0.7842865;0.75245667;-;-;-;-;-;-;-;-;-;-;-;-;-;-;-
1512467476822;-;-;9.2708435;0.6968994;0.18981934;-;-;-;-;-;-;-;-;-;-;-;-;-;-;-
1512467476838;-;-;9.081696;1.1278534;0.04736328;-;-;-;-;-;-;-;-;-;-;-;-;-;-;-
1512467476866;-;-;8.581314;0.5448761;0.16947937;-;-;-;-;-;-;-;-;-;-;-;-;-;-;-
1512467476876;-;-;8.948822;0.79745483;0.06173706;-;-;-;-;-;-;-;-;-;-;-;-;-;-;-
1512467476903;-;-;10.568497;1.877243;0.28918457;-;-;-;-;-;-;-;-;-;-;-;-;-;-;-
1512467476919;-;-;9.643143;-0.14346313;-0.11903381;-;-;-;-;-;-;-;-;-;-;-;-;-;-;-
1512467476936;-;-;12.342606;-0.17459106;-0.6182251;-;-;-;-;-;-;-;-;-;-;-;-;-;-;-
1512467476970;-;-;8.959595;-0.8126373;0.32629395;-;-;-;-;-;-;-;-;-;-;-;-;-;-;-
1512467476986;-;-;8.869812;0.9758301;0.32868958;-;-;-;-;-;-;-;-;-;-;-;-;-;-;-
1512467477006;-;-;8.973953;1.062027;0.61120605;-;-;-;-;-;-;-;-;-;-;-;-;-;-;-
1512467477022;-;-;8.529831;0.8118286;0.091659546;-;-;-;-;-;-;-;-;-;-;-;-;-;-;-
1512467477040;-;-;13.995789;0.596344;1.4168549;-;-;-;-;-;-;-;-;-;-;-;-;-;-;-
1512467477072;-;-;10.183029;-0.46907043;-0.030441284;-;-;-;-;-;-;-;-;-;-;-;-;-;-;-
1512467477089;-;-;9.571304;0.0013885498;-0.085510254;-;-;-;-;-;-;-;-;-;-;-;-;-;-;-
1512467477105;-;-;8.576523;1.0440674;0.26524353;-;-;-;-;-;-;-;-;-;-;-;-;-;-;-
1512467477121;-;-;8.490326;0.75556946;0.19102478;-;-;-;-;-;-;-;-;-;-;-;-;-;-;-
1512467477138;-;-;8.7656555;0.34016418;0.077301025;-;-;-;-;-;-;-;-;-;-;-;-;-;-;-
1512467477159;-;-;9.705383;0.20489502;-0.50090027;-;-;-;-;-;-;-;-;-;-;-;-;-;-;-
1512467477179;-;-;9.951996;0.17018127;-0.57751465;-;-;-;-;-;-;-;-;-;-;-;-;-;-;-
1512467477201;-;-;9.258865;0.51374817;-0.3835907;-;-;-;-;-;-;-;-;-;-;-;-;-;-;-
1512467477222;-;-;8.624405;0.32460022;-0.1381836;-;-;-;-;-;-;-;-;-;-;-;-;-;-;-
1512467477241;-;-;9.853821;-0.996994;-0.18965149;-;-;-;-;-;-;-;-;-;-;-;-;-;-;-
1512467477260;-;-;9.665878;-0.368515;-0.48773193;-;-;-;-;-;-;-;-;-;-;-;-;-;-;-
1512467477280;-;-;9.012268;0.51493835;-0.07234192;-;-;-;-;-;-;-;-;-;-;-;-;-;-;-
1512467477301;-;-;9.626373;0.8046417;0.171875;-;-;-;-;-;-;-;-;-;-;-;-;-;-;-
1512467477320;-;-;8.862625;0.40481567;-1.1976166;-;-;-;-;-;-;-;-;-;-;-;-;-;-;-
1512467477341;-;-;9.510254;-1.3609161;0.22094727;-;-;-;-;-;-;-;-;-;-;-;-;-;-;-
1512467477361;-;-;7.882202;-0.65582275;-0.3368988;-;-;-;-;-;-;-;-;-;-;-;-;-;-;-
1512467477382;-;-;9.29718;-0.9562988;0.41368103;-;-;-;-;-;-;-;-;-;-;-;-;-;-;-
1512467477402;-;-;15.303024;0.036102295;0.5118408;-;-;-;-;-;-;-;-;-;-;-;-;-;-;-
1512467477423;-;-;4.5159607;0.5257263;-0.04360962;-;-;-;-;-;-;-;-;-;-;-;-;-;-;-
1512467477443;-;-;10.531387;-0.6187134;-0.2854309;-;-;-;-;-;-;-;-;-;-;-;-;-;-;-
1512467477463;-;-;12.014587;-2.9039764;-0.99290466;-;-;-;-;-;-;-;-;-;-;-;-;-;-;-
1512467477484;-;-;11.141907;-3.076355;-0.37161255;-;-;-;-;-;-;-;-;-;-;-;-;-;-;-
1512467477504;-;-;9.390549;-0.6474457;0.074905396;-;-;-;-;-;-;-;-;-;-;-;-;-;-;-
1512467477525;-;-;8.619614;0.06124878;-0.18367004;-;-;-;-;-;-;-;-;-;-;-;-;-;-;-
1512467477545;-;-;6.5007477;-0.4056244;-0.34048462;-;-;-;-;-;-;-;-;-;-;-;-;-;-;-
1512467477566;-;-;10.70018;-0.8964386;0.6961975;-;-;-;-;-;-;-;-;-;-;-;-;-;-;-
1512467477586;-;-;9.609619;-0.3936615;-0.54519653;-;-;-;-;-;-;-;-;-;-;-;-;-;-;-
1512467477606;-;-;9.877762;-0.4451294;-0.4626007;-;-;-;-;-;-;-;-;-;-;-;-;-;-;-
1512467477627;-;-;9.403717;-0.6869507;-0.8456726;-;-;-;-;-;-;-;-;-;-;-;-;-;-;-
1512467477646;-;-;14.017349;-1.7451782;-0.44703674;-;-;-;-;-;-;-;-;-;-;-;-;-;-;-
1512467477666;-;-;11.727295;-1.3968201;-0.14297485;-;-;-;-;-;-;-;-;-;-;-;-;-;-;-
1512467477687;-;-;5.0127563;-0.1817627;1.449173;-;-;-;-;-;-;-;-;-;-;-;-;-;-;-
1512467477707;-;-;6.6300354;-0.14346313;-0.417099;-;-;-;-;-;-;-;-;-;-;-;-;-;-;-
1512467477728;-;-;6.153595;0.012161255;-1.3747864;-;-;-;-;-;-;-;-;-;-;-;-;-;-;-
1512467477748;-;-;9.546173;0.046875;-0.35006714;-;-;-;-;-;-;-;-;-;-;-;-;-;-;-
1512467477768;-;-;10.63913;-0.9323425;-0.33570862;-;-;-;-;-;-;-;-;-;-;-;-;-;-;-
1512467477789;-;-;8.214996;-0.21887207;-0.29141235;-;-;-;-;-;-;-;-;-;-;-;-;-;-;-
1512467477808;-;-;7.4009705;0.7759094;-0.31774902;-;-;-;-;-;-;-;-;-;-;-;-;-;-;-
1512467477828;-;-;10.623566;-0.4259796;0.17546082;-;-;-;-;-;-;-;-;-;-;-;-;-;-;-
1512467477849;-;-;10.704971;-0.96707153;-0.6266022;-;-;-;-;-;-;-;-;-;-;-;-;-;-;-
1512467477869;-;-;10.023819;-0.65940857;0.4807129;-;-;-;-;-;-;-;-;-;-;-;-;-;-;-
1512467477890;-;-;8.261688;-0.06803894;0.4759369;-;-;-;-;-;-;-;-;-;-;-;-;-;-;-
1512467477909;-;-;8.855438;0.122299194;-0.18486023;-;-;-;-;-;-;-;-;-;-;-;-;-;-;-
1512467477929;-;-;7.8570557;-0.55526733;-0.65652466;-;-;-;-;-;-;-;-;-;-;-;-;-;-;-
1512467477950;-;-;8.003113;-0.23803711;-0.7115936;-;-;-;-;-;-;-;-;-;-;-;-;-;-;-
1512467477970;-;-;8.237747;0.6250763;3.0939941;-;-;-;-;-;-;-;-;-;-;-;-;-;-;-
1512467477991;-;-;9.687424;0.30665588;-1.4705505;-;-;-;-;-;-;-;-;-;-;-;-;-;-;-
1512467478012;-;-;10.368576;-0.42118835;-0.01008606;-;-;-;-;-;-;-;-;-;-;-;-;-;-;-
1512467478032;-;-;8.495117;-0.20690918;0.120391846;-;-;-;-;-;-;-;-;-;-;-;-;-;-;-
1512467478052;-;-;9.008667;0.050476074;0.37657166;-;-;-;-;-;-;-;-;-;-;-;-;-;-;-
1512467478073;-;-;8.729752;0.37249756;0.60762024;-;-;-;-;-;-;-;-;-;-;-;-;-;-;-
1512467478092;-;-;8.626801;0.25756836;0.9487915;-;-;-;-;-;-;-;-;-;-;-;-;-;-;-
1512467478112;-;-;8.398148;0.42515564;1.3186951;-;-;-;-;-;-;-;-;-;-;-;-;-;-;-
1512467478133;-;-;8.701019;0.47184753;1.8130951;-;-;-;-;-;-;-;-;-;-;-;-;-;-;-
1512467478152;-;-;8.922485;0.34376526;1.8370361;-;-;-;-;-;-;-;-;-;-;-;-;-;-;-
1512467478172;-;-;9.17627;0.32699585;1.6790161;-;-;-;-;-;-;-;-;-;-;-;-;-;-;-
1512467478193;-;-;9.436035;0.31143188;1.5425415;-;-;-;-;-;-;-;-;-;-;-;-;-;-;-
1512467478214;-;-;9.619202;0.37249756;1.4467773;-;-;-;-;-;-;-;-;-;-;-;-;-;-;-
1512467478234;-;-;9.764038;0.4407196;1.3821411;-;-;-;-;-;-;-;-;-;-;-;-;-;-;-
1512467478255;-;-;9.437241;0.48980713;1.3162994;-;-;-;-;-;-;-;-;-;-;-;-;-;-;-
1512467478275;-;-;9.055359;0.54966736;1.2839813;-;-;-;-;-;-;-;-;-;-;-;-;-;-;-
1512467478296;-;-;8.542999;0.64183044;1.5006561;-;-;-;-;-;-;-;-;-;-;-;-;-;-;-
1512467478317;-;-;8.671097;0.6681671;1.3426361;-;-;-;-;-;-;-;-;-;-;-;-;-;-;-
1512467478337;-;-;8.659119;0.7340088;1.196579;-;-;-;-;-;-;-;-;-;-;-;-;-;-;-
1512467478358;-;-;8.674683;0.7531738;1.0565186;-;-;-;-;-;-;-;-;-;-;-;-;-;-;-
1512467478378;-;-;8.578918;0.5747986;1.0505371;-;-;-;-;-;-;-;-;-;-;-;-;-;-;-
1512467478398;-;-;8.569336;0.38206482;1.0409698;-;-;-;-;-;-;-;-;-;-;-;-;-;-;-
1512467478419;-;-;8.906921;0.23123169;0.7572479;-;-;-;-;-;-;-;-;-;-;-;-;-;-;-
1512467478440;-;-;8.791992;0.15701294;0.57888794;-;-;-;-;-;-;-;-;-;-;-;-;-;-;-
1512467478459;-;-;9.61441;0.1558075;0.508255;-;-;-;-;-;-;-;-;-;-;-;-;-;-;-
1512467478480;-;-;9.645538;0.3222046;0.49388123;-;-;-;-;-;-;-;-;-;-;-;-;-;-;-
1512467478500;-;-;9.639542;0.2348175;0.36819458;-;-;-;-;-;-;-;-;-;-;-;-;-;-;-
1512467478521;-;-;9.536591;0.22525024;0.39453125;-;-;-;-;-;-;-;-;-;-;-;-;-;-;-
1512467478541;-;-;9.087677;0.21566772;0.95118713;-;-;-;-;-;-;-;-;-;-;-;-;-;-;-
1512467478561;-;-;8.90213;0.14263916;1.0062408;-;-;-;-;-;-;-;-;-;-;-;-;-;-;-
1512467478582;-;-;8.82312;0.046875;0.8913269;-;-;-;-;-;-;-;-;-;-;-;-;-;-;-
1512467478602;-;-;8.611237;0.02293396;0.92485046;-;-;-;-;-;-;-;-;-;-;-;-;-;-;-
1512467478623;-;-;8.601654;-0.033325195;1.0002594;-;-;-;-;-;-;-;-;-;-;-;-;-;-;-
1512467478643;-;-;9.143951;0.42277527;0.9020996;-;-;-;-;-;-;-;-;-;-;-;-;-;-;-
1512467478664;-;-;9.69342;0.8202057;0.6171875;-;-;-;-;-;-;-;-;-;-;-;-;-;-;-
1512467478683;-;-;10.338654;0.73161316;0.19342041;-;-;-;-;-;-;-;-;-;-;-;-;-;-;-
1512467478703;-;-;10.035782;0.50177;0.122787476;-;-;-;-;-;-;-;-;-;-;-;-;-;-;-
1512467478723;-;-;10.139938;0.730423;-0.5068817;-;-;-;-;-;-;-;-;-;-;-;-;-;-;-
1512467478744;-;-;10.027405;1.0057526;-0.630188;-;-;-;-;-;-;-;-;-;-;-;-;-;-;-
1512467478764;-;-;9.71257;0.45269775;-1.0767059;-;-;-;-;-;-;-;-;-;-;-;-;-;-;-
1512467478785;-;-;9.683838;0.013366699;-1.5675201;-;-;-;-;-;-;-;-;-;-;-;-;-;-;-
1512467478806;-;-;9.346252;-0.78271484;-0.18606567;-;-;-;-;-;-;-;-;-;-;-;-;-;-;-
1512467478825;-;-;8.601654;-1.3692932;0.04498291;-;-;-;-;-;-;-;-;-;-;-;-;-;-;-
1512467478845;-;-;8.503494;-2.20607;-0.14656067;-;-;-;-;-;-;-;-;-;-;-;-;-;-;-
1512467478865;-;-;8.599258;-2.9003906;-0.6768799;-;-;-;-;-;-;-;-;-;-;-;-;-;-;-
1512467478886;-;-;8.662704;-3.0667877;-1.7806091;-;-;-;-;-;-;-;-;-;-;-;-;-;-;-
1512467478906;-;-;9.06134;-2.7208252;-2.1924133;-;-;-;-;-;-;-;-;-;-;-;-;-;-;-
1512467478927;-;-;9.33429;-2.2072601;-2.1385345;-;-;-;-;-;-;-;-;-;-;-;-;-;-;-
1512467478947;-;-;9.006287;-1.5692139;-3.2027588;-;-;-;-;-;-;-;-;-;-;-;-;-;-;-
1512467478968;-;-;8.734543;-0.9287567;-3.4924622;-;-;-;-;-;-;-;-;-;-;-;-;-;-;-
1512467478988;-;-;9.309143;-0.29788208;-2.9106598;-;-;-;-;-;-;-;-;-;-;-;-;-;-;-
1512467479009;-;-;9.434845;0.39404297;-1.8847504;-;-;-;-;-;-;-;-;-;-;-;-;-;-;-
1512467479029;-;-;9.3546295;0.38446045;-1.0372009;-;-;-;-;-;-;-;-;-;-;-;-;-;-;-
1512467479050;-;-;9.324707;-0.37210083;-0.60505676;-;-;-;-;-;-;-;-;-;-;-;-;-;-;-
1512467479070;-;-;9.610809;-1.2807007;-0.7463074;-;-;-;-;-;-;-;-;-;-;-;-;-;-;-
1512467479090;-;-;9.98671;-1.9953766;-0.91030884;-;-;-;-;-;-;-;-;-;-;-;-;-;-;-
1512467479111;-;-;9.942413;-2.451477;-0.9294586;-;-;-;-;-;-;-;-;-;-;-;-;-;-;-
1512467479131;-;-;8.780029;-2.8728485;-0.58470154;-;-;-;-;-;-;-;-;-;-;-;-;-;-;-
1512467479151;-;-;8.104858;-2.8932037;-0.6517334;-;-;-;-;-;-;-;-;-;-;-;-;-;-;-
1512467479172;-;-;8.259293;-2.2719116;-0.6014557;-;-;-;-;-;-;-;-;-;-;-;-;-;-;-
1512467479193;-;-;8.7656555;-1.6434326;-0.8660126;-;-;-;-;-;-;-;-;-;-;-;-;-;-;-
1512467479212;-;-;9.421677;-0.8760834;-0.7858124;-;-;-;-;-;-;-;-;-;-;-;-;-;-;-
1512467479233;-;-;9.901718;-0.7922821;-0.63139343;-;-;-;-;-;-;-;-;-;-;-;-;-;-;-
1512467479252;-;-;9.827484;-1.1885223;-0.46020508;-;-;-;-;-;-;-;-;-;-;-;-;-;-;-
1512467479273;-;-;9.369003;-1.4207611;-0.34169006;-;-;-;-;-;-;-;-;-;-;-;-;-;-;-
1512467479293;-;-;8.876999;-1.5009766;-0.27824402;-;-;-;-;-;-;-;-;-;-;-;-;-;-;-
1512467479313;-;-;8.1479645;-1.6542053;-0.5463867;-;-;-;-;-;-;-;-;-;-;-;-;-;-;-
1512467479334;-;-;7.8630524;-1.5979309;-1.203598;-;-;-;-;-;-;-;-;-;-;-;-;-;-;-
1512467479355;-;-;8.960785;-1.3609161;-1.3149261;-;-;-;-;-;-;-;-;-;-;-;-;-;-;-
1512467479374;-;-;10.629547;-1.5404816;-1.0419922;-;-;-;-;-;-;-;-;-;-;-;-;-;-;-
1512467479395;-;-;10.166275;-1.696106;-0.8468628;-;-;-;-;-;-;-;-;-;-;-;-;-;-;-
1512467479415;-;-;8.96199;-1.5979309;-0.7008209;-;-;-;-;-;-;-;-;-;-;-;-;-;-;-
1512467479436;-;-;7.679886;-1.0173492;-0.76426697;-;-;-;-;-;-;-;-;-;-;-;-;-;-;-
1512467479456;-;-;7.6499634;-0.39245605;-0.803772;-;-;-;-;-;-;-;-;-;-;-;-;-;-;-
1512467479477;-;-;8.629196;-0.47505188;-0.6409607;-;-;-;-;-;-;-;-;-;-;-;-;-;-;-
1512467479497;-;-;9.2756195;-1.0221252;-0.6086426;-;-;-;-;-;-;-;-;-;-;-;-;-;-;-
1512467479518;-;-;9.458786;-1.8684845;-0.102264404;-;-;-;-;-;-;-;-;-;-;-;-;-;-;-
1512467479538;-;-;9.747284;-2.5963135;0.17425537;-;-;-;-;-;-;-;-;-;-;-;-;-;-;-
1512467479559;-;-;10.422455;-2.3114166;0.108428955;-;-;-;-;-;-;-;-;-;-;-;-;-;-;-
1512467479578;-;-;10.852203;-2.024109;-0.491333;-;-;-;-;-;-;-;-;-;-;-;-;-;-;-
1512467479599;-;-;10.385345;-1.4782257;-0.7475128;-;-;-;-;-;-;-;-;-;-;-;-;-;-;-
1512467479619;-;-;9.620392;-0.9479065;-0.2674713;-;-;-;-;-;-;-;-;-;-;-;-;-;-;-
1512467479640;-;-;9.360626;-0.2272644;0.2341156;-;-;-;-;-;-;-;-;-;-;-;-;-;-;-
1512467479660;-;-;9.339081;0.07081604;0.1946106;-;-;-;-;-;-;-;-;-;-;-;-;-;-;-
1512467479681;-;-;9.497086;-0.4439392;0.04019165;-;-;-;-;-;-;-;-;-;-;-;-;-;-;-
1512467479701;-;-;9.397736;-1.2124786;0.21257019;-;-;-;-;-;-;-;-;-;-;-;-;-;-;-
1512467479722;-;-;9.009872;-2.12706;0.5298004;-;-;-;-;-;-;-;-;-;-;-;-;-;-;-
1512467479742;-;-;8.827911;-2.1617737;0.14672852;-;-;-;-;-;-;-;-;-;-;-;-;-;-;-
1512467479762;-;-;9.044586;-1.5548401;-0.10586548;-;-;-;-;-;-;-;-;-;-;-;-;-;-;-
1512467479783;-;-;9.366608;-0.6641998;-0.5428009;-;-;-;-;-;-;-;-;-;-;-;-;-;-;-
1512467479804;-;-;9.274429;0.2527771;-0.5248413;-;-;-;-;-;-;-;-;-;-;-;-;-;-;-
1512467479824;-;-;9.374985;0.33059692;-0.020858765;-;-;-;-;-;-;-;-;-;-;-;-;-;-;-
1512467479844;-;-;9.380966;-0.31225586;-0.0041046143;-;-;-;-;-;-;-;-;-;-;-;-;-;-;-
1512467479865;-;-;9.330688;-1.1107178;0.27720642;-;-;-;-;-;-;-;-;-;-;-;-;-;-;-
1512467479885;-;-;9.165497;-1.6553955;0.62316895;-;-;-;-;-;-;-;-;-;-;-;-;-;-;-
1512467479906;-;-;9.080505;-1.7308197;1.2301025;-;-;-;-;-;-;-;-;-;-;-;-;-;-;-
1512467479925;-;-;8.674683;-1.6242676;1.1187744;-;-;-;-;-;-;-;-;-;-;-;-;-;-;-
1512467479946;-;-;8.392166;-1.5560455;0.64112854;-;-;-;-;-;-;-;-;-;-;-;-;-;-;-
1512467479967;-;-;8.74292;-1.3202057;1.1451111;-;-;-;-;-;-;-;-;-;-;-;-;-;-;-
1512467479987;-;-;9.61441;-1.0293121;0.27601624;-;-;-;-;-;-;-;-;-;-;-;-;-;-;-
1512467480008;-;-;9.900513;-0.4152069;0.9284363;-;-;-;-;-;-;-;-;-;-;-;-;-;-;-
1512467480027;-;-;10.08606;0.0013885498;0.8709717;-;-;-;-;-;-;-;-;-;-;-;-;-;-;-
1512467480047;-;-;9.9496;-0.5672302;0.4807129;-;-;-;-;-;-;-;-;-;-;-;-;-;-;-
1512467480068;-;-;9.130783;-1.4542847;0.8889313;-;-;-;-;-;-;-;-;-;-;-;-;-;-;-
1512467480088;-;-;8.7656555;-2.435913;1.2277069;-;-;-;-;-;-;-;-;-;-;-;-;-;-;-
1512467480109;-;-;8.826721;-2.724411;1.5485382;-;-;-;-;-;-;-;-;-;-;-;-;-;-;-
1512467480130;-;-;8.863831;-1.8972168;1.2061615;-;-;-;-;-;-;-;-;-;-;-;-;-;-;-
1512467480150;-;-;8.859039;-1.1574097;0.5920563;-;-;-;-;-;-;-;-;-;-;-;-;-;-;-
1512467480170;-;-;8.8207245;-0.60913086;0.73091125;-;-;-;-;-;-;-;-;-;-;-;-;-;-;-
1512467480191;-;-;9.051773;-0.29309082;0.73928833;-;-;-;-;-;-;-;-;-;-;-;-;-;-;-
1512467480210;-;-;9.146347;0.052871704;0.5453644;-;-;-;-;-;-;-;-;-;-;-;-;-;-;-
1512467480231;-;-;9.468353;-0.0440979;0.9451904;-;-;-;-;-;-;-;-;-;-;-;-;-;-;-
1512467480251;-;-;9.645538;-0.3086548;1.0708923;-;-;-;-;-;-;-;-;-;-;-;-;-;-;-
1512467480272;-;-;9.299576;-0.973053;1.12117;-;-;-;-;-;-;-;-;-;-;-;-;-;-;-
1512467480292;-;-;8.7656555;-1.491394;1.4060822;-;-;-;-;-;-;-;-;-;-;-;-;-;-;-
1512467480312;-;-;7.7684784;-1.9989624;2.251236;-;-;-;-;-;-;-;-;-;-;-;-;-;-;-
1512467480332;-;-;7.5075073;-1.7368011;2.501419;-;-;-;-;-;-;-;-;-;-;-;-;-;-;-
1512467480353;-;-;7.976776;-1.1059265;2.007019;-;-;-;-;-;-;-;-;-;-;-;-;-;-;-
1512467480373;-;-;9.058945;-0.41879272;1.9124603;-;-;-;-;-;-;-;-;-;-;-;-;-;-;-
1512467480394;-;-;10.265625;0.038497925;1.4767151;-;-;-;-;-;-;-;-;-;-;-;-;-;-;-
1512467480414;-;-;10.737289;-0.27514648;0.71295166;-;-;-;-;-;-;-;-;-;-;-;-;-;-;-
1512467480435;-;-;9.802353;-0.8569336;0.99786377;-;-;-;-;-;-;-;-;-;-;-;-;-;-;-
1512467480455;-;-;8.574127;-1.9271393;2.220108;-;-;-;-;-;-;-;-;-;-;-;-;-;-;-
1512467480475;-;-;8.458008;-2.5089264;2.1051788;-;-;-;-;-;-;-;-;-;-;-;-;-;-;-
1512467480496;-;-;8.631592;-2.6310425;1.1331329;-;-;-;-;-;-;-;-;-;-;-;-;-;-;-
1512467480517;-;-;9.109222;-1.9642487;1.1295471;-;-;-;-;-;-;-;-;-;-;-;-;-;-;-
1512467480537;-;-;9.281616;-0.15423584;0.8147125;-;-;-;-;-;-;-;-;-;-;-;-;-;-;-
1512467480558;-;-;9.161896;1.6785278;0.21496582;-;-;-;-;-;-;-;-;-;-;-;-;-;-;-
1512467480578;-;-;10.16507;1.6067047;-0.03642273;-;-;-;-;-;-;-;-;-;-;-;-;-;-;-
1512467480598;-;-;10.555328;-0.16381836;-0.34648132;-;-;-;-;-;-;-;-;-;-;-;-;-;-;-
1512467480619;-;-;10.036987;-0.87968445;0.22573853;-;-;-;-;-;-;-;-;-;-;-;-;-;-;-
1512467480638;-;-;9.540192;-0.5337219;0.66867065;-;-;-;-;-;-;-;-;-;-;-;-;-;-;-
1512467480658;-;-;8.720169;-0.12908936;0.6363373;-;-;-;-;-;-;-;-;-;-;-;-;-;-;-
1512467480678;-;-;8.625595;0.23123169;0.14553833;-;-;-;-;-;-;-;-;-;-;-;-;-;-;-
1512467480699;-;-;9.479141;-0.054870605;0.048568726;-;-;-;-;-;-;-;-;-;-;-;-;-;-;-
1512467480718;-;-;9.313934;-0.7587738;0.07609558;-;-;-;-;-;-;-;-;-;-;-;-;-;-;-
1512467480738;-;-;8.593277;-1.1765594;0.92962646;-;-;-;-;-;-;-;-;-;-;-;-;-;-;-
1512467480759;-;-;7.6080627;-1.3070374;1.2432709;-;-;-;-;-;-;-;-;-;-;-;-;-;-;-
1512467480780;-;-;7.5781403;-0.0045928955;1.5449371;-;-;-;-;-;-;-;-;-;-;-;-;-;-;-
1512467480800;-;-;8.677078;0.56521606;0.8661804;-;-;-;-;-;-;-;-;-;-;-;-;-;-;-
1512467480819;-;-;9.444412;-0.46069336;0.5657196;-;-;-;-;-;-;-;-;-;-;-;-;-;-;-
1512467480839;-;-;9.622787;-1.577591;0.8111267;-;-;-;-;-;-;-;-;-;-;-;-;-;-;-
1512467480860;-;-;10.094437;-2.064804;0.7728119;-;-;-;-;-;-;-;-;-;-;-;-;-;-;-
1512467480880;-;-;9.506668;-1.4231567;0.8218994;-;-;-;-;-;-;-;-;-;-;-;-;-;-;-
1512467480901;-;-;8.7812195;-0.5253296;1.7687988;-;-;-;-;-;-;-;-;-;-;-;-;-;-;-
1512467480920;-;-;8.862625;-0.25837708;1.5150146;-;-;-;-;-;-;-;-;-;-;-;-;-;-;-
1512467480941;-;-;9.641937;0.026535034;1.5880432;-;-;-;-;-;-;-;-;-;-;-;-;-;-;-
1512467480961;-;-;10.199783;0.08518982;1.1427155;-;-;-;-;-;-;-;-;-;-;-;-;-;-;-
1512467480982;-;-;9.931641;-0.5612488;1.4384003;-;-;-;-;-;-;-;-;-;-;-;-;-;-;-
1512467481002;-;-;9.263657;-1.1693726;1.6550751;-;-;-;-;-;-;-;-;-;-;-;-;-;-;-
1512467481023;-;-;9.161896;-1.4303436;1.6766205;-;-;-;-;-;-;-;-;-;-;-;-;-;-;-
1512467481043;-;-;9.263657;-1.1406403;1.5664978;-;-;-;-;-;-;-;-;-;-;-;-;-;-;-
1512467481064;-;-;9.699402;-1.0783997;1.5293732;-;-;-;-;-;-;-;-;-;-;-;-;-;-;-
1512467481085;-;-;9.803543;-1.0592499;1.7221069;-;-;-;-;-;-;-;-;-;-;-;-;-;-;-
1512467481105;-;-;9.064941;-0.6905365;1.8861237;-;-;-;-;-;-;-;-;-;-;-;-;-;-;-
1512467481125;-;-;8.740524;-0.56843567;1.6885986;-;-;-;-;-;-;-;-;-;-;-;-;-;-;-
1512467481146;-;-;8.711792;-0.86172485;1.291153;-;-;-;-;-;-;-;-;-;-;-;-;-;-;-
1512467481167;-;-;8.763275;-0.76834106;1.136734;-;-;-;-;-;-;-;-;-;-;-;-;-;-;-
1512467481187;-;-;8.924881;-0.08958435;1.686203;-;-;-;-;-;-;-;-;-;-;-;-;-;-;-
1512467481208;-;-;9.289993;0.010971069;2.0812378;-;-;-;-;-;-;-;-;-;-;-;-;-;-;-
1512467481227;-;-;9.421677;-0.5827942;1.6383209;-;-;-;-;-;-;-;-;-;-;-;-;-;-;-
1512467481248;-;-;9.299576;-0.8748932;1.796341;-;-;-;-;-;-;-;-;-;-;-;-;-;-;-
1512467481268;-;-;8.908112;-0.8377838;1.5269928;-;-;-;-;-;-;-;-;-;-;-;-;-;-;-
1512467481288;-;-;8.373016;-0.55766296;1.5652924;-;-;-;-;-;-;-;-;-;-;-;-;-;-;-
1512467481309;-;-;8.180283;-0.026138306;1.7939453;-;-;-;-;-;-;-;-;-;-;-;-;-;-;-
1512467481329;-;-;8.459198;0.31622314;1.7556305;-;-;-;-;-;-;-;-;-;-;-;-;-;-;-
1512467481350;-;-;8.746506;-0.00819397;1.9148407;-;-;-;-;-;-;-;-;-;-;-;-;-;-;-
1512467481370;-;-;8.689041;-0.368515;1.919632;-;-;-;-;-;-;-;-;-;-;-;-;-;-;-
1512467481391;-;-;8.631592;-0.06324768;2.0549011;-;-;-;-;-;-;-;-;-;-;-;-;-;-;-
1512467481411;-;-;8.376602;0.5987396;1.8813324;-;-;-;-;-;-;-;-;-;-;-;-;-;-;-
1512467481432;-;-;8.886566;0.6897278;1.5497284;-;-;-;-;-;-;-;-;-;-;-;-;-;-;-
1512467481453;-;-;9.507858;0.26475525;1.291153;-;-;-;-;-;-;-;-;-;-;-;-;-;-;-
1512467481473;-;-;9.538986;0.42277527;1.2696075;-;-;-;-;-;-;-;-;-;-;-;-;-;-;-
1512467481493;-;-;9.239716;0.6071167;1.3988953;-;-;-;-;-;-;-;-;-;-;-;-;-;-;-
1512467481514;-;-;8.686661;0.68733215;1.4671326;-;-;-;-;-;-;-;-;-;-;-;-;-;-;-
1512467481534;-;-;8.017471;0.61909485;1.607193;-;-;-;-;-;-;-;-;-;-;-;-;-;-;-
1512467481555;-;-;7.1878815;0.15701294;2.0201874;-;-;-;-;-;-;-;-;-;-;-;-;-;-;-
1512467481576;-;-;6.9556427;0.115112305;2.1291351;-;-;-;-;-;-;-;-;-;-;-;-;-;-;-
1512467481596;-;-;7.738556;0.33537292;1.883728;-;-;-;-;-;-;-;-;-;-;-;-;-;-;-
1512467481616;-;-;8.428085;0.38565063;1.4407959;-;-;-;-;-;-;-;-;-;-;-;-;-;-;-
1512467481637;-;-;8.595673;0.45988464;0.89012146;-;-;-;-;-;-;-;-;-;-;-;-;-;-;-
1512467481656;-;-;8.8003845;1.0560303;1.2540436;-;-;-;-;-;-;-;-;-;-;-;-;-;-;-
1512467481677;-;-;8.456802;2.0065308;1.7077484;-;-;-;-;-;-;-;-;-;-;-;-;-;-;-
1512467481697;-;-;8.241333;2.569168;1.5605011;-;-;-;-;-;-;-;-;-;-;-;-;-;-;-
1512467481718;-;-;8.626801;1.868866;1.1307526;-;-;-;-;-;-;-;-;-;-;-;-;-;-;-
1512467481739;-;-;8.1707;1.6031036;-0.26626587;-;-;-;-;-;-;-;-;-;-;-;-;-;-;-
1512467481759;-;-;8.307175;0.8345642;0.6542969;-;-;-;-;-;-;-;-;-;-;-;-;-;-;-
1512467481780;-;-;9.555756;0.43952942;2.8042908;-;-;-;-;-;-;-;-;-;-;-;-;-;-;-
1512467481800;-;-;10.217743;0.083984375;1.6347198;-;-;-;-;-;-;-;-;-;-;-;-;-;-;-
1512467481821;-;-;11.238876;0.14144897;2.1075745;-;-;-;-;-;-;-;-;-;-;-;-;-;-;-
1512467481841;-;-;10.455963;0.0049743652;1.3426361;-;-;-;-;-;-;-;-;-;-;-;-;-;-;-
1512467481862;-;-;9.756866;0.7435913;-1.0779114;-;-;-;-;-;-;-;-;-;-;-;-;-;-;-
1512467481882;-;-;10.849808;1.1793365;-3.7199097;-;-;-;-;-;-;-;-;-;-;-;-;-;-;-
1512467481902;-;-;13.900024;0.23960876;-5.480835;-;-;-;-;-;-;-;-;-;-;-;-;-;-;-
1512467481923;-;-;14.546463;-0.8282013;-5.424576;-;-;-;-;-;-;-;-;-;-;-;-;-;-;-
1512467481944;-;-;11.581238;-2.0121307;-3.3488007;-;-;-;-;-;-;-;-;-;-;-;-;-;-;-
1512467481964;-;-;8.7608795;-4.989319;-0.91389465;-;-;-;-;-;-;-;-;-;-;-;-;-;-;-
1512467481985;-;-;6.506729;-7.1417084;-0.9007416;-;-;-;-;-;-;-;-;-;-;-;-;-;-;-
1512467482005;-;-;6.098526;-6.1217804;-1.0180511;-;-;-;-;-;-;-;-;-;-;-;-;-;-;-
1512467482025;-;-;6.9305115;-3.8688354;-1.7470856;-;-;-;-;-;-;-;-;-;-;-;-;-;-;-
1512467482046;-;-;8.335907;-0.98861694;-2.452179;-;-;-;-;-;-;-;-;-;-;-;-;-;-;-
1512467482065;-;-;8.175491;0.5065613;-2.7849731;-;-;-;-;-;-;-;-;-;-;-;-;-;-;-
1512467482086;-;-;7.763687;-0.78990173;-1.6058197;-;-;-;-;-;-;-;-;-;-;-;-;-;-;-
1512467482106;-;-;7.2118225;-2.262329;-1.9098969;-;-;-;-;-;-;-;-;-;-;-;-;-;-;-
1512467482127;-;-;6.8910065;-2.574768;-1.0000916;-;-;-;-;-;-;-;-;-;-;-;-;-;-;-
1512467482147;-;-;6.336746;-2.535263;-0.54519653;-;-;-;-;-;-;-;-;-;-;-;-;-;-;-
1512467482168;-;-;6.6132813;-2.4215393;-1.7255402;-;-;-;-;-;-;-;-;-;-;-;-;-;-;-
1512467482188;-;-;6.6467896;-1.7631378;-2.8268738;-;-;-;-;-;-;-;-;-;-;-;-;-;-;-
1512467482207;-;-;6.6180573;-0.9646759;-2.6784363;-;-;-;-;-;-;-;-;-;-;-;-;-;-;-
1512467482227;-;-;6.5905304;-0.6821594;-2.3444366;-;-;-;-;-;-;-;-;-;-;-;-;-;-;-
1512467482248;-;-;7.4596252;-1.5237122;-1.5064697;-;-;-;-;-;-;-;-;-;-;-;-;-;-;-
1512467482268;-;-;8.064163;-1.7655334;-1.4753418;-;-;-;-;-;-;-;-;-;-;-;-;-;-;-
1512467482289;-;-;6.554611;-0.6917267;-1.8524323;-;-;-;-;-;-;-;-;-;-;-;-;-;-;-
1512467482309;-;-;6.692276;0.095962524;-1.5603333;-;-;-;-;-;-;-;-;-;-;-;-;-;-;-
1512467482329;-;-;7.3614655;0.013366699;-1.0072784;-;-;-;-;-;-;-;-;-;-;-;-;-;-;-
1512467482349;-;-;9.883759;-1.2052917;-2.2139587;-;-;-;-;-;-;-;-;-;-;-;-;-;-;-
1512467482369;-;-;10.564911;-1.9917908;-3.3595734;-;-;-;-;-;-;-;-;-;-;-;-;-;-;-
1512467482390;-;-;8.774048;-2.2946472;-3.0866394;-;-;-;-;-;-;-;-;-;-;-;-;-;-;-
1512467482410;-;-;7.348297;-2.0073395;-1.9924927;-;-;-;-;-;-;-;-;-;-;-;-;-;-;-
1512467482430;-;-;7.8630524;-1.6087189;-1.9565735;-;-;-;-;-;-;-;-;-;-;-;-;-;-;-
1512467482451;-;-;9.629974;-1.8217926;-1.7901764;-;-;-;-;-;-;-;-;-;-;-;-;-;-;-
1512467482471;-;-;10.692993;-1.5608215;-1.282608;-;-;-;-;-;-;-;-;-;-;-;-;-;-;-
1512467482491;-;-;10.174652;-1.0161438;-1.6393433;-;-;-;-;-;-;-;-;-;-;-;-;-;-;-
1512467482512;-;-;9.401321;-0.78271484;-1.9697418;-;-;-;-;-;-;-;-;-;-;-;-;-;-;-
1512467482532;-;-;10.853409;-1.1849365;-1.98172;-;-;-;-;-;-;-;-;-;-;-;-;-;-;-
1512467482553;-;-;11.560898;-1.0724182;-2.4342194;-;-;-;-;-;-;-;-;-;-;-;-;-;-;-
1512467482573;-;-;12.1367035;-0.54689026;-1.9230652;-;-;-;-;-;-;-;-;-;-;-;-;-;-;-
1512467482594;-;-;12.625122;0.09715271;-1.2598572;-;-;-;-;-;-;-;-;-;-;-;-;-;-;-
1512467482614;-;-;11.920029;0.33299255;-1.48732;-;-;-;-;-;-;-;-;-;-;-;-;-;-;-
1512467482634;-;-;10.8402405;-0.73243713;-2.254654;-;-;-;-;-;-;-;-;-;-;-;-;-;-;-
1512467482655;-;-;11.152679;-1.6494141;-1.7698364;-;-;-;-;-;-;-;-;-;-;-;-;-;-;-
1512467482675;-;-;11.019806;-1.5895538;-1.0599518;-;-;-;-;-;-;-;-;-;-;-;-;-;-;-
1512467482696;-;-;11.147888;-0.8353882;-1.0431824;-;-;-;-;-;-;-;-;-;-;-;-;-;-;-
1512467482716;-;-;11.243668;-0.20930481;-1.2730255;-;-;-;-;-;-;-;-;-;-;-;-;-;-;-
1512467482737;-;-;11.921219;-0.14704895;-1.5172424;-;-;-;-;-;-;-;-;-;-;-;-;-;-;-
1512467482757;-;-;11.7500305;-0.32901;-2.13974;-;-;-;-;-;-;-;-;-;-;-;-;-;-;-
1512467482778;-;-;10.301544;-0.31344604;-1.8452454;-;-;-;-;-;-;-;-;-;-;-;-;-;-;-
1512467482798;-;-;9.770035;-1.2088776;-1.8859406;-;-;-;-;-;-;-;-;-;-;-;-;-;-;-
1512467482819;-;-;9.3941345;-1.874466;-1.618988;-;-;-;-;-;-;-;-;-;-;-;-;-;-;-
1512467482839;-;-;9.203796;-1.9714355;-1.3484497;-;-;-;-;-;-;-;-;-;-;-;-;-;-;-
1512467482860;-;-;8.503494;-1.1837463;-0.966568;-;-;-;-;-;-;-;-;-;-;-;-;-;-;-
1512467482880;-;-;8.156342;-0.4092102;-0.8456726;-;-;-;-;-;-;-;-;-;-;-;-;-;-;-
1512467482901;-;-;9.012268;-0.5097656;-0.9450226;-;-;-;-;-;-;-;-;-;-;-;-;-;-;-
1512467482921;-;-;8.928467;-0.4559021;-1.1473389;-;-;-;-;-;-;-;-;-;-;-;-;-;-;-
1512467482941;-;-;9.523422;-0.917984;-0.8744049;-;-;-;-;-;-;-;-;-;-;-;-;-;-;-
1512467482962;-;-;9.635956;-0.74679565;-0.50090027;-;-;-;-;-;-;-;-;-;-;-;-;-;-;-
1512467482982;-;-;9.43364;-0.5061798;-0.41949463;-;-;-;-;-;-;-;-;-;-;-;-;-;-;-
1512467483003;-;-;9.516251;-0.8856659;-0.52963257;-;-;-;-;-;-;-;-;-;-;-;-;-;-;-
1512467483023;-;-;9.589264;-1.0927582;-0.84088135;-;-;-;-;-;-;-;-;-;-;-;-;-;-;-
1512467483044;-;-;9.501877;-1.0580444;-0.7163849;-;-;-;-;-;-;-;-;-;-;-;-;-;-;-
1512467483064;-;-;9.17746;-0.87968445;-0.7451172;-;-;-;-;-;-;-;-;-;-;-;-;-;-;-
1512467483084;-;-;8.886566;-1.0747986;-0.7750397;-;-;-;-;-;-;-;-;-;-;-;-;-;-;-
1512467483105;-;-;8.790802;-1.2280273;-0.77145386;-;-;-;-;-;-;-;-;-;-;-;-;-;-;-
1512467483125;-;-;9.246902;-1.4949799;-0.5284424;-;-;-;-;-;-;-;-;-;-;-;-;-;-;-
1512467483146;-;-;9.29837;-1.4782257;-0.27464294;-;-;-;-;-;-;-;-;-;-;-;-;-;-;-
1512467483166;-;-;9.233734;-1.4734344;-0.24113464;-;-;-;-;-;-;-;-;-;-;-;-;-;-;-
1512467483187;-;-;9.21817;-1.2172546;-0.2291565;-;-;-;-;-;-;-;-;-;-;-;-;-;-;-
1512467483207;-;-;9.676651;-1.0496674;0.28320313;-;-;-;-;-;-;-;-;-;-;-;-;-;-;-
1512467483228;-;-;9.589264;-1.0747986;0.53578186;-;-;-;-;-;-;-;-;-;-;-;-;-;-;-
1512467483247;-;-;9.419281;-1.348938;0.21496582;-;-;-;-;-;-;-;-;-;-;-;-;-;-;-
1512467483268;-;-;9.2313385;-1.0867767;-0.38838196;-;-;-;-;-;-;-;-;-;-;-;-;-;-;-
1512467483288;-;-;9.230133;-0.5636444;-0.39915466;-;-;-;-;-;-;-;-;-;-;-;-;-;-;-
1512467483309;-;-;9.023041;-0.31105042;0.06892395;-;-;-;-;-;-;-;-;-;-;-;-;-;-;-
1512467483329;-;-;9.067337;-0.6582184;0.46037292;-;-;-;-;-;-;-;-;-;-;-;-;-;-;-
1512467483350;-;-;9.379776;-1.1083221;0.43643188;-;-;-;-;-;-;-;-;-;-;-;-;-;-;-
1512467483371;-;-;9.717361;-1.3381653;0.56092834;-;-;-;-;-;-;-;-;-;-;-;-;-;-;-
1512467483391;-;-;9.585678;-1.3321838;0.686615;-;-;-;-;-;-;-;-;-;-;-;-;-;-;-
1512467483411;-;-;9.154724;-1.175354;0.79914856;-;-;-;-;-;-;-;-;-;-;-;-;-;-;-
1512467483432;-;-;9.184647;-0.81144714;1.2504578;-;-;-;-;-;-;-;-;-;-;-;-;-;-;-
1512467483452;-;-;8.98114;-0.6127167;0.9463959;-;-;-;-;-;-;-;-;-;-;-;-;-;-;-
1512467483473;-;-;8.880585;-0.76356506;1.0158234;-;-;-;-;-;-;-;-;-;-;-;-;-;-;-
1512467483492;-;-;8.611237;-0.80426025;1.0696869;-;-;-;-;-;-;-;-;-;-;-;-;-;-;-
1512467483512;-;-;8.569336;-0.82940674;0.6842346;-;-;-;-;-;-;-;-;-;-;-;-;-;-;-
1512467483533;-;-;9.076904;-1.0927582;0.642334;-;-;-;-;-;-;-;-;-;-;-;-;-;-;-
1512467483554;-;-;9.3701935;-1.2878876;0.51304626;-;-;-;-;-;-;-;-;-;-;-;-;-;-;-
1512467483575;-;-;9.333084;-1.4111938;0.721344;-;-;-;-;-;-;-;-;-;-;-;-;-;-;-
1512467483595;-;-;9.146347;-1.5392761;0.9859009;-;-;-;-;-;-;-;-;-;-;-;-;-;-;-
1512467483615;-;-;9.12001;-1.4135895;0.9116821;-;-;-;-;-;-;-;-;-;-;-;-;-;-;-
1512467483635;-;-;9.115219;-1.230423;0.79556274;-;-;-;-;-;-;-;-;-;-;-;-;-;-;-
1512467483656;-;-;9.128387;-1.1837463;0.54655457;-;-;-;-;-;-;-;-;-;-;-;-;-;-;-
1512467483676;-;-;9.165497;-1.0376892;0.67225647;-;-;-;-;-;-;-;-;-;-;-;-;-;-;-
1512467483697;-;-;9.330688;-0.7886963;0.82069397;-;-;-;-;-;-;-;-;-;-;-;-;-;-;-
1512467483717;-;-;9.511459;-0.49899292;0.8135071;-;-;-;-;-;-;-;-;-;-;-;-;-;-;-
1512467483738;-;-;9.479141;-0.40682983;0.67344666;-;-;-;-;-;-;-;-;-;-;-;-;-;-;-
1512467483758;-;-;9.371399;-0.4774475;0.69140625;-;-;-;-;-;-;-;-;-;-;-;-;-;-;-
1512467483778;-;-;9.285202;-0.64624023;0.83625793;-;-;-;-;-;-;-;-;-;-;-;-;-;-;-
1512467483799;-;-;8.98233;-0.7587738;1.3905182;-;-;-;-;-;-;-;-;-;-;-;-;-;-;-
1512467483819;-;-;8.788406;-0.9084015;1.7999268;-;-;-;-;-;-;-;-;-;-;-;-;-;-;-
1512467483840;-;-;8.964386;-0.9084015;1.8908997;-;-;-;-;-;-;-;-;-;-;-;-;-;-;-
1512467483860;-;-;8.912903;-0.72525024;1.6395111;-;-;-;-;-;-;-;-;-;-;-;-;-;-;-
1512467483880;-;-;8.809952;-0.6833496;1.349823;-;-;-;-;-;-;-;-;-;-;-;-;-;-;-
1512467483901;-;-;9.123596;-0.82221985;1.1642609;-;-;-;-;-;-;-;-;-;-;-;-;-;-;-
1512467483921;-;-;9.6467285;-0.8748932;0.8661804;-;-;-;-;-;-;-;-;-;-;-;-;-;-;-
1512467483942;-;-;9.773621;-0.78630066;0.5369873;-;-;-;-;-;-;-;-;-;-;-;-;-;-;-
1512467483962;-;-;9.385757;-0.6941223;0.50704956;-;-;-;-;-;-;-;-;-;-;-;-;-;-;-
1512467483983;-;-;9.017059;-0.838974;1.0325775;-;-;-;-;-;-;-;-;-;-;-;-;-;-;-
1512467484003;-;-;8.772842;-0.94192505;1.370163;-;-;-;-;-;-;-;-;-;-;-;-;-;-;-
1512467484023;-;-;8.769257;-0.7815094;1.4312134;-;-;-;-;-;-;-;-;-;-;-;-;-;-;-
1512467484043;-;-;8.97995;-0.47146606;1.3174896;-;-;-;-;-;-;-;-;-;-;-;-;-;-;-
1512467484064;-;-;9.100845;-0.057266235;1.3605957;-;-;-;-;-;-;-;-;-;-;-;-;-;-;-
1512467484085;-;-;9.145142;0.22045898;1.3019257;-;-;-;-;-;-;-;-;-;-;-;-;-;-;-
1512467484105;-;-;9.209793;0.26235962;1.2815857;-;-;-;-;-;-;-;-;-;-;-;-;-;-;-
1512467484125;-;-;9.43364;0.2527771;1.6873932;-;-;-;-;-;-;-;-;-;-;-;-;-;-;-
1512467484145;-;-;9.473145;-0.054870605;1.7735901;-;-;-;-;-;-;-;-;-;-;-;-;-;-;-
1512467484166;-;-;9.25528;-0.4559021;1.2540436;-;-;-;-;-;-;-;-;-;-;-;-;-;-;-
1512467484186;-;-;9.039795;-0.48582458;1.2791901;-;-;-;-;-;-;-;-;-;-;-;-;-;-;-
1512467484207;-;-;8.995499;-0.49421692;1.2384796;-;-;-;-;-;-;-;-;-;-;-;-;-;-;-
1512467484227;-;-;9.039795;-0.5061798;0.87934875;-;-;-;-;-;-;-;-;-;-;-;-;-;-;-
1512467484248;-;-;9.099655;-0.5217438;0.6961975;-;-;-;-;-;-;-;-;-;-;-;-;-;-;-
1512467484268;-;-;9.228943;-0.47625732;0.61479187;-;-;-;-;-;-;-;-;-;-;-;-;-;-;-
1512467484289;-;-;9.268448;-0.3469696;0.48550415;-;-;-;-;-;-;-;-;-;-;-;-;-;-;-
1512467484309;-;-;9.155914;-0.100372314;0.59324646;-;-;-;-;-;-;-;-;-;-;-;-;-;-;-
1512467484329;-;-;9.136765;-0.095581055;0.6315613;-;-;-;-;-;-;-;-;-;-;-;-;-;-;-
1512467484350;-;-;9.262466;-0.2320404;0.6459198;-;-;-;-;-;-;-;-;-;-;-;-;-;-;-
1512467484371;-;-;9.3151245;-0.21289063;0.57888794;-;-;-;-;-;-;-;-;-;-;-;-;-;-;-
1512467484391;-;-;9.300766;-0.1302948;0.6315613;-;-;-;-;-;-;-;-;-;-;-;-;-;-;-
1512467484411;-;-;9.146347;-0.210495;0.9990692;-;-;-;-;-;-;-;-;-;-;-;-;-;-;-
1512467484432;-;-;9.105637;-0.37091064;1.176239;-;-;-;-;-;-;-;-;-;-;-;-;-;-;-
1512467484452;-;-;9.074509;-0.42956543;1.3222809;-;-;-;-;-;-;-;-;-;-;-;-;-;-;-
1512467484473;-;-;9.109222;-0.62828064;1.4144592;-;-;-;-;-;-;-;-;-;-;-;-;-;-;-
1512467484492;-;-;9.280411;-0.7671509;1.4036865;-;-;-;-;-;-;-;-;-;-;-;-;-;-;-
1512467484513;-;-;9.410904;-0.8270111;1.3270721;-;-;-;-;-;-;-;-;-;-;-;-;-;-;-
1512467484533;-;-;9.263657;-0.73483276;1.2492523;-;-;-;-;-;-;-;-;-;-;-;-;-;-;-
1512467484554;-;-;9.124786;-0.72525024;1.3486176;-;-;-;-;-;-;-;-;-;-;-;-;-;-;-
1512467484574;-;-;9.038605;-0.8425598;1.4431915;-;-;-;-;-;-;-;-;-;-;-;-;-;-;-
1512467484594;-;-;9.130783;-0.9107971;1.5461426;-;-;-;-;-;-;-;-;-;-;-;-;-;-;-
1512467484615;-;-;9.0972595;-0.98501587;1.6682434;-;-;-;-;-;-;-;-;-;-;-;-;-;-;-
1512467484635;-;-;9.020645;-1.0580444;1.7268982;-;-;-;-;-;-;-;-;-;-;-;-;-;-;-
1512467484656;-;-;9.039795;-1.1286774;1.6742249;-;-;-;-;-;-;-;-;-;-;-;-;-;-;-
1512467484676;-;-;9.137955;-1.0161438;1.5712738;-;-;-;-;-;-;-;-;-;-;-;-;-;-;-
1512467484697;-;-;9.128387;-0.6689911;1.4395905;-;-;-;-;-;-;-;-;-;-;-;-;-;-;-
1512467484717;-;-;9.031418;-0.4774475;1.4479828;-;-;-;-;-;-;-;-;-;-;-;-;-;-;-
1512467484738;-;-;8.932053;-0.4379425;1.4324188;-;-;-;-;-;-;-;-;-;-;-;-;-;-;-
1512467484757;-;-;8.964386;-0.4738617;1.3402405;-;-;-;-;-;-;-;-;-;-;-;-;-;-;-
1512467484778;-;-;9.06134;-0.44631958;1.2504578;-;-;-;-;-;-;-;-;-;-;-;-;-;-;-
1512467484798;-;-;9.134369;-0.6582184;1.2420807;-;-;-;-;-;-;-;-;-;-;-;-;-;-;-
1512467484819;-;-;9.240906;-0.88087463;1.3282623;-;-;-;-;-;-;-;-;-;-;-;-;-;-;-
1512467484839;-;-;9.345062;-1.2483826;1.1929932;-;-;-;-;-;-;-;-;-;-;-;-;-;-;-
1512467484859;-;-;9.280411;-1.4698486;1.0852509;-;-;-;-;-;-;-;-;-;-;-;-;-;-;-
1512467484880;-;-;9.303162;-1.4339294;0.94758606;-;-;-;-;-;-;-;-;-;-;-;-;-;-;-
1512467484901;-;-;9.426468;-1.3166199;0.83865356;-;-;-;-;-;-;-;-;-;-;-;-;-;-;-
1512467484921;-;-;9.404907;-1.194519;0.77041626;-;-;-;-;-;-;-;-;-;-;-;-;-;-;-
1512467484942;-;-;9.3893585;-1.0891724;0.7512665;-;-;-;-;-;-;-;-;-;-;-;-;-;-;-
1512467484962;-;-;9.33429;-0.996994;0.9775238;-;-;-;-;-;-;-;-;-;-;-;-;-;-;-
1512467484983;-;-;9.2756195;-0.89523315;1.0254059;-;-;-;-;-;-;-;-;-;-;-;-;-;-;-
1512467485003;-;-;9.090073;-0.7336273;1.0373688;-;-;-;-;-;-;-;-;-;-;-;-;-;-;-
1512467485024;-;-;9.038605;-0.61990356;1.1295471;-;-;-;-;-;-;-;-;-;-;-;-;-;-;-
1512467485044;-;-;9.052963;-0.67855835;1.275589;-;-;-;-;-;-;-;-;-;-;-;-;-;-;-
1512467485065;-;-;9.131973;-0.7384186;1.3270721;-;-;-;-;-;-;-;-;-;-;-;-;-;-;-
1512467485085;-;-;9.189438;-0.63786316;1.2863617;-;-;-;-;-;-;-;-;-;-;-;-;-;-;-
1512467485106;-;-;9.096069;-0.53730774;1.2791901;-;-;-;-;-;-;-;-;-;-;-;-;-;-;-
1512467485126;-;-;8.990723;-0.54089355;1.3414307;-;-;-;-;-;-;-;-;-;-;-;-;-;-;-
1512467485146;-;-;9.017059;-0.66778564;1.3174896;-;-;-;-;-;-;-;-;-;-;-;-;-;-;-
1512467485167;-;-;9.197815;-0.739624;1.349823;-;-;-;-;-;-;-;-;-;-;-;-;-;-;-
1512467485186;-;-;9.269638;-0.7192688;1.3055267;-;-;-;-;-;-;-;-;-;-;-;-;-;-;-
1512467485207;-;-;9.181061;-0.64863586;1.196579;-;-;-;-;-;-;-;-;-;-;-;-;-;-;-
1512467485227;-;-;9.134369;-0.59477234;1.2181396;-;-;-;-;-;-;-;-;-;-;-;-;-;-;-
1512467485248;-;-;9.146347;-0.636673;1.294754;-;-;-;-;-;-;-;-;-;-;-;-;-;-;-
1512467485268;-;-;9.1523285;-0.71806335;1.2767944;-;-;-;-;-;-;-;-;-;-;-;-;-;-;-
1512467485289;-;-;9.117615;-0.7671509;1.270813;-;-;-;-;-;-;-;-;-;-;-;-;-;-;-
1512467485309;-;-;9.145142;-0.7922821;1.1941986;-;-;-;-;-;-;-;-;-;-;-;-;-;-;-
1512467485330;-;-;9.212173;-0.7623596;1.1594696;-;-;-;-;-;-;-;-;-;-;-;-;-;-;-
1512467485349;-;-;9.181061;-0.7216644;1.1882019;-;-;-;-;-;-;-;-;-;-;-;-;-;-;-
1512467485370;-;-;9.165497;-0.7108917;1.1810303;-;-;-;-;-;-;-;-;-;-;-;-;-;-;-
1512467485391;-;-;9.212173;-0.7013092;1.1391296;-;-;-;-;-;-;-;-;-;-;-;-;-;-;-
1512467485411;-;-;9.155914;-0.69651794;1.2743988;-;-;-;-;-;-;-;-;-;-;-;-;-;-;-
1512467485431;-;-;9.122391;-0.7264557;1.3893127;-;-;-;-;-;-;-;-;-;-;-;-;-;-;-
1512467485451;-;-;9.1918335;-0.76116943;1.4048767;-;-;-;-;-;-;-;-;-;-;-;-;-;-;-
1512467485472;-;-;9.142746;-0.7803192;1.3139038;-;-;-;-;-;-;-;-;-;-;-;-;-;-;-
1512467485492;-;-;9.155914;-0.75398254;1.2061615;-;-;-;-;-;-;-;-;-;-;-;-;-;-;-
1512467485513;-;-;9.172684;-0.7982788;1.1989746;-;-;-;-;-;-;-;-;-;-;-;-;-;-;-
1512467485533;-;-;9.048172;-0.9000244;1.3126984;-;-;-;-;-;-;-;-;-;-;-;-;-;-;-
1512467485553;-;-;9.099655;-0.9467163;1.2959442;-;-;-;-;-;-;-;-;-;-;-;-;-;-;-
1512467485573;-;-;9.244507;-0.85453796;1.191803;-;-;-;-;-;-;-;-;-;-;-;-;-;-;-
1512467485594;-;-;9.17746;-0.7527771;1.1582794;-;-;-;-;-;-;-;-;-;-;-;-;-;-;-
1512467485615;-;-;9.147537;-0.6929321;1.0684967;-;-;-;-;-;-;-;-;-;-;-;-;-;-;-
1512467485635;-;-;9.196625;-0.680954;1.0661011;-;-;-;-;-;-;-;-;-;-;-;-;-;-;-
1512467485656;-;-;9.225342;-0.72406006;1.0924377;-;-;-;-;-;-;-;-;-;-;-;-;-;-;-
1512467485676;-;-;9.230133;-0.6977234;1.0960236;-;-;-;-;-;-;-;-;-;-;-;-;-;-;-
1512467485696;-;-;9.196625;-0.68814087;1.0792694;-;-;-;-;-;-;-;-;-;-;-;-;-;-;-
1512467485716;-;-;9.17627;-0.73483276;1.1175842;-;-;-;-;-;-;-;-;-;-;-;-;-;-;-
1512467485737;-;-;9.159515;-0.6917267;1.1259613;-;-;-;-;-;-;-;-;-;-;-;-;-;-;-
1512467485757;-;-;9.171478;-0.74320984;1.0780792;-;-;-;-;-;-;-;-;-;-;-;-;-;-;-
1512467485778;-;-;9.184647;-0.8413696;1.081665;-;-;-;-;-;-;-;-;-;-;-;-;-;-;-
1512467485798;-;-;9.170288;-0.85095215;1.152298;-;-;-;-;-;-;-;-;-;-;-;-;-;-;-
1512467485818;-;-;9.189438;-0.82940674;1.1403198;-;-;-;-;-;-;-;-;-;-;-;-;-;-;-
1512467485839;-;-;9.108032;-0.77552795;1.1750336;-;-;-;-;-;-;-;-;-;-;-;-;-;-;-
1512467485858;-;-;9.122391;-0.720459;1.1546936;-;-;-;-;-;-;-;-;-;-;-;-;-;-;-
1512467485878;-;-;9.070923;-0.74320984;1.1905975;-;-;-;-;-;-;-;-;-;-;-;-;-;-;-
1512467485899;-;-;9.105637;-0.7420044;1.2181396;-;-;-;-;-;-;-;-;-;-;-;-;-;-;-
1512467485919;-;-;9.110428;-0.7503967;1.1618652;-;-;-;-;-;-;-;-;-;-;-;-;-;-;-
1512467485940;-;-;8.996704;-0.77552795;1.1283569;-;-;-;-;-;-;-;-;-;-;-;-;-;-;-
1512467485960;-;-;9.014664;-0.71328735;1.0589142;-;-;-;-;-;-;-;-;-;-;-;-;-;-;-
1512467485981;-;-;9.17627;-0.6869507;1.0637054;-;-;-;-;-;-;-;-;-;-;-;-;-;-;-
1512467486001;-;-;9.264847;-0.7480011;1.0122375;-;-;-;-;-;-;-;-;-;-;-;-;-;-;-
1512467486022;-;-;9.194229;-0.8305969;1.0086365;-;-;-;-;-;-;-;-;-;-;-;-;-;-;-
1512467486042;-;-;9.0972595;-0.8928528;1.1151886;-;-;-;-;-;-;-;-;-;-;-;-;-;-;-
1512467486063;-;-;9.127182;-0.9359436;1.1618652;-;-;-;-;-;-;-;-;-;-;-;-;-;-;-
1512467486084;-;-;9.301956;-0.84017944;1.2444763;-;-;-;-;-;-;-;-;-;-;-;-;-;-;-
1512467486104;-;-;9.260071;-0.73243713;1.0493469;-;-;-;-;-;-;-;-;-;-;-;-;-;-;-
1512467486125;-;-;9.103241;-0.7803192;0.97273254;-;-;-;-;-;-;-;-;-;-;-;-;-;-;-
1512467486145;-;-;9.197815;-0.9107971;1.018219;-;-;-;-;-;-;-;-;-;-;-;-;-;-;-
1512467486166;-;-;9.15831;-0.8868561;1.1798248;-;-;-;-;-;-;-;-;-;-;-;-;-;-;-
1512467486186;-;-;9.080505;-0.7515869;1.136734;-;-;-;-;-;-;-;-;-;-;-;-;-;-;-
1512467486207;-;-;9.100845;-0.8210144;0.96435547;-;-;-;-;-;-;-;-;-;-;-;-;-;-;-
1512467486227;-;-;9.25528;-0.83657837;0.85780334;-;-;-;-;-;-;-;-;-;-;-;-;-;-;-
1512467486247;-;-;9.303162;-0.7851105;0.7177429;-;-;-;-;-;-;-;-;-;-;-;-;-;-;-
1512467486267;-;-;9.304352;-0.6725769;0.6363373;-;-;-;-;-;-;-;-;-;-;-;-;-;-;-
1512467486288;-;-;9.252884;-0.581604;0.47833252;-;-;-;-;-;-;-;-;-;-;-;-;-;-;-
1512467486308;-;-;9.261261;-0.5732269;0.31193542;-;-;-;-;-;-;-;-;-;-;-;-;-;-;-
1512467486329;-;-;9.267242;-0.59117126;0.23890686;-;-;-;-;-;-;-;-;-;-;-;-;-;-;-
1512467486349;-;-;9.266052;-0.6498413;0.137146;-;-;-;-;-;-;-;-;-;-;-;-;-;-;-
1512467486369;-;-;9.364212;-0.7875061;-0.006500244;-;-;-;-;-;-;-;-;-;-;-;-;-;-;-
1512467486390;-;-;9.365402;-0.83657837;-0.01966858;-;-;-;-;-;-;-;-;-;-;-;-;-;-;-
1512467486410;-;-;9.346252;-0.7503967;0.023422241;-;-;-;-;-;-;-;-;-;-;-;-;-;-;-
1512467486430;-;-;9.227737;-0.7707367;0.10722351;-;-;-;-;-;-;-;-;-;-;-;-;-;-;-
1512467486451;-;-;9.145142;-0.7886963;0.1479187;-;-;-;-;-;-;-;-;-;-;-;-;-;-;-
1512467486471;-;-;9.214569;-0.82221985;0.120391846;-;-;-;-;-;-;-;-;-;-;-;-;-;-;-
1512467486492;-;-;9.318726;-0.7444;0.070114136;-;-;-;-;-;-;-;-;-;-;-;-;-;-;-
1512467486513;-;-;9.289993;-0.720459;0.10003662;-;-;-;-;-;-;-;-;-;-;-;-;-;-;-
1512467486533;-;-;9.287598;-0.70610046;0.1479187;-;-;-;-;-;-;-;-;-;-;-;-;-;-;-
1512467486553;-;-;9.312744;-0.7695465;0.26045227;-;-;-;-;-;-;-;-;-;-;-;-;-;-;-
1512467486574;-;-;9.291183;-0.7216644;0.39453125;-;-;-;-;-;-;-;-;-;-;-;-;-;-;-
1512467486594;-;-;9.228943;-0.67855835;0.41607666;-;-;-;-;-;-;-;-;-;-;-;-;-;-;-
1512467486615;-;-;9.205002;-0.6151123;0.35742188;-;-;-;-;-;-;-;-;-;-;-;-;-;-;-
1512467486635;-;-;9.220566;-0.6115265;0.32389832;-;-;-;-;-;-;-;-;-;-;-;-;-;-;-
1512467486656;-;-;9.309143;-0.6725769;0.29037476;-;-;-;-;-;-;-;-;-;-;-;-;-;-;-
1512467486675;-;-;9.294785;-0.7480011;0.30593872;-;-;-;-;-;-;-;-;-;-;-;-;-;-;-
1512467486695;-;-;9.294785;-0.75756836;0.36221313;-;-;-;-;-;-;-;-;-;-;-;-;-;-;-
1512467486716;-;-;9.348648;-0.8473511;0.4280548;-;-;-;-;-;-;-;-;-;-;-;-;-;-;-
1512467486736;-;-;9.189438;-0.8413696;0.33467102;-;-;-;-;-;-;-;-;-;-;-;-;-;-;-
1512467486756;-;-;9.151123;-0.87968445;0.3825531;-;-;-;-;-;-;-;-;-;-;-;-;-;-;-
1512467486777;-;-;9.182251;-0.9060211;0.3885498;-;-;-;-;-;-;-;-;-;-;-;-;-;-;-
1512467486798;-;-;9.212173;-0.9287567;0.5058594;-;-;-;-;-;-;-;-;-;-;-;-;-;-;-
1512467486817;-;-;9.135559;-0.8473511;0.52500916;-;-;-;-;-;-;-;-;-;-;-;-;-;-;-
1512467486838;-;-;9.165497;-0.85572815;0.5561371;-;-;-;-;-;-;-;-;-;-;-;-;-;-;-
1512467486857;-;-;9.257675;-0.86172485;0.5274048;-;-;-;-;-;-;-;-;-;-;-;-;-;-;-
1512467486878;-;-;9.280411;-0.89404297;0.5166321;-;-;-;-;-;-;-;-;-;-;-;-;-;-;-
1512467486898;-;-;9.252884;-0.8593292;0.63035583;-;-;-;-;-;-;-;-;-;-;-;-;-;-;-
1512467486919;-;-;9.239716;-0.79467773;0.70817566;-;-;-;-;-;-;-;-;-;-;-;-;-;-;-
1512467486939;-;-;9.213379;-0.78990173;0.69021606;-;-;-;-;-;-;-;-;-;-;-;-;-;-;-
1512467486960;-;-;9.21817;-0.783905;0.69859314;-;-;-;-;-;-;-;-;-;-;-;-;-;-;-
1512467486980;-;-;9.2313385;-0.84376526;0.7644348;-;-;-;-;-;-;-;-;-;-;-;-;-;-;-
1512467487001;-;-;9.146347;-0.8988342;0.8518219;-;-;-;-;-;-;-;-;-;-;-;-;-;-;-
1512467487021;-;-;9.148727;-0.95988464;0.8697815;-;-;-;-;-;-;-;-;-;-;-;-;-;-;-
1512467487041;-;-;9.206192;-0.9503021;0.88534546;-;-;-;-;-;-;-;-;-;-;-;-;-;-;-
1512467487062;-;-;9.210983;-0.89523315;0.8314667;-;-;-;-;-;-;-;-;-;-;-;-;-;-;-
1512467487082;-;-;9.190628;-0.9155884;0.83865356;-;-;-;-;-;-;-;-;-;-;-;-;-;-;-
1512467487103;-;-;9.202606;-0.9167938;0.7835846;-;-;-;-;-;-;-;-;-;-;-;-;-;-;-
1512467487123;-;-;9.228943;-0.9072113;0.63035583;-;-;-;-;-;-;-;-;-;-;-;-;-;-;-
1512467487144;-;-;9.227737;-0.9395294;0.60762024;-;-;-;-;-;-;-;-;-;-;-;-;-;-;-
1512467487163;-;-;9.221756;-0.9431305;0.65190125;-;-;-;-;-;-;-;-;-;-;-;-;-;-;-
1512467487183;-;-;9.226547;-0.93833923;0.70936584;-;-;-;-;-;-;-;-;-;-;-;-;-;-;-
1512467487204;-;-;9.213379;-0.9251709;0.74168396;-;-;-;-;-;-;-;-;-;-;-;-;-;-;-
1512467487224;-;-;9.21817;-0.87249756;0.7644348;-;-;-;-;-;-;-;-;-;-;-;-;-;-;-
1512467487244;-;-;9.261261;-0.7958832;0.7285156;-;-;-;-;-;-;-;-;-;-;-;-;-;-;-
1512467487265;-;-;9.222961;-0.7503967;0.68063354;-;-;-;-;-;-;-;-;-;-;-;-;-;-;-
1512467487285;-;-;9.1918335;-0.6821594;0.75245667;-;-;-;-;-;-;-;-;-;-;-;-;-;-;-
1512467487306;-;-;9.240906;-0.6917267;0.7357025;-;-;-;-;-;-;-;-;-;-;-;-;-;-;-
1512467487326;-;-;9.209793;-0.7024994;0.7548523;-;-;-;-;-;-;-;-;-;-;-;-;-;-;-
1512467487346;-;-;9.189438;-0.6498413;0.8135071;-;-;-;-;-;-;-;-;-;-;-;-;-;-;-
1512467487367;-;-;9.25647;-0.6582184;0.8590088;-;-;-;-;-;-;-;-;-;-;-;-;-;-;-
1512467487387;-;-;9.202606;-0.6522217;0.686615;-;-;-;-;-;-;-;-;-;-;-;-;-;-;-
1512467487408;-;-;9.199005;-0.6821594;0.8159027;-;-;-;-;-;-;-;-;-;-;-;-;-;-;-
1512467487429;-;-;9.165497;-0.7480011;0.8266754;-;-;-;-;-;-;-;-;-;-;-;-;-;-;-
1512467487449;-;-;9.208588;-0.8090515;0.78118896;-;-;-;-;-;-;-;-;-;-;-;-;-;-;-
1512467487469;-;-;9.17627;-0.76594543;0.72372437;-;-;-;-;-;-;-;-;-;-;-;-;-;-;-
1512467487490;-;-;9.199005;-0.74560547;0.64352417;-;-;-;-;-;-;-;-;-;-;-;-;-;-;-
1512467487511;-;-;9.199005;-0.66778564;0.57289124;-;-;-;-;-;-;-;-;-;-;-;-;-;-;-
1512467487531;-;-;9.188232;-0.5636444;0.57170105;-;-;-;-;-;-;-;-;-;-;-;-;-;-;-
1512467487552;-;-;9.228943;-0.56962585;0.62916565;-;-;-;-;-;-;-;-;-;-;-;-;-;-;-
1512467487572;-;-;9.210983;-0.6079407;0.5884552;-;-;-;-;-;-;-;-;-;-;-;-;-;-;-
1512467487592;-;-;9.233734;-0.63067627;0.5764923;-;-;-;-;-;-;-;-;-;-;-;-;-;-;-
1512467487613;-;-;9.240906;-0.6402588;0.6351471;-;-;-;-;-;-;-;-;-;-;-;-;-;-;-
1512467487634;-;-;9.300766;-0.6701813;0.58366394;-;-;-;-;-;-;-;-;-;-;-;-;-;-;-
1512467487654;-;-;9.282806;-0.7384186;0.55255127;-;-;-;-;-;-;-;-;-;-;-;-;-;-;-
1512467487674;-;-;9.276825;-0.68455505;0.45439148;-;-;-;-;-;-;-;-;-;-;-;-;-;-;-
1512467487695;-;-;9.178665;-0.5959625;0.5573273;-;-;-;-;-;-;-;-;-;-;-;-;-;-;-
1512467487715;-;-;9.181061;-0.6151123;0.5369873;-;-;-;-;-;-;-;-;-;-;-;-;-;-;-
1512467487736;-;-;9.244507;-0.6246948;0.49987793;-;-;-;-;-;-;-;-;-;-;-;-;-;-;-
1512467487755;-;-;9.282806;-0.60913086;0.46516418;-;-;-;-;-;-;-;-;-;-;-;-;-;-;-
1512467487776;-;-;9.2313385;-0.5708313;0.5118408;-;-;-;-;-;-;-;-;-;-;-;-;-;-;-
1512467487796;-;-;9.184647;-0.60554504;0.5010681;-;-;-;-;-;-;-;-;-;-;-;-;-;-;-
1512467487817;-;-;9.209793;-0.60194397;0.56092834;-;-;-;-;-;-;-;-;-;-;-;-;-;-;-
1512467487837;-;-;9.243301;-0.57681274;0.53219604;-;-;-;-;-;-;-;-;-;-;-;-;-;-;-
1512467487857;-;-;9.249298;-0.5313263;0.60162354;-;-;-;-;-;-;-;-;-;-;-;-;-;-;-
1512467487878;-;-;9.258865;-0.58877563;0.6255646;-;-;-;-;-;-;-;-;-;-;-;-;-;-;-
1512467487899;-;-;9.226547;-0.542099;0.64711;-;-;-;-;-;-;-;-;-;-;-;-;-;-;-
1512467487919;-;-;9.169083;-0.5325165;0.71295166;-;-;-;-;-;-;-;-;-;-;-;-;-;-;-
1512467487939;-;-;9.179855;-0.5504761;0.71655273;-;-;-;-;-;-;-;-;-;-;-;-;-;-;-
1512467487960;-;-;9.249298;-0.56962585;0.6890106;-;-;-;-;-;-;-;-;-;-;-;-;-;-;-
1512467487981;-;-;9.21817;-0.6127167;0.7333069;-;-;-;-;-;-;-;-;-;-;-;-;-;-;-
1512467488000;-;-;9.222961;-0.641449;0.70817566;-;-;-;-;-;-;-;-;-;-;-;-;-;-;-
1512467488021;-;-;9.279221;-0.6546173;0.7644348;-;-;-;-;-;-;-;-;-;-;-;-;-;-;-
1512467488041;-;-;9.199005;-0.6474457;0.62677;-;-;-;-;-;-;-;-;-;-;-;-;-;-;-
1512467488062;-;-;9.202606;-0.61990356;0.6363373;-;-;-;-;-;-;-;-;-;-;-;-;-;-;-
1512467488081;-;-;9.21936;-0.67736816;0.63993835;-;-;-;-;-;-;-;-;-;-;-;-;-;-;-
1512467488102;-;-;9.216965;-0.7671509;0.666275;-;-;-;-;-;-;-;-;-;-;-;-;-;-;-
1512467488122;-;-;9.182251;-0.7982788;0.7177429;-;-;-;-;-;-;-;-;-;-;-;-;-;-;-
1512467488142;-;-;9.208588;-0.7264557;0.7512665;-;-;-;-;-;-;-;-;-;-;-;-;-;-;-
1512467488163;-;-;9.213379;-0.7024994;0.69021606;-;-;-;-;-;-;-;-;-;-;-;-;-;-;-
1512467488183;-;-;9.226547;-0.6689911;0.74768066;-;-;-;-;-;-;-;-;-;-;-;-;-;-;-
1512467488204;-;-;9.1918335;-0.64624023;0.7117615;-;-;-;-;-;-;-;-;-;-;-;-;-;-;-
1512467488224;-;-;9.25528;-0.65582275;0.67225647;-;-;-;-;-;-;-;-;-;-;-;-;-;-;-
1512467488245;-;-;9.264847;-0.6821594;0.71655273;-;-;-;-;-;-;-;-;-;-;-;-;-;-;-
1512467488265;-;-;9.266052;-0.7420044;0.6926117;-;-;-;-;-;-;-;-;-;-;-;-;-;-;-
1512467488285;-;-;9.216965;-0.71328735;0.7117615;-;-;-;-;-;-;-;-;-;-;-;-;-;-;-
1512467488306;-;-;9.216965;-0.6761627;0.72013855;-;-;-;-;-;-;-;-;-;-;-;-;-;-;-
1512467488325;-;-;9.208588;-0.71447754;0.78718567;-;-;-;-;-;-;-;-;-;-;-;-;-;-;-
1512467488345;-;-;9.193024;-0.76594543;0.82907104;-;-;-;-;-;-;-;-;-;-;-;-;-;-;-
1512467488366;-;-;9.228943;-0.76594543;0.83984375;-;-;-;-;-;-;-;-;-;-;-;-;-;-;-
1512467488387;-;-;9.182251;-0.73602295;0.78837585;-;-;-;-;-;-;-;-;-;-;-;-;-;-;-
1512467488406;-;-;9.190628;-0.72406006;0.7345123;-;-;-;-;-;-;-;-;-;-;-;-;-;-;-
1512467488427;-;-;9.232529;-0.680954;0.72972107;-;-;-;-;-;-;-;-;-;-;-;-;-;-;-
1512467488447;-;-;9.224152;-0.6689911;0.6854248;-;-;-;-;-;-;-;-;-;-;-;-;-;-;-
1512467488468;-;-;9.244507;-0.66778564;0.6566925;-;-;-;-;-;-;-;-;-;-;-;-;-;-;-
1512467488488;-;-;9.215775;-0.65701294;0.64112854;-;-;-;-;-;-;-;-;-;-;-;-;-;-;-
1512467488508;-;-;9.214569;-0.66539;0.6052246;-;-;-;-;-;-;-;-;-;-;-;-;-;-;-
1512467488529;-;-;9.240906;-0.6713867;0.6052246;-;-;-;-;-;-;-;-;-;-;-;-;-;-;-
1512467488550;-;-;9.206192;-0.6917267;0.6279602;-;-;-;-;-;-;-;-;-;-;-;-;-;-;-
1512467488570;-;-;9.190628;-0.6977234;0.67225647;-;-;-;-;-;-;-;-;-;-;-;-;-;-;-
1512467488591;-;-;9.216965;-0.6941223;0.68063354;-;-;-;-;-;-;-;-;-;-;-;-;-;-;-
1512467488611;-;-;9.232529;-0.75398254;0.73091125;-;-;-;-;-;-;-;-;-;-;-;-;-;-;-
1512467488631;-;-;9.226547;-0.85095215;0.7368927;-;-;-;-;-;-;-;-;-;-;-;-;-;-;-
1512467488652;-;-;9.203796;-0.7922821;0.7752075;-;-;-;-;-;-;-;-;-;-;-;-;-;-;-
1512467488673;-;-;9.250488;-0.7228546;0.8218994;-;-;-;-;-;-;-;-;-;-;-;-;-;-;-
1512467488693;-;-;9.181061;-0.64624023;0.67944336;-;-;-;-;-;-;-;-;-;-;-;-;-;-;-
1512467488713;-;-;9.1523285;-0.700119;0.71655273;-;-;-;-;-;-;-;-;-;-;-;-;-;-;-
1512467488734;-;-;9.227737;-0.74679565;0.6447296;-;-;-;-;-;-;-;-;-;-;-;-;-;-;-
1512467488753;-;-;9.248093;-0.7527771;0.63394165;-;-;-;-;-;-;-;-;-;-;-;-;-;-;-
1512467488773;-;-;9.206192;-0.74320984;0.6746521;-;-;-;-;-;-;-;-;-;-;-;-;-;-;-
1512467488794;-;-;9.240906;-0.7336273;0.6279602;-;-;-;-;-;-;-;-;-;-;-;-;-;-;-
1512467488814;-;-;9.263657;-0.6977234;0.6136017;-;-;-;-;-;-;-;-;-;-;-;-;-;-;-
1512467488835;-;-;9.239716;-0.6330719;0.587265;-;-;-;-;-;-;-;-;-;-;-;-;-;-;-
1512467488855;-;-;9.221756;-0.6498413;0.6136017;-;-;-;-;-;-;-;-;-;-;-;-;-;-;-
1512467488876;-;-;9.185837;-0.6917267;0.6088104;-;-;-;-;-;-;-;-;-;-;-;-;-;-;-
1512467488896;-;-;9.226547;-0.73243713;0.65789795;-;-;-;-;-;-;-;-;-;-;-;-;-;-;-
1512467488917;-;-;9.263657;-0.76356506;0.6495056;-;-;-;-;-;-;-;-;-;-;-;-;-;-;-
1512467488937;-;-;9.262466;-0.65940857;0.6555023;-;-;-;-;-;-;-;-;-;-;-;-;-;-;-
1512467488958;-;-;9.246902;-0.38049316;0.6171875;-;-;-;-;-;-;-;-;-;-;-;-;-;-;-
1512467488978;-;-;9.226547;-0.32901;0.66867065;-;-;-;-;-;-;-;-;-;-;-;-;-;-;-
