TimeStamp[ms];Prox[Cm];Lux[lux];AccX[m/s^2];AccY[m/s^2];AccZ[m/s^2];GyroX[rad/s];GyroY[rad/s];GyroZ[rad/s];MagnX[uT];MagnY[uT];MagnZ[uT];OrienYaw[degrees];OrienPitch[degrees];OrienRoll[degrees];Press[Pa];Temp[C°];Batt[%];Lat;Lng;Speed[m/s]
1512468507378;-;-;8.8602295;1.3960114;-1.3580322;-;-;-;-;-;-;-;-;-;-;-;-;-;-;-
1512468507379;-;-;8.8602295;1.3960114;-1.3580322;-;-;-;-;-;-;-;-;-;-;-;-;-;-;-
1512468507390;-;-;8.866211;1.2930603;-1.2993622;-;-;-;-;-;-;-;-;-;-;-;-;-;-;-
1512468507410;-;-;9.197815;1.4498749;-1.1928253;-;-;-;-;-;-;-;-;-;-;-;-;-;-;-
1512468507430;-;-;9.0733185;1.5001526;-1.353241;-;-;-;-;-;-;-;-;-;-;-;-;-;-;-
1512468507450;-;-;9.019455;1.4881897;-1.353241;-;-;-;-;-;-;-;-;-;-;-;-;-;-;-
1512468507471;-;-;9.013458;1.4450989;-1.2514801;-;-;-;-;-;-;-;-;-;-;-;-;-;-;-
1512468507493;-;-;9.029022;1.3864288;-1.2167664;-;-;-;-;-;-;-;-;-;-;-;-;-;-;-
1512468507514;-;-;9.026627;1.4295349;-1.2909851;-;-;-;-;-;-;-;-;-;-;-;-;-;-;-
1512468507533;-;-;8.922485;1.5576172;-1.377182;-;-;-;-;-;-;-;-;-;-;-;-;-;-;-
1512468507554;-;-;8.908112;1.5779724;-1.3005676;-;-;-;-;-;-;-;-;-;-;-;-;-;-;-
1512468507573;-;-;8.965576;1.4211578;-1.3005676;-;-;-;-;-;-;-;-;-;-;-;-;-;-;-
1512468507593;-;-;9.020645;1.3768616;-1.2502899;-;-;-;-;-;-;-;-;-;-;-;-;-;-;-
1512468507627;-;-;8.915298;1.4235382;-1.2490845;-;-;-;-;-;-;-;-;-;-;-;-;-;-;-
1512468507634;-;-;8.958389;1.4462891;-1.2634583;-;-;-;-;-;-;-;-;-;-;-;-;-;-;-
1512468507654;-;-;8.96199;1.4355164;-1.2514801;-;-;-;-;-;-;-;-;-;-;-;-;-;-;-
1512468507676;-;-;8.964386;1.4271393;-1.3185272;-;-;-;-;-;-;-;-;-;-;-;-;-;-;-
1512468507696;-;-;9.00029;1.398407;-1.3400726;-;-;-;-;-;-;-;-;-;-;-;-;-;-;-
1512468507716;-;-;8.98233;1.3720703;-1.258667;-;-;-;-;-;-;-;-;-;-;-;-;-;-;-
1512468507737;-;-;8.985931;1.3768616;-1.2694397;-;-;-;-;-;-;-;-;-;-;-;-;-;-;-
1512468507758;-;-;8.990723;1.3756561;-1.3089447;-;-;-;-;-;-;-;-;-;-;-;-;-;-;-
1512468507778;-;-;8.953613;1.4271393;-1.3292999;-;-;-;-;-;-;-;-;-;-;-;-;-;-;-
1512468507798;-;-;8.975159;1.3648834;-1.2778168;-;-;-;-;-;-;-;-;-;-;-;-;-;-;-
1512468507819;-;-;9.001495;1.3792572;-1.3125305;-;-;-;-;-;-;-;-;-;-;-;-;-;-;-
1512468507839;-;-;8.997894;1.4295349;-1.3269043;-;-;-;-;-;-;-;-;-;-;-;-;-;-;-
1512468507859;-;-;8.965576;1.4319305;-1.3029633;-;-;-;-;-;-;-;-;-;-;-;-;-;-;-
1512468507880;-;-;8.994308;1.4307251;-1.3472595;-;-;-;-;-;-;-;-;-;-;-;-;-;-;-
1512468507900;-;-;8.965576;1.4319305;-1.3125305;-;-;-;-;-;-;-;-;-;-;-;-;-;-;-
1512468507921;-;-;8.967972;1.4295349;-1.3328857;-;-;-;-;-;-;-;-;-;-;-;-;-;-;-
1512468507940;-;-;8.958389;1.3804474;-1.4118958;-;-;-;-;-;-;-;-;-;-;-;-;-;-;-
1512468507960;-;-;8.995499;1.4055939;-1.3448639;-;-;-;-;-;-;-;-;-;-;-;-;-;-;-
1512468507981;-;-;8.990723;1.4307251;-1.3795776;-;-;-;-;-;-;-;-;-;-;-;-;-;-;-
1512468508002;-;-;8.96199;1.4654388;-1.3580322;-;-;-;-;-;-;-;-;-;-;-;-;-;-;-
1512468508022;-;-;8.953613;1.4630432;-1.3280945;-;-;-;-;-;-;-;-;-;-;-;-;-;-;-
1512468508042;-;-;8.970367;1.4606476;-1.3915405;-;-;-;-;-;-;-;-;-;-;-;-;-;-;-
1512468508063;-;-;9.019455;1.4438934;-1.4585876;-;-;-;-;-;-;-;-;-;-;-;-;-;-;-
1512468508084;-;-;9.044586;1.4307251;-1.440628;-;-;-;-;-;-;-;-;-;-;-;-;-;-;-
1512468508103;-;-;9.015854;1.3960114;-1.4609833;-;-;-;-;-;-;-;-;-;-;-;-;-;-;-
1512468508123;-;-;9.00029;1.3780518;-1.3544312;-;-;-;-;-;-;-;-;-;-;-;-;-;-;-
1512468508144;-;-;8.912903;1.461853;-1.3795776;-;-;-;-;-;-;-;-;-;-;-;-;-;-;-
1512468508164;-;-;8.886566;1.4833984;-1.4226685;-;-;-;-;-;-;-;-;-;-;-;-;-;-;-
1512468508185;-;-;8.960785;1.4163666;-1.3448639;-;-;-;-;-;-;-;-;-;-;-;-;-;-;-
1512468508206;-;-;9.0182495;1.3708649;-1.3269043;-;-;-;-;-;-;-;-;-;-;-;-;-;-;-
1512468508226;-;-;9.026627;1.3936157;-1.2993622;-;-;-;-;-;-;-;-;-;-;-;-;-;-;-
1512468508247;-;-;8.976349;1.367279;-1.2885895;-;-;-;-;-;-;-;-;-;-;-;-;-;-;-
1512468508267;-;-;8.948822;1.4151611;-1.3233032;-;-;-;-;-;-;-;-;-;-;-;-;-;-;-
1512468508288;-;-;8.977554;1.461853;-1.3723907;-;-;-;-;-;-;-;-;-;-;-;-;-;-;-
1512468508308;-;-;9.0182495;1.492981;-1.337677;-;-;-;-;-;-;-;-;-;-;-;-;-;-;-
1512468508329;-;-;8.997894;1.422348;-1.3185272;-;-;-;-;-;-;-;-;-;-;-;-;-;-;-
1512468508349;-;-;8.959595;1.3696747;-1.3424683;-;-;-;-;-;-;-;-;-;-;-;-;-;-;-
1512468508369;-;-;8.98114;1.4235382;-1.3113403;-;-;-;-;-;-;-;-;-;-;-;-;-;-;-
1512468508389;-;-;9.012268;1.4247437;-1.3628082;-;-;-;-;-;-;-;-;-;-;-;-;-;-;-
1512468508410;-;-;9.013458;1.4570618;-1.3580322;-;-;-;-;-;-;-;-;-;-;-;-;-;-;-
1512468508431;-;-;9.00029;1.4606476;-1.3340912;-;-;-;-;-;-;-;-;-;-;-;-;-;-;-
1512468508451;-;-;8.955994;1.4678345;-1.2993622;-;-;-;-;-;-;-;-;-;-;-;-;-;-;-
1512468508471;-;-;8.963181;1.4654388;-1.337677;-;-;-;-;-;-;-;-;-;-;-;-;-;-;-
1512468508492;-;-;8.970367;1.437912;-1.3879547;-;-;-;-;-;-;-;-;-;-;-;-;-;-;-
1512468508513;-;-;8.98233;1.4714355;-1.3544312;-;-;-;-;-;-;-;-;-;-;-;-;-;-;-
1512468508533;-;-;8.995499;1.4259338;-1.3604279;-;-;-;-;-;-;-;-;-;-;-;-;-;-;-
1512468508553;-;-;8.967972;1.4594574;-1.3304901;-;-;-;-;-;-;-;-;-;-;-;-;-;-;-
1512468508574;-;-;8.963181;1.4414978;-1.2502899;-;-;-;-;-;-;-;-;-;-;-;-;-;-;-
1512468508594;-;-;8.969162;1.4343262;-1.2754211;-;-;-;-;-;-;-;-;-;-;-;-;-;-;-
1512468508615;-;-;8.987122;1.4103699;-1.2526855;-;-;-;-;-;-;-;-;-;-;-;-;-;-;-
1512468508636;-;-;8.9392395;1.3948212;-1.2107849;-;-;-;-;-;-;-;-;-;-;-;-;-;-;-
1512468508655;-;-;8.917694;1.4187622;-1.2574768;-;-;-;-;-;-;-;-;-;-;-;-;-;-;-
1512468508675;-;-;8.964386;1.4235382;-1.2526855;-;-;-;-;-;-;-;-;-;-;-;-;-;-;-
1512468508695;-;-;9.012268;1.4714355;-1.3269043;-;-;-;-;-;-;-;-;-;-;-;-;-;-;-
1512468508716;-;-;9.024231;1.4738159;-1.3460541;-;-;-;-;-;-;-;-;-;-;-;-;-;-;-
1512468508736;-;-;8.991913;1.437912;-1.258667;-;-;-;-;-;-;-;-;-;-;-;-;-;-;-
1512468508757;-;-;9.003891;1.5001526;-1.2873993;-;-;-;-;-;-;-;-;-;-;-;-;-;-;-
1512468508777;-;-;8.926071;1.6067047;-1.3269043;-;-;-;-;-;-;-;-;-;-;-;-;-;-;-
1512468508798;-;-;8.953613;1.5264893;-1.2969818;-;-;-;-;-;-;-;-;-;-;-;-;-;-;-
1512468508818;-;-;8.972763;1.4462891;-1.1940308;-;-;-;-;-;-;-;-;-;-;-;-;-;-;-
1512468508838;-;-;8.990723;1.4343262;-1.1772614;-;-;-;-;-;-;-;-;-;-;-;-;-;-;-
1512468508859;-;-;8.941635;1.4522705;-1.2059937;-;-;-;-;-;-;-;-;-;-;-;-;-;-;-
1512468508880;-;-;8.903336;1.4762115;-1.1964111;-;-;-;-;-;-;-;-;-;-;-;-;-;-;-
1512468508900;-;-;8.975159;1.5133209;-1.2526855;-;-;-;-;-;-;-;-;-;-;-;-;-;-;-
1512468508921;-;-;9.042191;1.4762115;-1.2921906;-;-;-;-;-;-;-;-;-;-;-;-;-;-;-
1512468508941;-;-;9.051773;1.3995972;-1.2622528;-;-;-;-;-;-;-;-;-;-;-;-;-;-;-
1512468508961;-;-;9.014664;1.406784;-1.2131805;-;-;-;-;-;-;-;-;-;-;-;-;-;-;-
1512468508982;-;-;8.933258;1.4235382;-1.1736755;-;-;-;-;-;-;-;-;-;-;-;-;-;-;-
1512468509002;-;-;8.934448;1.3995972;-1.2407074;-;-;-;-;-;-;-;-;-;-;-;-;-;-;-
1512468509023;-;-;8.991913;1.3972015;-1.2574768;-;-;-;-;-;-;-;-;-;-;-;-;-;-;-
1512468509044;-;-;9.0182495;1.4355164;-1.243103;-;-;-;-;-;-;-;-;-;-;-;-;-;-;-
1512468509064;-;-;9.005081;1.4857941;-1.2359161;-;-;-;-;-;-;-;-;-;-;-;-;-;-;-
1512468509084;-;-;8.985931;1.4498749;-1.164093;-;-;-;-;-;-;-;-;-;-;-;-;-;-;-
1512468509105;-;-;8.893753;1.437912;-1.2275391;-;-;-;-;-;-;-;-;-;-;-;-;-;-;-
1512468509124;-;-;8.914108;1.4163666;-1.313736;-;-;-;-;-;-;-;-;-;-;-;-;-;-;-
1512468509144;-;-;8.918884;1.4630432;-1.2095795;-;-;-;-;-;-;-;-;-;-;-;-;-;-;-
1512468509165;-;-;8.764465;1.5983276;-1.5172424;-;-;-;-;-;-;-;-;-;-;-;-;-;-;-
1512468509185;-;-;8.928467;1.5456543;-1.1461334;-;-;-;-;-;-;-;-;-;-;-;-;-;-;-
1512468509206;-;-;8.690247;1.437912;-1.0395966;-;-;-;-;-;-;-;-;-;-;-;-;-;-;-
1512468509226;-;-;8.922485;1.4403076;-1.4083099;-;-;-;-;-;-;-;-;-;-;-;-;-;-;-
1512468509247;-;-;9.148727;1.4881897;-1.0479736;-;-;-;-;-;-;-;-;-;-;-;-;-;-;-
1512468509267;-;-;9.002686;1.413971;-1.3161316;-;-;-;-;-;-;-;-;-;-;-;-;-;-;-
1512468509288;-;-;9.182251;1.437912;-1.3508453;-;-;-;-;-;-;-;-;-;-;-;-;-;-;-
1512468509309;-;-;9.127182;1.5085449;-1.2885895;-;-;-;-;-;-;-;-;-;-;-;-;-;-;-
1512468509329;-;-;8.813553;1.2547607;-1.1150208;-;-;-;-;-;-;-;-;-;-;-;-;-;-;-
1512468509349;-;-;9.274429;1.1134949;-1.2203674;-;-;-;-;-;-;-;-;-;-;-;-;-;-;-
1512468509370;-;-;8.984726;1.4008026;-1.2993622;-;-;-;-;-;-;-;-;-;-;-;-;-;-;-
1512468509390;-;-;8.660324;1.4857941;-0.88397217;-;-;-;-;-;-;-;-;-;-;-;-;-;-;-
1512468509410;-;-;8.844666;1.5384674;-1.3795776;-;-;-;-;-;-;-;-;-;-;-;-;-;-;-
1512468509431;-;-;9.196625;1.4594574;-1.4645691;-;-;-;-;-;-;-;-;-;-;-;-;-;-;-
1512468509451;-;-;9.261261;1.5516357;-1.3999176;-;-;-;-;-;-;-;-;-;-;-;-;-;-;-
1512468509471;-;-;9.421677;1.4678345;-0.85165405;-;-;-;-;-;-;-;-;-;-;-;-;-;-;-
1512468509492;-;-;8.995499;1.1625824;-1.2814178;-;-;-;-;-;-;-;-;-;-;-;-;-;-;-
1512468509512;-;-;9.099655;1.4750214;-0.9581909;-;-;-;-;-;-;-;-;-;-;-;-;-;-;-
1512468509533;-;-;8.714188;1.5217133;-0.70440674;-;-;-;-;-;-;-;-;-;-;-;-;-;-;-
1512468509553;-;-;9.09845;1.3505249;-1.4502106;-;-;-;-;-;-;-;-;-;-;-;-;-;-;-
1512468509574;-;-;8.918884;1.6629639;-0.9186859;-;-;-;-;-;-;-;-;-;-;-;-;-;-;-
1512468509595;-;-;8.799179;1.3505249;-1.0132599;-;-;-;-;-;-;-;-;-;-;-;-;-;-;-
1512468509616;-;-;9.292389;1.3265839;-1.7590485;-;-;-;-;-;-;-;-;-;-;-;-;-;-;-
1512468509636;-;-;9.287598;1.5037537;-1.3388672;-;-;-;-;-;-;-;-;-;-;-;-;-;-;-
1512468509656;-;-;9.07811;1.6904907;-1.471756;-;-;-;-;-;-;-;-;-;-;-;-;-;-;-
1512468509676;-;-;9.214569;1.2583466;-1.069519;-;-;-;-;-;-;-;-;-;-;-;-;-;-;-
1512468509697;-;-;8.48674;1.161377;-1.4789276;-;-;-;-;-;-;-;-;-;-;-;-;-;-;-
1512468509717;-;-;8.946426;1.0931396;-1.5339966;-;-;-;-;-;-;-;-;-;-;-;-;-;-;-
1512468509737;-;-;8.463989;1.4702301;-0.3656311;-;-;-;-;-;-;-;-;-;-;-;-;-;-;-
1512468509758;-;-;10.558914;0.3509369;-0.8325043;-;-;-;-;-;-;-;-;-;-;-;-;-;-;-
1512468509778;-;-;9.995087;1.1290588;-1.492096;-;-;-;-;-;-;-;-;-;-;-;-;-;-;-
1512468509798;-;-;8.976349;1.130249;-1.1688843;-;-;-;-;-;-;-;-;-;-;-;-;-;-;-
1512468509819;-;-;8.436462;0.59036255;-0.6912384;-;-;-;-;-;-;-;-;-;-;-;-;-;-;-
1512468509839;-;-;8.345474;1.0763855;-1.3280945;-;-;-;-;-;-;-;-;-;-;-;-;-;-;-
1512468509859;-;-;9.617996;0.78907776;-1.2311401;-;-;-;-;-;-;-;-;-;-;-;-;-;-;-
1512468509880;-;-;9.951996;0.7507782;-1.4741516;-;-;-;-;-;-;-;-;-;-;-;-;-;-;-
1512468509900;-;-;9.548569;0.4000244;-1.5591431;-;-;-;-;-;-;-;-;-;-;-;-;-;-;-
1512468509920;-;-;9.328293;-0.28471375;-1.377182;-;-;-;-;-;-;-;-;-;-;-;-;-;-;-
1512468509941;-;-;8.4843445;0.793869;-1.2730255;-;-;-;-;-;-;-;-;-;-;-;-;-;-;-
1512468509961;-;-;9.2756195;0.5927582;-1.4980927;-;-;-;-;-;-;-;-;-;-;-;-;-;-;-
1512468509981;-;-;8.955994;1.1913147;-1.5411835;-;-;-;-;-;-;-;-;-;-;-;-;-;-;-
1512468510001;-;-;9.106842;0.7914734;-1.535202;-;-;-;-;-;-;-;-;-;-;-;-;-;-;-
1512468510022;-;-;9.076904;0.46347046;-1.7183533;-;-;-;-;-;-;-;-;-;-;-;-;-;-;-
1512468510042;-;-;8.847061;1.1003265;-1.6680756;-;-;-;-;-;-;-;-;-;-;-;-;-;-;-
1512468510062;-;-;9.455185;-0.621109;-1.6812439;-;-;-;-;-;-;-;-;-;-;-;-;-;-;-
1512468510083;-;-;8.684265;0.6789551;-1.2526855;-;-;-;-;-;-;-;-;-;-;-;-;-;-;-
1512468510103;-;-;8.492722;1.6845093;-1.0575562;-;-;-;-;-;-;-;-;-;-;-;-;-;-;-
1512468510126;-;-;9.14035;0.7435913;-1.2778168;-;-;-;-;-;-;-;-;-;-;-;-;-;-;-
1512468510146;-;-;10.096832;-0.69532776;-1.5974426;-;-;-;-;-;-;-;-;-;-;-;-;-;-;-
1512468510167;-;-;9.546173;-0.7084961;-1.6680756;-;-;-;-;-;-;-;-;-;-;-;-;-;-;-
1512468510187;-;-;9.051773;0.26235962;-1.8943329;-;-;-;-;-;-;-;-;-;-;-;-;-;-;-
1512468510208;-;-;9.364212;-0.60554504;-2.8663788;-;-;-;-;-;-;-;-;-;-;-;-;-;-;-
1512468510228;-;-;7.5470123;0.2192688;-2.7981415;-;-;-;-;-;-;-;-;-;-;-;-;-;-;-
1512468510249;-;-;8.292801;0.80584717;-2.4581604;-;-;-;-;-;-;-;-;-;-;-;-;-;-;-
1512468510269;-;-;9.464767;-0.12669373;-1.7626495;-;-;-;-;-;-;-;-;-;-;-;-;-;-;-
1512468510290;-;-;11.716522;-2.3820343;-2.9537659;-;-;-;-;-;-;-;-;-;-;-;-;-;-;-
1512468510310;-;-;8.058182;-1.2974701;-2.551529;-;-;-;-;-;-;-;-;-;-;-;-;-;-;-
1512468510331;-;-;6.62764;0.30065918;-0.97016907;-;-;-;-;-;-;-;-;-;-;-;-;-;-;-
1512468510350;-;-;8.016281;-0.42118835;-2.2774048;-;-;-;-;-;-;-;-;-;-;-;-;-;-;-
1512468510371;-;-;8.9991;-1.6087189;-1.9517822;-;-;-;-;-;-;-;-;-;-;-;-;-;-;-
1512468510391;-;-;8.831497;-1.3166199;-2.172058;-;-;-;-;-;-;-;-;-;-;-;-;-;-;-
1512468510411;-;-;8.854248;-1.3118286;-2.0499573;-;-;-;-;-;-;-;-;-;-;-;-;-;-;-
1512468510432;-;-;9.13916;-1.324997;-2.2486725;-;-;-;-;-;-;-;-;-;-;-;-;-;-;-
1512468510452;-;-;8.016281;-0.8186188;-2.3564148;-;-;-;-;-;-;-;-;-;-;-;-;-;-;-
1512468510473;-;-;7.9660034;-0.7695465;-2.1409302;-;-;-;-;-;-;-;-;-;-;-;-;-;-;-
1512468510493;-;-;9.017059;-0.45350647;-2.3432465;-;-;-;-;-;-;-;-;-;-;-;-;-;-;-
1512468510514;-;-;8.970367;-0.581604;-2.6054077;-;-;-;-;-;-;-;-;-;-;-;-;-;-;-
1512468510535;-;-;9.0793;-0.76475525;-2.7442627;-;-;-;-;-;-;-;-;-;-;-;-;-;-;-
1512468510555;-;-;9.080505;-0.92996216;-2.630539;-;-;-;-;-;-;-;-;-;-;-;-;-;-;-
1512468510576;-;-;9.726929;-1.2986603;-2.1660767;-;-;-;-;-;-;-;-;-;-;-;-;-;-;-
1512468510596;-;-;8.854248;-0.7707367;-2.4019012;-;-;-;-;-;-;-;-;-;-;-;-;-;-;-
1512468510617;-;-;7.869034;-1.0245209;-1.6680756;-;-;-;-;-;-;-;-;-;-;-;-;-;-;-
1512468510637;-;-;6.874237;-0.66539;-0.9833374;-;-;-;-;-;-;-;-;-;-;-;-;-;-;-
1512468510658;-;-;8.985931;-0.2775421;-1.8847504;-;-;-;-;-;-;-;-;-;-;-;-;-;-;-
1512468510678;-;-;11.426819;-0.34457397;-2.294159;-;-;-;-;-;-;-;-;-;-;-;-;-;-;-
1512468510699;-;-;8.577713;0.5676117;-1.5256195;-;-;-;-;-;-;-;-;-;-;-;-;-;-;-
1512468510719;-;-;9.318726;-0.19013977;-1.2012024;-;-;-;-;-;-;-;-;-;-;-;-;-;-;-
1512468510739;-;-;8.671097;-0.18536377;-1.5818787;-;-;-;-;-;-;-;-;-;-;-;-;-;-;-
1512468510760;-;-;8.481949;-0.17219543;-1.5818787;-;-;-;-;-;-;-;-;-;-;-;-;-;-;-
1512468510779;-;-;8.332306;-0.35653687;-1.7470856;-;-;-;-;-;-;-;-;-;-;-;-;-;-;-
1512468510800;-;-;9.533005;-0.45350647;-1.3951416;-;-;-;-;-;-;-;-;-;-;-;-;-;-;-
1512468510820;-;-;9.592865;-0.29788208;-1.942215;-;-;-;-;-;-;-;-;-;-;-;-;-;-;-
1512468510841;-;-;9.437241;0.3605194;-1.658493;-;-;-;-;-;-;-;-;-;-;-;-;-;-;-
1512468510861;-;-;9.49231;0.259964;-1.571106;-;-;-;-;-;-;-;-;-;-;-;-;-;-;-
1512468510881;-;-;9.14035;0.2850952;-1.8237;-;-;-;-;-;-;-;-;-;-;-;-;-;-;-
1512468510902;-;-;9.149933;0.18334961;-1.7973633;-;-;-;-;-;-;-;-;-;-;-;-;-;-;-
1512468510922;-;-;9.041;0.26834106;-1.7602539;-;-;-;-;-;-;-;-;-;-;-;-;-;-;-
1512468510943;-;-;9.008667;0.27313232;-1.9481964;-;-;-;-;-;-;-;-;-;-;-;-;-;-;-
1512468510963;-;-;9.050568;0.25875854;-1.8512268;-;-;-;-;-;-;-;-;-;-;-;-;-;-;-
1512468510984;-;-;9.050568;0.2635498;-1.8548279;-;-;-;-;-;-;-;-;-;-;-;-;-;-;-
1512468511004;-;-;9.100845;0.259964;-1.8129272;-;-;-;-;-;-;-;-;-;-;-;-;-;-;-
1512468511025;-;-;9.121201;0.26594543;-1.8488312;-;-;-;-;-;-;-;-;-;-;-;-;-;-;-
1512468511045;-;-;9.172684;0.23123169;-2.1134033;-;-;-;-;-;-;-;-;-;-;-;-;-;-;-
1512468511066;-;-;9.024231;0.15940857;-1.8117218;-;-;-;-;-;-;-;-;-;-;-;-;-;-;-
1512468511085;-;-;9.024231;0.115112305;-1.8907318;-;-;-;-;-;-;-;-;-;-;-;-;-;-;-
1512468511106;-;-;10.169861;-0.09197998;-2.8053284;-;-;-;-;-;-;-;-;-;-;-;-;-;-;-
1512468511126;-;-;8.814743;0.16419983;-1.6285706;-;-;-;-;-;-;-;-;-;-;-;-;-;-;-
1512468511147;-;-;8.836288;0.076812744;-1.3999176;-;-;-;-;-;-;-;-;-;-;-;-;-;-;-
1512468511167;-;-;7.822342;0.20729065;-2.0068512;-;-;-;-;-;-;-;-;-;-;-;-;-;-;-
1512468511188;-;-;9.268448;0.17497253;-1.8799591;-;-;-;-;-;-;-;-;-;-;-;-;-;-;-
1512468511209;-;-;9.049377;0.31263733;-1.7985535;-;-;-;-;-;-;-;-;-;-;-;-;-;-;-
1512468511229;-;-;8.618423;0.074417114;-1.7889862;-;-;-;-;-;-;-;-;-;-;-;-;-;-;-
1512468511249;-;-;9.827484;-0.09677124;-1.8548279;-;-;-;-;-;-;-;-;-;-;-;-;-;-;-
1512468511270;-;-;9.804749;0.1845398;-1.8524323;-;-;-;-;-;-;-;-;-;-;-;-;-;-;-
1512468511291;-;-;9.103241;0.08758545;-1.6237793;-;-;-;-;-;-;-;-;-;-;-;-;-;-;-
1512468511310;-;-;8.521454;0.21566772;-1.8069458;-;-;-;-;-;-;-;-;-;-;-;-;-;-;-
1512468511331;-;-;9.777206;0.036102295;-2.309723;-;-;-;-;-;-;-;-;-;-;-;-;-;-;-
1512468511351;-;-;9.825104;-0.05847168;-1.8859406;-;-;-;-;-;-;-;-;-;-;-;-;-;-;-
1512468511372;-;-;9.916077;-0.009384155;-2.5048523;-;-;-;-;-;-;-;-;-;-;-;-;-;-;-
1512468511392;-;-;8.856644;0.09954834;-1.5328064;-;-;-;-;-;-;-;-;-;-;-;-;-;-;-
1512468511413;-;-;8.153946;1.0392761;-1.1030426;-;-;-;-;-;-;-;-;-;-;-;-;-;-;-
1512468511432;-;-;8.732147;0.27552795;-1.5399933;-;-;-;-;-;-;-;-;-;-;-;-;-;-;-
1512468511453;-;-;8.8003845;1.5300903;-2.005661;-;-;-;-;-;-;-;-;-;-;-;-;-;-;-
1512468511472;-;-;10.011841;1.0129395;-2.3683777;-;-;-;-;-;-;-;-;-;-;-;-;-;-;-
1512468511493;-;-;6.533066;2.6661377;-2.294159;-;-;-;-;-;-;-;-;-;-;-;-;-;-;-
1512468511513;-;-;7.315979;1.5779724;-1.6046295;-;-;-;-;-;-;-;-;-;-;-;-;-;-;-
1512468511534;-;-;10.846222;0.3509369;-1.2383118;-;-;-;-;-;-;-;-;-;-;-;-;-;-;-
1512468511554;-;-;9.261261;1.7718964;-1.5627289;-;-;-;-;-;-;-;-;-;-;-;-;-;-;-
1512468511575;-;-;11.6267395;0.36650085;-1.6046295;-;-;-;-;-;-;-;-;-;-;-;-;-;-;-
1512468511595;-;-;6.6419983;2.5655823;-1.8153229;-;-;-;-;-;-;-;-;-;-;-;-;-;-;-
1512468511615;-;-;9.722153;0.42755127;-1.1210022;-;-;-;-;-;-;-;-;-;-;-;-;-;-;-
1512468511636;-;-;9.339081;0.97702026;-2.100235;-;-;-;-;-;-;-;-;-;-;-;-;-;-;-
1512468511657;-;-;8.950012;1.7407837;-2.2726135;-;-;-;-;-;-;-;-;-;-;-;-;-;-;-
1512468511677;-;-;8.990723;1.7551422;-0.2866211;-;-;-;-;-;-;-;-;-;-;-;-;-;-;-
1512468511698;-;-;9.325912;1.4762115;-1.4358368;-;-;-;-;-;-;-;-;-;-;-;-;-;-;-
1512468511718;-;-;9.445618;1.3026428;-1.4885101;-;-;-;-;-;-;-;-;-;-;-;-;-;-;-
1512468511739;-;-;8.871002;1.5288849;-1.337677;-;-;-;-;-;-;-;-;-;-;-;-;-;-;-
1512468511760;-;-;8.884171;1.1027222;-0.006500244;-;-;-;-;-;-;-;-;-;-;-;-;-;-;-
1512468511780;-;-;8.412521;0.9183655;-0.60505676;-;-;-;-;-;-;-;-;-;-;-;-;-;-;-
1512468511800;-;-;6.5797577;1.3217926;-2.8029327;-;-;-;-;-;-;-;-;-;-;-;-;-;-;-
1512468511820;-;-;10.576874;4.209198;-2.2295227;-;-;-;-;-;-;-;-;-;-;-;-;-;-;-
1512468511841;-;-;10.168671;1.6881104;-1.3017578;-;-;-;-;-;-;-;-;-;-;-;-;-;-;-
1512468511861;-;-;7.28006;1.4127655;-2.16008;-;-;-;-;-;-;-;-;-;-;-;-;-;-;-
1512468511881;-;-;8.285629;1.0452576;-0.34527588;-;-;-;-;-;-;-;-;-;-;-;-;-;-;-
1512468511902;-;-;8.428085;1.3349609;-1.2730255;-;-;-;-;-;-;-;-;-;-;-;-;-;-;-
1512468511923;-;-;9.129578;1.8090057;-2.0798798;-;-;-;-;-;-;-;-;-;-;-;-;-;-;-
1512468511943;-;-;11.96431;1.6833191;-1.9374237;-;-;-;-;-;-;-;-;-;-;-;-;-;-;-
1512468511963;-;-;9.419281;1.3289795;-2.3240814;-;-;-;-;-;-;-;-;-;-;-;-;-;-;-
1512468511984;-;-;8.789597;1.4247437;-1.3089447;-;-;-;-;-;-;-;-;-;-;-;-;-;-;-
1512468512004;-;-;8.201828;1.5707855;-1.5232239;-;-;-;-;-;-;-;-;-;-;-;-;-;-;-
1512468512025;-;-;8.322739;1.8317566;-1.1341705;-;-;-;-;-;-;-;-;-;-;-;-;-;-;-
1512468512045;-;-;9.169083;1.7659149;-2.1373444;-;-;-;-;-;-;-;-;-;-;-;-;-;-;-
1512468512066;-;-;9.196625;1.5480499;-1.7039948;-;-;-;-;-;-;-;-;-;-;-;-;-;-;-
1512468512086;-;-;8.661514;1.2703094;-1.5292053;-;-;-;-;-;-;-;-;-;-;-;-;-;-;-
1512468512107;-;-;8.871002;1.6438141;-1.3987274;-;-;-;-;-;-;-;-;-;-;-;-;-;-;-
1512468512128;-;-;8.903336;1.406784;-1.4178772;-;-;-;-;-;-;-;-;-;-;-;-;-;-;-
1512468512148;-;-;9.196625;0.85491943;-1.6968079;-;-;-;-;-;-;-;-;-;-;-;-;-;-;-
1512468512169;-;-;8.380188;1.3756561;-0.9869232;-;-;-;-;-;-;-;-;-;-;-;-;-;-;-
1512468512189;-;-;9.352234;1.161377;-2.5730896;-;-;-;-;-;-;-;-;-;-;-;-;-;-;-
1512468512210;-;-;9.683838;1.2523651;-1.3903503;-;-;-;-;-;-;-;-;-;-;-;-;-;-;-
1512468512229;-;-;9.304352;1.3852386;-1.697998;-;-;-;-;-;-;-;-;-;-;-;-;-;-;-
1512468512249;-;-;9.292389;1.437912;-1.535202;-;-;-;-;-;-;-;-;-;-;-;-;-;-;-
1512468512270;-;-;9.09845;1.422348;-1.7123718;-;-;-;-;-;-;-;-;-;-;-;-;-;-;-
1512468512291;-;-;8.361038;1.7467651;-0.4817505;-;-;-;-;-;-;-;-;-;-;-;-;-;-;-
1512468512310;-;-;8.294006;1.8712616;-1.492096;-;-;-;-;-;-;-;-;-;-;-;-;-;-;-
1512468512331;-;-;9.291183;0.90519714;-1.6321564;-;-;-;-;-;-;-;-;-;-;-;-;-;-;-
1512468512351;-;-;9.793976;0.59155273;-1.416687;-;-;-;-;-;-;-;-;-;-;-;-;-;-;-
1512468512371;-;-;8.8207245;0.8561249;-1.6285706;-;-;-;-;-;-;-;-;-;-;-;-;-;-;-
1512468512391;-;-;8.578918;1.4642487;-0.6840515;-;-;-;-;-;-;-;-;-;-;-;-;-;-;-
1512468512412;-;-;7.9109344;1.8437195;-1.2407074;-;-;-;-;-;-;-;-;-;-;-;-;-;-;-
1512468512432;-;-;8.401749;1.358902;-1.6477203;-;-;-;-;-;-;-;-;-;-;-;-;-;-;-
1512468512452;-;-;10.441605;-0.09916687;-0.47695923;-;-;-;-;-;-;-;-;-;-;-;-;-;-;-
1512468512473;-;-;9.833481;0.42156982;-0.99650574;-;-;-;-;-;-;-;-;-;-;-;-;-;-;-
1512468512494;-;-;8.638763;0.7136688;-1.0683289;-;-;-;-;-;-;-;-;-;-;-;-;-;-;-
1512468512514;-;-;8.971558;0.91477966;-0.6685028;-;-;-;-;-;-;-;-;-;-;-;-;-;-;-
1512468512534;-;-;9.164291;0.22883606;-0.3189392;-;-;-;-;-;-;-;-;-;-;-;-;-;-;-
1512468512555;-;-;9.374985;0.7244415;-1.0491791;-;-;-;-;-;-;-;-;-;-;-;-;-;-;-
1512468512574;-;-;9.303162;0.57958984;-0.95700073;-;-;-;-;-;-;-;-;-;-;-;-;-;-;-
1512468512594;-;-;9.210983;0.47903442;-1.1616974;-;-;-;-;-;-;-;-;-;-;-;-;-;-;-
1512468512615;-;-;8.904526;0.6837311;-0.882782;-;-;-;-;-;-;-;-;-;-;-;-;-;-;-
1512468512636;-;-;9.790375;0.40600586;-0.7893982;-;-;-;-;-;-;-;-;-;-;-;-;-;-;-
1512468512656;-;-;7.2273865;2.7726746;-0.8767853;-;-;-;-;-;-;-;-;-;-;-;-;-;-;-
1512468512677;-;-;9.321121;0.0025787354;-0.61582947;-;-;-;-;-;-;-;-;-;-;-;-;-;-;-
1512468512697;-;-;10.227325;-0.5361023;-0.9737549;-;-;-;-;-;-;-;-;-;-;-;-;-;-;-
1512468512717;-;-;9.458786;-1.0891724;-0.01727295;-;-;-;-;-;-;-;-;-;-;-;-;-;-;-
1512468512738;-;-;7.415329;-0.076416016;-0.6996155;-;-;-;-;-;-;-;-;-;-;-;-;-;-;-
1512468512759;-;-;9.267242;-0.34217834;-0.3297119;-;-;-;-;-;-;-;-;-;-;-;-;-;-;-
1512468512778;-;-;8.710602;-0.41281128;-0.6289978;-;-;-;-;-;-;-;-;-;-;-;-;-;-;-
1512468512799;-;-;8.550186;-0.29908752;-0.42668152;-;-;-;-;-;-;-;-;-;-;-;-;-;-;-
1512468512819;-;-;8.738129;0.08279419;-0.6325836;-;-;-;-;-;-;-;-;-;-;-;-;-;-;-
1512468512839;-;-;8.891357;0.63705444;-0.6505432;-;-;-;-;-;-;-;-;-;-;-;-;-;-;-
1512468512860;-;-;9.746094;0.79267883;-1.6177979;-;-;-;-;-;-;-;-;-;-;-;-;-;-;-
1512468512879;-;-;10.217743;0.4766388;-1.5028687;-;-;-;-;-;-;-;-;-;-;-;-;-;-;-
1512468512900;-;-;9.7808075;-0.01776123;-0.73672485;-;-;-;-;-;-;-;-;-;-;-;-;-;-;-
1512468512919;-;-;9.261261;0.124694824;-0.6218109;-;-;-;-;-;-;-;-;-;-;-;-;-;-;-
1512468512940;-;-;8.991913;-0.09197998;-0.6002655;-;-;-;-;-;-;-;-;-;-;-;-;-;-;-
1512468512960;-;-;8.774048;0.3569336;-0.7379303;-;-;-;-;-;-;-;-;-;-;-;-;-;-;-
1512468512981;-;-;8.886566;0.48980713;-1.1341705;-;-;-;-;-;-;-;-;-;-;-;-;-;-;-
1512468513001;-;-;9.088882;0.517334;-1.0659332;-;-;-;-;-;-;-;-;-;-;-;-;-;-;-
1512468513022;-;-;9.096069;0.5185394;-1.0467834;-;-;-;-;-;-;-;-;-;-;-;-;-;-;-
1512468513041;-;-;9.442017;0.5987396;-0.86961365;-;-;-;-;-;-;-;-;-;-;-;-;-;-;-
1512468513061;-;-;9.007477;0.2743225;-1.6094208;-;-;-;-;-;-;-;-;-;-;-;-;-;-;-
1512468513082;-;-;8.222183;0.41677856;-0.7738342;-;-;-;-;-;-;-;-;-;-;-;-;-;-;-
1512468513101;-;-;9.755661;0.72802734;-0.45899963;-;-;-;-;-;-;-;-;-;-;-;-;-;-;-
1512468513122;-;-;9.804749;0.6131134;-1.7470856;-;-;-;-;-;-;-;-;-;-;-;-;-;-;-
1512468513142;-;-;8.97995;0.8525238;-1.258667;-;-;-;-;-;-;-;-;-;-;-;-;-;-;-
1512468513163;-;-;9.072113;1.0356903;-1.006073;-;-;-;-;-;-;-;-;-;-;-;-;-;-;-
1512468513183;-;-;9.081696;0.9494934;-1.2143707;-;-;-;-;-;-;-;-;-;-;-;-;-;-;-
1512468513204;-;-;9.064941;0.888443;-1.2000122;-;-;-;-;-;-;-;-;-;-;-;-;-;-;-
1512468513223;-;-;9.044586;0.8237915;-1.0719147;-;-;-;-;-;-;-;-;-;-;-;-;-;-;-
1512468513243;-;-;9.066132;0.8273926;-1.0862885;-;-;-;-;-;-;-;-;-;-;-;-;-;-;-
1512468513264;-;-;9.07811;0.84295654;-1.1102295;-;-;-;-;-;-;-;-;-;-;-;-;-;-;-
1512468513284;-;-;9.041;0.85372925;-1.0922699;-;-;-;-;-;-;-;-;-;-;-;-;-;-;-
1512468513305;-;-;9.014664;0.8513336;-1.1150208;-;-;-;-;-;-;-;-;-;-;-;-;-;-;-
1512468513324;-;-;9.087677;0.8632965;-1.1162109;-;-;-;-;-;-;-;-;-;-;-;-;-;-;-
1512468513345;-;-;9.076904;0.9004059;-1.1221924;-;-;-;-;-;-;-;-;-;-;-;-;-;-;-
1512468513365;-;-;9.015854;0.9315338;-1.1138153;-;-;-;-;-;-;-;-;-;-;-;-;-;-;-
1512468513385;-;-;9.055359;0.91477966;-1.1616974;-;-;-;-;-;-;-;-;-;-;-;-;-;-;-
1512468513406;-;-;9.09845;0.9566803;-1.1784668;-;-;-;-;-;-;-;-;-;-;-;-;-;-;-
1512468513426;-;-;9.075714;0.9758301;-1.1988068;-;-;-;-;-;-;-;-;-;-;-;-;-;-;-
1512468513447;-;-;9.080505;0.9195709;-1.1988068;-;-;-;-;-;-;-;-;-;-;-;-;-;-;-
1512468513467;-;-;9.058945;0.93273926;-1.1629028;-;-;-;-;-;-;-;-;-;-;-;-;-;-;-
1512468513488;-;-;9.088882;0.97343445;-1.188034;-;-;-;-;-;-;-;-;-;-;-;-;-;-;-
1512468513508;-;-;9.169083;0.9135742;-1.2311401;-;-;-;-;-;-;-;-;-;-;-;-;-;-;-
1512468513528;-;-;9.182251;0.98301697;-1.2012024;-;-;-;-;-;-;-;-;-;-;-;-;-;-;-
1512468513549;-;-;9.110428;1.0249176;-1.1497345;-;-;-;-;-;-;-;-;-;-;-;-;-;-;-
1512468513569;-;-;9.13916;0.9818115;-1.219162;-;-;-;-;-;-;-;-;-;-;-;-;-;-;-
1512468513590;-;-;9.0182495;1.0536346;-1.2335358;-;-;-;-;-;-;-;-;-;-;-;-;-;-;-
1512468513610;-;-;9.0577545;1.0608215;-1.2299347;-;-;-;-;-;-;-;-;-;-;-;-;-;-;-
1512468513631;-;-;9.087677;1.0033569;-1.1676941;-;-;-;-;-;-;-;-;-;-;-;-;-;-;-
1512468513650;-;-;9.136765;0.8453522;-1.0982513;-;-;-;-;-;-;-;-;-;-;-;-;-;-;-
1512468513670;-;-;9.106842;0.6921234;-0.9917145;-;-;-;-;-;-;-;-;-;-;-;-;-;-;-
1512468513691;-;-;9.012268;0.6549988;-0.9641876;-;-;-;-;-;-;-;-;-;-;-;-;-;-;-
1512468513711;-;-;8.941635;0.730423;-1.0132599;-;-;-;-;-;-;-;-;-;-;-;-;-;-;-
1512468513732;-;-;8.909317;0.8621063;-1.0575562;-;-;-;-;-;-;-;-;-;-;-;-;-;-;-
1512468513752;-;-;8.988327;0.9195709;-1.1521301;-;-;-;-;-;-;-;-;-;-;-;-;-;-;-
1512468513773;-;-;9.067337;1.0332947;-1.3304901;-;-;-;-;-;-;-;-;-;-;-;-;-;-;-
1512468513793;-;-;9.068527;1.1673584;-1.3699951;-;-;-;-;-;-;-;-;-;-;-;-;-;-;-
1512468513813;-;-;9.027832;1.1290588;-1.3292999;-;-;-;-;-;-;-;-;-;-;-;-;-;-;-
1512468513834;-;-;9.085281;1.0584259;-1.4992828;-;-;-;-;-;-;-;-;-;-;-;-;-;-;-
1512468513854;-;-;9.175064;1.0296936;-1.3712006;-;-;-;-;-;-;-;-;-;-;-;-;-;-;-
1512468513875;-;-;9.145142;1.1781464;-1.3065491;-;-;-;-;-;-;-;-;-;-;-;-;-;-;-
1512468513896;-;-;9.0577545;1.1362457;-1.1581116;-;-;-;-;-;-;-;-;-;-;-;-;-;-;-
1512468513916;-;-;8.955994;0.927948;-1.1114197;-;-;-;-;-;-;-;-;-;-;-;-;-;-;-
1512468513937;-;-;9.014664;0.8190155;-1.2407074;-;-;-;-;-;-;-;-;-;-;-;-;-;-;-
1512468513957;-;-;9.148727;0.68852234;-1.4047089;-;-;-;-;-;-;-;-;-;-;-;-;-;-;-
1512468513978;-;-;9.289993;0.6933136;-1.3544312;-;-;-;-;-;-;-;-;-;-;-;-;-;-;-
1512468513998;-;-;9.155914;0.85731506;-1.2610626;-;-;-;-;-;-;-;-;-;-;-;-;-;-;-
1512468514019;-;-;9.066132;0.97343445;-1.234726;-;-;-;-;-;-;-;-;-;-;-;-;-;-;-
1512468514039;-;-;9.006287;1.0775757;-1.2921906;-;-;-;-;-;-;-;-;-;-;-;-;-;-;-
1512468514060;-;-;8.932053;1.2044678;-1.480133;-;-;-;-;-;-;-;-;-;-;-;-;-;-;-
1512468514080;-;-;8.924881;1.2691193;-1.6201935;-;-;-;-;-;-;-;-;-;-;-;-;-;-;-
1512468514101;-;-;8.908112;1.327774;-1.6549072;-;-;-;-;-;-;-;-;-;-;-;-;-;-;-
1512468514122;-;-;9.006287;1.3948212;-1.6776581;-;-;-;-;-;-;-;-;-;-;-;-;-;-;-
1512468514142;-;-;9.090073;1.4199524;-1.6130066;-;-;-;-;-;-;-;-;-;-;-;-;-;-;-
1512468514163;-;-;9.074509;1.4307251;-1.531601;-;-;-;-;-;-;-;-;-;-;-;-;-;-;-
1512468514183;-;-;9.006287;1.4474792;-1.4537964;-;-;-;-;-;-;-;-;-;-;-;-;-;-;-
1512468514203;-;-;8.8051605;1.4091797;-1.3328857;-;-;-;-;-;-;-;-;-;-;-;-;-;-;-
1512468514224;-;-;8.874603;1.0967407;-1.0563507;-;-;-;-;-;-;-;-;-;-;-;-;-;-;-
1512468514244;-;-;8.906921;0.76634216;-0.922287;-;-;-;-;-;-;-;-;-;-;-;-;-;-;-
1512468514264;-;-;9.0793;0.596344;-0.81573486;-;-;-;-;-;-;-;-;-;-;-;-;-;-;-
1512468514285;-;-;9.257675;0.5736084;-0.8360901;-;-;-;-;-;-;-;-;-;-;-;-;-;-;-
1512468514305;-;-;9.3103485;0.6957092;-0.95339966;-;-;-;-;-;-;-;-;-;-;-;-;-;-;-
1512468514326;-;-;9.2708435;0.8441467;-0.8372803;-;-;-;-;-;-;-;-;-;-;-;-;-;-;-
1512468514346;-;-;9.190628;0.809433;-0.90911865;-;-;-;-;-;-;-;-;-;-;-;-;-;-;-
1512468514367;-;-;9.242111;0.6466217;-0.88038635;-;-;-;-;-;-;-;-;-;-;-;-;-;-;-
1512468514386;-;-;9.257675;0.49578857;-1.1269836;-;-;-;-;-;-;-;-;-;-;-;-;-;-;-
1512468514406;-;-;9.15712;0.54248047;-1.3963318;-;-;-;-;-;-;-;-;-;-;-;-;-;-;-
1512468514427;-;-;8.973953;0.67774963;-1.4286499;-;-;-;-;-;-;-;-;-;-;-;-;-;-;-
1512468514448;-;-;8.872208;0.4371338;-1.4142914;-;-;-;-;-;-;-;-;-;-;-;-;-;-;-
1512468514468;-;-;8.843475;-0.0440979;-1.5974426;-;-;-;-;-;-;-;-;-;-;-;-;-;-;-
1512468514489;-;-;8.829102;-0.44033813;-1.6752625;-;-;-;-;-;-;-;-;-;-;-;-;-;-;-
1512468514509;-;-;9.035004;-0.5923767;-1.5962524;-;-;-;-;-;-;-;-;-;-;-;-;-;-;-
1512468514530;-;-;9.269638;-0.5720215;-1.4849243;-;-;-;-;-;-;-;-;-;-;-;-;-;-;-
1512468514550;-;-;9.348648;-0.59477234;-1.4849243;-;-;-;-;-;-;-;-;-;-;-;-;-;-;-
1512468514571;-;-;9.428848;-0.40203857;-1.1581116;-;-;-;-;-;-;-;-;-;-;-;-;-;-;-
1512468514591;-;-;9.453995;-0.23564148;-0.7235565;-;-;-;-;-;-;-;-;-;-;-;-;-;-;-
1512468514611;-;-;9.720947;-0.49421692;-0.7187805;-;-;-;-;-;-;-;-;-;-;-;-;-;-;-
1512468514632;-;-;9.610809;-0.4774475;-0.76187134;-;-;-;-;-;-;-;-;-;-;-;-;-;-;-
1512468514652;-;-;9.580887;-0.621109;-0.7917938;-;-;-;-;-;-;-;-;-;-;-;-;-;-;-
1512468514673;-;-;9.400131;-0.6031494;-0.8325043;-;-;-;-;-;-;-;-;-;-;-;-;-;-;-
1512468514693;-;-;9.031418;-0.2212677;-1.061142;-;-;-;-;-;-;-;-;-;-;-;-;-;-;-
1512468514715;-;-;8.708206;0.30065918;-0.98812866;-;-;-;-;-;-;-;-;-;-;-;-;-;-;-
1512468514734;-;-;8.875793;0.26834106;-0.98573303;-;-;-;-;-;-;-;-;-;-;-;-;-;-;-
1512468514755;-;-;9.189438;0.08998108;-1.140152;-;-;-;-;-;-;-;-;-;-;-;-;-;-;-
1512468514775;-;-;9.285202;0.15820313;-0.97016907;-;-;-;-;-;-;-;-;-;-;-;-;-;-;-
1512468514796;-;-;9.224152;-0.021362305;-0.7056122;-;-;-;-;-;-;-;-;-;-;-;-;-;-;-
1512468514817;-;-;9.305557;-0.1482544;-0.7283478;-;-;-;-;-;-;-;-;-;-;-;-;-;-;-
1512468514837;-;-;9.292389;-0.4451294;-0.5439911;-;-;-;-;-;-;-;-;-;-;-;-;-;-;-
1512468514857;-;-;9.161896;-0.6689911;-0.72476196;-;-;-;-;-;-;-;-;-;-;-;-;-;-;-
1512468514878;-;-;9.075714;-0.5851898;-0.6888428;-;-;-;-;-;-;-;-;-;-;-;-;-;-;-
1512468514898;-;-;9.216965;-0.44752502;-0.81214905;-;-;-;-;-;-;-;-;-;-;-;-;-;-;-
1512468514919;-;-;9.279221;-0.16261292;-0.7379303;-;-;-;-;-;-;-;-;-;-;-;-;-;-;-
1512468514939;-;-;9.436035;0.7914734;-0.72476196;-;-;-;-;-;-;-;-;-;-;-;-;-;-;-
1512468514960;-;-;9.819107;0.88723755;-1.74469;-;-;-;-;-;-;-;-;-;-;-;-;-;-;-
1512468514980;-;-;9.319916;0.74957275;-1.6944122;-;-;-;-;-;-;-;-;-;-;-;-;-;-;-
1512468515001;-;-;8.593277;0.8441467;-1.1425476;-;-;-;-;-;-;-;-;-;-;-;-;-;-;-
1512468515021;-;-;8.352661;0.8417511;-1.2407074;-;-;-;-;-;-;-;-;-;-;-;-;-;-;-
1512468515042;-;-;8.728546;0.8202057;-1.4597778;-;-;-;-;-;-;-;-;-;-;-;-;-;-;-
1512468515062;-;-;8.987122;0.39164734;-1.3951416;-;-;-;-;-;-;-;-;-;-;-;-;-;-;-
1512468515083;-;-;9.355835;-0.10635376;-1.4502106;-;-;-;-;-;-;-;-;-;-;-;-;-;-;-
1512468515104;-;-;9.407303;-0.04649353;-1.188034;-;-;-;-;-;-;-;-;-;-;-;-;-;-;-
1512468515124;-;-;9.142746;0.21687317;-1.021637;-;-;-;-;-;-;-;-;-;-;-;-;-;-;-
1512468515145;-;-;9.006287;0.06602478;-0.96058655;-;-;-;-;-;-;-;-;-;-;-;-;-;-;-
1512468515166;-;-;8.847061;0.19172668;-1.1221924;-;-;-;-;-;-;-;-;-;-;-;-;-;-;-
1512468515186;-;-;8.436462;0.40481567;-1.3783722;-;-;-;-;-;-;-;-;-;-;-;-;-;-;-
1512468515207;-;-;7.987549;0.5077667;-1.4298553;-;-;-;-;-;-;-;-;-;-;-;-;-;-;-
1512468515227;-;-;8.30957;0.73161316;-1.274231;-;-;-;-;-;-;-;-;-;-;-;-;-;-;-
1512468515247;-;-;9.175064;1.1075134;-0.9079132;-;-;-;-;-;-;-;-;-;-;-;-;-;-;-
1512468515268;-;-;9.401321;1.3529205;-1.2155762;-;-;-;-;-;-;-;-;-;-;-;-;-;-;-
1512468515289;-;-;9.588074;1.5193176;-1.085083;-;-;-;-;-;-;-;-;-;-;-;-;-;-;-
1512468515309;-;-;9.805939;1.5025482;-0.23634338;-;-;-;-;-;-;-;-;-;-;-;-;-;-;-
1512468515329;-;-;10.240494;0.8190155;0.38136292;-;-;-;-;-;-;-;-;-;-;-;-;-;-;-
1512468515350;-;-;10.113602;0.49938965;0.24009705;-;-;-;-;-;-;-;-;-;-;-;-;-;-;-
1512468515370;-;-;10.14592;0.299469;0.44839478;-;-;-;-;-;-;-;-;-;-;-;-;-;-;-
1512468515391;-;-;10.198593;0.46705627;0.2843933;-;-;-;-;-;-;-;-;-;-;-;-;-;-;-
1512468515412;-;-;9.853821;0.7471771;-0.075927734;-;-;-;-;-;-;-;-;-;-;-;-;-;-;-
1512468515432;-;-;8.757278;1.2535553;-0.17289734;-;-;-;-;-;-;-;-;-;-;-;-;-;-;-
1512468515452;-;-;8.056976;1.4810028;0.117996216;-;-;-;-;-;-;-;-;-;-;-;-;-;-;-
1512468515473;-;-;7.973175;1.2739105;0.34664917;-;-;-;-;-;-;-;-;-;-;-;-;-;-;-
1512468515492;-;-;8.478363;0.88604736;0.45677185;-;-;-;-;-;-;-;-;-;-;-;-;-;-;-
1512468515512;-;-;8.6651;0.72802734;0.34664917;-;-;-;-;-;-;-;-;-;-;-;-;-;-;-
1512468515533;-;-;8.627991;1.0560303;-0.11782837;-;-;-;-;-;-;-;-;-;-;-;-;-;-;-
1512468515553;-;-;9.021835;1.7611237;-0.58709717;-;-;-;-;-;-;-;-;-;-;-;-;-;-;-
1512468515574;-;-;9.639542;2.0400543;-0.41351318;-;-;-;-;-;-;-;-;-;-;-;-;-;-;-
1512468515594;-;-;10.805527;1.0177307;-0.51646423;-;-;-;-;-;-;-;-;-;-;-;-;-;-;-
1512468515615;-;-;12.019379;-0.3086548;-2.2187347;-;-;-;-;-;-;-;-;-;-;-;-;-;-;-
1512468515634;-;-;10.177048;0.38685608;-1.3747864;-;-;-;-;-;-;-;-;-;-;-;-;-;-;-
1512468515655;-;-;7.621231;0.70648193;-0.18008423;-;-;-;-;-;-;-;-;-;-;-;-;-;-;-
1512468515674;-;-;6.4325104;0.42037964;-0.17648315;-;-;-;-;-;-;-;-;-;-;-;-;-;-;-
1512468515695;-;-;6.9975433;-0.26197815;-0.10107422;-;-;-;-;-;-;-;-;-;-;-;-;-;-;-
1512468515715;-;-;8.581314;-0.720459;-0.5978699;-;-;-;-;-;-;-;-;-;-;-;-;-;-;-
1512468515735;-;-;9.602432;-0.124313354;-1.0982513;-;-;-;-;-;-;-;-;-;-;-;-;-;-;-
1512468515756;-;-;9.913681;0.70887756;-1.3987274;-;-;-;-;-;-;-;-;-;-;-;-;-;-;-
1512468515777;-;-;9.594055;1.877243;-1.2610626;-;-;-;-;-;-;-;-;-;-;-;-;-;-;-
1512468515797;-;-;9.109222;1.7623291;-0.8181305;-;-;-;-;-;-;-;-;-;-;-;-;-;-;-
1512468515818;-;-;8.651932;1.4630432;-0.64216614;-;-;-;-;-;-;-;-;-;-;-;-;-;-;-
1512468515838;-;-;8.469971;1.0117493;-0.54878235;-;-;-;-;-;-;-;-;-;-;-;-;-;-;-
1512468515859;-;-;8.861435;0.53170776;-0.51646423;-;-;-;-;-;-;-;-;-;-;-;-;-;-;-
1512468515879;-;-;9.285202;0.42396545;-0.6038513;-;-;-;-;-;-;-;-;-;-;-;-;-;-;-
1512468515900;-;-;9.489914;0.65979004;-0.52723694;-;-;-;-;-;-;-;-;-;-;-;-;-;-;-
1512468515919;-;-;9.293579;0.8597107;-0.47216797;-;-;-;-;-;-;-;-;-;-;-;-;-;-;-
1512468515939;-;-;8.896149;1.2212372;-0.26387024;-;-;-;-;-;-;-;-;-;-;-;-;-;-;-
1512468515960;-;-;8.751297;1.6473999;-0.38119507;-;-;-;-;-;-;-;-;-;-;-;-;-;-;-
1512468515981;-;-;8.90213;1.9885712;-0.7738342;-;-;-;-;-;-;-;-;-;-;-;-;-;-;-
1512468516000;-;-;9.039795;2.2232056;-0.91989136;-;-;-;-;-;-;-;-;-;-;-;-;-;-;-
1512468516021;-;-;9.293579;2.0388489;-0.5392151;-;-;-;-;-;-;-;-;-;-;-;-;-;-;-
1512468516041;-;-;9.580887;1.5360718;-0.54759216;-;-;-;-;-;-;-;-;-;-;-;-;-;-;-
1512468516062;-;-;9.631165;0.95428467;-0.36442566;-;-;-;-;-;-;-;-;-;-;-;-;-;-;-
1512468516083;-;-;9.533005;0.6861267;-0.09628296;-;-;-;-;-;-;-;-;-;-;-;-;-;-;-
1512468516102;-;-;9.0182495;0.7005005;0.4220581;-;-;-;-;-;-;-;-;-;-;-;-;-;-;-
1512468516123;-;-;8.752487;0.46107483;0.28199768;-;-;-;-;-;-;-;-;-;-;-;-;-;-;-
1512468516144;-;-;8.746506;0.5736084;-0.03881836;-;-;-;-;-;-;-;-;-;-;-;-;-;-;-
1512468516164;-;-;8.892548;0.91596985;-0.10824585;-;-;-;-;-;-;-;-;-;-;-;-;-;-;-
1512468516185;-;-;9.0577545;1.2942505;-0.063964844;-;-;-;-;-;-;-;-;-;-;-;-;-;-;-
1512468516205;-;-;9.045776;1.2272186;0.08328247;-;-;-;-;-;-;-;-;-;-;-;-;-;-;-
1512468516226;-;-;9.141556;1.0608215;0.17425537;-;-;-;-;-;-;-;-;-;-;-;-;-;-;-
1512468516245;-;-;9.09845;1.0883636;0.32987976;-;-;-;-;-;-;-;-;-;-;-;-;-;-;-
1512468516266;-;-;8.98233;1.1805267;0.25805664;-;-;-;-;-;-;-;-;-;-;-;-;-;-;-
1512468516285;-;-;9.020645;1.2272186;0.04498291;-;-;-;-;-;-;-;-;-;-;-;-;-;-;-
1512468516306;-;-;9.161896;1.1984863;-0.14057922;-;-;-;-;-;-;-;-;-;-;-;-;-;-;-
1512468516326;-;-;9.301956;1.2260284;-0.22198486;-;-;-;-;-;-;-;-;-;-;-;-;-;-;-
1512468516347;-;-;9.301956;1.2822876;-0.23036194;-;-;-;-;-;-;-;-;-;-;-;-;-;-;-
1512468516368;-;-;9.17746;1.2439728;-0.19325256;-;-;-;-;-;-;-;-;-;-;-;-;-;-;-
1512468516388;-;-;9.00029;1.2583466;-0.12860107;-;-;-;-;-;-;-;-;-;-;-;-;-;-;-
1512468516408;-;-;9.09845;1.2164459;-0.035232544;-;-;-;-;-;-;-;-;-;-;-;-;-;-;-
1512468516429;-;-;9.148727;1.2224274;0.017440796;-;-;-;-;-;-;-;-;-;-;-;-;-;-;-
1512468516449;-;-;9.145142;1.1039124;0.050964355;-;-;-;-;-;-;-;-;-;-;-;-;-;-;-
1512468516470;-;-;9.042191;0.98062134;0.14193726;-;-;-;-;-;-;-;-;-;-;-;-;-;-;-
1512468516490;-;-;9.064941;1.0105438;0.15750122;-;-;-;-;-;-;-;-;-;-;-;-;-;-;-
1512468516511;-;-;9.069733;1.2547607;0.0030822754;-;-;-;-;-;-;-;-;-;-;-;-;-;-;-
1512468516531;-;-;9.1128235;1.2739105;-0.075927734;-;-;-;-;-;-;-;-;-;-;-;-;-;-;-
1512468516552;-;-;9.13916;1.2463684;-0.09388733;-;-;-;-;-;-;-;-;-;-;-;-;-;-;-
1512468516571;-;-;9.17746;1.2463684;-0.075927734;-;-;-;-;-;-;-;-;-;-;-;-;-;-;-
1512468516591;-;-;9.182251;1.1781464;-0.14537048;-;-;-;-;-;-;-;-;-;-;-;-;-;-;-
1512468516612;-;-;9.1918335;1.1541901;-0.020858765;-;-;-;-;-;-;-;-;-;-;-;-;-;-;-
1512468516631;-;-;9.195419;1.1518097;0.10722351;-;-;-;-;-;-;-;-;-;-;-;-;-;-;-
1512468516651;-;-;9.122391;1.1757507;0.027023315;-;-;-;-;-;-;-;-;-;-;-;-;-;-;-
1512468516672;-;-;8.969162;1.2080688;0.022232056;-;-;-;-;-;-;-;-;-;-;-;-;-;-;-
1512468516692;-;-;8.98233;1.2667236;0.04975891;-;-;-;-;-;-;-;-;-;-;-;-;-;-;-
1512468516713;-;-;9.013458;1.3493195;0.025817871;-;-;-;-;-;-;-;-;-;-;-;-;-;-;-
1512468516733;-;-;9.009872;1.3732605;0.0054779053;-;-;-;-;-;-;-;-;-;-;-;-;-;-;-
1512468516753;-;-;9.068527;1.3241882;0.007858276;-;-;-;-;-;-;-;-;-;-;-;-;-;-;-
1512468516774;-;-;9.081696;1.3110199;-0.042419434;-;-;-;-;-;-;-;-;-;-;-;-;-;-;-
1512468516794;-;-;9.142746;1.3469238;0.072509766;-;-;-;-;-;-;-;-;-;-;-;-;-;-;-
1512468516815;-;-;9.082901;1.2595367;0.06892395;-;-;-;-;-;-;-;-;-;-;-;-;-;-;-
1512468516835;-;-;9.067337;1.2152557;0.021026611;-;-;-;-;-;-;-;-;-;-;-;-;-;-;-
1512468516856;-;-;9.116409;1.2655334;-0.05558777;-;-;-;-;-;-;-;-;-;-;-;-;-;-;-
1512468516876;-;-;9.106842;1.3074188;-0.03163147;-;-;-;-;-;-;-;-;-;-;-;-;-;-;-
1512468516897;-;-;9.058945;1.3720703;0.004272461;-;-;-;-;-;-;-;-;-;-;-;-;-;-;-
1512468516917;-;-;9.042191;1.406784;0.009063721;-;-;-;-;-;-;-;-;-;-;-;-;-;-;-
1512468516938;-;-;9.0182495;1.3852386;0.07369995;-;-;-;-;-;-;-;-;-;-;-;-;-;-;-
1512468516958;-;-;9.025436;1.4031982;0.053359985;-;-;-;-;-;-;-;-;-;-;-;-;-;-;-
1512468516979;-;-;9.046982;1.3457336;-0.008895874;-;-;-;-;-;-;-;-;-;-;-;-;-;-;-
1512468516999;-;-;9.091278;1.3732605;-0.04360962;-;-;-;-;-;-;-;-;-;-;-;-;-;-;-
1512468517021;-;-;9.090073;1.3624878;-0.024459839;-;-;-;-;-;-;-;-;-;-;-;-;-;-;-
1512468517040;-;-;9.081696;1.4367065;-0.078323364;-;-;-;-;-;-;-;-;-;-;-;-;-;-;-
1512468517061;-;-;9.106842;1.4343262;-0.09030151;-;-;-;-;-;-;-;-;-;-;-;-;-;-;-
1512468517081;-;-;9.06134;1.4271393;-0.06515503;-;-;-;-;-;-;-;-;-;-;-;-;-;-;-
1512468517102;-;-;9.082901;1.3624878;-0.09628296;-;-;-;-;-;-;-;-;-;-;-;-;-;-;-
1512468517121;-;-;9.141556;1.3995972;-0.0914917;-;-;-;-;-;-;-;-;-;-;-;-;-;-;-
1512468517141;-;-;9.039795;1.3612976;-0.120224;-;-;-;-;-;-;-;-;-;-;-;-;-;-;-
1512468517162;-;-;9.124786;1.2523651;0.001876831;-;-;-;-;-;-;-;-;-;-;-;-;-;-;-
1512468517183;-;-;9.043396;1.2763062;-0.040023804;-;-;-;-;-;-;-;-;-;-;-;-;-;-;-
1512468517203;-;-;8.994308;1.3098145;-0.054382324;-;-;-;-;-;-;-;-;-;-;-;-;-;-;-
1512468517223;-;-;9.082901;1.3409424;-0.03163147;-;-;-;-;-;-;-;-;-;-;-;-;-;-;-
1512468517244;-;-;9.134369;1.3517151;-0.04600525;-;-;-;-;-;-;-;-;-;-;-;-;-;-;-
1512468517264;-;-;9.013458;1.3517151;-0.20521545;-;-;-;-;-;-;-;-;-;-;-;-;-;-;-
1512468517285;-;-;9.056564;1.3445435;-0.2064209;-;-;-;-;-;-;-;-;-;-;-;-;-;-;-
1512468517305;-;-;9.090073;1.3361511;-0.1381836;-;-;-;-;-;-;-;-;-;-;-;-;-;-;-
1512468517326;-;-;9.148727;1.3481293;-0.18606567;-;-;-;-;-;-;-;-;-;-;-;-;-;-;-
1512468517346;-;-;9.075714;1.3732605;-0.21359253;-;-;-;-;-;-;-;-;-;-;-;-;-;-;-
1512468517367;-;-;9.042191;1.4307251;-0.17529297;-;-;-;-;-;-;-;-;-;-;-;-;-;-;-
1512468517387;-;-;9.035004;1.4055939;-0.19204712;-;-;-;-;-;-;-;-;-;-;-;-;-;-;-
1512468517408;-;-;9.008667;1.413971;-0.17289734;-;-;-;-;-;-;-;-;-;-;-;-;-;-;-
1512468517428;-;-;9.035004;1.4798126;-0.18965149;-;-;-;-;-;-;-;-;-;-;-;-;-;-;-
1512468517449;-;-;9.030228;1.5312805;-0.24232483;-;-;-;-;-;-;-;-;-;-;-;-;-;-;-
1512468517469;-;-;9.129578;1.5360718;-0.26986694;-;-;-;-;-;-;-;-;-;-;-;-;-;-;-
1512468517490;-;-;9.118805;1.5492401;-0.26626587;-;-;-;-;-;-;-;-;-;-;-;-;-;-;-
1512468517511;-;-;9.055359;1.5588226;-0.2758484;-;-;-;-;-;-;-;-;-;-;-;-;-;-;-
1512468517530;-;-;9.019455;1.6174774;-0.28901672;-;-;-;-;-;-;-;-;-;-;-;-;-;-;-
1512468517551;-;-;9.063736;1.6486053;-0.27464294;-;-;-;-;-;-;-;-;-;-;-;-;-;-;-
1512468517572;-;-;9.09845;1.5480499;-0.29499817;-;-;-;-;-;-;-;-;-;-;-;-;-;-;-
1512468517592;-;-;9.084091;1.659378;-0.31176758;-;-;-;-;-;-;-;-;-;-;-;-;-;-;-
1512468517613;-;-;8.965576;1.6438141;-0.2004242;-;-;-;-;-;-;-;-;-;-;-;-;-;-;-
1512468517633;-;-;8.973953;1.5348816;-0.087905884;-;-;-;-;-;-;-;-;-;-;-;-;-;-;-
1512468517654;-;-;9.066132;1.413971;-0.18247986;-;-;-;-;-;-;-;-;-;-;-;-;-;-;-
1512468517674;-;-;9.128387;1.4498749;-0.28303528;-;-;-;-;-;-;-;-;-;-;-;-;-;-;-
1512468517695;-;-;9.116409;1.5229034;-0.37998962;-;-;-;-;-;-;-;-;-;-;-;-;-;-;-
1512468517715;-;-;8.988327;1.5049438;-0.24472046;-;-;-;-;-;-;-;-;-;-;-;-;-;-;-
1512468517736;-;-;8.935654;1.4810028;-0.22077942;-;-;-;-;-;-;-;-;-;-;-;-;-;-;-
1512468517755;-;-;9.062546;1.4762115;-0.2566986;-;-;-;-;-;-;-;-;-;-;-;-;-;-;-
1512468517776;-;-;9.075714;1.4414978;-0.27824402;-;-;-;-;-;-;-;-;-;-;-;-;-;-;-
1512468517796;-;-;9.082901;1.3720703;-0.21838379;-;-;-;-;-;-;-;-;-;-;-;-;-;-;-
1512468517816;-;-;9.193024;1.2810822;-0.16571045;-;-;-;-;-;-;-;-;-;-;-;-;-;-;-
1512468517837;-;-;9.202606;1.1925049;-0.083114624;-;-;-;-;-;-;-;-;-;-;-;-;-;-;-
1512468517857;-;-;9.067337;1.2511597;-0.107055664;-;-;-;-;-;-;-;-;-;-;-;-;-;-;-
1512468517878;-;-;8.894943;1.3253784;-0.14176941;-;-;-;-;-;-;-;-;-;-;-;-;-;-;-
1512468517899;-;-;8.994308;1.4905853;-0.22557068;-;-;-;-;-;-;-;-;-;-;-;-;-;-;-
1512468517919;-;-;9.123596;1.5863495;-0.32731628;-;-;-;-;-;-;-;-;-;-;-;-;-;-;-
1512468517938;-;-;9.190628;1.5552216;-0.31414795;-;-;-;-;-;-;-;-;-;-;-;-;-;-;-
1512468517959;-;-;9.1918335;1.422348;-0.3189392;-;-;-;-;-;-;-;-;-;-;-;-;-;-;-
1512468517979;-;-;9.125992;1.3146057;-0.19085693;-;-;-;-;-;-;-;-;-;-;-;-;-;-;-
1512468517999;-;-;9.06134;1.2810822;-0.05558777;-;-;-;-;-;-;-;-;-;-;-;-;-;-;-
1512468518020;-;-;9.027832;1.3098145;-0.11543274;-;-;-;-;-;-;-;-;-;-;-;-;-;-;-
1512468518041;-;-;9.046982;1.4091797;-0.26507568;-;-;-;-;-;-;-;-;-;-;-;-;-;-;-
1512468518061;-;-;9.046982;1.4055939;-0.20881653;-;-;-;-;-;-;-;-;-;-;-;-;-;-;-
1512468518081;-;-;9.044586;1.382843;-0.19325256;-;-;-;-;-;-;-;-;-;-;-;-;-;-;-
1512468518102;-;-;9.093674;1.3241882;-0.24832153;-;-;-;-;-;-;-;-;-;-;-;-;-;-;-
1512468518123;-;-;9.117615;1.3325653;-0.20162964;-;-;-;-;-;-;-;-;-;-;-;-;-;-;-
1512468518143;-;-;9.076904;1.3146057;-0.16810608;-;-;-;-;-;-;-;-;-;-;-;-;-;-;-
1512468518163;-;-;9.072113;1.303833;-0.19444275;-;-;-;-;-;-;-;-;-;-;-;-;-;-;-
1512468518184;-;-;9.104446;1.3265839;-0.24951172;-;-;-;-;-;-;-;-;-;-;-;-;-;-;-
1512468518204;-;-;9.103241;1.3493195;-0.22198486;-;-;-;-;-;-;-;-;-;-;-;-;-;-;-
1512468518225;-;-;9.052963;1.3146057;-0.23155212;-;-;-;-;-;-;-;-;-;-;-;-;-;-;-
1512468518245;-;-;9.039795;1.3074188;-0.21000671;-;-;-;-;-;-;-;-;-;-;-;-;-;-;-
1512468518266;-;-;9.055359;1.3301697;-0.16091919;-;-;-;-;-;-;-;-;-;-;-;-;-;-;-
1512468518286;-;-;9.044586;1.3110199;-0.16810608;-;-;-;-;-;-;-;-;-;-;-;-;-;-;-
1512468518307;-;-;9.06134;1.327774;-0.22317505;-;-;-;-;-;-;-;-;-;-;-;-;-;-;-
1512468518326;-;-;9.070923;1.3529205;-0.21000671;-;-;-;-;-;-;-;-;-;-;-;-;-;-;-
1512468518346;-;-;9.122391;1.3493195;-0.22796631;-;-;-;-;-;-;-;-;-;-;-;-;-;-;-
1512468518367;-;-;9.114014;1.3936157;-0.15254211;-;-;-;-;-;-;-;-;-;-;-;-;-;-;-
1512468518387;-;-;9.056564;1.3253784;-0.23155212;-;-;-;-;-;-;-;-;-;-;-;-;-;-;-
1512468518408;-;-;9.048172;1.319397;-0.20881653;-;-;-;-;-;-;-;-;-;-;-;-;-;-;-
1512468518428;-;-;9.118805;1.3182068;-0.1489563;-;-;-;-;-;-;-;-;-;-;-;-;-;-;-
1512468518449;-;-;9.163101;1.3696747;-0.13697815;-;-;-;-;-;-;-;-;-;-;-;-;-;-;-
1512468518469;-;-;9.008667;1.3696747;-0.2351532;-;-;-;-;-;-;-;-;-;-;-;-;-;-;-
1512468518489;-;-;9.055359;1.3337555;-0.17289734;-;-;-;-;-;-;-;-;-;-;-;-;-;-;-
1512468518510;-;-;9.080505;1.398407;-0.15733337;-;-;-;-;-;-;-;-;-;-;-;-;-;-;-
1512468518531;-;-;9.087677;1.3792572;-0.13937378;-;-;-;-;-;-;-;-;-;-;-;-;-;-;-
1512468518551;-;-;9.043396;1.3421478;-0.1381836;-;-;-;-;-;-;-;-;-;-;-;-;-;-;-
1512468518572;-;-;9.030228;1.3732605;-0.1489563;-;-;-;-;-;-;-;-;-;-;-;-;-;-;-
1512468518591;-;-;9.14035;1.3481293;-0.19325256;-;-;-;-;-;-;-;-;-;-;-;-;-;-;-
1512468518612;-;-;9.153519;1.367279;-0.21359253;-;-;-;-;-;-;-;-;-;-;-;-;-;-;-
1512468518632;-;-;9.141556;1.3696747;-0.24951172;-;-;-;-;-;-;-;-;-;-;-;-;-;-;-
1512468518653;-;-;9.087677;1.3864288;-0.1776886;-;-;-;-;-;-;-;-;-;-;-;-;-;-;-
1512468518673;-;-;9.063736;1.4486847;-0.18486023;-;-;-;-;-;-;-;-;-;-;-;-;-;-;-
1512468518694;-;-;9.045776;1.3612976;-0.15014648;-;-;-;-;-;-;-;-;-;-;-;-;-;-;-
1512468518713;-;-;9.0733185;1.3301697;-0.18008423;-;-;-;-;-;-;-;-;-;-;-;-;-;-;-
1512468518734;-;-;9.09845;1.3457336;-0.19085693;-;-;-;-;-;-;-;-;-;-;-;-;-;-;-
1512468518754;-;-;9.062546;1.3696747;-0.14176941;-;-;-;-;-;-;-;-;-;-;-;-;-;-;-
1512468518775;-;-;9.055359;1.3624878;-0.120224;-;-;-;-;-;-;-;-;-;-;-;-;-;-;-
1512468518795;-;-;9.088882;1.3576965;-0.1381836;-;-;-;-;-;-;-;-;-;-;-;-;-;-;-
1512468518816;-;-;9.122391;1.3074188;-0.15374756;-;-;-;-;-;-;-;-;-;-;-;-;-;-;-
1512468518836;-;-;9.0972595;1.3229828;-0.14656067;-;-;-;-;-;-;-;-;-;-;-;-;-;-;-
1512468518856;-;-;9.108032;1.3337555;-0.06636047;-;-;-;-;-;-;-;-;-;-;-;-;-;-;-
1512468518877;-;-;9.109222;1.3325653;-0.12741089;-;-;-;-;-;-;-;-;-;-;-;-;-;-;-
1512468518897;-;-;9.086487;1.2906647;-0.073532104;-;-;-;-;-;-;-;-;-;-;-;-;-;-;-
1512468518918;-;-;9.030228;1.2846832;-0.078323364;-;-;-;-;-;-;-;-;-;-;-;-;-;-;-
1512468518938;-;-;9.041;1.3110199;-0.037628174;-;-;-;-;-;-;-;-;-;-;-;-;-;-;-
1512468518959;-;-;9.06134;1.3469238;-0.04840088;-;-;-;-;-;-;-;-;-;-;-;-;-;-;-
1512468518979;-;-;9.06134;1.3517151;-0.123809814;-;-;-;-;-;-;-;-;-;-;-;-;-;-;-
1512468519000;-;-;9.096069;1.327774;-0.0340271;-;-;-;-;-;-;-;-;-;-;-;-;-;-;-
1512468519021;-;-;9.051773;1.2918701;-0.0041046143;-;-;-;-;-;-;-;-;-;-;-;-;-;-;-
1512468519041;-;-;9.125992;1.2715149;0.0138549805;-;-;-;-;-;-;-;-;-;-;-;-;-;-;-
1512468519061;-;-;9.007477;1.3086243;-0.09388733;-;-;-;-;-;-;-;-;-;-;-;-;-;-;-
1512468519082;-;-;9.021835;1.2846832;-0.040023804;-;-;-;-;-;-;-;-;-;-;-;-;-;-;-
1512468519103;-;-;9.06015;1.3385468;0.024627686;-;-;-;-;-;-;-;-;-;-;-;-;-;-;-
1512468519123;-;-;9.080505;1.3373566;-0.0687561;-;-;-;-;-;-;-;-;-;-;-;-;-;-;-
1512468519144;-;-;9.091278;1.2858734;-0.14416504;-;-;-;-;-;-;-;-;-;-;-;-;-;-;-
1512468519164;-;-;9.116409;1.3170013;-0.14176941;-;-;-;-;-;-;-;-;-;-;-;-;-;-;-
1512468519185;-;-;9.143951;1.3385468;-0.075927734;-;-;-;-;-;-;-;-;-;-;-;-;-;-;-
1512468519206;-;-;9.090073;1.3349609;0.015045166;-;-;-;-;-;-;-;-;-;-;-;-;-;-;-
1512468519226;-;-;9.011063;1.3050385;0.010253906;-;-;-;-;-;-;-;-;-;-;-;-;-;-;-
1512468519246;-;-;9.041;1.3062286;-0.071136475;-;-;-;-;-;-;-;-;-;-;-;-;-;-;-
1512468519267;-;-;9.0793;1.3349609;-0.099868774;-;-;-;-;-;-;-;-;-;-;-;-;-;-;-
1512468519287;-;-;9.087677;1.3050385;-0.0053100586;-;-;-;-;-;-;-;-;-;-;-;-;-;-;-
1512468519308;-;-;9.051773;1.319397;0.06413269;-;-;-;-;-;-;-;-;-;-;-;-;-;-;-
1512468519328;-;-;9.085281;1.2774963;0.10482788;-;-;-;-;-;-;-;-;-;-;-;-;-;-;-
1512468519349;-;-;9.108032;1.169754;0.0856781;-;-;-;-;-;-;-;-;-;-;-;-;-;-;-
1512468519369;-;-;9.090073;1.1565857;-0.080718994;-;-;-;-;-;-;-;-;-;-;-;-;-;-;-
1512468519390;-;-;9.086487;1.2894745;-0.11782837;-;-;-;-;-;-;-;-;-;-;-;-;-;-;-
1512468519410;-;-;9.093674;1.2822876;-0.032836914;-;-;-;-;-;-;-;-;-;-;-;-;-;-;-
1512468519431;-;-;9.125992;1.1709595;-0.13697815;-;-;-;-;-;-;-;-;-;-;-;-;-;-;-
1512468519450;-;-;9.108032;1.1769409;-0.10824585;-;-;-;-;-;-;-;-;-;-;-;-;-;-;-
1512468519471;-;-;9.080505;1.2463684;-0.06755066;-;-;-;-;-;-;-;-;-;-;-;-;-;-;-
1512468519491;-;-;9.055359;1.3110199;-0.18606567;-;-;-;-;-;-;-;-;-;-;-;-;-;-;-
1512468519512;-;-;9.055359;1.3720703;-0.2566986;-;-;-;-;-;-;-;-;-;-;-;-;-;-;-
1512468519532;-;-;9.041;1.374466;-0.2459259;-;-;-;-;-;-;-;-;-;-;-;-;-;-;-
1512468519553;-;-;9.110428;1.4115753;-0.27226257;-;-;-;-;-;-;-;-;-;-;-;-;-;-;-
1512468519573;-;-;9.109222;1.4283295;-0.23634338;-;-;-;-;-;-;-;-;-;-;-;-;-;-;-
1512468519593;-;-;9.055359;1.4283295;-0.24832153;-;-;-;-;-;-;-;-;-;-;-;-;-;-;-
1512468519614;-;-;9.068527;1.3732605;-0.23394775;-;-;-;-;-;-;-;-;-;-;-;-;-;-;-
1512468519635;-;-;9.124786;1.3972015;-0.13697815;-;-;-;-;-;-;-;-;-;-;-;-;-;-;-
1512468519655;-;-;9.008667;1.3948212;-0.2064209;-;-;-;-;-;-;-;-;-;-;-;-;-;-;-
1512468519676;-;-;9.092468;1.3457336;-0.14176941;-;-;-;-;-;-;-;-;-;-;-;-;-;-;-
1512468519696;-;-;9.0793;1.2751007;-0.21000671;-;-;-;-;-;-;-;-;-;-;-;-;-;-;-
1512468519717;-;-;9.058945;1.2942505;-0.21479797;-;-;-;-;-;-;-;-;-;-;-;-;-;-;-
1512468519736;-;-;9.056564;1.3074188;-0.16810608;-;-;-;-;-;-;-;-;-;-;-;-;-;-;-
1512468519757;-;-;9.075714;1.2858734;-0.20402527;-;-;-;-;-;-;-;-;-;-;-;-;-;-;-
1512468519777;-;-;9.127182;1.3337555;-0.20162964;-;-;-;-;-;-;-;-;-;-;-;-;-;-;-
1512468519798;-;-;9.129578;1.2870789;-0.19923401;-;-;-;-;-;-;-;-;-;-;-;-;-;-;-
1512468519817;-;-;9.102051;1.2631378;-0.17170715;-;-;-;-;-;-;-;-;-;-;-;-;-;-;-
1512468519838;-;-;9.0733185;1.2954559;-0.15853882;-;-;-;-;-;-;-;-;-;-;-;-;-;-;-
1512468519858;-;-;9.086487;1.3373566;-0.23394775;-;-;-;-;-;-;-;-;-;-;-;-;-;-;-
1512468519879;-;-;9.0577545;1.3541107;-0.24711609;-;-;-;-;-;-;-;-;-;-;-;-;-;-;-
1512468519899;-;-;9.07811;1.3756561;-0.22436523;-;-;-;-;-;-;-;-;-;-;-;-;-;-;-
1512468519919;-;-;9.088882;1.3014374;-0.15493774;-;-;-;-;-;-;-;-;-;-;-;-;-;-;-
1512468519940;-;-;9.096069;1.2870789;-0.11663818;-;-;-;-;-;-;-;-;-;-;-;-;-;-;-
1512468519960;-;-;9.014664;1.2978516;-0.12620544;-;-;-;-;-;-;-;-;-;-;-;-;-;-;-
1512468519981;-;-;9.07811;1.2810822;-0.16091919;-;-;-;-;-;-;-;-;-;-;-;-;-;-;-
1512468520000;-;-;9.1523285;1.264328;-0.16810608;-;-;-;-;-;-;-;-;-;-;-;-;-;-;-
1512468520021;-;-;9.178665;1.3361511;-0.1884613;-;-;-;-;-;-;-;-;-;-;-;-;-;-;-
1512468520041;-;-;9.109222;1.3912201;-0.17408752;-;-;-;-;-;-;-;-;-;-;-;-;-;-;-
1512468520062;-;-;9.110428;1.3481293;-0.20521545;-;-;-;-;-;-;-;-;-;-;-;-;-;-;-
1512468520081;-;-;9.127182;1.288269;-0.09628296;-;-;-;-;-;-;-;-;-;-;-;-;-;-;-
1512468520102;-;-;9.122391;1.3086243;-0.0627594;-;-;-;-;-;-;-;-;-;-;-;-;-;-;-
1512468520122;-;-;9.054169;1.2032776;-0.04600525;-;-;-;-;-;-;-;-;-;-;-;-;-;-;-
1512468520143;-;-;8.991913;1.2032776;-0.14416504;-;-;-;-;-;-;-;-;-;-;-;-;-;-;-
1512468520163;-;-;9.012268;1.2559509;-0.18008423;-;-;-;-;-;-;-;-;-;-;-;-;-;-;-
1512468520183;-;-;9.049377;1.3229828;-0.15853882;-;-;-;-;-;-;-;-;-;-;-;-;-;-;-
1512468520204;-;-;9.133179;1.3098145;-0.061569214;-;-;-;-;-;-;-;-;-;-;-;-;-;-;-
1512468520225;-;-;9.13916;1.2439728;-0.16810608;-;-;-;-;-;-;-;-;-;-;-;-;-;-;-
1512468520245;-;-;9.093674;1.2547607;-0.25309753;-;-;-;-;-;-;-;-;-;-;-;-;-;-;-
1512468520265;-;-;9.088882;1.3026428;-0.13458252;-;-;-;-;-;-;-;-;-;-;-;-;-;-;-
1512468520285;-;-;9.109222;1.3445435;-0.059173584;-;-;-;-;-;-;-;-;-;-;-;-;-;-;-
1512468520306;-;-;9.068527;1.3397522;-0.12261963;-;-;-;-;-;-;-;-;-;-;-;-;-;-;-
1512468520326;-;-;9.096069;1.343338;-0.16931152;-;-;-;-;-;-;-;-;-;-;-;-;-;-;-
1512468520347;-;-;9.163101;1.2763062;-0.15254211;-;-;-;-;-;-;-;-;-;-;-;-;-;-;-
1512468520367;-;-;9.141556;1.2942505;-0.15014648;-;-;-;-;-;-;-;-;-;-;-;-;-;-;-
1512468520388;-;-;9.068527;1.2763062;-0.1309967;-;-;-;-;-;-;-;-;-;-;-;-;-;-;-
1512468520408;-;-;9.039795;1.2272186;-0.08909607;-;-;-;-;-;-;-;-;-;-;-;-;-;-;-
1512468520429;-;-;9.043396;1.2834778;-0.059173584;-;-;-;-;-;-;-;-;-;-;-;-;-;-;-
1512468520449;-;-;9.035004;1.3253784;-0.1489563;-;-;-;-;-;-;-;-;-;-;-;-;-;-;-
1512468520470;-;-;9.063736;1.3074188;-0.097473145;-;-;-;-;-;-;-;-;-;-;-;-;-;-;-
1512468520491;-;-;9.127182;1.3325653;-0.18247986;-;-;-;-;-;-;-;-;-;-;-;-;-;-;-
1512468520512;-;-;9.122391;1.2751007;-0.18367004;-;-;-;-;-;-;-;-;-;-;-;-;-;-;-
1512468520532;-;-;9.020645;1.2763062;-0.018478394;-;-;-;-;-;-;-;-;-;-;-;-;-;-;-
1512468520552;-;-;9.037399;1.3205872;-0.07952881;-;-;-;-;-;-;-;-;-;-;-;-;-;-;-
1512468520573;-;-;9.125992;1.2966461;-0.1309967;-;-;-;-;-;-;-;-;-;-;-;-;-;-;-
1512468520594;-;-;9.105637;1.2870789;-0.13697815;-;-;-;-;-;-;-;-;-;-;-;-;-;-;-
1512468520613;-;-;9.092468;1.319397;-0.1381836;-;-;-;-;-;-;-;-;-;-;-;-;-;-;-
1512468520634;-;-;9.066132;1.3086243;-0.09388733;-;-;-;-;-;-;-;-;-;-;-;-;-;-;-
1512468520654;-;-;9.088882;1.3301697;-0.06755066;-;-;-;-;-;-;-;-;-;-;-;-;-;-;-
1512468520675;-;-;9.070923;1.3684845;-0.061569214;-;-;-;-;-;-;-;-;-;-;-;-;-;-;-
1512468520694;-;-;9.049377;1.4008026;-0.06755066;-;-;-;-;-;-;-;-;-;-;-;-;-;-;-
1512468520714;-;-;9.075714;1.2906647;-0.104660034;-;-;-;-;-;-;-;-;-;-;-;-;-;-;-
1512468520735;-;-;9.091278;1.2667236;-0.05796814;-;-;-;-;-;-;-;-;-;-;-;-;-;-;-
1512468520755;-;-;9.068527;1.2894745;-0.08909607;-;-;-;-;-;-;-;-;-;-;-;-;-;-;-
1512468520776;-;-;9.1128235;1.3421478;-0.078323364;-;-;-;-;-;-;-;-;-;-;-;-;-;-;-
1512468520796;-;-;9.161896;1.3756561;-0.085510254;-;-;-;-;-;-;-;-;-;-;-;-;-;-;-
1512468520817;-;-;9.058945;1.3816528;-0.19923401;-;-;-;-;-;-;-;-;-;-;-;-;-;-;-
1512468520836;-;-;9.012268;1.3529205;-0.09509277;-;-;-;-;-;-;-;-;-;-;-;-;-;-;-
1512468520856;-;-;9.041;1.3122101;-0.063964844;-;-;-;-;-;-;-;-;-;-;-;-;-;-;-
1512468520877;-;-;9.148727;1.2703094;-0.09269714;-;-;-;-;-;-;-;-;-;-;-;-;-;-;-
1512468520897;-;-;9.131973;1.3493195;-0.107055664;-;-;-;-;-;-;-;-;-;-;-;-;-;-;-
1512468520918;-;-;9.0577545;1.3924255;-0.09388733;-;-;-;-;-;-;-;-;-;-;-;-;-;-;-
1512468520938;-;-;9.104446;1.382843;-0.17408752;-;-;-;-;-;-;-;-;-;-;-;-;-;-;-
1512468520959;-;-;9.086487;1.3600922;-0.12501526;-;-;-;-;-;-;-;-;-;-;-;-;-;-;-
1512468520978;-;-;9.088882;1.3505249;-0.10586548;-;-;-;-;-;-;-;-;-;-;-;-;-;-;-
1512468520999;-;-;9.094864;1.3301697;-0.0914917;-;-;-;-;-;-;-;-;-;-;-;-;-;-;-
1512468521018;-;-;9.06134;1.3014374;-0.06515503;-;-;-;-;-;-;-;-;-;-;-;-;-;-;-
1512468521039;-;-;9.038605;1.3134155;-0.15135193;-;-;-;-;-;-;-;-;-;-;-;-;-;-;-
1512468521059;-;-;9.045776;1.3541107;-0.083114624;-;-;-;-;-;-;-;-;-;-;-;-;-;-;-
1512468521079;-;-;9.07811;1.3325653;-0.071136475;-;-;-;-;-;-;-;-;-;-;-;-;-;-;-
1512468521100;-;-;9.075714;1.2942505;-0.023254395;-;-;-;-;-;-;-;-;-;-;-;-;-;-;-
1512468521120;-;-;9.062546;1.2894745;-0.012481689;-;-;-;-;-;-;-;-;-;-;-;-;-;-;-
1512468521141;-;-;9.121201;1.279892;-0.04121399;-;-;-;-;-;-;-;-;-;-;-;-;-;-;-
1512468521162;-;-;9.1128235;1.288269;-0.049591064;-;-;-;-;-;-;-;-;-;-;-;-;-;-;-
1512468521182;-;-;9.072113;1.3205872;0.0138549805;-;-;-;-;-;-;-;-;-;-;-;-;-;-;-
1512468521202;-;-;9.005081;1.4019928;0.04975891;-;-;-;-;-;-;-;-;-;-;-;-;-;-;-
1512468521223;-;-;9.041;1.4008026;0.010253906;-;-;-;-;-;-;-;-;-;-;-;-;-;-;-
1512468521243;-;-;9.15712;1.3600922;-0.049591064;-;-;-;-;-;-;-;-;-;-;-;-;-;-;-
1512468521264;-;-;9.230133;1.2978516;-0.03881836;-;-;-;-;-;-;-;-;-;-;-;-;-;-;-
1512468521283;-;-;9.122391;1.2212372;-0.014877319;-;-;-;-;-;-;-;-;-;-;-;-;-;-;-
1512468521304;-;-;8.995499;1.2571411;0.065322876;-;-;-;-;-;-;-;-;-;-;-;-;-;-;-
1512468521324;-;-;8.945221;1.2894745;0.09764099;-;-;-;-;-;-;-;-;-;-;-;-;-;-;-
1512468521344;-;-;9.036209;1.2763062;-0.0053100586;-;-;-;-;-;-;-;-;-;-;-;-;-;-;-
1512468521365;-;-;9.118805;1.3253784;-0.08430481;-;-;-;-;-;-;-;-;-;-;-;-;-;-;-
1512468521385;-;-;9.197815;1.3289795;-0.071136475;-;-;-;-;-;-;-;-;-;-;-;-;-;-;-
1512468521406;-;-;9.222961;1.3170013;0.04019165;-;-;-;-;-;-;-;-;-;-;-;-;-;-;-
1512468521426;-;-;9.055359;1.3696747;0.0054779053;-;-;-;-;-;-;-;-;-;-;-;-;-;-;-
1512468521447;-;-;9.029022;1.3385468;0.029418945;-;-;-;-;-;-;-;-;-;-;-;-;-;-;-
1512468521467;-;-;9.056564;1.2918701;-0.0340271;-;-;-;-;-;-;-;-;-;-;-;-;-;-;-
1512468521487;-;-;9.106842;1.3158112;-0.097473145;-;-;-;-;-;-;-;-;-;-;-;-;-;-;-
1512468521508;-;-;9.085281;1.3349609;-0.109451294;-;-;-;-;-;-;-;-;-;-;-;-;-;-;-
1512468521528;-;-;9.069733;1.3445435;-0.04121399;-;-;-;-;-;-;-;-;-;-;-;-;-;-;-
1512468521549;-;-;9.043396;1.3529205;-0.0017089844;-;-;-;-;-;-;-;-;-;-;-;-;-;-;-
1512468521569;-;-;9.069733;1.3301697;0.028213501;-;-;-;-;-;-;-;-;-;-;-;-;-;-;-
1512468521590;-;-;9.080505;1.3026428;0.009063721;-;-;-;-;-;-;-;-;-;-;-;-;-;-;-
1512468521609;-;-;9.102051;1.3122101;-0.01966858;-;-;-;-;-;-;-;-;-;-;-;-;-;-;-
1512468521630;-;-;9.103241;1.3600922;-0.05079651;-;-;-;-;-;-;-;-;-;-;-;-;-;-;-
1512468521649;-;-;9.049377;1.3636932;-0.040023804;-;-;-;-;-;-;-;-;-;-;-;-;-;-;-
1512468521669;-;-;9.064941;1.3517151;-0.014877319;-;-;-;-;-;-;-;-;-;-;-;-;-;-;-
1512468521690;-;-;9.064941;1.2870789;0.028213501;-;-;-;-;-;-;-;-;-;-;-;-;-;-;-
1512468521709;-;-;9.103241;1.2906647;-0.051986694;-;-;-;-;-;-;-;-;-;-;-;-;-;-;-
1512468521729;-;-;9.0972595;1.3313751;-0.044799805;-;-;-;-;-;-;-;-;-;-;-;-;-;-;-
1512468521750;-;-;9.116409;1.3684845;0.004272461;-;-;-;-;-;-;-;-;-;-;-;-;-;-;-
1512468521771;-;-;9.052963;1.3421478;0.089263916;-;-;-;-;-;-;-;-;-;-;-;-;-;-;-
1512468521791;-;-;9.041;1.3253784;0.021026611;-;-;-;-;-;-;-;-;-;-;-;-;-;-;-
1512468521811;-;-;9.033813;1.3146057;0.027023315;-;-;-;-;-;-;-;-;-;-;-;-;-;-;-
1512468521832;-;-;9.086487;1.2990417;-0.04600525;-;-;-;-;-;-;-;-;-;-;-;-;-;-;-
1512468521852;-;-;9.104446;1.3397522;0.010253906;-;-;-;-;-;-;-;-;-;-;-;-;-;-;-
1512468521873;-;-;9.110428;1.2990417;0.046173096;-;-;-;-;-;-;-;-;-;-;-;-;-;-;-
1512468521893;-;-;9.066132;1.3134155;0.01625061;-;-;-;-;-;-;-;-;-;-;-;-;-;-;-
1512468521914;-;-;9.046982;1.3361511;0.03060913;-;-;-;-;-;-;-;-;-;-;-;-;-;-;-
1512468521934;-;-;9.104446;1.2894745;0.072509766;-;-;-;-;-;-;-;-;-;-;-;-;-;-;-
1512468521954;-;-;9.080505;1.288269;0.03300476;-;-;-;-;-;-;-;-;-;-;-;-;-;-;-
1512468521975;-;-;9.0733185;1.3134155;0.07369995;-;-;-;-;-;-;-;-;-;-;-;-;-;-;-
1512468521995;-;-;9.111618;1.2894745;0.062927246;-;-;-;-;-;-;-;-;-;-;-;-;-;-;-
1512468522016;-;-;9.15712;1.2858734;0.094055176;-;-;-;-;-;-;-;-;-;-;-;-;-;-;-
1512468522035;-;-;9.080505;1.3122101;0.028213501;-;-;-;-;-;-;-;-;-;-;-;-;-;-;-
1512468522056;-;-;9.066132;1.2679291;0.036590576;-;-;-;-;-;-;-;-;-;-;-;-;-;-;-
1512468522076;-;-;9.051773;1.3158112;0.058151245;-;-;-;-;-;-;-;-;-;-;-;-;-;-;-
1512468522096;-;-;9.147537;1.3062286;0.022232056;-;-;-;-;-;-;-;-;-;-;-;-;-;-;-
1512468522117;-;-;9.117615;1.288269;0.06652832;-;-;-;-;-;-;-;-;-;-;-;-;-;-;-
1512468522138;-;-;9.082901;1.2810822;0.14553833;-;-;-;-;-;-;-;-;-;-;-;-;-;-;-
1512468522158;-;-;9.056564;1.2703094;0.16229248;-;-;-;-;-;-;-;-;-;-;-;-;-;-;-
1512468522179;-;-;9.076904;1.2571411;0.09286499;-;-;-;-;-;-;-;-;-;-;-;-;-;-;-
1512468522200;-;-;9.088882;1.3301697;0.04975891;-;-;-;-;-;-;-;-;-;-;-;-;-;-;-
1512468522220;-;-;9.0972595;1.367279;0.05934143;-;-;-;-;-;-;-;-;-;-;-;-;-;-;-
1512468522239;-;-;9.070923;1.3517151;0.08807373;-;-;-;-;-;-;-;-;-;-;-;-;-;-;-
1512468522260;-;-;9.102051;1.2763062;0.101242065;-;-;-;-;-;-;-;-;-;-;-;-;-;-;-
1512468522279;-;-;9.088882;1.2846832;0.072509766;-;-;-;-;-;-;-;-;-;-;-;-;-;-;-
1512468522300;-;-;9.0793;1.3134155;0.06413269;-;-;-;-;-;-;-;-;-;-;-;-;-;-;-
1512468522320;-;-;9.084091;1.3014374;0.14193726;-;-;-;-;-;-;-;-;-;-;-;-;-;-;-
1512468522341;-;-;9.094864;1.2834778;0.15031433;-;-;-;-;-;-;-;-;-;-;-;-;-;-;-
1512468522360;-;-;9.07811;1.2966461;0.12159729;-;-;-;-;-;-;-;-;-;-;-;-;-;-;-
1512468522381;-;-;9.080505;1.2703094;0.08088684;-;-;-;-;-;-;-;-;-;-;-;-;-;-;-
1512468522401;-;-;9.045776;1.288269;0.14193726;-;-;-;-;-;-;-;-;-;-;-;-;-;-;-
1512468522421;-;-;9.075714;1.2918701;0.11201477;-;-;-;-;-;-;-;-;-;-;-;-;-;-;-
1512468522442;-;-;9.102051;1.3062286;0.09286499;-;-;-;-;-;-;-;-;-;-;-;-;-;-;-
1512468522462;-;-;9.096069;1.3110199;0.07849121;-;-;-;-;-;-;-;-;-;-;-;-;-;-;-
1512468522483;-;-;9.105637;1.303833;0.065322876;-;-;-;-;-;-;-;-;-;-;-;-;-;-;-
1512468522502;-;-;9.048172;1.3182068;0.122787476;-;-;-;-;-;-;-;-;-;-;-;-;-;-;-
1512468522522;-;-;9.099655;1.3217926;0.12757874;-;-;-;-;-;-;-;-;-;-;-;-;-;-;-
1512468522543;-;-;9.085281;1.2727051;0.108428955;-;-;-;-;-;-;-;-;-;-;-;-;-;-;-
1512468522563;-;-;9.087677;1.2679291;0.079696655;-;-;-;-;-;-;-;-;-;-;-;-;-;-;-
1512468522584;-;-;9.09845;1.3241882;0.08807373;-;-;-;-;-;-;-;-;-;-;-;-;-;-;-
1512468522604;-;-;9.088882;1.3756561;0.05455017;-;-;-;-;-;-;-;-;-;-;-;-;-;-;-
1512468522624;-;-;9.070923;1.2858734;0.122787476;-;-;-;-;-;-;-;-;-;-;-;-;-;-;-
1512468522645;-;-;8.993118;1.3002472;0.10243225;-;-;-;-;-;-;-;-;-;-;-;-;-;-;-
1512468522664;-;-;9.072113;1.2655334;0.089263916;-;-;-;-;-;-;-;-;-;-;-;-;-;-;-
1512468522684;-;-;9.121201;1.3074188;0.012649536;-;-;-;-;-;-;-;-;-;-;-;-;-;-;-
1512468522705;-;-;9.121201;1.3158112;0.050964355;-;-;-;-;-;-;-;-;-;-;-;-;-;-;-
1512468522726;-;-;9.092468;1.3110199;0.10722351;-;-;-;-;-;-;-;-;-;-;-;-;-;-;-
1512468522746;-;-;9.0972595;1.3349609;0.04258728;-;-;-;-;-;-;-;-;-;-;-;-;-;-;-
1512468522766;-;-;9.093674;1.3517151;0.04736328;-;-;-;-;-;-;-;-;-;-;-;-;-;-;-
1512468522787;-;-;9.109222;1.2774963;0.06413269;-;-;-;-;-;-;-;-;-;-;-;-;-;-;-
1512468522807;-;-;9.122391;1.3074188;0.05455017;-;-;-;-;-;-;-;-;-;-;-;-;-;-;-
1512468522828;-;-;9.110428;1.3696747;0.07369995;-;-;-;-;-;-;-;-;-;-;-;-;-;-;-
