TimeStamp[ms];Prox[Cm];Lux[lux];AccX[m/s^2];AccY[m/s^2];AccZ[m/s^2];GyroX[rad/s];GyroY[rad/s];GyroZ[rad/s];MagnX[uT];MagnY[uT];MagnZ[uT];OrienYaw[degrees];OrienPitch[degrees];OrienRoll[degrees];Press[Pa];Temp[C°];Batt[%];Lat;Lng;Speed[m/s]
1512468793510;-;-;8.917694;2.1046906;-0.46858215;-;-;-;-;-;-;-;-;-;-;-;-;-;-;-
1512468793528;-;-;8.859039;2.0220947;-0.29859924;-;-;-;-;-;-;-;-;-;-;-;-;-;-;-
1512468793548;-;-;8.984726;1.9131622;-0.32373047;-;-;-;-;-;-;-;-;-;-;-;-;-;-;-
1512468793568;-;-;8.897339;2.0400543;-0.19683838;-;-;-;-;-;-;-;-;-;-;-;-;-;-;-
1512468793589;-;-;8.926071;1.9586487;-0.34048462;-;-;-;-;-;-;-;-;-;-;-;-;-;-;-
1512468793609;-;-;8.923676;1.9981537;-0.333313;-;-;-;-;-;-;-;-;-;-;-;-;-;-;-
1512468793629;-;-;8.948822;2.0292816;-0.1956482;-;-;-;-;-;-;-;-;-;-;-;-;-;-;-
1512468793650;-;-;8.963181;2.066391;-0.23036194;-;-;-;-;-;-;-;-;-;-;-;-;-;-;-
1512468793669;-;-;9.045776;1.9981537;-0.2973938;-;-;-;-;-;-;-;-;-;-;-;-;-;-;-
1512468793689;-;-;8.950012;1.9227295;-0.19085693;-;-;-;-;-;-;-;-;-;-;-;-;-;-;-
1512468793710;-;-;8.985931;2.0041351;-0.3261261;-;-;-;-;-;-;-;-;-;-;-;-;-;-;-
1512468793731;-;-;8.98114;2.019699;-0.32373047;-;-;-;-;-;-;-;-;-;-;-;-;-;-;-
1512468793751;-;-;8.878189;2.0400543;-0.32852173;-;-;-;-;-;-;-;-;-;-;-;-;-;-;-
1512468793782;-;-;8.750107;1.9754028;-0.25309753;-;-;-;-;-;-;-;-;-;-;-;-;-;-;-
1512468793791;-;-;8.791992;2.0304718;-0.03881836;-;-;-;-;-;-;-;-;-;-;-;-;-;-;-
1512468793811;-;-;8.990723;2.0400543;0.09526062;-;-;-;-;-;-;-;-;-;-;-;-;-;-;-
1512468793832;-;-;9.128387;2.0532227;-0.5416107;-;-;-;-;-;-;-;-;-;-;-;-;-;-;-
1512468793852;-;-;9.194229;1.8556976;-0.7080078;-;-;-;-;-;-;-;-;-;-;-;-;-;-;-
1512468793873;-;-;8.613632;1.8856201;-0.11543274;-;-;-;-;-;-;-;-;-;-;-;-;-;-;-
1512468793892;-;-;10.32428;1.9466705;0.45318604;-;-;-;-;-;-;-;-;-;-;-;-;-;-;-
1512468793913;-;-;8.906921;2.3070068;0.21496582;-;-;-;-;-;-;-;-;-;-;-;-;-;-;-
1512468793932;-;-;8.660324;1.6294403;-0.121414185;-;-;-;-;-;-;-;-;-;-;-;-;-;-;-
1512468793953;-;-;8.912903;1.8221741;-0.3584442;-;-;-;-;-;-;-;-;-;-;-;-;-;-;-
1512468793973;-;-;8.959595;1.9945679;-0.35246277;-;-;-;-;-;-;-;-;-;-;-;-;-;-;-
1512468793993;-;-;9.143951;1.9849854;-0.35246277;-;-;-;-;-;-;-;-;-;-;-;-;-;-;-
1512468794014;-;-;9.128387;1.9586487;-0.3476715;-;-;-;-;-;-;-;-;-;-;-;-;-;-;-
1512468794034;-;-;9.005081;1.9586487;-0.3261261;-;-;-;-;-;-;-;-;-;-;-;-;-;-;-
1512468794055;-;-;9.257675;2.3500977;-0.3476715;-;-;-;-;-;-;-;-;-;-;-;-;-;-;-
1512468794075;-;-;8.946426;1.8784485;-0.040023804;-;-;-;-;-;-;-;-;-;-;-;-;-;-;-
1512468794096;-;-;8.796783;1.932312;-0.25909424;-;-;-;-;-;-;-;-;-;-;-;-;-;-;-
1512468794115;-;-;8.90213;1.9442902;-0.0914917;-;-;-;-;-;-;-;-;-;-;-;-;-;-;-
1512468794136;-;-;9.039795;1.9047852;-0.18127441;-;-;-;-;-;-;-;-;-;-;-;-;-;-;-
1512468794156;-;-;8.861435;1.9921722;-0.15374756;-;-;-;-;-;-;-;-;-;-;-;-;-;-;-
1512468794177;-;-;8.890167;1.9694214;-0.10346985;-;-;-;-;-;-;-;-;-;-;-;-;-;-;-
1512468794197;-;-;8.632782;1.916748;-0.3584442;-;-;-;-;-;-;-;-;-;-;-;-;-;-;-
1512468794218;-;-;9.2313385;1.853302;-0.31176758;-;-;-;-;-;-;-;-;-;-;-;-;-;-;-
1512468794239;-;-;8.923676;1.8353424;-0.03881836;-;-;-;-;-;-;-;-;-;-;-;-;-;-;-
1512468794259;-;-;8.766861;1.8018341;-0.12620544;-;-;-;-;-;-;-;-;-;-;-;-;-;-;-
1512468794279;-;-;9.501877;1.8473206;-0.19325256;-;-;-;-;-;-;-;-;-;-;-;-;-;-;-
1512468794300;-;-;8.893753;2.0520172;-0.14656067;-;-;-;-;-;-;-;-;-;-;-;-;-;-;-
1512468794319;-;-;8.953613;2.1765137;-0.13697815;-;-;-;-;-;-;-;-;-;-;-;-;-;-;-
1512468794340;-;-;9.127182;2.0220947;0.01864624;-;-;-;-;-;-;-;-;-;-;-;-;-;-;-
1512468794360;-;-;8.975159;1.9406891;-0.13458252;-;-;-;-;-;-;-;-;-;-;-;-;-;-;-
1512468794381;-;-;9.039795;1.698883;-0.078323364;-;-;-;-;-;-;-;-;-;-;-;-;-;-;-
1512468794400;-;-;8.7812195;1.753952;0.07369995;-;-;-;-;-;-;-;-;-;-;-;-;-;-;-
1512468794421;-;-;8.838684;1.8197784;-0.01727295;-;-;-;-;-;-;-;-;-;-;-;-;-;-;-
1512468794440;-;-;8.733337;2.1226501;0.29756165;-;-;-;-;-;-;-;-;-;-;-;-;-;-;-
1512468794461;-;-;9.103241;2.0089264;-0.2686615;-;-;-;-;-;-;-;-;-;-;-;-;-;-;-
1512468794481;-;-;9.415695;1.7204285;-0.2111969;-;-;-;-;-;-;-;-;-;-;-;-;-;-;-
1512468794502;-;-;8.605255;2.2830658;0.0138549805;-;-;-;-;-;-;-;-;-;-;-;-;-;-;-
1512468794523;-;-;9.122391;1.5695953;-0.34288025;-;-;-;-;-;-;-;-;-;-;-;-;-;-;-
1512468794543;-;-;9.117615;1.3050385;-0.29260254;-;-;-;-;-;-;-;-;-;-;-;-;-;-;-
1512468794563;-;-;8.661514;2.0879364;-0.03642273;-;-;-;-;-;-;-;-;-;-;-;-;-;-;-
1512468794584;-;-;8.660324;1.8126068;-0.59906006;-;-;-;-;-;-;-;-;-;-;-;-;-;-;-
1512468794604;-;-;9.240906;1.3289795;0.08328247;-;-;-;-;-;-;-;-;-;-;-;-;-;-;-
1512468794625;-;-;7.414139;3.9422455;-0.78341675;-;-;-;-;-;-;-;-;-;-;-;-;-;-;-
1512468794645;-;-;9.339081;1.3852386;0.101242065;-;-;-;-;-;-;-;-;-;-;-;-;-;-;-
1512468794666;-;-;9.446808;0.5053711;0.055755615;-;-;-;-;-;-;-;-;-;-;-;-;-;-;-
1512468794687;-;-;8.633987;1.8784485;0.7440796;-;-;-;-;-;-;-;-;-;-;-;-;-;-;-
1512468794707;-;-;10.053741;1.3445435;-3.1297302;-;-;-;-;-;-;-;-;-;-;-;-;-;-;-
1512468794727;-;-;9.39534;1.1410217;-0.25430298;-;-;-;-;-;-;-;-;-;-;-;-;-;-;-
1512468794748;-;-;8.758484;1.3409424;-0.8205261;-;-;-;-;-;-;-;-;-;-;-;-;-;-;-
1512468794768;-;-;9.398926;1.9155579;-3.9054565;-;-;-;-;-;-;-;-;-;-;-;-;-;-;-
1512468794789;-;-;10.423645;-0.66539;1.4611511;-;-;-;-;-;-;-;-;-;-;-;-;-;-;-
1512468794809;-;-;9.711365;1.5312805;-1.3256989;-;-;-;-;-;-;-;-;-;-;-;-;-;-;-
1512468794829;-;-;9.609619;1.3122101;-4.0993805;-;-;-;-;-;-;-;-;-;-;-;-;-;-;-
1512468794850;-;-;7.7169952;1.3529205;-1.392746;-;-;-;-;-;-;-;-;-;-;-;-;-;-;-
1512468794871;-;-;8.489136;1.0320892;-1.1940308;-;-;-;-;-;-;-;-;-;-;-;-;-;-;-
1512468794891;-;-;8.365829;0.20968628;-0.19204712;-;-;-;-;-;-;-;-;-;-;-;-;-;-;-
1512468794912;-;-;10.557724;0.13186646;-0.22557068;-;-;-;-;-;-;-;-;-;-;-;-;-;-;-
1512468794932;-;-;8.590881;0.85731506;0.04498291;-;-;-;-;-;-;-;-;-;-;-;-;-;-;-
1512468794952;-;-;8.180283;1.5516357;0.05934143;-;-;-;-;-;-;-;-;-;-;-;-;-;-;-
1512468794973;-;-;9.035004;1.9825897;-0.24832153;-;-;-;-;-;-;-;-;-;-;-;-;-;-;-
1512468794994;-;-;9.088882;1.3074188;0.079696655;-;-;-;-;-;-;-;-;-;-;-;-;-;-;-
1512468795014;-;-;8.906921;0.34136963;-0.4458313;-;-;-;-;-;-;-;-;-;-;-;-;-;-;-
1512468795035;-;-;8.74411;0.37608337;-0.9007416;-;-;-;-;-;-;-;-;-;-;-;-;-;-;-
1512468795055;-;-;8.984726;0.6143036;0.22692871;-;-;-;-;-;-;-;-;-;-;-;-;-;-;-
1512468795076;-;-;9.347458;1.3325653;1.0864563;-;-;-;-;-;-;-;-;-;-;-;-;-;-;-
1512468795095;-;-;8.576523;1.5456543;-0.966568;-;-;-;-;-;-;-;-;-;-;-;-;-;-;-
1512468795116;-;-;8.977554;1.750351;-0.13220215;-;-;-;-;-;-;-;-;-;-;-;-;-;-;-
1512468795136;-;-;9.197815;0.541275;-0.10346985;-;-;-;-;-;-;-;-;-;-;-;-;-;-;-
1512468795157;-;-;9.266052;0.5472717;-1.006073;-;-;-;-;-;-;-;-;-;-;-;-;-;-;-
1512468795178;-;-;9.444412;0.5281067;-0.630188;-;-;-;-;-;-;-;-;-;-;-;-;-;-;-
1512468795198;-;-;8.915298;0.8704834;-1.1317749;-;-;-;-;-;-;-;-;-;-;-;-;-;-;-
1512468795219;-;-;9.269638;1.0847626;0.4795227;-;-;-;-;-;-;-;-;-;-;-;-;-;-;-
1512468795239;-;-;9.542587;1.2080688;-1.2814178;-;-;-;-;-;-;-;-;-;-;-;-;-;-;-
1512468795259;-;-;9.005081;0.9399109;-0.5858917;-;-;-;-;-;-;-;-;-;-;-;-;-;-;-
1512468795280;-;-;9.305557;0.97702026;-0.5404053;-;-;-;-;-;-;-;-;-;-;-;-;-;-;-
1512468795299;-;-;9.118805;1.0548401;-0.26507568;-;-;-;-;-;-;-;-;-;-;-;-;-;-;-
1512468795320;-;-;9.036209;1.1230774;-0.28781128;-;-;-;-;-;-;-;-;-;-;-;-;-;-;-
1512468795340;-;-;9.141556;1.0452576;-0.3955536;-;-;-;-;-;-;-;-;-;-;-;-;-;-;-
1512468795361;-;-;9.179855;1.0045624;-0.33091736;-;-;-;-;-;-;-;-;-;-;-;-;-;-;-
1512468795381;-;-;9.134369;0.95188904;-0.30337524;-;-;-;-;-;-;-;-;-;-;-;-;-;-;-
1512468795402;-;-;9.232529;0.9291382;-0.102264404;-;-;-;-;-;-;-;-;-;-;-;-;-;-;-
1512468795422;-;-;8.912903;1.062027;-0.27464294;-;-;-;-;-;-;-;-;-;-;-;-;-;-;-
1512468795442;-;-;8.738129;1.0500488;-0.16452026;-;-;-;-;-;-;-;-;-;-;-;-;-;-;-
1512468795463;-;-;9.12001;0.9961853;-0.3368988;-;-;-;-;-;-;-;-;-;-;-;-;-;-;-
1512468795483;-;-;9.0577545;1.0548401;-0.3153534;-;-;-;-;-;-;-;-;-;-;-;-;-;-;-
1512468795504;-;-;9.123596;1.109909;-0.24232483;-;-;-;-;-;-;-;-;-;-;-;-;-;-;-
1512468795524;-;-;9.091278;0.9494934;-0.71517944;-;-;-;-;-;-;-;-;-;-;-;-;-;-;-
1512468795545;-;-;9.070923;0.88604736;-0.25430298;-;-;-;-;-;-;-;-;-;-;-;-;-;-;-
1512468795566;-;-;8.927277;0.9866028;-0.13578796;-;-;-;-;-;-;-;-;-;-;-;-;-;-;-
1512468795585;-;-;9.895721;0.9351349;-0.37998962;-;-;-;-;-;-;-;-;-;-;-;-;-;-;-
1512468795606;-;-;9.163101;1.3469238;-1.0635376;-;-;-;-;-;-;-;-;-;-;-;-;-;-;-
1512468795627;-;-;8.918884;0.9075928;-0.29260254;-;-;-;-;-;-;-;-;-;-;-;-;-;-;-
1512468795647;-;-;9.147537;0.48382568;-0.47935486;-;-;-;-;-;-;-;-;-;-;-;-;-;-;-
1512468795667;-;-;9.312744;0.7028961;-1.1233978;-;-;-;-;-;-;-;-;-;-;-;-;-;-;-
1512468795688;-;-;8.83989;0.9566803;-1.0791016;-;-;-;-;-;-;-;-;-;-;-;-;-;-;-
1512468795709;-;-;9.307953;0.9758301;-0.5607605;-;-;-;-;-;-;-;-;-;-;-;-;-;-;-
1512468795729;-;-;9.784393;0.9315338;-0.7115936;-;-;-;-;-;-;-;-;-;-;-;-;-;-;-
1512468795750;-;-;9.173874;1.3708649;-0.6289978;-;-;-;-;-;-;-;-;-;-;-;-;-;-;-
1512468795770;-;-;9.524628;1.1206818;-0.6230011;-;-;-;-;-;-;-;-;-;-;-;-;-;-;-
1512468795791;-;-;9.498291;1.1757507;-0.22676086;-;-;-;-;-;-;-;-;-;-;-;-;-;-;-
1512468795810;-;-;8.993118;1.1601868;-0.75468445;-;-;-;-;-;-;-;-;-;-;-;-;-;-;-
1512468795831;-;-;7.8678436;0.31143188;2.02977;-;-;-;-;-;-;-;-;-;-;-;-;-;-;-
1512468795851;-;-;8.896149;0.9351349;-3.0279846;-;-;-;-;-;-;-;-;-;-;-;-;-;-;-
1512468795872;-;-;9.524628;1.0488586;-1.1928253;-;-;-;-;-;-;-;-;-;-;-;-;-;-;-
1512468795891;-;-;10.315903;0.73880005;-0.17170715;-;-;-;-;-;-;-;-;-;-;-;-;-;-;-
1512468795911;-;-;9.205002;0.8501282;-0.73194885;-;-;-;-;-;-;-;-;-;-;-;-;-;-;-
1512468795932;-;-;9.31752;1.2463684;-0.788208;-;-;-;-;-;-;-;-;-;-;-;-;-;-;-
1512468795952;-;-;8.522644;1.2787018;-0.11424255;-;-;-;-;-;-;-;-;-;-;-;-;-;-;-
1512468795973;-;-;8.656723;0.9925842;-0.14297485;-;-;-;-;-;-;-;-;-;-;-;-;-;-;-
1512468795994;-;-;8.945221;0.7651367;-0.25909424;-;-;-;-;-;-;-;-;-;-;-;-;-;-;-
1512468796014;-;-;9.529419;1.2128601;-1.025238;-;-;-;-;-;-;-;-;-;-;-;-;-;-;-
1512468796034;-;-;9.117615;0.7328186;-0.013687134;-;-;-;-;-;-;-;-;-;-;-;-;-;-;-
1512468796055;-;-;9.0577545;0.8501282;-0.2171936;-;-;-;-;-;-;-;-;-;-;-;-;-;-;-
1512468796075;-;-;8.991913;1.1936951;0.21975708;-;-;-;-;-;-;-;-;-;-;-;-;-;-;-
1512468796095;-;-;8.990723;0.98779297;-0.5404053;-;-;-;-;-;-;-;-;-;-;-;-;-;-;-
1512468796116;-;-;9.49231;1.0332947;-0.8744049;-;-;-;-;-;-;-;-;-;-;-;-;-;-;-
1512468796136;-;-;9.418076;1.2834778;-0.25549316;-;-;-;-;-;-;-;-;-;-;-;-;-;-;-
1512468796156;-;-;9.182251;1.4989624;-0.21479797;-;-;-;-;-;-;-;-;-;-;-;-;-;-;-
1512468796177;-;-;8.903336;1.1949005;-0.70321655;-;-;-;-;-;-;-;-;-;-;-;-;-;-;-
1512468796197;-;-;9.495895;1.1601868;-1.6417389;-;-;-;-;-;-;-;-;-;-;-;-;-;-;-
1512468796218;-;-;8.98114;0.8226013;0.18981934;-;-;-;-;-;-;-;-;-;-;-;-;-;-;-
1512468796238;-;-;6.5953217;1.4450989;3.0772247;-;-;-;-;-;-;-;-;-;-;-;-;-;-;-
1512468796258;-;-;9.608414;0.5281067;-1.4430237;-;-;-;-;-;-;-;-;-;-;-;-;-;-;-
1512468796279;-;-;9.588074;1.0883636;-0.15853882;-;-;-;-;-;-;-;-;-;-;-;-;-;-;-
1512468796299;-;-;9.274429;1.5384674;-0.7391205;-;-;-;-;-;-;-;-;-;-;-;-;-;-;-
1512468796320;-;-;9.333084;1.4654388;-0.29260254;-;-;-;-;-;-;-;-;-;-;-;-;-;-;-
1512468796339;-;-;9.084091;1.1877136;-0.03642273;-;-;-;-;-;-;-;-;-;-;-;-;-;-;-
1512468796360;-;-;8.894943;1.0955353;-0.7463074;-;-;-;-;-;-;-;-;-;-;-;-;-;-;-
1512468796380;-;-;8.481949;1.0572357;-0.98931885;-;-;-;-;-;-;-;-;-;-;-;-;-;-;-
1512468796401;-;-;10.004654;2.0173035;-0.4853363;-;-;-;-;-;-;-;-;-;-;-;-;-;-;-
1512468796421;-;-;8.610046;0.7986603;-0.49491882;-;-;-;-;-;-;-;-;-;-;-;-;-;-;-
1512468796442;-;-;9.281616;1.3229828;-0.6804657;-;-;-;-;-;-;-;-;-;-;-;-;-;-;-
1512468796462;-;-;8.950012;0.91238403;0.048568726;-;-;-;-;-;-;-;-;-;-;-;-;-;-;-
1512468796483;-;-;8.5849;1.1925049;-0.8145447;-;-;-;-;-;-;-;-;-;-;-;-;-;-;-
1512468796503;-;-;8.443649;2.0137177;-0.90193176;-;-;-;-;-;-;-;-;-;-;-;-;-;-;-
1512468796523;-;-;8.181473;2.081955;-1.0743103;-;-;-;-;-;-;-;-;-;-;-;-;-;-;-
1512468796544;-;-;9.210983;1.4355164;0.4507904;-;-;-;-;-;-;-;-;-;-;-;-;-;-;-
1512468796565;-;-;9.403717;1.2846832;-1.5866699;-;-;-;-;-;-;-;-;-;-;-;-;-;-;-
1512468796585;-;-;9.845444;1.2595367;-1.1305847;-;-;-;-;-;-;-;-;-;-;-;-;-;-;-
1512468796605;-;-;8.622009;1.7048645;-0.9905243;-;-;-;-;-;-;-;-;-;-;-;-;-;-;-
1512468796625;-;-;9.541382;1.6390228;-1.9769287;-;-;-;-;-;-;-;-;-;-;-;-;-;-;-
1512468796646;-;-;8.648346;1.3337555;-1.1676941;-;-;-;-;-;-;-;-;-;-;-;-;-;-;-
1512468796666;-;-;9.722153;1.2906647;-0.77264404;-;-;-;-;-;-;-;-;-;-;-;-;-;-;-
1512468796686;-;-;6.7641144;1.169754;-1.697998;-;-;-;-;-;-;-;-;-;-;-;-;-;-;-
1512468796707;-;-;8.620819;1.0871582;-0.85165405;-;-;-;-;-;-;-;-;-;-;-;-;-;-;-
1512468796728;-;-;8.5849;1.0392761;-1.3867645;-;-;-;-;-;-;-;-;-;-;-;-;-;-;-
1512468796748;-;-;9.301956;0.7579498;-1.6489258;-;-;-;-;-;-;-;-;-;-;-;-;-;-;-
1512468796768;-;-;8.396957;1.2595367;-1.8296814;-;-;-;-;-;-;-;-;-;-;-;-;-;-;-
1512468796789;-;-;9.262466;1.3840332;-1.7961731;-;-;-;-;-;-;-;-;-;-;-;-;-;-;-
1512468796810;-;-;9.523422;1.2547607;-2.4821014;-;-;-;-;-;-;-;-;-;-;-;-;-;-;-
1512468796830;-;-;9.695816;1.1565857;-2.3204956;-;-;-;-;-;-;-;-;-;-;-;-;-;-;-
1512468796851;-;-;7.9109344;1.5025482;-0.018478394;-;-;-;-;-;-;-;-;-;-;-;-;-;-;-
1512468796871;-;-;6.8131866;0.98420715;0.3035431;-;-;-;-;-;-;-;-;-;-;-;-;-;-;-
1512468796892;-;-;8.711792;0.65859985;-0.19444275;-;-;-;-;-;-;-;-;-;-;-;-;-;-;-
1512468796912;-;-;9.5354;0.9483032;-0.47695923;-;-;-;-;-;-;-;-;-;-;-;-;-;-;-
1512468796933;-;-;9.386963;1.2224274;-0.5332184;-;-;-;-;-;-;-;-;-;-;-;-;-;-;-
1512468796953;-;-;9.154724;1.2320099;0.017440796;-;-;-;-;-;-;-;-;-;-;-;-;-;-;-
1512468796974;-;-;8.793198;0.8561249;-0.43865967;-;-;-;-;-;-;-;-;-;-;-;-;-;-;-
1512468796993;-;-;8.827911;0.79985046;-0.21838379;-;-;-;-;-;-;-;-;-;-;-;-;-;-;-
1512468797014;-;-;9.359421;0.7579498;0.13954163;-;-;-;-;-;-;-;-;-;-;-;-;-;-;-
1512468797034;-;-;8.771652;1.114685;-0.4853363;-;-;-;-;-;-;-;-;-;-;-;-;-;-;-
1512468797054;-;-;9.099655;0.94470215;-0.6589203;-;-;-;-;-;-;-;-;-;-;-;-;-;-;-
1512468797075;-;-;8.959595;0.9135742;-0.7965851;-;-;-;-;-;-;-;-;-;-;-;-;-;-;-
1512468797095;-;-;8.715378;1.0691986;-0.2566986;-;-;-;-;-;-;-;-;-;-;-;-;-;-;-
1512468797116;-;-;9.726929;0.97224426;-0.70680237;-;-;-;-;-;-;-;-;-;-;-;-;-;-;-
1512468797135;-;-;9.851425;0.5053711;-0.013687134;-;-;-;-;-;-;-;-;-;-;-;-;-;-;-
1512468797156;-;-;9.082901;1.1422272;-0.39794922;-;-;-;-;-;-;-;-;-;-;-;-;-;-;-
1512468797176;-;-;8.647156;1.1565857;-0.109451294;-;-;-;-;-;-;-;-;-;-;-;-;-;-;-
1512468797197;-;-;9.0733185;1.1230774;-0.32852173;-;-;-;-;-;-;-;-;-;-;-;-;-;-;-
1512468797217;-;-;9.6622925;1.2739105;-0.44104004;-;-;-;-;-;-;-;-;-;-;-;-;-;-;-
1512468797237;-;-;9.426468;1.1877136;-0.37400818;-;-;-;-;-;-;-;-;-;-;-;-;-;-;-
1512468797258;-;-;9.043396;1.1625824;-0.3009796;-;-;-;-;-;-;-;-;-;-;-;-;-;-;-
1512468797279;-;-;9.014664;1.051239;-0.34288025;-;-;-;-;-;-;-;-;-;-;-;-;-;-;-
1512468797298;-;-;9.030228;1.101532;-0.25190735;-;-;-;-;-;-;-;-;-;-;-;-;-;-;-
1512468797319;-;-;9.09845;1.1518097;-0.2866211;-;-;-;-;-;-;-;-;-;-;-;-;-;-;-
1512468797339;-;-;9.111618;1.1446228;-0.28063965;-;-;-;-;-;-;-;-;-;-;-;-;-;-;-
1512468797360;-;-;9.082901;1.0596313;-0.27464294;-;-;-;-;-;-;-;-;-;-;-;-;-;-;-
1512468797380;-;-;9.080505;1.066803;-0.27824402;-;-;-;-;-;-;-;-;-;-;-;-;-;-;-
1512468797401;-;-;9.070923;1.125473;-0.333313;-;-;-;-;-;-;-;-;-;-;-;-;-;-;-
1512468797420;-;-;9.17627;1.130249;-0.32852173;-;-;-;-;-;-;-;-;-;-;-;-;-;-;-
1512468797441;-;-;9.153519;1.161377;-0.3440857;-;-;-;-;-;-;-;-;-;-;-;-;-;-;-
1512468797461;-;-;9.106842;1.1541901;-0.30697632;-;-;-;-;-;-;-;-;-;-;-;-;-;-;-
1512468797482;-;-;9.024231;1.101532;-0.30577087;-;-;-;-;-;-;-;-;-;-;-;-;-;-;-
1512468797502;-;-;9.072113;1.1170807;-0.3153534;-;-;-;-;-;-;-;-;-;-;-;-;-;-;-
1512468797523;-;-;9.116409;1.1565857;-0.3476715;-;-;-;-;-;-;-;-;-;-;-;-;-;-;-
1512468797543;-;-;9.115219;1.164978;-0.38838196;-;-;-;-;-;-;-;-;-;-;-;-;-;-;-
1512468797564;-;-;9.12001;1.1314545;-0.3584442;-;-;-;-;-;-;-;-;-;-;-;-;-;-;-
1512468797584;-;-;9.111618;1.109909;-0.3261261;-;-;-;-;-;-;-;-;-;-;-;-;-;-;-
1512468797605;-;-;9.066132;1.1075134;-0.29141235;-;-;-;-;-;-;-;-;-;-;-;-;-;-;-
1512468797625;-;-;9.092468;1.1051178;-0.33450317;-;-;-;-;-;-;-;-;-;-;-;-;-;-;-
1512468797646;-;-;9.12001;1.0967407;-0.31654358;-;-;-;-;-;-;-;-;-;-;-;-;-;-;-
1512468797666;-;-;9.109222;1.109909;-0.38478088;-;-;-;-;-;-;-;-;-;-;-;-;-;-;-
1512468797686;-;-;9.123596;1.090744;-0.37521362;-;-;-;-;-;-;-;-;-;-;-;-;-;-;-
1512468797707;-;-;9.076904;1.090744;-0.3261261;-;-;-;-;-;-;-;-;-;-;-;-;-;-;-
1512468797727;-;-;9.094864;1.0943451;-0.33810425;-;-;-;-;-;-;-;-;-;-;-;-;-;-;-
1512468797748;-;-;9.094864;1.1338501;-0.3189392;-;-;-;-;-;-;-;-;-;-;-;-;-;-;-
1512468797767;-;-;9.117615;1.0919495;-0.3081665;-;-;-;-;-;-;-;-;-;-;-;-;-;-;-
1512468797788;-;-;9.128387;1.0967407;-0.34648132;-;-;-;-;-;-;-;-;-;-;-;-;-;-;-
1512468797808;-;-;9.123596;1.090744;-0.34648132;-;-;-;-;-;-;-;-;-;-;-;-;-;-;-
1512468797828;-;-;9.125992;1.1206818;-0.32133484;-;-;-;-;-;-;-;-;-;-;-;-;-;-;-
1512468797849;-;-;9.133179;1.082367;-0.33210754;-;-;-;-;-;-;-;-;-;-;-;-;-;-;-
1512468797869;-;-;9.13916;1.051239;-0.27824402;-;-;-;-;-;-;-;-;-;-;-;-;-;-;-
1512468797889;-;-;9.0972595;1.0656128;-0.2686615;-;-;-;-;-;-;-;-;-;-;-;-;-;-;-
1512468797910;-;-;9.090073;1.0871582;-0.25549316;-;-;-;-;-;-;-;-;-;-;-;-;-;-;-
1512468797930;-;-;9.080505;1.1051178;-0.2399292;-;-;-;-;-;-;-;-;-;-;-;-;-;-;-
1512468797950;-;-;9.106842;1.101532;-0.23873901;-;-;-;-;-;-;-;-;-;-;-;-;-;-;-
1512468797971;-;-;9.137955;1.114685;-0.24951172;-;-;-;-;-;-;-;-;-;-;-;-;-;-;-
1512468797991;-;-;9.103241;1.0967407;-0.2866211;-;-;-;-;-;-;-;-;-;-;-;-;-;-;-
1512468798012;-;-;9.0733185;1.1134949;-0.31774902;-;-;-;-;-;-;-;-;-;-;-;-;-;-;-
1512468798031;-;-;9.049377;1.109909;-0.29978943;-;-;-;-;-;-;-;-;-;-;-;-;-;-;-
1512468798052;-;-;9.0733185;1.1051178;-0.3081665;-;-;-;-;-;-;-;-;-;-;-;-;-;-;-
1512468798072;-;-;9.122391;1.0991364;-0.2686615;-;-;-;-;-;-;-;-;-;-;-;-;-;-;-
1512468798092;-;-;9.087677;1.0847626;-0.24232483;-;-;-;-;-;-;-;-;-;-;-;-;-;-;-
1512468798113;-;-;9.104446;1.0931396;-0.3081665;-;-;-;-;-;-;-;-;-;-;-;-;-;-;-
1512468798133;-;-;9.12001;1.0931396;-0.23753357;-;-;-;-;-;-;-;-;-;-;-;-;-;-;-
1512468798154;-;-;9.121201;1.1182861;-0.3009796;-;-;-;-;-;-;-;-;-;-;-;-;-;-;-
1512468798174;-;-;9.115219;1.0596313;-0.25549316;-;-;-;-;-;-;-;-;-;-;-;-;-;-;-
1512468798195;-;-;9.108032;1.0596313;-0.2902069;-;-;-;-;-;-;-;-;-;-;-;-;-;-;-
1512468798215;-;-;9.14035;1.1194763;-0.30218506;-;-;-;-;-;-;-;-;-;-;-;-;-;-;-
1512468798236;-;-;9.092468;1.1494141;-0.30937195;-;-;-;-;-;-;-;-;-;-;-;-;-;-;-
1512468798256;-;-;9.094864;1.1470184;-0.28781128;-;-;-;-;-;-;-;-;-;-;-;-;-;-;-
1512468798277;-;-;9.130783;1.1003265;-0.25549316;-;-;-;-;-;-;-;-;-;-;-;-;-;-;-
1512468798297;-;-;9.108032;1.101532;-0.26268005;-;-;-;-;-;-;-;-;-;-;-;-;-;-;-
1512468798318;-;-;9.06015;1.1206818;-0.28303528;-;-;-;-;-;-;-;-;-;-;-;-;-;-;-
1512468798339;-;-;9.108032;1.1673584;-0.3153534;-;-;-;-;-;-;-;-;-;-;-;-;-;-;-
1512468798358;-;-;9.125992;1.121872;-0.31414795;-;-;-;-;-;-;-;-;-;-;-;-;-;-;-
1512468798379;-;-;9.118805;1.1266632;-0.35725403;-;-;-;-;-;-;-;-;-;-;-;-;-;-;-
1512468798399;-;-;9.142746;1.1601868;-0.3548584;-;-;-;-;-;-;-;-;-;-;-;-;-;-;-
1512468798420;-;-;9.094864;1.1110992;-0.34648132;-;-;-;-;-;-;-;-;-;-;-;-;-;-;-
1512468798441;-;-;9.070923;1.1278534;-0.31176758;-;-;-;-;-;-;-;-;-;-;-;-;-;-;-
1512468798460;-;-;9.0972595;1.1290588;-0.29260254;-;-;-;-;-;-;-;-;-;-;-;-;-;-;-
1512468798481;-;-;9.109222;1.1518097;-0.31295776;-;-;-;-;-;-;-;-;-;-;-;-;-;-;-
1512468798500;-;-;9.104446;1.1326447;-0.33091736;-;-;-;-;-;-;-;-;-;-;-;-;-;-;-
1512468798521;-;-;9.131973;1.1470184;-0.27703857;-;-;-;-;-;-;-;-;-;-;-;-;-;-;-
1512468798541;-;-;9.128387;1.1757507;-0.3297119;-;-;-;-;-;-;-;-;-;-;-;-;-;-;-
1512468798562;-;-;9.109222;1.1314545;-0.3189392;-;-;-;-;-;-;-;-;-;-;-;-;-;-;-
1512468798582;-;-;9.104446;1.1278534;-0.33210754;-;-;-;-;-;-;-;-;-;-;-;-;-;-;-
1512468798603;-;-;9.12001;1.1709595;-0.30337524;-;-;-;-;-;-;-;-;-;-;-;-;-;-;-
1512468798623;-;-;9.075714;1.1901093;-0.29380798;-;-;-;-;-;-;-;-;-;-;-;-;-;-;-
1512468798644;-;-;9.142746;1.2200317;-0.33929443;-;-;-;-;-;-;-;-;-;-;-;-;-;-;-
1512468798663;-;-;9.151123;1.2344055;-0.3249359;-;-;-;-;-;-;-;-;-;-;-;-;-;-;-
1512468798683;-;-;9.099655;1.2583466;-0.38838196;-;-;-;-;-;-;-;-;-;-;-;-;-;-;-
1512468798704;-;-;9.075714;1.2583466;-0.35964966;-;-;-;-;-;-;-;-;-;-;-;-;-;-;-
1512468798724;-;-;9.076904;1.2332001;-0.2686615;-;-;-;-;-;-;-;-;-;-;-;-;-;-;-
1512468798744;-;-;9.096069;1.1972961;-0.3045807;-;-;-;-;-;-;-;-;-;-;-;-;-;-;-
1512468798765;-;-;9.074509;1.1984863;-0.2686615;-;-;-;-;-;-;-;-;-;-;-;-;-;-;-
1512468798785;-;-;9.090073;1.1949005;-0.31414795;-;-;-;-;-;-;-;-;-;-;-;-;-;-;-
1512468798806;-;-;9.105637;1.2523651;-0.33450317;-;-;-;-;-;-;-;-;-;-;-;-;-;-;-
1512468798825;-;-;9.106842;1.3122101;-0.31654358;-;-;-;-;-;-;-;-;-;-;-;-;-;-;-
1512468798846;-;-;9.068527;1.209259;-0.25909424;-;-;-;-;-;-;-;-;-;-;-;-;-;-;-
1512468798866;-;-;9.082901;1.2044678;-0.26986694;-;-;-;-;-;-;-;-;-;-;-;-;-;-;-
1512468798887;-;-;9.0972595;1.145813;-0.25549316;-;-;-;-;-;-;-;-;-;-;-;-;-;-;-
1512468798908;-;-;9.082901;1.1865234;-0.26507568;-;-;-;-;-;-;-;-;-;-;-;-;-;-;-
1512468798928;-;-;9.044586;1.2379913;-0.2578888;-;-;-;-;-;-;-;-;-;-;-;-;-;-;-
1512468798949;-;-;9.067337;1.200882;-0.24832153;-;-;-;-;-;-;-;-;-;-;-;-;-;-;-
1512468798969;-;-;9.084091;1.1901093;-0.2064209;-;-;-;-;-;-;-;-;-;-;-;-;-;-;-
1512468798989;-;-;9.092468;1.1972961;-0.20281982;-;-;-;-;-;-;-;-;-;-;-;-;-;-;-
1512468799010;-;-;9.109222;1.145813;-0.24951172;-;-;-;-;-;-;-;-;-;-;-;-;-;-;-
1512468799031;-;-;9.082901;1.2116547;-0.26148987;-;-;-;-;-;-;-;-;-;-;-;-;-;-;-
1512468799051;-;-;9.103241;1.2128601;-0.2064209;-;-;-;-;-;-;-;-;-;-;-;-;-;-;-
1512468799072;-;-;9.093674;1.2104645;-0.19444275;-;-;-;-;-;-;-;-;-;-;-;-;-;-;-
1512468799092;-;-;9.125992;1.1434174;-0.28182983;-;-;-;-;-;-;-;-;-;-;-;-;-;-;-
1512468799113;-;-;9.056564;1.1206818;-0.24353027;-;-;-;-;-;-;-;-;-;-;-;-;-;-;-
1512468799133;-;-;9.025436;1.2296143;-0.16571045;-;-;-;-;-;-;-;-;-;-;-;-;-;-;-
1512468799154;-;-;9.026627;1.2715149;-0.2004242;-;-;-;-;-;-;-;-;-;-;-;-;-;-;-
1512468799174;-;-;9.087677;1.2727051;-0.25430298;-;-;-;-;-;-;-;-;-;-;-;-;-;-;-
1512468799195;-;-;9.13916;1.1972961;-0.33810425;-;-;-;-;-;-;-;-;-;-;-;-;-;-;-
1512468799216;-;-;9.131973;1.2571411;-0.28901672;-;-;-;-;-;-;-;-;-;-;-;-;-;-;-
1512468799236;-;-;9.136765;1.3086243;-0.30937195;-;-;-;-;-;-;-;-;-;-;-;-;-;-;-
1512468799257;-;-;9.118805;1.3170013;-0.23155212;-;-;-;-;-;-;-;-;-;-;-;-;-;-;-
1512468799277;-;-;9.123596;1.2739105;-0.22676086;-;-;-;-;-;-;-;-;-;-;-;-;-;-;-
1512468799298;-;-;9.096069;1.319397;-0.31176758;-;-;-;-;-;-;-;-;-;-;-;-;-;-;-
1512468799317;-;-;9.080505;1.2763062;-0.28781128;-;-;-;-;-;-;-;-;-;-;-;-;-;-;-
1512468799338;-;-;9.105637;1.327774;-0.2399292;-;-;-;-;-;-;-;-;-;-;-;-;-;-;-
1512468799358;-;-;9.075714;1.2703094;-0.28781128;-;-;-;-;-;-;-;-;-;-;-;-;-;-;-
1512468799378;-;-;9.019455;1.3014374;-0.21359253;-;-;-;-;-;-;-;-;-;-;-;-;-;-;-
1512468799397;-;-;9.056564;1.2966461;-0.22436523;-;-;-;-;-;-;-;-;-;-;-;-;-;-;-
1512468799417;-;-;9.06015;1.3732605;-0.21958923;-;-;-;-;-;-;-;-;-;-;-;-;-;-;-
1512468799438;-;-;9.076904;1.4008026;-0.21838379;-;-;-;-;-;-;-;-;-;-;-;-;-;-;-
1512468799459;-;-;9.06015;1.3708649;-0.18486023;-;-;-;-;-;-;-;-;-;-;-;-;-;-;-
1512468799478;-;-;9.066132;1.3720703;-0.19802856;-;-;-;-;-;-;-;-;-;-;-;-;-;-;-
1512468799499;-;-;9.081696;1.2834778;-0.18965149;-;-;-;-;-;-;-;-;-;-;-;-;-;-;-
1512468799519;-;-;9.067337;1.319397;-0.10586548;-;-;-;-;-;-;-;-;-;-;-;-;-;-;-
1512468799539;-;-;8.983536;1.2296143;-0.035232544;-;-;-;-;-;-;-;-;-;-;-;-;-;-;-
1512468799560;-;-;9.043396;1.1518097;-0.01008606;-;-;-;-;-;-;-;-;-;-;-;-;-;-;-
1512468799580;-;-;9.081696;1.1386414;-0.04600525;-;-;-;-;-;-;-;-;-;-;-;-;-;-;-
1512468799601;-;-;9.012268;1.2523651;-0.09867859;-;-;-;-;-;-;-;-;-;-;-;-;-;-;-
1512468799620;-;-;9.049377;1.1865234;-0.05558777;-;-;-;-;-;-;-;-;-;-;-;-;-;-;-
1512468799640;-;-;9.074509;1.1278534;-0.075927734;-;-;-;-;-;-;-;-;-;-;-;-;-;-;-
1512468799661;-;-;9.088882;1.1386414;-0.09269714;-;-;-;-;-;-;-;-;-;-;-;-;-;-;-
1512468799682;-;-;9.069733;1.200882;-0.14176941;-;-;-;-;-;-;-;-;-;-;-;-;-;-;-
1512468799702;-;-;9.224152;1.2332001;-0.19683838;-;-;-;-;-;-;-;-;-;-;-;-;-;-;-
1512468799721;-;-;9.25647;1.2703094;-0.2111969;-;-;-;-;-;-;-;-;-;-;-;-;-;-;-
1512468799741;-;-;9.203796;1.2320099;-0.159729;-;-;-;-;-;-;-;-;-;-;-;-;-;-;-
1512468799762;-;-;9.072113;1.1482086;-0.12261963;-;-;-;-;-;-;-;-;-;-;-;-;-;-;-
1512468799781;-;-;9.009872;1.085968;-0.15135193;-;-;-;-;-;-;-;-;-;-;-;-;-;-;-
1512468799801;-;-;9.046982;1.0632172;-0.06994629;-;-;-;-;-;-;-;-;-;-;-;-;-;-;-
1512468799822;-;-;9.07811;1.125473;-0.120224;-;-;-;-;-;-;-;-;-;-;-;-;-;-;-
1512468799842;-;-;9.081696;1.1589813;-0.10586548;-;-;-;-;-;-;-;-;-;-;-;-;-;-;-
1512468799863;-;-;9.043396;1.1745453;-0.080718994;-;-;-;-;-;-;-;-;-;-;-;-;-;-;-
1512468799883;-;-;9.108032;1.1793365;-0.11543274;-;-;-;-;-;-;-;-;-;-;-;-;-;-;-
1512468799904;-;-;9.159515;1.1673584;-0.22198486;-;-;-;-;-;-;-;-;-;-;-;-;-;-;-
1512468799924;-;-;9.159515;1.2020874;-0.24353027;-;-;-;-;-;-;-;-;-;-;-;-;-;-;-
1512468799944;-;-;9.167892;1.2176361;-0.23873901;-;-;-;-;-;-;-;-;-;-;-;-;-;-;-
1512468799965;-;-;9.145142;1.200882;-0.21359253;-;-;-;-;-;-;-;-;-;-;-;-;-;-;-
1512468799986;-;-;9.115219;1.1553955;-0.2351532;-;-;-;-;-;-;-;-;-;-;-;-;-;-;-
1512468800006;-;-;9.100845;1.1182861;-0.097473145;-;-;-;-;-;-;-;-;-;-;-;-;-;-;-
1512468800027;-;-;9.085281;1.1446228;-0.11903381;-;-;-;-;-;-;-;-;-;-;-;-;-;-;-
1512468800047;-;-;9.041;1.1901093;-0.09269714;-;-;-;-;-;-;-;-;-;-;-;-;-;-;-
1512468800067;-;-;9.0793;1.090744;-0.11543274;-;-;-;-;-;-;-;-;-;-;-;-;-;-;-
1512468800088;-;-;9.111618;1.1290588;-0.12741089;-;-;-;-;-;-;-;-;-;-;-;-;-;-;-
1512468800109;-;-;9.131973;1.1745453;-0.17289734;-;-;-;-;-;-;-;-;-;-;-;-;-;-;-
1512468800129;-;-;9.1128235;1.2858734;-0.15493774;-;-;-;-;-;-;-;-;-;-;-;-;-;-;-
1512468800149;-;-;9.118805;1.3086243;-0.1489563;-;-;-;-;-;-;-;-;-;-;-;-;-;-;-
1512468800170;-;-;9.090073;1.3217926;-0.17529297;-;-;-;-;-;-;-;-;-;-;-;-;-;-;-
1512468800191;-;-;9.092468;1.3050385;-0.09628296;-;-;-;-;-;-;-;-;-;-;-;-;-;-;-
1512468800211;-;-;9.075714;1.2715149;0.019836426;-;-;-;-;-;-;-;-;-;-;-;-;-;-;-
1512468800232;-;-;9.013458;1.3146057;0.043777466;-;-;-;-;-;-;-;-;-;-;-;-;-;-;-
1512468800252;-;-;9.030228;1.3421478;-0.018478394;-;-;-;-;-;-;-;-;-;-;-;-;-;-;-
1512468800273;-;-;9.041;1.3373566;-0.11663818;-;-;-;-;-;-;-;-;-;-;-;-;-;-;-
1512468800293;-;-;9.031418;1.3469238;-0.07473755;-;-;-;-;-;-;-;-;-;-;-;-;-;-;-
1512468800313;-;-;9.085281;1.3122101;-0.024459839;-;-;-;-;-;-;-;-;-;-;-;-;-;-;-
1512468800334;-;-;9.096069;1.2918701;-0.078323364;-;-;-;-;-;-;-;-;-;-;-;-;-;-;-
1512468800355;-;-;9.056564;1.3361511;-0.07234192;-;-;-;-;-;-;-;-;-;-;-;-;-;-;-
1512468800375;-;-;9.050568;1.3553162;-0.04121399;-;-;-;-;-;-;-;-;-;-;-;-;-;-;-
1512468800396;-;-;9.0972595;1.3002472;-0.0627594;-;-;-;-;-;-;-;-;-;-;-;-;-;-;-
1512468800415;-;-;9.045776;1.3265839;-0.07952881;-;-;-;-;-;-;-;-;-;-;-;-;-;-;-
1512468800436;-;-;9.029022;1.3732605;-0.1381836;-;-;-;-;-;-;-;-;-;-;-;-;-;-;-
1512468800455;-;-;9.048172;1.3229828;-0.07234192;-;-;-;-;-;-;-;-;-;-;-;-;-;-;-
1512468800475;-;-;9.086487;1.2655334;-0.029251099;-;-;-;-;-;-;-;-;-;-;-;-;-;-;-
1512468800496;-;-;9.046982;1.2631378;-0.051986694;-;-;-;-;-;-;-;-;-;-;-;-;-;-;-
1512468800516;-;-;9.025436;1.3014374;-0.054382324;-;-;-;-;-;-;-;-;-;-;-;-;-;-;-
1512468800537;-;-;9.021835;1.3385468;-0.044799805;-;-;-;-;-;-;-;-;-;-;-;-;-;-;-
1512468800556;-;-;9.07811;1.3481293;-0.07952881;-;-;-;-;-;-;-;-;-;-;-;-;-;-;-
1512468800577;-;-;9.1128235;1.3517151;-0.17648315;-;-;-;-;-;-;-;-;-;-;-;-;-;-;-
1512468800596;-;-;9.141556;1.3792572;-0.2399292;-;-;-;-;-;-;-;-;-;-;-;-;-;-;-
1512468800617;-;-;9.15712;1.3924255;-0.22796631;-;-;-;-;-;-;-;-;-;-;-;-;-;-;-
1512468800637;-;-;9.161896;1.3912201;-0.19204712;-;-;-;-;-;-;-;-;-;-;-;-;-;-;-
1512468800657;-;-;9.213379;1.3325653;-0.14176941;-;-;-;-;-;-;-;-;-;-;-;-;-;-;-
1512468800678;-;-;9.130783;1.3385468;-0.07713318;-;-;-;-;-;-;-;-;-;-;-;-;-;-;-
1512468800697;-;-;8.989517;1.3122101;-0.047195435;-;-;-;-;-;-;-;-;-;-;-;-;-;-;-
1512468800718;-;-;8.940445;1.327774;-0.05319214;-;-;-;-;-;-;-;-;-;-;-;-;-;-;-
1512468800738;-;-;8.960785;1.2691193;-0.0029144287;-;-;-;-;-;-;-;-;-;-;-;-;-;-;-
1512468800759;-;-;9.087677;1.3301697;-0.01008606;-;-;-;-;-;-;-;-;-;-;-;-;-;-;-
1512468800779;-;-;9.184647;1.3612976;-0.09388733;-;-;-;-;-;-;-;-;-;-;-;-;-;-;-
1512468800800;-;-;9.178665;1.3445435;-0.159729;-;-;-;-;-;-;-;-;-;-;-;-;-;-;-
1512468800820;-;-;9.116409;1.3612976;-0.0627594;-;-;-;-;-;-;-;-;-;-;-;-;-;-;-
1512468800841;-;-;9.124786;1.2547607;-0.032836914;-;-;-;-;-;-;-;-;-;-;-;-;-;-;-
1512468800861;-;-;9.147537;1.2284241;-0.04840088;-;-;-;-;-;-;-;-;-;-;-;-;-;-;-
1512468800882;-;-;9.07811;1.2703094;0.034194946;-;-;-;-;-;-;-;-;-;-;-;-;-;-;-
1512468800902;-;-;9.076904;1.2667236;0.070114136;-;-;-;-;-;-;-;-;-;-;-;-;-;-;-
1512468800923;-;-;9.0972595;1.2727051;0.09046936;-;-;-;-;-;-;-;-;-;-;-;-;-;-;-
1512468800943;-;-;9.050568;1.3253784;0.09286499;-;-;-;-;-;-;-;-;-;-;-;-;-;-;-
1512468800964;-;-;9.042191;1.3541107;0.04258728;-;-;-;-;-;-;-;-;-;-;-;-;-;-;-
1512468800984;-;-;9.099655;1.398407;-0.0041046143;-;-;-;-;-;-;-;-;-;-;-;-;-;-;-
1512468801005;-;-;9.015854;1.4833984;0.006668091;-;-;-;-;-;-;-;-;-;-;-;-;-;-;-
1512468801025;-;-;9.039795;1.5288849;0.05455017;-;-;-;-;-;-;-;-;-;-;-;-;-;-;-
1512468801046;-;-;9.033813;1.4953766;-0.028045654;-;-;-;-;-;-;-;-;-;-;-;-;-;-;-
1512468801066;-;-;9.008667;1.3995972;0.04019165;-;-;-;-;-;-;-;-;-;-;-;-;-;-;-
1512468801087;-;-;8.970367;1.3576965;0.16108704;-;-;-;-;-;-;-;-;-;-;-;-;-;-;-
1512468801107;-;-;9.030228;1.3960114;0.18383789;-;-;-;-;-;-;-;-;-;-;-;-;-;-;-
1512468801128;-;-;9.035004;1.5025482;0.13835144;-;-;-;-;-;-;-;-;-;-;-;-;-;-;-
1512468801148;-;-;8.98114;1.4594574;0.103637695;-;-;-;-;-;-;-;-;-;-;-;-;-;-;-
1512468801169;-;-;8.967972;1.4151611;0.07849121;-;-;-;-;-;-;-;-;-;-;-;-;-;-;-
1512468801189;-;-;9.025436;1.4917755;0.09046936;-;-;-;-;-;-;-;-;-;-;-;-;-;-;-
1512468801209;-;-;9.096069;1.4941711;0.067718506;-;-;-;-;-;-;-;-;-;-;-;-;-;-;-
1512468801230;-;-;9.093674;1.5073395;0.09526062;-;-;-;-;-;-;-;-;-;-;-;-;-;-;-
1512468801251;-;-;9.0577545;1.4846039;0.091659546;-;-;-;-;-;-;-;-;-;-;-;-;-;-;-
1512468801272;-;-;9.086487;1.4427032;0.062927246;-;-;-;-;-;-;-;-;-;-;-;-;-;-;-
1512468801292;-;-;9.07811;1.4714355;0.096450806;-;-;-;-;-;-;-;-;-;-;-;-;-;-;-
1512468801312;-;-;9.035004;1.537262;0.16348267;-;-;-;-;-;-;-;-;-;-;-;-;-;-;-
1512468801333;-;-;8.951218;1.5839539;0.08088684;-;-;-;-;-;-;-;-;-;-;-;-;-;-;-
1512468801353;-;-;8.9392395;1.556427;0.12397766;-;-;-;-;-;-;-;-;-;-;-;-;-;-;-
1512468801374;-;-;8.990723;1.5252991;0.08807373;-;-;-;-;-;-;-;-;-;-;-;-;-;-;-
1512468801394;-;-;9.052963;1.492981;0.07849121;-;-;-;-;-;-;-;-;-;-;-;-;-;-;-
1512468801414;-;-;9.0577545;1.501358;0.106033325;-;-;-;-;-;-;-;-;-;-;-;-;-;-;-
1512468801435;-;-;9.067337;1.556427;0.07849121;-;-;-;-;-;-;-;-;-;-;-;-;-;-;-
1512468801454;-;-;9.035004;1.5755768;0.07609558;-;-;-;-;-;-;-;-;-;-;-;-;-;-;-
1512468801474;-;-;8.997894;1.616272;0.103637695;-;-;-;-;-;-;-;-;-;-;-;-;-;-;-
1512468801495;-;-;9.001495;1.576767;0.12637329;-;-;-;-;-;-;-;-;-;-;-;-;-;-;-
1512468801515;-;-;9.026627;1.5695953;0.098846436;-;-;-;-;-;-;-;-;-;-;-;-;-;-;-
1512468801536;-;-;9.085281;1.5827637;0.05455017;-;-;-;-;-;-;-;-;-;-;-;-;-;-;-
1512468801556;-;-;9.106842;1.5576172;0.03060913;-;-;-;-;-;-;-;-;-;-;-;-;-;-;-
1512468801577;-;-;9.0577545;1.5911407;0.101242065;-;-;-;-;-;-;-;-;-;-;-;-;-;-;-
1512468801597;-;-;8.98233;1.6246643;0.14912415;-;-;-;-;-;-;-;-;-;-;-;-;-;-;-
1512468801618;-;-;9.019455;1.5791626;0.07369995;-;-;-;-;-;-;-;-;-;-;-;-;-;-;-
1512468801639;-;-;9.063736;1.6043091;0.07849121;-;-;-;-;-;-;-;-;-;-;-;-;-;-;-
1512468801658;-;-;9.062546;1.6138763;0.089263916;-;-;-;-;-;-;-;-;-;-;-;-;-;-;-
1512468801679;-;-;9.012268;1.6294403;0.117996216;-;-;-;-;-;-;-;-;-;-;-;-;-;-;-
1512468801699;-;-;8.976349;1.6629639;0.16348267;-;-;-;-;-;-;-;-;-;-;-;-;-;-;-
1512468801719;-;-;9.032608;1.6186676;0.115600586;-;-;-;-;-;-;-;-;-;-;-;-;-;-;-
1512468801740;-;-;9.069733;1.600708;0.072509766;-;-;-;-;-;-;-;-;-;-;-;-;-;-;-
1512468801761;-;-;9.064941;1.635437;0.034194946;-;-;-;-;-;-;-;-;-;-;-;-;-;-;-
1512468801780;-;-;9.046982;1.6067047;0.041381836;-;-;-;-;-;-;-;-;-;-;-;-;-;-;-
1512468801800;-;-;9.025436;1.5875549;0.09046936;-;-;-;-;-;-;-;-;-;-;-;-;-;-;-
1512468801821;-;-;9.008667;1.6641693;0.11680603;-;-;-;-;-;-;-;-;-;-;-;-;-;-;-
1512468801841;-;-;8.9991;1.6521912;0.15151978;-;-;-;-;-;-;-;-;-;-;-;-;-;-;-
1512468801861;-;-;9.015854;1.595932;0.1479187;-;-;-;-;-;-;-;-;-;-;-;-;-;-;-
1512468801882;-;-;9.015854;1.5827637;0.13835144;-;-;-;-;-;-;-;-;-;-;-;-;-;-;-
1512468801902;-;-;9.007477;1.6426086;0.122787476;-;-;-;-;-;-;-;-;-;-;-;-;-;-;-
1512468801923;-;-;9.009872;1.6258545;0.15989685;-;-;-;-;-;-;-;-;-;-;-;-;-;-;-
1512468801943;-;-;9.025436;1.6473999;0.16947937;-;-;-;-;-;-;-;-;-;-;-;-;-;-;-
1512468801964;-;-;8.991913;1.6378326;0.09046936;-;-;-;-;-;-;-;-;-;-;-;-;-;-;-
1512468801983;-;-;8.976349;1.6270447;0.103637695;-;-;-;-;-;-;-;-;-;-;-;-;-;-;-
1512468802004;-;-;8.994308;1.6102905;0.12757874;-;-;-;-;-;-;-;-;-;-;-;-;-;-;-
1512468802024;-;-;9.029022;1.6067047;0.10961914;-;-;-;-;-;-;-;-;-;-;-;-;-;-;-
1512468802044;-;-;9.030228;1.616272;0.098846436;-;-;-;-;-;-;-;-;-;-;-;-;-;-;-
1512468802065;-;-;9.030228;1.616272;0.062927246;-;-;-;-;-;-;-;-;-;-;-;-;-;-;-
1512468802085;-;-;9.00029;1.571991;0.13237;-;-;-;-;-;-;-;-;-;-;-;-;-;-;-
1512468802106;-;-;8.991913;1.5911407;0.12637329;-;-;-;-;-;-;-;-;-;-;-;-;-;-;-
1512468802127;-;-;9.001495;1.5935364;0.101242065;-;-;-;-;-;-;-;-;-;-;-;-;-;-;-
1512468802147;-;-;9.012268;1.6282501;0.12757874;-;-;-;-;-;-;-;-;-;-;-;-;-;-;-
1512468802167;-;-;9.043396;1.6306458;0.06652832;-;-;-;-;-;-;-;-;-;-;-;-;-;-;-
1512468802188;-;-;9.037399;1.6210632;0.06173706;-;-;-;-;-;-;-;-;-;-;-;-;-;-;-
1512468802208;-;-;9.042191;1.6414185;0.09286499;-;-;-;-;-;-;-;-;-;-;-;-;-;-;-
1512468802228;-;-;8.995499;1.6486053;0.117996216;-;-;-;-;-;-;-;-;-;-;-;-;-;-;-
1512468802248;-;-;9.019455;1.6054993;0.14912415;-;-;-;-;-;-;-;-;-;-;-;-;-;-;-
1512468802269;-;-;9.0182495;1.6126862;0.14193726;-;-;-;-;-;-;-;-;-;-;-;-;-;-;-
1512468802289;-;-;9.023041;1.5923309;0.113204956;-;-;-;-;-;-;-;-;-;-;-;-;-;-;-
1512468802310;-;-;9.007477;1.576767;0.18383789;-;-;-;-;-;-;-;-;-;-;-;-;-;-;-
1512468802330;-;-;9.027832;1.5671997;0.18981934;-;-;-;-;-;-;-;-;-;-;-;-;-;-;-
1512468802351;-;-;9.037399;1.5947266;0.1658783;-;-;-;-;-;-;-;-;-;-;-;-;-;-;-
1512468802371;-;-;9.030228;1.6294403;0.171875;-;-;-;-;-;-;-;-;-;-;-;-;-;-;-
1512468802392;-;-;9.020645;1.5791626;0.19821167;-;-;-;-;-;-;-;-;-;-;-;-;-;-;-
1512468802412;-;-;9.012268;1.5923309;0.15151978;-;-;-;-;-;-;-;-;-;-;-;-;-;-;-
1512468802433;-;-;8.989517;1.5552216;0.18504333;-;-;-;-;-;-;-;-;-;-;-;-;-;-;-
1512468802453;-;-;9.019455;1.5659943;0.18025208;-;-;-;-;-;-;-;-;-;-;-;-;-;-;-
1512468802474;-;-;9.055359;1.5971222;0.15870667;-;-;-;-;-;-;-;-;-;-;-;-;-;-;-
1512468802493;-;-;9.045776;1.6186676;0.18383789;-;-;-;-;-;-;-;-;-;-;-;-;-;-;-
1512468802514;-;-;9.017059;1.6126862;0.1874237;-;-;-;-;-;-;-;-;-;-;-;-;-;-;-
1512468802533;-;-;9.056564;1.6091003;0.18144226;-;-;-;-;-;-;-;-;-;-;-;-;-;-;-
1512468802554;-;-;9.067337;1.611496;0.21257019;-;-;-;-;-;-;-;-;-;-;-;-;-;-;-
1512468802574;-;-;9.070923;1.5983276;0.15989685;-;-;-;-;-;-;-;-;-;-;-;-;-;-;-
1512468802595;-;-;9.051773;1.580368;0.16348267;-;-;-;-;-;-;-;-;-;-;-;-;-;-;-
1512468802616;-;-;9.009872;1.5600128;0.23532104;-;-;-;-;-;-;-;-;-;-;-;-;-;-;-
1512468802636;-;-;8.985931;1.537262;0.28678894;-;-;-;-;-;-;-;-;-;-;-;-;-;-;-
1512468802656;-;-;9.00029;1.5480499;0.2700348;-;-;-;-;-;-;-;-;-;-;-;-;-;-;-
1512468802677;-;-;9.002686;1.5791626;0.23052979;-;-;-;-;-;-;-;-;-;-;-;-;-;-;-
1512468802698;-;-;9.001495;1.6270447;0.23292542;-;-;-;-;-;-;-;-;-;-;-;-;-;-;-
1512468802718;-;-;9.036209;1.5923309;0.23171997;-;-;-;-;-;-;-;-;-;-;-;-;-;-;-
1512468802739;-;-;9.042191;1.5528259;0.28799438;-;-;-;-;-;-;-;-;-;-;-;-;-;-;-
1512468802759;-;-;8.977554;1.5360718;0.29995728;-;-;-;-;-;-;-;-;-;-;-;-;-;-;-
1512468802780;-;-;8.966782;1.600708;0.26524353;-;-;-;-;-;-;-;-;-;-;-;-;-;-;-
1512468802799;-;-;8.957199;1.600708;0.2987671;-;-;-;-;-;-;-;-;-;-;-;-;-;-;-
1512468802820;-;-;8.955994;1.6342316;0.27482605;-;-;-;-;-;-;-;-;-;-;-;-;-;-;-
1512468802840;-;-;9.005081;1.5923309;0.28320313;-;-;-;-;-;-;-;-;-;-;-;-;-;-;-
1512468802861;-;-;9.038605;1.576767;0.2233429;-;-;-;-;-;-;-;-;-;-;-;-;-;-;-
1512468802881;-;-;9.069733;1.5384674;0.2616577;-;-;-;-;-;-;-;-;-;-;-;-;-;-;-
1512468802901;-;-;9.049377;1.5312805;0.27243042;-;-;-;-;-;-;-;-;-;-;-;-;-;-;-
1512468802922;-;-;9.025436;1.5217133;0.29397583;-;-;-;-;-;-;-;-;-;-;-;-;-;-;-
1512468802943;-;-;9.025436;1.5181122;0.3418579;-;-;-;-;-;-;-;-;-;-;-;-;-;-;-
1512468802963;-;-;8.993118;1.4941711;0.32868958;-;-;-;-;-;-;-;-;-;-;-;-;-;-;-
1512468802984;-;-;9.0182495;1.5336761;0.28199768;-;-;-;-;-;-;-;-;-;-;-;-;-;-;-
1512468803004;-;-;9.081696;1.5229034;0.2628479;-;-;-;-;-;-;-;-;-;-;-;-;-;-;-
1512468803025;-;-;9.075714;1.5492401;0.25326538;-;-;-;-;-;-;-;-;-;-;-;-;-;-;-
1512468803045;-;-;9.045776;1.4977722;0.19700623;-;-;-;-;-;-;-;-;-;-;-;-;-;-;-
1512468803066;-;-;9.099655;1.4486847;0.2341156;-;-;-;-;-;-;-;-;-;-;-;-;-;-;-
1512468803086;-;-;9.091278;1.5540314;0.18981934;-;-;-;-;-;-;-;-;-;-;-;-;-;-;-
1512468803107;-;-;9.049377;1.5312805;0.2628479;-;-;-;-;-;-;-;-;-;-;-;-;-;-;-
1512468803127;-;-;9.051773;1.5133209;0.2233429;-;-;-;-;-;-;-;-;-;-;-;-;-;-;-
1512468803147;-;-;9.039795;1.5001526;0.18025208;-;-;-;-;-;-;-;-;-;-;-;-;-;-;-
1512468803168;-;-;9.050568;1.5181122;0.20179749;-;-;-;-;-;-;-;-;-;-;-;-;-;-;-
1512468803188;-;-;9.0577545;1.5157166;0.24728394;-;-;-;-;-;-;-;-;-;-;-;-;-;-;-
1512468803209;-;-;9.00029;1.5396576;0.216156;-;-;-;-;-;-;-;-;-;-;-;-;-;-;-
1512468803230;-;-;9.003891;1.492981;0.22692871;-;-;-;-;-;-;-;-;-;-;-;-;-;-;-
1512468803250;-;-;9.007477;1.5121307;0.25686646;-;-;-;-;-;-;-;-;-;-;-;-;-;-;-
1512468803270;-;-;9.039795;1.5001526;0.21736145;-;-;-;-;-;-;-;-;-;-;-;-;-;-;-
1512468803291;-;-;9.045776;1.556427;0.2233429;-;-;-;-;-;-;-;-;-;-;-;-;-;-;-
1512468803312;-;-;9.054169;1.5827637;0.18623352;-;-;-;-;-;-;-;-;-;-;-;-;-;-;-
1512468803332;-;-;9.027832;1.5635986;0.25926208;-;-;-;-;-;-;-;-;-;-;-;-;-;-;-
1512468803353;-;-;9.017059;1.5444489;0.22813416;-;-;-;-;-;-;-;-;-;-;-;-;-;-;-
1512468803373;-;-;9.019455;1.5779724;0.23292542;-;-;-;-;-;-;-;-;-;-;-;-;-;-;-
1512468803394;-;-;9.038605;1.5300903;0.22692871;-;-;-;-;-;-;-;-;-;-;-;-;-;-;-
1512468803414;-;-;9.048172;1.5480499;0.21257019;-;-;-;-;-;-;-;-;-;-;-;-;-;-;-
1512468803435;-;-;9.037399;1.5875549;0.1946106;-;-;-;-;-;-;-;-;-;-;-;-;-;-;-
1512468803455;-;-;9.011063;1.5671997;0.24728394;-;-;-;-;-;-;-;-;-;-;-;-;-;-;-
1512468803476;-;-;9.007477;1.5755768;0.2616577;-;-;-;-;-;-;-;-;-;-;-;-;-;-;-
1512468803497;-;-;9.044586;1.576767;0.21736145;-;-;-;-;-;-;-;-;-;-;-;-;-;-;-
1512468803517;-;-;9.048172;1.6150818;0.2341156;-;-;-;-;-;-;-;-;-;-;-;-;-;-;-
1512468803537;-;-;9.052963;1.6091003;0.2233429;-;-;-;-;-;-;-;-;-;-;-;-;-;-;-
1512468803558;-;-;8.9991;1.6019135;0.23052979;-;-;-;-;-;-;-;-;-;-;-;-;-;-;-
1512468803579;-;-;9.002686;1.576767;0.22215271;-;-;-;-;-;-;-;-;-;-;-;-;-;-;-
1512468803599;-;-;9.039795;1.5995178;0.30474854;-;-;-;-;-;-;-;-;-;-;-;-;-;-;-
1512468803619;-;-;8.995499;1.5863495;0.3717804;-;-;-;-;-;-;-;-;-;-;-;-;-;-;-
1512468803640;-;-;9.003891;1.5875549;0.3610077;-;-;-;-;-;-;-;-;-;-;-;-;-;-;-
1512468803660;-;-;8.967972;1.5899353;0.37417603;-;-;-;-;-;-;-;-;-;-;-;-;-;-;-
1512468803681;-;-;8.975159;1.5528259;0.3430481;-;-;-;-;-;-;-;-;-;-;-;-;-;-;-
1512468803702;-;-;8.977554;1.5671997;0.32987976;-;-;-;-;-;-;-;-;-;-;-;-;-;-;-
1512468803722;-;-;8.960785;1.5252991;0.37417603;-;-;-;-;-;-;-;-;-;-;-;-;-;-;-
1512468803743;-;-;8.969162;1.5157166;0.39093018;-;-;-;-;-;-;-;-;-;-;-;-;-;-;-
1512468803763;-;-;9.006287;1.5612183;0.3538208;-;-;-;-;-;-;-;-;-;-;-;-;-;-;-
1512468803784;-;-;9.013458;1.5875549;0.30474854;-;-;-;-;-;-;-;-;-;-;-;-;-;-;-
1512468803805;-;-;9.035004;1.5935364;0.29995728;-;-;-;-;-;-;-;-;-;-;-;-;-;-;-
1512468803825;-;-;9.026627;1.6617737;0.29516602;-;-;-;-;-;-;-;-;-;-;-;-;-;-;-
1512468803845;-;-;9.007477;1.6282501;0.27841187;-;-;-;-;-;-;-;-;-;-;-;-;-;-;-
1512468803866;-;-;9.072113;1.6150818;0.27122498;-;-;-;-;-;-;-;-;-;-;-;-;-;-;-
1512468803886;-;-;9.054169;1.5743866;0.2520752;-;-;-;-;-;-;-;-;-;-;-;-;-;-;-
1512468803907;-;-;9.031418;1.5635986;0.26643372;-;-;-;-;-;-;-;-;-;-;-;-;-;-;-
1512468803928;-;-;9.035004;1.5516357;0.27601624;-;-;-;-;-;-;-;-;-;-;-;-;-;-;-
1512468803948;-;-;8.993118;1.5264893;0.3430481;-;-;-;-;-;-;-;-;-;-;-;-;-;-;-
1512468803969;-;-;8.988327;1.5181122;0.36698914;-;-;-;-;-;-;-;-;-;-;-;-;-;-;-
1512468803989;-;-;9.001495;1.5193176;0.3382721;-;-;-;-;-;-;-;-;-;-;-;-;-;-;-
1512468804009;-;-;8.991913;1.5635986;0.30116272;-;-;-;-;-;-;-;-;-;-;-;-;-;-;-
1512468804030;-;-;9.030228;1.640213;0.19821167;-;-;-;-;-;-;-;-;-;-;-;-;-;-;-
1512468804049;-;-;9.049377;1.6845093;0.15270996;-;-;-;-;-;-;-;-;-;-;-;-;-;-;-
1512468804069;-;-;9.045776;1.6653595;0.16108704;-;-;-;-;-;-;-;-;-;-;-;-;-;-;-
1512468804090;-;-;9.035004;1.6497955;0.24009705;-;-;-;-;-;-;-;-;-;-;-;-;-;-;-
1512468804111;-;-;9.006287;1.6737366;0.24130249;-;-;-;-;-;-;-;-;-;-;-;-;-;-;-
1512468804130;-;-;9.0182495;1.6629639;0.2616577;-;-;-;-;-;-;-;-;-;-;-;-;-;-;-
1512468804151;-;-;8.996704;1.655777;0.24249268;-;-;-;-;-;-;-;-;-;-;-;-;-;-;-
1512468804170;-;-;8.996704;1.651001;0.24369812;-;-;-;-;-;-;-;-;-;-;-;-;-;-;-
1512468804191;-;-;8.963181;1.6521912;0.23890686;-;-;-;-;-;-;-;-;-;-;-;-;-;-;-
1512468804210;-;-;8.973953;1.6833191;0.3023529;-;-;-;-;-;-;-;-;-;-;-;-;-;-;-
1512468804231;-;-;9.007477;1.6102905;0.25326538;-;-;-;-;-;-;-;-;-;-;-;-;-;-;-
1512468804252;-;-;9.021835;1.6102905;0.27243042;-;-;-;-;-;-;-;-;-;-;-;-;-;-;-
1512468804273;-;-;8.983536;1.5791626;0.3382721;-;-;-;-;-;-;-;-;-;-;-;-;-;-;-
1512468804293;-;-;9.013458;1.6031036;0.27243042;-;-;-;-;-;-;-;-;-;-;-;-;-;-;-
1512468804313;-;-;8.996704;1.635437;0.20298767;-;-;-;-;-;-;-;-;-;-;-;-;-;-;-
1512468804334;-;-;9.005081;1.6785278;0.26045227;-;-;-;-;-;-;-;-;-;-;-;-;-;-;-
1512468804353;-;-;9.0733185;1.6569824;0.20059204;-;-;-;-;-;-;-;-;-;-;-;-;-;-;-
1512468804373;-;-;9.0793;1.576767;0.20658875;-;-;-;-;-;-;-;-;-;-;-;-;-;-;-
1512468804394;-;-;9.068527;1.5612183;0.2616577;-;-;-;-;-;-;-;-;-;-;-;-;-;-;-
1512468804414;-;-;9.026627;1.5971222;0.23770142;-;-;-;-;-;-;-;-;-;-;-;-;-;-;-
1512468804435;-;-;9.037399;1.6067047;0.29756165;-;-;-;-;-;-;-;-;-;-;-;-;-;-;-
1512468804455;-;-;9.021835;1.5707855;0.2700348;-;-;-;-;-;-;-;-;-;-;-;-;-;-;-
1512468804476;-;-;9.035004;1.5899353;0.24609375;-;-;-;-;-;-;-;-;-;-;-;-;-;-;-
1512468804495;-;-;9.015854;1.5755768;0.21138;-;-;-;-;-;-;-;-;-;-;-;-;-;-;-
1512468804516;-;-;9.038605;1.6150818;0.24249268;-;-;-;-;-;-;-;-;-;-;-;-;-;-;-
1512468804535;-;-;9.067337;1.5911407;0.25447083;-;-;-;-;-;-;-;-;-;-;-;-;-;-;-
1512468804555;-;-;9.064941;1.5264893;0.27122498;-;-;-;-;-;-;-;-;-;-;-;-;-;-;-
1512468804576;-;-;9.043396;1.4977722;0.24848938;-;-;-;-;-;-;-;-;-;-;-;-;-;-;-
1512468804596;-;-;9.062546;1.5252991;0.29756165;-;-;-;-;-;-;-;-;-;-;-;-;-;-;-
1512468804617;-;-;9.025436;1.5240936;0.32987976;-;-;-;-;-;-;-;-;-;-;-;-;-;-;-
1512468804636;-;-;9.025436;1.5121307;0.3993225;-;-;-;-;-;-;-;-;-;-;-;-;-;-;-
1512468804656;-;-;9.033813;1.4977722;0.3322754;-;-;-;-;-;-;-;-;-;-;-;-;-;-;-
1512468804677;-;-;9.012268;1.4905853;0.37538147;-;-;-;-;-;-;-;-;-;-;-;-;-;-;-
1512468804697;-;-;9.011063;1.5157166;0.39811707;-;-;-;-;-;-;-;-;-;-;-;-;-;-;-
1512468804718;-;-;8.946426;1.5037537;0.3598175;-;-;-;-;-;-;-;-;-;-;-;-;-;-;-
1512468804737;-;-;8.966782;1.4869843;0.37417603;-;-;-;-;-;-;-;-;-;-;-;-;-;-;-
1512468804758;-;-;9.013458;1.4486847;0.3717804;-;-;-;-;-;-;-;-;-;-;-;-;-;-;-
1512468804778;-;-;9.024231;1.4869843;0.39692688;-;-;-;-;-;-;-;-;-;-;-;-;-;-;-
1512468804799;-;-;9.025436;1.4869843;0.43164063;-;-;-;-;-;-;-;-;-;-;-;-;-;-;-
1512468804819;-;-;9.026627;1.5145264;0.38494873;-;-;-;-;-;-;-;-;-;-;-;-;-;-;-
1512468804840;-;-;9.001495;1.5360718;0.37538147;-;-;-;-;-;-;-;-;-;-;-;-;-;-;-
1512468804860;-;-;9.026627;1.5468445;0.33706665;-;-;-;-;-;-;-;-;-;-;-;-;-;-;-
1512468804881;-;-;9.041;1.5528259;0.3035431;-;-;-;-;-;-;-;-;-;-;-;-;-;-;-
1512468804901;-;-;9.021835;1.5947266;0.31910706;-;-;-;-;-;-;-;-;-;-;-;-;-;-;-
1512468804922;-;-;9.011063;1.5971222;0.31671143;-;-;-;-;-;-;-;-;-;-;-;-;-;-;-
1512468804941;-;-;8.997894;1.5791626;0.39093018;-;-;-;-;-;-;-;-;-;-;-;-;-;-;-
1512468804962;-;-;8.990723;1.5755768;0.3538208;-;-;-;-;-;-;-;-;-;-;-;-;-;-;-
1512468804982;-;-;8.985931;1.5815582;0.32987976;-;-;-;-;-;-;-;-;-;-;-;-;-;-;-
1512468805003;-;-;9.011063;1.5875549;0.33587646;-;-;-;-;-;-;-;-;-;-;-;-;-;-;-
1512468805024;-;-;9.014664;1.6258545;0.2987671;-;-;-;-;-;-;-;-;-;-;-;-;-;-;-
1512468805044;-;-;9.011063;1.595932;0.34425354;-;-;-;-;-;-;-;-;-;-;-;-;-;-;-
1512468805065;-;-;8.988327;1.6318359;0.37298584;-;-;-;-;-;-;-;-;-;-;-;-;-;-;-
1512468805084;-;-;8.9991;1.6054993;0.39811707;-;-;-;-;-;-;-;-;-;-;-;-;-;-;-
1512468805105;-;-;8.995499;1.6378326;0.22692871;-;-;-;-;-;-;-;-;-;-;-;-;-;-;-
1512468805125;-;-;9.035004;1.6462097;0.1946106;-;-;-;-;-;-;-;-;-;-;-;-;-;-;-
1512468805146;-;-;9.06015;1.6342316;0.19821167;-;-;-;-;-;-;-;-;-;-;-;-;-;-;-
1512468805166;-;-;9.031418;1.6126862;0.2640381;-;-;-;-;-;-;-;-;-;-;-;-;-;-;-
1512468805187;-;-;9.013458;1.6150818;0.27960205;-;-;-;-;-;-;-;-;-;-;-;-;-;-;-
1512468805207;-;-;8.991913;1.6318359;0.24848938;-;-;-;-;-;-;-;-;-;-;-;-;-;-;-
1512468805228;-;-;9.035004;1.5552216;0.21376038;-;-;-;-;-;-;-;-;-;-;-;-;-;-;-
1512468805248;-;-;9.013458;1.5815582;0.17785645;-;-;-;-;-;-;-;-;-;-;-;-;-;-;-
1512468805269;-;-;9.033813;1.5743866;0.19940186;-;-;-;-;-;-;-;-;-;-;-;-;-;-;-
1512468805289;-;-;8.997894;1.5516357;0.26524353;-;-;-;-;-;-;-;-;-;-;-;-;-;-;-
1512468805310;-;-;8.955994;1.5887451;0.25805664;-;-;-;-;-;-;-;-;-;-;-;-;-;-;-
1512468805329;-;-;9.011063;1.611496;0.16708374;-;-;-;-;-;-;-;-;-;-;-;-;-;-;-
1512468805350;-;-;9.063736;1.6138763;0.09526062;-;-;-;-;-;-;-;-;-;-;-;-;-;-;-
1512468805369;-;-;9.066132;1.6330414;0.103637695;-;-;-;-;-;-;-;-;-;-;-;-;-;-;-
1512468805390;-;-;9.042191;1.6078949;0.15270996;-;-;-;-;-;-;-;-;-;-;-;-;-;-;-
1512468805410;-;-;9.020645;1.5576172;0.17425537;-;-;-;-;-;-;-;-;-;-;-;-;-;-;-
1512468805431;-;-;9.00029;1.501358;0.23890686;-;-;-;-;-;-;-;-;-;-;-;-;-;-;-
1512468805451;-;-;9.024231;1.5157166;0.15750122;-;-;-;-;-;-;-;-;-;-;-;-;-;-;-
1512468805472;-;-;9.058945;1.5648041;0.050964355;-;-;-;-;-;-;-;-;-;-;-;-;-;-;-
1512468805492;-;-;9.06134;1.6306458;0.084472656;-;-;-;-;-;-;-;-;-;-;-;-;-;-;-
1512468805512;-;-;9.0577545;1.5935364;0.06892395;-;-;-;-;-;-;-;-;-;-;-;-;-;-;-
1512468805533;-;-;9.066132;1.492981;0.13595581;-;-;-;-;-;-;-;-;-;-;-;-;-;-;-
1512468805554;-;-;9.070923;1.3684845;0.16708374;-;-;-;-;-;-;-;-;-;-;-;-;-;-;-
1512468805574;-;-;9.012268;1.4498749;0.13595581;-;-;-;-;-;-;-;-;-;-;-;-;-;-;-
1512468805595;-;-;8.97995;1.5360718;0.079696655;-;-;-;-;-;-;-;-;-;-;-;-;-;-;-
1512468805615;-;-;8.964386;1.5839539;0.11680603;-;-;-;-;-;-;-;-;-;-;-;-;-;-;-
1512468805636;-;-;9.030228;1.5875549;0.072509766;-;-;-;-;-;-;-;-;-;-;-;-;-;-;-
1512468805656;-;-;9.046982;1.6054993;0.04498291;-;-;-;-;-;-;-;-;-;-;-;-;-;-;-
1512468805677;-;-;9.09845;1.5576172;0.03300476;-;-;-;-;-;-;-;-;-;-;-;-;-;-;-
1512468805697;-;-;9.043396;1.5971222;0.009063721;-;-;-;-;-;-;-;-;-;-;-;-;-;-;-
1512468805717;-;-;8.988327;1.6186676;0.05934143;-;-;-;-;-;-;-;-;-;-;-;-;-;-;-
1512468805738;-;-;9.014664;1.6270447;0.11920166;-;-;-;-;-;-;-;-;-;-;-;-;-;-;-
1512468805759;-;-;9.041;1.6462097;0.089263916;-;-;-;-;-;-;-;-;-;-;-;-;-;-;-
1512468805779;-;-;8.963181;1.6581726;0.09286499;-;-;-;-;-;-;-;-;-;-;-;-;-;-;-
1512468805800;-;-;8.985931;1.6318359;0.108428955;-;-;-;-;-;-;-;-;-;-;-;-;-;-;-
1512468805820;-;-;9.006287;1.6318359;0.07369995;-;-;-;-;-;-;-;-;-;-;-;-;-;-;-
1512468805841;-;-;9.039795;1.6629639;0.050964355;-;-;-;-;-;-;-;-;-;-;-;-;-;-;-
1512468805861;-;-;9.041;1.6629639;0.060531616;-;-;-;-;-;-;-;-;-;-;-;-;-;-;-
1512468805882;-;-;9.020645;1.7048645;0.11680603;-;-;-;-;-;-;-;-;-;-;-;-;-;-;-
1512468805901;-;-;8.991913;1.6773376;0.11680603;-;-;-;-;-;-;-;-;-;-;-;-;-;-;-
1512468805922;-;-;8.960785;1.6785278;0.10482788;-;-;-;-;-;-;-;-;-;-;-;-;-;-;-
1512468805942;-;-;8.996704;1.6246643;0.13954163;-;-;-;-;-;-;-;-;-;-;-;-;-;-;-
1512468805963;-;-;9.042191;1.6737366;0.10482788;-;-;-;-;-;-;-;-;-;-;-;-;-;-;-
1512468805983;-;-;9.045776;1.6773376;0.08328247;-;-;-;-;-;-;-;-;-;-;-;-;-;-;-
1512468806003;-;-;9.041;1.6629639;0.06652832;-;-;-;-;-;-;-;-;-;-;-;-;-;-;-
1512468806024;-;-;9.049377;1.6318359;0.04736328;-;-;-;-;-;-;-;-;-;-;-;-;-;-;-
1512468806045;-;-;9.003891;1.6497955;0.09526062;-;-;-;-;-;-;-;-;-;-;-;-;-;-;-
1512468806066;-;-;8.955994;1.6497955;0.09764099;-;-;-;-;-;-;-;-;-;-;-;-;-;-;-
1512468806086;-;-;8.984726;1.6294403;0.14912415;-;-;-;-;-;-;-;-;-;-;-;-;-;-;-
1512468806106;-;-;8.976349;1.5923309;0.13954163;-;-;-;-;-;-;-;-;-;-;-;-;-;-;-
1512468806126;-;-;9.050568;1.5336761;0.103637695;-;-;-;-;-;-;-;-;-;-;-;-;-;-;-
1512468806147;-;-;9.052963;1.5133209;0.12397766;-;-;-;-;-;-;-;-;-;-;-;-;-;-;-
1512468806167;-;-;9.021835;1.5612183;0.079696655;-;-;-;-;-;-;-;-;-;-;-;-;-;-;-
1512468806188;-;-;9.036209;1.600708;0.13237;-;-;-;-;-;-;-;-;-;-;-;-;-;-;-
1512468806208;-;-;9.048172;1.5312805;0.089263916;-;-;-;-;-;-;-;-;-;-;-;-;-;-;-
1512468806229;-;-;9.036209;1.5420532;0.10243225;-;-;-;-;-;-;-;-;-;-;-;-;-;-;-
1512468806248;-;-;9.037399;1.532486;0.06173706;-;-;-;-;-;-;-;-;-;-;-;-;-;-;-
1512468806269;-;-;9.017059;1.595932;0.07130432;-;-;-;-;-;-;-;-;-;-;-;-;-;-;-
1512468806288;-;-;8.991913;1.619873;0.15031433;-;-;-;-;-;-;-;-;-;-;-;-;-;-;-
1512468806309;-;-;8.996704;1.6174774;0.15510559;-;-;-;-;-;-;-;-;-;-;-;-;-;-;-
1512468806328;-;-;9.084091;1.5276947;0.055755615;-;-;-;-;-;-;-;-;-;-;-;-;-;-;-
1512468806348;-;-;9.1128235;1.4953766;0.09046936;-;-;-;-;-;-;-;-;-;-;-;-;-;-;-
1512468806369;-;-;9.054169;1.5097351;0.17904663;-;-;-;-;-;-;-;-;-;-;-;-;-;-;-
1512468806390;-;-;8.989517;1.5635986;0.1826477;-;-;-;-;-;-;-;-;-;-;-;-;-;-;-
1512468806410;-;-;8.963181;1.6043091;0.19342041;-;-;-;-;-;-;-;-;-;-;-;-;-;-;-
1512468806430;-;-;8.976349;1.616272;0.15151978;-;-;-;-;-;-;-;-;-;-;-;-;-;-;-
1512468806451;-;-;9.019455;1.6258545;0.12637329;-;-;-;-;-;-;-;-;-;-;-;-;-;-;-
1512468806470;-;-;9.043396;1.5935364;0.108428955;-;-;-;-;-;-;-;-;-;-;-;-;-;-;-
1512468806490;-;-;9.050568;1.6078949;0.10003662;-;-;-;-;-;-;-;-;-;-;-;-;-;-;-
1512468806511;-;-;9.011063;1.600708;0.137146;-;-;-;-;-;-;-;-;-;-;-;-;-;-;-
1512468806530;-;-;9.013458;1.5947266;0.13476563;-;-;-;-;-;-;-;-;-;-;-;-;-;-;-
1512468806551;-;-;9.042191;1.5863495;0.103637695;-;-;-;-;-;-;-;-;-;-;-;-;-;-;-
1512468806572;-;-;9.038605;1.5516357;0.14433289;-;-;-;-;-;-;-;-;-;-;-;-;-;-;-
1512468806591;-;-;9.019455;1.516922;0.16229248;-;-;-;-;-;-;-;-;-;-;-;-;-;-;-
1512468806612;-;-;9.035004;1.532486;0.18144226;-;-;-;-;-;-;-;-;-;-;-;-;-;-;-
1512468806631;-;-;9.056564;1.6246643;0.089263916;-;-;-;-;-;-;-;-;-;-;-;-;-;-;-
1512468806652;-;-;9.0182495;1.6964874;0.027023315;-;-;-;-;-;-;-;-;-;-;-;-;-;-;-
1512468806672;-;-;9.023041;1.7515564;-0.01727295;-;-;-;-;-;-;-;-;-;-;-;-;-;-;-
1512468806692;-;-;9.012268;1.7024689;0.07609558;-;-;-;-;-;-;-;-;-;-;-;-;-;-;-
1512468806713;-;-;8.987122;1.6174774;0.16947937;-;-;-;-;-;-;-;-;-;-;-;-;-;-;-
1512468806734;-;-;9.015854;1.5635986;0.16229248;-;-;-;-;-;-;-;-;-;-;-;-;-;-;-
1512468806754;-;-;9.030228;1.4678345;0.17066956;-;-;-;-;-;-;-;-;-;-;-;-;-;-;-
1512468806775;-;-;9.006287;1.4271393;0.29516602;-;-;-;-;-;-;-;-;-;-;-;-;-;-;-
1512468806795;-;-;9.06015;1.5276947;0.27841187;-;-;-;-;-;-;-;-;-;-;-;-;-;-;-
1512468806815;-;-;9.050568;1.5695953;0.2915802;-;-;-;-;-;-;-;-;-;-;-;-;-;-;-
1512468806836;-;-;8.928467;1.6641693;0.36579895;-;-;-;-;-;-;-;-;-;-;-;-;-;-;-
1512468806857;-;-;8.868607;1.7264099;0.37657166;-;-;-;-;-;-;-;-;-;-;-;-;-;-;-
1512468806877;-;-;8.875793;1.8066101;0.43043518;-;-;-;-;-;-;-;-;-;-;-;-;-;-;-
1512468806897;-;-;8.973953;1.8916168;0.30593872;-;-;-;-;-;-;-;-;-;-;-;-;-;-;-
1512468806918;-;-;9.0182495;1.7886658;0.22573853;-;-;-;-;-;-;-;-;-;-;-;-;-;-;-
1512468806938;-;-;8.929672;1.6845093;0.36698914;-;-;-;-;-;-;-;-;-;-;-;-;-;-;-
1512468806957;-;-;8.885376;1.619873;0.49269104;-;-;-;-;-;-;-;-;-;-;-;-;-;-;-
1512468806977;-;-;8.985931;1.7276154;0.4005127;-;-;-;-;-;-;-;-;-;-;-;-;-;-;-
1512468806997;-;-;9.104446;1.7778931;0.26045227;-;-;-;-;-;-;-;-;-;-;-;-;-;-;-
1512468807018;-;-;9.23851;1.6019135;0.24369812;-;-;-;-;-;-;-;-;-;-;-;-;-;-;-
1512468807039;-;-;9.111618;1.4235382;0.3777771;-;-;-;-;-;-;-;-;-;-;-;-;-;-;-
1512468807058;-;-;8.848267;1.5468445;0.5693054;-;-;-;-;-;-;-;-;-;-;-;-;-;-;-
1512468807079;-;-;8.8003845;1.611496;0.5549469;-;-;-;-;-;-;-;-;-;-;-;-;-;-;-
1512468807100;-;-;8.894943;1.674942;0.3203125;-;-;-;-;-;-;-;-;-;-;-;-;-;-;-
1512468807120;-;-;8.963181;1.7312012;0.29397583;-;-;-;-;-;-;-;-;-;-;-;-;-;-;-
1512468807141;-;-;9.087677;1.655777;0.30474854;-;-;-;-;-;-;-;-;-;-;-;-;-;-;-
1512468807161;-;-;9.149933;1.4498749;0.33587646;-;-;-;-;-;-;-;-;-;-;-;-;-;-;-
1512468807182;-;-;9.046982;1.3505249;0.46516418;-;-;-;-;-;-;-;-;-;-;-;-;-;-;-
1512468807202;-;-;8.977554;1.4414978;0.50227356;-;-;-;-;-;-;-;-;-;-;-;-;-;-;-
1512468807222;-;-;9.027832;1.5971222;0.34664917;-;-;-;-;-;-;-;-;-;-;-;-;-;-;-
1512468807243;-;-;9.067337;1.6462097;0.101242065;-;-;-;-;-;-;-;-;-;-;-;-;-;-;-
1512468807263;-;-;9.1523285;1.5348816;-0.01966858;-;-;-;-;-;-;-;-;-;-;-;-;-;-;-
1512468807284;-;-;9.21817;1.4271393;0.062927246;-;-;-;-;-;-;-;-;-;-;-;-;-;-;-
1512468807304;-;-;9.242111;1.501358;0.171875;-;-;-;-;-;-;-;-;-;-;-;-;-;-;-
1512468807325;-;-;9.0793;1.5384674;0.18623352;-;-;-;-;-;-;-;-;-;-;-;-;-;-;-
1512468807345;-;-;8.947617;1.4869843;0.3095398;-;-;-;-;-;-;-;-;-;-;-;-;-;-;-
1512468807365;-;-;8.832703;1.4750214;0.44241333;-;-;-;-;-;-;-;-;-;-;-;-;-;-;-
1512468807386;-;-;8.876999;1.6497955;0.34783936;-;-;-;-;-;-;-;-;-;-;-;-;-;-;-
1512468807406;-;-;8.945221;1.7312012;0.19700623;-;-;-;-;-;-;-;-;-;-;-;-;-;-;-
1512468807427;-;-;9.008667;1.7276154;0.15270996;-;-;-;-;-;-;-;-;-;-;-;-;-;-;-
1512468807447;-;-;9.052963;1.7467651;0.084472656;-;-;-;-;-;-;-;-;-;-;-;-;-;-;-
1512468807468;-;-;9.001495;1.8461151;0.1874237;-;-;-;-;-;-;-;-;-;-;-;-;-;-;-
1512468807489;-;-;8.97995;1.9550629;0.20179749;-;-;-;-;-;-;-;-;-;-;-;-;-;-;-
1512468807509;-;-;8.953613;2.0041351;0.07130432;-;-;-;-;-;-;-;-;-;-;-;-;-;-;-
1512468807528;-;-;8.987122;1.8892212;0.0569458;-;-;-;-;-;-;-;-;-;-;-;-;-;-;-
1512468807549;-;-;9.033813;1.8425293;-5.187988E-4;-;-;-;-;-;-;-;-;-;-;-;-;-;-;-
1512468807569;-;-;9.007477;1.8892212;0.08328247;-;-;-;-;-;-;-;-;-;-;-;-;-;-;-
1512468807590;-;-;8.868607;1.9347076;0.176651;-;-;-;-;-;-;-;-;-;-;-;-;-;-;-
1512468807611;-;-;8.90094;1.8269653;0.22094727;-;-;-;-;-;-;-;-;-;-;-;-;-;-;-
1512468807631;-;-;8.903336;1.7671051;0.27960205;-;-;-;-;-;-;-;-;-;-;-;-;-;-;-
1512468807651;-;-;8.952408;1.7479553;0.26524353;-;-;-;-;-;-;-;-;-;-;-;-;-;-;-
1512468807672;-;-;9.008667;1.671341;0.25326538;-;-;-;-;-;-;-;-;-;-;-;-;-;-;-
1512468807692;-;-;8.98114;1.5396576;0.31791687;-;-;-;-;-;-;-;-;-;-;-;-;-;-;-
1512468807713;-;-;8.944031;1.5540314;0.45439148;-;-;-;-;-;-;-;-;-;-;-;-;-;-;-
1512468807734;-;-;8.909317;1.6126862;0.4902954;-;-;-;-;-;-;-;-;-;-;-;-;-;-;-
1512468807753;-;-;9.013458;1.6414185;0.29756165;-;-;-;-;-;-;-;-;-;-;-;-;-;-;-
1512468807774;-;-;9.082901;1.7443695;0.19342041;-;-;-;-;-;-;-;-;-;-;-;-;-;-;-
1512468807794;-;-;9.001495;1.7695007;0.096450806;-;-;-;-;-;-;-;-;-;-;-;-;-;-;-
1512468807815;-;-;8.885376;1.9227295;0.17546082;-;-;-;-;-;-;-;-;-;-;-;-;-;-;-
1512468807836;-;-;8.8051605;2.0149078;0.137146;-;-;-;-;-;-;-;-;-;-;-;-;-;-;-
1512468807856;-;-;8.935654;1.9813995;-0.10107422;-;-;-;-;-;-;-;-;-;-;-;-;-;-;-
1512468807877;-;-;9.110428;1.8892212;-0.2794342;-;-;-;-;-;-;-;-;-;-;-;-;-;-;-
1512468807898;-;-;9.224152;1.674942;-0.11782837;-;-;-;-;-;-;-;-;-;-;-;-;-;-;-
1512468807917;-;-;8.945221;1.4989624;0.18862915;-;-;-;-;-;-;-;-;-;-;-;-;-;-;-
1512468807938;-;-;8.611237;1.6019135;0.31552124;-;-;-;-;-;-;-;-;-;-;-;-;-;-;-
1512468807958;-;-;8.662704;1.6533813;0.17785645;-;-;-;-;-;-;-;-;-;-;-;-;-;-;-
1512468807979;-;-;9.063736;1.6234589;0.09526062;-;-;-;-;-;-;-;-;-;-;-;-;-;-;-
1512468807999;-;-;9.346252;1.4031982;-0.11903381;-;-;-;-;-;-;-;-;-;-;-;-;-;-;-
1512468808019;-;-;9.445618;1.3205872;-0.21000671;-;-;-;-;-;-;-;-;-;-;-;-;-;-;-
1512468808039;-;-;9.1523285;1.2679291;-0.054382324;-;-;-;-;-;-;-;-;-;-;-;-;-;-;-
1512468808059;-;-;8.954803;1.3852386;0.007858276;-;-;-;-;-;-;-;-;-;-;-;-;-;-;-
1512468808080;-;-;8.869812;1.4702301;0.082092285;-;-;-;-;-;-;-;-;-;-;-;-;-;-;-
1512468808100;-;-;8.903336;1.5935364;-0.073532104;-;-;-;-;-;-;-;-;-;-;-;-;-;-;-
1512468808121;-;-;8.903336;1.7084503;-0.35964966;-;-;-;-;-;-;-;-;-;-;-;-;-;-;-
1512468808142;-;-;8.954803;1.7096558;-0.46139526;-;-;-;-;-;-;-;-;-;-;-;-;-;-;-
1512468808162;-;-;9.021835;1.7623291;-0.48893738;-;-;-;-;-;-;-;-;-;-;-;-;-;-;-
1512468808182;-;-;9.058945;1.9263306;-0.456604;-;-;-;-;-;-;-;-;-;-;-;-;-;-;-
1512468808203;-;-;9.009872;2.105896;-0.5176544;-;-;-;-;-;-;-;-;-;-;-;-;-;-;-
1512468808222;-;-;8.942825;2.1334229;-0.575119;-;-;-;-;-;-;-;-;-;-;-;-;-;-;-
1512468808243;-;-;9.017059;2.0316772;-0.5607605;-;-;-;-;-;-;-;-;-;-;-;-;-;-;-
1512468808263;-;-;9.058945;1.9837952;-0.5404053;-;-;-;-;-;-;-;-;-;-;-;-;-;-;-
1512468808284;-;-;9.027832;1.8652802;-0.4853363;-;-;-;-;-;-;-;-;-;-;-;-;-;-;-
1512468808305;-;-;8.98114;1.8257751;-0.35725403;-;-;-;-;-;-;-;-;-;-;-;-;-;-;-
1512468808325;-;-;8.898544;1.7419739;-0.35246277;-;-;-;-;-;-;-;-;-;-;-;-;-;-;-
1512468808345;-;-;8.880585;1.6581726;-0.40274048;-;-;-;-;-;-;-;-;-;-;-;-;-;-;-
1512468808366;-;-;8.990723;1.5516357;-0.45420837;-;-;-;-;-;-;-;-;-;-;-;-;-;-;-
1512468808387;-;-;8.997894;1.5971222;-0.5056915;-;-;-;-;-;-;-;-;-;-;-;-;-;-;-
1512468808406;-;-;9.050568;1.5971222;-0.417099;-;-;-;-;-;-;-;-;-;-;-;-;-;-;-
1512468808427;-;-;9.017059;1.5588226;-0.32254028;-;-;-;-;-;-;-;-;-;-;-;-;-;-;-
1512468808447;-;-;8.971558;1.5971222;-0.31654358;-;-;-;-;-;-;-;-;-;-;-;-;-;-;-
1512468808468;-;-;8.9787445;1.714447;-0.46977234;-;-;-;-;-;-;-;-;-;-;-;-;-;-;-
1512468808489;-;-;8.977554;1.7946472;-0.61582947;-;-;-;-;-;-;-;-;-;-;-;-;-;-;-
1512468808509;-;-;9.045776;1.7886658;-0.52723694;-;-;-;-;-;-;-;-;-;-;-;-;-;-;-
1512468808530;-;-;9.055359;1.8592834;-0.55836487;-;-;-;-;-;-;-;-;-;-;-;-;-;-;-
1512468808551;-;-;9.020645;1.9071808;-0.6230011;-;-;-;-;-;-;-;-;-;-;-;-;-;-;-
1512468808571;-;-;8.976349;1.8796387;-0.53681946;-;-;-;-;-;-;-;-;-;-;-;-;-;-;-
1512468808592;-;-;8.947617;1.8485107;-0.54519653;-;-;-;-;-;-;-;-;-;-;-;-;-;-;-
1512468808612;-;-;8.898544;1.7527466;-0.47576904;-;-;-;-;-;-;-;-;-;-;-;-;-;-;-
1512468808632;-;-;8.969162;1.6689453;-0.51885986;-;-;-;-;-;-;-;-;-;-;-;-;-;-;-
1512468808653;-;-;9.0182495;1.5659943;-0.630188;-;-;-;-;-;-;-;-;-;-;-;-;-;-;-
1512468808674;-;-;9.036209;1.6689453;-0.52963257;-;-;-;-;-;-;-;-;-;-;-;-;-;-;-
1512468808694;-;-;8.989517;1.5181122;-0.36802673;-;-;-;-;-;-;-;-;-;-;-;-;-;-;-
1512468808714;-;-;8.977554;1.4714355;-0.35725403;-;-;-;-;-;-;-;-;-;-;-;-;-;-;-
1512468808735;-;-;8.98233;1.5360718;-0.43745422;-;-;-;-;-;-;-;-;-;-;-;-;-;-;-
1512468808755;-;-;9.080505;1.5456543;-0.51885986;-;-;-;-;-;-;-;-;-;-;-;-;-;-;-
1512468808775;-;-;9.154724;1.4953766;-0.49971008;-;-;-;-;-;-;-;-;-;-;-;-;-;-;-
1512468808796;-;-;9.145142;1.4498749;-0.4853363;-;-;-;-;-;-;-;-;-;-;-;-;-;-;-
1512468808816;-;-;9.046982;1.6378326;-0.5068817;-;-;-;-;-;-;-;-;-;-;-;-;-;-;-
1512468808837;-;-;8.989517;1.6821136;-0.535614;-;-;-;-;-;-;-;-;-;-;-;-;-;-;-
1512468808857;-;-;9.032608;1.674942;-0.52005005;-;-;-;-;-;-;-;-;-;-;-;-;-;-;-
1512468808878;-;-;9.048172;1.6845093;-0.5224457;-;-;-;-;-;-;-;-;-;-;-;-;-;-;-
1512468808898;-;-;9.006287;1.6043091;-0.61701965;-;-;-;-;-;-;-;-;-;-;-;-;-;-;-
1512468808919;-;-;8.966782;1.5851593;-0.52963257;-;-;-;-;-;-;-;-;-;-;-;-;-;-;-
1512468808939;-;-;8.958389;1.6629639;-0.5823059;-;-;-;-;-;-;-;-;-;-;-;-;-;-;-
1512468808960;-;-;8.948822;1.7252197;-0.5643463;-;-;-;-;-;-;-;-;-;-;-;-;-;-;-
1512468808980;-;-;8.946426;1.7240143;-0.5176544;-;-;-;-;-;-;-;-;-;-;-;-;-;-;-
1512468809001;-;-;8.945221;1.6569824;-0.48893738;-;-;-;-;-;-;-;-;-;-;-;-;-;-;-
1512468809021;-;-;9.002686;1.6462097;-0.5894928;-;-;-;-;-;-;-;-;-;-;-;-;-;-;-
1512468809042;-;-;9.043396;1.7168274;-0.6122284;-;-;-;-;-;-;-;-;-;-;-;-;-;-;-
1512468809063;-;-;9.026627;1.8066101;-0.6876526;-;-;-;-;-;-;-;-;-;-;-;-;-;-;-
