TimeStamp[ms];Prox[Cm];Lux[lux];AccX[m/s^2];AccY[m/s^2];AccZ[m/s^2];GyroX[rad/s];GyroY[rad/s];GyroZ[rad/s];MagnX[uT];MagnY[uT];MagnZ[uT];OrienYaw[degrees];OrienPitch[degrees];OrienRoll[degrees];Press[Pa];Temp[C°];Batt[%];Lat;Lng;Speed[m/s]
1512469796457;-;-;8.957199;0.9016113;-1.3436584;-;-;-;-;-;-;-;-;-;-;-;-;-;-;-
1512469796457;-;-;8.957199;0.9016113;-1.3436584;-;-;-;-;-;-;-;-;-;-;-;-;-;-;-
1512469796472;-;-;8.769257;1.1949005;-1.4394226;-;-;-;-;-;-;-;-;-;-;-;-;-;-;-
1512469796493;-;-;9.12001;1.2511597;-1.492096;-;-;-;-;-;-;-;-;-;-;-;-;-;-;-
1512469796513;-;-;9.245697;0.68014526;-0.9845276;-;-;-;-;-;-;-;-;-;-;-;-;-;-;-
1512469796533;-;-;9.116409;1.1170807;-1.3352814;-;-;-;-;-;-;-;-;-;-;-;-;-;-;-
1512469796554;-;-;8.953613;1.1625824;-1.2838135;-;-;-;-;-;-;-;-;-;-;-;-;-;-;-
1512469796574;-;-;8.904526;1.2020874;-1.337677;-;-;-;-;-;-;-;-;-;-;-;-;-;-;-
1512469796595;-;-;9.027832;1.0584259;-0.91030884;-;-;-;-;-;-;-;-;-;-;-;-;-;-;-
1512469796615;-;-;9.306747;1.0979309;-1.148529;-;-;-;-;-;-;-;-;-;-;-;-;-;-;-
1512469796636;-;-;8.880585;1.2260284;-0.97854614;-;-;-;-;-;-;-;-;-;-;-;-;-;-;-
1512469796656;-;-;8.861435;0.7795105;-1.0755157;-;-;-;-;-;-;-;-;-;-;-;-;-;-;-
1512469796677;-;-;8.5047;0.73521423;-0.59906006;-;-;-;-;-;-;-;-;-;-;-;-;-;-;-
1512469796709;-;-;8.617218;1.0656128;-0.70680237;-;-;-;-;-;-;-;-;-;-;-;-;-;-;-
1512469796716;-;-;8.930862;1.4965668;-1.061142;-;-;-;-;-;-;-;-;-;-;-;-;-;-;-
1512469796737;-;-;9.015854;0.793869;-0.7175751;-;-;-;-;-;-;-;-;-;-;-;-;-;-;-
1512469796757;-;-;8.887772;0.9303436;-0.7917938;-;-;-;-;-;-;-;-;-;-;-;-;-;-;-
1512469796778;-;-;9.286407;1.1565857;-1.0288239;-;-;-;-;-;-;-;-;-;-;-;-;-;-;-
1512469796800;-;-;8.946426;1.4403076;-0.8540497;-;-;-;-;-;-;-;-;-;-;-;-;-;-;-
1512469796819;-;-;9.817917;0.96984863;-0.8947449;-;-;-;-;-;-;-;-;-;-;-;-;-;-;-
1512469796839;-;-;9.210983;0.75675964;-1.4071045;-;-;-;-;-;-;-;-;-;-;-;-;-;-;-
1512469796860;-;-;9.286407;1.1494141;-1.1605072;-;-;-;-;-;-;-;-;-;-;-;-;-;-;-
1512469796880;-;-;8.619614;1.3241882;-1.1353607;-;-;-;-;-;-;-;-;-;-;-;-;-;-;-
1512469796901;-;-;7.8965607;1.7635193;-0.123809814;-;-;-;-;-;-;-;-;-;-;-;-;-;-;-
1512469796921;-;-;8.677078;0.9925842;-1.7231445;-;-;-;-;-;-;-;-;-;-;-;-;-;-;-
1512469796942;-;-;7.020294;-1.8936157;-4.9050293;-;-;-;-;-;-;-;-;-;-;-;-;-;-;-
1512469796962;-;-;10.014236;2.2507477;1.8693542;-;-;-;-;-;-;-;-;-;-;-;-;-;-;-
1512469796982;-;-;8.940445;1.3660889;-0.42907715;-;-;-;-;-;-;-;-;-;-;-;-;-;-;-
1512469797003;-;-;8.209015;0.9315338;-0.98573303;-;-;-;-;-;-;-;-;-;-;-;-;-;-;-
1512469797023;-;-;8.534622;1.1446228;-3.2326813;-;-;-;-;-;-;-;-;-;-;-;-;-;-;-
1512469797044;-;-;9.137955;0.6921234;-1.1389618;-;-;-;-;-;-;-;-;-;-;-;-;-;-;-
1512469797063;-;-;9.386963;0.9973755;-0.6984253;-;-;-;-;-;-;-;-;-;-;-;-;-;-;-
1512469797084;-;-;8.735733;1.5384674;-1.025238;-;-;-;-;-;-;-;-;-;-;-;-;-;-;-
1512469797103;-;-;8.4687805;1.7455597;-1.3280945;-;-;-;-;-;-;-;-;-;-;-;-;-;-;-
1512469797124;-;-;9.232529;0.9399109;-1.2311401;-;-;-;-;-;-;-;-;-;-;-;-;-;-;-
1512469797143;-;-;9.21936;0.730423;-1.0934601;-;-;-;-;-;-;-;-;-;-;-;-;-;-;-
1512469797164;-;-;9.025436;1.2284241;-0.08430481;-;-;-;-;-;-;-;-;-;-;-;-;-;-;-
1512469797184;-;-;8.987122;1.6533813;-0.6912384;-;-;-;-;-;-;-;-;-;-;-;-;-;-;-
1512469797204;-;-;9.608414;1.3541107;-2.594635;-;-;-;-;-;-;-;-;-;-;-;-;-;-;-
1512469797225;-;-;9.068527;1.4355164;-1.4968872;-;-;-;-;-;-;-;-;-;-;-;-;-;-;-
1512469797245;-;-;9.147537;0.11152649;-0.7283478;-;-;-;-;-;-;-;-;-;-;-;-;-;-;-
1512469797266;-;-;8.607651;0.85491943;-2.1110077;-;-;-;-;-;-;-;-;-;-;-;-;-;-;-
1512469797286;-;-;7.312378;2.4781952;-0.6433563;-;-;-;-;-;-;-;-;-;-;-;-;-;-;-
1512469797306;-;-;10.106415;1.0680084;-2.1193848;-;-;-;-;-;-;-;-;-;-;-;-;-;-;-
1512469797327;-;-;9.123596;0.65859985;-1.2371216;-;-;-;-;-;-;-;-;-;-;-;-;-;-;-
1512469797348;-;-;9.407303;1.2427826;0.18383789;-;-;-;-;-;-;-;-;-;-;-;-;-;-;-
1512469797368;-;-;8.782425;0.95547485;0.16468811;-;-;-;-;-;-;-;-;-;-;-;-;-;-;-
1512469797389;-;-;9.404907;1.1960907;-1.2263489;-;-;-;-;-;-;-;-;-;-;-;-;-;-;-
1512469797409;-;-;9.635956;1.2044678;-1.7434998;-;-;-;-;-;-;-;-;-;-;-;-;-;-;-
1512469797430;-;-;8.623199;0.17497253;-1.4681549;-;-;-;-;-;-;-;-;-;-;-;-;-;-;-
1512469797451;-;-;7.550598;2.1070862;-0.45420837;-;-;-;-;-;-;-;-;-;-;-;-;-;-;-
1512469797471;-;-;7.387802;4.1565247;-1.8823547;-;-;-;-;-;-;-;-;-;-;-;-;-;-;-
1512469797491;-;-;11.1215515;2.5667725;-0.6768799;-;-;-;-;-;-;-;-;-;-;-;-;-;-;-
1512469797512;-;-;5.332382;2.0723724;-3.0830536;-;-;-;-;-;-;-;-;-;-;-;-;-;-;-
1512469797532;-;-;9.328293;0.517334;-1.7961731;-;-;-;-;-;-;-;-;-;-;-;-;-;-;-
1512469797553;-;-;10.882141;2.2866516;-3.5331573;-;-;-;-;-;-;-;-;-;-;-;-;-;-;-
1512469797573;-;-;13.0620575;2.2950287;-0.5523834;-;-;-;-;-;-;-;-;-;-;-;-;-;-;-
1512469797594;-;-;6.752136;1.2834778;-2.9812927;-;-;-;-;-;-;-;-;-;-;-;-;-;-;-
1512469797614;-;-;9.919662;-0.98501587;-1.5016785;-;-;-;-;-;-;-;-;-;-;-;-;-;-;-
1512469797635;-;-;8.095291;-0.59716797;-3.4864655;-;-;-;-;-;-;-;-;-;-;-;-;-;-;-
1512469797655;-;-;9.06015;-0.37809753;-2.1134033;-;-;-;-;-;-;-;-;-;-;-;-;-;-;-
1512469797676;-;-;9.130783;-0.44154358;-1.8165131;-;-;-;-;-;-;-;-;-;-;-;-;-;-;-
1512469797696;-;-;7.7601013;0.967453;0.07369995;-;-;-;-;-;-;-;-;-;-;-;-;-;-;-
1512469797717;-;-;7.841507;-0.51097107;-0.95339966;-;-;-;-;-;-;-;-;-;-;-;-;-;-;-
1512469797737;-;-;3.1871796;0.44432068;-2.7873688;-;-;-;-;-;-;-;-;-;-;-;-;-;-;-
1512469797758;-;-;7.8043976;-3.6904755;-2.2522583;-;-;-;-;-;-;-;-;-;-;-;-;-;-;-
1512469797777;-;-;7.9660034;0.069625854;-2.06073;-;-;-;-;-;-;-;-;-;-;-;-;-;-;-
1512469797798;-;-;5.5310974;3.9194946;-2.3588104;-;-;-;-;-;-;-;-;-;-;-;-;-;-;-
1512469797818;-;-;10.20697;3.5555878;-1.8213043;-;-;-;-;-;-;-;-;-;-;-;-;-;-;-
1512469797839;-;-;11.29155;2.8588715;-1.2658539;-;-;-;-;-;-;-;-;-;-;-;-;-;-;-
1512469797858;-;-;11.11557;2.050827;-1.3759766;-;-;-;-;-;-;-;-;-;-;-;-;-;-;-
1512469797879;-;-;10.057327;0.51493835;-1.0671387;-;-;-;-;-;-;-;-;-;-;-;-;-;-;-
1512469797899;-;-;8.560959;0.088775635;-1.4382324;-;-;-;-;-;-;-;-;-;-;-;-;-;-;-
1512469797920;-;-;9.171478;-0.0440979;-0.9869232;-;-;-;-;-;-;-;-;-;-;-;-;-;-;-
1512469797940;-;-;8.994308;0.7220459;-0.73313904;-;-;-;-;-;-;-;-;-;-;-;-;-;-;-
1512469797960;-;-;7.77446;2.9115448;-0.85884094;-;-;-;-;-;-;-;-;-;-;-;-;-;-;-
1512469797981;-;-;9.195419;1.4103699;-1.6034393;-;-;-;-;-;-;-;-;-;-;-;-;-;-;-
1512469798001;-;-;8.717773;1.8473206;-2.247467;-;-;-;-;-;-;-;-;-;-;-;-;-;-;-
1512469798022;-;-;9.086487;2.0125122;-4.1903687;-;-;-;-;-;-;-;-;-;-;-;-;-;-;-
1512469798042;-;-;8.010284;1.8030243;-0.98573303;-;-;-;-;-;-;-;-;-;-;-;-;-;-;-
1512469798063;-;-;6.5594025;2.576355;-2.5611115;-;-;-;-;-;-;-;-;-;-;-;-;-;-;-
1512469798083;-;-;10.452377;-1.3058472;-0.89234924;-;-;-;-;-;-;-;-;-;-;-;-;-;-;-
1512469798104;-;-;9.762848;1.8449249;-2.2355042;-;-;-;-;-;-;-;-;-;-;-;-;-;-;-
1512469798124;-;-;9.568924;0.8273926;-0.022064209;-;-;-;-;-;-;-;-;-;-;-;-;-;-;-
1512469798145;-;-;8.3502655;1.611496;-3.7893372;-;-;-;-;-;-;-;-;-;-;-;-;-;-;-
1512469798165;-;-;9.373795;1.5612183;0.062927246;-;-;-;-;-;-;-;-;-;-;-;-;-;-;-
1512469798186;-;-;8.916504;1.2200317;-1.7351074;-;-;-;-;-;-;-;-;-;-;-;-;-;-;-
1512469798207;-;-;9.131973;1.1984863;-1.550766;-;-;-;-;-;-;-;-;-;-;-;-;-;-;-
1512469798227;-;-;9.215775;1.1338501;-1.3280945;-;-;-;-;-;-;-;-;-;-;-;-;-;-;-
1512469798247;-;-;9.154724;1.0727997;-1.4130859;-;-;-;-;-;-;-;-;-;-;-;-;-;-;-
1512469798268;-;-;9.116409;1.114685;-1.471756;-;-;-;-;-;-;-;-;-;-;-;-;-;-;-
1512469798289;-;-;9.074509;1.200882;-1.4705505;-;-;-;-;-;-;-;-;-;-;-;-;-;-;-
1512469798309;-;-;9.06134;1.3361511;-1.3316956;-;-;-;-;-;-;-;-;-;-;-;-;-;-;-
1512469798330;-;-;8.912903;1.3529205;-1.3783722;-;-;-;-;-;-;-;-;-;-;-;-;-;-;-
1512469798350;-;-;8.887772;1.303833;-1.3903503;-;-;-;-;-;-;-;-;-;-;-;-;-;-;-
1512469798371;-;-;8.865021;1.3182068;-1.3843689;-;-;-;-;-;-;-;-;-;-;-;-;-;-;-
1512469798390;-;-;8.865021;1.4319305;-1.4142914;-;-;-;-;-;-;-;-;-;-;-;-;-;-;-
1512469798411;-;-;8.898544;1.5468445;-1.5280151;-;-;-;-;-;-;-;-;-;-;-;-;-;-;-
1512469798431;-;-;8.830307;1.5193176;-1.5699158;-;-;-;-;-;-;-;-;-;-;-;-;-;-;-
1512469798452;-;-;8.832703;1.4522705;-1.4657593;-;-;-;-;-;-;-;-;-;-;-;-;-;-;-
1512469798472;-;-;8.832703;1.4403076;-1.5483704;-;-;-;-;-;-;-;-;-;-;-;-;-;-;-
1512469798492;-;-;8.867416;1.5217133;-1.5459747;-;-;-;-;-;-;-;-;-;-;-;-;-;-;-
1512469798513;-;-;8.890167;1.6701508;-1.5771027;-;-;-;-;-;-;-;-;-;-;-;-;-;-;-
1512469798533;-;-;8.837494;1.8365479;-1.7315216;-;-;-;-;-;-;-;-;-;-;-;-;-;-;-
1512469798554;-;-;8.817139;1.9119568;-1.7554626;-;-;-;-;-;-;-;-;-;-;-;-;-;-;-
1512469798575;-;-;8.797989;1.9418945;-1.768631;-;-;-;-;-;-;-;-;-;-;-;-;-;-;-
1512469798595;-;-;8.818329;1.8892212;-1.8224945;-;-;-;-;-;-;-;-;-;-;-;-;-;-;-
1512469798615;-;-;8.92009;1.7515564;-1.7901764;-;-;-;-;-;-;-;-;-;-;-;-;-;-;-
1512469798636;-;-;9.011063;1.6893005;-1.8201141;-;-;-;-;-;-;-;-;-;-;-;-;-;-;-
1512469798655;-;-;9.005081;1.6545868;-1.7650452;-;-;-;-;-;-;-;-;-;-;-;-;-;-;-
1512469798676;-;-;8.886566;1.7060547;-1.753067;-;-;-;-;-;-;-;-;-;-;-;-;-;-;-
1512469798696;-;-;8.751297;1.7862701;-1.7123718;-;-;-;-;-;-;-;-;-;-;-;-;-;-;-
1512469798717;-;-;8.734543;1.8126068;-1.658493;-;-;-;-;-;-;-;-;-;-;-;-;-;-;-
1512469798737;-;-;8.708206;1.8126068;-1.6261749;-;-;-;-;-;-;-;-;-;-;-;-;-;-;-
1512469798758;-;-;8.548981;1.8030243;-1.3987274;-;-;-;-;-;-;-;-;-;-;-;-;-;-;-
1512469798778;-;-;8.562149;1.8209839;-1.3807678;-;-;-;-;-;-;-;-;-;-;-;-;-;-;-
1512469798798;-;-;8.703415;1.7790833;-1.4238739;-;-;-;-;-;-;-;-;-;-;-;-;-;-;-
1512469798819;-;-;8.777634;1.7072601;-1.4023132;-;-;-;-;-;-;-;-;-;-;-;-;-;-;-
1512469798840;-;-;8.879379;1.710846;-1.5591431;-;-;-;-;-;-;-;-;-;-;-;-;-;-;-
1512469798860;-;-;8.880585;1.8401337;-1.5064697;-;-;-;-;-;-;-;-;-;-;-;-;-;-;-
1512469798881;-;-;9.051773;1.7671051;-1.4597778;-;-;-;-;-;-;-;-;-;-;-;-;-;-;-
1512469798900;-;-;8.886566;1.8437195;-1.6070251;-;-;-;-;-;-;-;-;-;-;-;-;-;-;-
1512469798921;-;-;8.916504;1.9059753;-1.9470062;-;-;-;-;-;-;-;-;-;-;-;-;-;-;-
1512469798941;-;-;8.763275;1.9945679;-1.8787689;-;-;-;-;-;-;-;-;-;-;-;-;-;-;-
1512469798961;-;-;8.756088;2.1705322;-1.8129272;-;-;-;-;-;-;-;-;-;-;-;-;-;-;-
1512469798982;-;-;8.754883;2.1825104;-1.7985535;-;-;-;-;-;-;-;-;-;-;-;-;-;-;-
1512469799001;-;-;8.651932;2.1082916;-1.9086914;-;-;-;-;-;-;-;-;-;-;-;-;-;-;-
1512469799021;-;-;8.74411;1.9861755;-1.9529877;-;-;-;-;-;-;-;-;-;-;-;-;-;-;-
1512469799042;-;-;8.756088;1.6462097;-1.9589691;-;-;-;-;-;-;-;-;-;-;-;-;-;-;-
1512469799063;-;-;8.851852;1.303833;-2.021225;-;-;-;-;-;-;-;-;-;-;-;-;-;-;-
1512469799082;-;-;8.996704;1.1565857;-2.2965546;-;-;-;-;-;-;-;-;-;-;-;-;-;-;-
1512469799103;-;-;9.06134;0.8010559;-2.6365356;-;-;-;-;-;-;-;-;-;-;-;-;-;-;-
1512469799123;-;-;8.845871;0.35214233;-2.4976654;-;-;-;-;-;-;-;-;-;-;-;-;-;-;-
1512469799144;-;-;8.610046;0.069625854;-2.3552094;-;-;-;-;-;-;-;-;-;-;-;-;-;-;-
1512469799163;-;-;8.510681;0.10673523;-2.4773102;-;-;-;-;-;-;-;-;-;-;-;-;-;-;-
1512469799184;-;-;8.746506;0.6897278;-2.2211304;-;-;-;-;-;-;-;-;-;-;-;-;-;-;-
1512469799205;-;-;9.155914;1.3026428;-2.4533691;-;-;-;-;-;-;-;-;-;-;-;-;-;-;-
1512469799225;-;-;9.43364;1.3301697;-2.8448334;-;-;-;-;-;-;-;-;-;-;-;-;-;-;-
1512469799246;-;-;9.51265;1.2308044;-2.9046783;-;-;-;-;-;-;-;-;-;-;-;-;-;-;-
1512469799266;-;-;9.626373;1.185318;-2.8819427;-;-;-;-;-;-;-;-;-;-;-;-;-;-;-
1512469799286;-;-;9.278015;0.8776703;-2.8903198;-;-;-;-;-;-;-;-;-;-;-;-;-;-;-
1512469799307;-;-;8.844666;0.38565063;-2.852005;-;-;-;-;-;-;-;-;-;-;-;-;-;-;-
1512469799327;-;-;8.478363;0.105529785;-2.5503387;-;-;-;-;-;-;-;-;-;-;-;-;-;-;-
1512469799348;-;-;8.332306;0.095962524;-2.4222565;-;-;-;-;-;-;-;-;-;-;-;-;-;-;-
1512469799369;-;-;8.448425;0.057647705;-2.4042969;-;-;-;-;-;-;-;-;-;-;-;-;-;-;-
1512469799388;-;-;8.553772;0.15342712;-2.5204163;-;-;-;-;-;-;-;-;-;-;-;-;-;-;-
1512469799408;-;-;8.692642;0.39523315;-2.7382813;-;-;-;-;-;-;-;-;-;-;-;-;-;-;-
1512469799429;-;-;8.844666;0.58677673;-2.7670135;-;-;-;-;-;-;-;-;-;-;-;-;-;-;-
1512469799448;-;-;8.972763;0.6789551;-2.8268738;-;-;-;-;-;-;-;-;-;-;-;-;-;-;-
1512469799468;-;-;9.116409;0.5987396;-2.9669342;-;-;-;-;-;-;-;-;-;-;-;-;-;-;-
1512469799489;-;-;8.908112;0.68133545;-3.1860046;-;-;-;-;-;-;-;-;-;-;-;-;-;-;-
1512469799509;-;-;9.343857;0.3892517;-2.9896698;-;-;-;-;-;-;-;-;-;-;-;-;-;-;-
1512469799531;-;-;8.740524;0.02293396;-3.2650146;-;-;-;-;-;-;-;-;-;-;-;-;-;-;-
1512469799551;-;-;8.699814;-0.3194275;-3.4074707;-;-;-;-;-;-;-;-;-;-;-;-;-;-;-
1512469799570;-;-;8.305969;-0.25239563;-3.8503876;-;-;-;-;-;-;-;-;-;-;-;-;-;-;-
1512469799591;-;-;8.614822;0.08279419;-3.6504822;-;-;-;-;-;-;-;-;-;-;-;-;-;-;-
1512469799611;-;-;8.550186;0.26834106;-3.1237488;-;-;-;-;-;-;-;-;-;-;-;-;-;-;-
1512469799632;-;-;8.648346;0.67655945;-3.6636505;-;-;-;-;-;-;-;-;-;-;-;-;-;-;-
1512469799651;-;-;9.15712;1.1182861;-4.1496735;-;-;-;-;-;-;-;-;-;-;-;-;-;-;-
1512469799671;-;-;8.886566;0.7986603;-3.4421844;-;-;-;-;-;-;-;-;-;-;-;-;-;-;-
1512469799692;-;-;8.434067;0.5233307;-2.2833862;-;-;-;-;-;-;-;-;-;-;-;-;-;-;-
1512469799712;-;-;8.856644;0.5245209;-1.579483;-;-;-;-;-;-;-;-;-;-;-;-;-;-;-
1512469799733;-;-;10.189011;1.4355164;-1.6716614;-;-;-;-;-;-;-;-;-;-;-;-;-;-;-
1512469799753;-;-;10.239288;2.0244904;-1.7602539;-;-;-;-;-;-;-;-;-;-;-;-;-;-;-
1512469799774;-;-;8.947617;1.9275208;-1.4286499;-;-;-;-;-;-;-;-;-;-;-;-;-;-;-
1512469799794;-;-;8.380188;1.3840332;-0.8851776;-;-;-;-;-;-;-;-;-;-;-;-;-;-;-
1512469799815;-;-;8.752487;0.9650574;-1.1928253;-;-;-;-;-;-;-;-;-;-;-;-;-;-;-
1512469799835;-;-;9.161896;1.3876343;-1.5842743;-;-;-;-;-;-;-;-;-;-;-;-;-;-;-
1512469799856;-;-;8.5849;2.129837;-2.0882568;-;-;-;-;-;-;-;-;-;-;-;-;-;-;-
1512469799875;-;-;8.212601;2.4362946;-2.3037415;-;-;-;-;-;-;-;-;-;-;-;-;-;-;-
1512469799896;-;-;7.894165;2.7008514;-2.1983948;-;-;-;-;-;-;-;-;-;-;-;-;-;-;-
1512469799915;-;-;8.113235;2.703247;-2.0906525;-;-;-;-;-;-;-;-;-;-;-;-;-;-;-
1512469799935;-;-;8.728546;2.608673;-1.8943329;-;-;-;-;-;-;-;-;-;-;-;-;-;-;-
1512469799956;-;-;8.845871;2.5559998;-1.8284912;-;-;-;-;-;-;-;-;-;-;-;-;-;-;-
1512469799977;-;-;8.849457;2.5248718;-1.8224945;-;-;-;-;-;-;-;-;-;-;-;-;-;-;-
1512469799997;-;-;8.6651;2.3524933;-1.650116;-;-;-;-;-;-;-;-;-;-;-;-;-;-;-
1512469800018;-;-;8.806366;1.9406891;-1.4358368;-;-;-;-;-;-;-;-;-;-;-;-;-;-;-
1512469800038;-;-;8.847061;1.8018341;-1.432251;-;-;-;-;-;-;-;-;-;-;-;-;-;-;-
1512469800058;-;-;8.616028;2.0615997;-1.3556366;-;-;-;-;-;-;-;-;-;-;-;-;-;-;-
1512469800078;-;-;8.138382;2.1908875;-1.2610626;-;-;-;-;-;-;-;-;-;-;-;-;-;-;-
1512469800099;-;-;7.772064;2.275879;-1.3496399;-;-;-;-;-;-;-;-;-;-;-;-;-;-;-
1512469800119;-;-;7.7421417;2.2914429;-1.5675201;-;-;-;-;-;-;-;-;-;-;-;-;-;-;-
1512469800140;-;-;7.8594513;2.4291077;-1.6082153;-;-;-;-;-;-;-;-;-;-;-;-;-;-;-
1512469800160;-;-;8.088104;2.402771;-1.6034393;-;-;-;-;-;-;-;-;-;-;-;-;-;-;-
1512469800181;-;-;8.592087;2.3441162;-1.4083099;-;-;-;-;-;-;-;-;-;-;-;-;-;-;-
1512469800200;-;-;8.520264;2.529663;-1.4202728;-;-;-;-;-;-;-;-;-;-;-;-;-;-;-
1512469800221;-;-;8.96199;2.6852875;-1.4741516;-;-;-;-;-;-;-;-;-;-;-;-;-;-;-
1512469800241;-;-;8.656723;2.976181;-1.3807678;-;-;-;-;-;-;-;-;-;-;-;-;-;-;-
1512469800261;-;-;8.264084;3.3520813;-1.2478943;-;-;-;-;-;-;-;-;-;-;-;-;-;-;-
1512469800282;-;-;8.481949;3.470581;-1.1784668;-;-;-;-;-;-;-;-;-;-;-;-;-;-;-
1512469800303;-;-;8.368225;3.383194;-1.1581116;-;-;-;-;-;-;-;-;-;-;-;-;-;-;-
1512469800323;-;-;8.270065;2.9701996;-0.81095886;-;-;-;-;-;-;-;-;-;-;-;-;-;-;-
1512469800343;-;-;8.237747;2.5332642;-0.43147278;-;-;-;-;-;-;-;-;-;-;-;-;-;-;-
1512469800364;-;-;8.201828;2.3297424;-0.19325256;-;-;-;-;-;-;-;-;-;-;-;-;-;-;-
1512469800383;-;-;8.46759;2.4279175;-0.29499817;-;-;-;-;-;-;-;-;-;-;-;-;-;-;-
1512469800403;-;-;8.461594;2.727188;-0.20162964;-;-;-;-;-;-;-;-;-;-;-;-;-;-;-
1512469800424;-;-;8.522644;2.8935852;-0.40872192;-;-;-;-;-;-;-;-;-;-;-;-;-;-;-
1512469800445;-;-;9.312744;3.3568573;-2.3983002;-;-;-;-;-;-;-;-;-;-;-;-;-;-;-
1512469800465;-;-;12.0971985;2.9929504;-4.3831024;-;-;-;-;-;-;-;-;-;-;-;-;-;-;-
1512469800485;-;-;12.7556;0.33299255;-2.9046783;-;-;-;-;-;-;-;-;-;-;-;-;-;-;-
1512469800505;-;-;10.513428;-0.55526733;-1.4262543;-;-;-;-;-;-;-;-;-;-;-;-;-;-;-
1512469800526;-;-;8.528641;-0.73483276;-2.254654;-;-;-;-;-;-;-;-;-;-;-;-;-;-;-
1512469800546;-;-;7.2597046;-1.4782257;-2.1924133;-;-;-;-;-;-;-;-;-;-;-;-;-;-;-
1512469800567;-;-;7.423706;-0.91319275;-1.7063904;-;-;-;-;-;-;-;-;-;-;-;-;-;-;-
1512469800587;-;-;8.746506;0.41319275;-2.1493073;-;-;-;-;-;-;-;-;-;-;-;-;-;-;-
1512469800607;-;-;10.151901;1.1123047;-3.1907806;-;-;-;-;-;-;-;-;-;-;-;-;-;-;-
1512469800628;-;-;10.518219;0.66218567;-3.6193542;-;-;-;-;-;-;-;-;-;-;-;-;-;-;-
1512469800648;-;-;10.14473;-0.30148315;-3.3559875;-;-;-;-;-;-;-;-;-;-;-;-;-;-;-
1512469800669;-;-;9.333084;-0.4379425;-2.468933;-;-;-;-;-;-;-;-;-;-;-;-;-;-;-
1512469800688;-;-;8.854248;-1.0628357;-2.0068512;-;-;-;-;-;-;-;-;-;-;-;-;-;-;-
1512469800708;-;-;8.247314;-2.2012787;-1.7602539;-;-;-;-;-;-;-;-;-;-;-;-;-;-;-
1512469800728;-;-;7.956421;-1.898407;-1.1616974;-;-;-;-;-;-;-;-;-;-;-;-;-;-;-
1512469800749;-;-;8.335907;-0.77552795;-1.5040741;-;-;-;-;-;-;-;-;-;-;-;-;-;-;-
1512469800769;-;-;8.401749;0.12588501;-1.9182739;-;-;-;-;-;-;-;-;-;-;-;-;-;-;-
1512469800790;-;-;8.522644;0.16778564;-1.5543518;-;-;-;-;-;-;-;-;-;-;-;-;-;-;-
1512469800810;-;-;8.763275;-0.36253357;-1.3999176;-;-;-;-;-;-;-;-;-;-;-;-;-;-;-
1512469800831;-;-;8.897339;-0.6701813;-1.2526855;-;-;-;-;-;-;-;-;-;-;-;-;-;-;-
1512469800851;-;-;9.086487;-0.8473511;-1.3089447;-;-;-;-;-;-;-;-;-;-;-;-;-;-;-
1512469800872;-;-;9.128387;-0.9143982;-1.5399933;-;-;-;-;-;-;-;-;-;-;-;-;-;-;-
1512469800891;-;-;9.200211;-0.8856659;-1.5782928;-;-;-;-;-;-;-;-;-;-;-;-;-;-;-
1512469800912;-;-;9.188232;-0.6941223;-1.6321564;-;-;-;-;-;-;-;-;-;-;-;-;-;-;-
1512469800932;-;-;9.013458;-0.47027588;-1.4849243;-;-;-;-;-;-;-;-;-;-;-;-;-;-;-
1512469800953;-;-;8.965576;-0.38407898;-1.3017578;-;-;-;-;-;-;-;-;-;-;-;-;-;-;-
1512469800973;-;-;8.808762;-0.45111084;-0.88757324;-;-;-;-;-;-;-;-;-;-;-;-;-;-;-
1512469800994;-;-;8.972763;-0.62350464;-0.5631561;-;-;-;-;-;-;-;-;-;-;-;-;-;-;-
1512469801014;-;-;9.500687;-0.58639526;-0.36442566;-;-;-;-;-;-;-;-;-;-;-;-;-;-;-
1512469801035;-;-;9.960373;-0.24760437;-0.14656067;-;-;-;-;-;-;-;-;-;-;-;-;-;-;-
1512469801056;-;-;10.034592;-0.117126465;0.08807373;-;-;-;-;-;-;-;-;-;-;-;-;-;-;-
1512469801076;-;-;9.592865;-0.7096863;0.32270813;-;-;-;-;-;-;-;-;-;-;-;-;-;-;-
1512469801096;-;-;9.142746;-1.3980255;0.094055176;-;-;-;-;-;-;-;-;-;-;-;-;-;-;-
1512469801117;-;-;8.753693;-1.6326599;0.35621643;-;-;-;-;-;-;-;-;-;-;-;-;-;-;-
1512469801137;-;-;8.671097;-1.6589966;0.18025208;-;-;-;-;-;-;-;-;-;-;-;-;-;-;-
1512469801158;-;-;9.570114;-1.9283447;-2.1660767;-;-;-;-;-;-;-;-;-;-;-;-;-;-;-
1512469801179;-;-;11.5920105;-1.6314545;-3.5966034;-;-;-;-;-;-;-;-;-;-;-;-;-;-;-
1512469801199;-;-;13.430771;-0.7815094;-3.2733917;-;-;-;-;-;-;-;-;-;-;-;-;-;-;-
1512469801220;-;-;11.503433;0.40481567;-2.0774841;-;-;-;-;-;-;-;-;-;-;-;-;-;-;-
1512469801240;-;-;9.515045;0.29588318;-2.8029327;-;-;-;-;-;-;-;-;-;-;-;-;-;-;-
1512469801260;-;-;7.5314484;0.12948608;-4.085022;-;-;-;-;-;-;-;-;-;-;-;-;-;-;-
1512469801280;-;-;5.7214355;0.43832397;-4.2322693;-;-;-;-;-;-;-;-;-;-;-;-;-;-;-
1512469801301;-;-;5.517929;0.6107178;-2.7119446;-;-;-;-;-;-;-;-;-;-;-;-;-;-;-
1512469801322;-;-;6.3451233;0.5879669;-1.3723907;-;-;-;-;-;-;-;-;-;-;-;-;-;-;-
1512469801341;-;-;8.101273;0.27552795;-1.432251;-;-;-;-;-;-;-;-;-;-;-;-;-;-;-
1512469801361;-;-;10.217743;0.22525024;-2.128952;-;-;-;-;-;-;-;-;-;-;-;-;-;-;-
1512469801382;-;-;12.366547;0.046875;-2.614975;-;-;-;-;-;-;-;-;-;-;-;-;-;-;-
1512469801402;-;-;12.509003;-0.18536377;-2.7346954;-;-;-;-;-;-;-;-;-;-;-;-;-;-;-
1512469801423;-;-;10.556519;-0.20809937;-2.1888123;-;-;-;-;-;-;-;-;-;-;-;-;-;-;-
1512469801443;-;-;8.90213;-0.11114502;-1.8524323;-;-;-;-;-;-;-;-;-;-;-;-;-;-;-
1512469801463;-;-;7.5637665;0.14144897;-1.5926514;-;-;-;-;-;-;-;-;-;-;-;-;-;-;-
1512469801484;-;-;7.1316223;0.50416565;-1.3292999;-;-;-;-;-;-;-;-;-;-;-;-;-;-;-
1512469801504;-;-;6.9867706;0.9818115;-1.2502899;-;-;-;-;-;-;-;-;-;-;-;-;-;-;-
1512469801525;-;-;7.762497;1.5217133;-1.401123;-;-;-;-;-;-;-;-;-;-;-;-;-;-;-
1512469801545;-;-;8.753693;1.3241882;-1.2802124;-;-;-;-;-;-;-;-;-;-;-;-;-;-;-
1512469801566;-;-;9.325912;0.71006775;-1.0467834;-;-;-;-;-;-;-;-;-;-;-;-;-;-;-
1512469801585;-;-;8.854248;0.20729065;-1.3113403;-;-;-;-;-;-;-;-;-;-;-;-;-;-;-
1512469801605;-;-;8.01149;0.259964;-1.1856384;-;-;-;-;-;-;-;-;-;-;-;-;-;-;-
1512469801626;-;-;7.0777435;0.6729584;-1.5339966;-;-;-;-;-;-;-;-;-;-;-;-;-;-;-
1512469801646;-;-;6.5665894;1.2763062;-1.3628082;-;-;-;-;-;-;-;-;-;-;-;-;-;-;-
1512469801667;-;-;6.5198975;1.5815582;-0.669693;-;-;-;-;-;-;-;-;-;-;-;-;-;-;-
1512469801686;-;-;6.8455048;1.5516357;0.082092285;-;-;-;-;-;-;-;-;-;-;-;-;-;-;-
1512469801706;-;-;7.530258;1.7060547;0.30593872;-;-;-;-;-;-;-;-;-;-;-;-;-;-;-
1512469801727;-;-;8.673492;1.7299957;-0.709198;-;-;-;-;-;-;-;-;-;-;-;-;-;-;-
1512469801747;-;-;8.794388;0.98301697;-0.84446716;-;-;-;-;-;-;-;-;-;-;-;-;-;-;-
1512469801768;-;-;8.308365;0.3174286;-1.0922699;-;-;-;-;-;-;-;-;-;-;-;-;-;-;-
1512469801789;-;-;7.1723175;0.47543335;-1.0072784;-;-;-;-;-;-;-;-;-;-;-;-;-;-;-
1512469801809;-;-;6.37265;1.0201263;-1.0324097;-;-;-;-;-;-;-;-;-;-;-;-;-;-;-
1512469801829;-;-;6.240982;1.8353424;-0.88038635;-;-;-;-;-;-;-;-;-;-;-;-;-;-;-
1512469801850;-;-;7.142395;2.552414;-0.8863678;-;-;-;-;-;-;-;-;-;-;-;-;-;-;-
1512469801871;-;-;8.259293;2.9977264;-1.634552;-;-;-;-;-;-;-;-;-;-;-;-;-;-;-
1512469801890;-;-;8.243729;2.4805908;-2.0918427;-;-;-;-;-;-;-;-;-;-;-;-;-;-;-
1512469801911;-;-;8.693832;2.0891266;-1.5088654;-;-;-;-;-;-;-;-;-;-;-;-;-;-;-
1512469801932;-;-;8.298798;1.1877136;-1.2502899;-;-;-;-;-;-;-;-;-;-;-;-;-;-;-
1512469801952;-;-;7.9552307;0.26235962;-0.7199707;-;-;-;-;-;-;-;-;-;-;-;-;-;-;-
1512469801972;-;-;7.485962;-0.34457397;-3.0902252;-;-;-;-;-;-;-;-;-;-;-;-;-;-;-
1512469801993;-;-;8.10965;-0.19972229;-5.231842;-;-;-;-;-;-;-;-;-;-;-;-;-;-;-
1512469802013;-;-;9.558136;-0.41999817;-5.907013;-;-;-;-;-;-;-;-;-;-;-;-;-;-;-
1512469802034;-;-;10.760025;-0.15065002;-4.420212;-;-;-;-;-;-;-;-;-;-;-;-;-;-;-
1512469802053;-;-;12.234863;-0.3254242;-3.3595734;-;-;-;-;-;-;-;-;-;-;-;-;-;-;-
1512469802074;-;-;15.160568;-2.0300903;-4.2538147;-;-;-;-;-;-;-;-;-;-;-;-;-;-;-
1512469802095;-;-;16.245148;-0.93833923;-5.1348724;-;-;-;-;-;-;-;-;-;-;-;-;-;-;-
1512469802115;-;-;15.394012;-0.89404297;0.6674652;-;-;-;-;-;-;-;-;-;-;-;-;-;-;-
1512469802136;-;-;8.23056;-0.9323425;-0.6517334;-;-;-;-;-;-;-;-;-;-;-;-;-;-;-
1512469802155;-;-;5.7537537;-1.0951538;0.4507904;-;-;-;-;-;-;-;-;-;-;-;-;-;-;-
1512469802176;-;-;5.437729;-0.90960693;-0.13937378;-;-;-;-;-;-;-;-;-;-;-;-;-;-;-
1512469802196;-;-;6.1368256;-0.9036255;-0.14176941;-;-;-;-;-;-;-;-;-;-;-;-;-;-;-
1512469802217;-;-;7.973175;-1.2112732;-0.11064148;-;-;-;-;-;-;-;-;-;-;-;-;-;-;-
1512469802237;-;-;9.440826;-1.1681824;-0.24353027;-;-;-;-;-;-;-;-;-;-;-;-;-;-;-
1512469802258;-;-;9.171478;-0.8425598;-0.05319214;-;-;-;-;-;-;-;-;-;-;-;-;-;-;-
1512469802278;-;-;8.6651;-0.73602295;-0.29260254;-;-;-;-;-;-;-;-;-;-;-;-;-;-;-
1512469802299;-;-;7.4404755;-0.55526733;-0.3476715;-;-;-;-;-;-;-;-;-;-;-;-;-;-;-
1512469802319;-;-;6.4696198;-0.25360107;0.10243225;-;-;-;-;-;-;-;-;-;-;-;-;-;-;-
1512469802340;-;-;6.1056976;0.17376709;0.110809326;-;-;-;-;-;-;-;-;-;-;-;-;-;-;-
1512469802360;-;-;7.1364136;-0.08958435;0.27720642;-;-;-;-;-;-;-;-;-;-;-;-;-;-;-
1512469802381;-;-;8.021072;-0.6474457;0.77760315;-;-;-;-;-;-;-;-;-;-;-;-;-;-;-
1512469802401;-;-;7.806778;-0.46907043;0.49508667;-;-;-;-;-;-;-;-;-;-;-;-;-;-;-
1512469802422;-;-;6.972412;-0.30387878;-0.50927734;-;-;-;-;-;-;-;-;-;-;-;-;-;-;-
1512469802443;-;-;6.454056;0.06124878;-1.6800537;-;-;-;-;-;-;-;-;-;-;-;-;-;-;-
1512469802463;-;-;5.2234344;0.5281067;-4.4429626;-;-;-;-;-;-;-;-;-;-;-;-;-;-;-
1512469802484;-;-;7.554199;0.7447815;-4.7506104;-;-;-;-;-;-;-;-;-;-;-;-;-;-;-
1512469802503;-;-;12.24205;1.0093536;-6.2613525;-;-;-;-;-;-;-;-;-;-;-;-;-;-;-
1512469802524;-;-;19.357605;1.6438141;-10.420074;-;-;-;-;-;-;-;-;-;-;-;-;-;-;-
1512469802544;-;-;23.379868;4.990906;-4.8846893;-;-;-;-;-;-;-;-;-;-;-;-;-;-;-
1512469802565;-;-;15.307816;7.6939545;-0.42668152;-;-;-;-;-;-;-;-;-;-;-;-;-;-;-
1512469802586;-;-;11.298721;3.4849548;-3.4361877;-;-;-;-;-;-;-;-;-;-;-;-;-;-;-
1512469802606;-;-;8.74411;0.556839;0.043777466;-;-;-;-;-;-;-;-;-;-;-;-;-;-;-
1512469802627;-;-;9.631165;-1.2076874;1.0433502;-;-;-;-;-;-;-;-;-;-;-;-;-;-;-
1512469802647;-;-;10.515823;-1.1394501;0.37657166;-;-;-;-;-;-;-;-;-;-;-;-;-;-;-
1512469802668;-;-;10.317108;1.4822083;-1.2311401;-;-;-;-;-;-;-;-;-;-;-;-;-;-;-
1512469802689;-;-;10.406891;3.1772919;-2.1983948;-;-;-;-;-;-;-;-;-;-;-;-;-;-;-
1512469802709;-;-;10.2752075;3.378418;-1.9278412;-;-;-;-;-;-;-;-;-;-;-;-;-;-;-
1512469802730;-;-;9.09845;1.9610443;-2.594635;-;-;-;-;-;-;-;-;-;-;-;-;-;-;-
1512469802749;-;-;6.8119965;0.0756073;-1.5471649;-;-;-;-;-;-;-;-;-;-;-;-;-;-;-
1512469802770;-;-;5.5945435;-0.43675232;-0.25549316;-;-;-;-;-;-;-;-;-;-;-;-;-;-;-
1512469802790;-;-;4.7050934;1.2200317;0.5226135;-;-;-;-;-;-;-;-;-;-;-;-;-;-;-
1512469802810;-;-;5.138443;2.0448456;-0.35604858;-;-;-;-;-;-;-;-;-;-;-;-;-;-;-
1512469802831;-;-;5.4772186;1.7826691;-0.48893738;-;-;-;-;-;-;-;-;-;-;-;-;-;-;-
1512469802852;-;-;5.399414;1.4091797;-0.55955505;-;-;-;-;-;-;-;-;-;-;-;-;-;-;-
1512469802872;-;-;6.003952;1.4486847;-0.7989807;-;-;-;-;-;-;-;-;-;-;-;-;-;-;-
1512469802893;-;-;6.474411;1.5899353;-1.1664886;-;-;-;-;-;-;-;-;-;-;-;-;-;-;-
1512469802913;-;-;6.8993835;0.93392944;-1.4370422;-;-;-;-;-;-;-;-;-;-;-;-;-;-;-
1512469802933;-;-;6.8790283;-0.23324585;-1.3053589;-;-;-;-;-;-;-;-;-;-;-;-;-;-;-
1512469802954;-;-;6.675522;-0.63067627;-0.5439911;-;-;-;-;-;-;-;-;-;-;-;-;-;-;-
1512469802974;-;-;6.6898956;0.105529785;-0.44703674;-;-;-;-;-;-;-;-;-;-;-;-;-;-;-
1512469802995;-;-;7.2944183;1.4833984;-0.906723;-;-;-;-;-;-;-;-;-;-;-;-;-;-;-
1512469803015;-;-;7.980362;2.95224;-1.7973633;-;-;-;-;-;-;-;-;-;-;-;-;-;-;-
1512469803036;-;-;7.901352;2.8684387;-1.100647;-;-;-;-;-;-;-;-;-;-;-;-;-;-;-
1512469803056;-;-;7.1926727;0.7005005;-0.8253174;-;-;-;-;-;-;-;-;-;-;-;-;-;-;-
1512469803076;-;-;6.8874054;-0.8138428;-2.883133;-;-;-;-;-;-;-;-;-;-;-;-;-;-;-
1512469803097;-;-;8.430481;-0.5564575;-5.357544;-;-;-;-;-;-;-;-;-;-;-;-;-;-;-
1512469803118;-;-;10.890518;0.5257263;-6.899414;-;-;-;-;-;-;-;-;-;-;-;-;-;-;-
1512469803139;-;-;14.466263;1.101532;-4.508789;-;-;-;-;-;-;-;-;-;-;-;-;-;-;-
1512469803158;-;-;20.38353;-1.0101624;-2.9202423;-;-;-;-;-;-;-;-;-;-;-;-;-;-;-
1512469803179;-;-;22.64006;-2.7567291;-1.8224945;-;-;-;-;-;-;-;-;-;-;-;-;-;-;-
1512469803199;-;-;19.284592;-3.4354858;-1.8619995;-;-;-;-;-;-;-;-;-;-;-;-;-;-;-
1512469803220;-;-;11.588425;-2.669342;-1.298172;-;-;-;-;-;-;-;-;-;-;-;-;-;-;-
1512469803241;-;-;6.7808685;-1.7068787;-0.29499817;-;-;-;-;-;-;-;-;-;-;-;-;-;-;-
1512469803260;-;-;5.098938;-0.32182312;-0.654129;-;-;-;-;-;-;-;-;-;-;-;-;-;-;-
1512469803281;-;-;5.280899;1.2667236;-0.09628296;-;-;-;-;-;-;-;-;-;-;-;-;-;-;-
1512469803301;-;-;7.511093;0.9901886;0.6100006;-;-;-;-;-;-;-;-;-;-;-;-;-;-;-
1512469803322;-;-;9.67067;-0.55166626;-0.54519653;-;-;-;-;-;-;-;-;-;-;-;-;-;-;-
1512469803342;-;-;9.495895;-1.3297882;-1.3364716;-;-;-;-;-;-;-;-;-;-;-;-;-;-;-
1512469803363;-;-;8.510681;-0.59477234;-1.1030426;-;-;-;-;-;-;-;-;-;-;-;-;-;-;-
1512469803384;-;-;6.948456;0.13786316;-0.42189026;-;-;-;-;-;-;-;-;-;-;-;-;-;-;-
1512469803404;-;-;5.584961;0.4802246;0.47712708;-;-;-;-;-;-;-;-;-;-;-;-;-;-;-
1512469803424;-;-;4.4716644;0.13186646;1.4001007;-;-;-;-;-;-;-;-;-;-;-;-;-;-;-
1512469803445;-;-;5.64003;-0.7480011;0.25686646;-;-;-;-;-;-;-;-;-;-;-;-;-;-;-
1512469803465;-;-;6.29126;-1.8002472;-0.51527405;-;-;-;-;-;-;-;-;-;-;-;-;-;-;-
1512469803485;-;-;6.275696;-2.2443695;-0.06036377;-;-;-;-;-;-;-;-;-;-;-;-;-;-;-
1512469803506;-;-;6.881424;-1.076004;1.1499023;-;-;-;-;-;-;-;-;-;-;-;-;-;-;-
1512469803526;-;-;8.40892;-0.5432892;1.1570892;-;-;-;-;-;-;-;-;-;-;-;-;-;-;-
1512469803547;-;-;8.443649;-0.85453796;-0.4853363;-;-;-;-;-;-;-;-;-;-;-;-;-;-;-
1512469803567;-;-;7.0190887;-0.9838257;-0.6253967;-;-;-;-;-;-;-;-;-;-;-;-;-;-;-
1512469803588;-;-;6.9101563;-0.13508606;1.2540436;-;-;-;-;-;-;-;-;-;-;-;-;-;-;-
1512469803608;-;-;8.777634;0.26235962;-0.4230957;-;-;-;-;-;-;-;-;-;-;-;-;-;-;-
1512469803629;-;-;10.386536;1.4271393;-5.112137;-;-;-;-;-;-;-;-;-;-;-;-;-;-;-
1512469803649;-;-;10.890518;2.2423553;-8.113266;-;-;-;-;-;-;-;-;-;-;-;-;-;-;-
1512469803670;-;-;12.133102;2.572754;-4.8846893;-;-;-;-;-;-;-;-;-;-;-;-;-;-;-
1512469803691;-;-;16.002136;7.264206;-5.0845947;-;-;-;-;-;-;-;-;-;-;-;-;-;-;-
1512469803711;-;-;22.38388;6.4836884;-3.990448;-;-;-;-;-;-;-;-;-;-;-;-;-;-;-
1512469803731;-;-;17.851654;3.5088959;-3.3092957;-;-;-;-;-;-;-;-;-;-;-;-;-;-;-
1512469803752;-;-;11.720108;0.02772522;-2.096634;-;-;-;-;-;-;-;-;-;-;-;-;-;-;-
1512469803772;-;-;8.1527405;-0.7527771;-0.18247986;-;-;-;-;-;-;-;-;-;-;-;-;-;-;-
1512469803793;-;-;8.497513;-0.98501587;-0.44343567;-;-;-;-;-;-;-;-;-;-;-;-;-;-;-
1512469803813;-;-;10.52301;0.5448761;-0.6325836;-;-;-;-;-;-;-;-;-;-;-;-;-;-;-
1512469803833;-;-;10.767212;1.9550629;-1.1652985;-;-;-;-;-;-;-;-;-;-;-;-;-;-;-
1512469803854;-;-;9.719757;3.015686;-1.3065491;-;-;-;-;-;-;-;-;-;-;-;-;-;-;-
1512469803874;-;-;7.423706;2.490158;-1.0563507;-;-;-;-;-;-;-;-;-;-;-;-;-;-;-
1512469803893;-;-;5.9297333;0.89442444;-0.882782;-;-;-;-;-;-;-;-;-;-;-;-;-;-;-
1512469803913;-;-;5.968033;-0.35295105;-0.56555176;-;-;-;-;-;-;-;-;-;-;-;-;-;-;-
1512469803934;-;-;6.3032227;-0.18057251;-0.2758484;-;-;-;-;-;-;-;-;-;-;-;-;-;-;-
1512469803955;-;-;5.781296;0.74957275;0.101242065;-;-;-;-;-;-;-;-;-;-;-;-;-;-;-
1512469803975;-;-;5.233017;1.2727051;0.15631104;-;-;-;-;-;-;-;-;-;-;-;-;-;-;-
1512469803996;-;-;4.758972;1.6091003;-0.39675903;-;-;-;-;-;-;-;-;-;-;-;-;-;-;-
1512469804016;-;-;4.944519;1.5336761;-0.92108154;-;-;-;-;-;-;-;-;-;-;-;-;-;-;-
1512469804037;-;-;5.359909;1.0500488;-1.1353607;-;-;-;-;-;-;-;-;-;-;-;-;-;-;-
1512469804057;-;-;5.8722687;0.54248047;-0.70680237;-;-;-;-;-;-;-;-;-;-;-;-;-;-;-
1512469804077;-;-;7.295624;0.49220276;-0.6984253;-;-;-;-;-;-;-;-;-;-;-;-;-;-;-
1512469804098;-;-;8.869812;0.8213959;-1.195221;-;-;-;-;-;-;-;-;-;-;-;-;-;-;-
1512469804118;-;-;8.851852;1.6833191;-1.7830048;-;-;-;-;-;-;-;-;-;-;-;-;-;-;-
1512469804138;-;-;7.0526123;1.5887451;-1.0659332;-;-;-;-;-;-;-;-;-;-;-;-;-;-;-
1512469804159;-;-;5.134857;1.0763855;-0.2686615;-;-;-;-;-;-;-;-;-;-;-;-;-;-;-
1512469804180;-;-;5.051056;1.358902;0.19342041;-;-;-;-;-;-;-;-;-;-;-;-;-;-;-
1512469804200;-;-;6.225418;1.0153351;-1.7602539;-;-;-;-;-;-;-;-;-;-;-;-;-;-;-
1512469804220;-;-;8.126404;0.38446045;-4.381897;-;-;-;-;-;-;-;-;-;-;-;-;-;-;-
1512469804241;-;-;10.912064;-0.6330719;-6.449295;-;-;-;-;-;-;-;-;-;-;-;-;-;-;-
1512469804261;-;-;12.869324;-0.4738617;-4.11734;-;-;-;-;-;-;-;-;-;-;-;-;-;-;-
1512469804281;-;-;17.004105;-0.61990356;-2.6712494;-;-;-;-;-;-;-;-;-;-;-;-;-;-;-
1512469804302;-;-;23.59056;-0.4092102;-5.9536896;-;-;-;-;-;-;-;-;-;-;-;-;-;-;-
1512469804322;-;-;22.033127;-0.62350464;-2.491684;-;-;-;-;-;-;-;-;-;-;-;-;-;-;-
1512469804343;-;-;15.172546;-3.1326141;-0.097473145;-;-;-;-;-;-;-;-;-;-;-;-;-;-;-
1512469804364;-;-;8.903336;-2.7603302;-0.91989136;-;-;-;-;-;-;-;-;-;-;-;-;-;-;-
1512469804384;-;-;6.1799316;0.4299469;-0.6481476;-;-;-;-;-;-;-;-;-;-;-;-;-;-;-
1512469804405;-;-;7.4524384;2.5308685;-0.2004242;-;-;-;-;-;-;-;-;-;-;-;-;-;-;-
1512469804425;-;-;9.178665;1.9251251;-0.31774902;-;-;-;-;-;-;-;-;-;-;-;-;-;-;-
1512469804446;-;-;9.846649;0.5269165;-0.36802673;-;-;-;-;-;-;-;-;-;-;-;-;-;-;-
1512469804466;-;-;8.770447;-0.43914795;-0.38478088;-;-;-;-;-;-;-;-;-;-;-;-;-;-;-
1512469804487;-;-;7.4045563;-0.9874115;0.010253906;-;-;-;-;-;-;-;-;-;-;-;-;-;-;-
1512469804507;-;-;5.055847;-0.9862213;0.6363373;-;-;-;-;-;-;-;-;-;-;-;-;-;-;-
1512469804527;-;-;3.7414246;-0.8485565;1.152298;-;-;-;-;-;-;-;-;-;-;-;-;-;-;-
1512469804548;-;-;4.166397;-0.40322876;0.42684937;-;-;-;-;-;-;-;-;-;-;-;-;-;-;-
1512469804568;-;-;6.554611;-0.5157623;0.2700348;-;-;-;-;-;-;-;-;-;-;-;-;-;-;-
1512469804589;-;-;7.125641;-0.660614;0.12637329;-;-;-;-;-;-;-;-;-;-;-;-;-;-;-
1512469804608;-;-;7.497925;-0.85453796;0.24848938;-;-;-;-;-;-;-;-;-;-;-;-;-;-;-
1512469804629;-;-;8.206619;-0.6103363;-0.159729;-;-;-;-;-;-;-;-;-;-;-;-;-;-;-
1512469804648;-;-;8.600464;-0.38887024;-0.5631561;-;-;-;-;-;-;-;-;-;-;-;-;-;-;-
1512469804669;-;-;8.223373;-0.40203857;0.3215027;-;-;-;-;-;-;-;-;-;-;-;-;-;-;-
1512469804689;-;-;7.691864;-0.60554504;1.081665;-;-;-;-;-;-;-;-;-;-;-;-;-;-;-
1512469804709;-;-;8.217392;0.0025787354;0.4986725;-;-;-;-;-;-;-;-;-;-;-;-;-;-;-
1512469804730;-;-;8.084518;0.16897583;-1.658493;-;-;-;-;-;-;-;-;-;-;-;-;-;-;-
1512469804750;-;-;7.5122986;1.1889191;-4.520767;-;-;-;-;-;-;-;-;-;-;-;-;-;-;-
1512469804771;-;-;8.254501;1.635437;-5.8734894;-;-;-;-;-;-;-;-;-;-;-;-;-;-;-
1512469804792;-;-;11.029373;1.9251251;-5.3707123;-;-;-;-;-;-;-;-;-;-;-;-;-;-;-
1512469804812;-;-;13.757568;4.565933;-4.4477386;-;-;-;-;-;-;-;-;-;-;-;-;-;-;-
1512469804832;-;-;18.13298;7.79451;-3.970108;-;-;-;-;-;-;-;-;-;-;-;-;-;-;-
1512469804853;-;-;19.480911;5.7738037;-2.4102783;-;-;-;-;-;-;-;-;-;-;-;-;-;-;-
1512469804873;-;-;16.497742;1.9035797;-2.0032654;-;-;-;-;-;-;-;-;-;-;-;-;-;-;-
1512469804894;-;-;12.889679;0.009765625;-0.9737549;-;-;-;-;-;-;-;-;-;-;-;-;-;-;-
1512469804915;-;-;10.8402405;-0.700119;-0.07234192;-;-;-;-;-;-;-;-;-;-;-;-;-;-;-
1512469804934;-;-;10.4487915;-0.67497253;-0.35125732;-;-;-;-;-;-;-;-;-;-;-;-;-;-;-
1512469804955;-;-;10.208176;0.85731506;-0.47576904;-;-;-;-;-;-;-;-;-;-;-;-;-;-;-
1512469804974;-;-;9.586868;1.8030243;-0.96777344;-;-;-;-;-;-;-;-;-;-;-;-;-;-;-
1512469804995;-;-;7.667923;3.0432281;-0.9749603;-;-;-;-;-;-;-;-;-;-;-;-;-;-;-
1512469805015;-;-;6.324768;2.3249664;-0.85284424;-;-;-;-;-;-;-;-;-;-;-;-;-;-;-
1512469805036;-;-;5.4592743;1.4750214;-0.9186859;-;-;-;-;-;-;-;-;-;-;-;-;-;-;-
1512469805057;-;-;4.9983826;1.3876343;-0.827713;-;-;-;-;-;-;-;-;-;-;-;-;-;-;-
1512469805077;-;-;5.0330963;1.4522705;-0.32133484;-;-;-;-;-;-;-;-;-;-;-;-;-;-;-
1512469805098;-;-;5.411392;1.6473999;0.33946228;-;-;-;-;-;-;-;-;-;-;-;-;-;-;-
1512469805118;-;-;5.613693;1.8305664;-0.5428009;-;-;-;-;-;-;-;-;-;-;-;-;-;-;-
1512469805138;-;-;5.9788055;1.7072601;-0.84088135;-;-;-;-;-;-;-;-;-;-;-;-;-;-;-
1512469805159;-;-;6.2266083;1.7575378;-0.5619507;-;-;-;-;-;-;-;-;-;-;-;-;-;-;-
1512469805179;-;-;6.387024;1.5528259;-0.63856506;-;-;-;-;-;-;-;-;-;-;-;-;-;-;-
1512469805200;-;-;6.501938;1.1577911;-1.0635376;-;-;-;-;-;-;-;-;-;-;-;-;-;-;-
1512469805220;-;-;6.675522;0.95547485;-0.5787201;-;-;-;-;-;-;-;-;-;-;-;-;-;-;-
1512469805241;-;-;6.8945923;0.79267883;-0.037628174;-;-;-;-;-;-;-;-;-;-;-;-;-;-;-
1512469805261;-;-;6.695877;0.8788605;-0.67807007;-;-;-;-;-;-;-;-;-;-;-;-;-;-;-
1512469805281;-;-;6.7808685;0.91477966;-1.0120697;-;-;-;-;-;-;-;-;-;-;-;-;-;-;-
1512469805302;-;-;7.0765533;0.8585205;-0.867218;-;-;-;-;-;-;-;-;-;-;-;-;-;-;-
1512469805321;-;-;6.807205;0.0025787354;0.091659546;-;-;-;-;-;-;-;-;-;-;-;-;-;-;-
1512469805342;-;-;5.885437;0.16659546;0.44241333;-;-;-;-;-;-;-;-;-;-;-;-;-;-;-
1512469805361;-;-;6.96402;0.730423;-2.3755646;-;-;-;-;-;-;-;-;-;-;-;-;-;-;-
1512469805381;-;-;9.876572;1.4917755;-4.7877197;-;-;-;-;-;-;-;-;-;-;-;-;-;-;-
1512469805402;-;-;13.215286;1.5815582;-5.666397;-;-;-;-;-;-;-;-;-;-;-;-;-;-;-
1512469805422;-;-;18.536392;0.576004;-6.6887207;-;-;-;-;-;-;-;-;-;-;-;-;-;-;-
1512469805443;-;-;21.331635;-2.2479706;-4.9205933;-;-;-;-;-;-;-;-;-;-;-;-;-;-;-
1512469805463;-;-;22.79808;-3.9550323;0.08807373;-;-;-;-;-;-;-;-;-;-;-;-;-;-;-
1512469805484;-;-;13.568436;-2.6430054;-0.15853882;-;-;-;-;-;-;-;-;-;-;-;-;-;-;-
1512469805505;-;-;7.458435;-0.30148315;-0.7235565;-;-;-;-;-;-;-;-;-;-;-;-;-;-;-
1512469805525;-;-;6.1763306;0.82499695;-0.020858765;-;-;-;-;-;-;-;-;-;-;-;-;-;-;-
1512469805545;-;-;8.4687805;1.6438141;-0.06755066;-;-;-;-;-;-;-;-;-;-;-;-;-;-;-
1512469805566;-;-;11.541733;1.1374359;-2.1624756;-;-;-;-;-;-;-;-;-;-;-;-;-;-;-
1512469805586;-;-;12.750809;-1.225647;-1.1904297;-;-;-;-;-;-;-;-;-;-;-;-;-;-;-
1512469805607;-;-;10.768417;-2.4263306;-0.33810425;-;-;-;-;-;-;-;-;-;-;-;-;-;-;-
1512469805628;-;-;8.714188;-1.740387;-0.06515503;-;-;-;-;-;-;-;-;-;-;-;-;-;-;-
1512469805648;-;-;6.178726;-0.39604187;0.40171814;-;-;-;-;-;-;-;-;-;-;-;-;-;-;-
1512469805668;-;-;5.023529;0.34136963;0.77041626;-;-;-;-;-;-;-;-;-;-;-;-;-;-;-
1512469805689;-;-;5.5873566;0.5376892;0.8697815;-;-;-;-;-;-;-;-;-;-;-;-;-;-;-
1512469805709;-;-;7.0574036;-0.062057495;-0.14416504;-;-;-;-;-;-;-;-;-;-;-;-;-;-;-
1512469805730;-;-;7.9576263;-0.8820648;-0.44943237;-;-;-;-;-;-;-;-;-;-;-;-;-;-;-
1512469805751;-;-;7.2680817;-1.6937103;-0.26387024;-;-;-;-;-;-;-;-;-;-;-;-;-;-;-
1512469805771;-;-;6.5953217;-2.1007233;0.44960022;-;-;-;-;-;-;-;-;-;-;-;-;-;-;-
1512469805791;-;-;6.560608;-1.9510803;1.3198853;-;-;-;-;-;-;-;-;-;-;-;-;-;-;-
1512469805811;-;-;6.3511047;-1.2028961;0.98350525;-;-;-;-;-;-;-;-;-;-;-;-;-;-;-
1512469805831;-;-;6.1667633;-0.48223877;0.2927704;-;-;-;-;-;-;-;-;-;-;-;-;-;-;-
1512469805851;-;-;6.5342712;-0.071640015;0.4807129;-;-;-;-;-;-;-;-;-;-;-;-;-;-;-
1512469805872;-;-;6.771286;-0.1530304;0.71055603;-;-;-;-;-;-;-;-;-;-;-;-;-;-;-
1512469805893;-;-;7.85347;-0.071640015;1.4671326;-;-;-;-;-;-;-;-;-;-;-;-;-;-;-
1512469805913;-;-;8.813553;-0.47146606;1.6443024;-;-;-;-;-;-;-;-;-;-;-;-;-;-;-
1512469805934;-;-;9.224152;-1.0532532;0.08088684;-;-;-;-;-;-;-;-;-;-;-;-;-;-;-
1512469805953;-;-;8.294006;-0.38887024;-3.1105804;-;-;-;-;-;-;-;-;-;-;-;-;-;-;-
1512469805974;-;-;7.9995117;1.0452576;-5.726242;-;-;-;-;-;-;-;-;-;-;-;-;-;-;-
1512469805994;-;-;11.05452;2.1920776;-6.345154;-;-;-;-;-;-;-;-;-;-;-;-;-;-;-
1512469806015;-;-;12.444351;3.1701202;-5.0905914;-;-;-;-;-;-;-;-;-;-;-;-;-;-;-
1512469806035;-;-;12.587997;7.058304;-6.2254333;-;-;-;-;-;-;-;-;-;-;-;-;-;-;-
1512469806056;-;-;16.872437;8.358353;-3.590622;-;-;-;-;-;-;-;-;-;-;-;-;-;-;-
1512469806076;-;-;17.366837;4.0954742;-3.4361877;-;-;-;-;-;-;-;-;-;-;-;-;-;-;-
1512469806096;-;-;14.266342;0.44192505;-1.0838928;-;-;-;-;-;-;-;-;-;-;-;-;-;-;-
1512469806117;-;-;13.182968;-1.7715149;-0.59547424;-;-;-;-;-;-;-;-;-;-;-;-;-;-;-
1512469806137;-;-;12.623917;-1.704483;-0.511673;-;-;-;-;-;-;-;-;-;-;-;-;-;-;-
1512469806157;-;-;11.596802;-0.58877563;-0.81573486;-;-;-;-;-;-;-;-;-;-;-;-;-;-;-
1512469806178;-;-;9.872986;1.0141296;0.094055176;-;-;-;-;-;-;-;-;-;-;-;-;-;-;-
1512469806198;-;-;7.8726196;2.160965;-0.1381836;-;-;-;-;-;-;-;-;-;-;-;-;-;-;-
1512469806219;-;-;6.062607;1.6617737;-0.27345276;-;-;-;-;-;-;-;-;-;-;-;-;-;-;-
1512469806239;-;-;5.8986053;0.5628357;-0.80856323;-;-;-;-;-;-;-;-;-;-;-;-;-;-;-
1512469806260;-;-;6.280487;0.27911377;-0.9474182;-;-;-;-;-;-;-;-;-;-;-;-;-;-;-
1512469806281;-;-;6.5989075;0.9483032;-0.5799103;-;-;-;-;-;-;-;-;-;-;-;-;-;-;-
1512469806300;-;-;6.082962;1.750351;0.07609558;-;-;-;-;-;-;-;-;-;-;-;-;-;-;-
1512469806321;-;-;5.437729;1.908371;0.11920166;-;-;-;-;-;-;-;-;-;-;-;-;-;-;-
1512469806341;-;-;5.367096;1.2822876;-0.33091736;-;-;-;-;-;-;-;-;-;-;-;-;-;-;-
1512469806362;-;-;5.237808;0.7184448;-0.24711609;-;-;-;-;-;-;-;-;-;-;-;-;-;-;-
1512469806382;-;-;4.684738;0.8226013;0.14193726;-;-;-;-;-;-;-;-;-;-;-;-;-;-;-
1512469806403;-;-;4.5710144;1.1972961;0.67225647;-;-;-;-;-;-;-;-;-;-;-;-;-;-;-
1512469806423;-;-;6.348709;1.7180328;0.8697815;-;-;-;-;-;-;-;-;-;-;-;-;-;-;-
1512469806444;-;-;9.151123;1.96344;-0.11303711;-;-;-;-;-;-;-;-;-;-;-;-;-;-;-
1512469806464;-;-;10.112396;1.6869049;-1.1293793;-;-;-;-;-;-;-;-;-;-;-;-;-;-;-
1512469806485;-;-;9.014664;1.2739105;0.12159729;-;-;-;-;-;-;-;-;-;-;-;-;-;-;-
1512469806506;-;-;6.1907043;1.161377;1.5700836;-;-;-;-;-;-;-;-;-;-;-;-;-;-;-
1512469806526;-;-;4.7673492;0.71006775;0.50346375;-;-;-;-;-;-;-;-;-;-;-;-;-;-;-
1512469806547;-;-;5.0067596;0.83695984;-1.777008;-;-;-;-;-;-;-;-;-;-;-;-;-;-;-
1512469806566;-;-;8.241333;1.671341;-3.3248596;-;-;-;-;-;-;-;-;-;-;-;-;-;-;-
1512469806586;-;-;12.427597;1.4055939;-5.7920837;-;-;-;-;-;-;-;-;-;-;-;-;-;-;-
1512469806607;-;-;19.369583;0.048080444;-5.7669525;-;-;-;-;-;-;-;-;-;-;-;-;-;-;-
1512469806628;-;-;22.167206;-3.6354065;-8.250931;-;-;-;-;-;-;-;-;-;-;-;-;-;-;-
1512469806647;-;-;23.852722;-5.041992;-3.990448;-;-;-;-;-;-;-;-;-;-;-;-;-;-;-
1512469806668;-;-;16.31218;-2.597519;-2.508438;-;-;-;-;-;-;-;-;-;-;-;-;-;-;-
1512469806687;-;-;11.830246;-0.86531067;-1.9733429;-;-;-;-;-;-;-;-;-;-;-;-;-;-;-
1512469806708;-;-;7.0142975;1.5288849;-1.6620941;-;-;-;-;-;-;-;-;-;-;-;-;-;-;-
1512469806728;-;-;8.764465;1.4355164;-1.6992035;-;-;-;-;-;-;-;-;-;-;-;-;-;-;-
1512469806749;-;-;11.207748;1.4690399;-2.1732483;-;-;-;-;-;-;-;-;-;-;-;-;-;-;-
1512469806768;-;-;11.405273;0.7627411;-2.179245;-;-;-;-;-;-;-;-;-;-;-;-;-;-;-
1512469806789;-;-;9.187042;-0.22247314;-0.7391205;-;-;-;-;-;-;-;-;-;-;-;-;-;-;-
1512469806809;-;-;6.8000183;-0.8270111;-0.20881653;-;-;-;-;-;-;-;-;-;-;-;-;-;-;-
1512469806830;-;-;5.1157074;0.87646484;0.37538147;-;-;-;-;-;-;-;-;-;-;-;-;-;-;-
1512469806850;-;-;5.1204834;-1.1190948;-1.2670441;-;-;-;-;-;-;-;-;-;-;-;-;-;-;-
1512469806871;-;-;5.368286;-1.3501434;0.19102478;-;-;-;-;-;-;-;-;-;-;-;-;-;-;-
1512469806891;-;-;7.0334625;-1.3956299;0.14553833;-;-;-;-;-;-;-;-;-;-;-;-;-;-;-
1512469806912;-;-;7.7493286;-0.9658661;-0.28303528;-;-;-;-;-;-;-;-;-;-;-;-;-;-;-
1512469806932;-;-;8.672287;-0.82221985;-0.8971405;-;-;-;-;-;-;-;-;-;-;-;-;-;-;-
1512469806953;-;-;8.156342;-0.74560547;-0.88038635;-;-;-;-;-;-;-;-;-;-;-;-;-;-;-
1512469806973;-;-;7.6427765;-0.5337219;-0.67807007;-;-;-;-;-;-;-;-;-;-;-;-;-;-;-
1512469806995;-;-;8.065353;-0.03453064;-0.042419434;-;-;-;-;-;-;-;-;-;-;-;-;-;-;-
1512469807015;-;-;9.280411;1.6833191;0.8434448;-;-;-;-;-;-;-;-;-;-;-;-;-;-;-
1512469807035;-;-;10.788757;3.5591736;1.5162201;-;-;-;-;-;-;-;-;-;-;-;-;-;-;-
1512469807056;-;-;11.860168;3.275467;1.2492523;-;-;-;-;-;-;-;-;-;-;-;-;-;-;-
1512469807077;-;-;9.643143;0.35333252;1.7747803;-;-;-;-;-;-;-;-;-;-;-;-;-;-;-
1512469807097;-;-;9.640747;-2.8991852;-0.7810211;-;-;-;-;-;-;-;-;-;-;-;-;-;-;-
1512469807118;-;-;11.636307;-5.373596;-4.2765656;-;-;-;-;-;-;-;-;-;-;-;-;-;-;-
1512469807138;-;-;13.916794;-5.198822;-6.8335724;-;-;-;-;-;-;-;-;-;-;-;-;-;-;-
1512469807160;-;-;12.732849;0.34735107;-6.160797;-;-;-;-;-;-;-;-;-;-;-;-;-;-;-
1512469807180;-;-;9.347458;3.6214294;-2.7167358;-;-;-;-;-;-;-;-;-;-;-;-;-;-;-
1512469807200;-;-;8.845871;2.3596802;-3.270996;-;-;-;-;-;-;-;-;-;-;-;-;-;-;-
1512469807220;-;-;10.447586;-0.43196106;-1.8991089;-;-;-;-;-;-;-;-;-;-;-;-;-;-;-
1512469807241;-;-;12.468292;-3.2092285;-1.440628;-;-;-;-;-;-;-;-;-;-;-;-;-;-;-
1512469807262;-;-;12.883682;-3.7886353;-1.5052643;-;-;-;-;-;-;-;-;-;-;-;-;-;-;-
1512469807283;-;-;10.004654;-1.8241882;-1.5399933;-;-;-;-;-;-;-;-;-;-;-;-;-;-;-
1512469807303;-;-;7.032257;-0.8066559;-1.361618;-;-;-;-;-;-;-;-;-;-;-;-;-;-;-
1512469807323;-;-;5.3455505;-0.19493103;-1.4681549;-;-;-;-;-;-;-;-;-;-;-;-;-;-;-
1512469807344;-;-;4.4956055;0.2013092;-1.526825;-;-;-;-;-;-;-;-;-;-;-;-;-;-;-
1512469807364;-;-;5.086975;0.38685608;-1.2766266;-;-;-;-;-;-;-;-;-;-;-;-;-;-;-
1512469807385;-;-;5.7489624;0.70529175;-1.179657;-;-;-;-;-;-;-;-;-;-;-;-;-;-;-
1512469807405;-;-;7.9671936;1.4115753;-2.0978394;-;-;-;-;-;-;-;-;-;-;-;-;-;-;-
1512469807426;-;-;9.459976;2.6098785;-2.7694092;-;-;-;-;-;-;-;-;-;-;-;-;-;-;-
1512469807446;-;-;10.002274;2.9713898;-2.4629517;-;-;-;-;-;-;-;-;-;-;-;-;-;-;-
1512469807466;-;-;9.153519;2.3094025;-1.7411041;-;-;-;-;-;-;-;-;-;-;-;-;-;-;-
1512469807487;-;-;8.198242;1.5947266;-1.3316956;-;-;-;-;-;-;-;-;-;-;-;-;-;-;-
1512469807507;-;-;7.738556;1.3253784;-1.1569061;-;-;-;-;-;-;-;-;-;-;-;-;-;-;-
1512469807528;-;-;8.050995;0.88365173;-1.219162;-;-;-;-;-;-;-;-;-;-;-;-;-;-;-
1512469807549;-;-;8.753693;0.75675964;-1.5292053;-;-;-;-;-;-;-;-;-;-;-;-;-;-;-
1512469807569;-;-;9.422867;1.200882;-0.98573303;-;-;-;-;-;-;-;-;-;-;-;-;-;-;-
1512469807589;-;-;9.295975;1.3576965;-0.05319214;-;-;-;-;-;-;-;-;-;-;-;-;-;-;-
1512469807609;-;-;8.938049;1.2918701;0.65789795;-;-;-;-;-;-;-;-;-;-;-;-;-;-;-
1512469807630;-;-;9.421677;1.1386414;0.52142334;-;-;-;-;-;-;-;-;-;-;-;-;-;-;-
1512469807651;-;-;9.2313385;0.8920288;0.44241333;-;-;-;-;-;-;-;-;-;-;-;-;-;-;-
1512469807671;-;-;8.534622;1.7563324;0.15270996;-;-;-;-;-;-;-;-;-;-;-;-;-;-;-
1512469807692;-;-;7.767273;2.4829865;0.18025208;-;-;-;-;-;-;-;-;-;-;-;-;-;-;-
1512469807712;-;-;7.7517242;3.0132904;-0.7774353;-;-;-;-;-;-;-;-;-;-;-;-;-;-;-
1512469807733;-;-;9.467163;2.897171;-2.8053284;-;-;-;-;-;-;-;-;-;-;-;-;-;-;-
1512469807752;-;-;12.650253;2.9474487;-4.51239;-;-;-;-;-;-;-;-;-;-;-;-;-;-;-
1512469807773;-;-;14.900803;1.9382935;-2.0774841;-;-;-;-;-;-;-;-;-;-;-;-;-;-;-
1512469807793;-;-;14.1214905;-0.7623596;-2.7981415;-;-;-;-;-;-;-;-;-;-;-;-;-;-;-
1512469807814;-;-;12.039734;-3.064392;-3.7498322;-;-;-;-;-;-;-;-;-;-;-;-;-;-;-
1512469807834;-;-;8.7608795;-3.6246338;-2.9729156;-;-;-;-;-;-;-;-;-;-;-;-;-;-;-
1512469807855;-;-;5.5514526;-2.22641;-2.9633331;-;-;-;-;-;-;-;-;-;-;-;-;-;-;-
1512469807874;-;-;5.754959;-0.41160583;-3.2135315;-;-;-;-;-;-;-;-;-;-;-;-;-;-;-
1512469807895;-;-;7.6894684;1.4822083;-3.7857513;-;-;-;-;-;-;-;-;-;-;-;-;-;-;-
1512469807915;-;-;9.465973;3.2431335;-3.0327759;-;-;-;-;-;-;-;-;-;-;-;-;-;-;-
1512469807936;-;-;10.812698;2.703247;-2.0619202;-;-;-;-;-;-;-;-;-;-;-;-;-;-;-
1512469807957;-;-;10.617584;0.26475525;-1.5483704;-;-;-;-;-;-;-;-;-;-;-;-;-;-;-
1512469807977;-;-;8.612427;-1.6446228;-0.89115906;-;-;-;-;-;-;-;-;-;-;-;-;-;-;-
1512469807997;-;-;7.976776;-2.5089264;-0.087905884;-;-;-;-;-;-;-;-;-;-;-;-;-;-;-
1512469808018;-;-;7.877411;-2.1126862;-0.4530182;-;-;-;-;-;-;-;-;-;-;-;-;-;-;-
1512469808037;-;-;7.590103;-0.799469;-1.282608;-;-;-;-;-;-;-;-;-;-;-;-;-;-;-
1512469808057;-;-;7.2201996;0.28988647;-1.3628082;-;-;-;-;-;-;-;-;-;-;-;-;-;-;-
1512469808078;-;-;7.545822;0.38087463;-0.84806824;-;-;-;-;-;-;-;-;-;-;-;-;-;-;-
1512469808099;-;-;8.1922455;0.19293213;-0.9522095;-;-;-;-;-;-;-;-;-;-;-;-;-;-;-
1512469808119;-;-;9.194229;-0.02734375;-0.78700256;-;-;-;-;-;-;-;-;-;-;-;-;-;-;-
1512469808139;-;-;9.880157;-0.42837524;-1.2945862;-;-;-;-;-;-;-;-;-;-;-;-;-;-;-
1512469808160;-;-;9.622787;-1.0101624;-1.6668854;-;-;-;-;-;-;-;-;-;-;-;-;-;-;-
1512469808180;-;-;8.815933;-0.9323425;-1.3723907;-;-;-;-;-;-;-;-;-;-;-;-;-;-;-
1512469808201;-;-;7.9983215;-0.7767334;-0.62420654;-;-;-;-;-;-;-;-;-;-;-;-;-;-;-
1512469808220;-;-;7.5913086;-0.9371338;-0.6433563;-;-;-;-;-;-;-;-;-;-;-;-;-;-;-
1512469808240;-;-;7.9600067;-0.8497467;-0.72595215;-;-;-;-;-;-;-;-;-;-;-;-;-;-;-
1512469808261;-;-;8.8602295;-0.5600586;-0.491333;-;-;-;-;-;-;-;-;-;-;-;-;-;-;-
1512469808281;-;-;10.034592;-0.13148499;-0.28781128;-;-;-;-;-;-;-;-;-;-;-;-;-;-;-
1512469808302;-;-;10.822281;0.6849365;-0.0340271;-;-;-;-;-;-;-;-;-;-;-;-;-;-;-
1512469808322;-;-;10.630753;1.2870789;0.34544373;-;-;-;-;-;-;-;-;-;-;-;-;-;-;-
1512469808343;-;-;9.843048;1.1865234;1.0278015;-;-;-;-;-;-;-;-;-;-;-;-;-;-;-
1512469808363;-;-;9.386963;0.3425598;1.4108734;-;-;-;-;-;-;-;-;-;-;-;-;-;-;-
1512469808384;-;-;9.137955;-0.7480011;2.1973572;-;-;-;-;-;-;-;-;-;-;-;-;-;-;-
1512469808403;-;-;9.300766;-1.9474945;2.738449;-;-;-;-;-;-;-;-;-;-;-;-;-;-;-
1512469808423;-;-;9.92804;-3.313385;-0.40753174;-;-;-;-;-;-;-;-;-;-;-;-;-;-;-
1512469808444;-;-;14.230423;-4.151352;-1.8452454;-;-;-;-;-;-;-;-;-;-;-;-;-;-;-
1512469808464;-;-;14.545258;-2.930313;-5.7669525;-;-;-;-;-;-;-;-;-;-;-;-;-;-;-
1512469808485;-;-;13.258377;-1.5644226;-7.227417;-;-;-;-;-;-;-;-;-;-;-;-;-;-;-
1512469808504;-;-;9.384567;0.007369995;-5.34317;-;-;-;-;-;-;-;-;-;-;-;-;-;-;-
1512469808525;-;-;5.647217;2.8049927;-5.2761383;-;-;-;-;-;-;-;-;-;-;-;-;-;-;-
1512469808544;-;-;5.3647003;4.4294586;-3.796524;-;-;-;-;-;-;-;-;-;-;-;-;-;-;-
1512469808565;-;-;6.774887;3.252716;-2.986084;-;-;-;-;-;-;-;-;-;-;-;-;-;-;-
1512469808585;-;-;8.914108;0.09715271;-2.3767548;-;-;-;-;-;-;-;-;-;-;-;-;-;-;-
1512469808606;-;-;11.231689;-2.519699;-1.618988;-;-;-;-;-;-;-;-;-;-;-;-;-;-;-
1512469808626;-;-;12.4335785;-3.704834;-2.3133087;-;-;-;-;-;-;-;-;-;-;-;-;-;-;-
1512469808647;-;-;10.333862;-1.1370544;-2.7035675;-;-;-;-;-;-;-;-;-;-;-;-;-;-;-
1512469808667;-;-;7.9863434;0.48980713;-2.3851318;-;-;-;-;-;-;-;-;-;-;-;-;-;-;-
1512469808687;-;-;6.6312256;0.6143036;-2.0044556;-;-;-;-;-;-;-;-;-;-;-;-;-;-;-
1512469808708;-;-;6.1092987;1.0584259;-1.3412628;-;-;-;-;-;-;-;-;-;-;-;-;-;-;-
1512469808728;-;-;7.0262756;2.1322327;-1.1257935;-;-;-;-;-;-;-;-;-;-;-;-;-;-;-
1512469808749;-;-;7.7972107;2.3489075;-1.7794037;-;-;-;-;-;-;-;-;-;-;-;-;-;-;-
1512469808769;-;-;8.987122;1.5743866;-1.4885101;-;-;-;-;-;-;-;-;-;-;-;-;-;-;-
1512469808789;-;-;9.292389;0.94111633;-1.0036774;-;-;-;-;-;-;-;-;-;-;-;-;-;-;-
1512469808810;-;-;8.995499;0.536499;-0.54759216;-;-;-;-;-;-;-;-;-;-;-;-;-;-;-
1512469808831;-;-;8.232956;0.21087646;-0.047195435;-;-;-;-;-;-;-;-;-;-;-;-;-;-;-
1512469808850;-;-;6.924515;-0.00819397;0.14672852;-;-;-;-;-;-;-;-;-;-;-;-;-;-;-
1512469808871;-;-;6.038666;0.009765625;0.065322876;-;-;-;-;-;-;-;-;-;-;-;-;-;-;-
1512469808891;-;-;5.805237;0.021743774;0.16348267;-;-;-;-;-;-;-;-;-;-;-;-;-;-;-
1512469808912;-;-;5.826782;0.21087646;-1.5603333;-;-;-;-;-;-;-;-;-;-;-;-;-;-;-
1512469808932;-;-;7.059799;0.79267883;-1.2419128;-;-;-;-;-;-;-;-;-;-;-;-;-;-;-
1512469808953;-;-;7.391388;1.8305664;-0.13220215;-;-;-;-;-;-;-;-;-;-;-;-;-;-;-
1512469808974;-;-;7.2633057;2.275879;-0.42549133;-;-;-;-;-;-;-;-;-;-;-;-;-;-;-
1512469808994;-;-;6.6575623;2.6529694;-1.2718353;-;-;-;-;-;-;-;-;-;-;-;-;-;-;-
1512469809015;-;-;5.6412354;2.3405304;-1.8033447;-;-;-;-;-;-;-;-;-;-;-;-;-;-;-
1512469809035;-;-;4.252594;1.9059753;-0.48054504;-;-;-;-;-;-;-;-;-;-;-;-;-;-;-
1512469809056;-;-;4.65242;2.3680573;0.59085083;-;-;-;-;-;-;-;-;-;-;-;-;-;-;-
1512469809076;-;-;6.4049835;3.785431;0.57888794;-;-;-;-;-;-;-;-;-;-;-;-;-;-;-
1512469809096;-;-;7.3578644;4.5324097;-0.8779907;-;-;-;-;-;-;-;-;-;-;-;-;-;-;-
1512469809117;-;-;7.301605;3.3496857;-1.8608093;-;-;-;-;-;-;-;-;-;-;-;-;-;-;-
1512469809138;-;-;6.5234985;1.1637726;-1.7997589;-;-;-;-;-;-;-;-;-;-;-;-;-;-;-
1512469809159;-;-;8.035431;-0.7563782;-4.2801514;-;-;-;-;-;-;-;-;-;-;-;-;-;-;-
1512469809178;-;-;13.337387;-1.5608215;-8.1623535;-;-;-;-;-;-;-;-;-;-;-;-;-;-;-
1512469809198;-;-;17.997711;-1.6218872;-6.7832947;-;-;-;-;-;-;-;-;-;-;-;-;-;-;-
1512469809219;-;-;25.526276;-4.9833374;-8.106079;-;-;-;-;-;-;-;-;-;-;-;-;-;-;-
1512469809239;-;-;24.977997;-3.9622192;-2.9429932;-;-;-;-;-;-;-;-;-;-;-;-;-;-;-
1512469809260;-;-;17.95581;-1.2914734;0.47712708;-;-;-;-;-;-;-;-;-;-;-;-;-;-;-
1512469809280;-;-;9.728134;1.2272186;-1.2048035;-;-;-;-;-;-;-;-;-;-;-;-;-;-;-
1512469809300;-;-;3.9461365;2.6685333;-0.25430298;-;-;-;-;-;-;-;-;-;-;-;-;-;-;-
1512469809321;-;-;4.699112;1.6976776;-2.100235;-;-;-;-;-;-;-;-;-;-;-;-;-;-;-
1512469809341;-;-;8.364639;0.48860168;-1.1976166;-;-;-;-;-;-;-;-;-;-;-;-;-;-;-
1512469809361;-;-;11.94397;-0.6031494;-0.72476196;-;-;-;-;-;-;-;-;-;-;-;-;-;-;-
1512469809382;-;-;12.731659;-1.5165405;-1.3269043;-;-;-;-;-;-;-;-;-;-;-;-;-;-;-
1512469809402;-;-;9.79158;-1.9690399;-1.5890656;-;-;-;-;-;-;-;-;-;-;-;-;-;-;-
1512469809423;-;-;6.625244;-1.9175568;-1.3688049;-;-;-;-;-;-;-;-;-;-;-;-;-;-;-
1512469809443;-;-;4.7912903;-0.878479;-0.109451294;-;-;-;-;-;-;-;-;-;-;-;-;-;-;-
1512469809464;-;-;4.67157;-0.112335205;0.67944336;-;-;-;-;-;-;-;-;-;-;-;-;-;-;-
1512469809484;-;-;4.581787;0.06124878;0.17425537;-;-;-;-;-;-;-;-;-;-;-;-;-;-;-
1512469809505;-;-;5.102539;-0.60913086;-0.21838379;-;-;-;-;-;-;-;-;-;-;-;-;-;-;-
1512469809525;-;-;6.163162;-1.0640259;-0.49012756;-;-;-;-;-;-;-;-;-;-;-;-;-;-;-
1512469809546;-;-;7.33992;-1.7918701;-0.09269714;-;-;-;-;-;-;-;-;-;-;-;-;-;-;-
1512469809567;-;-;8.084518;-2.4442902;0.70098877;-;-;-;-;-;-;-;-;-;-;-;-;-;-;-
1512469809587;-;-;7.2549133;-1.9043884;-0.47216797;-;-;-;-;-;-;-;-;-;-;-;-;-;-;-
1512469809608;-;-;6.525879;-1.3357697;-0.14416504;-;-;-;-;-;-;-;-;-;-;-;-;-;-;-
1512469809628;-;-;6.1368256;0.010971069;0.5441742;-;-;-;-;-;-;-;-;-;-;-;-;-;-;-
1512469809649;-;-;6.284073;0.75675964;2.1985626;-;-;-;-;-;-;-;-;-;-;-;-;-;-;-
1512469809670;-;-;7.118454;-0.5732269;1.6634521;-;-;-;-;-;-;-;-;-;-;-;-;-;-;-
1512469809690;-;-;7.2668915;-2.2707062;-0.83369446;-;-;-;-;-;-;-;-;-;-;-;-;-;-;-
1512469809710;-;-;8.155136;-3.2176208;-1.6752625;-;-;-;-;-;-;-;-;-;-;-;-;-;-;-
1512469809731;-;-;8.964386;-1.6685638;0.30833435;-;-;-;-;-;-;-;-;-;-;-;-;-;-;-
1512469809750;-;-;9.8598175;-0.8425598;-4.0562897;-;-;-;-;-;-;-;-;-;-;-;-;-;-;-
1512469809770;-;-;13.133881;-1.028122;-7.63443;-;-;-;-;-;-;-;-;-;-;-;-;-;-;-
1512469809791;-;-;13.643845;-0.38168335;-6.966446;-;-;-;-;-;-;-;-;-;-;-;-;-;-;-
1512469809812;-;-;13.592377;6.9038696;-9.45282;-;-;-;-;-;-;-;-;-;-;-;-;-;-;-
1512469809831;-;-;23.326004;9.4944;-6.9006042;-;-;-;-;-;-;-;-;-;-;-;-;-;-;-
1512469809851;-;-;17.473373;9.183151;-2.3779602;-;-;-;-;-;-;-;-;-;-;-;-;-;-;-
1512469809872;-;-;14.629059;1.853302;-4.0119934;-;-;-;-;-;-;-;-;-;-;-;-;-;-;-
1512469809892;-;-;8.775238;-0.9371338;-1.282608;-;-;-;-;-;-;-;-;-;-;-;-;-;-;-
1512469809912;-;-;7.849884;-1.2220459;0.44839478;-;-;-;-;-;-;-;-;-;-;-;-;-;-;-
1512469809933;-;-;9.167892;-0.07522583;-0.3620453;-;-;-;-;-;-;-;-;-;-;-;-;-;-;-
1512469809953;-;-;10.040573;1.2763062;-0.19923401;-;-;-;-;-;-;-;-;-;-;-;-;-;-;-
1512469809974;-;-;9.541382;2.6625366;-0.97016907;-;-;-;-;-;-;-;-;-;-;-;-;-;-;-
1512469809994;-;-;7.708618;3.4179077;-1.4286499;-;-;-;-;-;-;-;-;-;-;-;-;-;-;-
1512469810015;-;-;5.1312714;1.9993439;-1.48732;-;-;-;-;-;-;-;-;-;-;-;-;-;-;-
1512469810035;-;-;4.2908936;-0.035720825;-1.0384064;-;-;-;-;-;-;-;-;-;-;-;-;-;-;-
1512469810056;-;-;4.675171;-0.24641418;0.10482788;-;-;-;-;-;-;-;-;-;-;-;-;-;-;-
1512469810076;-;-;5.6029205;1.3517151;0.83865356;-;-;-;-;-;-;-;-;-;-;-;-;-;-;-
1512469810097;-;-;6.1691437;2.097519;0.25805664;-;-;-;-;-;-;-;-;-;-;-;-;-;-;-
1512469810117;-;-;5.7333984;1.9047852;0.03300476;-;-;-;-;-;-;-;-;-;-;-;-;-;-;-
1512469810138;-;-;5.5119476;1.651001;-0.42668152;-;-;-;-;-;-;-;-;-;-;-;-;-;-;-
1512469810158;-;-;5.7681274;1.1110992;-1.1605072;-;-;-;-;-;-;-;-;-;-;-;-;-;-;-
1512469810179;-;-;6.2864685;0.36291504;-1.0635376;-;-;-;-;-;-;-;-;-;-;-;-;-;-;-
1512469810200;-;-;6.572571;-0.49661255;-0.98573303;-;-;-;-;-;-;-;-;-;-;-;-;-;-;-
1512469810220;-;-;6.4959564;-1.4494934;-0.38119507;-;-;-;-;-;-;-;-;-;-;-;-;-;-;-
1512469810241;-;-;5.8902283;-0.77433777;0.0054779053;-;-;-;-;-;-;-;-;-;-;-;-;-;-;-
1512469810261;-;-;6.7210083;0.9973755;0.61839294;-;-;-;-;-;-;-;-;-;-;-;-;-;-;-
1512469810281;-;-;6.5869446;3.4574127;-0.28901672;-;-;-;-;-;-;-;-;-;-;-;-;-;-;-
1512469810302;-;-;6.364273;3.7291565;-2.5287933;-;-;-;-;-;-;-;-;-;-;-;-;-;-;-
1512469810322;-;-;8.135986;1.8150024;-4.3316193;-;-;-;-;-;-;-;-;-;-;-;-;-;-;-
1512469810343;-;-;10.828262;-0.625885;-5.5933685;-;-;-;-;-;-;-;-;-;-;-;-;-;-;-
1512469810363;-;-;15.751938;-1.9211578;-4.053894;-;-;-;-;-;-;-;-;-;-;-;-;-;-;-
1512469810384;-;-;18.511261;-2.6561737;-4.345993;-;-;-;-;-;-;-;-;-;-;-;-;-;-;-
1512469810404;-;-;24.462051;-3.344513;-4.7003326;-;-;-;-;-;-;-;-;-;-;-;-;-;-;-
1512469810423;-;-;21.265793;-0.05607605;-1.5471649;-;-;-;-;-;-;-;-;-;-;-;-;-;-;-
1512469810443;-;-;12.847778;1.0524445;-1.2670441;-;-;-;-;-;-;-;-;-;-;-;-;-;-;-
1512469810464;-;-;9.020645;1.4008026;-0.97016907;-;-;-;-;-;-;-;-;-;-;-;-;-;-;-
1512469810484;-;-;7.5589905;0.98301697;-0.43865967;-;-;-;-;-;-;-;-;-;-;-;-;-;-;-
1512469810505;-;-;7.7253876;0.1330719;-0.025650024;-;-;-;-;-;-;-;-;-;-;-;-;-;-;-
1512469810526;-;-;7.213028;-1.3441467;-0.34169006;-;-;-;-;-;-;-;-;-;-;-;-;-;-;-
1512469810546;-;-;7.3111877;-2.614273;-0.39794922;-;-;-;-;-;-;-;-;-;-;-;-;-;-;-
1512469810567;-;-;6.13443;-2.5460358;-0.1309967;-;-;-;-;-;-;-;-;-;-;-;-;-;-;-
1512469810587;-;-;4.8834686;-1.6470184;-0.059173584;-;-;-;-;-;-;-;-;-;-;-;-;-;-;-
1512469810607;-;-;4.5111694;-0.20930481;0.16468811;-;-;-;-;-;-;-;-;-;-;-;-;-;-;-
1512469810628;-;-;4.754181;0.61190796;0.36340332;-;-;-;-;-;-;-;-;-;-;-;-;-;-;-
1512469810648;-;-;6.9161377;0.53889465;0.6100006;-;-;-;-;-;-;-;-;-;-;-;-;-;-;-
1512469810669;-;-;7.8438873;-0.3397827;-0.5499878;-;-;-;-;-;-;-;-;-;-;-;-;-;-;-
1512469810688;-;-;7.0214844;-0.97184753;-0.040023804;-;-;-;-;-;-;-;-;-;-;-;-;-;-;-
1512469810709;-;-;4.659607;-0.35653687;1.4683228;-;-;-;-;-;-;-;-;-;-;-;-;-;-;-
1512469810728;-;-;4.8762817;0.064834595;1.9699097;-;-;-;-;-;-;-;-;-;-;-;-;-;-;-
1512469810749;-;-;5.352722;-0.25837708;0.99427795;-;-;-;-;-;-;-;-;-;-;-;-;-;-;-
1512469810769;-;-;6.924515;-1.9486847;0.2448883;-;-;-;-;-;-;-;-;-;-;-;-;-;-;-
1512469810789;-;-;7.9384613;-2.2180328;-0.8935547;-;-;-;-;-;-;-;-;-;-;-;-;-;-;-
1512469810810;-;-;8.780029;-0.76475525;-0.07713318;-;-;-;-;-;-;-;-;-;-;-;-;-;-;-
1512469810830;-;-;8.958389;0.33299255;-3.3907013;-;-;-;-;-;-;-;-;-;-;-;-;-;-;-
1512469810851;-;-;9.205002;-0.5720215;-7.2010803;-;-;-;-;-;-;-;-;-;-;-;-;-;-;-
1512469810871;-;-;9.691025;-1.1442413;-7.0634155;-;-;-;-;-;-;-;-;-;-;-;-;-;-;-
1512469810891;-;-;15.352112;2.646988;-7.3447266;-;-;-;-;-;-;-;-;-;-;-;-;-;-;-
1512469810912;-;-;26.133194;7.6688232;-9.476761;-;-;-;-;-;-;-;-;-;-;-;-;-;-;-
1512469810932;-;-;21.593796;10.064224;-2.895111;-;-;-;-;-;-;-;-;-;-;-;-;-;-;-
1512469810953;-;-;16.434296;3.3053894;-3.598999;-;-;-;-;-;-;-;-;-;-;-;-;-;-;-
1512469810973;-;-;10.5720825;-0.5827942;-2.8496094;-;-;-;-;-;-;-;-;-;-;-;-;-;-;-
1512469810994;-;-;7.53743;-1.6063232;-1.9924927;-;-;-;-;-;-;-;-;-;-;-;-;-;-;-
1512469811014;-;-;8.831497;-1.5883636;-1.3975372;-;-;-;-;-;-;-;-;-;-;-;-;-;-;-
1512469811034;-;-;10.1961975;-0.02494812;-0.7343445;-;-;-;-;-;-;-;-;-;-;-;-;-;-;-
1512469811055;-;-;9.779602;2.0304718;-1.6908264;-;-;-;-;-;-;-;-;-;-;-;-;-;-;-
1512469811074;-;-;7.356674;3.44664;-1.768631;-;-;-;-;-;-;-;-;-;-;-;-;-;-;-
1512469811095;-;-;5.1731567;2.921112;-1.5651245;-;-;-;-;-;-;-;-;-;-;-;-;-;-;-
1512469811116;-;-;4.2873077;1.3409424;-1.1844482;-;-;-;-;-;-;-;-;-;-;-;-;-;-;-
1512469811136;-;-;4.900223;-0.062057495;-0.5404053;-;-;-;-;-;-;-;-;-;-;-;-;-;-;-
1512469811156;-;-;6.1918945;0.28988647;0.113204956;-;-;-;-;-;-;-;-;-;-;-;-;-;-;-
1512469811177;-;-;5.886627;0.73760986;0.171875;-;-;-;-;-;-;-;-;-;-;-;-;-;-;-
1512469811197;-;-;5.138443;1.5528259;-0.32014465;-;-;-;-;-;-;-;-;-;-;-;-;-;-;-
1512469811218;-;-;4.15802;2.5583954;-0.9258728;-;-;-;-;-;-;-;-;-;-;-;-;-;-;-
1512469811238;-;-;4.6260834;2.248352;-0.9162903;-;-;-;-;-;-;-;-;-;-;-;-;-;-;-
1512469811259;-;-;5.1887207;0.60832214;-0.98812866;-;-;-;-;-;-;-;-;-;-;-;-;-;-;-
1512469811278;-;-;5.7693176;-0.24520874;-1.3807678;-;-;-;-;-;-;-;-;-;-;-;-;-;-;-
1512469811299;-;-;6.9269104;0.33299255;-1.6154022;-;-;-;-;-;-;-;-;-;-;-;-;-;-;-
1512469811319;-;-;7.205841;1.7204285;-1.5387878;-;-;-;-;-;-;-;-;-;-;-;-;-;-;-
1512469811339;-;-;6.5163116;2.667328;-0.56674194;-;-;-;-;-;-;-;-;-;-;-;-;-;-;-
1512469811360;-;-;6.5426483;2.9091492;-1.2179718;-;-;-;-;-;-;-;-;-;-;-;-;-;-;-
1512469811381;-;-;7.9181213;2.892395;-4.231064;-;-;-;-;-;-;-;-;-;-;-;-;-;-;-
1512469811401;-;-;11.104797;2.0639954;-6.5737915;-;-;-;-;-;-;-;-;-;-;-;-;-;-;-
1512469811422;-;-;13.510971;0.62268066;-4.714691;-;-;-;-;-;-;-;-;-;-;-;-;-;-;-
1512469811442;-;-;19.798141;-4.5918884;-2.3145142;-;-;-;-;-;-;-;-;-;-;-;-;-;-;-
1512469811462;-;-;23.637253;-8.079041;-4.2167053;-;-;-;-;-;-;-;-;-;-;-;-;-;-;-
1512469811483;-;-;19.35402;-3.7850342;-1.7973633;-;-;-;-;-;-;-;-;-;-;-;-;-;-;-
1512469811504;-;-;12.298309;-0.30148315;-0.18367004;-;-;-;-;-;-;-;-;-;-;-;-;-;-;-
1512469811523;-;-;9.029022;2.5045319;-0.47216797;-;-;-;-;-;-;-;-;-;-;-;-;-;-;-
1512469811544;-;-;8.296402;3.355667;-1.1808624;-;-;-;-;-;-;-;-;-;-;-;-;-;-;-
1512469811564;-;-;9.076904;1.9586487;-1.6800537;-;-;-;-;-;-;-;-;-;-;-;-;-;-;-
1512469811585;-;-;10.171051;0.2300415;-1.447815;-;-;-;-;-;-;-;-;-;-;-;-;-;-;-
1512469811604;-;-;10.714539;-1.8397522;-1.0563507;-;-;-;-;-;-;-;-;-;-;-;-;-;-;-
1512469811625;-;-;8.746506;-2.0779724;-0.68644714;-;-;-;-;-;-;-;-;-;-;-;-;-;-;-
1512469811644;-;-;6.78685;-1.443512;0.11201477;-;-;-;-;-;-;-;-;-;-;-;-;-;-;-
1512469811665;-;-;4.9265594;-0.5851898;0.1479187;-;-;-;-;-;-;-;-;-;-;-;-;-;-;-
1512469811684;-;-;3.6923523;-0.25120544;0.18144226;-;-;-;-;-;-;-;-;-;-;-;-;-;-;-
1512469811705;-;-;3.8036804;-0.11592102;0.40649414;-;-;-;-;-;-;-;-;-;-;-;-;-;-;-
1512469811726;-;-;5.6460114;-0.17098999;0.091659546;-;-;-;-;-;-;-;-;-;-;-;-;-;-;-
1512469811746;-;-;6.703064;-0.17098999;-0.6266022;-;-;-;-;-;-;-;-;-;-;-;-;-;-;-
1512469811766;-;-;6.9340973;-0.4559021;0.072509766;-;-;-;-;-;-;-;-;-;-;-;-;-;-;-
1512469811786;-;-;6.731781;-1.0065765;0.006668091;-;-;-;-;-;-;-;-;-;-;-;-;-;-;-
1512469811806;-;-;7.0178986;-1.5093536;0.14553833;-;-;-;-;-;-;-;-;-;-;-;-;-;-;-
1512469811827;-;-;6.5821533;-1.5332947;0.07369995;-;-;-;-;-;-;-;-;-;-;-;-;-;-;-
1512469811846;-;-;6.3846283;-1.3537292;0.5597229;-;-;-;-;-;-;-;-;-;-;-;-;-;-;-
