TimeStamp[ms];Prox[Cm];Lux[lux];AccX[m/s^2];AccY[m/s^2];AccZ[m/s^2];GyroX[rad/s];GyroY[rad/s];GyroZ[rad/s];MagnX[uT];MagnY[uT];MagnZ[uT];OrienYaw[degrees];OrienPitch[degrees];OrienRoll[degrees];Press[Pa];Temp[C°];Batt[%];Lat;Lng;Speed[m/s]
1512469848316;-;-;8.831497;0.6238861;-0.21000671;-;-;-;-;-;-;-;-;-;-;-;-;-;-;-
1512469848348;-;-;9.3151245;0.6071167;-0.15254211;-;-;-;-;-;-;-;-;-;-;-;-;-;-;-
1512469848355;-;-;9.3893585;0.70648193;-0.037628174;-;-;-;-;-;-;-;-;-;-;-;-;-;-;-
1512469848375;-;-;9.163101;0.83218384;0.007858276;-;-;-;-;-;-;-;-;-;-;-;-;-;-;-
1512469848395;-;-;9.366608;1.0189209;-0.073532104;-;-;-;-;-;-;-;-;-;-;-;-;-;-;-
1512469848416;-;-;9.127182;0.9171753;-0.21838379;-;-;-;-;-;-;-;-;-;-;-;-;-;-;-
1512469848436;-;-;9.099655;1.0261078;-0.08909607;-;-;-;-;-;-;-;-;-;-;-;-;-;-;-
1512469848457;-;-;9.086487;0.98062134;-0.12980652;-;-;-;-;-;-;-;-;-;-;-;-;-;-;-
1512469848479;-;-;8.687851;1.1326447;-0.061569214;-;-;-;-;-;-;-;-;-;-;-;-;-;-;-
1512469848497;-;-;9.657501;0.675354;-0.059173584;-;-;-;-;-;-;-;-;-;-;-;-;-;-;-
1512469848518;-;-;9.318726;0.848938;0.08088684;-;-;-;-;-;-;-;-;-;-;-;-;-;-;-
1512469848539;-;-;9.173874;0.23123169;0.39572144;-;-;-;-;-;-;-;-;-;-;-;-;-;-;-
1512469848560;-;-;9.006287;0.61190796;0.25805664;-;-;-;-;-;-;-;-;-;-;-;-;-;-;-
1512469848594;-;-;9.100845;0.7795105;0.3215027;-;-;-;-;-;-;-;-;-;-;-;-;-;-;-
1512469848599;-;-;9.343857;0.68133545;0.45439148;-;-;-;-;-;-;-;-;-;-;-;-;-;-;-
1512469848620;-;-;9.263657;0.7424011;-0.121414185;-;-;-;-;-;-;-;-;-;-;-;-;-;-;-
1512469848640;-;-;9.124786;0.80345154;0.16947937;-;-;-;-;-;-;-;-;-;-;-;-;-;-;-
1512469848661;-;-;8.806366;0.54008484;-0.19085693;-;-;-;-;-;-;-;-;-;-;-;-;-;-;-
1512469848682;-;-;8.569336;0.675354;1.37854;-;-;-;-;-;-;-;-;-;-;-;-;-;-;-
1512469848702;-;-;8.709396;0.52093506;0.14433289;-;-;-;-;-;-;-;-;-;-;-;-;-;-;-
1512469848723;-;-;9.925659;0.44432068;0.9200592;-;-;-;-;-;-;-;-;-;-;-;-;-;-;-
1512469848742;-;-;9.849045;0.46228027;-0.4637909;-;-;-;-;-;-;-;-;-;-;-;-;-;-;-
1512469848762;-;-;7.858261;0.9004059;-2.3600006;-;-;-;-;-;-;-;-;-;-;-;-;-;-;-
1512469848783;-;-;8.598068;1.2559509;5.2248383;-;-;-;-;-;-;-;-;-;-;-;-;-;-;-
1512469848803;-;-;9.327103;0.84295654;-0.83369446;-;-;-;-;-;-;-;-;-;-;-;-;-;-;-
1512469848824;-;-;9.1918335;0.68733215;0.13237;-;-;-;-;-;-;-;-;-;-;-;-;-;-;-
1512469848844;-;-;9.216965;0.6849365;0.42445374;-;-;-;-;-;-;-;-;-;-;-;-;-;-;-
1512469848864;-;-;8.977554;0.7411957;0.23292542;-;-;-;-;-;-;-;-;-;-;-;-;-;-;-
1512469848885;-;-;9.129578;0.75675964;0.16229248;-;-;-;-;-;-;-;-;-;-;-;-;-;-;-
1512469848906;-;-;9.245697;0.79745483;0.22692871;-;-;-;-;-;-;-;-;-;-;-;-;-;-;-
1512469848926;-;-;9.153519;0.7902832;0.22813416;-;-;-;-;-;-;-;-;-;-;-;-;-;-;-
1512469848945;-;-;9.105637;0.7795105;0.18623352;-;-;-;-;-;-;-;-;-;-;-;-;-;-;-
1512469848966;-;-;9.094864;0.88604736;0.05455017;-;-;-;-;-;-;-;-;-;-;-;-;-;-;-
1512469848986;-;-;9.030228;0.9566803;0.42326355;-;-;-;-;-;-;-;-;-;-;-;-;-;-;-
1512469849006;-;-;9.369003;1.0213165;-0.31774902;-;-;-;-;-;-;-;-;-;-;-;-;-;-;-
1512469849027;-;-;9.440826;0.6897278;-0.590683;-;-;-;-;-;-;-;-;-;-;-;-;-;-;-
1512469849047;-;-;8.722565;0.90400696;0.4280548;-;-;-;-;-;-;-;-;-;-;-;-;-;-;-
1512469849068;-;-;8.708206;0.8668976;0.54655457;-;-;-;-;-;-;-;-;-;-;-;-;-;-;-
1512469849088;-;-;9.65152;0.80703735;0.006668091;-;-;-;-;-;-;-;-;-;-;-;-;-;-;-
1512469849108;-;-;9.148727;0.79267883;0.20777893;-;-;-;-;-;-;-;-;-;-;-;-;-;-;-
1512469849129;-;-;8.8997345;0.59754944;0.23292542;-;-;-;-;-;-;-;-;-;-;-;-;-;-;-
1512469849150;-;-;9.096069;0.68014526;0.0856781;-;-;-;-;-;-;-;-;-;-;-;-;-;-;-
1512469849170;-;-;9.090073;0.8561249;-0.08909607;-;-;-;-;-;-;-;-;-;-;-;-;-;-;-
1512469849191;-;-;9.448013;0.73161316;0.39093018;-;-;-;-;-;-;-;-;-;-;-;-;-;-;-
1512469849211;-;-;9.33548;0.59036255;0.015045166;-;-;-;-;-;-;-;-;-;-;-;-;-;-;-
1512469849232;-;-;9.15831;0.47305298;-0.107055664;-;-;-;-;-;-;-;-;-;-;-;-;-;-;-
1512469849252;-;-;9.627579;1.0153351;0.10482788;-;-;-;-;-;-;-;-;-;-;-;-;-;-;-
1512469849272;-;-;9.163101;1.2595367;-0.011291504;-;-;-;-;-;-;-;-;-;-;-;-;-;-;-
1512469849293;-;-;9.613205;0.6394501;0.60162354;-;-;-;-;-;-;-;-;-;-;-;-;-;-;-
1512469849312;-;-;8.220978;0.6166992;-0.073532104;-;-;-;-;-;-;-;-;-;-;-;-;-;-;-
1512469849333;-;-;8.826721;1.1972961;0.096450806;-;-;-;-;-;-;-;-;-;-;-;-;-;-;-
1512469849353;-;-;9.33548;1.1865234;-0.087905884;-;-;-;-;-;-;-;-;-;-;-;-;-;-;-
1512469849374;-;-;10.177048;0.60832214;0.1431427;-;-;-;-;-;-;-;-;-;-;-;-;-;-;-
1512469849394;-;-;8.764465;0.8046417;-0.15853882;-;-;-;-;-;-;-;-;-;-;-;-;-;-;-
1512469849414;-;-;8.455612;1.4462891;-0.03642273;-;-;-;-;-;-;-;-;-;-;-;-;-;-;-
1512469849435;-;-;8.286819;1.1745453;-0.60624695;-;-;-;-;-;-;-;-;-;-;-;-;-;-;-
1512469849455;-;-;8.789597;1.5588226;0.11201477;-;-;-;-;-;-;-;-;-;-;-;-;-;-;-
1512469849475;-;-;9.12001;1.101532;-0.13937378;-;-;-;-;-;-;-;-;-;-;-;-;-;-;-
1512469849496;-;-;6.4049835;1.7120514;-0.04600525;-;-;-;-;-;-;-;-;-;-;-;-;-;-;-
1512469849517;-;-;7.921707;1.758728;-0.31414795;-;-;-;-;-;-;-;-;-;-;-;-;-;-;-
1512469849537;-;-;7.312378;2.1046906;-0.16212463;-;-;-;-;-;-;-;-;-;-;-;-;-;-;-
1512469849558;-;-;9.355835;3.156952;0.5657196;-;-;-;-;-;-;-;-;-;-;-;-;-;-;-
1512469849578;-;-;12.139099;2.363266;0.72732544;-;-;-;-;-;-;-;-;-;-;-;-;-;-;-
1512469849598;-;-;12.906433;1.8808441;-0.40753174;-;-;-;-;-;-;-;-;-;-;-;-;-;-;-
1512469849619;-;-;9.57251;2.315384;-2.105011;-;-;-;-;-;-;-;-;-;-;-;-;-;-;-
1512469849638;-;-;7.5158844;0.36410522;-1.3400726;-;-;-;-;-;-;-;-;-;-;-;-;-;-;-
1512469849658;-;-;5.106125;0.8776703;-0.7774353;-;-;-;-;-;-;-;-;-;-;-;-;-;-;-
1512469849679;-;-;8.934448;1.9335022;1.6359253;-;-;-;-;-;-;-;-;-;-;-;-;-;-;-
1512469849700;-;-;11.43161;0.44432068;-0.4637909;-;-;-;-;-;-;-;-;-;-;-;-;-;-;-
1512469849720;-;-;7.8833923;1.5432587;-0.0041046143;-;-;-;-;-;-;-;-;-;-;-;-;-;-;-
1512469849740;-;-;9.439636;1.288269;-0.42907715;-;-;-;-;-;-;-;-;-;-;-;-;-;-;-
1512469849761;-;-;9.43364;1.2894745;-0.17408752;-;-;-;-;-;-;-;-;-;-;-;-;-;-;-
1512469849781;-;-;9.067337;1.0895538;-0.102264404;-;-;-;-;-;-;-;-;-;-;-;-;-;-;-
1512469849801;-;-;9.09845;1.1087036;-0.10824585;-;-;-;-;-;-;-;-;-;-;-;-;-;-;-
1512469849822;-;-;9.210983;1.1601868;-0.11903381;-;-;-;-;-;-;-;-;-;-;-;-;-;-;-
1512469849842;-;-;9.175064;1.1996918;-0.083114624;-;-;-;-;-;-;-;-;-;-;-;-;-;-;-
1512469849863;-;-;9.092468;1.2140503;0.12997437;-;-;-;-;-;-;-;-;-;-;-;-;-;-;-
1512469849883;-;-;8.9991;1.1470184;-0.01727295;-;-;-;-;-;-;-;-;-;-;-;-;-;-;-
1512469849903;-;-;8.903336;1.0787811;0.004272461;-;-;-;-;-;-;-;-;-;-;-;-;-;-;-
1512469849922;-;-;8.862625;1.1194763;0.0856781;-;-;-;-;-;-;-;-;-;-;-;-;-;-;-
1512469849942;-;-;8.966782;1.0787811;0.05455017;-;-;-;-;-;-;-;-;-;-;-;-;-;-;-
1512469849963;-;-;9.008667;0.9901886;-0.03163147;-;-;-;-;-;-;-;-;-;-;-;-;-;-;-
1512469849984;-;-;8.975159;1.0189209;-0.121414185;-;-;-;-;-;-;-;-;-;-;-;-;-;-;-
1512469850004;-;-;8.987122;1.0871582;-0.1309967;-;-;-;-;-;-;-;-;-;-;-;-;-;-;-
1512469850025;-;-;9.137955;1.1733551;-0.2973938;-;-;-;-;-;-;-;-;-;-;-;-;-;-;-
1512469850045;-;-;9.282806;1.1721497;-0.40274048;-;-;-;-;-;-;-;-;-;-;-;-;-;-;-
1512469850065;-;-;9.289993;1.1733551;-0.43626404;-;-;-;-;-;-;-;-;-;-;-;-;-;-;-
1512469850086;-;-;9.213379;1.1518097;-0.46618652;-;-;-;-;-;-;-;-;-;-;-;-;-;-;-
1512469850105;-;-;9.141556;1.109909;-0.412323;-;-;-;-;-;-;-;-;-;-;-;-;-;-;-
1512469850126;-;-;9.029022;1.1733551;-0.3656311;-;-;-;-;-;-;-;-;-;-;-;-;-;-;-
1512469850145;-;-;9.050568;1.1518097;-0.3476715;-;-;-;-;-;-;-;-;-;-;-;-;-;-;-
1512469850165;-;-;9.091278;1.1769409;-0.35604858;-;-;-;-;-;-;-;-;-;-;-;-;-;-;-
1512469850186;-;-;9.106842;1.1865234;-0.31774902;-;-;-;-;-;-;-;-;-;-;-;-;-;-;-
1512469850206;-;-;9.084091;1.1374359;-0.3249359;-;-;-;-;-;-;-;-;-;-;-;-;-;-;-
1512469850227;-;-;9.080505;1.1793365;-0.38119507;-;-;-;-;-;-;-;-;-;-;-;-;-;-;-
1512469850247;-;-;9.127182;1.2427826;-0.5691376;-;-;-;-;-;-;-;-;-;-;-;-;-;-;-
1512469850268;-;-;9.135559;1.2727051;-0.5679474;-;-;-;-;-;-;-;-;-;-;-;-;-;-;-
1512469850288;-;-;9.106842;1.2272186;-0.55836487;-;-;-;-;-;-;-;-;-;-;-;-;-;-;-
1512469850309;-;-;9.100845;1.2379913;-0.575119;-;-;-;-;-;-;-;-;-;-;-;-;-;-;-
1512469850329;-;-;9.037399;1.2308044;-0.51646423;-;-;-;-;-;-;-;-;-;-;-;-;-;-;-
1512469850350;-;-;9.029022;1.130249;-0.5571594;-;-;-;-;-;-;-;-;-;-;-;-;-;-;-
1512469850370;-;-;9.067337;1.0177307;-0.5619507;-;-;-;-;-;-;-;-;-;-;-;-;-;-;-
1512469850391;-;-;9.100845;1.0213165;-0.6182251;-;-;-;-;-;-;-;-;-;-;-;-;-;-;-
1512469850411;-;-;9.064941;1.1733551;-0.60266113;-;-;-;-;-;-;-;-;-;-;-;-;-;-;-
1512469850432;-;-;9.07811;1.2056732;-0.5787201;-;-;-;-;-;-;-;-;-;-;-;-;-;-;-
1512469850453;-;-;9.064941;1.2056732;-0.75468445;-;-;-;-;-;-;-;-;-;-;-;-;-;-;-
1512469850473;-;-;9.011063;1.2320099;-0.67567444;-;-;-;-;-;-;-;-;-;-;-;-;-;-;-
1512469850493;-;-;9.019455;1.2727051;-0.6253967;-;-;-;-;-;-;-;-;-;-;-;-;-;-;-
1512469850514;-;-;9.080505;1.240387;-0.61343384;-;-;-;-;-;-;-;-;-;-;-;-;-;-;-
1512469850534;-;-;9.0972595;1.2810822;-0.66371155;-;-;-;-;-;-;-;-;-;-;-;-;-;-;-
1512469850555;-;-;9.195419;1.2571411;-0.7080078;-;-;-;-;-;-;-;-;-;-;-;-;-;-;-
1512469850576;-;-;9.279221;1.1793365;-0.7498932;-;-;-;-;-;-;-;-;-;-;-;-;-;-;-
1512469850595;-;-;9.260071;1.1350403;-0.8205261;-;-;-;-;-;-;-;-;-;-;-;-;-;-;-
1512469850616;-;-;9.160706;1.1589813;-0.7235565;-;-;-;-;-;-;-;-;-;-;-;-;-;-;-
1512469850635;-;-;9.096069;1.125473;-0.63616943;-;-;-;-;-;-;-;-;-;-;-;-;-;-;-
1512469850655;-;-;9.0972595;1.030899;-0.64575195;-;-;-;-;-;-;-;-;-;-;-;-;-;-;-
1512469850676;-;-;8.963181;1.0404663;-0.6900482;-;-;-;-;-;-;-;-;-;-;-;-;-;-;-
1512469850697;-;-;8.945221;1.101532;-0.64575195;-;-;-;-;-;-;-;-;-;-;-;-;-;-;-
1512469850717;-;-;8.983536;1.070404;-0.60624695;-;-;-;-;-;-;-;-;-;-;-;-;-;-;-
1512469850738;-;-;9.019455;1.027298;-0.60983276;-;-;-;-;-;-;-;-;-;-;-;-;-;-;-
1512469850758;-;-;9.072113;1.0033569;-0.55955505;-;-;-;-;-;-;-;-;-;-;-;-;-;-;-
1512469850779;-;-;9.15831;0.92315674;-0.56674194;-;-;-;-;-;-;-;-;-;-;-;-;-;-;-
1512469850799;-;-;9.104446;0.92315674;-0.5248413;-;-;-;-;-;-;-;-;-;-;-;-;-;-;-
1512469850819;-;-;9.102051;0.93273926;-0.4925232;-;-;-;-;-;-;-;-;-;-;-;-;-;-;-
1512469850840;-;-;9.243301;0.8154144;-0.590683;-;-;-;-;-;-;-;-;-;-;-;-;-;-;-
1512469850861;-;-;9.322311;0.8010559;-0.6876526;-;-;-;-;-;-;-;-;-;-;-;-;-;-;-
1512469850881;-;-;9.250488;0.7531738;-0.5978699;-;-;-;-;-;-;-;-;-;-;-;-;-;-;-
1512469850901;-;-;9.347458;0.80703735;-0.87319946;-;-;-;-;-;-;-;-;-;-;-;-;-;-;-
1512469850922;-;-;8.938049;0.91238403;-0.26387024;-;-;-;-;-;-;-;-;-;-;-;-;-;-;-
1512469850942;-;-;9.115219;0.81781006;-0.7522888;-;-;-;-;-;-;-;-;-;-;-;-;-;-;-
1512469850963;-;-;9.153519;0.8776703;-0.60505676;-;-;-;-;-;-;-;-;-;-;-;-;-;-;-
1512469850983;-;-;9.013458;1.0093536;-0.451828;-;-;-;-;-;-;-;-;-;-;-;-;-;-;-
1512469851004;-;-;9.183456;0.94111633;-0.5799103;-;-;-;-;-;-;-;-;-;-;-;-;-;-;-
1512469851024;-;-;9.170288;0.7292328;-0.6900482;-;-;-;-;-;-;-;-;-;-;-;-;-;-;-
1512469851045;-;-;8.9787445;0.90400696;-0.44822693;-;-;-;-;-;-;-;-;-;-;-;-;-;-;-
1512469851065;-;-;9.29718;0.9387207;-0.6804657;-;-;-;-;-;-;-;-;-;-;-;-;-;-;-
1512469851085;-;-;9.390549;0.9075928;-0.8492584;-;-;-;-;-;-;-;-;-;-;-;-;-;-;-
1512469851106;-;-;9.062546;1.1374359;-0.7678528;-;-;-;-;-;-;-;-;-;-;-;-;-;-;-
1512469851127;-;-;8.909317;1.3050385;-0.72476196;-;-;-;-;-;-;-;-;-;-;-;-;-;-;-
1512469851146;-;-;8.977554;1.398407;-0.7080078;-;-;-;-;-;-;-;-;-;-;-;-;-;-;-
1512469851167;-;-;9.050568;1.2415924;-0.75109863;-;-;-;-;-;-;-;-;-;-;-;-;-;-;-
1512469851187;-;-;9.006287;1.0572357;-0.6337738;-;-;-;-;-;-;-;-;-;-;-;-;-;-;-
1512469851207;-;-;9.07811;1.0811768;-0.5104828;-;-;-;-;-;-;-;-;-;-;-;-;-;-;-
1512469851228;-;-;9.127182;1.090744;-0.6685028;-;-;-;-;-;-;-;-;-;-;-;-;-;-;-
1512469851248;-;-;9.164291;1.1793365;-0.7020111;-;-;-;-;-;-;-;-;-;-;-;-;-;-;-
1512469851269;-;-;9.172684;1.1565857;-0.9354553;-;-;-;-;-;-;-;-;-;-;-;-;-;-;-
1512469851289;-;-;9.110428;1.2475739;-0.9450226;-;-;-;-;-;-;-;-;-;-;-;-;-;-;-
1512469851309;-;-;9.037399;1.1589813;-1.1317749;-;-;-;-;-;-;-;-;-;-;-;-;-;-;-
1512469851330;-;-;8.667496;1.109909;-1.6441345;-;-;-;-;-;-;-;-;-;-;-;-;-;-;-
1512469851350;-;-;8.449631;1.2463684;-1.7698364;-;-;-;-;-;-;-;-;-;-;-;-;-;-;-
1512469851371;-;-;8.317947;1.5396576;-1.7518768;-;-;-;-;-;-;-;-;-;-;-;-;-;-;-
1512469851392;-;-;8.376602;1.9550629;-1.4573822;-;-;-;-;-;-;-;-;-;-;-;-;-;-;-
1512469851412;-;-;8.734543;2.2172241;-1.2610626;-;-;-;-;-;-;-;-;-;-;-;-;-;-;-
1512469851433;-;-;9.205002;2.0639954;-1.1329651;-;-;-;-;-;-;-;-;-;-;-;-;-;-;-
1512469851453;-;-;9.8645935;1.7455597;-1.4071045;-;-;-;-;-;-;-;-;-;-;-;-;-;-;-
1512469851473;-;-;9.895721;1.6078949;-0.5068817;-;-;-;-;-;-;-;-;-;-;-;-;-;-;-
1512469851494;-;-;9.452805;1.4043884;0.28559875;-;-;-;-;-;-;-;-;-;-;-;-;-;-;-
1512469851514;-;-;9.030228;1.4486847;0.89730835;-;-;-;-;-;-;-;-;-;-;-;-;-;-;-
1512469851535;-;-;8.906921;1.8509064;0.939209;-;-;-;-;-;-;-;-;-;-;-;-;-;-;-
1512469851555;-;-;9.015854;2.1154633;0.43762207;-;-;-;-;-;-;-;-;-;-;-;-;-;-;-
1512469851576;-;-;8.892548;2.552414;-0.17887878;-;-;-;-;-;-;-;-;-;-;-;-;-;-;-
1512469851596;-;-;8.617218;2.821762;-0.3081665;-;-;-;-;-;-;-;-;-;-;-;-;-;-;-
1512469851616;-;-;8.432861;2.6529694;-0.2351532;-;-;-;-;-;-;-;-;-;-;-;-;-;-;-
1512469851637;-;-;7.9660034;2.4865723;-0.1489563;-;-;-;-;-;-;-;-;-;-;-;-;-;-;-
1512469851658;-;-;7.4009705;2.4255219;-0.29978943;-;-;-;-;-;-;-;-;-;-;-;-;-;-;-
1512469851678;-;-;6.9317017;2.8109894;-0.2962036;-;-;-;-;-;-;-;-;-;-;-;-;-;-;-
1512469851698;-;-;7.1004944;3.3305206;-0.32373047;-;-;-;-;-;-;-;-;-;-;-;-;-;-;-
1512469851719;-;-;7.786438;3.8871765;-0.7163849;-;-;-;-;-;-;-;-;-;-;-;-;-;-;-
1512469851738;-;-;8.365829;4.241516;-0.7570801;-;-;-;-;-;-;-;-;-;-;-;-;-;-;-
1512469851758;-;-;8.825516;4.5635376;-0.14057922;-;-;-;-;-;-;-;-;-;-;-;-;-;-;-
1512469851779;-;-;9.378571;4.743103;0.110809326;-;-;-;-;-;-;-;-;-;-;-;-;-;-;-
1512469851800;-;-;9.667084;4.1277924;-0.2758484;-;-;-;-;-;-;-;-;-;-;-;-;-;-;-
1512469851820;-;-;8.957199;3.5065002;0.25686646;-;-;-;-;-;-;-;-;-;-;-;-;-;-;-
1512469851840;-;-;8.449631;3.2730713;1.0409698;-;-;-;-;-;-;-;-;-;-;-;-;-;-;-
1512469851861;-;-;7.952835;3.2862396;0.52142334;-;-;-;-;-;-;-;-;-;-;-;-;-;-;-
1512469851881;-;-;7.684677;3.26828;-2.7394867;-;-;-;-;-;-;-;-;-;-;-;-;-;-;-
1512469851901;-;-;9.931641;3.0959015;-5.069046;-;-;-;-;-;-;-;-;-;-;-;-;-;-;-
1512469851922;-;-;12.232468;2.4362946;-3.100998;-;-;-;-;-;-;-;-;-;-;-;-;-;-;-
1512469851943;-;-;11.746445;2.1585693;-2.350418;-;-;-;-;-;-;-;-;-;-;-;-;-;-;-
1512469851962;-;-;11.13472;1.5815582;-3.322464;-;-;-;-;-;-;-;-;-;-;-;-;-;-;-
1512469851983;-;-;10.599625;0.53289795;-2.4234467;-;-;-;-;-;-;-;-;-;-;-;-;-;-;-
1512469852003;-;-;10.192612;-0.03930664;-2.3839417;-;-;-;-;-;-;-;-;-;-;-;-;-;-;-
1512469852023;-;-;9.489914;-0.30267334;-3.191986;-;-;-;-;-;-;-;-;-;-;-;-;-;-;-
1512469852044;-;-;9.135559;-0.49899292;-2.8376465;-;-;-;-;-;-;-;-;-;-;-;-;-;-;-
1512469852064;-;-;8.256897;-0.021362305;-1.8141174;-;-;-;-;-;-;-;-;-;-;-;-;-;-;-
1512469852085;-;-;8.516663;0.98301697;-1.432251;-;-;-;-;-;-;-;-;-;-;-;-;-;-;-
1512469852106;-;-;8.695038;1.6857147;-1.322113;-;-;-;-;-;-;-;-;-;-;-;-;-;-;-
1512469852126;-;-;8.502304;0.88365173;-1.4142914;-;-;-;-;-;-;-;-;-;-;-;-;-;-;-
1512469852147;-;-;8.244919;-0.18655396;-1.9062958;-;-;-;-;-;-;-;-;-;-;-;-;-;-;-
1512469852166;-;-;8.2712555;-0.3254242;-1.8883362;-;-;-;-;-;-;-;-;-;-;-;-;-;-;-
1512469852187;-;-;8.164719;0.122299194;-0.77622986;-;-;-;-;-;-;-;-;-;-;-;-;-;-;-
1512469852207;-;-;8.10965;-0.124313354;-0.8971405;-;-;-;-;-;-;-;-;-;-;-;-;-;-;-
1512469852228;-;-;7.827133;-0.35534668;-1.1724701;-;-;-;-;-;-;-;-;-;-;-;-;-;-;-
1512469852248;-;-;8.118027;-0.33738708;-1.258667;-;-;-;-;-;-;-;-;-;-;-;-;-;-;-
1512469852269;-;-;8.881775;0.21208191;-1.2119751;-;-;-;-;-;-;-;-;-;-;-;-;-;-;-
1512469852289;-;-;9.360626;0.6789551;-1.5292053;-;-;-;-;-;-;-;-;-;-;-;-;-;-;-
1512469852309;-;-;9.146347;0.9937897;-1.5148468;-;-;-;-;-;-;-;-;-;-;-;-;-;-;-
1512469852330;-;-;8.4843445;0.82499695;-1.061142;-;-;-;-;-;-;-;-;-;-;-;-;-;-;-
1512469852351;-;-;8.021072;0.5460663;-0.60983276;-;-;-;-;-;-;-;-;-;-;-;-;-;-;-
1512469852371;-;-;8.319138;0.14863586;-0.18367004;-;-;-;-;-;-;-;-;-;-;-;-;-;-;-
1512469852392;-;-;8.970367;-0.08480835;-0.05079651;-;-;-;-;-;-;-;-;-;-;-;-;-;-;-
1512469852412;-;-;10.155502;-0.097976685;0.1826477;-;-;-;-;-;-;-;-;-;-;-;-;-;-;-
1512469852433;-;-;10.5242;0.05406189;0.46037292;-;-;-;-;-;-;-;-;-;-;-;-;-;-;-
1512469852453;-;-;10.300339;0.42755127;0.46276855;-;-;-;-;-;-;-;-;-;-;-;-;-;-;-
1512469852474;-;-;9.804749;0.54248047;0.35861206;-;-;-;-;-;-;-;-;-;-;-;-;-;-;-
1512469852494;-;-;9.511459;0.4909973;0.47473145;-;-;-;-;-;-;-;-;-;-;-;-;-;-;-
1512469852515;-;-;9.293579;0.1845398;0.6136017;-;-;-;-;-;-;-;-;-;-;-;-;-;-;-
1512469852535;-;-;9.357025;-0.48104858;0.27720642;-;-;-;-;-;-;-;-;-;-;-;-;-;-;-
1512469852556;-;-;10.4140625;-0.93115234;-1.4729462;-;-;-;-;-;-;-;-;-;-;-;-;-;-;-
1512469852576;-;-;12.127121;-1.6494141;-1.7434998;-;-;-;-;-;-;-;-;-;-;-;-;-;-;-
1512469852597;-;-;13.289505;-1.7296143;-2.7227173;-;-;-;-;-;-;-;-;-;-;-;-;-;-;-
1512469852617;-;-;12.040924;-0.0728302;-2.9046783;-;-;-;-;-;-;-;-;-;-;-;-;-;-;-
1512469852638;-;-;9.215775;1.1087036;-4.2406464;-;-;-;-;-;-;-;-;-;-;-;-;-;-;-
1512469852659;-;-;5.1911163;1.8401337;-3.9497528;-;-;-;-;-;-;-;-;-;-;-;-;-;-;-
1512469852679;-;-;4.814026;1.8940125;-1.7183533;-;-;-;-;-;-;-;-;-;-;-;-;-;-;-
1512469852699;-;-;6.9712067;1.1003265;-1.4621735;-;-;-;-;-;-;-;-;-;-;-;-;-;-;-
1512469852720;-;-;10.588852;0.13905334;-2.1612854;-;-;-;-;-;-;-;-;-;-;-;-;-;-;-
1512469852741;-;-;12.980652;-0.31704712;-2.5898438;-;-;-;-;-;-;-;-;-;-;-;-;-;-;-
1512469852761;-;-;12.760391;0.5185394;-2.7658234;-;-;-;-;-;-;-;-;-;-;-;-;-;-;-
1512469852781;-;-;10.946777;1.5851593;-2.4713287;-;-;-;-;-;-;-;-;-;-;-;-;-;-;-
1512469852802;-;-;7.845093;1.4965668;-1.8117218;-;-;-;-;-;-;-;-;-;-;-;-;-;-;-
1512469852822;-;-;5.8435364;0.6825409;-1.0240326;-;-;-;-;-;-;-;-;-;-;-;-;-;-;-
1512469852843;-;-;4.5829926;-0.018966675;-0.18127441;-;-;-;-;-;-;-;-;-;-;-;-;-;-;-
1512469852863;-;-;5.0211334;0.060043335;-0.43626404;-;-;-;-;-;-;-;-;-;-;-;-;-;-;-
1512469852884;-;-;6.585739;0.9135742;-0.94143677;-;-;-;-;-;-;-;-;-;-;-;-;-;-;-
1512469852903;-;-;8.260483;1.7838745;-1.2263489;-;-;-;-;-;-;-;-;-;-;-;-;-;-;-
1512469852924;-;-;9.619202;2.4195251;-1.0874786;-;-;-;-;-;-;-;-;-;-;-;-;-;-;-
1512469852943;-;-;9.844254;2.785843;-0.4530182;-;-;-;-;-;-;-;-;-;-;-;-;-;-;-
1512469852964;-;-;9.200211;2.2627106;0.34783936;-;-;-;-;-;-;-;-;-;-;-;-;-;-;-
1512469852983;-;-;8.1527405;1.3648834;0.01625061;-;-;-;-;-;-;-;-;-;-;-;-;-;-;-
1512469853004;-;-;7.884598;1.5779724;-0.2794342;-;-;-;-;-;-;-;-;-;-;-;-;-;-;-
1512469853024;-;-;8.095291;2.272293;-0.7056122;-;-;-;-;-;-;-;-;-;-;-;-;-;-;-
1512469853045;-;-;8.932053;2.687683;-0.8025665;-;-;-;-;-;-;-;-;-;-;-;-;-;-;-
1512469853066;-;-;10.325485;2.2675018;-0.7606659;-;-;-;-;-;-;-;-;-;-;-;-;-;-;-
1512469853086;-;-;10.77919;2.1729279;-1.0144653;-;-;-;-;-;-;-;-;-;-;-;-;-;-;-
1512469853107;-;-;9.629974;2.821762;-0.7451172;-;-;-;-;-;-;-;-;-;-;-;-;-;-;-
1512469853127;-;-;8.297592;2.5021362;-1.416687;-;-;-;-;-;-;-;-;-;-;-;-;-;-;-
1512469853147;-;-;8.669891;1.4977722;-2.9082794;-;-;-;-;-;-;-;-;-;-;-;-;-;-;-
1512469853167;-;-;10.825867;0.60472107;-3.9222107;-;-;-;-;-;-;-;-;-;-;-;-;-;-;-
1512469853188;-;-;12.064865;1.0572357;-2.9034882;-;-;-;-;-;-;-;-;-;-;-;-;-;-;-
1512469853208;-;-;12.404846;1.7407837;-2.0882568;-;-;-;-;-;-;-;-;-;-;-;-;-;-;-
1512469853229;-;-;10.489487;-1.3896484;-3.0351715;-;-;-;-;-;-;-;-;-;-;-;-;-;-;-
1512469853248;-;-;8.884171;-3.0356598;-2.0870667;-;-;-;-;-;-;-;-;-;-;-;-;-;-;-
1512469853269;-;-;7.2046356;-2.4287262;-1.8943329;-;-;-;-;-;-;-;-;-;-;-;-;-;-;-
1512469853289;-;-;6.9664154;0.5065613;-2.8292694;-;-;-;-;-;-;-;-;-;-;-;-;-;-;-
1512469853309;-;-;8.929672;2.137024;-2.800537;-;-;-;-;-;-;-;-;-;-;-;-;-;-;-
1512469853329;-;-;9.723343;2.9821625;-3.089035;-;-;-;-;-;-;-;-;-;-;-;-;-;-;-
1512469853350;-;-;10.32309;2.512909;-3.3667603;-;-;-;-;-;-;-;-;-;-;-;-;-;-;-
1512469853371;-;-;9.301956;0.7723236;-2.7454681;-;-;-;-;-;-;-;-;-;-;-;-;-;-;-
1512469853391;-;-;8.16951;-0.43315125;-1.4250641;-;-;-;-;-;-;-;-;-;-;-;-;-;-;-
1512469853411;-;-;8.149155;-1.2280273;-1.2311401;-;-;-;-;-;-;-;-;-;-;-;-;-;-;-
1512469853431;-;-;8.107254;-1.170578;-1.6465302;-;-;-;-;-;-;-;-;-;-;-;-;-;-;-
1512469853452;-;-;7.6547546;-0.7491913;-1.7506714;-;-;-;-;-;-;-;-;-;-;-;-;-;-;-
1512469853471;-;-;7.4440613;-0.33259583;-1.7626495;-;-;-;-;-;-;-;-;-;-;-;-;-;-;-
1512469853491;-;-;7.3255463;-0.20570374;-1.5256195;-;-;-;-;-;-;-;-;-;-;-;-;-;-;-
1512469853512;-;-;7.7517242;-0.39245605;-1.2969818;-;-;-;-;-;-;-;-;-;-;-;-;-;-;-
1512469853532;-;-;8.780029;-0.368515;-0.9438324;-;-;-;-;-;-;-;-;-;-;-;-;-;-;-
1512469853553;-;-;9.51265;-0.054870605;-1.0024872;-;-;-;-;-;-;-;-;-;-;-;-;-;-;-
1512469853573;-;-;9.589264;0.33776855;-0.843277;-;-;-;-;-;-;-;-;-;-;-;-;-;-;-
1512469853594;-;-;9.392944;0.3282013;-0.6038513;-;-;-;-;-;-;-;-;-;-;-;-;-;-;-
1512469853613;-;-;9.407303;-0.14704895;-0.11543274;-;-;-;-;-;-;-;-;-;-;-;-;-;-;-
1512469853633;-;-;9.380966;-0.17098999;0.48310852;-;-;-;-;-;-;-;-;-;-;-;-;-;-;-
1512469853654;-;-;9.560532;0.47305298;0.90808105;-;-;-;-;-;-;-;-;-;-;-;-;-;-;-
1512469853674;-;-;9.884949;1.0919495;1.1894073;-;-;-;-;-;-;-;-;-;-;-;-;-;-;-
1512469853695;-;-;9.912491;1.1266632;1.1343384;-;-;-;-;-;-;-;-;-;-;-;-;-;-;-
1512469853715;-;-;9.598846;0.36410522;1.1499023;-;-;-;-;-;-;-;-;-;-;-;-;-;-;-
1512469853736;-;-;9.154724;-0.63067627;0.27601624;-;-;-;-;-;-;-;-;-;-;-;-;-;-;-
1512469853756;-;-;10.555328;-0.6797638;-2.3300781;-;-;-;-;-;-;-;-;-;-;-;-;-;-;-
1512469853777;-;-;12.297104;-1.3633118;-5.604141;-;-;-;-;-;-;-;-;-;-;-;-;-;-;-
1512469853796;-;-;13.07164;-0.30148315;-5.7597656;-;-;-;-;-;-;-;-;-;-;-;-;-;-;-
1512469853817;-;-;9.960373;-0.012969971;-4.044327;-;-;-;-;-;-;-;-;-;-;-;-;-;-;-
1512469853837;-;-;6.8359375;1.4474792;-3.784546;-;-;-;-;-;-;-;-;-;-;-;-;-;-;-
1512469853858;-;-;5.192322;3.015686;-3.4373932;-;-;-;-;-;-;-;-;-;-;-;-;-;-;-
1512469853879;-;-;5.853119;3.1437836;-2.2355042;-;-;-;-;-;-;-;-;-;-;-;-;-;-;-
1512469853899;-;-;8.76207;0.8597107;-1.5040741;-;-;-;-;-;-;-;-;-;-;-;-;-;-;-
1512469853919;-;-;11.692581;-1.012558;-1.8356628;-;-;-;-;-;-;-;-;-;-;-;-;-;-;-
1512469853940;-;-;13.103958;-1.3142242;-2.4713287;-;-;-;-;-;-;-;-;-;-;-;-;-;-;-
1512469853961;-;-;12.3940735;0.05406189;-1.784195;-;-;-;-;-;-;-;-;-;-;-;-;-;-;-
1512469853980;-;-;9.657501;1.2128601;-1.8835602;-;-;-;-;-;-;-;-;-;-;-;-;-;-;-
1512469854001;-;-;7.803192;1.1362457;-1.3233032;-;-;-;-;-;-;-;-;-;-;-;-;-;-;-
1512469854021;-;-;7.0969086;0.51493835;-1.0814972;-;-;-;-;-;-;-;-;-;-;-;-;-;-;-
1512469854041;-;-;6.409775;0.5556488;-0.81573486;-;-;-;-;-;-;-;-;-;-;-;-;-;-;-
1512469854062;-;-;6.7102356;0.82858276;-0.96058655;-;-;-;-;-;-;-;-;-;-;-;-;-;-;-
1512469854082;-;-;7.738556;1.4438934;-0.79418945;-;-;-;-;-;-;-;-;-;-;-;-;-;-;-
1512469854103;-;-;9.096069;2.0807495;-0.6613159;-;-;-;-;-;-;-;-;-;-;-;-;-;-;-
1512469854123;-;-;9.843048;2.248352;-0.5284424;-;-;-;-;-;-;-;-;-;-;-;-;-;-;-
1512469854144;-;-;9.82869;1.7419739;-0.4530182;-;-;-;-;-;-;-;-;-;-;-;-;-;-;-
1512469854163;-;-;8.7812195;0.8704834;-0.78222656;-;-;-;-;-;-;-;-;-;-;-;-;-;-;-
1512469854184;-;-;7.106476;0.56521606;-1.1389618;-;-;-;-;-;-;-;-;-;-;-;-;-;-;-
1512469854204;-;-;5.9668427;0.7364044;-1.3664093;-;-;-;-;-;-;-;-;-;-;-;-;-;-;-
1512469854225;-;-;5.652008;1.2308044;-1.1365662;-;-;-;-;-;-;-;-;-;-;-;-;-;-;-
1512469854245;-;-;5.9225464;1.398407;0.122787476;-;-;-;-;-;-;-;-;-;-;-;-;-;-;-
1512469854265;-;-;6.712631;1.8173981;-0.412323;-;-;-;-;-;-;-;-;-;-;-;-;-;-;-
1512469854286;-;-;7.396179;2.1011047;-1.7949677;-;-;-;-;-;-;-;-;-;-;-;-;-;-;-
1512469854306;-;-;6.8479004;1.1661682;-1.1413574;-;-;-;-;-;-;-;-;-;-;-;-;-;-;-
1512469854327;-;-;6.261322;0.9399109;0.5956421;-;-;-;-;-;-;-;-;-;-;-;-;-;-;-
1512469854347;-;-;6.5677795;1.3541107;0.5513458;-;-;-;-;-;-;-;-;-;-;-;-;-;-;-
1512469854367;-;-;7.7062225;1.8580933;-0.417099;-;-;-;-;-;-;-;-;-;-;-;-;-;-;-
1512469854388;-;-;8.118027;2.3141937;-1.4214783;-;-;-;-;-;-;-;-;-;-;-;-;-;-;-
1512469854408;-;-;7.442871;2.184906;-0.50808716;-;-;-;-;-;-;-;-;-;-;-;-;-;-;-
1512469854429;-;-;6.88501;2.0460358;-0.04600525;-;-;-;-;-;-;-;-;-;-;-;-;-;-;-
1512469854449;-;-;6.6970673;2.3129883;-1.2778168;-;-;-;-;-;-;-;-;-;-;-;-;-;-;-
1512469854470;-;-;6.9077606;1.8114014;-1.2850037;-;-;-;-;-;-;-;-;-;-;-;-;-;-;-
1512469854490;-;-;6.659958;1.1470184;-0.8779907;-;-;-;-;-;-;-;-;-;-;-;-;-;-;-
1512469854511;-;-;7.4955444;1.5348816;-2.4797058;-;-;-;-;-;-;-;-;-;-;-;-;-;-;-
1512469854531;-;-;10.129166;2.7487335;-5.874695;-;-;-;-;-;-;-;-;-;-;-;-;-;-;-
1512469854552;-;-;15.390411;2.473404;-8.033066;-;-;-;-;-;-;-;-;-;-;-;-;-;-;-
1512469854573;-;-;16.569565;1.3553162;-5.8076477;-;-;-;-;-;-;-;-;-;-;-;-;-;-;-
1512469854593;-;-;16.643784;-5.0755157;-0.16571045;-;-;-;-;-;-;-;-;-;-;-;-;-;-;-
1512469854614;-;-;16.091919;-6.7969513;-2.570694;-;-;-;-;-;-;-;-;-;-;-;-;-;-;-
1512469854635;-;-;12.980652;-2.1497955;-0.10586548;-;-;-;-;-;-;-;-;-;-;-;-;-;-;-
1512469854655;-;-;10.915649;1.2056732;0.32389832;-;-;-;-;-;-;-;-;-;-;-;-;-;-;-
1512469854676;-;-;11.481888;2.1274414;-0.9845276;-;-;-;-;-;-;-;-;-;-;-;-;-;-;-
1512469854696;-;-;12.48027;0.82618713;-1.3424683;-;-;-;-;-;-;-;-;-;-;-;-;-;-;-
1512469854717;-;-;11.775177;-1.2531738;-1.4035187;-;-;-;-;-;-;-;-;-;-;-;-;-;-;-
1512469854736;-;-;8.7213745;-1.7176514;-0.89834595;-;-;-;-;-;-;-;-;-;-;-;-;-;-;-
1512469854756;-;-;6.319992;-1.6529999;0.16708374;-;-;-;-;-;-;-;-;-;-;-;-;-;-;-
1512469854777;-;-;4.1364746;-0.76834106;0.26524353;-;-;-;-;-;-;-;-;-;-;-;-;-;-;-
1512469854797;-;-;4.062256;0.22045898;0.90449524;-;-;-;-;-;-;-;-;-;-;-;-;-;-;-
1512469854818;-;-;5.2270355;0.8609009;0.50704956;-;-;-;-;-;-;-;-;-;-;-;-;-;-;-
1512469854838;-;-;6.434906;0.46347046;0.072509766;-;-;-;-;-;-;-;-;-;-;-;-;-;-;-
1512469854858;-;-;7.119644;-0.76475525;-0.86242676;-;-;-;-;-;-;-;-;-;-;-;-;-;-;-
1512469854879;-;-;7.423706;-1.210083;-0.40393066;-;-;-;-;-;-;-;-;-;-;-;-;-;-;-
1512469854899;-;-;7.355484;-0.7408142;0.41488647;-;-;-;-;-;-;-;-;-;-;-;-;-;-;-
1512469854919;-;-;7.312378;0.0756073;1.488678;-;-;-;-;-;-;-;-;-;-;-;-;-;-;-
1512469854940;-;-;6.7641144;-0.38049316;1.3534088;-;-;-;-;-;-;-;-;-;-;-;-;-;-;-
1512469854960;-;-;6.43132;-1.6793365;0.46037292;-;-;-;-;-;-;-;-;-;-;-;-;-;-;-
1512469854981;-;-;7.1711273;-1.7487793;0.84942627;-;-;-;-;-;-;-;-;-;-;-;-;-;-;-
1512469855001;-;-;8.593277;-0.67378235;2.1614532;-;-;-;-;-;-;-;-;-;-;-;-;-;-;-
1512469855022;-;-;9.313934;-0.46427917;1.7687988;-;-;-;-;-;-;-;-;-;-;-;-;-;-;-
1512469855042;-;-;9.73172;-1.278305;1.0768738;-;-;-;-;-;-;-;-;-;-;-;-;-;-;-
1512469855063;-;-;9.469559;-1.5955505;0.055755615;-;-;-;-;-;-;-;-;-;-;-;-;-;-;-
1512469855083;-;-;9.711365;-0.89404297;-1.8883362;-;-;-;-;-;-;-;-;-;-;-;-;-;-;-
1512469855103;-;-;10.68103;0.35812378;-4.5016174;-;-;-;-;-;-;-;-;-;-;-;-;-;-;-
1512469855124;-;-;12.294708;0.5736084;-7.076584;-;-;-;-;-;-;-;-;-;-;-;-;-;-;-
1512469855144;-;-;11.574066;3.3532715;-3.8049011;-;-;-;-;-;-;-;-;-;-;-;-;-;-;-
1512469855165;-;-;17.781021;10.393417;-7.175934;-;-;-;-;-;-;-;-;-;-;-;-;-;-;-
1512469855185;-;-;20.725891;8.634888;-3.5882263;-;-;-;-;-;-;-;-;-;-;-;-;-;-;-
1512469855206;-;-;14.545258;3.338913;-2.2857819;-;-;-;-;-;-;-;-;-;-;-;-;-;-;-
1512469855226;-;-;10.112396;-1.155014;-0.91989136;-;-;-;-;-;-;-;-;-;-;-;-;-;-;-
1512469855247;-;-;7.684677;-2.0372772;0.34425354;-;-;-;-;-;-;-;-;-;-;-;-;-;-;-
1512469855267;-;-;8.703415;-0.8856659;0.31072998;-;-;-;-;-;-;-;-;-;-;-;-;-;-;-
1512469855287;-;-;11.53096;-0.37449646;-0.4278717;-;-;-;-;-;-;-;-;-;-;-;-;-;-;-
1512469855308;-;-;9.795166;0.6729584;-0.3943634;-;-;-;-;-;-;-;-;-;-;-;-;-;-;-
1512469855329;-;-;6.577362;1.9993439;-0.1884613;-;-;-;-;-;-;-;-;-;-;-;-;-;-;-
1512469855349;-;-;3.806076;2.2615204;-0.3668213;-;-;-;-;-;-;-;-;-;-;-;-;-;-;-
1512469855370;-;-;3.9964142;0.44311523;-1.2802124;-;-;-;-;-;-;-;-;-;-;-;-;-;-;-
1512469855390;-;-;6.086548;-0.22845459;-1.2083893;-;-;-;-;-;-;-;-;-;-;-;-;-;-;-
1512469855411;-;-;7.4105377;0.7124634;-0.64694214;-;-;-;-;-;-;-;-;-;-;-;-;-;-;-
1512469855431;-;-;6.8838196;1.1158905;-0.5811157;-;-;-;-;-;-;-;-;-;-;-;-;-;-;-
1512469855451;-;-;5.9668427;1.3541107;-1.1509247;-;-;-;-;-;-;-;-;-;-;-;-;-;-;-
1512469855472;-;-;5.3072357;1.6725464;-1.1521301;-;-;-;-;-;-;-;-;-;-;-;-;-;-;-
1512469855493;-;-;5.023529;1.382843;-0.8061676;-;-;-;-;-;-;-;-;-;-;-;-;-;-;-
1512469855513;-;-;4.9983826;1.3241882;-0.6948395;-;-;-;-;-;-;-;-;-;-;-;-;-;-;-
1512469855533;-;-;5.947693;1.9131622;-1.064743;-;-;-;-;-;-;-;-;-;-;-;-;-;-;-
1512469855554;-;-;7.4416656;2.766693;-0.81333923;-;-;-;-;-;-;-;-;-;-;-;-;-;-;-
1512469855574;-;-;8.957199;3.1533508;-0.9941101;-;-;-;-;-;-;-;-;-;-;-;-;-;-;-
1512469855595;-;-;8.471176;3.225174;-1.3747864;-;-;-;-;-;-;-;-;-;-;-;-;-;-;-
1512469855615;-;-;6.9472656;2.87323;-1.2083893;-;-;-;-;-;-;-;-;-;-;-;-;-;-;-
1512469855636;-;-;6.2541504;1.6091003;-1.9338379;-;-;-;-;-;-;-;-;-;-;-;-;-;-;-
1512469855656;-;-;7.715805;0.6573944;-3.551117;-;-;-;-;-;-;-;-;-;-;-;-;-;-;-
1512469855677;-;-;10.123169;0.5736084;-6.1356506;-;-;-;-;-;-;-;-;-;-;-;-;-;-;-
1512469855697;-;-;13.068039;0.05645752;-4.9002533;-;-;-;-;-;-;-;-;-;-;-;-;-;-;-
1512469855718;-;-;14.321411;0.83695984;-3.4553528;-;-;-;-;-;-;-;-;-;-;-;-;-;-;-
1512469855737;-;-;18.103043;-1.4842072;-0.39675903;-;-;-;-;-;-;-;-;-;-;-;-;-;-;-
1512469855758;-;-;18.578293;-3.3504944;-1.3723907;-;-;-;-;-;-;-;-;-;-;-;-;-;-;-
1512469855778;-;-;15.490982;-2.372467;0.4974823;-;-;-;-;-;-;-;-;-;-;-;-;-;-;-
1512469855799;-;-;12.128311;-0.3972473;0.40649414;-;-;-;-;-;-;-;-;-;-;-;-;-;-;-
1512469855819;-;-;10.200989;0.59754944;-0.09509277;-;-;-;-;-;-;-;-;-;-;-;-;-;-;-
1512469855839;-;-;10.315903;0.09236145;-0.059173584;-;-;-;-;-;-;-;-;-;-;-;-;-;-;-
1512469855860;-;-;9.404907;-0.13148499;-0.7953949;-;-;-;-;-;-;-;-;-;-;-;-;-;-;-
1512469855881;-;-;8.277252;-0.94073486;-0.44343567;-;-;-;-;-;-;-;-;-;-;-;-;-;-;-
1512469855902;-;-;7.177109;-1.0197449;0.46276855;-;-;-;-;-;-;-;-;-;-;-;-;-;-;-
1512469855922;-;-;6.280487;-0.15782166;0.8302765;-;-;-;-;-;-;-;-;-;-;-;-;-;-;-
1512469855942;-;-;5.12648;0.60113525;0.096450806;-;-;-;-;-;-;-;-;-;-;-;-;-;-;-
1512469855962;-;-;3.8982544;0.48501587;-1.1102295;-;-;-;-;-;-;-;-;-;-;-;-;-;-;-
1512469855983;-;-;3.4864502;-0.22366333;-1.1138153;-;-;-;-;-;-;-;-;-;-;-;-;-;-;-
1512469856004;-;-;5.083374;-0.55166626;0.23770142;-;-;-;-;-;-;-;-;-;-;-;-;-;-;-
1512469856023;-;-;6.3511047;-0.4092102;1.8921051;-;-;-;-;-;-;-;-;-;-;-;-;-;-;-
1512469856044;-;-;7.086136;-0.24760437;2.01062;-;-;-;-;-;-;-;-;-;-;-;-;-;-;-
1512469856064;-;-;7.7026367;-0.78990173;0.5704956;-;-;-;-;-;-;-;-;-;-;-;-;-;-;-
1512469856085;-;-;7.7517242;-1.0640259;0.18025208;-;-;-;-;-;-;-;-;-;-;-;-;-;-;-
1512469856105;-;-;7.9791718;-0.39006042;1.2205353;-;-;-;-;-;-;-;-;-;-;-;-;-;-;-
1512469856126;-;-;9.558136;0.38446045;0.9404144;-;-;-;-;-;-;-;-;-;-;-;-;-;-;-
1512469856147;-;-;10.071701;0.38804626;-0.95939636;-;-;-;-;-;-;-;-;-;-;-;-;-;-;-
1512469856167;-;-;8.904526;0.70648193;-5.219879;-;-;-;-;-;-;-;-;-;-;-;-;-;-;-
1512469856187;-;-;8.656723;0.7400055;-5.2533875;-;-;-;-;-;-;-;-;-;-;-;-;-;-;-
1512469856208;-;-;8.83989;0.67655945;-4.044327;-;-;-;-;-;-;-;-;-;-;-;-;-;-;-
1512469856228;-;-;9.840652;5.8240814;-5.777725;-;-;-;-;-;-;-;-;-;-;-;-;-;-;-
1512469856249;-;-;21.797302;7.8591614;-6.7126617;-;-;-;-;-;-;-;-;-;-;-;-;-;-;-
1512469856269;-;-;21.174805;7.506012;-4.231064;-;-;-;-;-;-;-;-;-;-;-;-;-;-;-
1512469856289;-;-;14.728424;4.0212555;-3.116562;-;-;-;-;-;-;-;-;-;-;-;-;-;-;-
1512469856310;-;-;9.92804;0.27552795;-1.2502899;-;-;-;-;-;-;-;-;-;-;-;-;-;-;-
1512469856330;-;-;7.956421;-0.75398254;-0.29260254;-;-;-;-;-;-;-;-;-;-;-;-;-;-;-
1512469856351;-;-;11.960724;-1.234024;-1.8667908;-;-;-;-;-;-;-;-;-;-;-;-;-;-;-
1512469856371;-;-;11.98587;-0.91319275;-1.6381531;-;-;-;-;-;-;-;-;-;-;-;-;-;-;-
1512469856392;-;-;9.163101;-0.29429626;-0.1884613;-;-;-;-;-;-;-;-;-;-;-;-;-;-;-
1512469856412;-;-;5.711853;1.1134949;0.97273254;-;-;-;-;-;-;-;-;-;-;-;-;-;-;-
1512469856433;-;-;4.2071075;1.7048645;1.097229;-;-;-;-;-;-;-;-;-;-;-;-;-;-;-
1512469856453;-;-;5.5706024;0.6346588;-0.19325256;-;-;-;-;-;-;-;-;-;-;-;-;-;-;-
1512469856474;-;-;5.6903076;-0.04170227;-0.41949463;-;-;-;-;-;-;-;-;-;-;-;-;-;-;-
1512469856494;-;-;5.0055695;0.33418274;-0.333313;-;-;-;-;-;-;-;-;-;-;-;-;-;-;-
1512469856515;-;-;4.3268127;0.7950592;0.38375854;-;-;-;-;-;-;-;-;-;-;-;-;-;-;-
1512469856536;-;-;4.6105194;1.0727997;0.096450806;-;-;-;-;-;-;-;-;-;-;-;-;-;-;-
1512469856555;-;-;5.866287;2.29982;-1.1700745;-;-;-;-;-;-;-;-;-;-;-;-;-;-;-
1512469856576;-;-;6.850296;3.6453705;-2.4030914;-;-;-;-;-;-;-;-;-;-;-;-;-;-;-
1512469856596;-;-;6.94368;2.7762756;-2.610199;-;-;-;-;-;-;-;-;-;-;-;-;-;-;-
1512469856617;-;-;6.9233246;1.6857147;-0.8564453;-;-;-;-;-;-;-;-;-;-;-;-;-;-;-
1512469856638;-;-;6.956848;2.5236816;-0.412323;-;-;-;-;-;-;-;-;-;-;-;-;-;-;-
1512469856658;-;-;7.00473;2.4913635;-1.5339966;-;-;-;-;-;-;-;-;-;-;-;-;-;-;-
1512469856679;-;-;6.6216583;0.92555237;-5.009186;-;-;-;-;-;-;-;-;-;-;-;-;-;-;-
1512469856699;-;-;6.742569;-1.9103851;-6.0590363;-;-;-;-;-;-;-;-;-;-;-;-;-;-;-
1512469856720;-;-;10.782776;-3.9430542;-2.6473083;-;-;-;-;-;-;-;-;-;-;-;-;-;-;-
1512469856739;-;-;14.257965;-1.7535553;1.1427155;-;-;-;-;-;-;-;-;-;-;-;-;-;-;-
1512469856760;-;-;18.184448;0.17018127;-3.341629;-;-;-;-;-;-;-;-;-;-;-;-;-;-;-
1512469856780;-;-;23.206284;0.7651367;-6.618088;-;-;-;-;-;-;-;-;-;-;-;-;-;-;-
1512469856801;-;-;16.696457;-0.95150757;-0.6948395;-;-;-;-;-;-;-;-;-;-;-;-;-;-;-
1512469856821;-;-;11.012619;-3.9119263;1.6107788;-;-;-;-;-;-;-;-;-;-;-;-;-;-;-
1512469856842;-;-;8.496307;-3.2439575;-0.073532104;-;-;-;-;-;-;-;-;-;-;-;-;-;-;-
1512469856862;-;-;8.079727;-0.56604004;-0.2962036;-;-;-;-;-;-;-;-;-;-;-;-;-;-;-
1512469856882;-;-;6.7174225;0.5664215;0.4328308;-;-;-;-;-;-;-;-;-;-;-;-;-;-;-
1512469856903;-;-;5.7489624;0.38565063;-0.41471863;-;-;-;-;-;-;-;-;-;-;-;-;-;-;-
1512469856923;-;-;5.106125;0.556839;-0.45062256;-;-;-;-;-;-;-;-;-;-;-;-;-;-;-
1512469856944;-;-;6.433716;0.17376709;0.79196167;-;-;-;-;-;-;-;-;-;-;-;-;-;-;-
1512469856964;-;-;8.005508;-0.04649353;1.2540436;-;-;-;-;-;-;-;-;-;-;-;-;-;-;-
1512469856985;-;-;7.4596252;-0.22486877;0.015045166;-;-;-;-;-;-;-;-;-;-;-;-;-;-;-
1512469857004;-;-;5.868683;-0.49899292;-0.3620453;-;-;-;-;-;-;-;-;-;-;-;-;-;-;-
1512469857025;-;-;5.6256714;0.7112732;1.5581055;-;-;-;-;-;-;-;-;-;-;-;-;-;-;-
1512469857045;-;-;8.127609;1.4810028;2.0429382;-;-;-;-;-;-;-;-;-;-;-;-;-;-;-
1512469857066;-;-;9.764038;0.3317871;0.9427948;-;-;-;-;-;-;-;-;-;-;-;-;-;-;-
1512469857086;-;-;9.594055;-1.4111938;0.096450806;-;-;-;-;-;-;-;-;-;-;-;-;-;-;-
1512469857107;-;-;8.353867;-1.1981049;-0.8684082;-;-;-;-;-;-;-;-;-;-;-;-;-;-;-
1512469857127;-;-;7.4572296;-0.15782166;-4.0119934;-;-;-;-;-;-;-;-;-;-;-;-;-;-;-
1512469857148;-;-;7.822342;0.9207611;-6.5486603;-;-;-;-;-;-;-;-;-;-;-;-;-;-;-
1512469857168;-;-;8.7417145;1.4822083;-5.990814;-;-;-;-;-;-;-;-;-;-;-;-;-;-;-
1512469857189;-;-;10.9192505;4.374405;-3.4230194;-;-;-;-;-;-;-;-;-;-;-;-;-;-;-
1512469857208;-;-;16.235565;8.496017;-7.338745;-;-;-;-;-;-;-;-;-;-;-;-;-;-;-
1512469857229;-;-;20.801315;9.039505;-4.4393616;-;-;-;-;-;-;-;-;-;-;-;-;-;-;-
1512469857249;-;-;17.751099;5.874359;-2.8963013;-;-;-;-;-;-;-;-;-;-;-;-;-;-;-
1512469857270;-;-;13.399643;0.53889465;-2.1828308;-;-;-;-;-;-;-;-;-;-;-;-;-;-;-
1512469857290;-;-;11.157471;-1.8098297;-0.8935547;-;-;-;-;-;-;-;-;-;-;-;-;-;-;-
1512469857310;-;-;9.905304;-1.6972961;-0.9797363;-;-;-;-;-;-;-;-;-;-;-;-;-;-;-
1512469857331;-;-;8.770447;-0.6869507;-0.0687561;-;-;-;-;-;-;-;-;-;-;-;-;-;-;-
1512469857351;-;-;7.355484;0.78549194;0.24249268;-;-;-;-;-;-;-;-;-;-;-;-;-;-;-
1512469857372;-;-;6.1883087;2.1681366;-0.0076904297;-;-;-;-;-;-;-;-;-;-;-;-;-;-;-
1512469857393;-;-;5.3563232;2.117859;-0.18127441;-;-;-;-;-;-;-;-;-;-;-;-;-;-;-
1512469857413;-;-;5.399414;0.93751526;-1.2012024;-;-;-;-;-;-;-;-;-;-;-;-;-;-;-
1512469857433;-;-;5.1683807;0.22883606;-1.1365662;-;-;-;-;-;-;-;-;-;-;-;-;-;-;-
1512469857453;-;-;5.1839294;-0.24401855;-0.6732788;-;-;-;-;-;-;-;-;-;-;-;-;-;-;-
1512469857474;-;-;5.0259247;-0.30625916;0.22813416;-;-;-;-;-;-;-;-;-;-;-;-;-;-;-
1512469857494;-;-;4.827194;0.32939148;0.001876831;-;-;-;-;-;-;-;-;-;-;-;-;-;-;-
1512469857515;-;-;4.881073;0.8956299;-0.9354553;-;-;-;-;-;-;-;-;-;-;-;-;-;-;-
1512469857536;-;-;5.9907837;1.8078156;-1.7482758;-;-;-;-;-;-;-;-;-;-;-;-;-;-;-
1512469857556;-;-;7.284851;1.877243;-1.5304108;-;-;-;-;-;-;-;-;-;-;-;-;-;-;-
1512469857576;-;-;8.705811;1.9311218;-1.6968079;-;-;-;-;-;-;-;-;-;-;-;-;-;-;-
1512469857597;-;-;8.880585;1.9239349;-2.4773102;-;-;-;-;-;-;-;-;-;-;-;-;-;-;-
1512469857617;-;-;6.96402;0.4407196;-2.6616669;-;-;-;-;-;-;-;-;-;-;-;-;-;-;-
1512469857638;-;-;4.7601624;-0.4271698;-2.2905731;-;-;-;-;-;-;-;-;-;-;-;-;-;-;-
1512469857660;-;-;4.6572113;-0.16619873;-3.3236694;-;-;-;-;-;-;-;-;-;-;-;-;-;-;-
1512469857679;-;-;6.4648285;-0.56843567;-2.670044;-;-;-;-;-;-;-;-;-;-;-;-;-;-;-
1512469857700;-;-;10.506241;-2.36409;-2.8903198;-;-;-;-;-;-;-;-;-;-;-;-;-;-;-
1512469857721;-;-;15.563995;-1.3680878;-3.6181488;-;-;-;-;-;-;-;-;-;-;-;-;-;-;-
1512469857741;-;-;18.369995;-0.45710754;-3.6444855;-;-;-;-;-;-;-;-;-;-;-;-;-;-;-
1512469857762;-;-;21.912216;-0.14585876;-5.4269714;-;-;-;-;-;-;-;-;-;-;-;-;-;-;-
1512469857782;-;-;19.046371;0.21566772;-0.7283478;-;-;-;-;-;-;-;-;-;-;-;-;-;-;-
1512469857802;-;-;12.546112;-0.72406006;0.49269104;-;-;-;-;-;-;-;-;-;-;-;-;-;-;-
1512469857823;-;-;8.375412;-0.26675415;1.1331329;-;-;-;-;-;-;-;-;-;-;-;-;-;-;-
1512469857844;-;-;7.1483765;-1.819397;0.7428894;-;-;-;-;-;-;-;-;-;-;-;-;-;-;-
1512469857864;-;-;7.394989;-3.565979;-0.333313;-;-;-;-;-;-;-;-;-;-;-;-;-;-;-
1512469857885;-;-;6.1092987;-2.8872223;-1.9601746;-;-;-;-;-;-;-;-;-;-;-;-;-;-;-
1512469857905;-;-;5.9632416;-0.22964478;0.2808075;-;-;-;-;-;-;-;-;-;-;-;-;-;-;-
1512469857926;-;-;5.983597;2.1585693;1.1451111;-;-;-;-;-;-;-;-;-;-;-;-;-;-;-
1512469857946;-;-;6.383438;2.3752441;0.2233429;-;-;-;-;-;-;-;-;-;-;-;-;-;-;-
1512469857967;-;-;4.8547363;1.6809235;-0.0914917;-;-;-;-;-;-;-;-;-;-;-;-;-;-;-
1512469857988;-;-;4.283722;0.86569214;0.9990692;-;-;-;-;-;-;-;-;-;-;-;-;-;-;-
1512469858008;-;-;6.2038727;0.29109192;0.75245667;-;-;-;-;-;-;-;-;-;-;-;-;-;-;-
1512469858029;-;-;9.23613;-0.34217834;0.66867065;-;-;-;-;-;-;-;-;-;-;-;-;-;-;-
1512469858049;-;-;9.689819;-1.3944244;1.1091919;-;-;-;-;-;-;-;-;-;-;-;-;-;-;-
1512469858069;-;-;8.224579;-2.0791779;2.1183472;-;-;-;-;-;-;-;-;-;-;-;-;-;-;-
1512469858089;-;-;7.4332886;-2.590332;2.0082245;-;-;-;-;-;-;-;-;-;-;-;-;-;-;-
1512469858110;-;-;6.4851837;-2.2479706;-4.5171814;-;-;-;-;-;-;-;-;-;-;-;-;-;-;-
1512469858131;-;-;7.4847565;-0.9479065;-6.800049;-;-;-;-;-;-;-;-;-;-;-;-;-;-;-
1512469858151;-;-;7.2190094;0.5257263;-6.090164;-;-;-;-;-;-;-;-;-;-;-;-;-;-;-
1512469858172;-;-;10.20697;4.113434;-3.7043457;-;-;-;-;-;-;-;-;-;-;-;-;-;-;-
1512469858192;-;-;13.229645;5.2422943;-4.950531;-;-;-;-;-;-;-;-;-;-;-;-;-;-;-
1512469858212;-;-;16.327744;4.010483;-2.0032654;-;-;-;-;-;-;-;-;-;-;-;-;-;-;-
1512469858233;-;-;18.239517;5.0483704;-0.372818;-;-;-;-;-;-;-;-;-;-;-;-;-;-;-
1512469858253;-;-;16.522873;4.2630615;-6.3176117;-;-;-;-;-;-;-;-;-;-;-;-;-;-;-
1512469858274;-;-;16.701248;0.517334;-2.8544006;-;-;-;-;-;-;-;-;-;-;-;-;-;-;-
1512469858294;-;-;15.935104;-1.7942657;-1.6177979;-;-;-;-;-;-;-;-;-;-;-;-;-;-;-
1512469858315;-;-;13.80426;-1.3429565;0.15989685;-;-;-;-;-;-;-;-;-;-;-;-;-;-;-
1512469858335;-;-;10.772003;0.16778564;-0.788208;-;-;-;-;-;-;-;-;-;-;-;-;-;-;-
1512469858355;-;-;8.0928955;1.8018341;-0.43147278;-;-;-;-;-;-;-;-;-;-;-;-;-;-;-
1512469858376;-;-;6.1799316;1.3768616;-0.4350586;-;-;-;-;-;-;-;-;-;-;-;-;-;-;-
1512469858396;-;-;5.1994934;0.29467773;-0.9546051;-;-;-;-;-;-;-;-;-;-;-;-;-;-;-
1512469858417;-;-;4.1197205;0.14503479;0.8159027;-;-;-;-;-;-;-;-;-;-;-;-;-;-;-
1512469858437;-;-;4.2861176;0.43473816;1.9351959;-;-;-;-;-;-;-;-;-;-;-;-;-;-;-
1512469858458;-;-;3.6025696;0.39881897;1.1463013;-;-;-;-;-;-;-;-;-;-;-;-;-;-;-
1512469858478;-;-;1.7015686;0.124694824;-0.72117615;-;-;-;-;-;-;-;-;-;-;-;-;-;-;-
1512469858501;-;-;0.59425354;-0.9323425;-0.58709717;-;-;-;-;-;-;-;-;-;-;-;-;-;-;-
1512469858521;-;-;1.6153717;-0.83657837;1.2720032;-;-;-;-;-;-;-;-;-;-;-;-;-;-;-
1512469858542;-;-;5.671158;0.88365173;0.48550415;-;-;-;-;-;-;-;-;-;-;-;-;-;-;-
1512469858562;-;-;10.800735;2.466217;-1.4609833;-;-;-;-;-;-;-;-;-;-;-;-;-;-;-
1512469858583;-;-;13.173386;3.4119263;-1.4549866;-;-;-;-;-;-;-;-;-;-;-;-;-;-;-
1512469858604;-;-;10.688202;3.371231;-0.77145386;-;-;-;-;-;-;-;-;-;-;-;-;-;-;-
1512469858624;-;-;4.521942;2.2268066;-1.9386139;-;-;-;-;-;-;-;-;-;-;-;-;-;-;-
1512469858644;-;-;4.5039825;1.0045624;-4.5351257;-;-;-;-;-;-;-;-;-;-;-;-;-;-;-
1512469858665;-;-;8.717773;0.1558075;-7.045456;-;-;-;-;-;-;-;-;-;-;-;-;-;-;-
1512469858685;-;-;14.81102;-0.4439392;-5.5778046;-;-;-;-;-;-;-;-;-;-;-;-;-;-;-
1512469858706;-;-;18.933838;-0.9754486;-7.756531;-;-;-;-;-;-;-;-;-;-;-;-;-;-;-
1512469858726;-;-;23.127274;-2.008545;-8.217407;-;-;-;-;-;-;-;-;-;-;-;-;-;-;-
1512469858747;-;-;21.064682;-1.0448761;-7.4704285;-;-;-;-;-;-;-;-;-;-;-;-;-;-;-
1512469858767;-;-;15.377243;0.7028961;-2.005661;-;-;-;-;-;-;-;-;-;-;-;-;-;-;-
1512469858788;-;-;10.959946;1.7958374;-1.3424683;-;-;-;-;-;-;-;-;-;-;-;-;-;-;-
1512469858807;-;-;8.661514;0.67655945;-1.6393433;-;-;-;-;-;-;-;-;-;-;-;-;-;-;-
1512469858827;-;-;8.321533;-1.5680084;-1.4909058;-;-;-;-;-;-;-;-;-;-;-;-;-;-;-
1512469858848;-;-;8.393356;-2.7076569;-2.6604767;-;-;-;-;-;-;-;-;-;-;-;-;-;-;-
1512469858868;-;-;8.991913;-1.9235535;-2.326477;-;-;-;-;-;-;-;-;-;-;-;-;-;-;-
1512469858889;-;-;7.928894;-0.064453125;-1.155716;-;-;-;-;-;-;-;-;-;-;-;-;-;-;-
1512469858909;-;-;6.5953217;0.4981842;-0.96058655;-;-;-;-;-;-;-;-;-;-;-;-;-;-;-
1512469858929;-;-;4.9576874;0.6861267;-0.5858917;-;-;-;-;-;-;-;-;-;-;-;-;-;-;-
1512469858950;-;-;3.5498962;0.6466217;-0.23155212;-;-;-;-;-;-;-;-;-;-;-;-;-;-;-
1512469858970;-;-;4.587784;0.38804626;-0.06994629;-;-;-;-;-;-;-;-;-;-;-;-;-;-;-
1512469858991;-;-;6.8945923;-0.0105896;0.18623352;-;-;-;-;-;-;-;-;-;-;-;-;-;-;-
1512469859010;-;-;7.877411;-0.4271698;1.1175842;-;-;-;-;-;-;-;-;-;-;-;-;-;-;-
1512469859031;-;-;8.727356;-0.5361023;2.776764;-;-;-;-;-;-;-;-;-;-;-;-;-;-;-
1512469859051;-;-;9.737701;-1.4351349;1.8741455;-;-;-;-;-;-;-;-;-;-;-;-;-;-;-
1512469859072;-;-;10.242889;-3.0236816;1.0684967;-;-;-;-;-;-;-;-;-;-;-;-;-;-;-
1512469859092;-;-;10.218948;-2.8572845;1.1822205;-;-;-;-;-;-;-;-;-;-;-;-;-;-;-
1512469859113;-;-;11.304718;-4.061569;-4.3723297;-;-;-;-;-;-;-;-;-;-;-;-;-;-;-
1512469859133;-;-;13.501389;-5.4897156;-9.31636;-;-;-;-;-;-;-;-;-;-;-;-;-;-;-
1512469859154;-;-;13.821014;-0.0021972656;-7.1783295;-;-;-;-;-;-;-;-;-;-;-;-;-;-;-
1512469859174;-;-;11.7668;6.0216064;-4.076645;-;-;-;-;-;-;-;-;-;-;-;-;-;-;-
1512469859195;-;-;11.0772705;6.2837677;-5.3874664;-;-;-;-;-;-;-;-;-;-;-;-;-;-;-
1512469859215;-;-;10.512238;1.0871582;-3.7749786;-;-;-;-;-;-;-;-;-;-;-;-;-;-;-
1512469859236;-;-;10.853409;-2.3868256;-1.9086914;-;-;-;-;-;-;-;-;-;-;-;-;-;-;-
1512469859256;-;-;11.773972;-4.8959503;-1.9146729;-;-;-;-;-;-;-;-;-;-;-;-;-;-;-
1512469859277;-;-;10.995865;-3.972992;-2.2917633;-;-;-;-;-;-;-;-;-;-;-;-;-;-;-
1512469859298;-;-;9.228943;-1.214859;-2.4809113;-;-;-;-;-;-;-;-;-;-;-;-;-;-;-
1512469859318;-;-;7.422516;0.5484619;-2.3228912;-;-;-;-;-;-;-;-;-;-;-;-;-;-;-
1512469859338;-;-;5.7525635;1.4307251;-1.8751678;-;-;-;-;-;-;-;-;-;-;-;-;-;-;-
1512469859359;-;-;4.4872284;1.8916168;-1.7207489;-;-;-;-;-;-;-;-;-;-;-;-;-;-;-
1512469859379;-;-;3.8527527;1.6150818;-1.8356628;-;-;-;-;-;-;-;-;-;-;-;-;-;-;-
1512469859400;-;-;5.000778;1.4941711;-2.0786743;-;-;-;-;-;-;-;-;-;-;-;-;-;-;-
1512469859420;-;-;7.4416656;1.5025482;-1.6118164;-;-;-;-;-;-;-;-;-;-;-;-;-;-;-
1512469859441;-;-;9.817917;1.2344055;-2.2331085;-;-;-;-;-;-;-;-;-;-;-;-;-;-;-
1512469859461;-;-;9.746094;0.92196655;-2.1576843;-;-;-;-;-;-;-;-;-;-;-;-;-;-;-
1512469859481;-;-;8.529831;0.7076721;-1.3640137;-;-;-;-;-;-;-;-;-;-;-;-;-;-;-
1512469859502;-;-;7.1004944;0.8632965;-1.2514801;-;-;-;-;-;-;-;-;-;-;-;-;-;-;-
1512469859522;-;-;6.1128845;1.5911407;-1.1389618;-;-;-;-;-;-;-;-;-;-;-;-;-;-;-
1512469859542;-;-;5.7932587;2.505722;-0.6912384;-;-;-;-;-;-;-;-;-;-;-;-;-;-;-
1512469859563;-;-;7.971985;4.205612;-1.0048828;-;-;-;-;-;-;-;-;-;-;-;-;-;-;-
1512469859583;-;-;10.737289;4.8723907;-1.0838928;-;-;-;-;-;-;-;-;-;-;-;-;-;-;-
1512469859604;-;-;13.46907;3.8500671;-0.06515503;-;-;-;-;-;-;-;-;-;-;-;-;-;-;-
1512469859623;-;-;13.933548;1.1733551;0.103637695;-;-;-;-;-;-;-;-;-;-;-;-;-;-;-
1512469859643;-;-;11.320282;-0.50857544;-1.7458801;-;-;-;-;-;-;-;-;-;-;-;-;-;-;-
1512469859664;-;-;8.286819;-0.7982788;-3.7630005;-;-;-;-;-;-;-;-;-;-;-;-;-;-;-
1512469859684;-;-;8.1922455;-2.190506;-3.930603;-;-;-;-;-;-;-;-;-;-;-;-;-;-;-
1512469859705;-;-;11.893692;-1.9211578;-3.7701874;-;-;-;-;-;-;-;-;-;-;-;-;-;-;-
1512469859725;-;-;13.24881;-0.80426025;-5.515564;-;-;-;-;-;-;-;-;-;-;-;-;-;-;-
1512469859746;-;-;11.19339;-0.88327026;-4.1113586;-;-;-;-;-;-;-;-;-;-;-;-;-;-;-
1512469859766;-;-;7.5673676;-2.0983276;-3.8420105;-;-;-;-;-;-;-;-;-;-;-;-;-;-;-
1512469859787;-;-;5.8722687;-2.3437347;-4.9289856;-;-;-;-;-;-;-;-;-;-;-;-;-;-;-
1512469859808;-;-;7.031067;-0.6067352;-4.7829285;-;-;-;-;-;-;-;-;-;-;-;-;-;-;-
1512469859828;-;-;8.517868;1.6497955;-4.222687;-;-;-;-;-;-;-;-;-;-;-;-;-;-;-
1512469859850;-;-;9.647919;2.0615997;-3.9377747;-;-;-;-;-;-;-;-;-;-;-;-;-;-;-
1512469859868;-;-;9.21936;1.2296143;-3.5259705;-;-;-;-;-;-;-;-;-;-;-;-;-;-;-
1512469859889;-;-;8.173096;-0.114730835;-2.3073273;-;-;-;-;-;-;-;-;-;-;-;-;-;-;-
1512469859909;-;-;6.5234985;-0.97184753;-1.9553833;-;-;-;-;-;-;-;-;-;-;-;-;-;-;-
1512469859929;-;-;6.355896;-0.49301147;-1.5591431;-;-;-;-;-;-;-;-;-;-;-;-;-;-;-
1512469859950;-;-;6.743759;-0.08720398;-1.8392639;-;-;-;-;-;-;-;-;-;-;-;-;-;-;-
1512469859970;-;-;7.766083;-0.31704712;-1.6944122;-;-;-;-;-;-;-;-;-;-;-;-;-;-;-
1512469859991;-;-;8.037827;-1.4207611;-1.7003937;-;-;-;-;-;-;-;-;-;-;-;-;-;-;-
1512469860012;-;-;8.423294;-2.0001678;-1.8775635;-;-;-;-;-;-;-;-;-;-;-;-;-;-;-
1512469860032;-;-;9.145142;-1.4315338;-1.5938568;-;-;-;-;-;-;-;-;-;-;-;-;-;-;-
1512469860052;-;-;10.081268;-0.76356506;-1.4154816;-;-;-;-;-;-;-;-;-;-;-;-;-;-;-
1512469860072;-;-;10.068115;-0.5744171;-1.8608093;-;-;-;-;-;-;-;-;-;-;-;-;-;-;-
1512469860093;-;-;9.518631;-1.0257263;-1.9338379;-;-;-;-;-;-;-;-;-;-;-;-;-;-;-
1512469860113;-;-;9.402527;-0.996994;-1.3053589;-;-;-;-;-;-;-;-;-;-;-;-;-;-;-
1512469860134;-;-;9.67067;-0.6534271;-0.99650574;-;-;-;-;-;-;-;-;-;-;-;-;-;-;-
1512469860154;-;-;10.032196;-0.47146606;-0.91989136;-;-;-;-;-;-;-;-;-;-;-;-;-;-;-
1512469860175;-;-;10.143524;-0.6869507;-0.5631561;-;-;-;-;-;-;-;-;-;-;-;-;-;-;-
1512469860195;-;-;9.798767;-1.1131134;0.025817871;-;-;-;-;-;-;-;-;-;-;-;-;-;-;-
1512469860216;-;-;9.070923;-1.4889984;0.53578186;-;-;-;-;-;-;-;-;-;-;-;-;-;-;-
1512469860236;-;-;8.317947;-1.9881897;0.6363373;-;-;-;-;-;-;-;-;-;-;-;-;-;-;-
1512469860257;-;-;8.509476;-2.5771637;-3.1309357;-;-;-;-;-;-;-;-;-;-;-;-;-;-;-
1512469860277;-;-;10.28598;-2.8213806;-3.8491974;-;-;-;-;-;-;-;-;-;-;-;-;-;-;-
1512469860298;-;-;14.097549;-2.3616943;-7.1627655;-;-;-;-;-;-;-;-;-;-;-;-;-;-;-
1512469860318;-;-;14.487808;0.39881897;-7.007141;-;-;-;-;-;-;-;-;-;-;-;-;-;-;-
1512469860339;-;-;10.750458;2.193283;-6.7437897;-;-;-;-;-;-;-;-;-;-;-;-;-;-;-
1512469860359;-;-;6.7760773;3.3927765;-5.374298;-;-;-;-;-;-;-;-;-;-;-;-;-;-;-
1512469860380;-;-;5.941696;3.156952;-3.8527832;-;-;-;-;-;-;-;-;-;-;-;-;-;-;-
1512469860399;-;-;7.502716;1.1194763;-2.7598267;-;-;-;-;-;-;-;-;-;-;-;-;-;-;-
1512469860420;-;-;10.153107;-1.4423218;-2.2378998;-;-;-;-;-;-;-;-;-;-;-;-;-;-;-
1512469860440;-;-;10.951569;-2.1689606;-2.5048523;-;-;-;-;-;-;-;-;-;-;-;-;-;-;-
1512469860460;-;-;9.979523;-1.617096;-2.9322205;-;-;-;-;-;-;-;-;-;-;-;-;-;-;-
1512469860481;-;-;8.217392;-0.00579834;-2.8663788;-;-;-;-;-;-;-;-;-;-;-;-;-;-;-
1512469860501;-;-;6.956848;0.64782715;-2.6269531;-;-;-;-;-;-;-;-;-;-;-;-;-;-;-
1512469860522;-;-;6.446884;0.79267883;-2.3779602;-;-;-;-;-;-;-;-;-;-;-;-;-;-;-
1512469860542;-;-;6.0817566;0.8621063;-1.9853058;-;-;-;-;-;-;-;-;-;-;-;-;-;-;-
1512469860562;-;-;6.0733795;1.2858734;-1.7039948;-;-;-;-;-;-;-;-;-;-;-;-;-;-;-
1512469860583;-;-;7.550598;1.9885712;-1.8596191;-;-;-;-;-;-;-;-;-;-;-;-;-;-;-
1512469860602;-;-;8.850662;2.5236816;-1.7877808;-;-;-;-;-;-;-;-;-;-;-;-;-;-;-
1512469860622;-;-;9.825104;2.5619812;-1.4968872;-;-;-;-;-;-;-;-;-;-;-;-;-;-;-
1512469860643;-;-;9.874176;2.0220947;-0.79060364;-;-;-;-;-;-;-;-;-;-;-;-;-;-;-
1512469860663;-;-;9.339081;0.9016113;-0.37998962;-;-;-;-;-;-;-;-;-;-;-;-;-;-;-
1512469860684;-;-;8.695038;0.5747986;0.2520752;-;-;-;-;-;-;-;-;-;-;-;-;-;-;-
1512469860703;-;-;7.8486786;0.6466217;0.54177856;-;-;-;-;-;-;-;-;-;-;-;-;-;-;-
1512469860724;-;-;7.643982;1.006958;-0.23873901;-;-;-;-;-;-;-;-;-;-;-;-;-;-;-
1512469860744;-;-;7.7134094;2.0340729;-0.5811157;-;-;-;-;-;-;-;-;-;-;-;-;-;-;-
1512469860766;-;-;7.8546753;2.8433075;-0.49850464;-;-;-;-;-;-;-;-;-;-;-;-;-;-;-
1512469860784;-;-;8.910507;2.5356445;-0.91030884;-;-;-;-;-;-;-;-;-;-;-;-;-;-;-
1512469860804;-;-;9.7808075;2.1106873;-0.7020111;-;-;-;-;-;-;-;-;-;-;-;-;-;-;-
1512469860825;-;-;9.450409;1.9155579;0.20898438;-;-;-;-;-;-;-;-;-;-;-;-;-;-;-
1512469860845;-;-;9.2313385;1.501358;0.4220581;-;-;-;-;-;-;-;-;-;-;-;-;-;-;-
1512469860866;-;-;8.163513;1.209259;-0.3009796;-;-;-;-;-;-;-;-;-;-;-;-;-;-;-
1512469860887;-;-;7.229782;1.4522705;-2.7538452;-;-;-;-;-;-;-;-;-;-;-;-;-;-;-
1512469860906;-;-;10.421249;2.339325;-5.0546722;-;-;-;-;-;-;-;-;-;-;-;-;-;-;-
1512469860927;-;-;13.23085;5.79895;-5.828003;-;-;-;-;-;-;-;-;-;-;-;-;-;-;-
1512469860947;-;-;13.01297;3.769867;-4.2957153;-;-;-;-;-;-;-;-;-;-;-;-;-;-;-
1512469860968;-;-;13.8485565;-1.7475739;-2.8496094;-;-;-;-;-;-;-;-;-;-;-;-;-;-;-
1512469860988;-;-;11.84819;-5.6273804;-3.1057892;-;-;-;-;-;-;-;-;-;-;-;-;-;-;-
1512469861009;-;-;8.714188;-4.9007416;-3.2099457;-;-;-;-;-;-;-;-;-;-;-;-;-;-;-
1512469861029;-;-;5.5358887;-0.7084961;-3.4002838;-;-;-;-;-;-;-;-;-;-;-;-;-;-;-
1512469861050;-;-;4.6943207;4.49411;-2.8496094;-;-;-;-;-;-;-;-;-;-;-;-;-;-;-
1512469861071;-;-;7.02388;5.6576843;-3.0531158;-;-;-;-;-;-;-;-;-;-;-;-;-;-;-
1512469861091;-;-;10.318298;4.149338;-3.1177673;-;-;-;-;-;-;-;-;-;-;-;-;-;-;-
1512469861111;-;-;11.289154;1.374466;-2.5383606;-;-;-;-;-;-;-;-;-;-;-;-;-;-;-
1512469861132;-;-;10.095642;-0.9874115;-1.4609833;-;-;-;-;-;-;-;-;-;-;-;-;-;-;-
1512469861152;-;-;9.076904;-2.221634;-0.94262695;-;-;-;-;-;-;-;-;-;-;-;-;-;-;-
1512469861173;-;-;8.390976;-1.4075928;-0.9450226;-;-;-;-;-;-;-;-;-;-;-;-;-;-;-
1512469861193;-;-;6.953247;0.057647705;-1.8033447;-;-;-;-;-;-;-;-;-;-;-;-;-;-;-
1512469861213;-;-;6.410965;0.30784607;-1.5830841;-;-;-;-;-;-;-;-;-;-;-;-;-;-;-
1512469861234;-;-;6.92572;-0.16261292;-1.0707245;-;-;-;-;-;-;-;-;-;-;-;-;-;-;-
1512469861253;-;-;7.997116;-0.25598145;-1.0838928;-;-;-;-;-;-;-;-;-;-;-;-;-;-;-
1512469861274;-;-;9.424072;-0.100372314;-1.2395172;-;-;-;-;-;-;-;-;-;-;-;-;-;-;-
1512469861293;-;-;10.557724;-0.05368042;-0.8851776;-;-;-;-;-;-;-;-;-;-;-;-;-;-;-
1512469861314;-;-;10.40329;0.16659546;-1.2203674;-;-;-;-;-;-;-;-;-;-;-;-;-;-;-
1512469861334;-;-;9.430054;0.34495544;-1.3149261;-;-;-;-;-;-;-;-;-;-;-;-;-;-;-
1512469861356;-;-;7.9935303;0.40600586;-1.2299347;-;-;-;-;-;-;-;-;-;-;-;-;-;-;-
1512469861375;-;-;6.96402;0.17137146;-1.2861938;-;-;-;-;-;-;-;-;-;-;-;-;-;-;-
1512469861396;-;-;5.759735;0.15701294;-0.98931885;-;-;-;-;-;-;-;-;-;-;-;-;-;-;-
1512469861416;-;-;5.320404;0.31143188;-0.53681946;-;-;-;-;-;-;-;-;-;-;-;-;-;-;-
1512469861437;-;-;5.4568787;0.2886963;-0.24711609;-;-;-;-;-;-;-;-;-;-;-;-;-;-;-
1512469861458;-;-;5.552643;0.34735107;-0.6373749;-;-;-;-;-;-;-;-;-;-;-;-;-;-;-
1512469861478;-;-;5.6065063;0.09954834;-0.52005005;-;-;-;-;-;-;-;-;-;-;-;-;-;-;-
1512469861498;-;-;5.826782;0.20489502;0.120391846;-;-;-;-;-;-;-;-;-;-;-;-;-;-;-
1512469861518;-;-;6.9664154;0.2695465;-0.16091919;-;-;-;-;-;-;-;-;-;-;-;-;-;-;-
1512469861539;-;-;8.095291;0.37368774;-0.2973938;-;-;-;-;-;-;-;-;-;-;-;-;-;-;-
1512469861559;-;-;8.917694;-0.03930664;0.22453308;-;-;-;-;-;-;-;-;-;-;-;-;-;-;-
1512469861580;-;-;8.612427;-0.9550934;1.0553284;-;-;-;-;-;-;-;-;-;-;-;-;-;-;-
1512469861601;-;-;7.995926;-1.6242676;1.5617065;-;-;-;-;-;-;-;-;-;-;-;-;-;-;-
1512469861621;-;-;8.125214;-1.2435913;0.9882965;-;-;-;-;-;-;-;-;-;-;-;-;-;-;-
1512469861642;-;-;8.296402;-0.43196106;-2.1301575;-;-;-;-;-;-;-;-;-;-;-;-;-;-;-
1512469861662;-;-;9.9388275;0.14503479;-4.5411224;-;-;-;-;-;-;-;-;-;-;-;-;-;-;-
1512469861682;-;-;11.60997;0.872879;-6.3439484;-;-;-;-;-;-;-;-;-;-;-;-;-;-;-
1512469861703;-;-;15.303024;2.4458618;-6.057846;-;-;-;-;-;-;-;-;-;-;-;-;-;-;-
1512469861723;-;-;19.06073;8.03154;-9.595276;-;-;-;-;-;-;-;-;-;-;-;-;-;-;-
1512469861744;-;-;19.544357;9.2274475;-1.1832428;-;-;-;-;-;-;-;-;-;-;-;-;-;-;-
1512469861763;-;-;15.0420685;6.2155457;-4.8978577;-;-;-;-;-;-;-;-;-;-;-;-;-;-;-
1512469861783;-;-;11.637512;1.3146057;-2.1349487;-;-;-;-;-;-;-;-;-;-;-;-;-;-;-
1512469861804;-;-;8.456802;-2.1450195;0.24369812;-;-;-;-;-;-;-;-;-;-;-;-;-;-;-
1512469861824;-;-;10.317108;-3.0188904;-0.07234192;-;-;-;-;-;-;-;-;-;-;-;-;-;-;-
1512469861845;-;-;11.283173;-0.9539032;-0.47216797;-;-;-;-;-;-;-;-;-;-;-;-;-;-;-
1512469861865;-;-;10.892914;1.640213;-0.9546051;-;-;-;-;-;-;-;-;-;-;-;-;-;-;-
1512469861886;-;-;8.546585;3.4753723;-1.4825287;-;-;-;-;-;-;-;-;-;-;-;-;-;-;-
1512469861906;-;-;5.7729034;2.6014862;-1.2299347;-;-;-;-;-;-;-;-;-;-;-;-;-;-;-
1512469861927;-;-;3.9221954;1.1949005;-0.80856323;-;-;-;-;-;-;-;-;-;-;-;-;-;-;-
1512469861948;-;-;3.34758;0.38685608;-0.4242859;-;-;-;-;-;-;-;-;-;-;-;-;-;-;-
1512469861967;-;-;4.600952;0.6933136;-0.48893738;-;-;-;-;-;-;-;-;-;-;-;-;-;-;-
1512469861987;-;-;6.4241333;1.3205872;-0.40992737;-;-;-;-;-;-;-;-;-;-;-;-;-;-;-
1512469862008;-;-;7.3255463;1.3816528;-0.40872192;-;-;-;-;-;-;-;-;-;-;-;-;-;-;-
1512469862029;-;-;7.020294;1.2391968;-0.49971008;-;-;-;-;-;-;-;-;-;-;-;-;-;-;-
1512469862049;-;-;6.1990814;1.0189209;-1.0898743;-;-;-;-;-;-;-;-;-;-;-;-;-;-;-
1512469862070;-;-;5.3491364;1.1661682;-1.0491791;-;-;-;-;-;-;-;-;-;-;-;-;-;-;-
1512469862090;-;-;4.4165955;1.5252991;-0.27105713;-;-;-;-;-;-;-;-;-;-;-;-;-;-;-
1512469862111;-;-;4.6548157;1.2116547;0.3610077;-;-;-;-;-;-;-;-;-;-;-;-;-;-;-
1512469862131;-;-;7.086136;1.0021667;-0.41949463;-;-;-;-;-;-;-;-;-;-;-;-;-;-;-
1512469862152;-;-;8.686661;1.130249;-1.1126251;-;-;-;-;-;-;-;-;-;-;-;-;-;-;-
1512469862172;-;-;8.381393;0.69929504;0.062927246;-;-;-;-;-;-;-;-;-;-;-;-;-;-;-
1512469862192;-;-;6.1056976;0.66937256;0.33946228;-;-;-;-;-;-;-;-;-;-;-;-;-;-;-
1512469862213;-;-;6.1930847;2.0256805;-2.2139587;-;-;-;-;-;-;-;-;-;-;-;-;-;-;-
1512469862233;-;-;8.730942;3.917099;-5.096573;-;-;-;-;-;-;-;-;-;-;-;-;-;-;-
1512469862254;-;-;12.142685;3.50531;-6.816803;-;-;-;-;-;-;-;-;-;-;-;-;-;-;-
1512469862273;-;-;13.969452;1.3876343;-3.1632538;-;-;-;-;-;-;-;-;-;-;-;-;-;-;-
1512469862294;-;-;16.155365;-1.1969147;-1.2778168;-;-;-;-;-;-;-;-;-;-;-;-;-;-;-
1512469862314;-;-;20.6026;-5.2993774;-2.0774841;-;-;-;-;-;-;-;-;-;-;-;-;-;-;-
1512469862335;-;-;19.127762;-3.4546356;0.14433289;-;-;-;-;-;-;-;-;-;-;-;-;-;-;-
1512469862355;-;-;13.570831;-0.973053;0.7177429;-;-;-;-;-;-;-;-;-;-;-;-;-;-;-
1512469862376;-;-;10.633133;0.23841858;-1.3831635;-;-;-;-;-;-;-;-;-;-;-;-;-;-;-
1512469862395;-;-;9.574905;0.09236145;-0.5631561;-;-;-;-;-;-;-;-;-;-;-;-;-;-;-
1512469862416;-;-;9.697006;0.2922821;-0.7690582;-;-;-;-;-;-;-;-;-;-;-;-;-;-;-
1512469862435;-;-;9.63475;1.0093536;-0.9653778;-;-;-;-;-;-;-;-;-;-;-;-;-;-;-
1512469862456;-;-;8.331116;0.7112732;0.08088684;-;-;-;-;-;-;-;-;-;-;-;-;-;-;-
1512469862476;-;-;6.0147247;-0.14465332;-0.23873901;-;-;-;-;-;-;-;-;-;-;-;-;-;-;-
1512469862497;-;-;4.372299;-0.76116943;-0.30218506;-;-;-;-;-;-;-;-;-;-;-;-;-;-;-
1512469862517;-;-;3.2745667;-0.93115234;-0.68644714;-;-;-;-;-;-;-;-;-;-;-;-;-;-;-
1512469862538;-;-;3.114151;-0.8581238;-0.4673767;-;-;-;-;-;-;-;-;-;-;-;-;-;-;-
1512469862558;-;-;4.7841034;-0.48703003;-0.4278717;-;-;-;-;-;-;-;-;-;-;-;-;-;-;-
1512469862579;-;-;7.3315277;0.012161255;-0.022064209;-;-;-;-;-;-;-;-;-;-;-;-;-;-;-
1512469862599;-;-;8.490326;-0.32063293;0.47712708;-;-;-;-;-;-;-;-;-;-;-;-;-;-;-
1512469862620;-;-;7.5398254;-1.0736084;0.59324646;-;-;-;-;-;-;-;-;-;-;-;-;-;-;-
1512469862641;-;-;6.218231;-2.1390228;0.64352417;-;-;-;-;-;-;-;-;-;-;-;-;-;-;-
1512469862661;-;-;6.367874;-2.9937592;0.71055603;-;-;-;-;-;-;-;-;-;-;-;-;-;-;-
1512469862682;-;-;6.3930054;-3.202057;0.66867065;-;-;-;-;-;-;-;-;-;-;-;-;-;-;-
1512469862703;-;-;7.3387146;-2.3461304;0.37417603;-;-;-;-;-;-;-;-;-;-;-;-;-;-;-
1512469862722;-;-;8.458008;-0.6941223;-0.41949463;-;-;-;-;-;-;-;-;-;-;-;-;-;-;-
1512469862743;-;-;9.92804;0.18334961;-4.108963;-;-;-;-;-;-;-;-;-;-;-;-;-;-;-
1512469862763;-;-;11.574066;0.40600586;-6.840744;-;-;-;-;-;-;-;-;-;-;-;-;-;-;-
1512469862784;-;-;11.727295;2.6374054;-5.5802;-;-;-;-;-;-;-;-;-;-;-;-;-;-;-
1512469862804;-;-;17.105865;9.195129;-7.6056976;-;-;-;-;-;-;-;-;-;-;-;-;-;-;-
1512469862824;-;-;23.081787;11.2122345;-1.452591;-;-;-;-;-;-;-;-;-;-;-;-;-;-;-
1512469862845;-;-;17.001709;6.601013;-3.2841644;-;-;-;-;-;-;-;-;-;-;-;-;-;-;-
1512469862866;-;-;12.000229;-0.17459106;-0.9342499;-;-;-;-;-;-;-;-;-;-;-;-;-;-;-
1512469862886;-;-;10.101624;-1.6087189;0.9200592;-;-;-;-;-;-;-;-;-;-;-;-;-;-;-
1512469862906;-;-;11.113174;-1.9965668;-0.28422546;-;-;-;-;-;-;-;-;-;-;-;-;-;-;-
1512469862927;-;-;12.611954;0.8668976;-1.322113;-;-;-;-;-;-;-;-;-;-;-;-;-;-;-
1512469862947;-;-;10.405685;2.9115448;-1.6369476;-;-;-;-;-;-;-;-;-;-;-;-;-;-;-
1512469862968;-;-;8.301193;3.9745636;-1.2574768;-;-;-;-;-;-;-;-;-;-;-;-;-;-;-
1512469862988;-;-;6.3738556;3.5112915;-0.6397705;-;-;-;-;-;-;-;-;-;-;-;-;-;-;-
1512469863009;-;-;5.154007;1.4091797;-1.0767059;-;-;-;-;-;-;-;-;-;-;-;-;-;-;-
1512469863029;-;-;4.1520386;0.1558075;-0.5248413;-;-;-;-;-;-;-;-;-;-;-;-;-;-;-
1512469863050;-;-;4.501587;0.098358154;0.12397766;-;-;-;-;-;-;-;-;-;-;-;-;-;-;-
1512469863070;-;-;5.217453;0.93392944;0.44839478;-;-;-;-;-;-;-;-;-;-;-;-;-;-;-
1512469863090;-;-;5.5478516;1.5671997;-0.37161255;-;-;-;-;-;-;-;-;-;-;-;-;-;-;-
1512469863111;-;-;5.3539276;1.7276154;-0.92108154;-;-;-;-;-;-;-;-;-;-;-;-;-;-;-
1512469863132;-;-;4.6308746;1.4702301;-0.39076233;-;-;-;-;-;-;-;-;-;-;-;-;-;-;-
1512469863152;-;-;3.2039337;0.7232361;0.18981934;-;-;-;-;-;-;-;-;-;-;-;-;-;-;-
1512469863172;-;-;3.3966675;0.82499695;0.098846436;-;-;-;-;-;-;-;-;-;-;-;-;-;-;-
1512469863193;-;-;5.043869;0.72084045;0.40530396;-;-;-;-;-;-;-;-;-;-;-;-;-;-;-
1512469863213;-;-;6.8790283;0.35453796;0.46037292;-;-;-;-;-;-;-;-;-;-;-;-;-;-;-
1512469863234;-;-;8.2114105;1.2212372;-0.39915466;-;-;-;-;-;-;-;-;-;-;-;-;-;-;-
1512469863255;-;-;7.901352;1.7132416;-1.3544312;-;-;-;-;-;-;-;-;-;-;-;-;-;-;-
1512469863275;-;-;6.2661133;2.545227;-3.5654755;-;-;-;-;-;-;-;-;-;-;-;-;-;-;-
1512469863296;-;-;6.2266083;3.5364227;-3.8228607;-;-;-;-;-;-;-;-;-;-;-;-;-;-;-
1512469863316;-;-;8.940445;2.9869537;-3.6241455;-;-;-;-;-;-;-;-;-;-;-;-;-;-;-
1512469863337;-;-;14.516541;1.5899353;-7.3171997;-;-;-;-;-;-;-;-;-;-;-;-;-;-;-
1512469863357;-;-;26.477966;-1.7763062;-4.560272;-;-;-;-;-;-;-;-;-;-;-;-;-;-;-
1512469863378;-;-;25.113266;-6.333664;-1.021637;-;-;-;-;-;-;-;-;-;-;-;-;-;-;-
1512469863398;-;-;18.726746;-2.4586487;-0.6685028;-;-;-;-;-;-;-;-;-;-;-;-;-;-;-
1512469863418;-;-;10.665466;1.6186676;-0.8612366;-;-;-;-;-;-;-;-;-;-;-;-;-;-;-
1512469863439;-;-;7.6511536;2.5140991;0.3203125;-;-;-;-;-;-;-;-;-;-;-;-;-;-;-
1512469863459;-;-;7.8474884;1.7276154;-0.94143677;-;-;-;-;-;-;-;-;-;-;-;-;-;-;-
1512469863480;-;-;9.163101;0.23123169;-0.59547424;-;-;-;-;-;-;-;-;-;-;-;-;-;-;-
1512469863500;-;-;9.9879;-1.5476532;-0.34648132;-;-;-;-;-;-;-;-;-;-;-;-;-;-;-
1512469863521;-;-;10.263229;-2.2395782;-0.11424255;-;-;-;-;-;-;-;-;-;-;-;-;-;-;-
1512469863541;-;-;8.568146;-1.0412903;-0.17887878;-;-;-;-;-;-;-;-;-;-;-;-;-;-;-
1512469863561;-;-;5.5789795;0.27313232;0.33946228;-;-;-;-;-;-;-;-;-;-;-;-;-;-;-
1512469863582;-;-;3.7294617;0.89801025;0.63275146;-;-;-;-;-;-;-;-;-;-;-;-;-;-;-
1512469863602;-;-;3.9509277;0.21806335;-0.102264404;-;-;-;-;-;-;-;-;-;-;-;-;-;-;-
1512469863623;-;-;4.7254486;-0.838974;-0.64575195;-;-;-;-;-;-;-;-;-;-;-;-;-;-;-
1512469863644;-;-;5.9979706;-0.9479065;-0.09269714;-;-;-;-;-;-;-;-;-;-;-;-;-;-;-
1512469863664;-;-;6.433716;-0.289505;0.36460876;-;-;-;-;-;-;-;-;-;-;-;-;-;-;-
1512469863684;-;-;6.3259735;0.3210144;0.76802063;-;-;-;-;-;-;-;-;-;-;-;-;-;-;-
1512469863705;-;-;6.470825;-0.3984375;0.8039398;-;-;-;-;-;-;-;-;-;-;-;-;-;-;-
1512469863726;-;-;7.6415863;-1.0616302;0.84942627;-;-;-;-;-;-;-;-;-;-;-;-;-;-;-
1512469863746;-;-;9.1523285;-1.1957092;1.1510925;-;-;-;-;-;-;-;-;-;-;-;-;-;-;-
