TimeStamp[ms];Prox[Cm];Lux[lux];AccX[m/s^2];AccY[m/s^2];AccZ[m/s^2];GyroX[rad/s];GyroY[rad/s];GyroZ[rad/s];MagnX[uT];MagnY[uT];MagnZ[uT];OrienYaw[degrees];OrienPitch[degrees];OrienRoll[degrees];Press[Pa];Temp[C°];Batt[%];Lat;Lng;Speed[m/s]
1512469929664;-;-;9.122391;0.848938;-0.0076904297;-;-;-;-;-;-;-;-;-;-;-;-;-;-;-
1512469929666;-;-;9.122391;0.848938;-0.0076904297;-;-;-;-;-;-;-;-;-;-;-;-;-;-;-
1512469929686;-;-;8.8207245;1.1936951;0.03779602;-;-;-;-;-;-;-;-;-;-;-;-;-;-;-
1512469929706;-;-;9.082901;0.8202057;0.14074707;-;-;-;-;-;-;-;-;-;-;-;-;-;-;-
1512469929727;-;-;8.953613;0.7471771;0.16827393;-;-;-;-;-;-;-;-;-;-;-;-;-;-;-
1512469929746;-;-;9.143951;0.75675964;-0.32014465;-;-;-;-;-;-;-;-;-;-;-;-;-;-;-
1512469929767;-;-;9.080505;0.8920288;-0.20162964;-;-;-;-;-;-;-;-;-;-;-;-;-;-;-
1512469929786;-;-;9.068527;0.8812561;0.19940186;-;-;-;-;-;-;-;-;-;-;-;-;-;-;-
1512469929806;-;-;9.124786;1.3505249;-0.27226257;-;-;-;-;-;-;-;-;-;-;-;-;-;-;-
1512469929827;-;-;9.3893585;0.15940857;1.2205353;-;-;-;-;-;-;-;-;-;-;-;-;-;-;-
1512469929847;-;-;9.084091;0.45509338;1.1929932;-;-;-;-;-;-;-;-;-;-;-;-;-;-;-
1512469929867;-;-;9.469559;1.1673584;-2.0894623;-;-;-;-;-;-;-;-;-;-;-;-;-;-;-
1512469929888;-;-;9.282806;0.88604736;0.9799042;-;-;-;-;-;-;-;-;-;-;-;-;-;-;-
1512469929915;-;-;9.252884;0.76753235;0.03060913;-;-;-;-;-;-;-;-;-;-;-;-;-;-;-
1512469929929;-;-;9.096069;0.8297882;-0.4159088;-;-;-;-;-;-;-;-;-;-;-;-;-;-;-
1512469929950;-;-;9.17746;0.8022461;-0.04360962;-;-;-;-;-;-;-;-;-;-;-;-;-;-;-
1512469929970;-;-;9.171478;0.82858276;-0.21958923;-;-;-;-;-;-;-;-;-;-;-;-;-;-;-
1512469929990;-;-;9.161896;0.84654236;-0.22317505;-;-;-;-;-;-;-;-;-;-;-;-;-;-;-
1512469930011;-;-;9.151123;0.7878876;-0.123809814;-;-;-;-;-;-;-;-;-;-;-;-;-;-;-
1512469930031;-;-;9.134369;0.809433;-0.11543274;-;-;-;-;-;-;-;-;-;-;-;-;-;-;-
1512469930052;-;-;9.183456;0.83695984;-0.17408752;-;-;-;-;-;-;-;-;-;-;-;-;-;-;-
1512469930072;-;-;9.129578;0.8585205;-0.16091919;-;-;-;-;-;-;-;-;-;-;-;-;-;-;-
1512469930093;-;-;9.116409;0.8453522;-0.18127441;-;-;-;-;-;-;-;-;-;-;-;-;-;-;-
1512469930114;-;-;9.147537;0.8405609;-0.2171936;-;-;-;-;-;-;-;-;-;-;-;-;-;-;-
1512469930134;-;-;9.196625;0.8800659;-0.2004242;-;-;-;-;-;-;-;-;-;-;-;-;-;-;-
1512469930154;-;-;9.23851;0.8166199;-0.20761108;-;-;-;-;-;-;-;-;-;-;-;-;-;-;-
1512469930175;-;-;9.203796;0.87527466;-0.20281982;-;-;-;-;-;-;-;-;-;-;-;-;-;-;-
1512469930196;-;-;9.14035;1.0201263;-0.23394775;-;-;-;-;-;-;-;-;-;-;-;-;-;-;-
1512469930216;-;-;9.134369;1.0344849;-0.2171936;-;-;-;-;-;-;-;-;-;-;-;-;-;-;-
1512469930236;-;-;9.118805;1.0045624;-0.19325256;-;-;-;-;-;-;-;-;-;-;-;-;-;-;-
1512469930257;-;-;9.121201;0.9758301;-0.16452026;-;-;-;-;-;-;-;-;-;-;-;-;-;-;-
1512469930277;-;-;9.076904;1.0009613;-0.19802856;-;-;-;-;-;-;-;-;-;-;-;-;-;-;-
1512469930298;-;-;9.121201;1.0344849;-0.17529297;-;-;-;-;-;-;-;-;-;-;-;-;-;-;-
1512469930319;-;-;9.096069;1.0835724;-0.24951172;-;-;-;-;-;-;-;-;-;-;-;-;-;-;-
1512469930339;-;-;9.080505;1.0811768;-0.21240234;-;-;-;-;-;-;-;-;-;-;-;-;-;-;-
1512469930360;-;-;9.086487;1.066803;-0.16452026;-;-;-;-;-;-;-;-;-;-;-;-;-;-;-
1512469930379;-;-;9.094864;1.1123047;-0.07713318;-;-;-;-;-;-;-;-;-;-;-;-;-;-;-
1512469930401;-;-;9.081696;1.1434174;-0.10824585;-;-;-;-;-;-;-;-;-;-;-;-;-;-;-
1512469930421;-;-;9.036209;1.161377;-0.17170715;-;-;-;-;-;-;-;-;-;-;-;-;-;-;-
1512469930441;-;-;9.024231;1.2068634;-0.19085693;-;-;-;-;-;-;-;-;-;-;-;-;-;-;-
1512469930462;-;-;8.996704;1.2511597;-0.31654358;-;-;-;-;-;-;-;-;-;-;-;-;-;-;-
1512469930482;-;-;9.064941;1.4355164;-0.36323547;-;-;-;-;-;-;-;-;-;-;-;-;-;-;-
1512469930502;-;-;9.082901;1.5121307;-0.4015503;-;-;-;-;-;-;-;-;-;-;-;-;-;-;-
1512469930523;-;-;9.125992;1.5121307;-0.5344238;-;-;-;-;-;-;-;-;-;-;-;-;-;-;-
1512469930543;-;-;9.096069;1.4917755;-0.44943237;-;-;-;-;-;-;-;-;-;-;-;-;-;-;-
1512469930564;-;-;9.087677;1.5779724;-0.33929443;-;-;-;-;-;-;-;-;-;-;-;-;-;-;-
1512469930584;-;-;8.965576;1.6414185;-0.43745422;-;-;-;-;-;-;-;-;-;-;-;-;-;-;-
1512469930605;-;-;8.832703;1.7096558;-0.50808716;-;-;-;-;-;-;-;-;-;-;-;-;-;-;-
1512469930625;-;-;8.745316;1.6306458;-0.45780945;-;-;-;-;-;-;-;-;-;-;-;-;-;-;-
1512469930646;-;-;8.874603;1.5300903;-0.5404053;-;-;-;-;-;-;-;-;-;-;-;-;-;-;-
1512469930666;-;-;9.036209;1.4678345;-0.5320282;-;-;-;-;-;-;-;-;-;-;-;-;-;-;-
1512469930687;-;-;9.084091;1.5480499;-0.6840515;-;-;-;-;-;-;-;-;-;-;-;-;-;-;-
1512469930708;-;-;9.023041;1.5851593;-0.7008209;-;-;-;-;-;-;-;-;-;-;-;-;-;-;-
1512469930728;-;-;8.8602295;1.5743866;-0.7738342;-;-;-;-;-;-;-;-;-;-;-;-;-;-;-
1512469930748;-;-;8.8051605;1.5995178;-0.86242676;-;-;-;-;-;-;-;-;-;-;-;-;-;-;-
1512469930769;-;-;8.789597;1.6126862;-0.92826843;-;-;-;-;-;-;-;-;-;-;-;-;-;-;-
1512469930788;-;-;8.647156;1.5983276;-0.90911865;-;-;-;-;-;-;-;-;-;-;-;-;-;-;-
1512469930808;-;-;8.472366;1.398407;-0.6840515;-;-;-;-;-;-;-;-;-;-;-;-;-;-;-
1512469930829;-;-;8.4687805;0.9363251;-0.38478088;-;-;-;-;-;-;-;-;-;-;-;-;-;-;-
1512469930850;-;-;8.637573;0.6071167;-0.59547424;-;-;-;-;-;-;-;-;-;-;-;-;-;-;-
1512469930870;-;-;8.951218;0.58677673;-0.93185425;-;-;-;-;-;-;-;-;-;-;-;-;-;-;-
1512469930891;-;-;9.281616;0.34016418;-0.63616943;-;-;-;-;-;-;-;-;-;-;-;-;-;-;-
1512469930911;-;-;9.694611;0.28988647;-0.84088135;-;-;-;-;-;-;-;-;-;-;-;-;-;-;-
1512469930931;-;-;9.778412;0.33537292;-1.0288239;-;-;-;-;-;-;-;-;-;-;-;-;-;-;-
1512469930951;-;-;10.008255;0.22164917;-1.1269836;-;-;-;-;-;-;-;-;-;-;-;-;-;-;-
1512469930972;-;-;9.9040985;0.12588501;-0.93904114;-;-;-;-;-;-;-;-;-;-;-;-;-;-;-
1512469930993;-;-;9.798767;-0.0069885254;-0.97135925;-;-;-;-;-;-;-;-;-;-;-;-;-;-;-
1512469931012;-;-;9.596451;-0.018966675;-0.927063;-;-;-;-;-;-;-;-;-;-;-;-;-;-;-
1512469931033;-;-;9.552155;-0.2272644;-0.73194885;-;-;-;-;-;-;-;-;-;-;-;-;-;-;-
1512469931052;-;-;9.374985;-0.63067627;-0.70440674;-;-;-;-;-;-;-;-;-;-;-;-;-;-;-
1512469931073;-;-;9.06015;-0.7264557;-0.63616943;-;-;-;-;-;-;-;-;-;-;-;-;-;-;-
1512469931092;-;-;8.894943;-0.3086548;-0.6517334;-;-;-;-;-;-;-;-;-;-;-;-;-;-;-
1512469931113;-;-;9.195419;0.17376709;-0.79299927;-;-;-;-;-;-;-;-;-;-;-;-;-;-;-
1512469931133;-;-;9.5677185;0.32460022;-0.946228;-;-;-;-;-;-;-;-;-;-;-;-;-;-;-
1512469931154;-;-;9.604828;-0.22366333;-0.79299927;-;-;-;-;-;-;-;-;-;-;-;-;-;-;-
1512469931173;-;-;9.23732;-1.0029755;-0.8396759;-;-;-;-;-;-;-;-;-;-;-;-;-;-;-
1512469931194;-;-;8.908112;-1.1203003;-0.7475128;-;-;-;-;-;-;-;-;-;-;-;-;-;-;-
1512469931214;-;-;8.553772;-0.7024994;-0.6397705;-;-;-;-;-;-;-;-;-;-;-;-;-;-;-
1512469931235;-;-;8.374207;-0.37210083;-0.89234924;-;-;-;-;-;-;-;-;-;-;-;-;-;-;-
1512469931255;-;-;8.255692;-0.14704895;-1.3628082;-;-;-;-;-;-;-;-;-;-;-;-;-;-;-
1512469931275;-;-;8.42688;-0.57681274;-1.1736755;-;-;-;-;-;-;-;-;-;-;-;-;-;-;-
1512469931295;-;-;8.954803;-0.65940857;-1.3448639;-;-;-;-;-;-;-;-;-;-;-;-;-;-;-
1512469931316;-;-;9.294785;-0.47984314;-1.5675201;-;-;-;-;-;-;-;-;-;-;-;-;-;-;-
1512469931337;-;-;9.37738;-0.21409607;-1.7865906;-;-;-;-;-;-;-;-;-;-;-;-;-;-;-
1512469931357;-;-;9.339081;0.010971069;-1.737503;-;-;-;-;-;-;-;-;-;-;-;-;-;-;-
1512469931377;-;-;9.239716;-0.16381836;-1.7602539;-;-;-;-;-;-;-;-;-;-;-;-;-;-;-
1512469931398;-;-;8.869812;-0.5097656;-1.7614441;-;-;-;-;-;-;-;-;-;-;-;-;-;-;-
1512469931418;-;-;8.557373;-0.5528717;-1.3652039;-;-;-;-;-;-;-;-;-;-;-;-;-;-;-
1512469931440;-;-;8.5082855;-0.66778564;-1.2323303;-;-;-;-;-;-;-;-;-;-;-;-;-;-;-
1512469931460;-;-;8.631592;-0.97184753;-0.8744049;-;-;-;-;-;-;-;-;-;-;-;-;-;-;-
1512469931481;-;-;8.799179;-0.9622803;-0.62060547;-;-;-;-;-;-;-;-;-;-;-;-;-;-;-
1512469931501;-;-;9.12001;-0.68574524;-0.43984985;-;-;-;-;-;-;-;-;-;-;-;-;-;-;-
1512469931522;-;-;9.309143;-0.49780273;-0.159729;-;-;-;-;-;-;-;-;-;-;-;-;-;-;-
1512469931542;-;-;9.426468;-0.6522217;0.44960022;-;-;-;-;-;-;-;-;-;-;-;-;-;-;-
1512469931563;-;-;9.63356;-1.309433;0.65908813;-;-;-;-;-;-;-;-;-;-;-;-;-;-;-
1512469931584;-;-;9.913681;-2.2443695;0.76683044;-;-;-;-;-;-;-;-;-;-;-;-;-;-;-
1512469931604;-;-;10.4092865;-3.2176208;-1.3879547;-;-;-;-;-;-;-;-;-;-;-;-;-;-;-
1512469931624;-;-;11.448364;-2.6561737;-2.2402954;-;-;-;-;-;-;-;-;-;-;-;-;-;-;-
1512469931645;-;-;13.038116;-1.2711334;-2.2953491;-;-;-;-;-;-;-;-;-;-;-;-;-;-;-
1512469931666;-;-;13.878479;0.37249756;-4.049103;-;-;-;-;-;-;-;-;-;-;-;-;-;-;-
1512469931686;-;-;14.049667;1.2834778;-4.3483887;-;-;-;-;-;-;-;-;-;-;-;-;-;-;-
1512469931707;-;-;11.139511;1.9490662;-6.049469;-;-;-;-;-;-;-;-;-;-;-;-;-;-;-
1512469931727;-;-;6.953247;2.4853668;-4.808075;-;-;-;-;-;-;-;-;-;-;-;-;-;-;-
1512469931748;-;-;5.9345245;2.0065308;-2.8113098;-;-;-;-;-;-;-;-;-;-;-;-;-;-;-
1512469931768;-;-;5.5275116;1.1637726;-2.3935242;-;-;-;-;-;-;-;-;-;-;-;-;-;-;-
1512469931789;-;-;6.834732;-0.11352539;-1.5220337;-;-;-;-;-;-;-;-;-;-;-;-;-;-;-
1512469931810;-;-;9.450409;-0.95269775;-1.3783722;-;-;-;-;-;-;-;-;-;-;-;-;-;-;-
1512469931830;-;-;10.8402405;-0.7228546;-2.5646973;-;-;-;-;-;-;-;-;-;-;-;-;-;-;-
1512469931851;-;-;10.870163;0.44192505;-3.5427399;-;-;-;-;-;-;-;-;-;-;-;-;-;-;-
1512469931870;-;-;9.604828;0.9207611;-3.104599;-;-;-;-;-;-;-;-;-;-;-;-;-;-;-
1512469931891;-;-;7.727768;1.0380707;-1.8703918;-;-;-;-;-;-;-;-;-;-;-;-;-;-;-
1512469931911;-;-;6.6970673;0.9459076;-1.1988068;-;-;-;-;-;-;-;-;-;-;-;-;-;-;-
1512469931931;-;-;6.639618;1.2715149;-1.2371216;-;-;-;-;-;-;-;-;-;-;-;-;-;-;-
1512469931951;-;-;7.0921173;1.6330414;-1.7087708;-;-;-;-;-;-;-;-;-;-;-;-;-;-;-
1512469931972;-;-;7.7062225;2.2962341;-1.7147675;-;-;-;-;-;-;-;-;-;-;-;-;-;-;-
1512469931993;-;-;8.5082855;3.0887146;-1.0491791;-;-;-;-;-;-;-;-;-;-;-;-;-;-;-
1512469932013;-;-;9.989105;2.6409912;-0.6948395;-;-;-;-;-;-;-;-;-;-;-;-;-;-;-
1512469932033;-;-;10.667862;1.3912201;-0.96058655;-;-;-;-;-;-;-;-;-;-;-;-;-;-;-
1512469932054;-;-;10.179443;0.9506836;-1.3652039;-;-;-;-;-;-;-;-;-;-;-;-;-;-;-
1512469932074;-;-;8.850662;1.1110992;-0.98573303;-;-;-;-;-;-;-;-;-;-;-;-;-;-;-
1512469932095;-;-;7.18309;1.2870789;-1.001297;-;-;-;-;-;-;-;-;-;-;-;-;-;-;-
1512469932116;-;-;6.513916;1.829361;-0.95339966;-;-;-;-;-;-;-;-;-;-;-;-;-;-;-
1512469932136;-;-;6.1056976;2.5200958;-0.630188;-;-;-;-;-;-;-;-;-;-;-;-;-;-;-
1512469932156;-;-;6.3104095;3.3508759;-0.10586548;-;-;-;-;-;-;-;-;-;-;-;-;-;-;-
1512469932177;-;-;7.7014465;3.8452759;0.021026611;-;-;-;-;-;-;-;-;-;-;-;-;-;-;-
1512469932197;-;-;9.261261;3.8524628;-0.33450317;-;-;-;-;-;-;-;-;-;-;-;-;-;-;-
1512469932218;-;-;9.963959;3.5160828;-0.63497925;-;-;-;-;-;-;-;-;-;-;-;-;-;-;-
1512469932238;-;-;10.341049;3.1952515;-0.44224548;-;-;-;-;-;-;-;-;-;-;-;-;-;-;-
1512469932259;-;-;10.511032;2.916336;-0.087905884;-;-;-;-;-;-;-;-;-;-;-;-;-;-;-
1512469932278;-;-;11.247253;3.0121002;0.46754456;-;-;-;-;-;-;-;-;-;-;-;-;-;-;-
1512469932299;-;-;11.738068;3.2694702;-1.061142;-;-;-;-;-;-;-;-;-;-;-;-;-;-;-
1512469932319;-;-;13.721664;4.144562;-3.1943817;-;-;-;-;-;-;-;-;-;-;-;-;-;-;-
1512469932339;-;-;15.392807;4.6497345;-5.594574;-;-;-;-;-;-;-;-;-;-;-;-;-;-;-
1512469932360;-;-;15.243179;1.734787;-5.717865;-;-;-;-;-;-;-;-;-;-;-;-;-;-;-
1512469932381;-;-;13.083603;1.5755768;-6.239807;-;-;-;-;-;-;-;-;-;-;-;-;-;-;-
1512469932401;-;-;9.213379;1.6809235;-6.156006;-;-;-;-;-;-;-;-;-;-;-;-;-;-;-
1512469932422;-;-;5.2222443;0.7842865;-4.347183;-;-;-;-;-;-;-;-;-;-;-;-;-;-;-
1512469932441;-;-;3.8348083;0.12948608;-3.6373138;-;-;-;-;-;-;-;-;-;-;-;-;-;-;-
1512469932462;-;-;5.018738;-0.05128479;-3.8025055;-;-;-;-;-;-;-;-;-;-;-;-;-;-;-
1512469932482;-;-;7.2549133;0.41319275;-5.4257813;-;-;-;-;-;-;-;-;-;-;-;-;-;-;-
1512469932503;-;-;9.953186;0.06124878;-5.072632;-;-;-;-;-;-;-;-;-;-;-;-;-;-;-
1512469932523;-;-;10.333862;0.05885315;-4.872711;-;-;-;-;-;-;-;-;-;-;-;-;-;-;-
1512469932544;-;-;9.401321;0.112716675;-4.062271;-;-;-;-;-;-;-;-;-;-;-;-;-;-;-
1512469932564;-;-;8.562149;-0.2799225;-3.7079315;-;-;-;-;-;-;-;-;-;-;-;-;-;-;-
1512469932585;-;-;6.9029694;-1.1011353;-2.8484192;-;-;-;-;-;-;-;-;-;-;-;-;-;-;-
1512469932604;-;-;5.889023;-1.5117493;-2.2331085;-;-;-;-;-;-;-;-;-;-;-;-;-;-;-
1512469932625;-;-;5.6436157;-1.2603607;-2.3157043;-;-;-;-;-;-;-;-;-;-;-;-;-;-;-
1512469932645;-;-;5.897415;-0.57681274;-2.3923187;-;-;-;-;-;-;-;-;-;-;-;-;-;-;-
1512469932666;-;-;6.5115204;-0.016571045;-2.5299835;-;-;-;-;-;-;-;-;-;-;-;-;-;-;-
1512469932686;-;-;7.027466;0.58917236;-2.7430725;-;-;-;-;-;-;-;-;-;-;-;-;-;-;-
1512469932707;-;-;7.454834;0.6107178;-2.8172913;-;-;-;-;-;-;-;-;-;-;-;-;-;-;-
1512469932726;-;-;7.2261963;0.38685608;-2.97052;-;-;-;-;-;-;-;-;-;-;-;-;-;-;-
1512469932747;-;-;6.7892456;-0.18415833;-2.89151;-;-;-;-;-;-;-;-;-;-;-;-;-;-;-
1512469932767;-;-;6.664749;-0.6103363;-2.831665;-;-;-;-;-;-;-;-;-;-;-;-;-;-;-
1512469932788;-;-;7.2238007;-0.68574524;-2.717926;-;-;-;-;-;-;-;-;-;-;-;-;-;-;-
1512469932807;-;-;7.9312897;-0.82341003;-2.3779602;-;-;-;-;-;-;-;-;-;-;-;-;-;-;-
1512469932827;-;-;8.580109;-1.1179047;-1.7434998;-;-;-;-;-;-;-;-;-;-;-;-;-;-;-
1512469932848;-;-;9.760452;-0.9191742;-1.6393433;-;-;-;-;-;-;-;-;-;-;-;-;-;-;-
1512469932868;-;-;11.182602;-1.067627;-2.012848;-;-;-;-;-;-;-;-;-;-;-;-;-;-;-
1512469932889;-;-;11.920029;-1.1023407;-2.151703;-;-;-;-;-;-;-;-;-;-;-;-;-;-;-
1512469932909;-;-;12.574844;-0.77911377;-2.7694092;-;-;-;-;-;-;-;-;-;-;-;-;-;-;-
1512469932930;-;-;12.603561;-0.37091064;-4.0000305;-;-;-;-;-;-;-;-;-;-;-;-;-;-;-
1512469932950;-;-;12.021774;-1.1059265;-5.437744;-;-;-;-;-;-;-;-;-;-;-;-;-;-;-
1512469932970;-;-;11.111984;-3.384018;-6.722229;-;-;-;-;-;-;-;-;-;-;-;-;-;-;-
1512469932991;-;-;15.087555;-3.9394684;-4.2957153;-;-;-;-;-;-;-;-;-;-;-;-;-;-;-
1512469933011;-;-;15.374863;-1.5261078;-6.5342865;-;-;-;-;-;-;-;-;-;-;-;-;-;-;-
1512469933032;-;-;9.852631;-0.009384155;-9.166718;-;-;-;-;-;-;-;-;-;-;-;-;-;-;-
1512469933052;-;-;5.731018;1.1949005;-6.4588776;-;-;-;-;-;-;-;-;-;-;-;-;-;-;-
1512469933073;-;-;3.6672058;1.4678345;-3.998825;-;-;-;-;-;-;-;-;-;-;-;-;-;-;-
1512469933093;-;-;4.3615265;0.66218567;-2.0355835;-;-;-;-;-;-;-;-;-;-;-;-;-;-;-
1512469933114;-;-;7.803192;-0.94192505;-2.0260162;-;-;-;-;-;-;-;-;-;-;-;-;-;-;-
1512469933135;-;-;10.385345;-1.570404;-2.8867188;-;-;-;-;-;-;-;-;-;-;-;-;-;-;-
1512469933155;-;-;9.747284;-0.20930481;-3.3907013;-;-;-;-;-;-;-;-;-;-;-;-;-;-;-
1512469933176;-;-;8.067749;1.9836426E-4;-3.6791992;-;-;-;-;-;-;-;-;-;-;-;-;-;-;-
1512469933196;-;-;6.315201;0.259964;-3.2937317;-;-;-;-;-;-;-;-;-;-;-;-;-;-;-
1512469933217;-;-;4.2430115;0.9387207;-2.5120392;-;-;-;-;-;-;-;-;-;-;-;-;-;-;-
1512469933237;-;-;3.5247498;1.8748474;-2.1780396;-;-;-;-;-;-;-;-;-;-;-;-;-;-;-
1512469933258;-;-;4.154434;2.4530487;-2.4342194;-;-;-;-;-;-;-;-;-;-;-;-;-;-;-
1512469933277;-;-;5.023529;2.1394043;-2.9214478;-;-;-;-;-;-;-;-;-;-;-;-;-;-;-
1512469933298;-;-;6.285263;1.3241882;-2.6269531;-;-;-;-;-;-;-;-;-;-;-;-;-;-;-
1512469933318;-;-;7.032257;0.88604736;-2.6197662;-;-;-;-;-;-;-;-;-;-;-;-;-;-;-
1512469933338;-;-;7.739746;0.8525238;-2.4102783;-;-;-;-;-;-;-;-;-;-;-;-;-;-;-
1512469933359;-;-;8.636368;1.1362457;-2.5060425;-;-;-;-;-;-;-;-;-;-;-;-;-;-;-
1512469933380;-;-;8.698624;1.8114014;-2.7658234;-;-;-;-;-;-;-;-;-;-;-;-;-;-;-
1512469933400;-;-;8.853058;2.2351837;-3.0363617;-;-;-;-;-;-;-;-;-;-;-;-;-;-;-
1512469933421;-;-;8.912903;3.252716;-3.0351715;-;-;-;-;-;-;-;-;-;-;-;-;-;-;-
1512469933441;-;-;9.169083;4.3181305;-2.4773102;-;-;-;-;-;-;-;-;-;-;-;-;-;-;-
1512469933461;-;-;10.125565;4.9095;-2.630539;-;-;-;-;-;-;-;-;-;-;-;-;-;-;-
1512469933482;-;-;10.415268;4.5467834;-2.4234467;-;-;-;-;-;-;-;-;-;-;-;-;-;-;-
1512469933502;-;-;11.084442;3.1030731;-1.8141174;-;-;-;-;-;-;-;-;-;-;-;-;-;-;-
1512469933523;-;-;11.808685;1.1865234;-1.1593018;-;-;-;-;-;-;-;-;-;-;-;-;-;-;-
1512469933542;-;-;11.999039;-0.8701019;-0.99890137;-;-;-;-;-;-;-;-;-;-;-;-;-;-;-
1512469933563;-;-;9.789185;-1.9415131;-5.4317627;-;-;-;-;-;-;-;-;-;-;-;-;-;-;-
1512469933582;-;-;9.094864;0.87646484;-9.4001465;-;-;-;-;-;-;-;-;-;-;-;-;-;-;-
1512469933603;-;-;11.11438;1.9837952;-5.2378235;-;-;-;-;-;-;-;-;-;-;-;-;-;-;-
1512469933622;-;-;9.849045;0.47184753;-5.267761;-;-;-;-;-;-;-;-;-;-;-;-;-;-;-
1512469933643;-;-;9.522232;0.9925842;-4.7625885;-;-;-;-;-;-;-;-;-;-;-;-;-;-;-
1512469933663;-;-;5.8519135;2.311798;-6.033905;-;-;-;-;-;-;-;-;-;-;-;-;-;-;-
1512469933683;-;-;4.724243;2.6589508;-4.9924316;-;-;-;-;-;-;-;-;-;-;-;-;-;-;-
1512469933704;-;-;5.256958;2.9809723;-4.812866;-;-;-;-;-;-;-;-;-;-;-;-;-;-;-
1512469933725;-;-;7.6391907;2.157364;-3.662445;-;-;-;-;-;-;-;-;-;-;-;-;-;-;-
1512469933745;-;-;9.076904;0.92555237;-3.2554321;-;-;-;-;-;-;-;-;-;-;-;-;-;-;-
1512469933765;-;-;9.765244;-1.0544586;-3.8503876;-;-;-;-;-;-;-;-;-;-;-;-;-;-;-
1512469933786;-;-;8.237747;-1.289093;-3.7234955;-;-;-;-;-;-;-;-;-;-;-;-;-;-;-
1512469933806;-;-;6.163162;-1.1382446;-3.5080261;-;-;-;-;-;-;-;-;-;-;-;-;-;-;-
1512469933827;-;-;4.597351;-0.87249756;-2.6161804;-;-;-;-;-;-;-;-;-;-;-;-;-;-;-
1512469933847;-;-;4.2023163;-0.71806335;-2.172058;-;-;-;-;-;-;-;-;-;-;-;-;-;-;-
1512469933867;-;-;5.289276;-0.8162384;-2.2726135;-;-;-;-;-;-;-;-;-;-;-;-;-;-;-
1512469933888;-;-;6.482788;-0.5049896;-3.04953;-;-;-;-;-;-;-;-;-;-;-;-;-;-;-
1512469933907;-;-;7.0777435;-0.1769867;-2.946579;-;-;-;-;-;-;-;-;-;-;-;-;-;-;-
1512469933928;-;-;7.7205963;0.28749084;-3.2003632;-;-;-;-;-;-;-;-;-;-;-;-;-;-;-
1512469933948;-;-;8.193451;0.22525024;-3.0782623;-;-;-;-;-;-;-;-;-;-;-;-;-;-;-
1512469933968;-;-;8.517868;-0.2679596;-3.0710754;-;-;-;-;-;-;-;-;-;-;-;-;-;-;-
1512469933989;-;-;9.035004;-0.8090515;-2.8472137;-;-;-;-;-;-;-;-;-;-;-;-;-;-;-
1512469934009;-;-;9.523422;-0.9586792;-2.768219;-;-;-;-;-;-;-;-;-;-;-;-;-;-;-
1512469934030;-;-;10.807922;-0.7875061;-2.522812;-;-;-;-;-;-;-;-;-;-;-;-;-;-;-
1512469934050;-;-;12.406052;-1.0101624;-2.9405975;-;-;-;-;-;-;-;-;-;-;-;-;-;-;-
1512469934071;-;-;14.183746;-1.0077667;-4.4226074;-;-;-;-;-;-;-;-;-;-;-;-;-;-;-
1512469934090;-;-;12.878906;-0.9826355;-4.0514984;-;-;-;-;-;-;-;-;-;-;-;-;-;-;-
1512469934111;-;-;11.207748;-3.0823364;-6.4038086;-;-;-;-;-;-;-;-;-;-;-;-;-;-;-
1512469934131;-;-;11.894882;-3.558792;-6.9652405;-;-;-;-;-;-;-;-;-;-;-;-;-;-;-
1512469934151;-;-;12.026566;-2.7866516;-4.907425;-;-;-;-;-;-;-;-;-;-;-;-;-;-;-
1512469934174;-;-;11.959534;-0.17817688;-5.5131683;-;-;-;-;-;-;-;-;-;-;-;-;-;-;-
1512469934193;-;-;9.373795;1.4881897;-5.922577;-;-;-;-;-;-;-;-;-;-;-;-;-;-;-
1512469934214;-;-;4.142456;2.2423553;-5.9249725;-;-;-;-;-;-;-;-;-;-;-;-;-;-;-
1512469934234;-;-;4.312454;1.6964874;-4.013199;-;-;-;-;-;-;-;-;-;-;-;-;-;-;-
1512469934255;-;-;7.2261963;0.71725464;-3.4768982;-;-;-;-;-;-;-;-;-;-;-;-;-;-;-
1512469934276;-;-;9.705383;-0.19972229;-3.9916534;-;-;-;-;-;-;-;-;-;-;-;-;-;-;-
1512469934296;-;-;9.728134;-0.3194275;-3.8970795;-;-;-;-;-;-;-;-;-;-;-;-;-;-;-
1512469934317;-;-;8.503494;-0.21289063;-3.8396149;-;-;-;-;-;-;-;-;-;-;-;-;-;-;-
1512469934337;-;-;7.4201202;-0.05607605;-3.9689026;-;-;-;-;-;-;-;-;-;-;-;-;-;-;-
1512469934357;-;-;5.4281464;0.89682007;-4.0754395;-;-;-;-;-;-;-;-;-;-;-;-;-;-;-
1512469934378;-;-;3.9185944;2.5990906;-3.3308563;-;-;-;-;-;-;-;-;-;-;-;-;-;-;-
1512469934398;-;-;3.6851654;3.5507965;-2.3276825;-;-;-;-;-;-;-;-;-;-;-;-;-;-;-
1512469934419;-;-;4.1592255;2.8720398;-2.2833862;-;-;-;-;-;-;-;-;-;-;-;-;-;-;-
1512469934439;-;-;4.9253693;1.6964874;-2.7718048;-;-;-;-;-;-;-;-;-;-;-;-;-;-;-
1512469934460;-;-;6.300827;0.81781006;-2.9872742;-;-;-;-;-;-;-;-;-;-;-;-;-;-;-
1512469934480;-;-;7.0729675;0.7411957;-3.0052338;-;-;-;-;-;-;-;-;-;-;-;-;-;-;-
1512469934501;-;-;8.237747;1.1194763;-2.2067719;-;-;-;-;-;-;-;-;-;-;-;-;-;-;-
1512469934520;-;-;8.827911;1.8916168;-2.0283966;-;-;-;-;-;-;-;-;-;-;-;-;-;-;-
1512469934540;-;-;9.046982;2.2351837;-1.7554626;-;-;-;-;-;-;-;-;-;-;-;-;-;-;-
1512469934561;-;-;8.909317;2.1274414;-2.105011;-;-;-;-;-;-;-;-;-;-;-;-;-;-;-
1512469934582;-;-;8.745316;2.600296;-2.2642365;-;-;-;-;-;-;-;-;-;-;-;-;-;-;-
1512469934602;-;-;9.313934;2.6924744;-1.7147675;-;-;-;-;-;-;-;-;-;-;-;-;-;-;-
1512469934622;-;-;10.023819;2.8313293;-1.3819733;-;-;-;-;-;-;-;-;-;-;-;-;-;-;-
1512469934643;-;-;11.113174;3.0025177;-1.3185272;-;-;-;-;-;-;-;-;-;-;-;-;-;-;-
1512469934663;-;-;11.696167;2.474594;-1.361618;-;-;-;-;-;-;-;-;-;-;-;-;-;-;-
1512469934684;-;-;11.736862;1.4355164;-2.3623962;-;-;-;-;-;-;-;-;-;-;-;-;-;-;-
1512469934704;-;-;10.971924;1.3062286;-4.128113;-;-;-;-;-;-;-;-;-;-;-;-;-;-;-
1512469934725;-;-;11.198166;2.3608704;-7.604492;-;-;-;-;-;-;-;-;-;-;-;-;-;-;-
1512469934745;-;-;11.897278;3.0575867;-5.373108;-;-;-;-;-;-;-;-;-;-;-;-;-;-;-
1512469934766;-;-;10.276398;2.1992645;-6.456482;-;-;-;-;-;-;-;-;-;-;-;-;-;-;-
1512469934787;-;-;7.320755;1.8413391;-5.318039;-;-;-;-;-;-;-;-;-;-;-;-;-;-;-
1512469934807;-;-;4.359131;1.3361511;-4.5447083;-;-;-;-;-;-;-;-;-;-;-;-;-;-;-
1512469934828;-;-;4.043106;0.54367065;-4.0981903;-;-;-;-;-;-;-;-;-;-;-;-;-;-;-
1512469934848;-;-;6.21344;0.17376709;-4.8691254;-;-;-;-;-;-;-;-;-;-;-;-;-;-;-
1512469934869;-;-;9.0733185;0.4407196;-4.341202;-;-;-;-;-;-;-;-;-;-;-;-;-;-;-
1512469934889;-;-;10.412872;0.71006775;-4.2849426;-;-;-;-;-;-;-;-;-;-;-;-;-;-;-
1512469934910;-;-;10.179443;0.4874115;-4.5459137;-;-;-;-;-;-;-;-;-;-;-;-;-;-;-
1512469934930;-;-;9.064941;0.057647705;-3.9497528;-;-;-;-;-;-;-;-;-;-;-;-;-;-;-
1512469934951;-;-;7.422516;-0.124313354;-3.3511963;-;-;-;-;-;-;-;-;-;-;-;-;-;-;-
1512469934971;-;-;6.110489;-0.4954071;-2.7227173;-;-;-;-;-;-;-;-;-;-;-;-;-;-;-
1512469934992;-;-;5.564621;-0.7216644;-2.0236206;-;-;-;-;-;-;-;-;-;-;-;-;-;-;-
1512469935012;-;-;5.3778687;-0.641449;-2.0774841;-;-;-;-;-;-;-;-;-;-;-;-;-;-;-
1512469935032;-;-;5.7573547;-0.30387878;-2.4318237;-;-;-;-;-;-;-;-;-;-;-;-;-;-;-
1512469935053;-;-;6.2517548;-0.016571045;-2.8113098;-;-;-;-;-;-;-;-;-;-;-;-;-;-;-
1512469935073;-;-;7.125641;0.098358154;-2.986084;-;-;-;-;-;-;-;-;-;-;-;-;-;-;-
1512469935094;-;-;7.238159;0.014556885;-2.9238281;-;-;-;-;-;-;-;-;-;-;-;-;-;-;-
1512469935114;-;-;7.301605;-0.1985321;-2.452179;-;-;-;-;-;-;-;-;-;-;-;-;-;-;-
1512469935135;-;-;7.660736;-0.30625916;-2.3516235;-;-;-;-;-;-;-;-;-;-;-;-;-;-;-
1512469935155;-;-;8.285629;-0.2392273;-1.7578583;-;-;-;-;-;-;-;-;-;-;-;-;-;-;-
1512469935176;-;-;9.3941345;-0.704895;-1.3017578;-;-;-;-;-;-;-;-;-;-;-;-;-;-;-
1512469935197;-;-;10.573288;-1.8086243;-1.1257935;-;-;-;-;-;-;-;-;-;-;-;-;-;-;-
1512469935217;-;-;12.599976;-2.8991852;-1.6154022;-;-;-;-;-;-;-;-;-;-;-;-;-;-;-
1512469935236;-;-;14.19931;-2.329361;-2.820877;-;-;-;-;-;-;-;-;-;-;-;-;-;-;-
1512469935256;-;-;15.397598;-0.08480835;-4.310074;-;-;-;-;-;-;-;-;-;-;-;-;-;-;-
1512469935276;-;-;13.907211;2.4003754;-6.8587036;-;-;-;-;-;-;-;-;-;-;-;-;-;-;-
1512469935297;-;-;10.95755;1.2930603;-5.18277;-;-;-;-;-;-;-;-;-;-;-;-;-;-;-
1512469935317;-;-;10.212952;-0.82341003;-9.086517;-;-;-;-;-;-;-;-;-;-;-;-;-;-;-
1512469935338;-;-;11.817078;-1.0341034;-3.4122467;-;-;-;-;-;-;-;-;-;-;-;-;-;-;-
1512469935359;-;-;11.495056;-0.64505005;-4.1580505;-;-;-;-;-;-;-;-;-;-;-;-;-;-;-
1512469935379;-;-;8.145569;-0.5133667;-6.279312;-;-;-;-;-;-;-;-;-;-;-;-;-;-;-
1512469935399;-;-;5.775299;-0.62828064;-5.1145325;-;-;-;-;-;-;-;-;-;-;-;-;-;-;-
1512469935420;-;-;5.742981;-1.2028961;-3.5882263;-;-;-;-;-;-;-;-;-;-;-;-;-;-;-
1512469935439;-;-;7.509903;-1.4159851;-2.8711548;-;-;-;-;-;-;-;-;-;-;-;-;-;-;-
1512469935459;-;-;9.608414;-1.1574097;-3.4038696;-;-;-;-;-;-;-;-;-;-;-;-;-;-;-
1512469935480;-;-;8.235352;-0.41879272;-3.5642853;-;-;-;-;-;-;-;-;-;-;-;-;-;-;-
1512469935500;-;-;6.7928467;0.14025879;-3.3476105;-;-;-;-;-;-;-;-;-;-;-;-;-;-;-
1512469935521;-;-;5.9273376;0.5161438;-3.0591125;-;-;-;-;-;-;-;-;-;-;-;-;-;-;-
1512469935540;-;-;4.7410126;0.9195709;-3.1979675;-;-;-;-;-;-;-;-;-;-;-;-;-;-;-
1512469935560;-;-;3.6037598;1.8114014;-2.907074;-;-;-;-;-;-;-;-;-;-;-;-;-;-;-
1512469935581;-;-;3.5331268;3.0420227;-2.1265717;-;-;-;-;-;-;-;-;-;-;-;-;-;-;-
1512469935601;-;-;4.858322;3.0216675;-2.2462769;-;-;-;-;-;-;-;-;-;-;-;-;-;-;-
1512469935621;-;-;6.244568;1.9777985;-3.2302856;-;-;-;-;-;-;-;-;-;-;-;-;-;-;-
1512469935642;-;-;8.225769;0.93392944;-3.326065;-;-;-;-;-;-;-;-;-;-;-;-;-;-;-
1512469935662;-;-;9.723343;0.53889465;-3.2374725;-;-;-;-;-;-;-;-;-;-;-;-;-;-;-
1512469935683;-;-;10.34584;0.8501282;-2.5180206;-;-;-;-;-;-;-;-;-;-;-;-;-;-;-
1512469935704;-;-;9.391739;1.4702301;-1.8213043;-;-;-;-;-;-;-;-;-;-;-;-;-;-;-
1512469935723;-;-;7.473984;1.7994385;-1.4442139;-;-;-;-;-;-;-;-;-;-;-;-;-;-;-
1512469935744;-;-;6.044647;2.1166687;-1.5567474;-;-;-;-;-;-;-;-;-;-;-;-;-;-;-
1512469935763;-;-;5.9452972;2.8828125;-1.3472595;-;-;-;-;-;-;-;-;-;-;-;-;-;-;-
1512469935784;-;-;7.6655273;3.486145;-1.8440552;-;-;-;-;-;-;-;-;-;-;-;-;-;-;-
1512469935804;-;-;9.209793;3.635788;-2.148117;-;-;-;-;-;-;-;-;-;-;-;-;-;-;-
1512469935825;-;-;10.211761;3.6166382;-2.2570496;-;-;-;-;-;-;-;-;-;-;-;-;-;-;-
1512469935844;-;-;10.795944;3.4239044;-2.168457;-;-;-;-;-;-;-;-;-;-;-;-;-;-;-
1512469935865;-;-;11.505829;3.4993134;-2.0427704;-;-;-;-;-;-;-;-;-;-;-;-;-;-;-
1512469935885;-;-;11.2951355;3.4155273;-3.7187042;-;-;-;-;-;-;-;-;-;-;-;-;-;-;-
1512469935906;-;-;10.46196;2.3094025;-3.0375519;-;-;-;-;-;-;-;-;-;-;-;-;-;-;-
1512469935926;-;-;11.270004;1.8940125;-5.42218;-;-;-;-;-;-;-;-;-;-;-;-;-;-;-
1512469935947;-;-;13.115921;2.888794;-5.5526733;-;-;-;-;-;-;-;-;-;-;-;-;-;-;-
1512469935967;-;-;12.607162;1.9263306;-5.3371887;-;-;-;-;-;-;-;-;-;-;-;-;-;-;-
1512469935988;-;-;9.347458;1.4798126;-4.8763123;-;-;-;-;-;-;-;-;-;-;-;-;-;-;-
1512469936009;-;-;5.8327637;1.7216187;-4.290924;-;-;-;-;-;-;-;-;-;-;-;-;-;-;-
1512469936029;-;-;4.897827;0.5783844;-4.255005;-;-;-;-;-;-;-;-;-;-;-;-;-;-;-
1512469936050;-;-;6.3666687;-0.22007751;-5.7789154;-;-;-;-;-;-;-;-;-;-;-;-;-;-;-
1512469936070;-;-;8.041412;0.7411957;-5.4940033;-;-;-;-;-;-;-;-;-;-;-;-;-;-;-
1512469936091;-;-;7.976776;1.5935364;-4.220291;-;-;-;-;-;-;-;-;-;-;-;-;-;-;-
1512469936111;-;-;8.224579;1.5420532;-3.6085815;-;-;-;-;-;-;-;-;-;-;-;-;-;-;-
1512469936131;-;-;7.7421417;1.2355957;-3.9712982;-;-;-;-;-;-;-;-;-;-;-;-;-;-;-
1512469936152;-;-;7.683487;0.9901886;-3.9868622;-;-;-;-;-;-;-;-;-;-;-;-;-;-;-
1512469936172;-;-;6.9460754;0.378479;-3.0591125;-;-;-;-;-;-;-;-;-;-;-;-;-;-;-
1512469936193;-;-;6.256546;-0.8593292;-2.781372;-;-;-;-;-;-;-;-;-;-;-;-;-;-;-
1512469936212;-;-;5.9824066;-1.7631378;-2.5108337;-;-;-;-;-;-;-;-;-;-;-;-;-;-;-
1512469936232;-;-;5.8806458;-2.22641;-2.1277618;-;-;-;-;-;-;-;-;-;-;-;-;-;-;-
1512469936253;-;-;6.275696;-1.194519;-2.3600006;-;-;-;-;-;-;-;-;-;-;-;-;-;-;-
1512469936273;-;-;6.8215637;0.098358154;-2.8783417;-;-;-;-;-;-;-;-;-;-;-;-;-;-;-
1512469936294;-;-;7.5781403;0.80345154;-3.4134521;-;-;-;-;-;-;-;-;-;-;-;-;-;-;-
1512469936314;-;-;8.335907;0.6562042;-3.745041;-;-;-;-;-;-;-;-;-;-;-;-;-;-;-
1512469936334;-;-;8.299988;0.1725769;-3.6361084;-;-;-;-;-;-;-;-;-;-;-;-;-;-;-
1512469936355;-;-;7.806778;-0.20570374;-3.3045197;-;-;-;-;-;-;-;-;-;-;-;-;-;-;-
1512469936375;-;-;7.2501373;-0.4666748;-2.8891144;-;-;-;-;-;-;-;-;-;-;-;-;-;-;-
1512469936396;-;-;7.3387146;-0.6797638;-2.3552094;-;-;-;-;-;-;-;-;-;-;-;-;-;-;-
1512469936416;-;-;7.772064;-1.0185394;-1.8141174;-;-;-;-;-;-;-;-;-;-;-;-;-;-;-
1512469936437;-;-;8.290421;-1.4854126;-1.4382324;-;-;-;-;-;-;-;-;-;-;-;-;-;-;-
1512469936458;-;-;9.561737;-1.5368805;-1.0431824;-;-;-;-;-;-;-;-;-;-;-;-;-;-;-
1512469936478;-;-;11.158661;-0.97784424;-1.2682495;-;-;-;-;-;-;-;-;-;-;-;-;-;-;-
1512469936498;-;-;12.349777;-0.03453064;-1.7973633;-;-;-;-;-;-;-;-;-;-;-;-;-;-;-
1512469936519;-;-;13.72525;1.0763855;-3.0483398;-;-;-;-;-;-;-;-;-;-;-;-;-;-;-
1512469936540;-;-;14.011353;0.541275;-3.9617157;-;-;-;-;-;-;-;-;-;-;-;-;-;-;-
1512469936560;-;-;12.9435425;-1.7691193;-6.4385223;-;-;-;-;-;-;-;-;-;-;-;-;-;-;-
1512469936580;-;-;15.5233;-2.8812256;-6.097351;-;-;-;-;-;-;-;-;-;-;-;-;-;-;-
1512469936601;-;-;15.106705;-0.13986206;-6.8622894;-;-;-;-;-;-;-;-;-;-;-;-;-;-;-
1512469936621;-;-;12.469498;0.51135254;-7.5614014;-;-;-;-;-;-;-;-;-;-;-;-;-;-;-
1512469936642;-;-;8.229355;1.1733551;-6.088974;-;-;-;-;-;-;-;-;-;-;-;-;-;-;-
1512469936663;-;-;6.0099335;1.5947266;-4.2214966;-;-;-;-;-;-;-;-;-;-;-;-;-;-;-
1512469936682;-;-;5.6304474;1.0368805;-3.072281;-;-;-;-;-;-;-;-;-;-;-;-;-;-;-
1512469936703;-;-;8.004303;-0.59835815;-3.5523071;-;-;-;-;-;-;-;-;-;-;-;-;-;-;-
1512469936724;-;-;9.844254;-1.1957092;-3.1536713;-;-;-;-;-;-;-;-;-;-;-;-;-;-;-
1512469936744;-;-;9.513855;-0.9562988;-2.9609375;-;-;-;-;-;-;-;-;-;-;-;-;-;-;-
1512469936764;-;-;8.284424;-0.76116943;-3.100998;-;-;-;-;-;-;-;-;-;-;-;-;-;-;-
1512469936784;-;-;6.92572;-0.22007751;-3.1069946;-;-;-;-;-;-;-;-;-;-;-;-;-;-;-
1512469936804;-;-;5.2425995;0.927948;-2.7789917;-;-;-;-;-;-;-;-;-;-;-;-;-;-;-
1512469936825;-;-;3.8874817;1.9203491;-2.3372498;-;-;-;-;-;-;-;-;-;-;-;-;-;-;-
1512469936845;-;-;3.3463898;2.1825104;-2.3516235;-;-;-;-;-;-;-;-;-;-;-;-;-;-;-
1512469936867;-;-;4.022751;2.0376587;-2.689209;-;-;-;-;-;-;-;-;-;-;-;-;-;-;-
1512469936886;-;-;5.097748;2.3022156;-2.251068;-;-;-;-;-;-;-;-;-;-;-;-;-;-;-
1512469936907;-;-;6.047043;2.591919;-2.2103577;-;-;-;-;-;-;-;-;-;-;-;-;-;-;-
1512469936926;-;-;6.217041;2.3524933;-2.5443573;-;-;-;-;-;-;-;-;-;-;-;-;-;-;-
1512469936947;-;-;5.9357147;1.640213;-2.4390106;-;-;-;-;-;-;-;-;-;-;-;-;-;-;-
1512469936967;-;-;6.1356354;0.88365173;-1.9362335;-;-;-;-;-;-;-;-;-;-;-;-;-;-;-
1512469936988;-;-;7.059799;0.7830963;-2.076294;-;-;-;-;-;-;-;-;-;-;-;-;-;-;-
1512469937008;-;-;7.9707794;1.9646301;-1.689621;-;-;-;-;-;-;-;-;-;-;-;-;-;-;-
1512469937028;-;-;8.659119;3.5447998;-1.3580322;-;-;-;-;-;-;-;-;-;-;-;-;-;-;-
1512469937049;-;-;9.39534;3.991333;-1.6130066;-;-;-;-;-;-;-;-;-;-;-;-;-;-;-
1512469937069;-;-;9.784393;3.747116;-1.7422943;-;-;-;-;-;-;-;-;-;-;-;-;-;-;-
1512469937090;-;-;10.381744;3.1090698;-1.7195587;-;-;-;-;-;-;-;-;-;-;-;-;-;-;-
1512469937109;-;-;11.128738;3.141388;-1.0922699;-;-;-;-;-;-;-;-;-;-;-;-;-;-;-
1512469937130;-;-;11.831436;3.620224;-0.29380798;-;-;-;-;-;-;-;-;-;-;-;-;-;-;-
1512469937150;-;-;11.702148;3.8057709;-0.43745422;-;-;-;-;-;-;-;-;-;-;-;-;-;-;-
1512469937171;-;-;11.328659;2.2734833;-0.966568;-;-;-;-;-;-;-;-;-;-;-;-;-;-;-
1512469937192;-;-;10.781586;1.0847626;-3.9222107;-;-;-;-;-;-;-;-;-;-;-;-;-;-;-
1512469937212;-;-;10.889313;4.782608;-7.9720154;-;-;-;-;-;-;-;-;-;-;-;-;-;-;-
1512469937232;-;-;12.83461;5.7175446;-6.5223236;-;-;-;-;-;-;-;-;-;-;-;-;-;-;-
1512469937253;-;-;12.066071;2.9342804;-4.685974;-;-;-;-;-;-;-;-;-;-;-;-;-;-;-
1512469937274;-;-;9.439636;0.1618042;-4.5746307;-;-;-;-;-;-;-;-;-;-;-;-;-;-;-
1512469937294;-;-;4.9313507;0.09954834;-3.9461517;-;-;-;-;-;-;-;-;-;-;-;-;-;-;-
1512469937314;-;-;4.122101;1.7000732;-3.7270966;-;-;-;-;-;-;-;-;-;-;-;-;-;-;-
1512469937335;-;-;5.352722;3.991333;-4.35437;-;-;-;-;-;-;-;-;-;-;-;-;-;-;-
1512469937355;-;-;7.5685577;4.430664;-5.0211487;-;-;-;-;-;-;-;-;-;-;-;-;-;-;-
1512469937376;-;-;10.70018;2.9594269;-4.4070435;-;-;-;-;-;-;-;-;-;-;-;-;-;-;-
1512469937397;-;-;10.054947;2.6601563;-4.2322693;-;-;-;-;-;-;-;-;-;-;-;-;-;-;-
1512469937416;-;-;8.076126;1.5528259;-4.1424866;-;-;-;-;-;-;-;-;-;-;-;-;-;-;-
1512469937437;-;-;5.8435364;0.19412231;-3.0674896;-;-;-;-;-;-;-;-;-;-;-;-;-;-;-
1512469937456;-;-;4.676361;-0.63905334;-2.6054077;-;-;-;-;-;-;-;-;-;-;-;-;-;-;-
1512469937477;-;-;4.2980804;-1.8541107;-1.179657;-;-;-;-;-;-;-;-;-;-;-;-;-;-;-
1512469937497;-;-;5.5167236;-2.3042297;-1.1772614;-;-;-;-;-;-;-;-;-;-;-;-;-;-;-
1512469937518;-;-;6.354706;-1.3920441;-2.333664;-;-;-;-;-;-;-;-;-;-;-;-;-;-;-
1512469937538;-;-;6.5558167;0.14503479;-2.658081;-;-;-;-;-;-;-;-;-;-;-;-;-;-;-
1512469937559;-;-;7.046631;0.9351349;-2.5898438;-;-;-;-;-;-;-;-;-;-;-;-;-;-;-
1512469937578;-;-;7.968399;0.83935547;-2.831665;-;-;-;-;-;-;-;-;-;-;-;-;-;-;-
1512469937599;-;-;8.571732;0.3677063;-2.7358856;-;-;-;-;-;-;-;-;-;-;-;-;-;-;-
1512469937619;-;-;8.491531;0.32939148;-2.6568756;-;-;-;-;-;-;-;-;-;-;-;-;-;-;-
1512469937640;-;-;8.299988;0.69810486;-1.8955231;-;-;-;-;-;-;-;-;-;-;-;-;-;-;-
1512469937660;-;-;8.580109;0.79985046;-1.8775635;-;-;-;-;-;-;-;-;-;-;-;-;-;-;-
1512469937681;-;-;8.994308;0.5185394;-2.3181;-;-;-;-;-;-;-;-;-;-;-;-;-;-;-
1512469937701;-;-;8.861435;0.045684814;-2.06073;-;-;-;-;-;-;-;-;-;-;-;-;-;-;-
1512469937722;-;-;8.847061;-0.55885315;-1.5914612;-;-;-;-;-;-;-;-;-;-;-;-;-;-;-
1512469937742;-;-;9.258865;-0.85453796;-1.0743103;-;-;-;-;-;-;-;-;-;-;-;-;-;-;-
1512469937762;-;-;9.550964;-0.9479065;-0.6409607;-;-;-;-;-;-;-;-;-;-;-;-;-;-;-
1512469937783;-;-;9.4492035;-0.5672302;-0.107055664;-;-;-;-;-;-;-;-;-;-;-;-;-;-;-
1512469937803;-;-;9.121201;-0.7372284;0.6830292;-;-;-;-;-;-;-;-;-;-;-;-;-;-;-
1512469937824;-;-;8.850662;-1.1609955;0.22215271;-;-;-;-;-;-;-;-;-;-;-;-;-;-;-
1512469937844;-;-;8.875793;-1.8768616;-0.24232483;-;-;-;-;-;-;-;-;-;-;-;-;-;-;-
1512469937865;-;-;10.209366;-1.6721649;-0.48773193;-;-;-;-;-;-;-;-;-;-;-;-;-;-;-
1512469937884;-;-;10.788757;-0.704895;-0.7080078;-;-;-;-;-;-;-;-;-;-;-;-;-;-;-
1512469937905;-;-;10.148315;0.18574524;0.113204956;-;-;-;-;-;-;-;-;-;-;-;-;-;-;-
1512469937925;-;-;9.491104;1.0763855;-1.6920166;-;-;-;-;-;-;-;-;-;-;-;-;-;-;-
1512469937945;-;-;9.6862335;2.4554443;-5.5694275;-;-;-;-;-;-;-;-;-;-;-;-;-;-;-
1512469937966;-;-;11.842209;0.89682007;-7.108902;-;-;-;-;-;-;-;-;-;-;-;-;-;-;-
1512469937987;-;-;13.385269;0.8022461;-7.1771393;-;-;-;-;-;-;-;-;-;-;-;-;-;-;-
1512469938007;-;-;9.2756195;4.878372;-4.1975555;-;-;-;-;-;-;-;-;-;-;-;-;-;-;-
1512469938028;-;-;7.881012;5.509247;-3.7210999;-;-;-;-;-;-;-;-;-;-;-;-;-;-;-
1512469938048;-;-;6.6108856;2.560791;-2.4497833;-;-;-;-;-;-;-;-;-;-;-;-;-;-;-
1512469938069;-;-;6.7844543;-0.42358398;-1.8177185;-;-;-;-;-;-;-;-;-;-;-;-;-;-;-
1512469938089;-;-;8.390976;-1.2232513;-1.4059143;-;-;-;-;-;-;-;-;-;-;-;-;-;-;-
1512469938109;-;-;10.336258;-0.090789795;-2.1349487;-;-;-;-;-;-;-;-;-;-;-;-;-;-;-
1512469938129;-;-;11.538147;1.6725464;-3.4864655;-;-;-;-;-;-;-;-;-;-;-;-;-;-;-
1512469938150;-;-;10.349426;2.2160187;-3.2650146;-;-;-;-;-;-;-;-;-;-;-;-;-;-;-
1512469938170;-;-;7.8726196;1.9287262;-2.507248;-;-;-;-;-;-;-;-;-;-;-;-;-;-;-
1512469938190;-;-;5.873459;1.5528259;-1.3867645;-;-;-;-;-;-;-;-;-;-;-;-;-;-;-
1512469938210;-;-;4.020355;1.5468445;-0.8899536;-;-;-;-;-;-;-;-;-;-;-;-;-;-;-
1512469938231;-;-;4.1999207;1.8102112;-0.7522888;-;-;-;-;-;-;-;-;-;-;-;-;-;-;-
1512469938250;-;-;6.394211;2.8049927;-1.1664886;-;-;-;-;-;-;-;-;-;-;-;-;-;-;-
1512469938271;-;-;8.649536;3.9374542;-1.7602539;-;-;-;-;-;-;-;-;-;-;-;-;-;-;-
1512469938291;-;-;10.033386;4.399536;-1.9386139;-;-;-;-;-;-;-;-;-;-;-;-;-;-;-
1512469938312;-;-;9.804749;3.6154327;-1.0360107;-;-;-;-;-;-;-;-;-;-;-;-;-;-;-
1512469938333;-;-;8.199432;2.29982;-0.23753357;-;-;-;-;-;-;-;-;-;-;-;-;-;-;-
1512469938353;-;-;7.4799805;1.995758;-0.14537048;-;-;-;-;-;-;-;-;-;-;-;-;-;-;-
1512469938373;-;-;7.6080627;2.06279;-0.09628296;-;-;-;-;-;-;-;-;-;-;-;-;-;-;-
1512469938394;-;-;8.835098;1.6833191;-0.22198486;-;-;-;-;-;-;-;-;-;-;-;-;-;-;-
1512469938415;-;-;9.55455;0.8776703;-0.18127441;-;-;-;-;-;-;-;-;-;-;-;-;-;-;-
1512469938435;-;-;9.997482;0.07321167;-0.49012756;-;-;-;-;-;-;-;-;-;-;-;-;-;-;-
1512469938455;-;-;9.776016;0.10913086;0.2053833;-;-;-;-;-;-;-;-;-;-;-;-;-;-;-
1512469938476;-;-;8.341888;0.3174286;1.6873932;-;-;-;-;-;-;-;-;-;-;-;-;-;-;-
1512469938496;-;-;8.435257;2.9330902;-1.8799591;-;-;-;-;-;-;-;-;-;-;-;-;-;-;-
1512469938517;-;-;10.760025;7.892685;-4.9098206;-;-;-;-;-;-;-;-;-;-;-;-;-;-;-
1512469938537;-;-;15.895599;8.004013;-10.295578;-;-;-;-;-;-;-;-;-;-;-;-;-;-;-
1512469938557;-;-;12.441956;1.2822876;-4.603363;-;-;-;-;-;-;-;-;-;-;-;-;-;-;-
1512469938578;-;-;10.1961975;-2.1306458;-4.8451843;-;-;-;-;-;-;-;-;-;-;-;-;-;-;-
1512469938598;-;-;7.166336;-1.4530945;-3.5319672;-;-;-;-;-;-;-;-;-;-;-;-;-;-;-
1512469938619;-;-;6.394211;2.0220947;-0.92826843;-;-;-;-;-;-;-;-;-;-;-;-;-;-;-
1512469938639;-;-;6.1727448;5.1908264;-2.5575256;-;-;-;-;-;-;-;-;-;-;-;-;-;-;-
1512469938660;-;-;7.508713;5.438614;-3.8815155;-;-;-;-;-;-;-;-;-;-;-;-;-;-;-
1512469938679;-;-;9.63237;2.5500183;-4.8691254;-;-;-;-;-;-;-;-;-;-;-;-;-;-;-
1512469938700;-;-;9.63356;0.5197296;-4.3759155;-;-;-;-;-;-;-;-;-;-;-;-;-;-;-
1512469938720;-;-;8.055786;-0.3194275;-2.764618;-;-;-;-;-;-;-;-;-;-;-;-;-;-;-
1512469938741;-;-;6.394211;-0.8485565;-1.8033447;-;-;-;-;-;-;-;-;-;-;-;-;-;-;-
1512469938761;-;-;5.154007;-0.35055542;-2.6281433;-;-;-;-;-;-;-;-;-;-;-;-;-;-;-
1512469938781;-;-;6.3115997;0.58677673;-2.855606;-;-;-;-;-;-;-;-;-;-;-;-;-;-;-
1512469938802;-;-;8.321533;1.5229034;-2.5886536;-;-;-;-;-;-;-;-;-;-;-;-;-;-;-
1512469938822;-;-;10.299149;1.1805267;-3.28656;-;-;-;-;-;-;-;-;-;-;-;-;-;-;-
1512469938843;-;-;10.883331;-0.39245605;-3.1656494;-;-;-;-;-;-;-;-;-;-;-;-;-;-;-
1512469938863;-;-;9.977127;-1.2591553;-1.8153229;-;-;-;-;-;-;-;-;-;-;-;-;-;-;-
1512469938884;-;-;8.8051605;-0.8581238;-0.49971008;-;-;-;-;-;-;-;-;-;-;-;-;-;-;-
1512469938904;-;-;8.386185;0.30903625;-0.12741089;-;-;-;-;-;-;-;-;-;-;-;-;-;-;-
1512469938925;-;-;7.5589905;0.6562042;1.2372894;-;-;-;-;-;-;-;-;-;-;-;-;-;-;-
1512469938946;-;-;8.065353;0.028915405;2.0321655;-;-;-;-;-;-;-;-;-;-;-;-;-;-;-
1512469938966;-;-;9.847839;-1.617096;1.2923584;-;-;-;-;-;-;-;-;-;-;-;-;-;-;-
1512469938987;-;-;11.089233;-2.7603302;0.12159729;-;-;-;-;-;-;-;-;-;-;-;-;-;-;-
1512469939007;-;-;11.820663;-3.0559998;0.4400177;-;-;-;-;-;-;-;-;-;-;-;-;-;-;-
1512469939027;-;-;12.799896;-1.3429565;-1.6992035;-;-;-;-;-;-;-;-;-;-;-;-;-;-;-
1512469939048;-;-;12.221695;2.0699768;-8.260513;-;-;-;-;-;-;-;-;-;-;-;-;-;-;-
1512469939069;-;-;12.269577;3.2946167;-10.269241;-;-;-;-;-;-;-;-;-;-;-;-;-;-;-
1512469939089;-;-;12.617935;3.9147186;-4.7973022;-;-;-;-;-;-;-;-;-;-;-;-;-;-;-
1512469939110;-;-;8.428085;7.186386;-4.712311;-;-;-;-;-;-;-;-;-;-;-;-;-;-;-
1512469939130;-;-;4.038315;8.158432;-5.6017456;-;-;-;-;-;-;-;-;-;-;-;-;-;-;-
1512469939150;-;-;5.04747;3.7088165;-2.816101;-;-;-;-;-;-;-;-;-;-;-;-;-;-;-
1512469939171;-;-;7.205841;-1.2902832;-1.9589691;-;-;-;-;-;-;-;-;-;-;-;-;-;-;-
1512469939191;-;-;11.074875;-4.740326;-1.653717;-;-;-;-;-;-;-;-;-;-;-;-;-;-;-
1512469939211;-;-;12.423996;-2.897995;-3.3392334;-;-;-;-;-;-;-;-;-;-;-;-;-;-;-
1512469939231;-;-;10.455963;0.6143036;-2.6401215;-;-;-;-;-;-;-;-;-;-;-;-;-;-;-
1512469939252;-;-;8.671097;2.2794647;-1.9637604;-;-;-;-;-;-;-;-;-;-;-;-;-;-;-
1512469939272;-;-;7.548218;3.2000427;-2.2175446;-;-;-;-;-;-;-;-;-;-;-;-;-;-;-
1512469939293;-;-;5.9189606;3.134201;-1.179657;-;-;-;-;-;-;-;-;-;-;-;-;-;-;-
1512469939312;-;-;5.1157074;2.505722;-0.8755951;-;-;-;-;-;-;-;-;-;-;-;-;-;-;-
1512469939332;-;-;5.5550385;2.114273;-1.2694397;-;-;-;-;-;-;-;-;-;-;-;-;-;-;-
1512469939353;-;-;6.9987335;2.2100372;-1.5483704;-;-;-;-;-;-;-;-;-;-;-;-;-;-;-
1512469939373;-;-;8.752487;2.6996613;-0.90911865;-;-;-;-;-;-;-;-;-;-;-;-;-;-;-
1512469939394;-;-;10.099228;2.8995667;-1.0264282;-;-;-;-;-;-;-;-;-;-;-;-;-;-;-
1512469939415;-;-;9.707779;2.4255219;-1.5423737;-;-;-;-;-;-;-;-;-;-;-;-;-;-;-
1512469939435;-;-;7.652359;2.584732;-0.6589203;-;-;-;-;-;-;-;-;-;-;-;-;-;-;-
1512469939456;-;-;6.467224;3.4741821;-0.0017089844;-;-;-;-;-;-;-;-;-;-;-;-;-;-;-
1512469939475;-;-;6.853897;3.9769592;-0.159729;-;-;-;-;-;-;-;-;-;-;-;-;-;-;-
1512469939495;-;-;8.213791;3.690857;-0.6373749;-;-;-;-;-;-;-;-;-;-;-;-;-;-;-
1512469939516;-;-;9.552155;3.4586182;-0.6433563;-;-;-;-;-;-;-;-;-;-;-;-;-;-;-
1512469939536;-;-;10.460754;3.608261;-0.09867859;-;-;-;-;-;-;-;-;-;-;-;-;-;-;-
1512469939557;-;-;10.636734;3.8189392;0.43043518;-;-;-;-;-;-;-;-;-;-;-;-;-;-;-
1512469939577;-;-;11.614761;3.2491302;0.2987671;-;-;-;-;-;-;-;-;-;-;-;-;-;-;-
1512469939598;-;-;11.380127;2.9330902;-3.9102478;-;-;-;-;-;-;-;-;-;-;-;-;-;-;-
1512469939618;-;-;13.587585;4.497696;-2.1864166;-;-;-;-;-;-;-;-;-;-;-;-;-;-;-
1512469939639;-;-;14.670959;6.7961273;-5.828003;-;-;-;-;-;-;-;-;-;-;-;-;-;-;-
1512469939659;-;-;14.705673;4.73114;-7.078964;-;-;-;-;-;-;-;-;-;-;-;-;-;-;-
1512469939680;-;-;10.671448;3.371231;-7.7744904;-;-;-;-;-;-;-;-;-;-;-;-;-;-;-
1512469939700;-;-;8.320343;1.0727997;-6.0710144;-;-;-;-;-;-;-;-;-;-;-;-;-;-;-
1512469939721;-;-;4.5829926;-0.58399963;-5.4269714;-;-;-;-;-;-;-;-;-;-;-;-;-;-;-
1512469939740;-;-;5.6101074;0.1510315;-5.4736633;-;-;-;-;-;-;-;-;-;-;-;-;-;-;-
1512469939760;-;-;6.7485504;2.8720398;-5.543091;-;-;-;-;-;-;-;-;-;-;-;-;-;-;-
1512469939781;-;-;7.6631317;4.5719147;-5.6089325;-;-;-;-;-;-;-;-;-;-;-;-;-;-;-
1512469939800;-;-;9.88974;3.024063;-5.1983337;-;-;-;-;-;-;-;-;-;-;-;-;-;-;-
1512469939821;-;-;9.491104;0.99858093;-4.8152466;-;-;-;-;-;-;-;-;-;-;-;-;-;-;-
1512469939841;-;-;7.987549;-0.5935669;-3.6121674;-;-;-;-;-;-;-;-;-;-;-;-;-;-;-
1512469939862;-;-;6.5582123;-2.5436401;-2.5682983;-;-;-;-;-;-;-;-;-;-;-;-;-;-;-
1512469939883;-;-;5.533493;-4.0232697;-1.3256989;-;-;-;-;-;-;-;-;-;-;-;-;-;-;-
1512469939903;-;-;5.5514526;-3.2247925;-0.42549133;-;-;-;-;-;-;-;-;-;-;-;-;-;-;-
1512469939923;-;-;5.79924;-1.2507782;-1.3652039;-;-;-;-;-;-;-;-;-;-;-;-;-;-;-
1512469939944;-;-;6.43132;0.7411957;-1.9051056;-;-;-;-;-;-;-;-;-;-;-;-;-;-;-
1512469939964;-;-;8.070145;2.6230469;-2.2929688;-;-;-;-;-;-;-;-;-;-;-;-;-;-;-
1512469939985;-;-;9.404907;3.1126556;-2.524002;-;-;-;-;-;-;-;-;-;-;-;-;-;-;-
1512469940006;-;-;8.714188;0.9614563;-2.6269531;-;-;-;-;-;-;-;-;-;-;-;-;-;-;-
1512469940026;-;-;7.36026;-0.75756836;-2.3803558;-;-;-;-;-;-;-;-;-;-;-;-;-;-;-
1512469940047;-;-;7.185486;-1.7020874;-1.8811646;-;-;-;-;-;-;-;-;-;-;-;-;-;-;-
1512469940067;-;-;6.8167877;-1.7224426;-2.4019012;-;-;-;-;-;-;-;-;-;-;-;-;-;-;-
1512469940088;-;-;7.0657806;-1.7906647;-2.3228912;-;-;-;-;-;-;-;-;-;-;-;-;-;-;-
1512469940108;-;-;7.126831;-1.3824615;-1.6309662;-;-;-;-;-;-;-;-;-;-;-;-;-;-;-
1512469940129;-;-;7.2046356;-1.8253937;-1.6417389;-;-;-;-;-;-;-;-;-;-;-;-;-;-;-
1512469940148;-;-;6.5797577;-1.3082428;-1.5399933;-;-;-;-;-;-;-;-;-;-;-;-;-;-;-
1512469940169;-;-;7.7409363;-2.2683105;-2.053543;-;-;-;-;-;-;-;-;-;-;-;-;-;-;-
1512469940189;-;-;8.906921;-2.2743073;-1.456192;-;-;-;-;-;-;-;-;-;-;-;-;-;-;-
1512469940209;-;-;8.916504;-2.2132416;-1.5986481;-;-;-;-;-;-;-;-;-;-;-;-;-;-;-
1512469940230;-;-;9.042191;-2.332962;-1.2730255;-;-;-;-;-;-;-;-;-;-;-;-;-;-;-
1512469940249;-;-;10.38295;-3.0093231;-1.4980927;-;-;-;-;-;-;-;-;-;-;-;-;-;-;-
1512469940270;-;-;11.062897;-3.2140198;-1.887146;-;-;-;-;-;-;-;-;-;-;-;-;-;-;-
1512469940290;-;-;13.112335;-2.9506683;-1.8787689;-;-;-;-;-;-;-;-;-;-;-;-;-;-;-
1512469940311;-;-;14.979813;-0.7815094;0.25926208;-;-;-;-;-;-;-;-;-;-;-;-;-;-;-
1512469940331;-;-;16.703644;-2.2754974;-4.3639526;-;-;-;-;-;-;-;-;-;-;-;-;-;-;-
1512469940351;-;-;19.25705;-3.3576813;-4.441757;-;-;-;-;-;-;-;-;-;-;-;-;-;-;-
1512469940372;-;-;19.133759;-4.391968;-3.056717;-;-;-;-;-;-;-;-;-;-;-;-;-;-;-
1512469940393;-;-;12.060089;-5.320923;-7.026306;-;-;-;-;-;-;-;-;-;-;-;-;-;-;-
1512469940413;-;-;9.65152;-3.360077;-4.919403;-;-;-;-;-;-;-;-;-;-;-;-;-;-;-
1512469940434;-;-;8.759674;-2.3940125;-4.1580505;-;-;-;-;-;-;-;-;-;-;-;-;-;-;-
1512469940453;-;-;5.775299;-0.24401855;-6.607315;-;-;-;-;-;-;-;-;-;-;-;-;-;-;-
1512469940474;-;-;6.403778;-0.50019836;-6.208679;-;-;-;-;-;-;-;-;-;-;-;-;-;-;-
1512469940493;-;-;8.617218;-1.273529;-3.8252563;-;-;-;-;-;-;-;-;-;-;-;-;-;-;-
1512469940514;-;-;9.445618;-0.6330719;-4.3902893;-;-;-;-;-;-;-;-;-;-;-;-;-;-;-
1512469940534;-;-;8.890167;-0.0069885254;-5.5299225;-;-;-;-;-;-;-;-;-;-;-;-;-;-;-
1512469940555;-;-;7.892975;-0.19613647;-4.9852448;-;-;-;-;-;-;-;-;-;-;-;-;-;-;-
1512469940575;-;-;7.3889923;0.02293396;-4.0119934;-;-;-;-;-;-;-;-;-;-;-;-;-;-;-
1512469940596;-;-;6.315201;0.46826172;-3.93898;-;-;-;-;-;-;-;-;-;-;-;-;-;-;-
1512469940616;-;-;6.354706;1.125473;-3.8779297;-;-;-;-;-;-;-;-;-;-;-;-;-;-;-
1512469940637;-;-;6.6156616;0.6968994;-3.6791992;-;-;-;-;-;-;-;-;-;-;-;-;-;-;-
1512469940657;-;-;6.975998;0.16897583;-3.3571777;-;-;-;-;-;-;-;-;-;-;-;-;-;-;-
1512469940678;-;-;7.125641;0.46466064;-2.9298248;-;-;-;-;-;-;-;-;-;-;-;-;-;-;-
1512469940699;-;-;6.712631;0.9423065;-2.9058838;-;-;-;-;-;-;-;-;-;-;-;-;-;-;-
1512469940719;-;-;6.4013824;1.3397522;-3.1237488;-;-;-;-;-;-;-;-;-;-;-;-;-;-;-
1512469940739;-;-;6.4696198;1.3349609;-2.3432465;-;-;-;-;-;-;-;-;-;-;-;-;-;-;-
1512469940760;-;-;6.4444885;0.7076721;-1.8895416;-;-;-;-;-;-;-;-;-;-;-;-;-;-;-
1512469940780;-;-;5.335968;0.43234253;-1.7387085;-;-;-;-;-;-;-;-;-;-;-;-;-;-;-
1512469940801;-;-;4.356735;0.76634216;-1.006073;-;-;-;-;-;-;-;-;-;-;-;-;-;-;-
1512469940820;-;-;3.6696014;1.4343262;-0.7977905;-;-;-;-;-;-;-;-;-;-;-;-;-;-;-
1512469940841;-;-;4.055069;1.8760529;-1.2359161;-;-;-;-;-;-;-;-;-;-;-;-;-;-;-
1512469940860;-;-;5.6268616;2.3070068;-2.0738983;-;-;-;-;-;-;-;-;-;-;-;-;-;-;-
1512469940881;-;-;7.3387146;3.0216675;-2.6054077;-;-;-;-;-;-;-;-;-;-;-;-;-;-;-
1512469940901;-;-;9.656311;4.0858917;-2.3468323;-;-;-;-;-;-;-;-;-;-;-;-;-;-;-
1512469940922;-;-;11.265213;4.3731995;-2.3288727;-;-;-;-;-;-;-;-;-;-;-;-;-;-;-
1512469940942;-;-;11.208939;4.8640137;-2.7705994;-;-;-;-;-;-;-;-;-;-;-;-;-;-;-
1512469940963;-;-;9.823898;4.6664886;-2.3588104;-;-;-;-;-;-;-;-;-;-;-;-;-;-;-
1512469940984;-;-;7.9420624;3.5376282;-5.2569885;-;-;-;-;-;-;-;-;-;-;-;-;-;-;-
1512469941004;-;-;9.3546295;3.9254913;-3.2841644;-;-;-;-;-;-;-;-;-;-;-;-;-;-;-
1512469941025;-;-;10.845032;4.480942;-6.942505;-;-;-;-;-;-;-;-;-;-;-;-;-;-;-
1512469941045;-;-;12.605957;2.6996613;-6.1512146;-;-;-;-;-;-;-;-;-;-;-;-;-;-;-
1512469941065;-;-;11.05452;0.69091797;-6.8311768;-;-;-;-;-;-;-;-;-;-;-;-;-;-;-
1512469941086;-;-;9.06015;-0.55885315;-5.563446;-;-;-;-;-;-;-;-;-;-;-;-;-;-;-
1512469941106;-;-;5.972824;-0.9395294;-5.812439;-;-;-;-;-;-;-;-;-;-;-;-;-;-;-
1512469941127;-;-;5.22464;-0.8856659;-4.413025;-;-;-;-;-;-;-;-;-;-;-;-;-;-;-
1512469941148;-;-;6.29126;0.5700073;-3.4505615;-;-;-;-;-;-;-;-;-;-;-;-;-;-;-
1512469941168;-;-;7.952835;1.2080688;-3.3919067;-;-;-;-;-;-;-;-;-;-;-;-;-;-;-
1512469941188;-;-;9.692215;0.83935547;-3.5559082;-;-;-;-;-;-;-;-;-;-;-;-;-;-;-
1512469941209;-;-;9.796371;0.17497253;-4.0826263;-;-;-;-;-;-;-;-;-;-;-;-;-;-;-
1512469941230;-;-;8.977554;0.23602295;-3.8647614;-;-;-;-;-;-;-;-;-;-;-;-;-;-;-
1512469941250;-;-;7.3782196;0.30784607;-3.235077;-;-;-;-;-;-;-;-;-;-;-;-;-;-;-
1512469941271;-;-;6.1559753;-0.35653687;-2.3240814;-;-;-;-;-;-;-;-;-;-;-;-;-;-;-
1512469941291;-;-;5.1671753;-1.5632172;-1.6465302;-;-;-;-;-;-;-;-;-;-;-;-;-;-;-
1512469941311;-;-;5.1240845;-1.6266632;-1.8201141;-;-;-;-;-;-;-;-;-;-;-;-;-;-;-
1512469941332;-;-;5.572998;-0.49301147;-2.6293488;-;-;-;-;-;-;-;-;-;-;-;-;-;-;-
1512469941353;-;-;6.1092987;1.0045624;-2.879547;-;-;-;-;-;-;-;-;-;-;-;-;-;-;-
1512469941373;-;-;6.750946;1.4450989;-2.5347748;-;-;-;-;-;-;-;-;-;-;-;-;-;-;-
1512469941394;-;-;7.296814;0.30186462;-2.994461;-;-;-;-;-;-;-;-;-;-;-;-;-;-;-
1512469941414;-;-;7.7098236;-0.81144714;-2.9717255;-;-;-;-;-;-;-;-;-;-;-;-;-;-;-
1512469941435;-;-;8.140778;-0.8964386;-2.184021;-;-;-;-;-;-;-;-;-;-;-;-;-;-;-
1512469941455;-;-;8.880585;-0.52653503;-0.99290466;-;-;-;-;-;-;-;-;-;-;-;-;-;-;-
1512469941475;-;-;9.697006;-0.636673;-0.6948395;-;-;-;-;-;-;-;-;-;-;-;-;-;-;-
1512469941496;-;-;11.1215515;-1.1873322;-1.9745331;-;-;-;-;-;-;-;-;-;-;-;-;-;-;-
1512469941517;-;-;13.130295;-1.4399261;-3.0926208;-;-;-;-;-;-;-;-;-;-;-;-;-;-;-
1512469941537;-;-;14.990585;-1.3896484;-3.6025848;-;-;-;-;-;-;-;-;-;-;-;-;-;-;-
1512469941557;-;-;13.746796;-2.1150818;-4.2418365;-;-;-;-;-;-;-;-;-;-;-;-;-;-;-
1512469941578;-;-;12.981857;-2.301834;-7.762512;-;-;-;-;-;-;-;-;-;-;-;-;-;-;-
1512469941598;-;-;13.994598;-0.35055542;-6.1272736;-;-;-;-;-;-;-;-;-;-;-;-;-;-;-
1512469941619;-;-;13.518158;0.29826355;-4.9996033;-;-;-;-;-;-;-;-;-;-;-;-;-;-;-
1512469941639;-;-;9.673065;0.87646484;-6.9832;-;-;-;-;-;-;-;-;-;-;-;-;-;-;-
1512469941660;-;-;5.607712;1.4103699;-5.859131;-;-;-;-;-;-;-;-;-;-;-;-;-;-;-
1512469941680;-;-;4.2873077;0.64064026;-4.812866;-;-;-;-;-;-;-;-;-;-;-;-;-;-;-
1512469941701;-;-;6.130844;-0.28831482;-4.1580505;-;-;-;-;-;-;-;-;-;-;-;-;-;-;-
1512469941721;-;-;8.8602295;-0.48703003;-3.322464;-;-;-;-;-;-;-;-;-;-;-;-;-;-;-
1512469941742;-;-;10.019028;-0.45350647;-3.1884003;-;-;-;-;-;-;-;-;-;-;-;-;-;-;-
1512469941763;-;-;9.465973;-0.8425598;-3.1476898;-;-;-;-;-;-;-;-;-;-;-;-;-;-;-
1512469941783;-;-;8.023453;-0.71447754;-2.879547;-;-;-;-;-;-;-;-;-;-;-;-;-;-;-
1512469941803;-;-;6.005142;0.04927063;-3.1093903;-;-;-;-;-;-;-;-;-;-;-;-;-;-;-
1512469941823;-;-;4.603348;1.062027;-3.0626984;-;-;-;-;-;-;-;-;-;-;-;-;-;-;-
1512469941844;-;-;3.7749481;1.9981537;-2.3288727;-;-;-;-;-;-;-;-;-;-;-;-;-;-;-
1512469941865;-;-;4.0047913;2.019699;-1.8991089;-;-;-;-;-;-;-;-;-;-;-;-;-;-;-
1512469941885;-;-;4.65123;1.4151611;-2.144516;-;-;-;-;-;-;-;-;-;-;-;-;-;-;-
1512469941906;-;-;5.478424;1.4414978;-2.5012512;-;-;-;-;-;-;-;-;-;-;-;-;-;-;-
1512469941925;-;-;6.6587677;1.9143524;-2.831665;-;-;-;-;-;-;-;-;-;-;-;-;-;-;-
1512469941946;-;-;8.112045;2.184906;-2.1301575;-;-;-;-;-;-;-;-;-;-;-;-;-;-;-
1512469941966;-;-;8.599258;1.9825897;-1.8356628;-;-;-;-;-;-;-;-;-;-;-;-;-;-;-
1512469941987;-;-;8.74292;1.6689453;-2.0547333;-;-;-;-;-;-;-;-;-;-;-;-;-;-;-
1512469942007;-;-;8.061768;1.7012787;-2.124176;-;-;-;-;-;-;-;-;-;-;-;-;-;-;-
1512469942028;-;-;7.7062225;2.1884918;-1.5256195;-;-;-;-;-;-;-;-;-;-;-;-;-;-;-
1512469942048;-;-;8.122818;3.276657;-1.2227478;-;-;-;-;-;-;-;-;-;-;-;-;-;-;-
1512469942069;-;-;9.055359;4.4677734;-1.6644897;-;-;-;-;-;-;-;-;-;-;-;-;-;-;-
1512469942088;-;-;9.412094;4.3013763;-1.8799591;-;-;-;-;-;-;-;-;-;-;-;-;-;-;-
1512469942108;-;-;10.135147;3.220398;-1.5244293;-;-;-;-;-;-;-;-;-;-;-;-;-;-;-
1512469942129;-;-;11.369354;2.1513824;-0.91389465;-;-;-;-;-;-;-;-;-;-;-;-;-;-;-
1512469942150;-;-;11.605179;1.2116547;-2.938202;-;-;-;-;-;-;-;-;-;-;-;-;-;-;-
1512469942170;-;-;11.800308;1.6940918;-3.36557;-;-;-;-;-;-;-;-;-;-;-;-;-;-;-
1512469942190;-;-;12.622726;4.7371216;-7.1065063;-;-;-;-;-;-;-;-;-;-;-;-;-;-;-
1512469942211;-;-;14.826584;4.2582855;-6.09256;-;-;-;-;-;-;-;-;-;-;-;-;-;-;-
1512469942231;-;-;12.821442;0.9889984;-5.989609;-;-;-;-;-;-;-;-;-;-;-;-;-;-;-
1512469942252;-;-;9.167892;1.1194763;-4.448944;-;-;-;-;-;-;-;-;-;-;-;-;-;-;-
1512469942272;-;-;5.210266;1.1877136;-4.171219;-;-;-;-;-;-;-;-;-;-;-;-;-;-;-
1512469942293;-;-;4.094574;0.30186462;-3.7785645;-;-;-;-;-;-;-;-;-;-;-;-;-;-;-
1512469942314;-;-;4.882263;0.2192688;-4.092209;-;-;-;-;-;-;-;-;-;-;-;-;-;-;-
1512469942334;-;-;7.671509;1.2140503;-4.1101685;-;-;-;-;-;-;-;-;-;-;-;-;-;-;-
1512469942355;-;-;9.96994;1.4438934;-3.36557;-;-;-;-;-;-;-;-;-;-;-;-;-;-;-
1512469942375;-;-;10.14473;0.5951538;-3.183609;-;-;-;-;-;-;-;-;-;-;-;-;-;-;-
1512469942395;-;-;8.903336;-0.06324768;-3.2290955;-;-;-;-;-;-;-;-;-;-;-;-;-;-;-
1512469942416;-;-;7.320755;0.0025787354;-2.9812927;-;-;-;-;-;-;-;-;-;-;-;-;-;-;-
1512469942436;-;-;5.6148987;-0.35055542;-2.1121979;-;-;-;-;-;-;-;-;-;-;-;-;-;-;-
1512469942457;-;-;5.040283;-1.6218872;-1.1030426;-;-;-;-;-;-;-;-;-;-;-;-;-;-;-
1512469942477;-;-;5.5634155;-1.9259491;-1.8380585;-;-;-;-;-;-;-;-;-;-;-;-;-;-;-
1512469942498;-;-;6.5749664;-1.4638672;-2.491684;-;-;-;-;-;-;-;-;-;-;-;-;-;-;-
1512469942517;-;-;7.6703186;-0.45350647;-2.3588104;-;-;-;-;-;-;-;-;-;-;-;-;-;-;-
1512469942537;-;-;8.474762;0.35214233;-1.7219391;-;-;-;-;-;-;-;-;-;-;-;-;-;-;-
1512469942558;-;-;8.835098;0.4191742;-1.7865906;-;-;-;-;-;-;-;-;-;-;-;-;-;-;-
1512469942579;-;-;8.590881;-0.4451294;-2.0834656;-;-;-;-;-;-;-;-;-;-;-;-;-;-;-
1512469942598;-;-;8.122818;-1.4291534;-1.7566681;-;-;-;-;-;-;-;-;-;-;-;-;-;-;-
1512469942620;-;-;8.333511;-2.0181274;-1.4154816;-;-;-;-;-;-;-;-;-;-;-;-;-;-;-
1512469942640;-;-;8.557373;-1.7966614;-1.6154022;-;-;-;-;-;-;-;-;-;-;-;-;-;-;-
1512469942660;-;-;8.5238495;-1.020935;-1.7255402;-;-;-;-;-;-;-;-;-;-;-;-;-;-;-
1512469942681;-;-;7.5673676;-0.9562988;-1.629776;-;-;-;-;-;-;-;-;-;-;-;-;-;-;-
1512469942701;-;-;6.6707306;-1.483017;-1.5519562;-;-;-;-;-;-;-;-;-;-;-;-;-;-;-
1512469942722;-;-;6.3068237;-1.601532;-0.92108154;-;-;-;-;-;-;-;-;-;-;-;-;-;-;-
1512469942742;-;-;7.1160583;-1.661377;-0.81333923;-;-;-;-;-;-;-;-;-;-;-;-;-;-;-
1512469942762;-;-;8.0138855;-1.2747192;-1.4466095;-;-;-;-;-;-;-;-;-;-;-;-;-;-;-
1512469942783;-;-;8.595673;-1.5261078;-1.2646484;-;-;-;-;-;-;-;-;-;-;-;-;-;-;-
1512469942803;-;-;8.384979;-2.4287262;-0.66490173;-;-;-;-;-;-;-;-;-;-;-;-;-;-;-
1512469942824;-;-;8.647156;-3.1613464;0.024627686;-;-;-;-;-;-;-;-;-;-;-;-;-;-;-
1512469942845;-;-;9.388153;-3.3935852;-0.85884094;-;-;-;-;-;-;-;-;-;-;-;-;-;-;-
1512469942864;-;-;11.2161255;-3.029663;-1.8512268;-;-;-;-;-;-;-;-;-;-;-;-;-;-;-
1512469942885;-;-;12.820236;-2.183319;-1.7494812;-;-;-;-;-;-;-;-;-;-;-;-;-;-;-
1512469942904;-;-;16.684479;-1.5656128;-0.7175751;-;-;-;-;-;-;-;-;-;-;-;-;-;-;-
1512469942924;-;-;19.862793;-2.2719116;-3.0519257;-;-;-;-;-;-;-;-;-;-;-;-;-;-;-
1512469942945;-;-;19.1577;-4.218399;-2.0583344;-;-;-;-;-;-;-;-;-;-;-;-;-;-;-
1512469942965;-;-;15.4574585;-7.2171326;-6.0985413;-;-;-;-;-;-;-;-;-;-;-;-;-;-;-
1512469942986;-;-;11.381332;-4.2243805;-7.4512634;-;-;-;-;-;-;-;-;-;-;-;-;-;-;-
1512469943007;-;-;10.986282;0.14503479;-4.682373;-;-;-;-;-;-;-;-;-;-;-;-;-;-;-
1512469943026;-;-;8.872208;1.070404;-4.7350464;-;-;-;-;-;-;-;-;-;-;-;-;-;-;-
1512469943047;-;-;6.1954803;0.2240448;-4.246628;-;-;-;-;-;-;-;-;-;-;-;-;-;-;-
1512469943068;-;-;6.905365;-1.7703247;-4.3555603;-;-;-;-;-;-;-;-;-;-;-;-;-;-;-
1512469943088;-;-;9.717361;-2.7196198;-3.5726624;-;-;-;-;-;-;-;-;-;-;-;-;-;-;-
1512469943108;-;-;10.702576;-2.388031;-4.720688;-;-;-;-;-;-;-;-;-;-;-;-;-;-;-
1512469943129;-;-;9.518631;-0.6941223;-5.0953827;-;-;-;-;-;-;-;-;-;-;-;-;-;-;-
1512469943149;-;-;7.722992;-0.14465332;-4.994812;-;-;-;-;-;-;-;-;-;-;-;-;-;-;-
1512469943170;-;-;6.673126;0.417984;-4.3711243;-;-;-;-;-;-;-;-;-;-;-;-;-;-;-
1512469943190;-;-;5.631653;1.200882;-4.369934;-;-;-;-;-;-;-;-;-;-;-;-;-;-;-
1512469943211;-;-;5.351532;1.6904907;-5.0558777;-;-;-;-;-;-;-;-;-;-;-;-;-;-;-
1512469943231;-;-;6.35231;1.6138763;-5.0546722;-;-;-;-;-;-;-;-;-;-;-;-;-;-;-
1512469943252;-;-;6.8036194;1.0919495;-4.599777;-;-;-;-;-;-;-;-;-;-;-;-;-;-;-
1512469943273;-;-;7.5984955;0.52093506;-3.6995544;-;-;-;-;-;-;-;-;-;-;-;-;-;-;-
1512469943293;-;-;8.055786;0.49578857;-3.2266998;-;-;-;-;-;-;-;-;-;-;-;-;-;-;-
1512469943313;-;-;7.3626556;1.1745453;-2.9753113;-;-;-;-;-;-;-;-;-;-;-;-;-;-;-
1512469943334;-;-;6.8610687;0.9243469;-2.8867188;-;-;-;-;-;-;-;-;-;-;-;-;-;-;-
1512469943354;-;-;6.1284485;0.62986755;-2.7742004;-;-;-;-;-;-;-;-;-;-;-;-;-;-;-
1512469943375;-;-;5.186325;0.40481567;-2.1804352;-;-;-;-;-;-;-;-;-;-;-;-;-;-;-
1512469943396;-;-;4.422577;0.31263733;-1.5172424;-;-;-;-;-;-;-;-;-;-;-;-;-;-;-
1512469943415;-;-;3.952118;0.33776855;-1.1509247;-;-;-;-;-;-;-;-;-;-;-;-;-;-;-
1512469943436;-;-;4.3938446;0.7986603;-1.7650452;-;-;-;-;-;-;-;-;-;-;-;-;-;-;-
1512469943457;-;-;5.6148987;2.2507477;-2.3133087;-;-;-;-;-;-;-;-;-;-;-;-;-;-;-
1512469943477;-;-;6.5127106;2.9701996;-2.3432465;-;-;-;-;-;-;-;-;-;-;-;-;-;-;-
1512469943497;-;-;7.2872467;3.1198425;-2.08107;-;-;-;-;-;-;-;-;-;-;-;-;-;-;-
1512469943518;-;-;8.351471;2.7774658;-2.2678223;-;-;-;-;-;-;-;-;-;-;-;-;-;-;-
1512469943539;-;-;9.47554;2.9318848;-2.7023773;-;-;-;-;-;-;-;-;-;-;-;-;-;-;-
1512469943558;-;-;10.020218;3.5388184;-2.3396454;-;-;-;-;-;-;-;-;-;-;-;-;-;-;-
1512469943579;-;-;10.008255;4.228348;-2.0427704;-;-;-;-;-;-;-;-;-;-;-;-;-;-;-
1512469943599;-;-;10.143524;4.65213;-1.3747864;-;-;-;-;-;-;-;-;-;-;-;-;-;-;-
1512469943620;-;-;10.422455;4.4115143;-1.8153229;-;-;-;-;-;-;-;-;-;-;-;-;-;-;-
1512469943640;-;-;10.950378;4.109833;-2.7514496;-;-;-;-;-;-;-;-;-;-;-;-;-;-;-
1512469943660;-;-;9.281616;4.7083893;-5.2737427;-;-;-;-;-;-;-;-;-;-;-;-;-;-;-
1512469943681;-;-;10.637924;2.8696442;-4.483658;-;-;-;-;-;-;-;-;-;-;-;-;-;-;-
1512469943702;-;-;9.5354;-0.4152069;-5.1073456;-;-;-;-;-;-;-;-;-;-;-;-;-;-;-
1512469943721;-;-;8.933258;-0.78630066;-4.673996;-;-;-;-;-;-;-;-;-;-;-;-;-;-;-
1512469943742;-;-;6.0494385;1.5683899;-6.114105;-;-;-;-;-;-;-;-;-;-;-;-;-;-;-
1512469943762;-;-;6.5641937;3.5196686;-5.3838806;-;-;-;-;-;-;-;-;-;-;-;-;-;-;-
1512469943783;-;-;7.7026367;4.2307434;-5.349167;-;-;-;-;-;-;-;-;-;-;-;-;-;-;-
1512469943803;-;-;9.165497;2.9534454;-5.99559;-;-;-;-;-;-;-;-;-;-;-;-;-;-;-
1512469943824;-;-;10.503845;0.68852234;-5.7310333;-;-;-;-;-;-;-;-;-;-;-;-;-;-;-
1512469943844;-;-;11.316681;-0.1925354;-5.5419006;-;-;-;-;-;-;-;-;-;-;-;-;-;-;-
1512469943865;-;-;9.67186;0.086380005;-5.0127716;-;-;-;-;-;-;-;-;-;-;-;-;-;-;-
1512469943885;-;-;7.4835663;0.18574524;-4.0479126;-;-;-;-;-;-;-;-;-;-;-;-;-;-;-
1512469943905;-;-;4.7493896;-0.38526917;-3.2266998;-;-;-;-;-;-;-;-;-;-;-;-;-;-;-
1512469943925;-;-;3.909027;-0.9562988;-2.6796265;-;-;-;-;-;-;-;-;-;-;-;-;-;-;-
1512469943946;-;-;4.5710144;-0.9072113;-2.3875275;-;-;-;-;-;-;-;-;-;-;-;-;-;-;-
1512469943966;-;-;5.9345245;-0.09197998;-2.8699646;-;-;-;-;-;-;-;-;-;-;-;-;-;-;-
1512469943987;-;-;6.493561;0.94470215;-3.0986176;-;-;-;-;-;-;-;-;-;-;-;-;-;-;-
1512469944007;-;-;6.6144714;1.0237122;-2.879547;-;-;-;-;-;-;-;-;-;-;-;-;-;-;-
1512469944028;-;-;6.5953217;0.50297546;-3.0399475;-;-;-;-;-;-;-;-;-;-;-;-;-;-;-
1512469944048;-;-;6.0721893;0.2515869;-3.381134;-;-;-;-;-;-;-;-;-;-;-;-;-;-;-
1512469944069;-;-;5.9141693;0.47782898;-3.0662842;-;-;-;-;-;-;-;-;-;-;-;-;-;-;-
1512469944089;-;-;6.2517548;0.635849;-2.3947144;-;-;-;-;-;-;-;-;-;-;-;-;-;-;-
1512469944110;-;-;6.9101563;0.5855713;-1.8416595;-;-;-;-;-;-;-;-;-;-;-;-;-;-;-
1512469944131;-;-;7.743332;0.27192688;-1.90271;-;-;-;-;-;-;-;-;-;-;-;-;-;-;-
1512469944150;-;-;8.582504;-0.18057251;-1.8524323;-;-;-;-;-;-;-;-;-;-;-;-;-;-;-
1512469944171;-;-;9.025436;-0.19732666;-0.4063263;-;-;-;-;-;-;-;-;-;-;-;-;-;-;-
1512469944192;-;-;9.995087;-0.35295105;0.29037476;-;-;-;-;-;-;-;-;-;-;-;-;-;-;-
1512469944213;-;-;10.62236;-0.59117126;-0.3871765;-;-;-;-;-;-;-;-;-;-;-;-;-;-;-
1512469944233;-;-;10.908478;-0.838974;-0.91030884;-;-;-;-;-;-;-;-;-;-;-;-;-;-;-
1512469944254;-;-;9.855026;-1.1873322;-0.1669159;-;-;-;-;-;-;-;-;-;-;-;-;-;-;-
1512469944274;-;-;9.110428;-1.8313751;0.5190277;-;-;-;-;-;-;-;-;-;-;-;-;-;-;-
1512469944294;-;-;9.212173;-2.1402283;0.14193726;-;-;-;-;-;-;-;-;-;-;-;-;-;-;-
1512469944314;-;-;9.615601;-0.52653503;-0.83369446;-;-;-;-;-;-;-;-;-;-;-;-;-;-;-
1512469944335;-;-;10.222534;1.6282501;-3.5726624;-;-;-;-;-;-;-;-;-;-;-;-;-;-;-
1512469944354;-;-;9.378571;4.1170197;-9.068558;-;-;-;-;-;-;-;-;-;-;-;-;-;-;-
1512469944374;-;-;11.9272;1.5899353;-6.8622894;-;-;-;-;-;-;-;-;-;-;-;-;-;-;-
1512469944395;-;-;13.069244;2.3345337;-6.121292;-;-;-;-;-;-;-;-;-;-;-;-;-;-;-
1512469944415;-;-;9.392944;7.355179;-3.4613342;-;-;-;-;-;-;-;-;-;-;-;-;-;-;-
1512469944436;-;-;7.33992;8.545105;-4.2729645;-;-;-;-;-;-;-;-;-;-;-;-;-;-;-
1512469944456;-;-;7.2477417;3.944641;-2.8268738;-;-;-;-;-;-;-;-;-;-;-;-;-;-;-
1512469944476;-;-;7.317169;-0.73483276;-2.4222565;-;-;-;-;-;-;-;-;-;-;-;-;-;-;-
1512469944497;-;-;7.6739044;-1.6242676;-1.298172;-;-;-;-;-;-;-;-;-;-;-;-;-;-;-
1512469944518;-;-;8.135986;0.29588318;-1.5435791;-;-;-;-;-;-;-;-;-;-;-;-;-;-;-
1512469944538;-;-;9.091278;2.2303925;-2.1038208;-;-;-;-;-;-;-;-;-;-;-;-;-;-;-
1512469944559;-;-;9.090073;2.7918243;-3.025589;-;-;-;-;-;-;-;-;-;-;-;-;-;-;-
1512469944579;-;-;8.141968;2.2782745;-3.0543213;-;-;-;-;-;-;-;-;-;-;-;-;-;-;-
1512469944599;-;-;6.794037;1.9742126;-1.9242554;-;-;-;-;-;-;-;-;-;-;-;-;-;-;-
1512469944619;-;-;6.163162;1.600708;-1.1030426;-;-;-;-;-;-;-;-;-;-;-;-;-;-;-
1512469944640;-;-;5.85791;2.0807495;-1.1521301;-;-;-;-;-;-;-;-;-;-;-;-;-;-;-
1512469944661;-;-;6.616867;3.1330109;-1.4502106;-;-;-;-;-;-;-;-;-;-;-;-;-;-;-
1512469944681;-;-;7.9779663;4.0416107;-1.7494812;-;-;-;-;-;-;-;-;-;-;-;-;-;-;-
1512469944701;-;-;9.017059;4.0487823;-1.5519562;-;-;-;-;-;-;-;-;-;-;-;-;-;-;-
1512469944722;-;-;8.970367;2.9067535;-1.2550812;-;-;-;-;-;-;-;-;-;-;-;-;-;-;-
1512469944742;-;-;8.094086;1.7551422;-1.0264282;-;-;-;-;-;-;-;-;-;-;-;-;-;-;-
1512469944763;-;-;7.556595;1.7814789;-0.8851776;-;-;-;-;-;-;-;-;-;-;-;-;-;-;-
1512469944784;-;-;7.161545;1.9275208;-0.33810425;-;-;-;-;-;-;-;-;-;-;-;-;-;-;-
1512469944804;-;-;7.6380005;1.7946472;0.04736328;-;-;-;-;-;-;-;-;-;-;-;-;-;-;-
1512469944825;-;-;9.440826;1.9215393;0.24967957;-;-;-;-;-;-;-;-;-;-;-;-;-;-;-
1512469944845;-;-;10.7851715;2.253128;-0.03881836;-;-;-;-;-;-;-;-;-;-;-;-;-;-;-
1512469944864;-;-;11.316681;1.9538574;0.038986206;-;-;-;-;-;-;-;-;-;-;-;-;-;-;-
1512469944884;-;-;10.60202;1.4319305;1.2959442;-;-;-;-;-;-;-;-;-;-;-;-;-;-;-
1512469944905;-;-;9.663483;1.1972961;2.015396;-;-;-;-;-;-;-;-;-;-;-;-;-;-;-
1512469944925;-;-;8.437653;1.2571411;2.038147;-;-;-;-;-;-;-;-;-;-;-;-;-;-;-
1512469944946;-;-;7.6499634;2.0089264;-0.5428009;-;-;-;-;-;-;-;-;-;-;-;-;-;-;-
1512469944966;-;-;7.822342;5.530792;-4.1221313;-;-;-;-;-;-;-;-;-;-;-;-;-;-;-
1512469944987;-;-;14.159805;9.090973;-10.441635;-;-;-;-;-;-;-;-;-;-;-;-;-;-;-
1512469945006;-;-;14.643433;6.1808167;-6.121292;-;-;-;-;-;-;-;-;-;-;-;-;-;-;-
1512469945027;-;-;13.0620575;1.4522705;-3.152481;-;-;-;-;-;-;-;-;-;-;-;-;-;-;-
1512469945046;-;-;9.337875;-3.234375;-4.097;-;-;-;-;-;-;-;-;-;-;-;-;-;-;-
1512469945067;-;-;7.514694;-4.7546997;-1.8907318;-;-;-;-;-;-;-;-;-;-;-;-;-;-;-
1512469945087;-;-;6.601303;-0.36132813;-2.5682983;-;-;-;-;-;-;-;-;-;-;-;-;-;-;-
