TimeStamp[ms];Prox[Cm];Lux[lux];AccX[m/s^2];AccY[m/s^2];AccZ[m/s^2];GyroX[rad/s];GyroY[rad/s];GyroZ[rad/s];MagnX[uT];MagnY[uT];MagnZ[uT];OrienYaw[degrees];OrienPitch[degrees];OrienRoll[degrees];Press[Pa];Temp[C°];Batt[%];Lat;Lng;Speed[m/s]
1512469978378;-;-;9.437241;1.5671997;-0.7582855;-;-;-;-;-;-;-;-;-;-;-;-;-;-;-
1512469978408;-;-;9.29837;1.5444489;-0.5631561;-;-;-;-;-;-;-;-;-;-;-;-;-;-;-
1512469978418;-;-;8.827911;1.4786072;-0.5535736;-;-;-;-;-;-;-;-;-;-;-;-;-;-;-
1512469978440;-;-;8.333511;1.7551422;-0.6289978;-;-;-;-;-;-;-;-;-;-;-;-;-;-;-
1512469978460;-;-;8.296402;2.2172241;-0.5056915;-;-;-;-;-;-;-;-;-;-;-;-;-;-;-
1512469978479;-;-;8.381393;2.129837;-0.32731628;-;-;-;-;-;-;-;-;-;-;-;-;-;-;-
1512469978499;-;-;8.730942;1.9682312;-0.051986694;-;-;-;-;-;-;-;-;-;-;-;-;-;-;-
1512469978520;-;-;8.638763;1.9742126;0.0054779053;-;-;-;-;-;-;-;-;-;-;-;-;-;-;-
1512469978541;-;-;8.951218;1.9311218;-0.071136475;-;-;-;-;-;-;-;-;-;-;-;-;-;-;-
1512469978561;-;-;8.967972;1.8413391;-0.13220215;-;-;-;-;-;-;-;-;-;-;-;-;-;-;-
1512469978582;-;-;8.64595;1.703659;0.058151245;-;-;-;-;-;-;-;-;-;-;-;-;-;-;-
1512469978602;-;-;8.813553;1.8497162;-0.6182251;-;-;-;-;-;-;-;-;-;-;-;-;-;-;-
1512469978623;-;-;8.501099;1.9179535;-0.49371338;-;-;-;-;-;-;-;-;-;-;-;-;-;-;-
1512469978653;-;-;8.521454;2.0460358;-0.06515503;-;-;-;-;-;-;-;-;-;-;-;-;-;-;-
1512469978664;-;-;8.590881;2.3333435;-1.1616974;-;-;-;-;-;-;-;-;-;-;-;-;-;-;-
1512469978684;-;-;8.833893;2.4039764;-0.35246277;-;-;-;-;-;-;-;-;-;-;-;-;-;-;-
1512469978705;-;-;9.330688;2.1705322;-0.7343445;-;-;-;-;-;-;-;-;-;-;-;-;-;-;-
1512469978725;-;-;9.676651;1.6916962;-1.9194641;-;-;-;-;-;-;-;-;-;-;-;-;-;-;-
1512469978746;-;-;9.31633;1.8640747;0.27243042;-;-;-;-;-;-;-;-;-;-;-;-;-;-;-
1512469978765;-;-;7.7217865;1.5648041;0.39572144;-;-;-;-;-;-;-;-;-;-;-;-;-;-;-
1512469978785;-;-;8.722565;1.3158112;-0.01008606;-;-;-;-;-;-;-;-;-;-;-;-;-;-;-
1512469978806;-;-;9.473145;1.4115753;-1.4035187;-;-;-;-;-;-;-;-;-;-;-;-;-;-;-
1512469978827;-;-;10.34584;1.4367065;-1.4250641;-;-;-;-;-;-;-;-;-;-;-;-;-;-;-
1512469978847;-;-;10.446396;1.1757507;-1.7039948;-;-;-;-;-;-;-;-;-;-;-;-;-;-;-
1512469978868;-;-;9.973541;1.164978;-1.5375977;-;-;-;-;-;-;-;-;-;-;-;-;-;-;-
1512469978888;-;-;8.521454;1.2930603;-0.5607605;-;-;-;-;-;-;-;-;-;-;-;-;-;-;-
1512469978908;-;-;7.845093;1.3445435;-0.37521362;-;-;-;-;-;-;-;-;-;-;-;-;-;-;-
1512469978929;-;-;7.9312897;0.9854126;-0.41111755;-;-;-;-;-;-;-;-;-;-;-;-;-;-;-
1512469978950;-;-;8.406525;0.9566803;-0.50808716;-;-;-;-;-;-;-;-;-;-;-;-;-;-;-
1512469978969;-;-;9.169083;1.1374359;-0.60266113;-;-;-;-;-;-;-;-;-;-;-;-;-;-;-
1512469978990;-;-;9.254074;1.3888245;-0.88757324;-;-;-;-;-;-;-;-;-;-;-;-;-;-;-
1512469979011;-;-;9.036209;1.2308044;-0.89234924;-;-;-;-;-;-;-;-;-;-;-;-;-;-;-
1512469979031;-;-;8.558563;1.1529999;-0.8145447;-;-;-;-;-;-;-;-;-;-;-;-;-;-;-
1512469979052;-;-;10.828262;0.4407196;-2.5694885;-;-;-;-;-;-;-;-;-;-;-;-;-;-;-
1512469979072;-;-;8.589691;1.367279;-0.9641876;-;-;-;-;-;-;-;-;-;-;-;-;-;-;-
1512469979093;-;-;8.711792;1.6318359;-0.377594;-;-;-;-;-;-;-;-;-;-;-;-;-;-;-
1512469979113;-;-;9.274429;1.4055939;-0.31295776;-;-;-;-;-;-;-;-;-;-;-;-;-;-;-
1512469979134;-;-;9.080505;1.5995178;-1.006073;-;-;-;-;-;-;-;-;-;-;-;-;-;-;-
1512469979154;-;-;8.97995;2.0484314;-1.1341705;-;-;-;-;-;-;-;-;-;-;-;-;-;-;-
1512469979174;-;-;9.989105;1.9107666;-1.1114197;-;-;-;-;-;-;-;-;-;-;-;-;-;-;-
1512469979195;-;-;9.641937;0.8776703;-1.0623474;-;-;-;-;-;-;-;-;-;-;-;-;-;-;-
1512469979216;-;-;8.277252;0.23841858;-2.0667114;-;-;-;-;-;-;-;-;-;-;-;-;-;-;-
1512469979236;-;-;7.5637665;1.1925049;0.642334;-;-;-;-;-;-;-;-;-;-;-;-;-;-;-
1512469979257;-;-;8.58609;1.9215393;-0.927063;-;-;-;-;-;-;-;-;-;-;-;-;-;-;-
1512469979277;-;-;10.688202;1.6473999;-0.76426697;-;-;-;-;-;-;-;-;-;-;-;-;-;-;-
1512469979298;-;-;9.51265;1.3074188;-0.80496216;-;-;-;-;-;-;-;-;-;-;-;-;-;-;-
1512469979317;-;-;8.784821;1.0751953;-0.9761505;-;-;-;-;-;-;-;-;-;-;-;-;-;-;-
1512469979338;-;-;8.84108;1.0763855;-1.4262543;-;-;-;-;-;-;-;-;-;-;-;-;-;-;-
1512469979357;-;-;9.342667;1.0739899;-1.3556366;-;-;-;-;-;-;-;-;-;-;-;-;-;-;-
1512469979378;-;-;9.737701;0.43952942;-1.3101501;-;-;-;-;-;-;-;-;-;-;-;-;-;-;-
1512469979398;-;-;9.5737;0.2348175;-1.1317749;-;-;-;-;-;-;-;-;-;-;-;-;-;-;-
1512469979419;-;-;8.759674;1.2212372;-1.1904297;-;-;-;-;-;-;-;-;-;-;-;-;-;-;-
1512469979438;-;-;9.798767;0.9925842;-0.6266022;-;-;-;-;-;-;-;-;-;-;-;-;-;-;-
1512469979459;-;-;7.5434265;0.87646484;-0.62420654;-;-;-;-;-;-;-;-;-;-;-;-;-;-;-
1512469979479;-;-;8.450821;0.848938;-1.871582;-;-;-;-;-;-;-;-;-;-;-;-;-;-;-
1512469979499;-;-;10.112396;1.209259;-1.5603333;-;-;-;-;-;-;-;-;-;-;-;-;-;-;-
1512469979520;-;-;9.566528;1.4522705;-2.7035675;-;-;-;-;-;-;-;-;-;-;-;-;-;-;-
1512469979539;-;-;7.6547546;0.85372925;-1.416687;-;-;-;-;-;-;-;-;-;-;-;-;-;-;-
1512469979560;-;-;8.868607;1.0428619;-2.0044556;-;-;-;-;-;-;-;-;-;-;-;-;-;-;-
1512469979581;-;-;9.088882;1.5264893;-1.9086914;-;-;-;-;-;-;-;-;-;-;-;-;-;-;-
1512469979601;-;-;8.9787445;1.6342316;-2.5766754;-;-;-;-;-;-;-;-;-;-;-;-;-;-;-
1512469979621;-;-;7.3578644;2.9893494;-2.2534637;-;-;-;-;-;-;-;-;-;-;-;-;-;-;-
1512469979642;-;-;10.132751;2.0544128;-3.6815948;-;-;-;-;-;-;-;-;-;-;-;-;-;-;-
1512469979662;-;-;9.815521;1.8868256;-2.263031;-;-;-;-;-;-;-;-;-;-;-;-;-;-;-
1512469979683;-;-;9.318726;1.7491608;-1.7183533;-;-;-;-;-;-;-;-;-;-;-;-;-;-;-
1512469979704;-;-;9.268448;1.114685;-2.1217804;-;-;-;-;-;-;-;-;-;-;-;-;-;-;-
1512469979724;-;-;9.571304;0.7902832;-1.6884308;-;-;-;-;-;-;-;-;-;-;-;-;-;-;-
1512469979745;-;-;9.117615;1.1314545;-1.0431824;-;-;-;-;-;-;-;-;-;-;-;-;-;-;-
1512469979765;-;-;9.841858;1.2583466;0.55374146;-;-;-;-;-;-;-;-;-;-;-;-;-;-;-
1512469979785;-;-;10.5481415;0.7579498;-0.28303528;-;-;-;-;-;-;-;-;-;-;-;-;-;-;-
1512469979804;-;-;5.6101074;0.9602661;-3.2901459;-;-;-;-;-;-;-;-;-;-;-;-;-;-;-
1512469979825;-;-;9.69342;2.5643768;-1.0922699;-;-;-;-;-;-;-;-;-;-;-;-;-;-;-
1512469979845;-;-;8.417313;1.9227295;-1.6860352;-;-;-;-;-;-;-;-;-;-;-;-;-;-;-
1512469979866;-;-;8.774048;1.3373566;-0.01966858;-;-;-;-;-;-;-;-;-;-;-;-;-;-;-
1512469979887;-;-;8.673492;1.1518097;-1.3879547;-;-;-;-;-;-;-;-;-;-;-;-;-;-;-
1512469979906;-;-;9.325912;1.2667236;-1.2526855;-;-;-;-;-;-;-;-;-;-;-;-;-;-;-
1512469979927;-;-;9.070923;1.3110199;-1.2048035;-;-;-;-;-;-;-;-;-;-;-;-;-;-;-
1512469979947;-;-;8.995499;1.5025482;-1.3029633;-;-;-;-;-;-;-;-;-;-;-;-;-;-;-
1512469979967;-;-;8.924881;1.5600128;-1.298172;-;-;-;-;-;-;-;-;-;-;-;-;-;-;-
1512469979988;-;-;8.772842;1.6821136;-1.3688049;-;-;-;-;-;-;-;-;-;-;-;-;-;-;-
1512469980008;-;-;8.872208;1.829361;-1.1748657;-;-;-;-;-;-;-;-;-;-;-;-;-;-;-
1512469980029;-;-;8.911713;1.956253;-1.148529;-;-;-;-;-;-;-;-;-;-;-;-;-;-;-
1512469980048;-;-;8.878189;2.0556183;-1.3831635;-;-;-;-;-;-;-;-;-;-;-;-;-;-;-
1512469980068;-;-;8.747711;1.9909668;-1.4729462;-;-;-;-;-;-;-;-;-;-;-;-;-;-;-
1512469980089;-;-;8.825516;1.9921722;-1.5028687;-;-;-;-;-;-;-;-;-;-;-;-;-;-;-
1512469980108;-;-;8.918884;2.074768;-1.5483704;-;-;-;-;-;-;-;-;-;-;-;-;-;-;-
1512469980129;-;-;8.926071;2.3165894;-1.5232239;-;-;-;-;-;-;-;-;-;-;-;-;-;-;-
1512469980148;-;-;8.774048;2.4231262;-1.5699158;-;-;-;-;-;-;-;-;-;-;-;-;-;-;-
1512469980168;-;-;8.6651;2.2651062;-1.6034393;-;-;-;-;-;-;-;-;-;-;-;-;-;-;-
1512469980189;-;-;8.745316;2.12146;-1.6285706;-;-;-;-;-;-;-;-;-;-;-;-;-;-;-
1512469980209;-;-;8.818329;2.1477966;-1.5854797;-;-;-;-;-;-;-;-;-;-;-;-;-;-;-
1512469980230;-;-;8.985931;2.2040558;-1.7003937;-;-;-;-;-;-;-;-;-;-;-;-;-;-;-
1512469980251;-;-;8.756088;2.2962341;-1.8608093;-;-;-;-;-;-;-;-;-;-;-;-;-;-;-
1512469980271;-;-;8.691437;2.3536987;-1.7015991;-;-;-;-;-;-;-;-;-;-;-;-;-;-;-
1512469980292;-;-;8.5238495;2.4374847;-1.5914612;-;-;-;-;-;-;-;-;-;-;-;-;-;-;-
1512469980312;-;-;8.622009;2.4279175;-1.6118164;-;-;-;-;-;-;-;-;-;-;-;-;-;-;-
1512469980332;-;-;8.714188;2.332138;-1.693222;-;-;-;-;-;-;-;-;-;-;-;-;-;-;-
1512469980353;-;-;8.684265;2.3812256;-1.7195587;-;-;-;-;-;-;-;-;-;-;-;-;-;-;-
1512469980373;-;-;8.648346;2.4458618;-1.6608887;-;-;-;-;-;-;-;-;-;-;-;-;-;-;-
1512469980394;-;-;8.599258;2.5356445;-1.6800537;-;-;-;-;-;-;-;-;-;-;-;-;-;-;-
1512469980414;-;-;8.537018;2.5990906;-1.6213837;-;-;-;-;-;-;-;-;-;-;-;-;-;-;-
1512469980435;-;-;8.534622;2.490158;-1.5579376;-;-;-;-;-;-;-;-;-;-;-;-;-;-;-
1512469980455;-;-;8.52504;2.512909;-1.5579376;-;-;-;-;-;-;-;-;-;-;-;-;-;-;-
1512469980475;-;-;8.537018;2.4949493;-1.610611;-;-;-;-;-;-;-;-;-;-;-;-;-;-;-
1512469980496;-;-;8.641159;2.5667725;-1.6225891;-;-;-;-;-;-;-;-;-;-;-;-;-;-;-
1512469980517;-;-;8.745316;2.6661377;-1.737503;-;-;-;-;-;-;-;-;-;-;-;-;-;-;-
1512469980537;-;-;8.826721;2.6984558;-1.7003937;-;-;-;-;-;-;-;-;-;-;-;-;-;-;-
1512469980558;-;-;8.835098;2.7762756;-1.7734222;-;-;-;-;-;-;-;-;-;-;-;-;-;-;-
1512469980578;-;-;8.769257;2.9115448;-1.8679962;-;-;-;-;-;-;-;-;-;-;-;-;-;-;-
1512469980599;-;-;8.655533;2.936676;-1.729126;-;-;-;-;-;-;-;-;-;-;-;-;-;-;-
1512469980620;-;-;8.60405;2.936676;-1.6154022;-;-;-;-;-;-;-;-;-;-;-;-;-;-;-
1512469980640;-;-;8.522644;2.6589508;-1.4059143;-;-;-;-;-;-;-;-;-;-;-;-;-;-;-
1512469980660;-;-;8.862625;2.177719;-0.8684082;-;-;-;-;-;-;-;-;-;-;-;-;-;-;-
1512469980681;-;-;8.780029;2.1705322;-1.1533203;-;-;-;-;-;-;-;-;-;-;-;-;-;-;-
1512469980701;-;-;8.572922;1.9969635;-0.966568;-;-;-;-;-;-;-;-;-;-;-;-;-;-;-
1512469980722;-;-;8.085709;1.9682312;-1.0180511;-;-;-;-;-;-;-;-;-;-;-;-;-;-;-
1512469980743;-;-;7.968399;2.002945;-1.480133;-;-;-;-;-;-;-;-;-;-;-;-;-;-;-
1512469980763;-;-;8.143173;1.6533813;-1.9182739;-;-;-;-;-;-;-;-;-;-;-;-;-;-;-
1512469980784;-;-;8.413712;0.77830505;-1.3304901;-;-;-;-;-;-;-;-;-;-;-;-;-;-;-
1512469980803;-;-;8.969162;0.19770813;-1.4837189;-;-;-;-;-;-;-;-;-;-;-;-;-;-;-
1512469980824;-;-;9.725739;0.26235962;-2.282196;-;-;-;-;-;-;-;-;-;-;-;-;-;-;-
1512469980843;-;-;10.434418;0.64183044;-2.2558594;-;-;-;-;-;-;-;-;-;-;-;-;-;-;-
1512469980864;-;-;10.2512665;1.0596313;-2.5646973;-;-;-;-;-;-;-;-;-;-;-;-;-;-;-
1512469980884;-;-;10.004654;1.2930603;-2.247467;-;-;-;-;-;-;-;-;-;-;-;-;-;-;-
1512469980905;-;-;9.194229;1.3912201;-1.7662354;-;-;-;-;-;-;-;-;-;-;-;-;-;-;-
1512469980925;-;-;9.015854;1.1637726;-1.6166077;-;-;-;-;-;-;-;-;-;-;-;-;-;-;-
1512469980945;-;-;8.8997345;1.0201263;-2.0092468;-;-;-;-;-;-;-;-;-;-;-;-;-;-;-
1512469980966;-;-;8.284424;0.8896332;-1.9781189;-;-;-;-;-;-;-;-;-;-;-;-;-;-;-
1512469980986;-;-;7.8917847;0.596344;-1.6261749;-;-;-;-;-;-;-;-;-;-;-;-;-;-;-
1512469981007;-;-;7.963608;0.536499;-1.5280151;-;-;-;-;-;-;-;-;-;-;-;-;-;-;-
1512469981027;-;-;8.622009;0.6921234;-1.4849243;-;-;-;-;-;-;-;-;-;-;-;-;-;-;-
1512469981048;-;-;9.228943;0.91477966;-1.8679962;-;-;-;-;-;-;-;-;-;-;-;-;-;-;-
1512469981068;-;-;9.416885;1.0213165;-1.8859406;-;-;-;-;-;-;-;-;-;-;-;-;-;-;-
1512469981089;-;-;9.680252;1.114685;-1.6034393;-;-;-;-;-;-;-;-;-;-;-;-;-;-;-
1512469981109;-;-;9.63237;1.209259;-1.5687103;-;-;-;-;-;-;-;-;-;-;-;-;-;-;-
1512469981129;-;-;9.136765;1.130249;-1.6560974;-;-;-;-;-;-;-;-;-;-;-;-;-;-;-
1512469981150;-;-;8.483139;0.8632965;-1.3747864;-;-;-;-;-;-;-;-;-;-;-;-;-;-;-
1512469981172;-;-;8.077332;0.9351349;-1.2048035;-;-;-;-;-;-;-;-;-;-;-;-;-;-;-
1512469981191;-;-;8.007904;1.0751953;-1.1724701;-;-;-;-;-;-;-;-;-;-;-;-;-;-;-
1512469981211;-;-;8.491531;0.85731506;-1.0108643;-;-;-;-;-;-;-;-;-;-;-;-;-;-;-
1512469981231;-;-;9.169083;0.5185394;-0.79299927;-;-;-;-;-;-;-;-;-;-;-;-;-;-;-
1512469981251;-;-;9.6622925;0.40960693;-0.8073578;-;-;-;-;-;-;-;-;-;-;-;-;-;-;-
1512469981272;-;-;10.112396;0.3796692;6.866455E-4;-;-;-;-;-;-;-;-;-;-;-;-;-;-;-
1512469981293;-;-;10.019028;0.100753784;0.34425354;-;-;-;-;-;-;-;-;-;-;-;-;-;-;-
1512469981312;-;-;10.064514;-0.3481598;0.39213562;-;-;-;-;-;-;-;-;-;-;-;-;-;-;-
1512469981333;-;-;10.130356;-0.6354675;0.32987976;-;-;-;-;-;-;-;-;-;-;-;-;-;-;-
1512469981353;-;-;10.721725;-0.82580566;1.0864563;-;-;-;-;-;-;-;-;-;-;-;-;-;-;-
1512469981374;-;-;10.185425;-0.7024994;0.13595581;-;-;-;-;-;-;-;-;-;-;-;-;-;-;-
1512469981394;-;-;10.186615;0.18574524;-2.852005;-;-;-;-;-;-;-;-;-;-;-;-;-;-;-
1512469981415;-;-;11.746445;0.4658661;-4.785324;-;-;-;-;-;-;-;-;-;-;-;-;-;-;-
1512469981436;-;-;12.565262;1.2068634;-5.1791687;-;-;-;-;-;-;-;-;-;-;-;-;-;-;-
1512469981456;-;-;10.288376;2.9235077;-5.1229095;-;-;-;-;-;-;-;-;-;-;-;-;-;-;-
1512469981477;-;-;7.039444;3.7530975;-5.1863556;-;-;-;-;-;-;-;-;-;-;-;-;-;-;-
1512469981497;-;-;5.339554;3.228775;-3.9916534;-;-;-;-;-;-;-;-;-;-;-;-;-;-;-
1512469981518;-;-;5.3934326;2.2710876;-3.1213531;-;-;-;-;-;-;-;-;-;-;-;-;-;-;-
1512469981538;-;-;6.37027;1.3816528;-2.6712494;-;-;-;-;-;-;-;-;-;-;-;-;-;-;-
1512469981559;-;-;8.243729;0.96266174;-2.1098022;-;-;-;-;-;-;-;-;-;-;-;-;-;-;-
1512469981579;-;-;10.30394;0.7531738;-1.9075012;-;-;-;-;-;-;-;-;-;-;-;-;-;-;-
1512469981600;-;-;11.393295;0.7400055;-2.1959991;-;-;-;-;-;-;-;-;-;-;-;-;-;-;-
1512469981621;-;-;10.726517;0.7866821;-2.349228;-;-;-;-;-;-;-;-;-;-;-;-;-;-;-
1512469981640;-;-;8.758484;1.090744;-1.6560974;-;-;-;-;-;-;-;-;-;-;-;-;-;-;-
1512469981660;-;-;7.154358;1.169754;-1.2383118;-;-;-;-;-;-;-;-;-;-;-;-;-;-;-
1512469981681;-;-;6.044647;1.5420532;-1.2502899;-;-;-;-;-;-;-;-;-;-;-;-;-;-;-
1512469981701;-;-;6.078171;1.9790039;-1.5974426;-;-;-;-;-;-;-;-;-;-;-;-;-;-;-
1512469981722;-;-;7.264496;2.4650269;-1.6560974;-;-;-;-;-;-;-;-;-;-;-;-;-;-;-
1512469981742;-;-;8.377808;2.8038025;-1.5363922;-;-;-;-;-;-;-;-;-;-;-;-;-;-;-
1512469981763;-;-;9.005081;3.019287;-1.3688049;-;-;-;-;-;-;-;-;-;-;-;-;-;-;-
1512469981783;-;-;9.066132;3.0647736;-1.0563507;-;-;-;-;-;-;-;-;-;-;-;-;-;-;-
1512469981804;-;-;8.447235;2.7762756;-0.55477905;-;-;-;-;-;-;-;-;-;-;-;-;-;-;-
1512469981824;-;-;7.8211517;2.268692;-0.025650024;-;-;-;-;-;-;-;-;-;-;-;-;-;-;-
1512469981845;-;-;7.945648;2.22081;0.07130432;-;-;-;-;-;-;-;-;-;-;-;-;-;-;-
1512469981864;-;-;8.291611;2.5177002;-0.21598816;-;-;-;-;-;-;-;-;-;-;-;-;-;-;-
1512469981885;-;-;8.879379;2.6326141;-0.46139526;-;-;-;-;-;-;-;-;-;-;-;-;-;-;-
1512469981904;-;-;9.281616;2.4219208;-0.76545715;-;-;-;-;-;-;-;-;-;-;-;-;-;-;-
1512469981925;-;-;10.095642;2.6972656;-0.72236633;-;-;-;-;-;-;-;-;-;-;-;-;-;-;-
1512469981945;-;-;10.417664;3.450241;-1.2239532;-;-;-;-;-;-;-;-;-;-;-;-;-;-;-
1512469981965;-;-;9.71376;4.2044067;-2.8735504;-;-;-;-;-;-;-;-;-;-;-;-;-;-;-
1512469981986;-;-;10.143524;5.454178;-4.2418365;-;-;-;-;-;-;-;-;-;-;-;-;-;-;-
1512469982006;-;-;11.256836;4.200821;-3.8192596;-;-;-;-;-;-;-;-;-;-;-;-;-;-;-
1512469982027;-;-;10.925232;2.236374;-3.0878448;-;-;-;-;-;-;-;-;-;-;-;-;-;-;-
1512469982047;-;-;9.9436035;1.1350403;-3.5714722;-;-;-;-;-;-;-;-;-;-;-;-;-;-;-
1512469982068;-;-;7.8247375;-0.3469696;-2.8567963;-;-;-;-;-;-;-;-;-;-;-;-;-;-;-
1512469982088;-;-;6.6695404;-0.76594543;-2.625763;-;-;-;-;-;-;-;-;-;-;-;-;-;-;-
1512469982109;-;-;6.0302887;0.4084015;-3.5762482;-;-;-;-;-;-;-;-;-;-;-;-;-;-;-
1512469982130;-;-;6.754532;2.6170502;-3.4864655;-;-;-;-;-;-;-;-;-;-;-;-;-;-;-
1512469982151;-;-;8.588486;3.5364227;-3.5140076;-;-;-;-;-;-;-;-;-;-;-;-;-;-;-
1512469982172;-;-;10.5720825;2.9929504;-3.9210205;-;-;-;-;-;-;-;-;-;-;-;-;-;-;-
1512469982192;-;-;10.900085;1.2858734;-3.5738678;-;-;-;-;-;-;-;-;-;-;-;-;-;-;-
1512469982213;-;-;9.486313;0.18334961;-3.041153;-;-;-;-;-;-;-;-;-;-;-;-;-;-;-
1512469982233;-;-;7.671509;-0.012969971;-2.5802612;-;-;-;-;-;-;-;-;-;-;-;-;-;-;-
1512469982254;-;-;6.2325897;0.4359436;-2.100235;-;-;-;-;-;-;-;-;-;-;-;-;-;-;-
1512469982273;-;-;5.9692383;0.8525238;-1.8679962;-;-;-;-;-;-;-;-;-;-;-;-;-;-;-
1512469982294;-;-;7.2393646;0.9650574;-2.005661;-;-;-;-;-;-;-;-;-;-;-;-;-;-;-
1512469982314;-;-;8.448425;0.6346588;-2.429428;-;-;-;-;-;-;-;-;-;-;-;-;-;-;-
1512469982335;-;-;9.103241;0.23242188;-2.1959991;-;-;-;-;-;-;-;-;-;-;-;-;-;-;-
1512469982355;-;-;9.426468;0.24559021;-1.7662354;-;-;-;-;-;-;-;-;-;-;-;-;-;-;-
1512469982376;-;-;9.378571;0.59155273;-1.5974426;-;-;-;-;-;-;-;-;-;-;-;-;-;-;-
1512469982396;-;-;8.859039;0.85372925;-1.4681549;-;-;-;-;-;-;-;-;-;-;-;-;-;-;-
1512469982417;-;-;8.185074;0.635849;-1.1808624;-;-;-;-;-;-;-;-;-;-;-;-;-;-;-
1512469982436;-;-;8.278442;0.37010193;-0.60624695;-;-;-;-;-;-;-;-;-;-;-;-;-;-;-
1512469982456;-;-;8.718979;0.33537292;-0.64933777;-;-;-;-;-;-;-;-;-;-;-;-;-;-;-
1512469982477;-;-;10.171051;0.27911377;-0.4673767;-;-;-;-;-;-;-;-;-;-;-;-;-;-;-
1512469982497;-;-;11.289154;-0.026138306;-0.788208;-;-;-;-;-;-;-;-;-;-;-;-;-;-;-
1512469982518;-;-;11.309494;-0.7623596;-1.1509247;-;-;-;-;-;-;-;-;-;-;-;-;-;-;-
1512469982538;-;-;10.148315;-1.2388;-0.8959503;-;-;-;-;-;-;-;-;-;-;-;-;-;-;-
1512469982559;-;-;9.024231;-0.5504761;-1.0443878;-;-;-;-;-;-;-;-;-;-;-;-;-;-;-
1512469982579;-;-;8.485535;0.27313232;-3.5307617;-;-;-;-;-;-;-;-;-;-;-;-;-;-;-
1512469982600;-;-;11.801514;0.38327026;-3.5451355;-;-;-;-;-;-;-;-;-;-;-;-;-;-;-
1512469982620;-;-;14.80983;-0.083602905;-6.449295;-;-;-;-;-;-;-;-;-;-;-;-;-;-;-
1512469982641;-;-;11.660248;3.6369781;-6.2098694;-;-;-;-;-;-;-;-;-;-;-;-;-;-;-
1512469982662;-;-;7.319565;5.447006;-6.3511353;-;-;-;-;-;-;-;-;-;-;-;-;-;-;-
1512469982681;-;-;4.648834;5.3608093;-2.4354248;-;-;-;-;-;-;-;-;-;-;-;-;-;-;-
1512469982701;-;-;4.126892;3.2024384;-1.5088654;-;-;-;-;-;-;-;-;-;-;-;-;-;-;-
1512469982722;-;-;8.255692;-0.2859192;-1.9494019;-;-;-;-;-;-;-;-;-;-;-;-;-;-;-
1512469982742;-;-;11.539337;-1.4051971;-3.111786;-;-;-;-;-;-;-;-;-;-;-;-;-;-;-
1512469982763;-;-;11.858963;0.038497925;-3.025589;-;-;-;-;-;-;-;-;-;-;-;-;-;-;-
1512469982783;-;-;10.139938;2.0675812;-3.1093903;-;-;-;-;-;-;-;-;-;-;-;-;-;-;-
1512469982804;-;-;8.958389;3.0432281;-2.3851318;-;-;-;-;-;-;-;-;-;-;-;-;-;-;-
1512469982825;-;-;7.645172;3.220398;-1.8201141;-;-;-;-;-;-;-;-;-;-;-;-;-;-;-
1512469982845;-;-;6.5079346;2.7774658;-1.4442139;-;-;-;-;-;-;-;-;-;-;-;-;-;-;-
1512469982865;-;-;5.959656;1.9766083;-0.82173157;-;-;-;-;-;-;-;-;-;-;-;-;-;-;-
1512469982886;-;-;7.0334625;2.126236;-0.75109863;-;-;-;-;-;-;-;-;-;-;-;-;-;-;-
1512469982905;-;-;8.284424;2.6601563;-1.4980927;-;-;-;-;-;-;-;-;-;-;-;-;-;-;-
1512469982926;-;-;9.764038;2.4530487;-1.6872253;-;-;-;-;-;-;-;-;-;-;-;-;-;-;-
1512469982946;-;-;9.3941345;1.8126068;-1.4825287;-;-;-;-;-;-;-;-;-;-;-;-;-;-;-
1512469982967;-;-;8.116837;2.0220947;-0.61701965;-;-;-;-;-;-;-;-;-;-;-;-;-;-;-
1512469982988;-;-;7.1447906;2.6613464;-0.64933777;-;-;-;-;-;-;-;-;-;-;-;-;-;-;-
1512469983007;-;-;6.814392;3.343689;-1.3436584;-;-;-;-;-;-;-;-;-;-;-;-;-;-;-
1512469983028;-;-;7.0214844;4.150543;-1.5304108;-;-;-;-;-;-;-;-;-;-;-;-;-;-;-
1512469983048;-;-;7.7265778;4.327713;-1.2299347;-;-;-;-;-;-;-;-;-;-;-;-;-;-;-
1512469983069;-;-;8.687851;3.9183044;-0.7750397;-;-;-;-;-;-;-;-;-;-;-;-;-;-;-
1512469983089;-;-;9.778412;3.3891907;-0.18725586;-;-;-;-;-;-;-;-;-;-;-;-;-;-;-
1512469983110;-;-;10.172256;3.386795;0.36698914;-;-;-;-;-;-;-;-;-;-;-;-;-;-;-
1512469983130;-;-;10.52301;3.414322;0.09526062;-;-;-;-;-;-;-;-;-;-;-;-;-;-;-
1512469983151;-;-;11.3909;2.8109894;-0.8384857;-;-;-;-;-;-;-;-;-;-;-;-;-;-;-
1512469983172;-;-;11.01741;2.7212067;-2.9178467;-;-;-;-;-;-;-;-;-;-;-;-;-;-;-
1512469983192;-;-;12.3785095;4.6904297;-4.19635;-;-;-;-;-;-;-;-;-;-;-;-;-;-;-
1512469983213;-;-;15.54126;5.6469116;-5.0474854;-;-;-;-;-;-;-;-;-;-;-;-;-;-;-
1512469983233;-;-;14.466263;2.725998;-6.6994934;-;-;-;-;-;-;-;-;-;-;-;-;-;-;-
1512469983254;-;-;8.97995;2.3177795;-5.808853;-;-;-;-;-;-;-;-;-;-;-;-;-;-;-
1512469983274;-;-;4.827194;2.0675812;-4.129318;-;-;-;-;-;-;-;-;-;-;-;-;-;-;-
1512469983294;-;-;4.8164215;1.5133209;-3.5367432;-;-;-;-;-;-;-;-;-;-;-;-;-;-;-
1512469983315;-;-;6.1248627;1.6258545;-4.4237976;-;-;-;-;-;-;-;-;-;-;-;-;-;-;-
1512469983335;-;-;8.994308;1.7707062;-5.239029;-;-;-;-;-;-;-;-;-;-;-;-;-;-;-
1512469983356;-;-;10.019028;1.5576172;-5.5179596;-;-;-;-;-;-;-;-;-;-;-;-;-;-;-
1512469983377;-;-;9.821503;0.9243469;-5.0187683;-;-;-;-;-;-;-;-;-;-;-;-;-;-;-
1512469983397;-;-;8.420898;0.39404297;-3.8420105;-;-;-;-;-;-;-;-;-;-;-;-;-;-;-
1512469983417;-;-;7.4404755;0.115112305;-3.3739471;-;-;-;-;-;-;-;-;-;-;-;-;-;-;-
1512469983438;-;-;6.9556427;-0.00579834;-2.840042;-;-;-;-;-;-;-;-;-;-;-;-;-;-;-
1512469983458;-;-;6.825165;-0.5217438;-2.6712494;-;-;-;-;-;-;-;-;-;-;-;-;-;-;-
1512469983479;-;-;6.901779;-0.9658661;-2.6568756;-;-;-;-;-;-;-;-;-;-;-;-;-;-;-
1512469983500;-;-;6.6851044;-0.8497467;-2.4198608;-;-;-;-;-;-;-;-;-;-;-;-;-;-;-
1512469983520;-;-;6.770096;-0.53970337;-1.8512268;-;-;-;-;-;-;-;-;-;-;-;-;-;-;-
1512469983541;-;-;7.090912;0.019348145;-2.021225;-;-;-;-;-;-;-;-;-;-;-;-;-;-;-
1512469983560;-;-;7.7409363;0.53170776;-2.4545746;-;-;-;-;-;-;-;-;-;-;-;-;-;-;-
1512469983581;-;-;8.180283;0.6741638;-2.7598267;-;-;-;-;-;-;-;-;-;-;-;-;-;-;-
1512469983600;-;-;7.59729;0.81062317;-2.6042023;-;-;-;-;-;-;-;-;-;-;-;-;-;-;-
1512469983621;-;-;7.2836456;0.38446045;-2.1469116;-;-;-;-;-;-;-;-;-;-;-;-;-;-;-
1512469983641;-;-;7.217804;-0.40682983;-2.045166;-;-;-;-;-;-;-;-;-;-;-;-;-;-;-
1512469983662;-;-;7.082535;-0.680954;-2.5132294;-;-;-;-;-;-;-;-;-;-;-;-;-;-;-
1512469983682;-;-;7.5434265;-0.81144714;-2.1217804;-;-;-;-;-;-;-;-;-;-;-;-;-;-;-
1512469983703;-;-;8.970367;-0.76834106;-2.163681;-;-;-;-;-;-;-;-;-;-;-;-;-;-;-
1512469983724;-;-;9.422867;-0.42477417;-2.3588104;-;-;-;-;-;-;-;-;-;-;-;-;-;-;-
1512469983743;-;-;10.317108;-0.54808044;-1.8524323;-;-;-;-;-;-;-;-;-;-;-;-;-;-;-
1512469983764;-;-;10.93721;-0.3649292;-1.6848297;-;-;-;-;-;-;-;-;-;-;-;-;-;-;-
1512469983784;-;-;11.514206;-0.2679596;-1.5184326;-;-;-;-;-;-;-;-;-;-;-;-;-;-;-
1512469983805;-;-;12.377319;0.107925415;-2.2857819;-;-;-;-;-;-;-;-;-;-;-;-;-;-;-
1512469983825;-;-;12.847778;-0.24162292;-2.7143402;-;-;-;-;-;-;-;-;-;-;-;-;-;-;-
1512469983845;-;-;12.75679;-1.9211578;-5.6496277;-;-;-;-;-;-;-;-;-;-;-;-;-;-;-
1512469983865;-;-;15.316193;-2.1162872;-5.3635254;-;-;-;-;-;-;-;-;-;-;-;-;-;-;-
1512469983886;-;-;14.307037;0.33537292;-6.7952576;-;-;-;-;-;-;-;-;-;-;-;-;-;-;-
1512469983907;-;-;12.093597;0.5855713;-6.6085052;-;-;-;-;-;-;-;-;-;-;-;-;-;-;-
1512469983926;-;-;7.26091;1.1996918;-5.9333496;-;-;-;-;-;-;-;-;-;-;-;-;-;-;-
1512469983947;-;-;3.7246704;1.4630432;-3.8372192;-;-;-;-;-;-;-;-;-;-;-;-;-;-;-
1512469983966;-;-;3.7258606;0.7795105;-2.9178467;-;-;-;-;-;-;-;-;-;-;-;-;-;-;-
1512469983987;-;-;5.3467407;-0.41400146;-4.0634766;-;-;-;-;-;-;-;-;-;-;-;-;-;-;-
1512469984007;-;-;8.958389;-0.8497467;-3.3739471;-;-;-;-;-;-;-;-;-;-;-;-;-;-;-
1512469984028;-;-;10.142334;-0.43315125;-3.669632;-;-;-;-;-;-;-;-;-;-;-;-;-;-;-
1512469984047;-;-;10.354218;-0.09197998;-4.3244476;-;-;-;-;-;-;-;-;-;-;-;-;-;-;-
1512469984067;-;-;8.74292;0.25875854;-4.290924;-;-;-;-;-;-;-;-;-;-;-;-;-;-;-
1512469984088;-;-;6.8203735;0.576004;-3.2566223;-;-;-;-;-;-;-;-;-;-;-;-;-;-;-
1512469984108;-;-;4.7493896;1.0811768;-2.1349487;-;-;-;-;-;-;-;-;-;-;-;-;-;-;-
1512469984128;-;-;3.3020935;1.6976776;-1.8201141;-;-;-;-;-;-;-;-;-;-;-;-;-;-;-
1512469984149;-;-;3.5247498;2.165741;-1.7482758;-;-;-;-;-;-;-;-;-;-;-;-;-;-;-
1512469984169;-;-;4.9696503;1.9011841;-1.9853058;-;-;-;-;-;-;-;-;-;-;-;-;-;-;-
1512469984190;-;-;6.4444885;1.4211578;-2.4641418;-;-;-;-;-;-;-;-;-;-;-;-;-;-;-
1512469984209;-;-;7.8558655;1.5300903;-2.9657288;-;-;-;-;-;-;-;-;-;-;-;-;-;-;-
1512469984229;-;-;8.449631;2.1753235;-2.9058838;-;-;-;-;-;-;-;-;-;-;-;-;-;-;-
1512469984250;-;-;8.381393;2.739151;-2.5611115;-;-;-;-;-;-;-;-;-;-;-;-;-;-;-
1512469984270;-;-;8.193451;2.7810516;-2.184021;-;-;-;-;-;-;-;-;-;-;-;-;-;-;-
1512469984291;-;-;8.181473;2.6625366;-2.2522583;-;-;-;-;-;-;-;-;-;-;-;-;-;-;-
1512469984311;-;-;8.138382;2.9115448;-2.2965546;-;-;-;-;-;-;-;-;-;-;-;-;-;-;-
1512469984332;-;-;8.229355;3.1030731;-2.2761993;-;-;-;-;-;-;-;-;-;-;-;-;-;-;-
1512469984352;-;-;8.952408;3.2395477;-1.9374237;-;-;-;-;-;-;-;-;-;-;-;-;-;-;-
1512469984372;-;-;9.675461;3.6094513;-1.8883362;-;-;-;-;-;-;-;-;-;-;-;-;-;-;-
1512469984393;-;-;10.232117;3.8225403;-1.9853058;-;-;-;-;-;-;-;-;-;-;-;-;-;-;-
1512469984413;-;-;10.756439;3.355667;-2.7035675;-;-;-;-;-;-;-;-;-;-;-;-;-;-;-
1512469984434;-;-;11.902069;2.8002167;-3.6408997;-;-;-;-;-;-;-;-;-;-;-;-;-;-;-
1512469984455;-;-;12.236053;2.8085938;-5.681961;-;-;-;-;-;-;-;-;-;-;-;-;-;-;-
1512469984475;-;-;14.442322;3.3855896;-7.0717926;-;-;-;-;-;-;-;-;-;-;-;-;-;-;-
1512469984495;-;-;11.612366;2.2303925;-5.9931946;-;-;-;-;-;-;-;-;-;-;-;-;-;-;-
1512469984516;-;-;9.118805;0.21447754;-5.306061;-;-;-;-;-;-;-;-;-;-;-;-;-;-;-
1512469984537;-;-;5.7405853;-0.39964294;-5.5814056;-;-;-;-;-;-;-;-;-;-;-;-;-;-;-
1512469984557;-;-;4.1244965;0.14503479;-4.523163;-;-;-;-;-;-;-;-;-;-;-;-;-;-;-
1512469984578;-;-;4.252594;1.6904907;-4.705124;-;-;-;-;-;-;-;-;-;-;-;-;-;-;-
1512469984598;-;-;5.9752197;3.2347565;-5.314438;-;-;-;-;-;-;-;-;-;-;-;-;-;-;-
1512469984619;-;-;7.4656067;3.1689148;-5.1851654;-;-;-;-;-;-;-;-;-;-;-;-;-;-;-
1512469984639;-;-;8.376602;1.7659149;-4.730255;-;-;-;-;-;-;-;-;-;-;-;-;-;-;-
1512469984660;-;-;8.295197;-0.06564331;-4.268173;-;-;-;-;-;-;-;-;-;-;-;-;-;-;-
1512469984680;-;-;7.7577057;-1.3680878;-3.3907013;-;-;-;-;-;-;-;-;-;-;-;-;-;-;-
1512469984701;-;-;7.7098236;-1.8026428;-2.9992523;-;-;-;-;-;-;-;-;-;-;-;-;-;-;-
1512469984721;-;-;7.669113;-1.2914734;-3.377533;-;-;-;-;-;-;-;-;-;-;-;-;-;-;-
1512469984741;-;-;7.1172485;-0.44273376;-3.598999;-;-;-;-;-;-;-;-;-;-;-;-;-;-;-
1512469984761;-;-;7.1627502;0.59994507;-3.259018;-;-;-;-;-;-;-;-;-;-;-;-;-;-;-
1512469984782;-;-;7.5913086;0.9961853;-3.3607788;-;-;-;-;-;-;-;-;-;-;-;-;-;-;-
1512469984802;-;-;8.067749;1.1565857;-3.7378693;-;-;-;-;-;-;-;-;-;-;-;-;-;-;-
1512469984823;-;-;8.229355;1.006958;-3.433792;-;-;-;-;-;-;-;-;-;-;-;-;-;-;-
1512469984843;-;-;7.3782196;0.44192505;-2.994461;-;-;-;-;-;-;-;-;-;-;-;-;-;-;-
1512469984863;-;-;6.798828;-0.5277252;-2.4725342;-;-;-;-;-;-;-;-;-;-;-;-;-;-;-
1512469984883;-;-;6.901779;-1.1035309;-1.926651;-;-;-;-;-;-;-;-;-;-;-;-;-;-;-
1512469984904;-;-;7.7972107;-1.1777496;-1.8344727;-;-;-;-;-;-;-;-;-;-;-;-;-;-;-
1512469984924;-;-;8.98233;-1.0448761;-2.0487518;-;-;-;-;-;-;-;-;-;-;-;-;-;-;-
1512469984944;-;-;10.131561;-0.56604004;-2.3133087;-;-;-;-;-;-;-;-;-;-;-;-;-;-;-
1512469984965;-;-;10.721725;-0.05368042;-2.3276825;-;-;-;-;-;-;-;-;-;-;-;-;-;-;-
1512469984985;-;-;11.169434;0.1510315;-2.4270325;-;-;-;-;-;-;-;-;-;-;-;-;-;-;-
1512469985006;-;-;12.604767;-0.012969971;-2.5958252;-;-;-;-;-;-;-;-;-;-;-;-;-;-;-
1512469985026;-;-;11.164658;-0.33738708;-2.9561615;-;-;-;-;-;-;-;-;-;-;-;-;-;-;-
1512469985047;-;-;10.465546;-2.8848267;-5.034317;-;-;-;-;-;-;-;-;-;-;-;-;-;-;-
1512469985066;-;-;10.633133;-2.6801147;-7.7876587;-;-;-;-;-;-;-;-;-;-;-;-;-;-;-
1512469985087;-;-;12.841797;-0.29190063;-6.0865784;-;-;-;-;-;-;-;-;-;-;-;-;-;-;-
1512469985106;-;-;14.401611;1.3696747;-5.0917816;-;-;-;-;-;-;-;-;-;-;-;-;-;-;-
1512469985127;-;-;9.1128235;1.8676758;-7.2585297;-;-;-;-;-;-;-;-;-;-;-;-;-;-;-
1512469985147;-;-;4.817627;1.6497955;-6.96286;-;-;-;-;-;-;-;-;-;-;-;-;-;-;-
1512469985168;-;-;5.114502;0.30545044;-5.0845947;-;-;-;-;-;-;-;-;-;-;-;-;-;-;-
1512469985187;-;-;6.5510254;-0.47625732;-4.4273987;-;-;-;-;-;-;-;-;-;-;-;-;-;-;-
1512469985207;-;-;9.570114;-0.7587738;-3.8348236;-;-;-;-;-;-;-;-;-;-;-;-;-;-;-
1512469985228;-;-;10.752853;-0.14225769;-3.2997284;-;-;-;-;-;-;-;-;-;-;-;-;-;-;-
1512469985248;-;-;9.357025;-0.062057495;-3.5487213;-;-;-;-;-;-;-;-;-;-;-;-;-;-;-
1512469985268;-;-;8.036621;-0.4451294;-2.8711548;-;-;-;-;-;-;-;-;-;-;-;-;-;-;-
1512469985289;-;-;6.0973206;-0.4451294;-2.5730896;-;-;-;-;-;-;-;-;-;-;-;-;-;-;-
1512469985309;-;-;4.453705;0.33657837;-2.7478638;-;-;-;-;-;-;-;-;-;-;-;-;-;-;-
1512469985330;-;-;3.5714417;1.8185883;-2.867569;-;-;-;-;-;-;-;-;-;-;-;-;-;-;-
1512469985351;-;-;3.924591;2.2279968;-2.7634277;-;-;-;-;-;-;-;-;-;-;-;-;-;-;-
1512469985371;-;-;4.7577667;2.2387695;-2.5060425;-;-;-;-;-;-;-;-;-;-;-;-;-;-;-
1512469985392;-;-;5.95607;2.1561737;-2.6520996;-;-;-;-;-;-;-;-;-;-;-;-;-;-;-
1512469985411;-;-;7.5122986;2.308197;-3.3943024;-;-;-;-;-;-;-;-;-;-;-;-;-;-;-
1512469985432;-;-;8.516663;2.5643768;-3.6169586;-;-;-;-;-;-;-;-;-;-;-;-;-;-;-
1512469985452;-;-;9.201401;2.600296;-3.0758667;-;-;-;-;-;-;-;-;-;-;-;-;-;-;-
1512469985473;-;-;9.622787;2.5248718;-2.6197662;-;-;-;-;-;-;-;-;-;-;-;-;-;-;-
1512469985493;-;-;10.00705;2.6721191;-2.500061;-;-;-;-;-;-;-;-;-;-;-;-;-;-;-
1512469985513;-;-;9.656311;2.45784;-2.6951904;-;-;-;-;-;-;-;-;-;-;-;-;-;-;-
1512469985534;-;-;9.549759;2.3991852;-2.3791504;-;-;-;-;-;-;-;-;-;-;-;-;-;-;-
1512469985553;-;-;10.311127;2.7678833;-2.507248;-;-;-;-;-;-;-;-;-;-;-;-;-;-;-
1512469985574;-;-;11.127548;3.3843994;-2.3875275;-;-;-;-;-;-;-;-;-;-;-;-;-;-;-
1512469985595;-;-;11.425613;3.6549377;-1.3975372;-;-;-;-;-;-;-;-;-;-;-;-;-;-;-
1512469985615;-;-;10.6271515;3.1246185;-3.2817688;-;-;-;-;-;-;-;-;-;-;-;-;-;-;-
1512469985635;-;-;9.072113;2.8660583;-2.7873688;-;-;-;-;-;-;-;-;-;-;-;-;-;-;-
1512469985656;-;-;7.9157257;2.9929504;-7.21904;-;-;-;-;-;-;-;-;-;-;-;-;-;-;-
1512469985676;-;-;11.234085;2.2794647;-4.7877197;-;-;-;-;-;-;-;-;-;-;-;-;-;-;-
1512469985697;-;-;10.576874;1.046463;-5.971649;-;-;-;-;-;-;-;-;-;-;-;-;-;-;-
1512469985717;-;-;7.683487;1.367279;-5.891449;-;-;-;-;-;-;-;-;-;-;-;-;-;-;-
1512469985738;-;-;4.853531;2.0364532;-4.9792633;-;-;-;-;-;-;-;-;-;-;-;-;-;-;-
1512469985758;-;-;4.411804;2.2136383;-4.1855774;-;-;-;-;-;-;-;-;-;-;-;-;-;-;-
1512469985779;-;-;5.7489624;1.2858734;-4.5662537;-;-;-;-;-;-;-;-;-;-;-;-;-;-;-
1512469985799;-;-;8.083313;0.30545044;-3.8934937;-;-;-;-;-;-;-;-;-;-;-;-;-;-;-
1512469985819;-;-;9.960373;-0.052474976;-3.4385834;-;-;-;-;-;-;-;-;-;-;-;-;-;-;-
1512469985840;-;-;9.777206;-0.28831482;-4.0957947;-;-;-;-;-;-;-;-;-;-;-;-;-;-;-
1512469985859;-;-;8.826721;-0.3876648;-3.7618103;-;-;-;-;-;-;-;-;-;-;-;-;-;-;-
1512469985879;-;-;7.61644;-0.08001709;-2.9369965;-;-;-;-;-;-;-;-;-;-;-;-;-;-;-
1512469985900;-;-;6.999939;-0.21768188;-2.7107544;-;-;-;-;-;-;-;-;-;-;-;-;-;-;-
1512469985920;-;-;6.8371277;-0.73483276;-2.483307;-;-;-;-;-;-;-;-;-;-;-;-;-;-;-
1512469985941;-;-;6.5582123;-0.25837708;-2.5575256;-;-;-;-;-;-;-;-;-;-;-;-;-;-;-
1512469985961;-;-;7.3183746;0.68133545;-2.682022;-;-;-;-;-;-;-;-;-;-;-;-;-;-;-
1512469985981;-;-;8.098877;1.1925049;-2.9082794;-;-;-;-;-;-;-;-;-;-;-;-;-;-;-
1512469986002;-;-;8.553772;1.0560303;-3.0902252;-;-;-;-;-;-;-;-;-;-;-;-;-;-;-
1512469986022;-;-;8.153946;0.5783844;-3.3452148;-;-;-;-;-;-;-;-;-;-;-;-;-;-;-
1512469986043;-;-;8.144363;0.14144897;-3.0854492;-;-;-;-;-;-;-;-;-;-;-;-;-;-;-
1512469986063;-;-;8.556168;-0.49780273;-2.3767548;-;-;-;-;-;-;-;-;-;-;-;-;-;-;-
1512469986084;-;-;7.8570557;-1.214859;-1.74469;-;-;-;-;-;-;-;-;-;-;-;-;-;-;-
1512469986104;-;-;7.351883;-1.6985016;-1.8153229;-;-;-;-;-;-;-;-;-;-;-;-;-;-;-
1512469986124;-;-;7.629608;-1.2005005;-1.2550812;-;-;-;-;-;-;-;-;-;-;-;-;-;-;-
1512469986145;-;-;8.045013;-0.8317871;-1.0599518;-;-;-;-;-;-;-;-;-;-;-;-;-;-;-
1512469986166;-;-;8.282028;-1.1789551;-1.4825287;-;-;-;-;-;-;-;-;-;-;-;-;-;-;-
1512469986186;-;-;8.258087;-1.3920441;-1.4190826;-;-;-;-;-;-;-;-;-;-;-;-;-;-;-
1512469986207;-;-;9.173874;-2.3126068;-0.5727234;-;-;-;-;-;-;-;-;-;-;-;-;-;-;-
1512469986227;-;-;8.392166;-2.016922;-0.6182251;-;-;-;-;-;-;-;-;-;-;-;-;-;-;-
1512469986248;-;-;8.511871;-2.2084656;-1.0886841;-;-;-;-;-;-;-;-;-;-;-;-;-;-;-
1512469986268;-;-;7.7972107;-2.0707855;-0.9366455;-;-;-;-;-;-;-;-;-;-;-;-;-;-;-
1512469986289;-;-;8.01268;-2.1809235;-1.440628;-;-;-;-;-;-;-;-;-;-;-;-;-;-;-
1512469986310;-;-;7.763687;-1.443512;-0.64575195;-;-;-;-;-;-;-;-;-;-;-;-;-;-;-
1512469986329;-;-;8.217392;-1.1645813;-0.4530182;-;-;-;-;-;-;-;-;-;-;-;-;-;-;-
1512469986350;-;-;8.456802;-1.155014;-1.6776581;-;-;-;-;-;-;-;-;-;-;-;-;-;-;-
1512469986370;-;-;7.4596252;-1.3956299;-3.772583;-;-;-;-;-;-;-;-;-;-;-;-;-;-;-
1512469986391;-;-;11.790741;-4.395569;-0.8181305;-;-;-;-;-;-;-;-;-;-;-;-;-;-;-
1512469986412;-;-;13.5564575;-3.886795;-0.46139526;-;-;-;-;-;-;-;-;-;-;-;-;-;-;-
1512469986431;-;-;15.756729;-1.5931549;-1.3688049;-;-;-;-;-;-;-;-;-;-;-;-;-;-;-
1512469986452;-;-;16.241562;-0.83657837;-3.4625244;-;-;-;-;-;-;-;-;-;-;-;-;-;-;-
1512469986472;-;-;16.376831;-1.3597107;-3.5008392;-;-;-;-;-;-;-;-;-;-;-;-;-;-;-
1512469986492;-;-;17.425491;-6.1050262;-3.528366;-;-;-;-;-;-;-;-;-;-;-;-;-;-;-
1512469986513;-;-;12.942352;-5.306549;-4.4034576;-;-;-;-;-;-;-;-;-;-;-;-;-;-;-
1512469986534;-;-;10.247665;-2.8884125;-3.3751373;-;-;-;-;-;-;-;-;-;-;-;-;-;-;-
1512469986553;-;-;10.131561;-2.9937592;-2.5575256;-;-;-;-;-;-;-;-;-;-;-;-;-;-;-
1512469986573;-;-;7.071762;-2.6082916;-3.5451355;-;-;-;-;-;-;-;-;-;-;-;-;-;-;-
1512469986594;-;-;6.680313;-2.1940918;-4.2765656;-;-;-;-;-;-;-;-;-;-;-;-;-;-;-
1512469986615;-;-;8.273651;-1.5428772;-3.4038696;-;-;-;-;-;-;-;-;-;-;-;-;-;-;-
1512469986634;-;-;8.813553;-0.8305969;-3.919815;-;-;-;-;-;-;-;-;-;-;-;-;-;-;-
1512469986654;-;-;8.206619;-0.4092102;-6.2134705;-;-;-;-;-;-;-;-;-;-;-;-;-;-;-
1512469986675;-;-;6.7018585;-0.088394165;-6.576187;-;-;-;-;-;-;-;-;-;-;-;-;-;-;-
1512469986695;-;-;5.343155;0.15342712;-5.1660004;-;-;-;-;-;-;-;-;-;-;-;-;-;-;-
1512469986716;-;-;5.5442657;0.41079712;-2.4042969;-;-;-;-;-;-;-;-;-;-;-;-;-;-;-
1512469986736;-;-;7.1244354;0.32460022;-2.3193054;-;-;-;-;-;-;-;-;-;-;-;-;-;-;-
1512469986756;-;-;8.1766815;0.7507782;-4.6644135;-;-;-;-;-;-;-;-;-;-;-;-;-;-;-
1512469986777;-;-;8.265274;1.0787811;-4.2418365;-;-;-;-;-;-;-;-;-;-;-;-;-;-;-
1512469986797;-;-;8.298798;0.046875;-3.1428986;-;-;-;-;-;-;-;-;-;-;-;-;-;-;-
1512469986818;-;-;8.544205;-0.739624;-3.1824036;-;-;-;-;-;-;-;-;-;-;-;-;-;-;-
1512469986838;-;-;8.499908;-0.49899292;-3.4397888;-;-;-;-;-;-;-;-;-;-;-;-;-;-;-
1512469986858;-;-;7.822342;0.37010193;-3.12854;-;-;-;-;-;-;-;-;-;-;-;-;-;-;-
1512469986879;-;-;5.747772;0.8501282;-2.7825775;-;-;-;-;-;-;-;-;-;-;-;-;-;-;-
1512469986899;-;-;5.1492157;0.541275;-2.1110077;-;-;-;-;-;-;-;-;-;-;-;-;-;-;-
1512469986920;-;-;5.2306213;0.45269775;-1.8308868;-;-;-;-;-;-;-;-;-;-;-;-;-;-;-
1512469986940;-;-;6.019516;0.7232361;-2.567093;-;-;-;-;-;-;-;-;-;-;-;-;-;-;-
1512469986961;-;-;6.059021;0.80584717;-2.922638;-;-;-;-;-;-;-;-;-;-;-;-;-;-;-
1512469986981;-;-;5.8004456;1.3421478;-2.278595;-;-;-;-;-;-;-;-;-;-;-;-;-;-;-
1512469987002;-;-;5.3658905;1.995758;-2.076294;-;-;-;-;-;-;-;-;-;-;-;-;-;-;-
1512469987021;-;-;5.6508026;2.5476227;-2.6054077;-;-;-;-;-;-;-;-;-;-;-;-;-;-;-
1512469987042;-;-;6.434906;2.789444;-2.7406769;-;-;-;-;-;-;-;-;-;-;-;-;-;-;-
1512469987063;-;-;6.881424;2.8947754;-2.4497833;-;-;-;-;-;-;-;-;-;-;-;-;-;-;-
1512469987083;-;-;7.1052856;3.0731506;-2.286972;-;-;-;-;-;-;-;-;-;-;-;-;-;-;-
1512469987103;-;-;7.806778;3.0575867;-1.689621;-;-;-;-;-;-;-;-;-;-;-;-;-;-;-
1512469987124;-;-;8.825516;2.6817017;-2.0858612;-;-;-;-;-;-;-;-;-;-;-;-;-;-;-
1512469987145;-;-;10.370972;2.5033264;-2.0942383;-;-;-;-;-;-;-;-;-;-;-;-;-;-;-
1512469987165;-;-;11.773972;2.5332642;-2.148117;-;-;-;-;-;-;-;-;-;-;-;-;-;-;-
1512469987186;-;-;12.070862;2.4207306;-4.044327;-;-;-;-;-;-;-;-;-;-;-;-;-;-;-
1512469987206;-;-;11.661453;3.1904602;-6.0542603;-;-;-;-;-;-;-;-;-;-;-;-;-;-;-
1512469987226;-;-;14.593155;5.0974426;-6.315216;-;-;-;-;-;-;-;-;-;-;-;-;-;-;-
1512469987247;-;-;16.197266;3.462204;-5.148041;-;-;-;-;-;-;-;-;-;-;-;-;-;-;-
1512469987266;-;-;10.772003;1.7383881;-6.325989;-;-;-;-;-;-;-;-;-;-;-;-;-;-;-
1512469987286;-;-;7.1364136;1.1338501;-5.543091;-;-;-;-;-;-;-;-;-;-;-;-;-;-;-
1512469987307;-;-;4.185547;-0.30625916;-5.230652;-;-;-;-;-;-;-;-;-;-;-;-;-;-;-
1512469987328;-;-;4.2621613;-1.2627563;-4.322052;-;-;-;-;-;-;-;-;-;-;-;-;-;-;-
1512469987348;-;-;5.7010803;-0.18655396;-4.796097;-;-;-;-;-;-;-;-;-;-;-;-;-;-;-
1512469987368;-;-;8.582504;1.8568878;-5.271347;-;-;-;-;-;-;-;-;-;-;-;-;-;-;-
1512469987389;-;-;9.704193;2.6733246;-4.041931;-;-;-;-;-;-;-;-;-;-;-;-;-;-;-
1512469987409;-;-;8.746506;1.2619324;-3.7857513;-;-;-;-;-;-;-;-;-;-;-;-;-;-;-
1512469987430;-;-;7.363861;0.3425598;-3.70195;-;-;-;-;-;-;-;-;-;-;-;-;-;-;-
1512469987451;-;-;6.240982;-0.02494812;-3.262619;-;-;-;-;-;-;-;-;-;-;-;-;-;-;-
1512469987471;-;-;5.313217;-0.52653503;-1.8679962;-;-;-;-;-;-;-;-;-;-;-;-;-;-;-
1512469987492;-;-;4.6224976;-1.5081482;-1.3723907;-;-;-;-;-;-;-;-;-;-;-;-;-;-;-
1512469987511;-;-;4.3148346;-2.1258545;-1.8667908;-;-;-;-;-;-;-;-;-;-;-;-;-;-;-
1512469987531;-;-;5.241394;-2.0827637;-2.0583344;-;-;-;-;-;-;-;-;-;-;-;-;-;-;-
1512469987552;-;-;6.904175;-1.3309784;-2.4737244;-;-;-;-;-;-;-;-;-;-;-;-;-;-;-
1512469987572;-;-;7.9983215;-0.43077087;-3.223114;-;-;-;-;-;-;-;-;-;-;-;-;-;-;-
1512469987592;-;-;8.517868;0.20370483;-3.3428192;-;-;-;-;-;-;-;-;-;-;-;-;-;-;-
1512469987613;-;-;8.635178;0.4981842;-3.2302856;-;-;-;-;-;-;-;-;-;-;-;-;-;-;-
1512469987633;-;-;8.545395;0.43115234;-3.1847992;-;-;-;-;-;-;-;-;-;-;-;-;-;-;-
1512469987654;-;-;8.080917;-0.015365601;-2.7753906;-;-;-;-;-;-;-;-;-;-;-;-;-;-;-
1512469987674;-;-;7.6786957;-0.8413696;-2.483307;-;-;-;-;-;-;-;-;-;-;-;-;-;-;-
1512469987695;-;-;7.973175;-1.1981049;-2.2187347;-;-;-;-;-;-;-;-;-;-;-;-;-;-;-
1512469987715;-;-;8.475967;-0.8162384;-1.8153229;-;-;-;-;-;-;-;-;-;-;-;-;-;-;-
1512469987736;-;-;9.525818;-0.38407898;-1.2622528;-;-;-;-;-;-;-;-;-;-;-;-;-;-;-
1512469987756;-;-;10.624756;-0.19493103;-1.2885895;-;-;-;-;-;-;-;-;-;-;-;-;-;-;-
1512469987777;-;-;12.154648;-0.20930481;-1.1138153;-;-;-;-;-;-;-;-;-;-;-;-;-;-;-
1512469987797;-;-;14.505768;-0.5157623;-0.90312195;-;-;-;-;-;-;-;-;-;-;-;-;-;-;-
1512469987818;-;-;15.517303;-0.4666748;-4.041931;-;-;-;-;-;-;-;-;-;-;-;-;-;-;-
1512469987839;-;-;13.3589325;-4.903137;-5.891449;-;-;-;-;-;-;-;-;-;-;-;-;-;-;-
1512469987858;-;-;13.52533;-7.0782623;-4.083832;-;-;-;-;-;-;-;-;-;-;-;-;-;-;-
1512469987879;-;-;16.050018;-3.4666138;-3.4194336;-;-;-;-;-;-;-;-;-;-;-;-;-;-;-
1512469987899;-;-;13.094376;0.6238861;-9.5581665;-;-;-;-;-;-;-;-;-;-;-;-;-;-;-
1512469987920;-;-;4.253784;3.7195892;-8.538239;-;-;-;-;-;-;-;-;-;-;-;-;-;-;-
1512469987940;-;-;1.857193;3.9434357;-4.736252;-;-;-;-;-;-;-;-;-;-;-;-;-;-;-
1512469987960;-;-;5.344345;1.1733551;-5.367111;-;-;-;-;-;-;-;-;-;-;-;-;-;-;-
1512469987981;-;-;9.3103485;-0.36372375;-6.3882446;-;-;-;-;-;-;-;-;-;-;-;-;-;-;-
1512469988002;-;-;12.264786;-0.0728302;-5.1983337;-;-;-;-;-;-;-;-;-;-;-;-;-;-;-
1512469988022;-;-;10.041779;0.9710388;-4.6524506;-;-;-;-;-;-;-;-;-;-;-;-;-;-;-
1512469988042;-;-;7.335129;-0.32661438;-4.144882;-;-;-;-;-;-;-;-;-;-;-;-;-;-;-
1512469988063;-;-;6.154785;-0.76475525;-3.0447388;-;-;-;-;-;-;-;-;-;-;-;-;-;-;-
1512469988082;-;-;4.9911957;0.013366699;-2.302536;-;-;-;-;-;-;-;-;-;-;-;-;-;-;-
1512469988102;-;-;3.2470245;1.8724518;-2.1780396;-;-;-;-;-;-;-;-;-;-;-;-;-;-;-
1512469988123;-;-;3.5642548;1.9251251;-2.547943;-;-;-;-;-;-;-;-;-;-;-;-;-;-;-
1512469988142;-;-;4.4142;0.9614563;-2.725113;-;-;-;-;-;-;-;-;-;-;-;-;-;-;-
1512469988162;-;-;4.906204;0.5640259;-2.5180206;-;-;-;-;-;-;-;-;-;-;-;-;-;-;-
1512469988183;-;-;5.972824;0.64183044;-2.0882568;-;-;-;-;-;-;-;-;-;-;-;-;-;-;-
1512469988203;-;-;6.549835;1.3624878;-2.2331085;-;-;-;-;-;-;-;-;-;-;-;-;-;-;-
1512469988224;-;-;7.3650513;2.086731;-2.2857819;-;-;-;-;-;-;-;-;-;-;-;-;-;-;-
1512469988244;-;-;7.6020813;2.6804962;-2.2486725;-;-;-;-;-;-;-;-;-;-;-;-;-;-;-
1512469988265;-;-;7.8403015;2.9630127;-2.0978394;-;-;-;-;-;-;-;-;-;-;-;-;-;-;-
1512469988285;-;-;7.9660034;2.888794;-1.8356628;-;-;-;-;-;-;-;-;-;-;-;-;-;-;-
1512469988306;-;-;7.9899445;2.758316;-1.8284912;-;-;-;-;-;-;-;-;-;-;-;-;-;-;-
1512469988326;-;-;7.8798065;2.4638214;-1.574707;-;-;-;-;-;-;-;-;-;-;-;-;-;-;-
1512469988347;-;-;8.270065;2.1477966;-0.98573303;-;-;-;-;-;-;-;-;-;-;-;-;-;-;-
1512469988367;-;-;8.695038;1.9526672;-0.35725403;-;-;-;-;-;-;-;-;-;-;-;-;-;-;-
1512469988388;-;-;8.909317;1.4522705;0.028213501;-;-;-;-;-;-;-;-;-;-;-;-;-;-;-
1512469988408;-;-;9.096069;1.2715149;0.20777893;-;-;-;-;-;-;-;-;-;-;-;-;-;-;-
1512469988428;-;-;9.093674;1.7431641;0.23770142;-;-;-;-;-;-;-;-;-;-;-;-;-;-;-
1512469988449;-;-;9.116409;2.308197;0.44839478;-;-;-;-;-;-;-;-;-;-;-;-;-;-;-
1512469988469;-;-;9.385757;2.2256012;0.4040985;-;-;-;-;-;-;-;-;-;-;-;-;-;-;-
1512469988490;-;-;9.260071;1.2906647;0.42565918;-;-;-;-;-;-;-;-;-;-;-;-;-;-;-
1512469988510;-;-;8.606445;-0.035720825;0.92245483;-;-;-;-;-;-;-;-;-;-;-;-;-;-;-
1512469988531;-;-;8.209015;1.9047852;-2.9034882;-;-;-;-;-;-;-;-;-;-;-;-;-;-;-
1512469988551;-;-;8.434067;7.9297943;-6.6276703;-;-;-;-;-;-;-;-;-;-;-;-;-;-;-
1512469988572;-;-;13.836578;10.364685;-11.513031;-;-;-;-;-;-;-;-;-;-;-;-;-;-;-
1512469988592;-;-;13.779114;2.9893494;-5.491623;-;-;-;-;-;-;-;-;-;-;-;-;-;-;-
1512469988613;-;-;12.819046;-1.0795898;-5.7753296;-;-;-;-;-;-;-;-;-;-;-;-;-;-;-
1512469988633;-;-;7.2824554;-2.8237762;-3.9401703;-;-;-;-;-;-;-;-;-;-;-;-;-;-;-
1512469988653;-;-;4.1628113;-1.9163666;-0.82292175;-;-;-;-;-;-;-;-;-;-;-;-;-;-;-
1512469988674;-;-;2.822052;1.5731812;-2.2187347;-;-;-;-;-;-;-;-;-;-;-;-;-;-;-
1512469988695;-;-;6.4049835;4.893936;-4.820038;-;-;-;-;-;-;-;-;-;-;-;-;-;-;-
1512469988715;-;-;10.349426;4.992096;-6.655197;-;-;-;-;-;-;-;-;-;-;-;-;-;-;-
1512469988736;-;-;12.644272;1.4343262;-6.2888794;-;-;-;-;-;-;-;-;-;-;-;-;-;-;-
1512469988756;-;-;12.271973;-1.3525391;-3.6013947;-;-;-;-;-;-;-;-;-;-;-;-;-;-;-
1512469988777;-;-;10.142334;-1.641037;-3.1273346;-;-;-;-;-;-;-;-;-;-;-;-;-;-;-
1512469988797;-;-;6.8874054;-1.8086243;-2.1337433;-;-;-;-;-;-;-;-;-;-;-;-;-;-;-
1512469988818;-;-;5.842346;-1.6003265;-2.0331879;-;-;-;-;-;-;-;-;-;-;-;-;-;-;-
1512469988838;-;-;5.696289;-0.9646759;-2.1780396;-;-;-;-;-;-;-;-;-;-;-;-;-;-;-
1512469988859;-;-;6.163162;0.14025879;-2.0990295;-;-;-;-;-;-;-;-;-;-;-;-;-;-;-
1512469988880;-;-;7.778061;1.0189209;-1.9565735;-;-;-;-;-;-;-;-;-;-;-;-;-;-;-
1512469988900;-;-;8.717773;1.580368;-1.9314423;-;-;-;-;-;-;-;-;-;-;-;-;-;-;-
1512469988920;-;-;10.033386;1.2044678;-1.9098969;-;-;-;-;-;-;-;-;-;-;-;-;-;-;-
1512469988941;-;-;9.482727;0.62268066;-1.7853851;-;-;-;-;-;-;-;-;-;-;-;-;-;-;-
1512469988962;-;-;8.509476;-0.30148315;-0.8384857;-;-;-;-;-;-;-;-;-;-;-;-;-;-;-
1512469988982;-;-;7.6020813;-0.8186188;-0.2004242;-;-;-;-;-;-;-;-;-;-;-;-;-;-;-
1512469989003;-;-;8.207809;-0.5349121;-0.15733337;-;-;-;-;-;-;-;-;-;-;-;-;-;-;-
1512469989022;-;-;9.129578;-0.29429626;0.8374634;-;-;-;-;-;-;-;-;-;-;-;-;-;-;-
1512469989042;-;-;10.246475;-0.4954071;0.8218994;-;-;-;-;-;-;-;-;-;-;-;-;-;-;-
1512469989063;-;-;11.309494;-1.3273926;-0.2578888;-;-;-;-;-;-;-;-;-;-;-;-;-;-;-
1512469989083;-;-;11.790741;-1.7870789;-0.27464294;-;-;-;-;-;-;-;-;-;-;-;-;-;-;-
1512469989104;-;-;11.746445;-1.6577911;0.16229248;-;-;-;-;-;-;-;-;-;-;-;-;-;-;-
1512469989124;-;-;11.297531;-0.9431305;-3.0662842;-;-;-;-;-;-;-;-;-;-;-;-;-;-;-
1512469989145;-;-;9.163101;0.7220459;-10.545776;-;-;-;-;-;-;-;-;-;-;-;-;-;-;-
1512469989165;-;-;13.502594;-0.58758545;-8.171921;-;-;-;-;-;-;-;-;-;-;-;-;-;-;-
1512469989185;-;-;10.851013;5.330887;-3.8898926;-;-;-;-;-;-;-;-;-;-;-;-;-;-;-
1512469989206;-;-;8.304779;9.543472;-2.7227173;-;-;-;-;-;-;-;-;-;-;-;-;-;-;-
1512469989226;-;-;6.427719;7.608963;-4.92659;-;-;-;-;-;-;-;-;-;-;-;-;-;-;-
1512469989247;-;-;8.431671;2.090332;-4.0957947;-;-;-;-;-;-;-;-;-;-;-;-;-;-;-
1512469989268;-;-;9.048172;-3.2714844;-3.3679657;-;-;-;-;-;-;-;-;-;-;-;-;-;-;-
1512469989287;-;-;9.722153;-3.720398;-2.6449127;-;-;-;-;-;-;-;-;-;-;-;-;-;-;-
1512469989308;-;-;9.266052;-0.34098816;-1.3795776;-;-;-;-;-;-;-;-;-;-;-;-;-;-;-
1512469989328;-;-;9.212173;0.93751526;-1.7806091;-;-;-;-;-;-;-;-;-;-;-;-;-;-;-
1512469989349;-;-;8.72496;0.7220459;-2.0547333;-;-;-;-;-;-;-;-;-;-;-;-;-;-;-
1512469989369;-;-;7.4488525;1.0320892;-2.3444366;-;-;-;-;-;-;-;-;-;-;-;-;-;-;-
1512469989390;-;-;6.2325897;1.3780518;-1.2766266;-;-;-;-;-;-;-;-;-;-;-;-;-;-;-
1512469989410;-;-;5.9752197;1.8317566;0.025817871;-;-;-;-;-;-;-;-;-;-;-;-;-;-;-
1512469989431;-;-;6.9317017;2.687683;-0.8396759;-;-;-;-;-;-;-;-;-;-;-;-;-;-;-
1512469989450;-;-;9.172684;2.6362152;-1.3975372;-;-;-;-;-;-;-;-;-;-;-;-;-;-;-
1512469989470;-;-;10.988678;2.4123535;-1.7027893;-;-;-;-;-;-;-;-;-;-;-;-;-;-;-
1512469989491;-;-;11.043747;2.2734833;-1.5603333;-;-;-;-;-;-;-;-;-;-;-;-;-;-;-
1512469989511;-;-;8.9787445;2.5188904;-1.2179718;-;-;-;-;-;-;-;-;-;-;-;-;-;-;-
1512469989532;-;-;6.752136;2.9103394;-0.62420654;-;-;-;-;-;-;-;-;-;-;-;-;-;-;-
1512469989552;-;-;5.3730774;3.1928558;-0.27703857;-;-;-;-;-;-;-;-;-;-;-;-;-;-;-
1512469989573;-;-;5.6412354;3.180893;-0.21240234;-;-;-;-;-;-;-;-;-;-;-;-;-;-;-
1512469989593;-;-;6.898178;2.9462585;-0.456604;-;-;-;-;-;-;-;-;-;-;-;-;-;-;-
1512469989614;-;-;8.159927;2.9498444;-0.6505432;-;-;-;-;-;-;-;-;-;-;-;-;-;-;-
1512469989635;-;-;9.124786;3.2826385;-0.3297119;-;-;-;-;-;-;-;-;-;-;-;-;-;-;-
1512469989655;-;-;9.303162;3.8165436;0.108428955;-;-;-;-;-;-;-;-;-;-;-;-;-;-;-
1512469989676;-;-;9.199005;4.2870026;0.38494873;-;-;-;-;-;-;-;-;-;-;-;-;-;-;-
1512469989696;-;-;9.758057;4.533615;0.49150085;-;-;-;-;-;-;-;-;-;-;-;-;-;-;-
1512469989717;-;-;10.216553;4.0966644;-2.2019806;-;-;-;-;-;-;-;-;-;-;-;-;-;-;-
1512469989736;-;-;12.367737;4.304962;-1.4130859;-;-;-;-;-;-;-;-;-;-;-;-;-;-;-
1512469989756;-;-;13.227264;4.5563507;-2.9274292;-;-;-;-;-;-;-;-;-;-;-;-;-;-;-
1512469989777;-;-;16.034454;4.437851;-4.088608;-;-;-;-;-;-;-;-;-;-;-;-;-;-;-
1512469989798;-;-;15.961441;3.180893;-4.84758;-;-;-;-;-;-;-;-;-;-;-;-;-;-;-
1512469989818;-;-;11.584839;3.3807983;-6.7749023;-;-;-;-;-;-;-;-;-;-;-;-;-;-;-
1512469989838;-;-;7.284851;3.2862396;-5.393448;-;-;-;-;-;-;-;-;-;-;-;-;-;-;-
1512469989859;-;-;4.4764557;1.674942;-4.0670624;-;-;-;-;-;-;-;-;-;-;-;-;-;-;-
1512469989879;-;-;5.553833;1.1434174;-4.8296204;-;-;-;-;-;-;-;-;-;-;-;-;-;-;-
1512469989900;-;-;7.69545;1.8389435;-5.6843567;-;-;-;-;-;-;-;-;-;-;-;-;-;-;-
1512469989919;-;-;9.695816;2.1645508;-5.819626;-;-;-;-;-;-;-;-;-;-;-;-;-;-;-
1512469989939;-;-;10.549347;1.7000732;-5.1145325;-;-;-;-;-;-;-;-;-;-;-;-;-;-;-
1512469989960;-;-;9.487518;1.0955353;-4.730255;-;-;-;-;-;-;-;-;-;-;-;-;-;-;-
1512469989981;-;-;8.0905;0.38565063;-4.672806;-;-;-;-;-;-;-;-;-;-;-;-;-;-;-
1512469990001;-;-;7.2190094;-0.4163971;-4.141281;-;-;-;-;-;-;-;-;-;-;-;-;-;-;-
1512469990021;-;-;6.70784;-1.4566803;-2.670044;-;-;-;-;-;-;-;-;-;-;-;-;-;-;-
1512469990042;-;-;6.375046;-1.7212372;-2.3755646;-;-;-;-;-;-;-;-;-;-;-;-;-;-;-
1512469990062;-;-;5.93692;-1.5273132;-2.484497;-;-;-;-;-;-;-;-;-;-;-;-;-;-;-
1512469990082;-;-;5.980011;-0.67378235;-2.3588104;-;-;-;-;-;-;-;-;-;-;-;-;-;-;-
1512469990103;-;-;6.43132;0.095962524;-1.9984741;-;-;-;-;-;-;-;-;-;-;-;-;-;-;-
1512469990123;-;-;7.2740784;0.3677063;-2.2522583;-;-;-;-;-;-;-;-;-;-;-;-;-;-;-
1512469990143;-;-;7.4716034;0.2743225;-2.7107544;-;-;-;-;-;-;-;-;-;-;-;-;-;-;-
1512469990164;-;-;7.442871;-0.28710938;-2.2199402;-;-;-;-;-;-;-;-;-;-;-;-;-;-;-
1512469990185;-;-;7.33992;-0.5600586;-1.9529877;-;-;-;-;-;-;-;-;-;-;-;-;-;-;-
1512469990205;-;-;7.2345734;-0.5049896;-1.5435791;-;-;-;-;-;-;-;-;-;-;-;-;-;-;-
1512469990226;-;-;7.292038;-0.4547119;-1.4909058;-;-;-;-;-;-;-;-;-;-;-;-;-;-;-
1512469990246;-;-;7.7612915;-0.60913086;-1.6489258;-;-;-;-;-;-;-;-;-;-;-;-;-;-;-
1512469990267;-;-;8.447235;-0.73602295;-1.8847504;-;-;-;-;-;-;-;-;-;-;-;-;-;-;-
1512469990287;-;-;10.398514;-0.7503967;-1.4298553;-;-;-;-;-;-;-;-;-;-;-;-;-;-;-
1512469990308;-;-;11.994247;-0.58639526;-2.199585;-;-;-;-;-;-;-;-;-;-;-;-;-;-;-
1512469990328;-;-;13.281128;-0.5241394;-2.7023773;-;-;-;-;-;-;-;-;-;-;-;-;-;-;-
1512469990349;-;-;14.06044;-0.37928772;-2.79216;-;-;-;-;-;-;-;-;-;-;-;-;-;-;-
1512469990370;-;-;13.929962;0.61550903;-3.8683472;-;-;-;-;-;-;-;-;-;-;-;-;-;-;-
1512469990390;-;-;10.568497;-1.3190155;-7.06221;-;-;-;-;-;-;-;-;-;-;-;-;-;-;-
1512469990411;-;-;11.814682;-2.293457;-6.4744415;-;-;-;-;-;-;-;-;-;-;-;-;-;-;-
1512469990431;-;-;12.828629;-0.7922821;-3.4792938;-;-;-;-;-;-;-;-;-;-;-;-;-;-;-
1512469990451;-;-;10.707367;0.78549194;-6.88385;-;-;-;-;-;-;-;-;-;-;-;-;-;-;-
1512469990472;-;-;6.0219116;2.0484314;-7.369873;-;-;-;-;-;-;-;-;-;-;-;-;-;-;-
1512469990492;-;-;3.9557037;1.8808441;-5.2294464;-;-;-;-;-;-;-;-;-;-;-;-;-;-;-
1512469990513;-;-;5.161194;0.4658661;-4.8068695;-;-;-;-;-;-;-;-;-;-;-;-;-;-;-
1512469990533;-;-;9.637146;-0.2679596;-4.246628;-;-;-;-;-;-;-;-;-;-;-;-;-;-;-
1512469990554;-;-;11.105988;-0.028533936;-3.4182434;-;-;-;-;-;-;-;-;-;-;-;-;-;-;-
1512469990573;-;-;10.479904;0.18334961;-3.0866394;-;-;-;-;-;-;-;-;-;-;-;-;-;-;-
1512469990593;-;-;9.045776;-0.21528625;-2.89151;-;-;-;-;-;-;-;-;-;-;-;-;-;-;-
1512469990613;-;-;7.406952;-0.62709045;-2.5539246;-;-;-;-;-;-;-;-;-;-;-;-;-;-;-
1512469990634;-;-;5.1671753;-0.14465332;-2.3516235;-;-;-;-;-;-;-;-;-;-;-;-;-;-;-
1512469990655;-;-;3.458908;0.95188904;-2.1924133;-;-;-;-;-;-;-;-;-;-;-;-;-;-;-
1512469990674;-;-;3.2901154;1.3409424;-1.863205;-;-;-;-;-;-;-;-;-;-;-;-;-;-;-
1512469990695;-;-;4.099365;1.5983276;-1.7949677;-;-;-;-;-;-;-;-;-;-;-;-;-;-;-
1512469990714;-;-;5.5227203;1.8736572;-2.4629517;-;-;-;-;-;-;-;-;-;-;-;-;-;-;-
1512469990735;-;-;6.585739;2.2914429;-2.6640625;-;-;-;-;-;-;-;-;-;-;-;-;-;-;-
1512469990755;-;-;8.557373;2.5320587;-2.649704;-;-;-;-;-;-;-;-;-;-;-;-;-;-;-
1512469990776;-;-;9.386963;2.4542542;-2.527588;-;-;-;-;-;-;-;-;-;-;-;-;-;-;-
1512469990796;-;-;8.927277;2.2914429;-2.0715027;-;-;-;-;-;-;-;-;-;-;-;-;-;-;-
1512469990817;-;-;8.540604;2.4542542;-1.7087708;-;-;-;-;-;-;-;-;-;-;-;-;-;-;-
1512469990838;-;-;8.44603;2.9965363;-1.2359161;-;-;-;-;-;-;-;-;-;-;-;-;-;-;-
1512469990858;-;-;7.995926;3.6309967;-1.784195;-;-;-;-;-;-;-;-;-;-;-;-;-;-;-
1512469990878;-;-;7.693054;4.236725;-2.1026306;-;-;-;-;-;-;-;-;-;-;-;-;-;-;-
1512469990899;-;-;8.641159;4.272644;-1.6776581;-;-;-;-;-;-;-;-;-;-;-;-;-;-;-
1512469990918;-;-;10.356613;3.6764832;-0.94981384;-;-;-;-;-;-;-;-;-;-;-;-;-;-;-
1512469990938;-;-;12.1414795;3.1952515;-2.7598267;-;-;-;-;-;-;-;-;-;-;-;-;-;-;-
1512469990959;-;-;13.601944;2.8947754;0.3035431;-;-;-;-;-;-;-;-;-;-;-;-;-;-;-
1512469990980;-;-;11.577652;1.8568878;-4.76976;-;-;-;-;-;-;-;-;-;-;-;-;-;-;-
1512469990999;-;-;14.953476;2.4039764;-4.002426;-;-;-;-;-;-;-;-;-;-;-;-;-;-;-
1512469991019;-;-;12.850174;3.2120209;-8.086929;-;-;-;-;-;-;-;-;-;-;-;-;-;-;-
1512469991040;-;-;10.408081;2.624237;-5.488022;-;-;-;-;-;-;-;-;-;-;-;-;-;-;-
1512469991061;-;-;5.3623047;0.4909973;-3.678009;-;-;-;-;-;-;-;-;-;-;-;-;-;-;-
1512469991081;-;-;4.6464386;-1.3166199;-3.7677917;-;-;-;-;-;-;-;-;-;-;-;-;-;-;-
1512469991101;-;-;5.3886414;-0.32661438;-5.049881;-;-;-;-;-;-;-;-;-;-;-;-;-;-;-
1512469991122;-;-;8.225769;2.0448456;-5.8459625;-;-;-;-;-;-;-;-;-;-;-;-;-;-;-
1512469991141;-;-;8.735733;3.1126556;-5.058258;-;-;-;-;-;-;-;-;-;-;-;-;-;-;-
1512469991162;-;-;8.289215;2.2519379;-4.028763;-;-;-;-;-;-;-;-;-;-;-;-;-;-;-
1512469991181;-;-;7.548218;1.1781464;-4.3639526;-;-;-;-;-;-;-;-;-;-;-;-;-;-;-
1512469991202;-;-;6.778473;0.03491211;-3.9317932;-;-;-;-;-;-;-;-;-;-;-;-;-;-;-
1512469991222;-;-;6.5474396;-0.79348755;-3.389511;-;-;-;-;-;-;-;-;-;-;-;-;-;-;-
1512469991243;-;-;6.3618774;-1.5368805;-2.6317444;-;-;-;-;-;-;-;-;-;-;-;-;-;-;-
1512469991263;-;-;5.489197;-1.4578705;-2.7993317;-;-;-;-;-;-;-;-;-;-;-;-;-;-;-
1512469991283;-;-;5.660385;-1.1873322;-2.7945404;-;-;-;-;-;-;-;-;-;-;-;-;-;-;-
1512469991304;-;-;6.2984314;-0.4738617;-2.5192108;-;-;-;-;-;-;-;-;-;-;-;-;-;-;-
1512469991324;-;-;6.6024933;0.3102417;-3.0004425;-;-;-;-;-;-;-;-;-;-;-;-;-;-;-
1512469991345;-;-;7.062195;0.8788605;-3.3248596;-;-;-;-;-;-;-;-;-;-;-;-;-;-;-
1512469991365;-;-;7.61644;1.2152557;-3.2087402;-;-;-;-;-;-;-;-;-;-;-;-;-;-;-
1512469991385;-;-;8.113235;0.576004;-2.4078827;-;-;-;-;-;-;-;-;-;-;-;-;-;-;-
1512469991405;-;-;8.031845;-0.114730835;-2.357605;-;-;-;-;-;-;-;-;-;-;-;-;-;-;-
1512469991426;-;-;8.4843445;-0.45829773;-2.1624756;-;-;-;-;-;-;-;-;-;-;-;-;-;-;-
1512469991447;-;-;10.174652;-0.121917725;-1.9170685;-;-;-;-;-;-;-;-;-;-;-;-;-;-;-
1512469991466;-;-;12.423996;-0.5444946;-1.7937775;-;-;-;-;-;-;-;-;-;-;-;-;-;-;-
1512469991487;-;-;13.163803;-1.9965668;-2.4425964;-;-;-;-;-;-;-;-;-;-;-;-;-;-;-
1512469991507;-;-;15.982986;-1.0113525;-3.1177673;-;-;-;-;-;-;-;-;-;-;-;-;-;-;-
1512469991527;-;-;15.801025;-0.7707367;-5.7837067;-;-;-;-;-;-;-;-;-;-;-;-;-;-;-
1512469991547;-;-;14.281906;-0.9766388;-7.0083466;-;-;-;-;-;-;-;-;-;-;-;-;-;-;-
1512469991567;-;-;11.190994;-0.5384979;-3.8132782;-;-;-;-;-;-;-;-;-;-;-;-;-;-;-
1512469991588;-;-;9.95079;-0.92396545;-5.7442017;-;-;-;-;-;-;-;-;-;-;-;-;-;-;-
1512469991608;-;-;5.200699;-0.6977234;-8.577744;-;-;-;-;-;-;-;-;-;-;-;-;-;-;-
1512469991628;-;-;2.8340302;0.46705627;-7.0203094;-;-;-;-;-;-;-;-;-;-;-;-;-;-;-
1512469991648;-;-;4.2513885;1.0799713;-3.8252563;-;-;-;-;-;-;-;-;-;-;-;-;-;-;-
1512469991669;-;-;7.292038;0.26475525;-3.44458;-;-;-;-;-;-;-;-;-;-;-;-;-;-;-
1512469991690;-;-;11.266403;-0.16500854;-4.0431213;-;-;-;-;-;-;-;-;-;-;-;-;-;-;-
1512469991709;-;-;12.171417;-1.467453;-4.4633026;-;-;-;-;-;-;-;-;-;-;-;-;-;-;-
1512469991730;-;-;11.072479;-2.4586487;-3.867157;-;-;-;-;-;-;-;-;-;-;-;-;-;-;-
1512469991751;-;-;9.09845;-2.1474;-3.136917;-;-;-;-;-;-;-;-;-;-;-;-;-;-;-
1512469991771;-;-;6.206253;-0.32661438;-3.1081848;-;-;-;-;-;-;-;-;-;-;-;-;-;-;-
1512469991791;-;-;4.2549896;1.4750214;-2.4258423;-;-;-;-;-;-;-;-;-;-;-;-;-;-;-
1512469991812;-;-;2.7753754;2.4243164;-1.9122772;-;-;-;-;-;-;-;-;-;-;-;-;-;-;-
1512469991832;-;-;3.0650635;2.2651062;-1.7351074;-;-;-;-;-;-;-;-;-;-;-;-;-;-;-
1512469991852;-;-;5.392227;1.4606476;-2.215149;-;-;-;-;-;-;-;-;-;-;-;-;-;-;-
1512469991873;-;-;7.253723;1.3600922;-2.5168152;-;-;-;-;-;-;-;-;-;-;-;-;-;-;-
1512469991893;-;-;8.431671;1.7563324;-2.4318237;-;-;-;-;-;-;-;-;-;-;-;-;-;-;-
1512469991914;-;-;9.0972595;2.4949493;-2.429428;-;-;-;-;-;-;-;-;-;-;-;-;-;-;-
1512469991934;-;-;9.031418;3.1401825;-2.3863373;-;-;-;-;-;-;-;-;-;-;-;-;-;-;-
1512469991955;-;-;8.209015;3.565155;-2.4785156;-;-;-;-;-;-;-;-;-;-;-;-;-;-;-
1512469991975;-;-;7.8750153;3.778244;-2.4773102;-;-;-;-;-;-;-;-;-;-;-;-;-;-;-
1512469991996;-;-;7.576935;4.0619507;-1.7794037;-;-;-;-;-;-;-;-;-;-;-;-;-;-;-
1512469992016;-;-;7.8965607;3.750702;-1.8488312;-;-;-;-;-;-;-;-;-;-;-;-;-;-;-
1512469992037;-;-;9.067337;2.8349304;-1.8859406;-;-;-;-;-;-;-;-;-;-;-;-;-;-;-
1512469992058;-;-;10.180634;1.9107666;-1.2873993;-;-;-;-;-;-;-;-;-;-;-;-;-;-;-
1512469992078;-;-;10.433228;0.9087982;-3.2422638;-;-;-;-;-;-;-;-;-;-;-;-;-;-;-
1512469992099;-;-;10.983887;1.8868256;-2.231903;-;-;-;-;-;-;-;-;-;-;-;-;-;-;-
1512469992118;-;-;10.075287;3.359253;-8.113266;-;-;-;-;-;-;-;-;-;-;-;-;-;-;-
1512469992138;-;-;13.654617;4.1912384;-6.6923065;-;-;-;-;-;-;-;-;-;-;-;-;-;-;-
1512469992159;-;-;13.172195;1.1518097;-6.169174;-;-;-;-;-;-;-;-;-;-;-;-;-;-;-
1512469992179;-;-;10.636734;1.224823;-5.8315887;-;-;-;-;-;-;-;-;-;-;-;-;-;-;-
1512469992200;-;-;6.70784;-0.16500854;-5.5730133;-;-;-;-;-;-;-;-;-;-;-;-;-;-;-
1512469992220;-;-;4.276535;-1.562027;-4.0874176;-;-;-;-;-;-;-;-;-;-;-;-;-;-;-
1512469992241;-;-;4.359131;-0.1925354;-3.9964294;-;-;-;-;-;-;-;-;-;-;-;-;-;-;-
1512469992261;-;-;6.715027;1.3062286;-5.0594635;-;-;-;-;-;-;-;-;-;-;-;-;-;-;-
1512469992282;-;-;8.689041;1.5456543;-4.7913055;-;-;-;-;-;-;-;-;-;-;-;-;-;-;-
1512469992301;-;-;9.491104;1.1182861;-3.8384247;-;-;-;-;-;-;-;-;-;-;-;-;-;-;-
1512469992322;-;-;9.005081;0.66937256;-4.3196564;-;-;-;-;-;-;-;-;-;-;-;-;-;-;-
1512469992342;-;-;7.940857;0.26594543;-4.239441;-;-;-;-;-;-;-;-;-;-;-;-;-;-;-
1512469992363;-;-;6.8203735;-0.22964478;-3.6181488;-;-;-;-;-;-;-;-;-;-;-;-;-;-;-
1512469992383;-;-;6.189499;-1.0388947;-2.6927948;-;-;-;-;-;-;-;-;-;-;-;-;-;-;-
1512469992404;-;-;6.1284485;-1.4231567;-2.2534637;-;-;-;-;-;-;-;-;-;-;-;-;-;-;-
1512469992424;-;-;6.099716;-0.96347046;-2.5982208;-;-;-;-;-;-;-;-;-;-;-;-;-;-;-
1512469992445;-;-;6.501938;-0.3469696;-3.2279053;-;-;-;-;-;-;-;-;-;-;-;-;-;-;-
1512469992466;-;-;6.8048096;0.5161438;-3.6815948;-;-;-;-;-;-;-;-;-;-;-;-;-;-;-
1512469992485;-;-;7.5518036;1.2451782;-3.2961273;-;-;-;-;-;-;-;-;-;-;-;-;-;-;-
1512469992506;-;-;8.458008;1.5145264;-3.7187042;-;-;-;-;-;-;-;-;-;-;-;-;-;-;-
1512469992525;-;-;8.570541;1.030899;-4.0670624;-;-;-;-;-;-;-;-;-;-;-;-;-;-;-
1512469992546;-;-;7.4045563;0.25637817;-3.9449615;-;-;-;-;-;-;-;-;-;-;-;-;-;-;-
1512469992566;-;-;6.3966064;-0.2392273;-3.2817688;-;-;-;-;-;-;-;-;-;-;-;-;-;-;-
1512469992586;-;-;6.201477;-0.40203857;-2.697586;-;-;-;-;-;-;-;-;-;-;-;-;-;-;-
1512469992606;-;-;7.040634;-0.8497467;-2.4581604;-;-;-;-;-;-;-;-;-;-;-;-;-;-;-
1512469992627;-;-;8.145569;-1.5524445;-1.7123718;-;-;-;-;-;-;-;-;-;-;-;-;-;-;-
1512469992647;-;-;8.941635;-2.1474;-1.5375977;-;-;-;-;-;-;-;-;-;-;-;-;-;-;-
1512469992667;-;-;9.366608;-1.7822876;-1.3819733;-;-;-;-;-;-;-;-;-;-;-;-;-;-;-
1512469992688;-;-;11.066483;-1.0460815;-1.109024;-;-;-;-;-;-;-;-;-;-;-;-;-;-;-
1512469992708;-;-;12.753204;-0.076416016;-1.5184326;-;-;-;-;-;-;-;-;-;-;-;-;-;-;-
1512469992728;-;-;12.901642;-0.3697052;-2.8029327;-;-;-;-;-;-;-;-;-;-;-;-;-;-;-
1512469992749;-;-;15.307816;0.7914734;-3.9186249;-;-;-;-;-;-;-;-;-;-;-;-;-;-;-
1512469992770;-;-;14.348938;-0.13388062;-6.3511353;-;-;-;-;-;-;-;-;-;-;-;-;-;-;-
1512469992790;-;-;15.058823;-1.4135895;-7.283676;-;-;-;-;-;-;-;-;-;-;-;-;-;-;-
1512469992810;-;-;12.918411;-1.1957092;-4.3711243;-;-;-;-;-;-;-;-;-;-;-;-;-;-;-
1512469992831;-;-;9.967545;-0.8377838;-8.156357;-;-;-;-;-;-;-;-;-;-;-;-;-;-;-
1512469992851;-;-;6.980789;0.259964;-6.1907196;-;-;-;-;-;-;-;-;-;-;-;-;-;-;-
1512469992871;-;-;4.032318;0.27792358;-3.8336334;-;-;-;-;-;-;-;-;-;-;-;-;-;-;-
1512469992892;-;-;3.7043152;-0.31584167;-4.3160553;-;-;-;-;-;-;-;-;-;-;-;-;-;-;-
1512469992912;-;-;7.0142975;-1.3537292;-4.587799;-;-;-;-;-;-;-;-;-;-;-;-;-;-;-
1512469992933;-;-;11.988251;-1.775116;-4.314865;-;-;-;-;-;-;-;-;-;-;-;-;-;-;-
1512469992952;-;-;12.664627;-0.9586792;-4.760193;-;-;-;-;-;-;-;-;-;-;-;-;-;-;-
1512469992973;-;-;9.875381;-0.6067352;-4.464508;-;-;-;-;-;-;-;-;-;-;-;-;-;-;-
1512469992992;-;-;7.569763;-0.72525024;-3.3595734;-;-;-;-;-;-;-;-;-;-;-;-;-;-;-
1512469993012;-;-;5.7525635;-0.47265625;-2.9250336;-;-;-;-;-;-;-;-;-;-;-;-;-;-;-
1512469993033;-;-;4.193939;0.27671814;-2.9178467;-;-;-;-;-;-;-;-;-;-;-;-;-;-;-
1512469993053;-;-;3.4062347;1.477417;-3.2518463;-;-;-;-;-;-;-;-;-;-;-;-;-;-;-
1512469993073;-;-;4.0682373;2.1394043;-3.5738678;-;-;-;-;-;-;-;-;-;-;-;-;-;-;-
1512469993094;-;-;5.2940674;2.0699768;-3.4361877;-;-;-;-;-;-;-;-;-;-;-;-;-;-;-
1512469993115;-;-;6.521103;1.7335968;-3.3847198;-;-;-;-;-;-;-;-;-;-;-;-;-;-;-
1512469993135;-;-;7.614044;1.611496;-3.3727417;-;-;-;-;-;-;-;-;-;-;-;-;-;-;-
1512469993156;-;-;8.280838;1.9023895;-3.5487213;-;-;-;-;-;-;-;-;-;-;-;-;-;-;-
1512469993176;-;-;8.021072;1.8892212;-3.62294;-;-;-;-;-;-;-;-;-;-;-;-;-;-;-
1512469993196;-;-;7.93248;1.6102905;-2.3791504;-;-;-;-;-;-;-;-;-;-;-;-;-;-;-
1512469993217;-;-;7.556595;1.4055939;-1.4741516;-;-;-;-;-;-;-;-;-;-;-;-;-;-;-
1512469993237;-;-;7.648773;1.2272186;-1.195221;-;-;-;-;-;-;-;-;-;-;-;-;-;-;-
1512469993258;-;-;8.098877;1.1386414;-1.416687;-;-;-;-;-;-;-;-;-;-;-;-;-;-;-
1512469993277;-;-;8.432861;1.8197784;-1.9709473;-;-;-;-;-;-;-;-;-;-;-;-;-;-;-
1512469993298;-;-;9.014664;3.0108948;-2.0679016;-;-;-;-;-;-;-;-;-;-;-;-;-;-;-
1512469993318;-;-;9.96994;4.154129;-2.5443573;-;-;-;-;-;-;-;-;-;-;-;-;-;-;-
1512469993338;-;-;10.980301;4.6425476;-2.8484192;-;-;-;-;-;-;-;-;-;-;-;-;-;-;-
1512469993358;-;-;11.518997;3.5388184;-2.4318237;-;-;-;-;-;-;-;-;-;-;-;-;-;-;-
1512469993378;-;-;11.948746;1.7802734;-2.6006165;-;-;-;-;-;-;-;-;-;-;-;-;-;-;-
1512469993399;-;-;12.159439;1.1577911;-4.0036163;-;-;-;-;-;-;-;-;-;-;-;-;-;-;-
1512469993419;-;-;13.840179;3.4346771;-8.015106;-;-;-;-;-;-;-;-;-;-;-;-;-;-;-
1512469993440;-;-;13.9874115;5.6026306;-6.8036346;-;-;-;-;-;-;-;-;-;-;-;-;-;-;-
1512469993460;-;-;10.932419;1.7443695;-4.4669037;-;-;-;-;-;-;-;-;-;-;-;-;-;-;-
1512469993481;-;-;8.799179;-0.61990356;-4.4070435;-;-;-;-;-;-;-;-;-;-;-;-;-;-;-
1512469993502;-;-;4.003601;-1.4770355;-4.2322693;-;-;-;-;-;-;-;-;-;-;-;-;-;-;-
1512469993522;-;-;3.399063;-0.5241394;-3.5259705;-;-;-;-;-;-;-;-;-;-;-;-;-;-;-
1512469993543;-;-;5.14682;1.0189209;-2.8256683;-;-;-;-;-;-;-;-;-;-;-;-;-;-;-
1512469993562;-;-;8.070145;2.0256805;-3.1931763;-;-;-;-;-;-;-;-;-;-;-;-;-;-;-
1512469993583;-;-;10.341049;2.2794647;-3.906662;-;-;-;-;-;-;-;-;-;-;-;-;-;-;-
1512469993604;-;-;10.672638;1.5851593;-5.070236;-;-;-;-;-;-;-;-;-;-;-;-;-;-;-
1512469993624;-;-;9.228943;0.35453796;-4.1305084;-;-;-;-;-;-;-;-;-;-;-;-;-;-;-
1512469993644;-;-;6.7772827;-0.5792084;-2.9645386;-;-;-;-;-;-;-;-;-;-;-;-;-;-;-
1512469993665;-;-;4.8403625;-1.6529999;-1.3759766;-;-;-;-;-;-;-;-;-;-;-;-;-;-;-
1512469993684;-;-;4.292099;-2.7040558;-0.6577301;-;-;-;-;-;-;-;-;-;-;-;-;-;-;-
1512469993705;-;-;4.6931305;-2.4071808;-1.3173218;-;-;-;-;-;-;-;-;-;-;-;-;-;-;-
1512469993725;-;-;5.4485016;-1.0592499;-1.629776;-;-;-;-;-;-;-;-;-;-;-;-;-;-;-
1512469993746;-;-;7.1962585;-0.24520874;-1.618988;-;-;-;-;-;-;-;-;-;-;-;-;-;-;-
1512469993766;-;-;9.448013;0.06364441;-1.887146;-;-;-;-;-;-;-;-;-;-;-;-;-;-;-
1512469993786;-;-;10.159088;-0.1769867;-2.388733;-;-;-;-;-;-;-;-;-;-;-;-;-;-;-
1512469993807;-;-;8.007904;-0.85095215;-3.2255096;-;-;-;-;-;-;-;-;-;-;-;-;-;-;-
1512469993827;-;-;6.715027;-1.4626617;-2.2283173;-;-;-;-;-;-;-;-;-;-;-;-;-;-;-
1512469993848;-;-;6.7688904;-1.7942657;-1.4178772;-;-;-;-;-;-;-;-;-;-;-;-;-;-;-
