TimeStamp[ms];Prox[Cm];Lux[lux];AccX[m/s^2];AccY[m/s^2];AccZ[m/s^2];GyroX[rad/s];GyroY[rad/s];GyroZ[rad/s];MagnX[uT];MagnY[uT];MagnZ[uT];OrienYaw[degrees];OrienPitch[degrees];OrienRoll[degrees];Press[Pa];Temp[C°];Batt[%];Lat;Lng;Speed[m/s]
1514174607024;-;-;9.184647;-0.8581238;0.0138549805;-;-;-;-;-;-;-;-;-;-;-;-;-;-;-
1514174607022;-;-;9.184647;-0.8581238;0.0138549805;-;-;-;-;-;-;-;-;-;-;-;-;-;-;-
1514174607040;-;-;9.372589;-0.8162384;0.1251831;-;-;-;-;-;-;-;-;-;-;-;-;-;-;-
1514174607061;-;-;9.286407;-0.88327026;0.3598175;-;-;-;-;-;-;-;-;-;-;-;-;-;-;-
1514174607081;-;-;9.373795;-0.8246155;0.31552124;-;-;-;-;-;-;-;-;-;-;-;-;-;-;-
1514174607101;-;-;9.092468;-0.86531067;-0.16571045;-;-;-;-;-;-;-;-;-;-;-;-;-;-;-
1514174607121;-;-;9.273239;-0.80784607;-0.11543274;-;-;-;-;-;-;-;-;-;-;-;-;-;-;-
1514174607142;-;-;9.133179;-0.59477234;0.015045166;-;-;-;-;-;-;-;-;-;-;-;-;-;-;-
1514174607162;-;-;9.347458;-0.59477234;0.089263916;-;-;-;-;-;-;-;-;-;-;-;-;-;-;-
1514174607182;-;-;9.471954;-0.5217438;-0.40034485;-;-;-;-;-;-;-;-;-;-;-;-;-;-;-
1514174607203;-;-;9.239716;-0.6833496;-0.70440674;-;-;-;-;-;-;-;-;-;-;-;-;-;-;-
1514174607222;-;-;9.226547;-0.7767334;-0.43745422;-;-;-;-;-;-;-;-;-;-;-;-;-;-;-
1514174607242;-;-;8.975159;-0.759964;-0.58828735;-;-;-;-;-;-;-;-;-;-;-;-;-;-;-
1514174607271;-;-;9.224152;-0.8497467;-0.5858917;-;-;-;-;-;-;-;-;-;-;-;-;-;-;-
1514174607283;-;-;9.340271;-0.80545044;-0.4278717;-;-;-;-;-;-;-;-;-;-;-;-;-;-;-
1514174607303;-;-;7.143585;1.1123047;-0.77622986;-;-;-;-;-;-;-;-;-;-;-;-;-;-;-
1514174607324;-;-;9.737701;-0.22605896;-0.5918884;-;-;-;-;-;-;-;-;-;-;-;-;-;-;-
1514174607344;-;-;10.410477;-0.4547119;-0.372818;-;-;-;-;-;-;-;-;-;-;-;-;-;-;-
1514174607364;-;-;10.172256;-0.13986206;-1.3209229;-;-;-;-;-;-;-;-;-;-;-;-;-;-;-
1514174607384;-;-;10.367386;-0.17817688;-1.3197174;-;-;-;-;-;-;-;-;-;-;-;-;-;-;-
1514174607406;-;-;9.635956;-0.040512085;-1.0958557;-;-;-;-;-;-;-;-;-;-;-;-;-;-;-
1514174607425;-;-;9.467163;-0.3768921;-0.93066406;-;-;-;-;-;-;-;-;-;-;-;-;-;-;-
1514174607445;-;-;9.267242;-0.621109;-0.82292175;-;-;-;-;-;-;-;-;-;-;-;-;-;-;-
1514174607466;-;-;9.124786;-0.65940857;-0.95339966;-;-;-;-;-;-;-;-;-;-;-;-;-;-;-
1514174607486;-;-;8.938049;-0.878479;-0.3584442;-;-;-;-;-;-;-;-;-;-;-;-;-;-;-
1514174607506;-;-;9.260071;-0.8461609;-0.75109863;-;-;-;-;-;-;-;-;-;-;-;-;-;-;-
1514174607527;-;-;9.15831;-0.91319275;-0.9402313;-;-;-;-;-;-;-;-;-;-;-;-;-;-;-
1514174607547;-;-;9.044586;-0.9562988;-1.1293793;-;-;-;-;-;-;-;-;-;-;-;-;-;-;-
1514174607567;-;-;9.210983;-1.0891724;-1.0683289;-;-;-;-;-;-;-;-;-;-;-;-;-;-;-
1514174607588;-;-;9.483917;-1.4698486;-1.0886841;-;-;-;-;-;-;-;-;-;-;-;-;-;-;-
1514174607608;-;-;9.12001;-1.3549194;-1.2095795;-;-;-;-;-;-;-;-;-;-;-;-;-;-;-
1514174607628;-;-;9.019455;-0.7491913;-1.3328857;-;-;-;-;-;-;-;-;-;-;-;-;-;-;-
1514174607649;-;-;8.756088;-0.54927063;-1.3388672;-;-;-;-;-;-;-;-;-;-;-;-;-;-;-
1514174607669;-;-;8.916504;-0.050079346;-2.3157043;-;-;-;-;-;-;-;-;-;-;-;-;-;-;-
1514174607689;-;-;10.153107;-0.4882202;-1.3664093;-;-;-;-;-;-;-;-;-;-;-;-;-;-;-
1514174607710;-;-;9.036209;-0.38287354;-1.4537964;-;-;-;-;-;-;-;-;-;-;-;-;-;-;-
1514174607730;-;-;9.105637;0.39404297;-1.6884308;-;-;-;-;-;-;-;-;-;-;-;-;-;-;-
1514174607750;-;-;9.485123;0.51493835;-1.8883362;-;-;-;-;-;-;-;-;-;-;-;-;-;-;-
1514174607770;-;-;9.723343;0.09715271;-1.7315216;-;-;-;-;-;-;-;-;-;-;-;-;-;-;-
1514174607791;-;-;9.143951;-0.8425598;-1.1293793;-;-;-;-;-;-;-;-;-;-;-;-;-;-;-
1514174607811;-;-;9.407303;-0.8174286;-1.195221;-;-;-;-;-;-;-;-;-;-;-;-;-;-;-
1514174607831;-;-;9.257675;-0.015365601;-1.0491791;-;-;-;-;-;-;-;-;-;-;-;-;-;-;-
1514174607852;-;-;9.3103485;-0.0045928955;-0.93904114;-;-;-;-;-;-;-;-;-;-;-;-;-;-;-
1514174607871;-;-;9.3893585;0.08279419;-1.9302368;-;-;-;-;-;-;-;-;-;-;-;-;-;-;-
1514174607891;-;-;9.127182;-0.0010070801;-1.3628082;-;-;-;-;-;-;-;-;-;-;-;-;-;-;-
1514174607911;-;-;9.035004;0.100753784;-1.1724701;-;-;-;-;-;-;-;-;-;-;-;-;-;-;-
1514174607931;-;-;9.117615;-0.035720825;-1.5986481;-;-;-;-;-;-;-;-;-;-;-;-;-;-;-
1514174607952;-;-;8.56694;-0.4487152;-1.9446106;-;-;-;-;-;-;-;-;-;-;-;-;-;-;-
1514174607972;-;-;9.127182;-0.7587738;-2.0619202;-;-;-;-;-;-;-;-;-;-;-;-;-;-;-
1514174607993;-;-;10.370972;-1.4566803;-2.5359802;-;-;-;-;-;-;-;-;-;-;-;-;-;-;-
1514174608013;-;-;8.526245;0.16539001;-1.4047089;-;-;-;-;-;-;-;-;-;-;-;-;-;-;-
1514174608033;-;-;8.829102;0.76753235;-1.5363922;-;-;-;-;-;-;-;-;-;-;-;-;-;-;-
1514174608053;-;-;8.460403;0.75675964;-0.6218109;-;-;-;-;-;-;-;-;-;-;-;-;-;-;-
1514174608074;-;-;8.003113;-0.19134521;-1.0755157;-;-;-;-;-;-;-;-;-;-;-;-;-;-;-
1514174608094;-;-;8.967972;0.3317871;-1.1832428;-;-;-;-;-;-;-;-;-;-;-;-;-;-;-
1514174608114;-;-;9.985504;-0.1410675;-1.2203674;-;-;-;-;-;-;-;-;-;-;-;-;-;-;-
1514174608134;-;-;9.322311;-0.066848755;-1.8296814;-;-;-;-;-;-;-;-;-;-;-;-;-;-;-
1514174608156;-;-;8.997894;0.6717682;-1.5782928;-;-;-;-;-;-;-;-;-;-;-;-;-;-;-
1514174608175;-;-;8.893753;1.7695007;-0.85523987;-;-;-;-;-;-;-;-;-;-;-;-;-;-;-
1514174608195;-;-;8.507095;1.537262;-1.9158783;-;-;-;-;-;-;-;-;-;-;-;-;-;-;-
1514174608216;-;-;7.9264984;1.4977722;-1.1832428;-;-;-;-;-;-;-;-;-;-;-;-;-;-;-
1514174608236;-;-;8.140778;1.1206818;-1.1688843;-;-;-;-;-;-;-;-;-;-;-;-;-;-;-
1514174608256;-;-;8.837494;0.7651367;-1.045578;-;-;-;-;-;-;-;-;-;-;-;-;-;-;-
1514174608277;-;-;8.880585;0.02293396;-1.6333618;-;-;-;-;-;-;-;-;-;-;-;-;-;-;-
1514174608297;-;-;8.557373;0.43115234;-2.1313477;-;-;-;-;-;-;-;-;-;-;-;-;-;-;-
1514174608317;-;-;9.291183;0.56521606;-2.13974;-;-;-;-;-;-;-;-;-;-;-;-;-;-;-
1514174608338;-;-;9.169083;-0.39006042;-2.270218;-;-;-;-;-;-;-;-;-;-;-;-;-;-;-
1514174608358;-;-;8.469971;-1.9642487;-1.6728668;-;-;-;-;-;-;-;-;-;-;-;-;-;-;-
1514174608378;-;-;10.270416;-3.2295837;-3.468521;-;-;-;-;-;-;-;-;-;-;-;-;-;-;-
1514174608399;-;-;11.396896;-3.3828125;-3.298523;-;-;-;-;-;-;-;-;-;-;-;-;-;-;-
1514174608419;-;-;7.1723175;-0.45829773;-0.67567444;-;-;-;-;-;-;-;-;-;-;-;-;-;-;-
1514174608439;-;-;7.5709534;-0.10874939;-0.5499878;-;-;-;-;-;-;-;-;-;-;-;-;-;-;-
1514174608460;-;-;8.502304;-0.085998535;-2.7239227;-;-;-;-;-;-;-;-;-;-;-;-;-;-;-
1514174608480;-;-;8.462799;-0.08001709;-1.7626495;-;-;-;-;-;-;-;-;-;-;-;-;-;-;-
1514174608501;-;-;9.115219;-0.33021545;-3.168045;-;-;-;-;-;-;-;-;-;-;-;-;-;-;-
1514174608520;-;-;8.455612;-0.625885;-2.3923187;-;-;-;-;-;-;-;-;-;-;-;-;-;-;-
1514174608540;-;-;7.4596252;-0.759964;-2.5503387;-;-;-;-;-;-;-;-;-;-;-;-;-;-;-
1514174608561;-;-;7.6583405;-1.1059265;-2.7622223;-;-;-;-;-;-;-;-;-;-;-;-;-;-;-
1514174608581;-;-;7.308792;-1.0460815;-3.0555115;-;-;-;-;-;-;-;-;-;-;-;-;-;-;-
1514174608601;-;-;7.3135834;-0.77552795;-3.3428192;-;-;-;-;-;-;-;-;-;-;-;-;-;-;-
1514174608621;-;-;7.0107117;-0.48942566;-3.8228607;-;-;-;-;-;-;-;-;-;-;-;-;-;-;-
1514174608641;-;-;6.308014;-0.33380127;-3.9736938;-;-;-;-;-;-;-;-;-;-;-;-;-;-;-
1514174608662;-;-;6.130844;-0.34936523;-3.4768982;-;-;-;-;-;-;-;-;-;-;-;-;-;-;-
1514174608682;-;-;5.9345245;-0.5744171;-2.9956665;-;-;-;-;-;-;-;-;-;-;-;-;-;-;-
1514174608702;-;-;5.766922;-1.3297882;-3.3200684;-;-;-;-;-;-;-;-;-;-;-;-;-;-;-
1514174608723;-;-;5.5406647;-1.9486847;-3.7115326;-;-;-;-;-;-;-;-;-;-;-;-;-;-;-
1514174608742;-;-;5.708267;-2.2335968;-4.2155;-;-;-;-;-;-;-;-;-;-;-;-;-;-;-
1514174608762;-;-;6.347519;-1.8948212;-4.899048;-;-;-;-;-;-;-;-;-;-;-;-;-;-;-
1514174608782;-;-;7.1531677;-0.8892517;-5.2521973;-;-;-;-;-;-;-;-;-;-;-;-;-;-;-
1514174608803;-;-;7.114853;-0.06803894;-5.16481;-;-;-;-;-;-;-;-;-;-;-;-;-;-;-
1514174608823;-;-;7.02269;0.5520477;-5.3000793;-;-;-;-;-;-;-;-;-;-;-;-;-;-;-
1514174608843;-;-;6.419342;0.512558;-5.096573;-;-;-;-;-;-;-;-;-;-;-;-;-;-;-
1514174608864;-;-;7.086136;-0.3002777;-5.377884;-;-;-;-;-;-;-;-;-;-;-;-;-;-;-
1514174608884;-;-;7.312378;-1.4961853;-5.5335083;-;-;-;-;-;-;-;-;-;-;-;-;-;-;-
1514174608904;-;-;7.312378;-2.5652008;-5.771744;-;-;-;-;-;-;-;-;-;-;-;-;-;-;-
1514174608925;-;-;7.6380005;-3.0572052;-5.345566;-;-;-;-;-;-;-;-;-;-;-;-;-;-;-
1514174608944;-;-;7.4560394;-2.399994;-5.116928;-;-;-;-;-;-;-;-;-;-;-;-;-;-;-
1514174608964;-;-;6.6384125;-0.7503967;-4.8942566;-;-;-;-;-;-;-;-;-;-;-;-;-;-;-
1514174608984;-;-;6.276886;-0.085998535;-5.349167;-;-;-;-;-;-;-;-;-;-;-;-;-;-;-
1514174609005;-;-;6.201477;0.08279419;-6.246994;-;-;-;-;-;-;-;-;-;-;-;-;-;-;-
1514174609025;-;-;6.2302094;-0.13388062;-6.74617;-;-;-;-;-;-;-;-;-;-;-;-;-;-;-
1514174609045;-;-;6.2469635;-0.28471375;-6.9855957;-;-;-;-;-;-;-;-;-;-;-;-;-;-;-
1514174609066;-;-;6.704254;-0.25837708;-7.2142487;-;-;-;-;-;-;-;-;-;-;-;-;-;-;-
1514174609086;-;-;7.4213104;-0.29309082;-7.357895;-;-;-;-;-;-;-;-;-;-;-;-;-;-;-
1514174609106;-;-;7.7421417;-0.18536377;-7.718216;-;-;-;-;-;-;-;-;-;-;-;-;-;-;-
1514174609127;-;-;7.33992;0.4191742;-7.975601;-;-;-;-;-;-;-;-;-;-;-;-;-;-;-
1514174609146;-;-;7.442871;0.17855835;-7.9408875;-;-;-;-;-;-;-;-;-;-;-;-;-;-;-
1514174609166;-;-;6.9664154;-0.7671509;-8.780045;-;-;-;-;-;-;-;-;-;-;-;-;-;-;-
1514174609186;-;-;6.9951477;-0.82341003;-8.56337;-;-;-;-;-;-;-;-;-;-;-;-;-;-;-
1514174609207;-;-;7.185486;-0.22845459;-7.931305;-;-;-;-;-;-;-;-;-;-;-;-;-;-;-
1514174609227;-;-;7.351883;-0.26197815;-7.4955597;-;-;-;-;-;-;-;-;-;-;-;-;-;-;-
1514174609247;-;-;7.521881;-1.0508575;-7.7912445;-;-;-;-;-;-;-;-;-;-;-;-;-;-;-
1514174609268;-;-;7.8606567;-0.49061584;-8.187485;-;-;-;-;-;-;-;-;-;-;-;-;-;-;-
1514174609288;-;-;7.700241;0.6681671;-7.699066;-;-;-;-;-;-;-;-;-;-;-;-;-;-;-
1514174609308;-;-;8.048599;0.967453;-6.7126617;-;-;-;-;-;-;-;-;-;-;-;-;-;-;-
1514174609328;-;-;8.924881;0.33776855;-6.6444244;-;-;-;-;-;-;-;-;-;-;-;-;-;-;-
1514174609349;-;-;10.455963;0.045684814;-6.5259094;-;-;-;-;-;-;-;-;-;-;-;-;-;-;-
1514174609369;-;-;12.495834;0.13786316;-6.267334;-;-;-;-;-;-;-;-;-;-;-;-;-;-;-
1514174609389;-;-;13.625885;0.072021484;-6.31044;-;-;-;-;-;-;-;-;-;-;-;-;-;-;-
1514174609410;-;-;12.50061;-0.14225769;-6.9257355;-;-;-;-;-;-;-;-;-;-;-;-;-;-;-
1514174609429;-;-;11.673416;-0.8305969;-6.444504;-;-;-;-;-;-;-;-;-;-;-;-;-;-;-
1514174609449;-;-;11.84819;-0.65582275;-5.1851654;-;-;-;-;-;-;-;-;-;-;-;-;-;-;-
1514174609470;-;-;10.585251;0.115112305;-3.9605255;-;-;-;-;-;-;-;-;-;-;-;-;-;-;-
1514174609489;-;-;8.954803;0.6957092;-3.4002838;-;-;-;-;-;-;-;-;-;-;-;-;-;-;-
1514174609509;-;-;7.240555;0.58078;-2.3540192;-;-;-;-;-;-;-;-;-;-;-;-;-;-;-
1514174609530;-;-;5.702286;0.4371338;-0.69721985;-;-;-;-;-;-;-;-;-;-;-;-;-;-;-
1514174609550;-;-;5.889023;0.36410522;1.2169342;-;-;-;-;-;-;-;-;-;-;-;-;-;-;-
1514174609570;-;-;6.746155;0.37368774;1.2624207;-;-;-;-;-;-;-;-;-;-;-;-;-;-;-
1514174609590;-;-;7.9504395;0.20610046;-0.25909424;-;-;-;-;-;-;-;-;-;-;-;-;-;-;-
1514174609611;-;-;9.064941;0.08758545;-1.4825287;-;-;-;-;-;-;-;-;-;-;-;-;-;-;-
1514174609631;-;-;9.640747;0.05166626;-1.8584137;-;-;-;-;-;-;-;-;-;-;-;-;-;-;-
1514174609651;-;-;10.415268;-0.090789795;-2.3863373;-;-;-;-;-;-;-;-;-;-;-;-;-;-;-
1514174609672;-;-;10.915649;-0.2966919;-2.333664;-;-;-;-;-;-;-;-;-;-;-;-;-;-;-
1514174609692;-;-;10.625961;-0.53730774;-1.9134827;-;-;-;-;-;-;-;-;-;-;-;-;-;-;-
1514174609712;-;-;9.066132;-0.48223877;-1.447815;-;-;-;-;-;-;-;-;-;-;-;-;-;-;-
1514174609732;-;-;8.320343;-0.4259796;-0.9725647;-;-;-;-;-;-;-;-;-;-;-;-;-;-;-
1514174609753;-;-;8.255692;-0.41281128;-0.7199707;-;-;-;-;-;-;-;-;-;-;-;-;-;-;-
1514174609773;-;-;8.319138;-0.23443604;-0.7283478;-;-;-;-;-;-;-;-;-;-;-;-;-;-;-
1514174609793;-;-;8.34787;-0.093185425;-0.7080078;-;-;-;-;-;-;-;-;-;-;-;-;-;-;-
1514174609814;-;-;8.577713;-0.17459106;-0.52723694;-;-;-;-;-;-;-;-;-;-;-;-;-;-;-
1514174609834;-;-;9.039795;-0.38887024;-0.48773193;-;-;-;-;-;-;-;-;-;-;-;-;-;-;-
1514174609854;-;-;9.589264;-0.59954834;-0.377594;-;-;-;-;-;-;-;-;-;-;-;-;-;-;-
1514174609875;-;-;9.73053;-1.0113525;-0.45541382;-;-;-;-;-;-;-;-;-;-;-;-;-;-;-
1514174609895;-;-;9.628769;-1.1538086;-0.39794922;-;-;-;-;-;-;-;-;-;-;-;-;-;-;-
1514174609915;-;-;9.55336;-0.9838257;-0.14656067;-;-;-;-;-;-;-;-;-;-;-;-;-;-;-
1514174609936;-;-;9.382172;-0.64624023;-0.04600525;-;-;-;-;-;-;-;-;-;-;-;-;-;-;-
1514174609956;-;-;9.110428;-0.66659546;-0.2566986;-;-;-;-;-;-;-;-;-;-;-;-;-;-;-
1514174609976;-;-;9.251678;-0.7108917;-0.5284424;-;-;-;-;-;-;-;-;-;-;-;-;-;-;-
1514174609997;-;-;9.852631;-0.5672302;-0.66729736;-;-;-;-;-;-;-;-;-;-;-;-;-;-;-
1514174610017;-;-;9.981918;-0.37449646;-0.70321655;-;-;-;-;-;-;-;-;-;-;-;-;-;-;-
1514174610037;-;-;9.359421;-0.14944458;-0.7690582;-;-;-;-;-;-;-;-;-;-;-;-;-;-;-
1514174610057;-;-;9.025436;-0.24162292;-1.0204468;-;-;-;-;-;-;-;-;-;-;-;-;-;-;-
1514174610078;-;-;8.977554;-0.26914978;-1.3855591;-;-;-;-;-;-;-;-;-;-;-;-;-;-;-
1514174610098;-;-;8.837494;-0.109939575;-1.6620941;-;-;-;-;-;-;-;-;-;-;-;-;-;-;-
1514174610118;-;-;9.345062;-0.05368042;-1.5196381;-;-;-;-;-;-;-;-;-;-;-;-;-;-;-
1514174610138;-;-;9.491104;0.088775635;-1.6656799;-;-;-;-;-;-;-;-;-;-;-;-;-;-;-
1514174610158;-;-;9.628769;-0.038116455;-1.6872253;-;-;-;-;-;-;-;-;-;-;-;-;-;-;-
1514174610179;-;-;9.366608;0.14263916;-1.6884308;-;-;-;-;-;-;-;-;-;-;-;-;-;-;-
1514174610199;-;-;9.114014;-0.5636444;-1.5567474;-;-;-;-;-;-;-;-;-;-;-;-;-;-;-
1514174610219;-;-;8.849457;-1.6972961;-1.337677;-;-;-;-;-;-;-;-;-;-;-;-;-;-;-
1514174610240;-;-;9.538986;-1.6996918;-1.2311401;-;-;-;-;-;-;-;-;-;-;-;-;-;-;-
1514174610260;-;-;9.6622925;-1.0963593;-1.6046295;-;-;-;-;-;-;-;-;-;-;-;-;-;-;-
1514174610280;-;-;9.448013;-0.47865295;-2.0463562;-;-;-;-;-;-;-;-;-;-;-;-;-;-;-
1514174610301;-;-;9.041;-0.3984375;-2.270218;-;-;-;-;-;-;-;-;-;-;-;-;-;-;-
1514174610321;-;-;9.464767;-0.63067627;-2.326477;-;-;-;-;-;-;-;-;-;-;-;-;-;-;-
1514174610341;-;-;9.403717;-1.0017853;-2.7789917;-;-;-;-;-;-;-;-;-;-;-;-;-;-;-
1514174610362;-;-;8.831497;-0.37091064;-2.986084;-;-;-;-;-;-;-;-;-;-;-;-;-;-;-
1514174610382;-;-;8.622009;-0.5504761;-2.6784363;-;-;-;-;-;-;-;-;-;-;-;-;-;-;-
1514174610402;-;-;8.693832;-0.6689911;-2.7837677;-;-;-;-;-;-;-;-;-;-;-;-;-;-;-
1514174610422;-;-;9.1523285;-0.29908752;-2.7514496;-;-;-;-;-;-;-;-;-;-;-;-;-;-;-
1514174610443;-;-;8.845871;-0.021362305;-2.3791504;-;-;-;-;-;-;-;-;-;-;-;-;-;-;-
1514174610463;-;-;9.240906;-0.35176086;-1.2299347;-;-;-;-;-;-;-;-;-;-;-;-;-;-;-
1514174610483;-;-;9.480331;-0.54927063;-0.57032776;-;-;-;-;-;-;-;-;-;-;-;-;-;-;-
1514174610504;-;-;9.340271;-0.5097656;-0.38598633;-;-;-;-;-;-;-;-;-;-;-;-;-;-;-
1514174610524;-;-;9.108032;-0.21170044;-0.25430298;-;-;-;-;-;-;-;-;-;-;-;-;-;-;-
1514174610544;-;-;9.085281;-0.03453064;-0.1381836;-;-;-;-;-;-;-;-;-;-;-;-;-;-;-
1514174610565;-;-;8.948822;-0.035720825;-0.15614319;-;-;-;-;-;-;-;-;-;-;-;-;-;-;-
1514174610585;-;-;8.993118;-0.011779785;-0.7475128;-;-;-;-;-;-;-;-;-;-;-;-;-;-;-
1514174610605;-;-;9.151123;-0.07522583;-0.827713;-;-;-;-;-;-;-;-;-;-;-;-;-;-;-
1514174610626;-;-;9.374985;-0.33499146;-1.0108643;-;-;-;-;-;-;-;-;-;-;-;-;-;-;-
1514174610646;-;-;9.398926;-0.49899292;-1.1976166;-;-;-;-;-;-;-;-;-;-;-;-;-;-;-
1514174610666;-;-;9.400131;-0.15663147;-1.3053589;-;-;-;-;-;-;-;-;-;-;-;-;-;-;-
1514174610687;-;-;9.020645;0.17736816;-1.5328064;-;-;-;-;-;-;-;-;-;-;-;-;-;-;-
1514174610707;-;-;8.698624;-0.17219543;-1.9805145;-;-;-;-;-;-;-;-;-;-;-;-;-;-;-
1514174610727;-;-;8.697433;-0.463089;-2.7753906;-;-;-;-;-;-;-;-;-;-;-;-;-;-;-
1514174610747;-;-;8.782425;-0.48703003;-2.8747559;-;-;-;-;-;-;-;-;-;-;-;-;-;-;-
1514174610768;-;-;9.161896;-0.44752502;-2.412674;-;-;-;-;-;-;-;-;-;-;-;-;-;-;-
1514174610788;-;-;9.091278;-0.6318817;-2.0092468;-;-;-;-;-;-;-;-;-;-;-;-;-;-;-
1514174610808;-;-;9.561737;-1.0269165;-2.5539246;-;-;-;-;-;-;-;-;-;-;-;-;-;-;-
1514174610829;-;-;10.246475;-0.64863586;-2.3252869;-;-;-;-;-;-;-;-;-;-;-;-;-;-;-
1514174610849;-;-;9.699402;0.20610046;-1.4190826;-;-;-;-;-;-;-;-;-;-;-;-;-;-;-
1514174610869;-;-;9.644333;0.026535034;-1.5064697;-;-;-;-;-;-;-;-;-;-;-;-;-;-;-
1514174610890;-;-;10.470337;-0.012969971;-1.5723114;-;-;-;-;-;-;-;-;-;-;-;-;-;-;-
1514174610910;-;-;10.597229;0.048080444;-1.2502899;-;-;-;-;-;-;-;-;-;-;-;-;-;-;-
1514174610930;-;-;10.360199;-0.1530304;-0.34288025;-;-;-;-;-;-;-;-;-;-;-;-;-;-;-
1514174610951;-;-;9.185837;-0.739624;0.7368927;-;-;-;-;-;-;-;-;-;-;-;-;-;-;-
1514174610971;-;-;8.717773;-1.0724182;1.4790955;-;-;-;-;-;-;-;-;-;-;-;-;-;-;-
1514174610991;-;-;7.8391113;-1.6182861;1.9447784;-;-;-;-;-;-;-;-;-;-;-;-;-;-;-
1514174611012;-;-;7.493149;-2.0851593;1.6514893;-;-;-;-;-;-;-;-;-;-;-;-;-;-;-
1514174611032;-;-;6.948456;-2.2252197;1.9495697;-;-;-;-;-;-;-;-;-;-;-;-;-;-;-
1514174611052;-;-;7.2992096;-1.8541107;2.508606;-;-;-;-;-;-;-;-;-;-;-;-;-;-;-
1514174611072;-;-;8.259293;-1.0293121;2.015396;-;-;-;-;-;-;-;-;-;-;-;-;-;-;-
1514174611093;-;-;9.464767;-0.32661438;1.4647369;-;-;-;-;-;-;-;-;-;-;-;-;-;-;-
1514174611113;-;-;10.598419;-0.050079346;0.8111267;-;-;-;-;-;-;-;-;-;-;-;-;-;-;-
1514174611134;-;-;11.152679;-0.51934814;-0.08670044;-;-;-;-;-;-;-;-;-;-;-;-;-;-;-
1514174611154;-;-;10.649902;-1.0161438;-0.67448425;-;-;-;-;-;-;-;-;-;-;-;-;-;-;-
1514174611174;-;-;9.547363;-0.88327026;0.16229248;-;-;-;-;-;-;-;-;-;-;-;-;-;-;-
1514174611194;-;-;9.052963;-0.720459;0.7117615;-;-;-;-;-;-;-;-;-;-;-;-;-;-;-
1514174611214;-;-;8.450821;-0.40322876;0.92245483;-;-;-;-;-;-;-;-;-;-;-;-;-;-;-
1514174611235;-;-;8.285629;0.0013885498;0.80992126;-;-;-;-;-;-;-;-;-;-;-;-;-;-;-
1514174611255;-;-;8.286819;0.14863586;0.63993835;-;-;-;-;-;-;-;-;-;-;-;-;-;-;-
1514174611276;-;-;8.548981;0.03970337;0.8709717;-;-;-;-;-;-;-;-;-;-;-;-;-;-;-
1514174611296;-;-;9.250488;-0.33859253;1.1271515;-;-;-;-;-;-;-;-;-;-;-;-;-;-;-
1514174611316;-;-;9.850235;-0.5959625;1.294754;-;-;-;-;-;-;-;-;-;-;-;-;-;-;-
1514174611336;-;-;9.89093;-0.62350464;1.0804749;-;-;-;-;-;-;-;-;-;-;-;-;-;-;-
1514174611357;-;-;9.568924;-0.38287354;0.84942627;-;-;-;-;-;-;-;-;-;-;-;-;-;-;-
1514174611377;-;-;9.133179;-0.20570374;0.681839;-;-;-;-;-;-;-;-;-;-;-;-;-;-;-
1514174611397;-;-;8.926071;-0.24401855;0.7931671;-;-;-;-;-;-;-;-;-;-;-;-;-;-;-
1514174611418;-;-;8.878189;-0.4163971;0.9499817;-;-;-;-;-;-;-;-;-;-;-;-;-;-;-
1514174611438;-;-;9.008667;-0.5133667;1.0074463;-;-;-;-;-;-;-;-;-;-;-;-;-;-;-
1514174611458;-;-;8.934448;-0.4666748;1.2241211;-;-;-;-;-;-;-;-;-;-;-;-;-;-;-
1514174611479;-;-;8.969162;-0.39006042;1.3869324;-;-;-;-;-;-;-;-;-;-;-;-;-;-;-
1514174611499;-;-;9.25528;-0.30387878;1.1139832;-;-;-;-;-;-;-;-;-;-;-;-;-;-;-
1514174611519;-;-;9.464767;-0.121917725;1.1020203;-;-;-;-;-;-;-;-;-;-;-;-;-;-;-
1514174611539;-;-;9.637146;-0.15065002;1.3222809;-;-;-;-;-;-;-;-;-;-;-;-;-;-;-
1514174611560;-;-;9.398926;-0.19374084;1.339035;-;-;-;-;-;-;-;-;-;-;-;-;-;-;-
1514174611579;-;-;9.106842;-0.26316833;1.2660217;-;-;-;-;-;-;-;-;-;-;-;-;-;-;-
1514174611599;-;-;9.15712;-0.368515;1.3019257;-;-;-;-;-;-;-;-;-;-;-;-;-;-;-
1514174611620;-;-;9.202606;-0.67855835;1.2456665;-;-;-;-;-;-;-;-;-;-;-;-;-;-;-
1514174611639;-;-;9.276825;-0.9263611;1.1977844;-;-;-;-;-;-;-;-;-;-;-;-;-;-;-
1514174611659;-;-;9.284012;-0.9945984;1.20018;-;-;-;-;-;-;-;-;-;-;-;-;-;-;-
1514174611680;-;-;9.108032;-0.7623596;1.2037659;-;-;-;-;-;-;-;-;-;-;-;-;-;-;-
1514174611700;-;-;9.020645;-0.4918213;1.2384796;-;-;-;-;-;-;-;-;-;-;-;-;-;-;-
1514174611720;-;-;9.080505;-0.40083313;1.3139038;-;-;-;-;-;-;-;-;-;-;-;-;-;-;-
1514174611740;-;-;9.23613;-0.36372375;1.3462219;-;-;-;-;-;-;-;-;-;-;-;-;-;-;-
1514174611761;-;-;9.31633;-0.40083313;1.4276276;-;-;-;-;-;-;-;-;-;-;-;-;-;-;-
1514174611781;-;-;9.331894;-0.45948792;1.4515686;-;-;-;-;-;-;-;-;-;-;-;-;-;-;-
1514174611802;-;-;9.173874;-0.5780029;1.5102234;-;-;-;-;-;-;-;-;-;-;-;-;-;-;-
1514174611822;-;-;9.129578;-0.7503967;1.6119843;-;-;-;-;-;-;-;-;-;-;-;-;-;-;-
1514174611842;-;-;9.149933;-0.87249756;1.6323242;-;-;-;-;-;-;-;-;-;-;-;-;-;-;-
1514174611863;-;-;9.121201;-0.7815094;1.5784607;-;-;-;-;-;-;-;-;-;-;-;-;-;-;-
1514174611883;-;-;9.099655;-0.6941223;1.5652924;-;-;-;-;-;-;-;-;-;-;-;-;-;-;-
1514174611903;-;-;9.07811;-0.6079407;1.6730347;-;-;-;-;-;-;-;-;-;-;-;-;-;-;-
1514174611924;-;-;9.014664;-0.6043396;1.7484436;-;-;-;-;-;-;-;-;-;-;-;-;-;-;-
1514174611944;-;-;8.965576;-0.6546173;1.6718292;-;-;-;-;-;-;-;-;-;-;-;-;-;-;-
1514174611964;-;-;9.082901;-0.8066559;1.7041626;-;-;-;-;-;-;-;-;-;-;-;-;-;-;-
1514174611985;-;-;9.193024;-0.8856659;1.7304993;-;-;-;-;-;-;-;-;-;-;-;-;-;-;-
1514174612005;-;-;9.151123;-0.9263611;1.7460632;-;-;-;-;-;-;-;-;-;-;-;-;-;-;-
1514174612025;-;-;9.07811;-0.8964386;1.7472534;-;-;-;-;-;-;-;-;-;-;-;-;-;-;-
1514174612046;-;-;9.06015;-0.8712921;1.528183;-;-;-;-;-;-;-;-;-;-;-;-;-;-;-
1514174612065;-;-;9.2313385;-0.9263611;1.3055267;-;-;-;-;-;-;-;-;-;-;-;-;-;-;-
1514174612085;-;-;9.446808;-0.86172485;1.5641022;-;-;-;-;-;-;-;-;-;-;-;-;-;-;-
1514174612105;-;-;9.293579;-0.77911377;1.7376709;-;-;-;-;-;-;-;-;-;-;-;-;-;-;-
1514174612126;-;-;8.917694;-0.6821594;1.7161255;-;-;-;-;-;-;-;-;-;-;-;-;-;-;-
1514174612146;-;-;8.8003845;-0.5432892;1.5808563;-;-;-;-;-;-;-;-;-;-;-;-;-;-;-
1514174612166;-;-;8.914108;-0.4044342;1.5102234;-;-;-;-;-;-;-;-;-;-;-;-;-;-;-
1514174612187;-;-;9.1523285;-0.40322876;1.5245972;-;-;-;-;-;-;-;-;-;-;-;-;-;-;-
1514174612207;-;-;9.203796;-0.3002777;1.5664978;-;-;-;-;-;-;-;-;-;-;-;-;-;-;-
1514174612227;-;-;9.130783;-0.31584167;1.5820465;-;-;-;-;-;-;-;-;-;-;-;-;-;-;-
1514174612248;-;-;9.134369;-0.36732483;1.5317688;-;-;-;-;-;-;-;-;-;-;-;-;-;-;-
1514174612268;-;-;9.127182;-0.35176086;1.5090332;-;-;-;-;-;-;-;-;-;-;-;-;-;-;-
1514174612288;-;-;9.0733185;-0.33499146;1.5688782;-;-;-;-;-;-;-;-;-;-;-;-;-;-;-
1514174612309;-;-;9.003891;-0.25;1.6024017;-;-;-;-;-;-;-;-;-;-;-;-;-;-;-
1514174612329;-;-;9.051773;-0.289505;1.4994507;-;-;-;-;-;-;-;-;-;-;-;-;-;-;-
1514174612349;-;-;9.137955;-0.41041565;1.370163;-;-;-;-;-;-;-;-;-;-;-;-;-;-;-
1514174612370;-;-;9.185837;-0.53730774;1.3210907;-;-;-;-;-;-;-;-;-;-;-;-;-;-;-
1514174612390;-;-;9.209793;-0.54089355;1.4204407;-;-;-;-;-;-;-;-;-;-;-;-;-;-;-
1514174612411;-;-;9.232529;-0.59954834;1.4060822;-;-;-;-;-;-;-;-;-;-;-;-;-;-;-
1514174612431;-;-;9.216965;-0.6522217;1.3426361;-;-;-;-;-;-;-;-;-;-;-;-;-;-;-
1514174612451;-;-;9.13916;-0.77552795;1.2169342;-;-;-;-;-;-;-;-;-;-;-;-;-;-;-
1514174612471;-;-;9.141556;-0.82221985;1.20018;-;-;-;-;-;-;-;-;-;-;-;-;-;-;-
1514174612492;-;-;9.178665;-0.87968445;1.2025757;-;-;-;-;-;-;-;-;-;-;-;-;-;-;-
1514174612512;-;-;9.274429;-0.88446045;1.2241211;-;-;-;-;-;-;-;-;-;-;-;-;-;-;-
1514174612532;-;-;9.25647;-0.9143982;1.1738434;-;-;-;-;-;-;-;-;-;-;-;-;-;-;-
1514174612553;-;-;9.21817;-0.89164734;1.1331329;-;-;-;-;-;-;-;-;-;-;-;-;-;-;-
1514174612573;-;-;9.1918335;-0.95269775;1.1080017;-;-;-;-;-;-;-;-;-;-;-;-;-;-;-
1514174612593;-;-;9.261261;-0.9371338;1.0900421;-;-;-;-;-;-;-;-;-;-;-;-;-;-;-
1514174612614;-;-;9.309143;-0.94911194;1.1199646;-;-;-;-;-;-;-;-;-;-;-;-;-;-;-
1514174612634;-;-;9.239716;-0.9646759;1.112793;-;-;-;-;-;-;-;-;-;-;-;-;-;-;-
1514174612654;-;-;9.226547;-0.93473816;1.0960236;-;-;-;-;-;-;-;-;-;-;-;-;-;-;-
1514174612675;-;-;9.222961;-0.96707153;1.1678619;-;-;-;-;-;-;-;-;-;-;-;-;-;-;-
1514174612694;-;-;9.214569;-0.973053;1.2169342;-;-;-;-;-;-;-;-;-;-;-;-;-;-;-
1514174612714;-;-;9.142746;-0.9766388;1.2372894;-;-;-;-;-;-;-;-;-;-;-;-;-;-;-
1514174612734;-;-;9.166687;-1.0149536;1.2720032;-;-;-;-;-;-;-;-;-;-;-;-;-;-;-
1514174612755;-;-;9.185837;-1.0257263;1.2983398;-;-;-;-;-;-;-;-;-;-;-;-;-;-;-
1514174612775;-;-;9.170288;-1.0173492;1.3186951;-;-;-;-;-;-;-;-;-;-;-;-;-;-;-
1514174612795;-;-;9.194229;-0.96946716;1.3294678;-;-;-;-;-;-;-;-;-;-;-;-;-;-;-
1514174612816;-;-;9.213379;-0.8485565;1.3186951;-;-;-;-;-;-;-;-;-;-;-;-;-;-;-
1514174612835;-;-;9.17627;-0.8210144;1.2648163;-;-;-;-;-;-;-;-;-;-;-;-;-;-;-
1514174612855;-;-;9.15831;-0.80784607;1.3007355;-;-;-;-;-;-;-;-;-;-;-;-;-;-;-
1514174612876;-;-;9.164291;-0.7803192;1.251648;-;-;-;-;-;-;-;-;-;-;-;-;-;-;-
1514174612896;-;-;9.175064;-0.7444;1.1726379;-;-;-;-;-;-;-;-;-;-;-;-;-;-;-
1514174612916;-;-;9.209793;-0.7767334;1.1714478;-;-;-;-;-;-;-;-;-;-;-;-;-;-;-
1514174612936;-;-;9.21936;-0.78271484;1.1714478;-;-;-;-;-;-;-;-;-;-;-;-;-;-;-
1514174612957;-;-;9.227737;-0.80426025;1.160675;-;-;-;-;-;-;-;-;-;-;-;-;-;-;-
1514174612977;-;-;9.203796;-0.8282013;1.191803;-;-;-;-;-;-;-;-;-;-;-;-;-;-;-
1514174612998;-;-;9.189438;-0.81144714;1.2612305;-;-;-;-;-;-;-;-;-;-;-;-;-;-;-
1514174613018;-;-;9.1918335;-0.76116943;1.1989746;-;-;-;-;-;-;-;-;-;-;-;-;-;-;-
1514174613038;-;-;9.209793;-0.7491913;1.1319427;-;-;-;-;-;-;-;-;-;-;-;-;-;-;-
1514174613059;-;-;9.179855;-0.6905365;1.1379242;-;-;-;-;-;-;-;-;-;-;-;-;-;-;-
1514174613079;-;-;9.163101;-0.63427734;1.2169342;-;-;-;-;-;-;-;-;-;-;-;-;-;-;-
1514174613099;-;-;9.149933;-0.66300964;1.2492523;-;-;-;-;-;-;-;-;-;-;-;-;-;-;-
1514174613119;-;-;9.159515;-0.6977234;1.2576447;-;-;-;-;-;-;-;-;-;-;-;-;-;-;-
1514174613140;-;-;9.183456;-0.7551727;1.2420807;-;-;-;-;-;-;-;-;-;-;-;-;-;-;-
1514174613160;-;-;9.189438;-0.7013092;1.1858063;-;-;-;-;-;-;-;-;-;-;-;-;-;-;-
1514174613181;-;-;9.230133;-0.7264557;1.2229156;-;-;-;-;-;-;-;-;-;-;-;-;-;-;-
1514174613201;-;-;9.182251;-0.6977234;1.2672119;-;-;-;-;-;-;-;-;-;-;-;-;-;-;-
1514174613221;-;-;9.215775;-0.7779236;1.2372894;-;-;-;-;-;-;-;-;-;-;-;-;-;-;-
1514174613241;-;-;9.143951;-0.77911377;1.2265167;-;-;-;-;-;-;-;-;-;-;-;-;-;-;-
1514174613262;-;-;9.146347;-0.80426025;1.2743988;-;-;-;-;-;-;-;-;-;-;-;-;-;-;-
1514174613282;-;-;9.179855;-0.76834106;1.2672119;-;-;-;-;-;-;-;-;-;-;-;-;-;-;-
1514174613302;-;-;9.187042;-0.7491913;1.270813;-;-;-;-;-;-;-;-;-;-;-;-;-;-;-
1514174613323;-;-;9.182251;-0.76834106;1.275589;-;-;-;-;-;-;-;-;-;-;-;-;-;-;-
1514174613342;-;-;9.17746;-0.7815094;1.3270721;-;-;-;-;-;-;-;-;-;-;-;-;-;-;-
1514174613362;-;-;9.17746;-0.7587738;1.3234863;-;-;-;-;-;-;-;-;-;-;-;-;-;-;-
1514174613383;-;-;9.1523285;-0.79467773;1.3210907;-;-;-;-;-;-;-;-;-;-;-;-;-;-;-
1514174613402;-;-;9.127182;-0.84376526;1.3510132;-;-;-;-;-;-;-;-;-;-;-;-;-;-;-
1514174613422;-;-;9.148727;-0.80784607;1.3641815;-;-;-;-;-;-;-;-;-;-;-;-;-;-;-
1514174613442;-;-;9.165497;-0.8018646;1.3629761;-;-;-;-;-;-;-;-;-;-;-;-;-;-;-
1514174613463;-;-;9.155914;-0.83299255;1.3246765;-;-;-;-;-;-;-;-;-;-;-;-;-;-;-
1514174613482;-;-;9.17746;-0.85095215;1.3677673;-;-;-;-;-;-;-;-;-;-;-;-;-;-;-
1514174613502;-;-;9.17627;-0.8018646;1.3366547;-;-;-;-;-;-;-;-;-;-;-;-;-;-;-
1514174613522;-;-;9.135559;-0.8270111;1.3486176;-;-;-;-;-;-;-;-;-;-;-;-;-;-;-
1514174613543;-;-;9.181061;-0.79348755;1.3210907;-;-;-;-;-;-;-;-;-;-;-;-;-;-;-
1514174613563;-;-;9.159515;-0.8581238;1.330658;-;-;-;-;-;-;-;-;-;-;-;-;-;-;-
1514174613584;-;-;9.103241;-0.8353882;1.354599;-;-;-;-;-;-;-;-;-;-;-;-;-;-;-
1514174613604;-;-;9.15831;-0.83299255;1.3797455;-;-;-;-;-;-;-;-;-;-;-;-;-;-;-
1514174613624;-;-;9.209793;-0.8868561;1.3055267;-;-;-;-;-;-;-;-;-;-;-;-;-;-;-
1514174613644;-;-;9.1918335;-0.9000244;1.2528534;-;-;-;-;-;-;-;-;-;-;-;-;-;-;-
1514174613664;-;-;9.200211;-0.83299255;1.3162994;-;-;-;-;-;-;-;-;-;-;-;-;-;-;-
1514174613685;-;-;9.201401;-0.7922821;1.334259;-;-;-;-;-;-;-;-;-;-;-;-;-;-;-
1514174613705;-;-;9.167892;-0.76475525;1.3162994;-;-;-;-;-;-;-;-;-;-;-;-;-;-;-
1514174613725;-;-;9.155914;-0.79467773;1.310318;-;-;-;-;-;-;-;-;-;-;-;-;-;-;-
1514174613746;-;-;9.128387;-0.878479;1.3282623;-;-;-;-;-;-;-;-;-;-;-;-;-;-;-
1514174613766;-;-;9.147537;-0.8976288;1.2851715;-;-;-;-;-;-;-;-;-;-;-;-;-;-;-
1514174613786;-;-;9.128387;-0.8988342;1.3486176;-;-;-;-;-;-;-;-;-;-;-;-;-;-;-
1514174613807;-;-;9.194229;-0.8892517;1.315094;-;-;-;-;-;-;-;-;-;-;-;-;-;-;-
1514174613827;-;-;9.189438;-0.8485565;1.3354492;-;-;-;-;-;-;-;-;-;-;-;-;-;-;-
1514174613847;-;-;9.1918335;-0.8688965;1.3294678;-;-;-;-;-;-;-;-;-;-;-;-;-;-;-
1514174613867;-;-;9.183456;-0.8665161;1.3091125;-;-;-;-;-;-;-;-;-;-;-;-;-;-;-
1514174613888;-;-;9.141556;-0.8677063;1.3115082;-;-;-;-;-;-;-;-;-;-;-;-;-;-;-
1514174613908;-;-;9.149933;-0.8210144;1.3558044;-;-;-;-;-;-;-;-;-;-;-;-;-;-;-
1514174613929;-;-;9.143951;-0.8820648;1.3522034;-;-;-;-;-;-;-;-;-;-;-;-;-;-;-
1514174613949;-;-;9.160706;-0.8641205;1.334259;-;-;-;-;-;-;-;-;-;-;-;-;-;-;-
1514174613969;-;-;9.183456;-0.9371338;1.2875671;-;-;-;-;-;-;-;-;-;-;-;-;-;-;-
1514174613989;-;-;9.215775;-0.89045715;1.339035;-;-;-;-;-;-;-;-;-;-;-;-;-;-;-
1514174614010;-;-;9.164291;-0.8665161;1.310318;-;-;-;-;-;-;-;-;-;-;-;-;-;-;-
1514174614030;-;-;9.143951;-0.8665161;1.3402405;-;-;-;-;-;-;-;-;-;-;-;-;-;-;-
1514174614050;-;-;9.117615;-0.9048157;1.3294678;-;-;-;-;-;-;-;-;-;-;-;-;-;-;-
1514174614071;-;-;9.194229;-0.9251709;1.3258667;-;-;-;-;-;-;-;-;-;-;-;-;-;-;-
1514174614091;-;-;9.182251;-0.9215698;1.3091125;-;-;-;-;-;-;-;-;-;-;-;-;-;-;-
1514174614112;-;-;9.169083;-0.8198242;1.3569946;-;-;-;-;-;-;-;-;-;-;-;-;-;-;-
1514174614132;-;-;9.172684;-0.8018646;1.413269;-;-;-;-;-;-;-;-;-;-;-;-;-;-;-
1514174614152;-;-;9.171478;-0.7922821;1.2839813;-;-;-;-;-;-;-;-;-;-;-;-;-;-;-
1514174614173;-;-;9.149933;-0.8605194;1.2899628;-;-;-;-;-;-;-;-;-;-;-;-;-;-;-
1514174614193;-;-;9.099655;-0.87968445;1.3582001;-;-;-;-;-;-;-;-;-;-;-;-;-;-;-
1514174614213;-;-;9.17627;-0.88446045;1.4012909;-;-;-;-;-;-;-;-;-;-;-;-;-;-;-
1514174614234;-;-;9.251678;-0.88446045;1.3186951;-;-;-;-;-;-;-;-;-;-;-;-;-;-;-
1514174614254;-;-;9.15712;-0.91200256;1.2384796;-;-;-;-;-;-;-;-;-;-;-;-;-;-;-
1514174614274;-;-;9.143951;-0.95150757;1.29953;-;-;-;-;-;-;-;-;-;-;-;-;-;-;-
1514174614294;-;-;9.183456;-0.9371338;1.3450317;-;-;-;-;-;-;-;-;-;-;-;-;-;-;-
1514174614315;-;-;9.169083;-0.917984;1.4240417;-;-;-;-;-;-;-;-;-;-;-;-;-;-;-
1514174614335;-;-;9.111618;-0.9060211;1.4120636;-;-;-;-;-;-;-;-;-;-;-;-;-;-;-
1514174614355;-;-;9.173874;-0.88446045;1.3761444;-;-;-;-;-;-;-;-;-;-;-;-;-;-;-
1514174614376;-;-;9.160706;-0.85095215;1.3270721;-;-;-;-;-;-;-;-;-;-;-;-;-;-;-
1514174614396;-;-;9.187042;-0.86172485;1.3162994;-;-;-;-;-;-;-;-;-;-;-;-;-;-;-
1514174614416;-;-;9.208588;-0.8605194;1.3043213;-;-;-;-;-;-;-;-;-;-;-;-;-;-;-
1514174614437;-;-;9.221756;-0.8353882;1.3486176;-;-;-;-;-;-;-;-;-;-;-;-;-;-;-
1514174614457;-;-;9.184647;-0.8413696;1.2923584;-;-;-;-;-;-;-;-;-;-;-;-;-;-;-
1514174614477;-;-;9.185837;-0.9191742;1.2779846;-;-;-;-;-;-;-;-;-;-;-;-;-;-;-
1514174614497;-;-;9.169083;-0.9251709;1.2732086;-;-;-;-;-;-;-;-;-;-;-;-;-;-;-
1514174614518;-;-;9.165497;-0.92277527;1.2732086;-;-;-;-;-;-;-;-;-;-;-;-;-;-;-
1514174614538;-;-;9.142746;-0.9431305;1.3043213;-;-;-;-;-;-;-;-;-;-;-;-;-;-;-
1514174614558;-;-;9.148727;-0.9371338;1.3210907;-;-;-;-;-;-;-;-;-;-;-;-;-;-;-
1514174614579;-;-;9.142746;-0.9191742;1.3881226;-;-;-;-;-;-;-;-;-;-;-;-;-;-;-
1514174614599;-;-;9.167892;-0.8868561;1.3929138;-;-;-;-;-;-;-;-;-;-;-;-;-;-;-
1514174614619;-;-;9.169083;-0.8425598;1.3653717;-;-;-;-;-;-;-;-;-;-;-;-;-;-;-
1514174614639;-;-;9.13916;-0.838974;1.3677673;-;-;-;-;-;-;-;-;-;-;-;-;-;-;-
1514174614660;-;-;9.163101;-0.8497467;1.3019257;-;-;-;-;-;-;-;-;-;-;-;-;-;-;-
1514174614679;-;-;9.17627;-0.8701019;1.3677673;-;-;-;-;-;-;-;-;-;-;-;-;-;-;-
1514174614701;-;-;9.166687;-0.8581238;1.354599;-;-;-;-;-;-;-;-;-;-;-;-;-;-;-
1514174614720;-;-;9.170288;-0.8305969;1.3462219;-;-;-;-;-;-;-;-;-;-;-;-;-;-;-
1514174614740;-;-;9.14035;-0.86531067;1.3869324;-;-;-;-;-;-;-;-;-;-;-;-;-;-;-
1514174614760;-;-;9.181061;-0.82221985;1.4264374;-;-;-;-;-;-;-;-;-;-;-;-;-;-;-
1514174614781;-;-;9.165497;-0.8102417;1.3593903;-;-;-;-;-;-;-;-;-;-;-;-;-;-;-
1514174614801;-;-;9.13916;-0.8485565;1.3977051;-;-;-;-;-;-;-;-;-;-;-;-;-;-;-
1514174614821;-;-;9.136765;-0.8317871;1.4084778;-;-;-;-;-;-;-;-;-;-;-;-;-;-;-
1514174614842;-;-;9.195419;-0.80307007;1.4192505;-;-;-;-;-;-;-;-;-;-;-;-;-;-;-
1514174614862;-;-;9.159515;-0.82580566;1.2863617;-;-;-;-;-;-;-;-;-;-;-;-;-;-;-
1514174614882;-;-;9.12001;-0.8581238;1.3031311;-;-;-;-;-;-;-;-;-;-;-;-;-;-;-
1514174614903;-;-;9.163101;-0.8569336;1.3641815;-;-;-;-;-;-;-;-;-;-;-;-;-;-;-
1514174614923;-;-;9.17627;-0.8186188;1.4467773;-;-;-;-;-;-;-;-;-;-;-;-;-;-;-
1514174614943;-;-;9.147537;-0.80307007;1.4156494;-;-;-;-;-;-;-;-;-;-;-;-;-;-;-
1514174614963;-;-;9.153519;-0.78630066;1.3761444;-;-;-;-;-;-;-;-;-;-;-;-;-;-;-
1514174614984;-;-;9.135559;-0.79348755;1.4156494;-;-;-;-;-;-;-;-;-;-;-;-;-;-;-
1514174615004;-;-;9.175064;-0.77552795;1.3845367;-;-;-;-;-;-;-;-;-;-;-;-;-;-;-
1514174615024;-;-;9.175064;-0.7515869;1.3689728;-;-;-;-;-;-;-;-;-;-;-;-;-;-;-
1514174615045;-;-;9.207397;-0.7958832;1.3450317;-;-;-;-;-;-;-;-;-;-;-;-;-;-;-
1514174615065;-;-;9.159515;-0.7851105;1.3270721;-;-;-;-;-;-;-;-;-;-;-;-;-;-;-
1514174615085;-;-;9.185837;-0.76475525;1.3988953;-;-;-;-;-;-;-;-;-;-;-;-;-;-;-
1514174615106;-;-;9.169083;-0.7515869;1.3893127;-;-;-;-;-;-;-;-;-;-;-;-;-;-;-
1514174615125;-;-;9.128387;-0.7503967;1.3988953;-;-;-;-;-;-;-;-;-;-;-;-;-;-;-
1514174615145;-;-;9.121201;-0.7851105;1.4683228;-;-;-;-;-;-;-;-;-;-;-;-;-;-;-
1514174615166;-;-;9.17746;-0.82580566;1.4144592;-;-;-;-;-;-;-;-;-;-;-;-;-;-;-
1514174615186;-;-;9.220566;-0.79467773;1.4372101;-;-;-;-;-;-;-;-;-;-;-;-;-;-;-
1514174615206;-;-;9.207397;-0.79707336;1.4036865;-;-;-;-;-;-;-;-;-;-;-;-;-;-;-
1514174615227;-;-;9.127182;-0.7480011;1.4252319;-;-;-;-;-;-;-;-;-;-;-;-;-;-;-
1514174615247;-;-;9.1128235;-0.7623596;1.4120636;-;-;-;-;-;-;-;-;-;-;-;-;-;-;-
1514174615267;-;-;9.167892;-0.76116943;1.418045;-;-;-;-;-;-;-;-;-;-;-;-;-;-;-
1514174615288;-;-;9.21936;-0.76116943;1.4252319;-;-;-;-;-;-;-;-;-;-;-;-;-;-;-
1514174615308;-;-;9.146347;-0.7803192;1.4204407;-;-;-;-;-;-;-;-;-;-;-;-;-;-;-
1514174615328;-;-;9.115219;-0.77433777;1.4324188;-;-;-;-;-;-;-;-;-;-;-;-;-;-;-
1514174615348;-;-;9.17627;-0.80545044;1.4419861;-;-;-;-;-;-;-;-;-;-;-;-;-;-;-
1514174615369;-;-;9.165497;-0.8198242;1.4372101;-;-;-;-;-;-;-;-;-;-;-;-;-;-;-
1514174615389;-;-;9.181061;-0.77911377;1.4659271;-;-;-;-;-;-;-;-;-;-;-;-;-;-;-
1514174615409;-;-;9.161896;-0.7024994;1.4120636;-;-;-;-;-;-;-;-;-;-;-;-;-;-;-
1514174615430;-;-;9.166687;-0.76356506;1.4024811;-;-;-;-;-;-;-;-;-;-;-;-;-;-;-
1514174615451;-;-;9.118805;-0.77552795;1.4120636;-;-;-;-;-;-;-;-;-;-;-;-;-;-;-
1514174615471;-;-;9.163101;-0.76834106;1.4850922;-;-;-;-;-;-;-;-;-;-;-;-;-;-;-
1514174615491;-;-;9.200211;-0.75756836;1.45755;-;-;-;-;-;-;-;-;-;-;-;-;-;-;-
1514174615511;-;-;9.169083;-0.73602295;1.4001007;-;-;-;-;-;-;-;-;-;-;-;-;-;-;-
1514174615531;-;-;9.183456;-0.7312317;1.3953094;-;-;-;-;-;-;-;-;-;-;-;-;-;-;-
1514174615552;-;-;9.164291;-0.67378235;1.3809357;-;-;-;-;-;-;-;-;-;-;-;-;-;-;-
1514174615572;-;-;9.128387;-0.68574524;1.4599457;-;-;-;-;-;-;-;-;-;-;-;-;-;-;-
1514174615592;-;-;9.100845;-0.64624023;1.4563599;-;-;-;-;-;-;-;-;-;-;-;-;-;-;-
1514174615613;-;-;9.15831;-0.64505005;1.4683228;-;-;-;-;-;-;-;-;-;-;-;-;-;-;-
1514174615633;-;-;9.170288;-0.5780029;1.4204407;-;-;-;-;-;-;-;-;-;-;-;-;-;-;-
1514174615653;-;-;9.146347;-0.5456848;1.4503784;-;-;-;-;-;-;-;-;-;-;-;-;-;-;-
1514174615674;-;-;9.114014;-0.5540619;1.4862823;-;-;-;-;-;-;-;-;-;-;-;-;-;-;-
1514174615693;-;-;9.15712;-0.56604004;1.5102234;-;-;-;-;-;-;-;-;-;-;-;-;-;-;-
1514174615713;-;-;9.143951;-0.5899811;1.4635468;-;-;-;-;-;-;-;-;-;-;-;-;-;-;-
1514174615734;-;-;9.141556;-0.6222992;1.5054321;-;-;-;-;-;-;-;-;-;-;-;-;-;-;-
1514174615754;-;-;9.159515;-0.63067627;1.5198059;-;-;-;-;-;-;-;-;-;-;-;-;-;-;-
1514174615774;-;-;9.130783;-0.6534271;1.4707184;-;-;-;-;-;-;-;-;-;-;-;-;-;-;-
1514174615795;-;-;9.091278;-0.6498413;1.4384003;-;-;-;-;-;-;-;-;-;-;-;-;-;-;-
1514174615815;-;-;9.082901;-0.68574524;1.512619;-;-;-;-;-;-;-;-;-;-;-;-;-;-;-
1514174615835;-;-;9.13916;-0.7264557;1.5209961;-;-;-;-;-;-;-;-;-;-;-;-;-;-;-
1514174615855;-;-;9.154724;-0.7815094;1.543747;-;-;-;-;-;-;-;-;-;-;-;-;-;-;-
1514174615876;-;-;9.124786;-0.799469;1.5473328;-;-;-;-;-;-;-;-;-;-;-;-;-;-;-
1514174615896;-;-;9.118805;-0.799469;1.5844421;-;-;-;-;-;-;-;-;-;-;-;-;-;-;-
1514174615916;-;-;9.14035;-0.76356506;1.5796661;-;-;-;-;-;-;-;-;-;-;-;-;-;-;-
1514174615937;-;-;9.142746;-0.72525024;1.528183;-;-;-;-;-;-;-;-;-;-;-;-;-;-;-
1514174615957;-;-;9.111618;-0.73602295;1.528183;-;-;-;-;-;-;-;-;-;-;-;-;-;-;-
1514174615977;-;-;9.123596;-0.7779236;1.4611511;-;-;-;-;-;-;-;-;-;-;-;-;-;-;-
1514174615998;-;-;9.15831;-0.8090515;1.4216461;-;-;-;-;-;-;-;-;-;-;-;-;-;-;-
1514174616018;-;-;9.197815;-0.8760834;1.373764;-;-;-;-;-;-;-;-;-;-;-;-;-;-;-
1514174616038;-;-;9.197815;-0.8473511;1.339035;-;-;-;-;-;-;-;-;-;-;-;-;-;-;-
1514174616059;-;-;9.214569;-0.75756836;1.3510132;-;-;-;-;-;-;-;-;-;-;-;-;-;-;-
1514174616079;-;-;9.178665;-0.7084961;1.3749542;-;-;-;-;-;-;-;-;-;-;-;-;-;-;-
1514174616099;-;-;9.220566;-0.6761627;1.339035;-;-;-;-;-;-;-;-;-;-;-;-;-;-;-
1514174616120;-;-;9.164291;-0.6869507;1.3677673;-;-;-;-;-;-;-;-;-;-;-;-;-;-;-
1514174616140;-;-;9.12001;-0.6498413;1.449173;-;-;-;-;-;-;-;-;-;-;-;-;-;-;-
1514174616160;-;-;9.175064;-0.6821594;1.473114;-;-;-;-;-;-;-;-;-;-;-;-;-;-;-
1514174616180;-;-;9.195419;-0.6534271;1.4108734;-;-;-;-;-;-;-;-;-;-;-;-;-;-;-
1514174616201;-;-;9.111618;-0.6821594;1.4060822;-;-;-;-;-;-;-;-;-;-;-;-;-;-;-
1514174616221;-;-;9.127182;-0.636673;1.5688782;-;-;-;-;-;-;-;-;-;-;-;-;-;-;-
1514174616240;-;-;9.154724;-0.65940857;1.5844421;-;-;-;-;-;-;-;-;-;-;-;-;-;-;-
1514174616260;-;-;9.125992;-0.69651794;1.5772705;-;-;-;-;-;-;-;-;-;-;-;-;-;-;-
1514174616281;-;-;9.143951;-0.7096863;1.5389557;-;-;-;-;-;-;-;-;-;-;-;-;-;-;-
1514174616301;-;-;9.151123;-0.69532776;1.5198059;-;-;-;-;-;-;-;-;-;-;-;-;-;-;-
1514174616321;-;-;9.147537;-0.6498413;1.4910736;-;-;-;-;-;-;-;-;-;-;-;-;-;-;-
1514174616341;-;-;9.160706;-0.6043396;1.5473328;-;-;-;-;-;-;-;-;-;-;-;-;-;-;-
1514174616361;-;-;9.164291;-0.5935669;1.4922638;-;-;-;-;-;-;-;-;-;-;-;-;-;-;-
1514174616382;-;-;9.182251;-0.51934814;1.449173;-;-;-;-;-;-;-;-;-;-;-;-;-;-;-
1514174616402;-;-;9.15712;-0.47505188;1.5114288;-;-;-;-;-;-;-;-;-;-;-;-;-;-;-
1514174616422;-;-;9.149933;-0.4834442;1.4515686;-;-;-;-;-;-;-;-;-;-;-;-;-;-;-
1514174616442;-;-;9.133179;-0.52653503;1.4024811;-;-;-;-;-;-;-;-;-;-;-;-;-;-;-
1514174616462;-;-;9.128387;-0.6151123;1.4360046;-;-;-;-;-;-;-;-;-;-;-;-;-;-;-
1514174616483;-;-;9.17627;-0.6833496;1.4348145;-;-;-;-;-;-;-;-;-;-;-;-;-;-;-
1514174616503;-;-;9.15831;-0.7300415;1.4276276;-;-;-;-;-;-;-;-;-;-;-;-;-;-;-
1514174616523;-;-;9.169083;-0.7731323;1.4455872;-;-;-;-;-;-;-;-;-;-;-;-;-;-;-
1514174616543;-;-;9.149933;-0.74560547;1.4862823;-;-;-;-;-;-;-;-;-;-;-;-;-;-;-
1514174616564;-;-;9.146347;-0.75756836;1.449173;-;-;-;-;-;-;-;-;-;-;-;-;-;-;-
1514174616584;-;-;9.116409;-0.76475525;1.512619;-;-;-;-;-;-;-;-;-;-;-;-;-;-;-
1514174616604;-;-;9.14035;-0.75398254;1.528183;-;-;-;-;-;-;-;-;-;-;-;-;-;-;-
1514174616625;-;-;9.155914;-0.7192688;1.5497284;-;-;-;-;-;-;-;-;-;-;-;-;-;-;-
1514174616645;-;-;9.1523285;-0.66300964;1.5449371;-;-;-;-;-;-;-;-;-;-;-;-;-;-;-
1514174616665;-;-;9.131973;-0.6546173;1.5557098;-;-;-;-;-;-;-;-;-;-;-;-;-;-;-
1514174616686;-;-;9.0972595;-0.6833496;1.5269928;-;-;-;-;-;-;-;-;-;-;-;-;-;-;-
1514174616706;-;-;9.093674;-0.74320984;1.5018463;-;-;-;-;-;-;-;-;-;-;-;-;-;-;-
1514174616726;-;-;9.090073;-0.7300415;1.5581055;-;-;-;-;-;-;-;-;-;-;-;-;-;-;-
1514174616747;-;-;9.169083;-0.6941223;1.5425415;-;-;-;-;-;-;-;-;-;-;-;-;-;-;-
1514174616767;-;-;9.175064;-0.69651794;1.4623413;-;-;-;-;-;-;-;-;-;-;-;-;-;-;-
1514174616787;-;-;9.183456;-0.704895;1.45755;-;-;-;-;-;-;-;-;-;-;-;-;-;-;-
1514174616808;-;-;9.124786;-0.7372284;1.4695282;-;-;-;-;-;-;-;-;-;-;-;-;-;-;-
1514174616827;-;-;9.193024;-0.739624;1.4767151;-;-;-;-;-;-;-;-;-;-;-;-;-;-;-
1514174616847;-;-;9.214569;-0.7300415;1.4324188;-;-;-;-;-;-;-;-;-;-;-;-;-;-;-
1514174616868;-;-;9.088882;-0.704895;1.3665771;-;-;-;-;-;-;-;-;-;-;-;-;-;-;-
1514174616888;-;-;9.131973;-0.6294861;1.4120636;-;-;-;-;-;-;-;-;-;-;-;-;-;-;-
1514174616908;-;-;9.201401;-0.60913086;1.45755;-;-;-;-;-;-;-;-;-;-;-;-;-;-;-
1514174616928;-;-;9.209793;-0.59117126;1.4168549;-;-;-;-;-;-;-;-;-;-;-;-;-;-;-
1514174616949;-;-;9.23851;-0.59835815;1.4288177;-;-;-;-;-;-;-;-;-;-;-;-;-;-;-
1514174616969;-;-;9.17627;-0.6043396;1.4587555;-;-;-;-;-;-;-;-;-;-;-;-;-;-;-
1514174616989;-;-;9.081696;-0.636673;1.4300232;-;-;-;-;-;-;-;-;-;-;-;-;-;-;-
1514174617010;-;-;9.085281;-0.62350464;1.449173;-;-;-;-;-;-;-;-;-;-;-;-;-;-;-
1514174617030;-;-;9.133179;-0.64505005;1.4372101;-;-;-;-;-;-;-;-;-;-;-;-;-;-;-
1514174617050;-;-;9.181061;-0.6821594;1.4539642;-;-;-;-;-;-;-;-;-;-;-;-;-;-;-
1514174617071;-;-;9.199005;-0.68574524;1.4431915;-;-;-;-;-;-;-;-;-;-;-;-;-;-;-
1514174617091;-;-;9.232529;-0.70729065;1.418045;-;-;-;-;-;-;-;-;-;-;-;-;-;-;-
1514174617111;-;-;9.197815;-0.7767334;1.3988953;-;-;-;-;-;-;-;-;-;-;-;-;-;-;-
1514174617131;-;-;9.136765;-0.76834106;1.354599;-;-;-;-;-;-;-;-;-;-;-;-;-;-;-
1514174617152;-;-;9.1523285;-0.7276459;1.3797455;-;-;-;-;-;-;-;-;-;-;-;-;-;-;-
1514174617172;-;-;9.17627;-0.70370483;1.3809357;-;-;-;-;-;-;-;-;-;-;-;-;-;-;-
1514174617193;-;-;9.165497;-0.7108917;1.3677673;-;-;-;-;-;-;-;-;-;-;-;-;-;-;-
1514174617212;-;-;9.163101;-0.6821594;1.4024811;-;-;-;-;-;-;-;-;-;-;-;-;-;-;-
1514174617233;-;-;9.1523285;-0.6438446;1.4539642;-;-;-;-;-;-;-;-;-;-;-;-;-;-;-
1514174617253;-;-;9.146347;-0.59954834;1.4503784;-;-;-;-;-;-;-;-;-;-;-;-;-;-;-
1514174617273;-;-;9.149933;-0.6067352;1.4563599;-;-;-;-;-;-;-;-;-;-;-;-;-;-;-
1514174617294;-;-;9.142746;-0.56604004;1.4982605;-;-;-;-;-;-;-;-;-;-;-;-;-;-;-
1514174617314;-;-;9.109222;-0.581604;1.5641022;-;-;-;-;-;-;-;-;-;-;-;-;-;-;-
1514174617335;-;-;9.133179;-0.5444946;1.5186005;-;-;-;-;-;-;-;-;-;-;-;-;-;-;-
1514174617355;-;-;9.163101;-0.5899811;1.3857269;-;-;-;-;-;-;-;-;-;-;-;-;-;-;-
1514174617375;-;-;9.116409;-0.6115265;1.3953094;-;-;-;-;-;-;-;-;-;-;-;-;-;-;-
1514174617395;-;-;9.15712;-0.59117126;1.3593903;-;-;-;-;-;-;-;-;-;-;-;-;-;-;-
1514174617416;-;-;9.166687;-0.65940857;1.3617859;-;-;-;-;-;-;-;-;-;-;-;-;-;-;-
1514174617436;-;-;9.215775;-0.6689911;1.251648;-;-;-;-;-;-;-;-;-;-;-;-;-;-;-
1514174617456;-;-;9.200211;-0.641449;1.2061615;-;-;-;-;-;-;-;-;-;-;-;-;-;-;-
1514174617477;-;-;9.183456;-0.63427734;1.2720032;-;-;-;-;-;-;-;-;-;-;-;-;-;-;-
1514174617497;-;-;9.226547;-0.6330719;1.231308;-;-;-;-;-;-;-;-;-;-;-;-;-;-;-
1514174617517;-;-;9.279221;-0.64863586;1.191803;-;-;-;-;-;-;-;-;-;-;-;-;-;-;-
1514174617538;-;-;9.164291;-0.59954834;1.1199646;-;-;-;-;-;-;-;-;-;-;-;-;-;-;-
1514174617558;-;-;9.128387;-0.63786316;1.2289124;-;-;-;-;-;-;-;-;-;-;-;-;-;-;-
1514174617578;-;-;9.169083;-0.6534271;1.3414307;-;-;-;-;-;-;-;-;-;-;-;-;-;-;-
1514174617598;-;-;9.193024;-0.68455505;1.310318;-;-;-;-;-;-;-;-;-;-;-;-;-;-;-
1514174617619;-;-;9.129578;-0.71687317;1.3366547;-;-;-;-;-;-;-;-;-;-;-;-;-;-;-
1514174617639;-;-;9.110428;-0.72883606;1.3222809;-;-;-;-;-;-;-;-;-;-;-;-;-;-;-
1514174617659;-;-;9.185837;-0.7228546;1.2983398;-;-;-;-;-;-;-;-;-;-;-;-;-;-;-
1514174617680;-;-;9.171478;-0.6713867;1.330658;-;-;-;-;-;-;-;-;-;-;-;-;-;-;-
1514174617700;-;-;9.146347;-0.636673;1.3617859;-;-;-;-;-;-;-;-;-;-;-;-;-;-;-
1514174617720;-;-;9.208588;-0.62828064;1.3318634;-;-;-;-;-;-;-;-;-;-;-;-;-;-;-
1514174617741;-;-;9.228943;-0.6761627;1.3929138;-;-;-;-;-;-;-;-;-;-;-;-;-;-;-
1514174617761;-;-;9.188232;-0.68574524;1.2815857;-;-;-;-;-;-;-;-;-;-;-;-;-;-;-
1514174617782;-;-;9.109222;-0.69651794;1.2600403;-;-;-;-;-;-;-;-;-;-;-;-;-;-;-
1514174617801;-;-;9.171478;-0.680954;1.3174896;-;-;-;-;-;-;-;-;-;-;-;-;-;-;-
1514174617821;-;-;9.25528;-0.6330719;1.3222809;-;-;-;-;-;-;-;-;-;-;-;-;-;-;-
1514174617841;-;-;9.202606;-0.56243896;1.291153;-;-;-;-;-;-;-;-;-;-;-;-;-;-;-
1514174617862;-;-;9.17746;-0.56843567;1.3366547;-;-;-;-;-;-;-;-;-;-;-;-;-;-;-
1514174617882;-;-;9.136765;-0.6354675;1.3426361;-;-;-;-;-;-;-;-;-;-;-;-;-;-;-
1514174617902;-;-;9.183456;-0.62709045;1.3139038;-;-;-;-;-;-;-;-;-;-;-;-;-;-;-
1514174617923;-;-;9.210983;-0.62709045;1.2743988;-;-;-;-;-;-;-;-;-;-;-;-;-;-;-
1514174617942;-;-;9.165497;-0.59477234;1.2337036;-;-;-;-;-;-;-;-;-;-;-;-;-;-;-
1514174617963;-;-;9.164291;-0.6246948;1.2540436;-;-;-;-;-;-;-;-;-;-;-;-;-;-;-
1514174617983;-;-;9.212173;-0.6402588;1.2504578;-;-;-;-;-;-;-;-;-;-;-;-;-;-;-
1514174618003;-;-;9.207397;-0.63786316;1.3007355;-;-;-;-;-;-;-;-;-;-;-;-;-;-;-
1514174618023;-;-;9.181061;-0.65582275;1.3091125;-;-;-;-;-;-;-;-;-;-;-;-;-;-;-
1514174618044;-;-;9.172684;-0.7096863;1.330658;-;-;-;-;-;-;-;-;-;-;-;-;-;-;-
1514174618064;-;-;9.205002;-0.7084961;1.3749542;-;-;-;-;-;-;-;-;-;-;-;-;-;-;-
1514174618084;-;-;9.201401;-0.67855835;1.3186951;-;-;-;-;-;-;-;-;-;-;-;-;-;-;-
1514174618105;-;-;9.175064;-0.66778564;1.2935486;-;-;-;-;-;-;-;-;-;-;-;-;-;-;-
1514174618125;-;-;9.080505;-0.7503967;1.3857269;-;-;-;-;-;-;-;-;-;-;-;-;-;-;-
1514174618145;-;-;9.121201;-0.75398254;1.4348145;-;-;-;-;-;-;-;-;-;-;-;-;-;-;-
1514174618166;-;-;9.248093;-0.78990173;1.4683228;-;-;-;-;-;-;-;-;-;-;-;-;-;-;-
1514174618185;-;-;9.252884;-0.81503296;1.3510132;-;-;-;-;-;-;-;-;-;-;-;-;-;-;-
1514174618205;-;-;9.195419;-0.6833496;1.2492523;-;-;-;-;-;-;-;-;-;-;-;-;-;-;-
1514174618226;-;-;9.092468;-0.6618042;1.2660217;-;-;-;-;-;-;-;-;-;-;-;-;-;-;-
1514174618245;-;-;9.136765;-0.68574524;1.3761444;-;-;-;-;-;-;-;-;-;-;-;-;-;-;-
1514174618266;-;-;9.187042;-0.7336273;1.3402405;-;-;-;-;-;-;-;-;-;-;-;-;-;-;-
1514174618285;-;-;9.184647;-0.74560547;1.2720032;-;-;-;-;-;-;-;-;-;-;-;-;-;-;-
1514174618306;-;-;9.188232;-0.7527771;1.2720032;-;-;-;-;-;-;-;-;-;-;-;-;-;-;-
1514174618326;-;-;9.187042;-0.7276459;1.275589;-;-;-;-;-;-;-;-;-;-;-;-;-;-;-
1514174618347;-;-;9.216965;-0.7384186;1.3055267;-;-;-;-;-;-;-;-;-;-;-;-;-;-;-
1514174618366;-;-;9.260071;-0.7491913;1.3126984;-;-;-;-;-;-;-;-;-;-;-;-;-;-;-
1514174618386;-;-;9.179855;-0.73602295;1.339035;-;-;-;-;-;-;-;-;-;-;-;-;-;-;-
1514174618406;-;-;9.091278;-0.67497253;1.3593903;-;-;-;-;-;-;-;-;-;-;-;-;-;-;-
1514174618427;-;-;9.127182;-0.6534271;1.4001007;-;-;-;-;-;-;-;-;-;-;-;-;-;-;-
1514174618446;-;-;9.165497;-0.6701813;1.3366547;-;-;-;-;-;-;-;-;-;-;-;-;-;-;-
1514174618466;-;-;9.185837;-0.67736816;1.3749542;-;-;-;-;-;-;-;-;-;-;-;-;-;-;-
1514174618487;-;-;9.214569;-0.6641998;1.3474274;-;-;-;-;-;-;-;-;-;-;-;-;-;-;-
1514174618507;-;-;9.134369;-0.64863586;1.334259;-;-;-;-;-;-;-;-;-;-;-;-;-;-;-
1514174618527;-;-;9.14035;-0.6761627;1.354599;-;-;-;-;-;-;-;-;-;-;-;-;-;-;-
1514174618547;-;-;9.220566;-0.70610046;1.3474274;-;-;-;-;-;-;-;-;-;-;-;-;-;-;-
1514174618568;-;-;9.251678;-0.6689911;1.3222809;-;-;-;-;-;-;-;-;-;-;-;-;-;-;-
1514174618588;-;-;9.167892;-0.67378235;1.3294678;-;-;-;-;-;-;-;-;-;-;-;-;-;-;-
1514174618608;-;-;9.146347;-0.6713867;1.315094;-;-;-;-;-;-;-;-;-;-;-;-;-;-;-
1514174618629;-;-;9.143951;-0.7491913;1.3725586;-;-;-;-;-;-;-;-;-;-;-;-;-;-;-
1514174618649;-;-;9.185837;-0.80545044;1.3569946;-;-;-;-;-;-;-;-;-;-;-;-;-;-;-
1514174618669;-;-;9.23851;-0.759964;1.373764;-;-;-;-;-;-;-;-;-;-;-;-;-;-;-
1514174618689;-;-;9.208588;-0.7731323;1.4012909;-;-;-;-;-;-;-;-;-;-;-;-;-;-;-
1514174618710;-;-;9.135559;-0.7276459;1.5018463;-;-;-;-;-;-;-;-;-;-;-;-;-;-;-
1514174618730;-;-;9.063736;-0.7300415;1.5293732;-;-;-;-;-;-;-;-;-;-;-;-;-;-;-
1514174618750;-;-;9.117615;-0.8174286;1.5054321;-;-;-;-;-;-;-;-;-;-;-;-;-;-;-
1514174618771;-;-;9.13916;-0.78271484;1.5222015;-;-;-;-;-;-;-;-;-;-;-;-;-;-;-
1514174618791;-;-;9.123596;-0.79467773;1.5617065;-;-;-;-;-;-;-;-;-;-;-;-;-;-;-
1514174618811;-;-;9.07811;-0.83299255;1.6191559;-;-;-;-;-;-;-;-;-;-;-;-;-;-;-
1514174618832;-;-;9.143951;-0.8677063;1.6107788;-;-;-;-;-;-;-;-;-;-;-;-;-;-;-
1514174618851;-;-;9.221756;-0.84017944;1.5892334;-;-;-;-;-;-;-;-;-;-;-;-;-;-;-
1514174618871;-;-;9.146347;-0.8102417;1.504242;-;-;-;-;-;-;-;-;-;-;-;-;-;-;-
1514174618891;-;-;9.068527;-0.76116943;1.5269928;-;-;-;-;-;-;-;-;-;-;-;-;-;-;-
1514174618912;-;-;9.129578;-0.76834106;1.6371155;-;-;-;-;-;-;-;-;-;-;-;-;-;-;-
1514174618932;-;-;9.165497;-0.8317871;1.607193;-;-;-;-;-;-;-;-;-;-;-;-;-;-;-
1514174618953;-;-;9.183456;-0.8377838;1.5473328;-;-;-;-;-;-;-;-;-;-;-;-;-;-;-
1514174618973;-;-;9.110428;-0.8282013;1.5892334;-;-;-;-;-;-;-;-;-;-;-;-;-;-;-
1514174618993;-;-;9.1128235;-0.75756836;1.6059875;-;-;-;-;-;-;-;-;-;-;-;-;-;-;-
1514174619013;-;-;9.117615;-0.759964;1.5904388;-;-;-;-;-;-;-;-;-;-;-;-;-;-;-
1514174619034;-;-;9.133179;-0.6989136;1.4767151;-;-;-;-;-;-;-;-;-;-;-;-;-;-;-
1514174619054;-;-;9.153519;-0.6761627;1.5030518;-;-;-;-;-;-;-;-;-;-;-;-;-;-;-
1514174619074;-;-;9.172684;-0.64505005;1.5078278;-;-;-;-;-;-;-;-;-;-;-;-;-;-;-
1514174619094;-;-;9.1918335;-0.55885315;1.5138245;-;-;-;-;-;-;-;-;-;-;-;-;-;-;-
1514174619115;-;-;9.1523285;-0.5672302;1.4623413;-;-;-;-;-;-;-;-;-;-;-;-;-;-;-
1514174619135;-;-;9.117615;-0.5935669;1.449173;-;-;-;-;-;-;-;-;-;-;-;-;-;-;-
1514174619156;-;-;9.165497;-0.62828064;1.5090332;-;-;-;-;-;-;-;-;-;-;-;-;-;-;-
1514174619176;-;-;9.155914;-0.704895;1.5904388;-;-;-;-;-;-;-;-;-;-;-;-;-;-;-
1514174619196;-;-;9.088882;-0.7216644;1.6095886;-;-;-;-;-;-;-;-;-;-;-;-;-;-;-
1514174619216;-;-;9.033813;-0.72525024;1.6107788;-;-;-;-;-;-;-;-;-;-;-;-;-;-;-
1514174619237;-;-;9.096069;-0.759964;1.5760651;-;-;-;-;-;-;-;-;-;-;-;-;-;-;-
1514174619256;-;-;9.200211;-0.76356506;1.5988159;-;-;-;-;-;-;-;-;-;-;-;-;-;-;-
1514174619276;-;-;9.201401;-0.71447754;1.6095886;-;-;-;-;-;-;-;-;-;-;-;-;-;-;-
1514174619297;-;-;9.121201;-0.64624023;1.701767;-;-;-;-;-;-;-;-;-;-;-;-;-;-;-
1514174619316;-;-;9.020645;-0.6354675;1.7328949;-;-;-;-;-;-;-;-;-;-;-;-;-;-;-
1514174619336;-;-;9.041;-0.68455505;1.701767;-;-;-;-;-;-;-;-;-;-;-;-;-;-;-
1514174619357;-;-;9.07811;-0.71806335;1.6574707;-;-;-;-;-;-;-;-;-;-;-;-;-;-;-
1514174619377;-;-;9.088882;-0.80426025;1.6095886;-;-;-;-;-;-;-;-;-;-;-;-;-;-;-
1514174619397;-;-;9.093674;-0.7803192;1.6526794;-;-;-;-;-;-;-;-;-;-;-;-;-;-;-
1514174619417;-;-;9.131973;-0.7623596;1.6371155;-;-;-;-;-;-;-;-;-;-;-;-;-;-;-
1514174619438;-;-;9.121201;-0.77552795;1.6921844;-;-;-;-;-;-;-;-;-;-;-;-;-;-;-
1514174619458;-;-;9.122391;-0.8210144;1.6586609;-;-;-;-;-;-;-;-;-;-;-;-;-;-;-
1514174619478;-;-;9.086487;-0.9107971;1.7113342;-;-;-;-;-;-;-;-;-;-;-;-;-;-;-
1514174619499;-;-;9.045776;-0.9443207;1.7484436;-;-;-;-;-;-;-;-;-;-;-;-;-;-;-
1514174619519;-;-;9.141556;-0.92996216;1.686203;-;-;-;-;-;-;-;-;-;-;-;-;-;-;-
1514174619539;-;-;9.196625;-0.9562988;1.6299438;-;-;-;-;-;-;-;-;-;-;-;-;-;-;-
1514174619560;-;-;9.166687;-0.96347046;1.4946594;-;-;-;-;-;-;-;-;-;-;-;-;-;-;-
1514174619580;-;-;9.134369;-0.9036255;1.5449371;-;-;-;-;-;-;-;-;-;-;-;-;-;-;-
1514174619600;-;-;9.142746;-0.81503296;1.6598663;-;-;-;-;-;-;-;-;-;-;-;-;-;-;-
1514174619620;-;-;9.183456;-0.8317871;1.6215515;-;-;-;-;-;-;-;-;-;-;-;-;-;-;-
1514174619641;-;-;9.15831;-0.82341003;1.6143799;-;-;-;-;-;-;-;-;-;-;-;-;-;-;-
1514174619661;-;-;9.149933;-0.81503296;1.6263428;-;-;-;-;-;-;-;-;-;-;-;-;-;-;-
1514174619682;-;-;9.102051;-0.8377838;1.6323242;-;-;-;-;-;-;-;-;-;-;-;-;-;-;-
1514174619701;-;-;9.07811;-0.8090515;1.6239471;-;-;-;-;-;-;-;-;-;-;-;-;-;-;-
1514174619722;-;-;9.142746;-0.78271484;1.6502838;-;-;-;-;-;-;-;-;-;-;-;-;-;-;-
1514174619742;-;-;9.124786;-0.74679565;1.6119843;-;-;-;-;-;-;-;-;-;-;-;-;-;-;-
1514174619762;-;-;9.136765;-0.7372284;1.6407166;-;-;-;-;-;-;-;-;-;-;-;-;-;-;-
1514174619782;-;-;9.114014;-0.66539;1.6371155;-;-;-;-;-;-;-;-;-;-;-;-;-;-;-
1514174619802;-;-;9.110428;-0.6546173;1.5928345;-;-;-;-;-;-;-;-;-;-;-;-;-;-;-
1514174619823;-;-;9.12001;-0.68933105;1.512619;-;-;-;-;-;-;-;-;-;-;-;-;-;-;-
1514174619843;-;-;9.075714;-0.7587738;1.4898834;-;-;-;-;-;-;-;-;-;-;-;-;-;-;-
1514174619863;-;-;9.142746;-0.8138428;1.5988159;-;-;-;-;-;-;-;-;-;-;-;-;-;-;-
1514174619884;-;-;9.228943;-0.71328735;1.6335297;-;-;-;-;-;-;-;-;-;-;-;-;-;-;-
1514174619904;-;-;9.185837;-0.6977234;1.5976105;-;-;-;-;-;-;-;-;-;-;-;-;-;-;-
1514174619924;-;-;9.117615;-0.68455505;1.5856476;-;-;-;-;-;-;-;-;-;-;-;-;-;-;-
1514174619945;-;-;9.090073;-0.7276459;1.5760651;-;-;-;-;-;-;-;-;-;-;-;-;-;-;-
1514174619965;-;-;9.115219;-0.8126373;1.6431122;-;-;-;-;-;-;-;-;-;-;-;-;-;-;-
1514174619985;-;-;9.121201;-0.76834106;1.6646576;-;-;-;-;-;-;-;-;-;-;-;-;-;-;-
1514174620006;-;-;9.0793;-0.75398254;1.6550751;-;-;-;-;-;-;-;-;-;-;-;-;-;-;-
1514174620026;-;-;9.069733;-0.74320984;1.6550751;-;-;-;-;-;-;-;-;-;-;-;-;-;-;-
1514174620046;-;-;9.125992;-0.739624;1.5808563;-;-;-;-;-;-;-;-;-;-;-;-;-;-;-
1514174620067;-;-;9.076904;-0.7444;1.5617065;-;-;-;-;-;-;-;-;-;-;-;-;-;-;-
1514174620087;-;-;9.075714;-0.8162384;1.5880432;-;-;-;-;-;-;-;-;-;-;-;-;-;-;-
1514174620107;-;-;9.147537;-0.8377838;1.6443024;-;-;-;-;-;-;-;-;-;-;-;-;-;-;-
1514174620127;-;-;9.148727;-0.8090515;1.6215515;-;-;-;-;-;-;-;-;-;-;-;-;-;-;-
1514174620148;-;-;9.179855;-0.77194214;1.5353699;-;-;-;-;-;-;-;-;-;-;-;-;-;-;-
1514174620168;-;-;9.149933;-0.7767334;1.5557098;-;-;-;-;-;-;-;-;-;-;-;-;-;-;-
1514174620188;-;-;9.282806;-0.8174286;1.5102234;-;-;-;-;-;-;-;-;-;-;-;-;-;-;-
1514174620209;-;-;9.25528;-0.78990173;1.3653717;-;-;-;-;-;-;-;-;-;-;-;-;-;-;-
1514174620229;-;-;9.067337;-0.7875061;1.4695282;-;-;-;-;-;-;-;-;-;-;-;-;-;-;-
1514174620249;-;-;9.064941;-0.80307007;1.5976105;-;-;-;-;-;-;-;-;-;-;-;-;-;-;-
1514174620269;-;-;9.134369;-0.86172485;1.631134;-;-;-;-;-;-;-;-;-;-;-;-;-;-;-
1514174620290;-;-;9.146347;-0.9287567;1.6335297;-;-;-;-;-;-;-;-;-;-;-;-;-;-;-
1514174620310;-;-;9.131973;-0.94192505;1.6754303;-;-;-;-;-;-;-;-;-;-;-;-;-;-;-
1514174620331;-;-;9.123596;-0.8533478;1.6371155;-;-;-;-;-;-;-;-;-;-;-;-;-;-;-
1514174620350;-;-;9.069733;-0.8210144;1.6550751;-;-;-;-;-;-;-;-;-;-;-;-;-;-;-
1514174620370;-;-;9.081696;-0.7815094;1.6873932;-;-;-;-;-;-;-;-;-;-;-;-;-;-;-
1514174620390;-;-;9.109222;-0.7515869;1.6454926;-;-;-;-;-;-;-;-;-;-;-;-;-;-;-
1514174620411;-;-;9.116409;-0.71447754;1.6371155;-;-;-;-;-;-;-;-;-;-;-;-;-;-;-
1514174620431;-;-;9.13916;-0.72883606;1.6347198;-;-;-;-;-;-;-;-;-;-;-;-;-;-;-
1514174620451;-;-;9.189438;-0.72525024;1.6383209;-;-;-;-;-;-;-;-;-;-;-;-;-;-;-
1514174620472;-;-;9.201401;-0.7192688;1.607193;-;-;-;-;-;-;-;-;-;-;-;-;-;-;-
1514174620492;-;-;9.086487;-0.68814087;1.5772705;-;-;-;-;-;-;-;-;-;-;-;-;-;-;-
1514174620512;-;-;9.129578;-0.6689911;1.6191559;-;-;-;-;-;-;-;-;-;-;-;-;-;-;-
1514174620532;-;-;9.143951;-0.62828064;1.6167755;-;-;-;-;-;-;-;-;-;-;-;-;-;-;-
1514174620553;-;-;9.14035;-0.636673;1.6550751;-;-;-;-;-;-;-;-;-;-;-;-;-;-;-
1514174620573;-;-;9.106842;-0.6354675;1.6945801;-;-;-;-;-;-;-;-;-;-;-;-;-;-;-
1514174620593;-;-;9.129578;-0.6426544;1.6778259;-;-;-;-;-;-;-;-;-;-;-;-;-;-;-
1514174620613;-;-;9.108032;-0.54927063;1.670639;-;-;-;-;-;-;-;-;-;-;-;-;-;-;-
1514174620634;-;-;9.0972595;-0.5528717;1.6933899;-;-;-;-;-;-;-;-;-;-;-;-;-;-;-
1514174620654;-;-;9.086487;-0.54689026;1.7065582;-;-;-;-;-;-;-;-;-;-;-;-;-;-;-
1514174620674;-;-;9.093674;-0.5313263;1.670639;-;-;-;-;-;-;-;-;-;-;-;-;-;-;-
1514174620695;-;-;9.115219;-0.5361023;1.686203;-;-;-;-;-;-;-;-;-;-;-;-;-;-;-
1514174620715;-;-;9.094864;-0.5600586;1.6682434;-;-;-;-;-;-;-;-;-;-;-;-;-;-;-
1514174620735;-;-;9.135559;-0.57681274;1.7149353;-;-;-;-;-;-;-;-;-;-;-;-;-;-;-
1514174620756;-;-;9.164291;-0.6151123;1.741272;-;-;-;-;-;-;-;-;-;-;-;-;-;-;-
1514174620776;-;-;9.153519;-0.6701813;1.701767;-;-;-;-;-;-;-;-;-;-;-;-;-;-;-
1514174620796;-;-;9.124786;-0.61990356;1.6957703;-;-;-;-;-;-;-;-;-;-;-;-;-;-;-
1514174620817;-;-;9.036209;-0.5851898;1.7604218;-;-;-;-;-;-;-;-;-;-;-;-;-;-;-
1514174620837;-;-;9.054169;-0.542099;1.801117;-;-;-;-;-;-;-;-;-;-;-;-;-;-;-
1514174620857;-;-;9.127182;-0.54808044;1.7233124;-;-;-;-;-;-;-;-;-;-;-;-;-;-;-
1514174620878;-;-;9.0972595;-0.6043396;1.6873932;-;-;-;-;-;-;-;-;-;-;-;-;-;-;-
1514174620898;-;-;9.080505;-0.6438446;1.6981659;-;-;-;-;-;-;-;-;-;-;-;-;-;-;-
1514174620918;-;-;9.072113;-0.5923767;1.7281036;-;-;-;-;-;-;-;-;-;-;-;-;-;-;-
1514174620938;-;-;9.096069;-0.6031494;1.7077484;-;-;-;-;-;-;-;-;-;-;-;-;-;-;-
1514174620959;-;-;9.127182;-0.63786316;1.701767;-;-;-;-;-;-;-;-;-;-;-;-;-;-;-
1514174620979;-;-;9.143951;-0.6582184;1.6490936;-;-;-;-;-;-;-;-;-;-;-;-;-;-;-
1514174620999;-;-;9.116409;-0.6426544;1.6203613;-;-;-;-;-;-;-;-;-;-;-;-;-;-;-
1514174621020;-;-;9.096069;-0.6031494;1.6359253;-;-;-;-;-;-;-;-;-;-;-;-;-;-;-
1514174621040;-;-;9.151123;-0.6103363;1.6251526;-;-;-;-;-;-;-;-;-;-;-;-;-;-;-
1514174621060;-;-;9.170288;-0.5756073;1.6407166;-;-;-;-;-;-;-;-;-;-;-;-;-;-;-
1514174621080;-;-;9.154724;-0.55766296;1.646698;-;-;-;-;-;-;-;-;-;-;-;-;-;-;-
1514174621101;-;-;9.143951;-0.54927063;1.6538849;-;-;-;-;-;-;-;-;-;-;-;-;-;-;-
1514174621121;-;-;9.094864;-0.58039856;1.6454926;-;-;-;-;-;-;-;-;-;-;-;-;-;-;-
1514174621141;-;-;9.07811;-0.61631775;1.6323242;-;-;-;-;-;-;-;-;-;-;-;-;-;-;-
1514174621161;-;-;9.084091;-0.64624023;1.6849976;-;-;-;-;-;-;-;-;-;-;-;-;-;-;-
1514174621182;-;-;9.122391;-0.64505005;1.6778259;-;-;-;-;-;-;-;-;-;-;-;-;-;-;-
1514174621202;-;-;9.13916;-0.6498413;1.6790161;-;-;-;-;-;-;-;-;-;-;-;-;-;-;-
1514174621222;-;-;9.147537;-0.6510315;1.6969757;-;-;-;-;-;-;-;-;-;-;-;-;-;-;-
1514174621243;-;-;9.124786;-0.6330719;1.7041626;-;-;-;-;-;-;-;-;-;-;-;-;-;-;-
1514174621263;-;-;9.092468;-0.6103363;1.6766205;-;-;-;-;-;-;-;-;-;-;-;-;-;-;-
1514174621283;-;-;9.1128235;-0.5935669;1.6754303;-;-;-;-;-;-;-;-;-;-;-;-;-;-;-
1514174621304;-;-;9.123596;-0.61750793;1.646698;-;-;-;-;-;-;-;-;-;-;-;-;-;-;-
1514174621324;-;-;9.141556;-0.60913086;1.6766205;-;-;-;-;-;-;-;-;-;-;-;-;-;-;-
1514174621344;-;-;9.114014;-0.6007538;1.6646576;-;-;-;-;-;-;-;-;-;-;-;-;-;-;-
1514174621365;-;-;9.142746;-0.6498413;1.6431122;-;-;-;-;-;-;-;-;-;-;-;-;-;-;-
1514174621385;-;-;9.143951;-0.6474457;1.6275482;-;-;-;-;-;-;-;-;-;-;-;-;-;-;-
1514174621405;-;-;9.136765;-0.6989136;1.6550751;-;-;-;-;-;-;-;-;-;-;-;-;-;-;-
1514174621425;-;-;9.118805;-0.6701813;1.7041626;-;-;-;-;-;-;-;-;-;-;-;-;-;-;-
1514174621446;-;-;9.115219;-0.6330719;1.6778259;-;-;-;-;-;-;-;-;-;-;-;-;-;-;-
1514174621466;-;-;9.134369;-0.62350464;1.6682434;-;-;-;-;-;-;-;-;-;-;-;-;-;-;-
1514174621486;-;-;9.122391;-0.69651794;1.6897888;-;-;-;-;-;-;-;-;-;-;-;-;-;-;-
1514174621507;-;-;9.099655;-0.72525024;1.7328949;-;-;-;-;-;-;-;-;-;-;-;-;-;-;-
1514174621527;-;-;9.081696;-0.73602295;1.7819672;-;-;-;-;-;-;-;-;-;-;-;-;-;-;-
1514174621547;-;-;9.1523285;-0.72525024;1.7819672;-;-;-;-;-;-;-;-;-;-;-;-;-;-;-
1514174621568;-;-;9.118805;-0.759964;1.6921844;-;-;-;-;-;-;-;-;-;-;-;-;-;-;-
1514174621587;-;-;9.062546;-0.7587738;1.7197266;-;-;-;-;-;-;-;-;-;-;-;-;-;-;-
1514174621607;-;-;9.044586;-0.7372284;1.7556305;-;-;-;-;-;-;-;-;-;-;-;-;-;-;-
1514174621627;-;-;9.093674;-0.7013092;1.8130951;-;-;-;-;-;-;-;-;-;-;-;-;-;-;-
1514174621648;-;-;9.096069;-0.68814087;1.7831726;-;-;-;-;-;-;-;-;-;-;-;-;-;-;-
1514174621668;-;-;9.054169;-0.636673;1.7005615;-;-;-;-;-;-;-;-;-;-;-;-;-;-;-
1514174621688;-;-;9.105637;-0.6713867;1.6431122;-;-;-;-;-;-;-;-;-;-;-;-;-;-;-
1514174621709;-;-;9.122391;-0.6725769;1.6431122;-;-;-;-;-;-;-;-;-;-;-;-;-;-;-
1514174621728;-;-;9.15831;-0.67736816;1.6993713;-;-;-;-;-;-;-;-;-;-;-;-;-;-;-
1514174621748;-;-;9.167892;-0.6833496;1.6383209;-;-;-;-;-;-;-;-;-;-;-;-;-;-;-
1514174621769;-;-;9.1523285;-0.68455505;1.6179657;-;-;-;-;-;-;-;-;-;-;-;-;-;-;-
1514174621789;-;-;9.171478;-0.660614;1.7053528;-;-;-;-;-;-;-;-;-;-;-;-;-;-;-
1514174621809;-;-;9.117615;-0.66778564;1.6993713;-;-;-;-;-;-;-;-;-;-;-;-;-;-;-
1514174621829;-;-;9.070923;-0.64505005;1.701767;-;-;-;-;-;-;-;-;-;-;-;-;-;-;-
1514174621850;-;-;9.080505;-0.6713867;1.7113342;-;-;-;-;-;-;-;-;-;-;-;-;-;-;-
1514174621870;-;-;9.100845;-0.64863586;1.725708;-;-;-;-;-;-;-;-;-;-;-;-;-;-;-
1514174621890;-;-;9.064941;-0.68933105;1.8106995;-;-;-;-;-;-;-;-;-;-;-;-;-;-;-
1514174621911;-;-;9.07811;-0.7096863;1.8466187;-;-;-;-;-;-;-;-;-;-;-;-;-;-;-
1514174621931;-;-;9.121201;-0.7024994;1.8394318;-;-;-;-;-;-;-;-;-;-;-;-;-;-;-
1514174621951;-;-;9.102051;-0.67855835;1.840622;-;-;-;-;-;-;-;-;-;-;-;-;-;-;-
1514174621971;-;-;9.090073;-0.65701294;1.780777;-;-;-;-;-;-;-;-;-;-;-;-;-;-;-
1514174621992;-;-;9.074509;-0.6534271;1.7735901;-;-;-;-;-;-;-;-;-;-;-;-;-;-;-
1514174622012;-;-;9.064941;-0.6067352;1.7999268;-;-;-;-;-;-;-;-;-;-;-;-;-;-;-
1514174622032;-;-;9.035004;-0.6294861;1.7735901;-;-;-;-;-;-;-;-;-;-;-;-;-;-;-
1514174622053;-;-;9.063736;-0.64505005;1.7783813;-;-;-;-;-;-;-;-;-;-;-;-;-;-;-
1514174622073;-;-;9.069733;-0.6941223;1.804718;-;-;-;-;-;-;-;-;-;-;-;-;-;-;-
1514174622093;-;-;9.093674;-0.71806335;1.7999268;-;-;-;-;-;-;-;-;-;-;-;-;-;-;-
1514174622113;-;-;9.131973;-0.76356506;1.7819672;-;-;-;-;-;-;-;-;-;-;-;-;-;-;-
1514174622134;-;-;9.1523285;-0.7527771;1.8118896;-;-;-;-;-;-;-;-;-;-;-;-;-;-;-
1514174622154;-;-;9.087677;-0.72883606;1.8023224;-;-;-;-;-;-;-;-;-;-;-;-;-;-;-
1514174622174;-;-;9.009872;-0.68933105;1.7771759;-;-;-;-;-;-;-;-;-;-;-;-;-;-;-
1514174622194;-;-;9.006287;-0.660614;1.7987213;-;-;-;-;-;-;-;-;-;-;-;-;-;-;-
1514174622215;-;-;9.048172;-0.5899811;1.8741455;-;-;-;-;-;-;-;-;-;-;-;-;-;-;-
1514174622235;-;-;9.080505;-0.59477234;1.8609772;-;-;-;-;-;-;-;-;-;-;-;-;-;-;-
1514174622256;-;-;9.064941;-0.6474457;1.8322449;-;-;-;-;-;-;-;-;-;-;-;-;-;-;-
1514174622276;-;-;9.0577545;-0.67378235;1.8298492;-;-;-;-;-;-;-;-;-;-;-;-;-;-;-
1514174622296;-;-;9.12001;-0.61750793;1.8394318;-;-;-;-;-;-;-;-;-;-;-;-;-;-;-
1514174622316;-;-;9.179855;-0.58758545;1.7436676;-;-;-;-;-;-;-;-;-;-;-;-;-;-;-
1514174622337;-;-;9.165497;-0.61631775;1.6431122;-;-;-;-;-;-;-;-;-;-;-;-;-;-;-
1514174622357;-;-;9.133179;-0.64624023;1.6000061;-;-;-;-;-;-;-;-;-;-;-;-;-;-;-
1514174622377;-;-;9.080505;-0.6294861;1.5102234;-;-;-;-;-;-;-;-;-;-;-;-;-;-;-
1514174622398;-;-;9.039795;-0.5648346;1.5712738;-;-;-;-;-;-;-;-;-;-;-;-;-;-;-
