TimeStamp[ms];Prox[Cm];Lux[lux];AccX[m/s^2];AccY[m/s^2];AccZ[m/s^2];GyroX[rad/s];GyroY[rad/s];GyroZ[rad/s];MagnX[uT];MagnY[uT];MagnZ[uT];OrienYaw[degrees];OrienPitch[degrees];OrienRoll[degrees];Press[Pa];Temp[C°];Batt[%];Lat;Lng;Speed[m/s]
1514175001349;-;-;8.797989;-2.1067047;1.0373688;-;-;-;-;-;-;-;-;-;-;-;-;-;-;-
1514175001349;-;-;8.797989;-2.1067047;1.0373688;-;-;-;-;-;-;-;-;-;-;-;-;-;-;-
1514175001365;-;-;8.909317;-2.103119;1.0768738;-;-;-;-;-;-;-;-;-;-;-;-;-;-;-
1514175001386;-;-;9.020645;-2.0827637;1.136734;-;-;-;-;-;-;-;-;-;-;-;-;-;-;-
1514175001407;-;-;8.994308;-2.0947418;1.0828552;-;-;-;-;-;-;-;-;-;-;-;-;-;-;-
1514175001427;-;-;9.081696;-2.0983276;1.002655;-;-;-;-;-;-;-;-;-;-;-;-;-;-;-
1514175001447;-;-;9.108032;-2.1079102;0.9176636;-;-;-;-;-;-;-;-;-;-;-;-;-;-;-
1514175001469;-;-;8.988327;-1.8517303;0.92245483;-;-;-;-;-;-;-;-;-;-;-;-;-;-;-
1514175001488;-;-;9.055359;-1.8110199;0.9607544;-;-;-;-;-;-;-;-;-;-;-;-;-;-;-
1514175001509;-;-;9.110428;-1.8217926;1.0230103;-;-;-;-;-;-;-;-;-;-;-;-;-;-;-
1514175001529;-;-;9.038605;-2.0133362;0.7536621;-;-;-;-;-;-;-;-;-;-;-;-;-;-;-
1514175001549;-;-;9.165497;-1.8924255;1.0589142;-;-;-;-;-;-;-;-;-;-;-;-;-;-;-
1514175001570;-;-;9.136765;-2.2348022;0.9176636;-;-;-;-;-;-;-;-;-;-;-;-;-;-;-
1514175001602;-;-;8.359848;-1.7679291;-1.0384064;-;-;-;-;-;-;-;-;-;-;-;-;-;-;-
1514175001610;-;-;8.089294;-1.4411163;0.36460876;-;-;-;-;-;-;-;-;-;-;-;-;-;-;-
1514175001630;-;-;8.977554;-1.5488586;0.6100006;-;-;-;-;-;-;-;-;-;-;-;-;-;-;-
1514175001651;-;-;9.616806;-1.922348;0.41726685;-;-;-;-;-;-;-;-;-;-;-;-;-;-;-
1514175001671;-;-;9.3893585;-1.6781464;-0.6110382;-;-;-;-;-;-;-;-;-;-;-;-;-;-;-
1514175001691;-;-;9.288788;-1.8325653;-0.5140686;-;-;-;-;-;-;-;-;-;-;-;-;-;-;-
1514175001711;-;-;8.492722;-1.8636932;0.44599915;-;-;-;-;-;-;-;-;-;-;-;-;-;-;-
1514175001731;-;-;9.027832;-2.1138916;0.30833435;-;-;-;-;-;-;-;-;-;-;-;-;-;-;-
1514175001752;-;-;8.9392395;-1.254364;0.036590576;-;-;-;-;-;-;-;-;-;-;-;-;-;-;-
1514175001772;-;-;9.358231;-2.1773376;0.03779602;-;-;-;-;-;-;-;-;-;-;-;-;-;-;-
1514175001792;-;-;8.728546;-2.1689606;0.2448883;-;-;-;-;-;-;-;-;-;-;-;-;-;-;-
1514175001813;-;-;8.815933;-1.8804474;-0.2399292;-;-;-;-;-;-;-;-;-;-;-;-;-;-;-
1514175001833;-;-;8.601654;-1.4698486;0.03779602;-;-;-;-;-;-;-;-;-;-;-;-;-;-;-
1514175001853;-;-;9.768829;-2.2575378;-0.24832153;-;-;-;-;-;-;-;-;-;-;-;-;-;-;-
1514175001874;-;-;9.31752;-1.4937897;-0.9689636;-;-;-;-;-;-;-;-;-;-;-;-;-;-;-
1514175001894;-;-;9.024231;-1.7511597;-0.491333;-;-;-;-;-;-;-;-;-;-;-;-;-;-;-
1514175001914;-;-;8.021072;-1.4698486;0.17785645;-;-;-;-;-;-;-;-;-;-;-;-;-;-;-
1514175001935;-;-;9.085281;-1.9331207;-0.5858917;-;-;-;-;-;-;-;-;-;-;-;-;-;-;-
1514175001954;-;-;9.47554;-2.4071808;-0.60505676;-;-;-;-;-;-;-;-;-;-;-;-;-;-;-
1514175001975;-;-;9.129578;-2.238388;-0.6792755;-;-;-;-;-;-;-;-;-;-;-;-;-;-;-
1514175001994;-;-;9.242111;-1.9355164;-0.32133484;-;-;-;-;-;-;-;-;-;-;-;-;-;-;-
1514175002014;-;-;8.892548;-1.7128601;-0.6002655;-;-;-;-;-;-;-;-;-;-;-;-;-;-;-
1514175002035;-;-;9.200211;-1.5177307;-0.882782;-;-;-;-;-;-;-;-;-;-;-;-;-;-;-
1514175002055;-;-;9.070923;-1.7607422;-0.3620453;-;-;-;-;-;-;-;-;-;-;-;-;-;-;-
1514175002075;-;-;9.261261;-1.9642487;-0.22796631;-;-;-;-;-;-;-;-;-;-;-;-;-;-;-
1514175002095;-;-;9.184647;-1.9846039;-0.40274048;-;-;-;-;-;-;-;-;-;-;-;-;-;-;-
1514175002116;-;-;9.917267;-2.293457;-0.41949463;-;-;-;-;-;-;-;-;-;-;-;-;-;-;-
1514175002136;-;-;8.8207245;-2.1174774;0.19581604;-;-;-;-;-;-;-;-;-;-;-;-;-;-;-
1514175002156;-;-;9.181061;-1.6553955;0.30116272;-;-;-;-;-;-;-;-;-;-;-;-;-;-;-
1514175002177;-;-;9.1128235;-1.7344055;-0.88397217;-;-;-;-;-;-;-;-;-;-;-;-;-;-;-
1514175002196;-;-;9.141556;-1.759552;-0.1884613;-;-;-;-;-;-;-;-;-;-;-;-;-;-;-
1514175002216;-;-;9.462372;-2.040863;0.22813416;-;-;-;-;-;-;-;-;-;-;-;-;-;-;-
1514175002237;-;-;9.649124;-2.2072601;-0.061569214;-;-;-;-;-;-;-;-;-;-;-;-;-;-;-
1514175002256;-;-;9.205002;-1.3597107;-0.3764038;-;-;-;-;-;-;-;-;-;-;-;-;-;-;-
1514175002276;-;-;10.410477;-1.6326599;-0.79060364;-;-;-;-;-;-;-;-;-;-;-;-;-;-;-
1514175002297;-;-;10.072891;-1.7739105;0.079696655;-;-;-;-;-;-;-;-;-;-;-;-;-;-;-
1514175002316;-;-;9.29837;-2.4430847;-0.07952881;-;-;-;-;-;-;-;-;-;-;-;-;-;-;-
1514175002336;-;-;8.753693;-2.04924;-0.04840088;-;-;-;-;-;-;-;-;-;-;-;-;-;-;-
1514175002356;-;-;8.766861;-1.6889191;0.19102478;-;-;-;-;-;-;-;-;-;-;-;-;-;-;-
1514175002377;-;-;9.0733185;-1.225647;0.26524353;-;-;-;-;-;-;-;-;-;-;-;-;-;-;-
1514175002397;-;-;8.578918;-0.062057495;-1.100647;-;-;-;-;-;-;-;-;-;-;-;-;-;-;-
1514175002417;-;-;9.220566;-1.1023407;0.6950073;-;-;-;-;-;-;-;-;-;-;-;-;-;-;-
1514175002437;-;-;9.538986;-0.9957886;0.96554565;-;-;-;-;-;-;-;-;-;-;-;-;-;-;-
1514175002458;-;-;9.121201;-1.2471924;0.84703064;-;-;-;-;-;-;-;-;-;-;-;-;-;-;-
1514175002478;-;-;8.358643;-0.93115234;0.12876892;-;-;-;-;-;-;-;-;-;-;-;-;-;-;-
1514175002498;-;-;8.4843445;-1.7080688;0.8159027;-;-;-;-;-;-;-;-;-;-;-;-;-;-;-
1514175002519;-;-;7.9779663;-0.25120544;0.5441742;-;-;-;-;-;-;-;-;-;-;-;-;-;-;-
1514175002539;-;-;9.499481;-0.6713867;0.9092865;-;-;-;-;-;-;-;-;-;-;-;-;-;-;-
1514175002559;-;-;9.121201;-0.88446045;1.191803;-;-;-;-;-;-;-;-;-;-;-;-;-;-;-
1514175002579;-;-;8.92128;-1.0580444;0.6555023;-;-;-;-;-;-;-;-;-;-;-;-;-;-;-
1514175002600;-;-;8.298798;-0.6151123;-0.123809814;-;-;-;-;-;-;-;-;-;-;-;-;-;-;-
1514175002620;-;-;8.671097;-0.9251709;0.5704956;-;-;-;-;-;-;-;-;-;-;-;-;-;-;-
1514175002641;-;-;7.541031;-0.16142273;1.4683228;-;-;-;-;-;-;-;-;-;-;-;-;-;-;-
1514175002661;-;-;6.6432037;-0.56843567;0.2700348;-;-;-;-;-;-;-;-;-;-;-;-;-;-;-
1514175002681;-;-;8.2712555;-2.4047852;-0.66729736;-;-;-;-;-;-;-;-;-;-;-;-;-;-;-
1514175002702;-;-;8.562149;-0.9275665;-0.59547424;-;-;-;-;-;-;-;-;-;-;-;-;-;-;-
1514175002722;-;-;10.430832;-1.1849365;0.8769531;-;-;-;-;-;-;-;-;-;-;-;-;-;-;-
1514175002742;-;-;10.861786;-1.9522858;0.38015747;-;-;-;-;-;-;-;-;-;-;-;-;-;-;-
1514175002762;-;-;10.385345;-1.6230774;-1.0802917;-;-;-;-;-;-;-;-;-;-;-;-;-;-;-
1514175002783;-;-;11.857773;-1.4363251;-2.1349487;-;-;-;-;-;-;-;-;-;-;-;-;-;-;-
1514175002803;-;-;7.541031;-0.4056244;-1.0910797;-;-;-;-;-;-;-;-;-;-;-;-;-;-;-
1514175002823;-;-;7.363861;-1.2064819;5.4510803;-;-;-;-;-;-;-;-;-;-;-;-;-;-;-
1514175002844;-;-;9.80954;-1.5823822;-0.5021057;-;-;-;-;-;-;-;-;-;-;-;-;-;-;-
1514175002864;-;-;8.648346;-1.4339294;-0.3261261;-;-;-;-;-;-;-;-;-;-;-;-;-;-;-
1514175002884;-;-;9.63356;-2.4143677;0.14553833;-;-;-;-;-;-;-;-;-;-;-;-;-;-;-
1514175002904;-;-;11.013824;-2.629837;0.8925171;-;-;-;-;-;-;-;-;-;-;-;-;-;-;-
1514175002925;-;-;9.402527;-3.1613464;-0.8576355;-;-;-;-;-;-;-;-;-;-;-;-;-;-;-
1514175002945;-;-;10.309921;-1.6326599;-0.17529297;-;-;-;-;-;-;-;-;-;-;-;-;-;-;-
1514175002965;-;-;8.262878;-0.6510315;-0.590683;-;-;-;-;-;-;-;-;-;-;-;-;-;-;-
1514175002986;-;-;9.261261;-0.30267334;-0.3189392;-;-;-;-;-;-;-;-;-;-;-;-;-;-;-
1514175003006;-;-;9.825104;-0.94551086;0.5980377;-;-;-;-;-;-;-;-;-;-;-;-;-;-;-
1514175003027;-;-;9.304352;-1.1693726;-0.68525696;-;-;-;-;-;-;-;-;-;-;-;-;-;-;-
1514175003046;-;-;10.238098;-1.2400055;1.2564392;-;-;-;-;-;-;-;-;-;-;-;-;-;-;-
1514175003067;-;-;7.3530884;-0.99938965;1.1570892;-;-;-;-;-;-;-;-;-;-;-;-;-;-;-
1514175003087;-;-;6.9185333;-0.71328735;1.207367;-;-;-;-;-;-;-;-;-;-;-;-;-;-;-
1514175003107;-;-;8.876999;-1.5380859;0.2843933;-;-;-;-;-;-;-;-;-;-;-;-;-;-;-
1514175003128;-;-;8.871002;-1.5763855;-0.25190735;-;-;-;-;-;-;-;-;-;-;-;-;-;-;-
1514175003148;-;-;9.032608;-1.412384;-0.73194885;-;-;-;-;-;-;-;-;-;-;-;-;-;-;-
1514175003169;-;-;8.818329;-1.0077667;-1.0120697;-;-;-;-;-;-;-;-;-;-;-;-;-;-;-
1514175003189;-;-;9.916077;-1.6110992;-0.43984985;-;-;-;-;-;-;-;-;-;-;-;-;-;-;-
1514175003209;-;-;9.183456;-1.1418457;-1.4178772;-;-;-;-;-;-;-;-;-;-;-;-;-;-;-
1514175003229;-;-;8.1922455;-0.8856659;-2.3851318;-;-;-;-;-;-;-;-;-;-;-;-;-;-;-
1514175003250;-;-;8.037827;-0.7444;-1.2024078;-;-;-;-;-;-;-;-;-;-;-;-;-;-;-
1514175003269;-;-;7.845093;-0.6701813;-0.72476196;-;-;-;-;-;-;-;-;-;-;-;-;-;-;-
1514175003290;-;-;8.085709;-0.73243713;-1.0635376;-;-;-;-;-;-;-;-;-;-;-;-;-;-;-
1514175003310;-;-;8.32872;-0.85453796;-1.7626495;-;-;-;-;-;-;-;-;-;-;-;-;-;-;-
1514175003329;-;-;8.453217;-1.0245209;-2.0547333;-;-;-;-;-;-;-;-;-;-;-;-;-;-;-
1514175003349;-;-;8.420898;-1.4399261;-1.3783722;-;-;-;-;-;-;-;-;-;-;-;-;-;-;-
1514175003370;-;-;8.491531;-2.1462097;-1.4789276;-;-;-;-;-;-;-;-;-;-;-;-;-;-;-
1514175003390;-;-;8.875793;-2.388031;-1.3101501;-;-;-;-;-;-;-;-;-;-;-;-;-;-;-
1514175003409;-;-;9.258865;-2.1545868;-1.5890656;-;-;-;-;-;-;-;-;-;-;-;-;-;-;-
1514175003430;-;-;9.5677185;-1.467453;-2.211563;-;-;-;-;-;-;-;-;-;-;-;-;-;-;-
1514175003450;-;-;8.90094;-0.9862213;-3.04953;-;-;-;-;-;-;-;-;-;-;-;-;-;-;-
1514175003470;-;-;8.118027;-0.7276459;-2.9609375;-;-;-;-;-;-;-;-;-;-;-;-;-;-;-
1514175003490;-;-;7.4644165;-0.13986206;-2.8292694;-;-;-;-;-;-;-;-;-;-;-;-;-;-;-
1514175003510;-;-;6.9185333;0.56881714;-3.0447388;-;-;-;-;-;-;-;-;-;-;-;-;-;-;-
1514175003531;-;-;5.8878326;0.6035309;-3.1309357;-;-;-;-;-;-;-;-;-;-;-;-;-;-;-
1514175003551;-;-;5.193512;0.064834595;-2.8747559;-;-;-;-;-;-;-;-;-;-;-;-;-;-;-
1514175003571;-;-;5.0127563;-0.6127167;-2.6389313;-;-;-;-;-;-;-;-;-;-;-;-;-;-;-
1514175003592;-;-;5.5670013;-1.155014;-2.0403748;-;-;-;-;-;-;-;-;-;-;-;-;-;-;-
1514175003612;-;-;6.039856;-1.2950745;-1.6525116;-;-;-;-;-;-;-;-;-;-;-;-;-;-;-
1514175003632;-;-;5.826782;-1.4818115;-2.4138641;-;-;-;-;-;-;-;-;-;-;-;-;-;-;-
1514175003652;-;-;6.067398;-1.799057;-2.9477692;-;-;-;-;-;-;-;-;-;-;-;-;-;-;-
1514175003673;-;-;7.0095215;-1.9259491;-3.519989;-;-;-;-;-;-;-;-;-;-;-;-;-;-;-
1514175003694;-;-;8.125214;-1.5871582;-3.824051;-;-;-;-;-;-;-;-;-;-;-;-;-;-;-
1514175003713;-;-;8.631592;-0.67378235;-3.994049;-;-;-;-;-;-;-;-;-;-;-;-;-;-;-
1514175003734;-;-;7.9779663;0.24798584;-4.0598907;-;-;-;-;-;-;-;-;-;-;-;-;-;-;-
1514175003754;-;-;7.5386353;0.26235962;-4.2657776;-;-;-;-;-;-;-;-;-;-;-;-;-;-;-
1514175003774;-;-;7.363861;-0.30506897;-4.7661743;-;-;-;-;-;-;-;-;-;-;-;-;-;-;-
1514175003795;-;-;8.626801;-0.8533478;-4.8463745;-;-;-;-;-;-;-;-;-;-;-;-;-;-;-
1514175003815;-;-;9.299576;-0.98861694;-4.3663483;-;-;-;-;-;-;-;-;-;-;-;-;-;-;-
1514175003835;-;-;8.82193;-1.0424805;-4.2921143;-;-;-;-;-;-;-;-;-;-;-;-;-;-;-
1514175003856;-;-;8.610046;-0.94192505;-4.578232;-;-;-;-;-;-;-;-;-;-;-;-;-;-;-
1514175003875;-;-;7.869034;0.08039856;-5.116928;-;-;-;-;-;-;-;-;-;-;-;-;-;-;-
1514175003895;-;-;8.874603;-0.124313354;-4.8379974;-;-;-;-;-;-;-;-;-;-;-;-;-;-;-
1514175003916;-;-;10.004654;-0.9874115;-4.369934;-;-;-;-;-;-;-;-;-;-;-;-;-;-;-
1514175003935;-;-;9.220566;-1.3046417;-4.4345703;-;-;-;-;-;-;-;-;-;-;-;-;-;-;-
1514175003956;-;-;8.363434;-1.2411957;-4.313675;-;-;-;-;-;-;-;-;-;-;-;-;-;-;-
1514175003976;-;-;8.599258;-0.94911194;-4.0586853;-;-;-;-;-;-;-;-;-;-;-;-;-;-;-
1514175003997;-;-;9.23613;-0.23564148;-4.27536;-;-;-;-;-;-;-;-;-;-;-;-;-;-;-
1514175004017;-;-;9.087677;-0.11114502;-4.3172607;-;-;-;-;-;-;-;-;-;-;-;-;-;-;-
1514175004037;-;-;9.372589;-0.720459;-4.1305084;-;-;-;-;-;-;-;-;-;-;-;-;-;-;-
1514175004057;-;-;11.526184;-2.1330414;-3.338028;-;-;-;-;-;-;-;-;-;-;-;-;-;-;-
1514175004078;-;-;14.784683;-2.6501923;-3.0842438;-;-;-;-;-;-;-;-;-;-;-;-;-;-;-
1514175004098;-;-;17.14177;-0.9371338;-4.27417;-;-;-;-;-;-;-;-;-;-;-;-;-;-;-
1514175004118;-;-;16.955032;0.24320984;-6.0997467;-;-;-;-;-;-;-;-;-;-;-;-;-;-;-
1514175004139;-;-;16.011719;-0.052474976;-7.665558;-;-;-;-;-;-;-;-;-;-;-;-;-;-;-
1514175004159;-;-;14.902008;-0.07762146;-3.753418;-;-;-;-;-;-;-;-;-;-;-;-;-;-;-
1514175004179;-;-;11.217331;-0.8665161;-1.7949677;-;-;-;-;-;-;-;-;-;-;-;-;-;-;-
1514175004199;-;-;7.4488525;-1.3561249;-0.43147278;-;-;-;-;-;-;-;-;-;-;-;-;-;-;-
1514175004220;-;-;4.568619;-1.3070374;1.112793;-;-;-;-;-;-;-;-;-;-;-;-;-;-;-
1514175004240;-;-;3.6732025;-0.25837708;1.0924377;-;-;-;-;-;-;-;-;-;-;-;-;-;-;-
1514175004260;-;-;2.7059326;0.85491943;1.6897888;-;-;-;-;-;-;-;-;-;-;-;-;-;-;-
1514175004281;-;-;6.474411;0.5640259;1.0050507;-;-;-;-;-;-;-;-;-;-;-;-;-;-;-
1514175004301;-;-;9.752075;-1.1657867;0.053359985;-;-;-;-;-;-;-;-;-;-;-;-;-;-;-
1514175004321;-;-;11.207748;-2.9195404;-1.5447693;-;-;-;-;-;-;-;-;-;-;-;-;-;-;-
1514175004341;-;-;10.63913;-2.9841766;-1.5220337;-;-;-;-;-;-;-;-;-;-;-;-;-;-;-
1514175004362;-;-;10.271622;-2.1533966;-1.2526855;-;-;-;-;-;-;-;-;-;-;-;-;-;-;-
1514175004382;-;-;10.46196;-1.0652313;-0.15614319;-;-;-;-;-;-;-;-;-;-;-;-;-;-;-
1514175004402;-;-;9.999878;-0.37091064;0.37417603;-;-;-;-;-;-;-;-;-;-;-;-;-;-;-
1514175004423;-;-;9.322311;-0.30387878;0.86380005;-;-;-;-;-;-;-;-;-;-;-;-;-;-;-
1514175004442;-;-;9.2756195;-0.74679565;0.84584045;-;-;-;-;-;-;-;-;-;-;-;-;-;-;-
1514175004462;-;-;9.346252;-1.0113525;0.7931671;-;-;-;-;-;-;-;-;-;-;-;-;-;-;-
1514175004483;-;-;8.739319;-0.6941223;0.7321167;-;-;-;-;-;-;-;-;-;-;-;-;-;-;-
1514175004503;-;-;8.0928955;-0.86172485;0.46516418;-;-;-;-;-;-;-;-;-;-;-;-;-;-;-
1514175004523;-;-;7.6415863;-1.151413;0.05215454;-;-;-;-;-;-;-;-;-;-;-;-;-;-;-
1514175004544;-;-;7.624832;-1.0951538;0.216156;-;-;-;-;-;-;-;-;-;-;-;-;-;-;-
1514175004564;-;-;7.968399;-0.7731323;0.47473145;-;-;-;-;-;-;-;-;-;-;-;-;-;-;-
1514175004584;-;-;8.490326;-0.48582458;0.6363373;-;-;-;-;-;-;-;-;-;-;-;-;-;-;-
1514175004605;-;-;9.249298;-0.19613647;0.6950073;-;-;-;-;-;-;-;-;-;-;-;-;-;-;-
1514175004625;-;-;9.9388275;-0.3589325;0.8123169;-;-;-;-;-;-;-;-;-;-;-;-;-;-;-
1514175004646;-;-;10.093246;-1.5404816;0.14912415;-;-;-;-;-;-;-;-;-;-;-;-;-;-;-
1514175004666;-;-;9.900513;-1.7068787;0.25326538;-;-;-;-;-;-;-;-;-;-;-;-;-;-;-
1514175004686;-;-;9.365402;-1.6290588;0.88653564;-;-;-;-;-;-;-;-;-;-;-;-;-;-;-
1514175004707;-;-;9.009872;-1.8469391;1.0589142;-;-;-;-;-;-;-;-;-;-;-;-;-;-;-
1514175004727;-;-;8.809952;-1.735611;1.3653717;-;-;-;-;-;-;-;-;-;-;-;-;-;-;-
1514175004747;-;-;8.455612;-1.1190948;1.073288;-;-;-;-;-;-;-;-;-;-;-;-;-;-;-
1514175004768;-;-;8.60405;-0.65582275;0.79914856;-;-;-;-;-;-;-;-;-;-;-;-;-;-;-
1514175004788;-;-;9.808334;-0.67736816;1.0792694;-;-;-;-;-;-;-;-;-;-;-;-;-;-;-
1514175004808;-;-;10.888123;-0.7922821;0.85661316;-;-;-;-;-;-;-;-;-;-;-;-;-;-;-
1514175004828;-;-;10.171051;-0.0010070801;0.62916565;-;-;-;-;-;-;-;-;-;-;-;-;-;-;-
1514175004849;-;-;9.074509;1.0416718;0.82069397;-;-;-;-;-;-;-;-;-;-;-;-;-;-;-
1514175004869;-;-;8.589691;0.92196655;0.89730835;-;-;-;-;-;-;-;-;-;-;-;-;-;-;-
1514175004890;-;-;8.7764435;-0.05368042;0.28799438;-;-;-;-;-;-;-;-;-;-;-;-;-;-;-
1514175004910;-;-;9.25528;-0.8090515;-0.26507568;-;-;-;-;-;-;-;-;-;-;-;-;-;-;-
1514175004930;-;-;9.822708;-0.8066559;-0.7594757;-;-;-;-;-;-;-;-;-;-;-;-;-;-;-
1514175004950;-;-;9.902908;-0.30625916;-1.1916351;-;-;-;-;-;-;-;-;-;-;-;-;-;-;-
1514175004971;-;-;9.814316;0.5089569;-1.2287445;-;-;-;-;-;-;-;-;-;-;-;-;-;-;-
1514175004990;-;-;9.489914;0.47903442;-0.7187805;-;-;-;-;-;-;-;-;-;-;-;-;-;-;-
1514175005010;-;-;9.966354;-0.6043396;-0.22557068;-;-;-;-;-;-;-;-;-;-;-;-;-;-;-
1514175005031;-;-;9.273239;-0.8210144;-0.496109;-;-;-;-;-;-;-;-;-;-;-;-;-;-;-
1514175005051;-;-;8.833893;-0.29429626;-0.11064148;-;-;-;-;-;-;-;-;-;-;-;-;-;-;-
1514175005071;-;-;8.988327;-0.26556396;-0.28422546;-;-;-;-;-;-;-;-;-;-;-;-;-;-;-
1514175005092;-;-;9.224152;-0.2799225;-0.3249359;-;-;-;-;-;-;-;-;-;-;-;-;-;-;-
1514175005112;-;-;9.643143;-0.40083313;-0.72117615;-;-;-;-;-;-;-;-;-;-;-;-;-;-;-
1514175005132;-;-;9.531799;-0.3481598;-0.9174957;-;-;-;-;-;-;-;-;-;-;-;-;-;-;-
1514175005153;-;-;9.358231;-0.77194214;-0.7115936;-;-;-;-;-;-;-;-;-;-;-;-;-;-;-
1514175005174;-;-;8.850662;-1.1322632;-0.81933594;-;-;-;-;-;-;-;-;-;-;-;-;-;-;-
1514175005193;-;-;9.374985;-1.1873322;-0.59547424;-;-;-;-;-;-;-;-;-;-;-;-;-;-;-
1514175005212;-;-;9.015854;-1.4578705;-0.46020508;-;-;-;-;-;-;-;-;-;-;-;-;-;-;-
1514175005233;-;-;9.301956;-1.1166992;-0.2578888;-;-;-;-;-;-;-;-;-;-;-;-;-;-;-
1514175005253;-;-;9.029022;-1.4387207;0.171875;-;-;-;-;-;-;-;-;-;-;-;-;-;-;-
1514175005273;-;-;8.52504;-1.4782257;0.14672852;-;-;-;-;-;-;-;-;-;-;-;-;-;-;-
1514175005294;-;-;9.615601;-1.4662628;0.39692688;-;-;-;-;-;-;-;-;-;-;-;-;-;-;-
1514175005314;-;-;9.840652;-1.5297089;0.4974823;-;-;-;-;-;-;-;-;-;-;-;-;-;-;-
1514175005335;-;-;8.910507;-0.9167938;0.22094727;-;-;-;-;-;-;-;-;-;-;-;-;-;-;-
1514175005355;-;-;9.329498;0.03970337;0.28320313;-;-;-;-;-;-;-;-;-;-;-;-;-;-;-
1514175005375;-;-;9.865799;-0.1877594;0.4388275;-;-;-;-;-;-;-;-;-;-;-;-;-;-;-
1514175005395;-;-;9.4887085;-0.3757019;0.22453308;-;-;-;-;-;-;-;-;-;-;-;-;-;-;-
1514175005416;-;-;9.309143;-0.8353882;0.108428955;-;-;-;-;-;-;-;-;-;-;-;-;-;-;-
1514175005436;-;-;9.015854;-0.7420044;0.098846436;-;-;-;-;-;-;-;-;-;-;-;-;-;-;-
1514175005457;-;-;9.445618;-0.36611938;0.2700348;-;-;-;-;-;-;-;-;-;-;-;-;-;-;-
1514175005477;-;-;9.154724;-0.16142273;0.43762207;-;-;-;-;-;-;-;-;-;-;-;-;-;-;-
1514175005497;-;-;8.550186;-0.12071228;0.43762207;-;-;-;-;-;-;-;-;-;-;-;-;-;-;-
1514175005517;-;-;8.174301;-0.29429626;0.5561371;-;-;-;-;-;-;-;-;-;-;-;-;-;-;-
1514175005538;-;-;8.113235;-0.2607727;1.033783;-;-;-;-;-;-;-;-;-;-;-;-;-;-;-
1514175005558;-;-;9.099655;-0.67855835;1.6239471;-;-;-;-;-;-;-;-;-;-;-;-;-;-;-
1514175005578;-;-;9.561737;-0.88327026;0.642334;-;-;-;-;-;-;-;-;-;-;-;-;-;-;-
1514175005598;-;-;10.074097;-0.5384979;-0.10586548;-;-;-;-;-;-;-;-;-;-;-;-;-;-;-
1514175005618;-;-;9.117615;-0.07522583;-0.26268005;-;-;-;-;-;-;-;-;-;-;-;-;-;-;-
1514175005639;-;-;10.1566925;-0.07043457;0.6255646;-;-;-;-;-;-;-;-;-;-;-;-;-;-;-
1514175005659;-;-;9.134369;-0.5528717;0.7225342;-;-;-;-;-;-;-;-;-;-;-;-;-;-;-
1514175005679;-;-;9.934036;-1.2914734;0.70817566;-;-;-;-;-;-;-;-;-;-;-;-;-;-;-
1514175005699;-;-;8.788406;-1.1538086;0.31671143;-;-;-;-;-;-;-;-;-;-;-;-;-;-;-
1514175005720;-;-;9.224152;-0.36132813;0.47712708;-;-;-;-;-;-;-;-;-;-;-;-;-;-;-
1514175005740;-;-;7.9037476;0.24440002;0.9894867;-;-;-;-;-;-;-;-;-;-;-;-;-;-;-
1514175005760;-;-;8.443649;-0.6546173;0.9703369;-;-;-;-;-;-;-;-;-;-;-;-;-;-;-
1514175005781;-;-;9.287598;-0.996994;1.097229;-;-;-;-;-;-;-;-;-;-;-;-;-;-;-
1514175005801;-;-;9.1523285;-0.8162384;0.67225647;-;-;-;-;-;-;-;-;-;-;-;-;-;-;-
1514175005821;-;-;8.890167;-0.5253296;0.4040985;-;-;-;-;-;-;-;-;-;-;-;-;-;-;-
1514175005841;-;-;9.220566;-0.45231628;0.9775238;-;-;-;-;-;-;-;-;-;-;-;-;-;-;-
1514175005862;-;-;9.506668;-0.62828064;0.83625793;-;-;-;-;-;-;-;-;-;-;-;-;-;-;-
1514175005881;-;-;9.668274;-1.1430359;0.66867065;-;-;-;-;-;-;-;-;-;-;-;-;-;-;-
1514175005901;-;-;9.137955;-1.4985809;0.9499817;-;-;-;-;-;-;-;-;-;-;-;-;-;-;-
1514175005921;-;-;8.674683;-1.0939636;0.6674652;-;-;-;-;-;-;-;-;-;-;-;-;-;-;-
1514175005942;-;-;8.441254;-0.783905;0.30116272;-;-;-;-;-;-;-;-;-;-;-;-;-;-;-
1514175005962;-;-;8.662704;-1.1478271;0.24848938;-;-;-;-;-;-;-;-;-;-;-;-;-;-;-
1514175005982;-;-;8.720169;-0.8593292;0.6710663;-;-;-;-;-;-;-;-;-;-;-;-;-;-;-
1514175006003;-;-;9.082901;-0.4092102;0.96315;-;-;-;-;-;-;-;-;-;-;-;-;-;-;-
1514175006022;-;-;9.717361;-0.34217834;0.67225647;-;-;-;-;-;-;-;-;-;-;-;-;-;-;-
1514175006042;-;-;10.336258;-0.99938965;0.0569458;-;-;-;-;-;-;-;-;-;-;-;-;-;-;-
1514175006063;-;-;10.475128;-1.4375305;0.16708374;-;-;-;-;-;-;-;-;-;-;-;-;-;-;-
1514175006083;-;-;10.034592;-1.5524445;0.2915802;-;-;-;-;-;-;-;-;-;-;-;-;-;-;-
1514175006103;-;-;9.029022;-1.4243622;0.60162354;-;-;-;-;-;-;-;-;-;-;-;-;-;-;-
1514175006123;-;-;8.837494;-1.2016907;0.8027344;-;-;-;-;-;-;-;-;-;-;-;-;-;-;-
1514175006143;-;-;8.656723;-1.0185394;0.9535675;-;-;-;-;-;-;-;-;-;-;-;-;-;-;-
1514175006164;-;-;8.873398;-0.9981842;0.9918823;-;-;-;-;-;-;-;-;-;-;-;-;-;-;-
1514175006184;-;-;8.941635;-0.9084015;1.1175842;-;-;-;-;-;-;-;-;-;-;-;-;-;-;-
1514175006204;-;-;9.12001;-0.9467163;0.8338623;-;-;-;-;-;-;-;-;-;-;-;-;-;-;-
1514175006225;-;-;9.245697;-0.96707153;1.207367;-;-;-;-;-;-;-;-;-;-;-;-;-;-;-
1514175006245;-;-;9.213379;-1.1394501;1.5509338;-;-;-;-;-;-;-;-;-;-;-;-;-;-;-
1514175006265;-;-;8.551376;-1.0975494;1.6107788;-;-;-;-;-;-;-;-;-;-;-;-;-;-;-
1514175006286;-;-;8.448425;-1.1334686;1.6838074;-;-;-;-;-;-;-;-;-;-;-;-;-;-;-
1514175006306;-;-;8.596878;-1.0843811;1.7999268;-;-;-;-;-;-;-;-;-;-;-;-;-;-;-
1514175006326;-;-;9.041;-0.9910126;1.9651184;-;-;-;-;-;-;-;-;-;-;-;-;-;-;-
1514175006346;-;-;9.015854;-1.1274719;1.7197266;-;-;-;-;-;-;-;-;-;-;-;-;-;-;-
1514175006367;-;-;8.912903;-1.3046417;1.6024017;-;-;-;-;-;-;-;-;-;-;-;-;-;-;-
1514175006387;-;-;9.155914;-1.3668976;1.8154907;-;-;-;-;-;-;-;-;-;-;-;-;-;-;-
1514175006407;-;-;9.516251;-1.2232513;1.8095093;-;-;-;-;-;-;-;-;-;-;-;-;-;-;-
1514175006427;-;-;9.75087;-0.7803192;1.2660217;-;-;-;-;-;-;-;-;-;-;-;-;-;-;-
1514175006448;-;-;9.516251;-0.5720215;1.1439209;-;-;-;-;-;-;-;-;-;-;-;-;-;-;-
1514175006469;-;-;9.311539;-0.59117126;1.1905975;-;-;-;-;-;-;-;-;-;-;-;-;-;-;-
1514175006488;-;-;8.996704;-0.97784424;0.87934875;-;-;-;-;-;-;-;-;-;-;-;-;-;-;-
1514175006509;-;-;8.914108;-1.2447968;0.6566925;-;-;-;-;-;-;-;-;-;-;-;-;-;-;-
1514175006529;-;-;8.988327;-1.1921234;0.65908813;-;-;-;-;-;-;-;-;-;-;-;-;-;-;-
1514175006550;-;-;9.038605;-0.9443207;0.70217896;-;-;-;-;-;-;-;-;-;-;-;-;-;-;-
1514175006570;-;-;9.066132;-0.9263611;0.64352417;-;-;-;-;-;-;-;-;-;-;-;-;-;-;-
1514175006590;-;-;9.169083;-0.9934082;0.587265;-;-;-;-;-;-;-;-;-;-;-;-;-;-;-
1514175006610;-;-;9.458786;-1.0245209;0.6052246;-;-;-;-;-;-;-;-;-;-;-;-;-;-;-
1514175006631;-;-;9.592865;-0.9646759;0.6854248;-;-;-;-;-;-;-;-;-;-;-;-;-;-;-
1514175006651;-;-;9.448013;-1.0436859;0.67944336;-;-;-;-;-;-;-;-;-;-;-;-;-;-;-
1514175006671;-;-;9.225342;-1.131073;0.71655273;-;-;-;-;-;-;-;-;-;-;-;-;-;-;-
1514175006691;-;-;9.037399;-1.1143036;0.8721771;-;-;-;-;-;-;-;-;-;-;-;-;-;-;-
1514175006712;-;-;8.971558;-1.0376892;0.8877411;-;-;-;-;-;-;-;-;-;-;-;-;-;-;-
1514175006732;-;-;9.014664;-1.0245209;0.9487915;-;-;-;-;-;-;-;-;-;-;-;-;-;-;-
1514175006752;-;-;9.261261;-1.0712128;0.9595642;-;-;-;-;-;-;-;-;-;-;-;-;-;-;-
1514175006773;-;-;9.3498535;-1.0412903;0.7763977;-;-;-;-;-;-;-;-;-;-;-;-;-;-;-
1514175006793;-;-;9.436035;-1.0113525;0.76683044;-;-;-;-;-;-;-;-;-;-;-;-;-;-;-
1514175006813;-;-;9.421677;-0.9874115;0.66267395;-;-;-;-;-;-;-;-;-;-;-;-;-;-;-
1514175006834;-;-;9.391739;-0.9191742;0.46875;-;-;-;-;-;-;-;-;-;-;-;-;-;-;-
1514175006854;-;-;9.408508;-0.9395294;0.42565918;-;-;-;-;-;-;-;-;-;-;-;-;-;-;-
1514175006874;-;-;9.201401;-0.9874115;0.40769958;-;-;-;-;-;-;-;-;-;-;-;-;-;-;-
1514175006895;-;-;9.050568;-1.0305176;0.44360352;-;-;-;-;-;-;-;-;-;-;-;-;-;-;-
1514175006915;-;-;9.141556;-0.973053;0.73928833;-;-;-;-;-;-;-;-;-;-;-;-;-;-;-
1514175006935;-;-;9.105637;-0.87249756;0.9032898;-;-;-;-;-;-;-;-;-;-;-;-;-;-;-
1514175006956;-;-;9.081696;-0.86172485;0.93681335;-;-;-;-;-;-;-;-;-;-;-;-;-;-;-
1514175006976;-;-;9.200211;-0.917984;0.78956604;-;-;-;-;-;-;-;-;-;-;-;-;-;-;-
1514175006996;-;-;9.279221;-0.94192505;0.7763977;-;-;-;-;-;-;-;-;-;-;-;-;-;-;-
1514175007017;-;-;9.212173;-0.91200256;0.78118896;-;-;-;-;-;-;-;-;-;-;-;-;-;-;-
1514175007037;-;-;9.122391;-0.7815094;0.83865356;-;-;-;-;-;-;-;-;-;-;-;-;-;-;-
1514175007057;-;-;9.116409;-0.84376526;0.87457275;-;-;-;-;-;-;-;-;-;-;-;-;-;-;-
1514175007077;-;-;9.164291;-0.87368774;0.9595642;-;-;-;-;-;-;-;-;-;-;-;-;-;-;-
1514175007098;-;-;9.129578;-0.9072113;1.0242004;-;-;-;-;-;-;-;-;-;-;-;-;-;-;-
1514175007118;-;-;9.216965;-0.9107971;0.97273254;-;-;-;-;-;-;-;-;-;-;-;-;-;-;-
1514175007138;-;-;9.197815;-0.88446045;0.94400024;-;-;-;-;-;-;-;-;-;-;-;-;-;-;-
1514175007159;-;-;9.21817;-0.86291504;0.9463959;-;-;-;-;-;-;-;-;-;-;-;-;-;-;-
1514175007179;-;-;9.200211;-0.8102417;0.9416046;-;-;-;-;-;-;-;-;-;-;-;-;-;-;-
1514175007199;-;-;9.129578;-0.7875061;0.9751282;-;-;-;-;-;-;-;-;-;-;-;-;-;-;-
1514175007219;-;-;9.094864;-0.799469;0.9894867;-;-;-;-;-;-;-;-;-;-;-;-;-;-;-
1514175007240;-;-;9.151123;-0.7623596;0.9822998;-;-;-;-;-;-;-;-;-;-;-;-;-;-;-
1514175007259;-;-;9.15712;-0.8162384;1.04216;-;-;-;-;-;-;-;-;-;-;-;-;-;-;-
1514175007279;-;-;9.146347;-0.87968445;1.0840607;-;-;-;-;-;-;-;-;-;-;-;-;-;-;-
1514175007299;-;-;9.178665;-0.9395294;1.0936432;-;-;-;-;-;-;-;-;-;-;-;-;-;-;-
1514175007320;-;-;9.199005;-0.9251709;1.0768738;-;-;-;-;-;-;-;-;-;-;-;-;-;-;-
1514175007340;-;-;9.196625;-0.8880615;1.1151886;-;-;-;-;-;-;-;-;-;-;-;-;-;-;-
1514175007360;-;-;9.147537;-0.9167938;1.0565186;-;-;-;-;-;-;-;-;-;-;-;-;-;-;-
1514175007381;-;-;9.143951;-0.8701019;1.1271515;-;-;-;-;-;-;-;-;-;-;-;-;-;-;-
1514175007401;-;-;9.2313385;-0.8868561;1.2289124;-;-;-;-;-;-;-;-;-;-;-;-;-;-;-
1514175007421;-;-;9.299576;-0.8880615;1.0601196;-;-;-;-;-;-;-;-;-;-;-;-;-;-;-
1514175007441;-;-;9.246902;-0.7958832;0.8913269;-;-;-;-;-;-;-;-;-;-;-;-;-;-;-
1514175007461;-;-;9.146347;-0.76594543;0.9020996;-;-;-;-;-;-;-;-;-;-;-;-;-;-;-
1514175007482;-;-;9.090073;-0.74320984;0.9799042;-;-;-;-;-;-;-;-;-;-;-;-;-;-;-
1514175007502;-;-;9.032608;-0.7707367;1.097229;-;-;-;-;-;-;-;-;-;-;-;-;-;-;-
1514175007522;-;-;8.96199;-0.8317871;1.1822205;-;-;-;-;-;-;-;-;-;-;-;-;-;-;-
1514175007543;-;-;9.06015;-0.8701019;1.212143;-;-;-;-;-;-;-;-;-;-;-;-;-;-;-
1514175007563;-;-;9.136765;-0.8820648;1.2049713;-;-;-;-;-;-;-;-;-;-;-;-;-;-;-
1514175007583;-;-;9.23613;-0.8820648;1.239685;-;-;-;-;-;-;-;-;-;-;-;-;-;-;-
1514175007604;-;-;9.260071;-0.8928528;1.2133484;-;-;-;-;-;-;-;-;-;-;-;-;-;-;-
1514175007623;-;-;9.226547;-0.88327026;1.2037659;-;-;-;-;-;-;-;-;-;-;-;-;-;-;-
1514175007643;-;-;9.129578;-0.85214233;1.20018;-;-;-;-;-;-;-;-;-;-;-;-;-;-;-
1514175007664;-;-;9.0972595;-0.7910919;1.1846161;-;-;-;-;-;-;-;-;-;-;-;-;-;-;-
1514175007684;-;-;9.103241;-0.74320984;1.2025757;-;-;-;-;-;-;-;-;-;-;-;-;-;-;-
1514175007704;-;-;9.197815;-0.6546173;1.1882019;-;-;-;-;-;-;-;-;-;-;-;-;-;-;-
1514175007724;-;-;9.244507;-0.65940857;1.12117;-;-;-;-;-;-;-;-;-;-;-;-;-;-;-
1514175007745;-;-;9.188232;-0.6187134;1.0852509;-;-;-;-;-;-;-;-;-;-;-;-;-;-;-
1514175007765;-;-;9.114014;-0.65701294;1.0828552;-;-;-;-;-;-;-;-;-;-;-;-;-;-;-
1514175007786;-;-;9.099655;-0.69651794;1.0948334;-;-;-;-;-;-;-;-;-;-;-;-;-;-;-
1514175007805;-;-;9.134369;-0.7372284;1.12117;-;-;-;-;-;-;-;-;-;-;-;-;-;-;-
1514175007826;-;-;9.17746;-0.76116943;1.191803;-;-;-;-;-;-;-;-;-;-;-;-;-;-;-
1514175007846;-;-;9.118805;-0.71806335;1.2241211;-;-;-;-;-;-;-;-;-;-;-;-;-;-;-
1514175007866;-;-;9.131973;-0.7623596;1.251648;-;-;-;-;-;-;-;-;-;-;-;-;-;-;-
1514175007887;-;-;9.15831;-0.75398254;1.2959442;-;-;-;-;-;-;-;-;-;-;-;-;-;-;-
1514175007907;-;-;9.154724;-0.7958832;1.2803802;-;-;-;-;-;-;-;-;-;-;-;-;-;-;-
1514175007927;-;-;9.172684;-0.73243713;1.2169342;-;-;-;-;-;-;-;-;-;-;-;-;-;-;-
1514175007948;-;-;9.116409;-0.7096863;1.2037659;-;-;-;-;-;-;-;-;-;-;-;-;-;-;-
1514175007968;-;-;9.042191;-0.6294861;1.2803802;-;-;-;-;-;-;-;-;-;-;-;-;-;-;-
1514175007988;-;-;9.137955;-0.6067352;1.251648;-;-;-;-;-;-;-;-;-;-;-;-;-;-;-
1514175008009;-;-;9.172684;-0.6067352;1.2277069;-;-;-;-;-;-;-;-;-;-;-;-;-;-;-
1514175008029;-;-;9.161896;-0.6438446;1.2432709;-;-;-;-;-;-;-;-;-;-;-;-;-;-;-
1514175008049;-;-;9.161896;-0.6546173;1.2025757;-;-;-;-;-;-;-;-;-;-;-;-;-;-;-
1514175008070;-;-;9.145142;-0.7515869;1.2265167;-;-;-;-;-;-;-;-;-;-;-;-;-;-;-
1514175008090;-;-;9.118805;-0.720459;1.2540436;-;-;-;-;-;-;-;-;-;-;-;-;-;-;-
1514175008111;-;-;9.128387;-0.680954;1.2097473;-;-;-;-;-;-;-;-;-;-;-;-;-;-;-
1514175008131;-;-;9.165497;-0.6474457;1.1750336;-;-;-;-;-;-;-;-;-;-;-;-;-;-;-
1514175008151;-;-;9.13916;-0.660614;1.1882019;-;-;-;-;-;-;-;-;-;-;-;-;-;-;-
1514175008171;-;-;9.145142;-0.63786316;1.2109528;-;-;-;-;-;-;-;-;-;-;-;-;-;-;-
1514175008191;-;-;9.161896;-0.6534271;1.2085571;-;-;-;-;-;-;-;-;-;-;-;-;-;-;-
1514175008212;-;-;9.133179;-0.63905334;1.2348938;-;-;-;-;-;-;-;-;-;-;-;-;-;-;-
1514175008232;-;-;9.146347;-0.67497253;1.3139038;-;-;-;-;-;-;-;-;-;-;-;-;-;-;-
1514175008252;-;-;9.148727;-0.68455505;1.2732086;-;-;-;-;-;-;-;-;-;-;-;-;-;-;-
1514175008273;-;-;9.141556;-0.65940857;1.2504578;-;-;-;-;-;-;-;-;-;-;-;-;-;-;-
1514175008293;-;-;9.164291;-0.67378235;1.2193298;-;-;-;-;-;-;-;-;-;-;-;-;-;-;-
1514175008313;-;-;9.129578;-0.7408142;1.251648;-;-;-;-;-;-;-;-;-;-;-;-;-;-;-
1514175008333;-;-;9.12001;-0.6929321;1.2636261;-;-;-;-;-;-;-;-;-;-;-;-;-;-;-
1514175008354;-;-;9.0733185;-0.6989136;1.310318;-;-;-;-;-;-;-;-;-;-;-;-;-;-;-
1514175008374;-;-;9.121201;-0.65940857;1.2384796;-;-;-;-;-;-;-;-;-;-;-;-;-;-;-
1514175008395;-;-;9.154724;-0.6641998;1.2564392;-;-;-;-;-;-;-;-;-;-;-;-;-;-;-
1514175008415;-;-;9.131973;-0.6797638;1.246872;-;-;-;-;-;-;-;-;-;-;-;-;-;-;-
1514175008435;-;-;9.147537;-0.6905365;1.2815857;-;-;-;-;-;-;-;-;-;-;-;-;-;-;-
1514175008456;-;-;9.166687;-0.7013092;1.2265167;-;-;-;-;-;-;-;-;-;-;-;-;-;-;-
1514175008476;-;-;9.135559;-0.65701294;1.236084;-;-;-;-;-;-;-;-;-;-;-;-;-;-;-
1514175008496;-;-;9.136765;-0.7096863;1.2480621;-;-;-;-;-;-;-;-;-;-;-;-;-;-;-
1514175008516;-;-;9.102051;-0.67497253;1.2253113;-;-;-;-;-;-;-;-;-;-;-;-;-;-;-
1514175008537;-;-;9.086487;-0.6941223;1.2504578;-;-;-;-;-;-;-;-;-;-;-;-;-;-;-
1514175008557;-;-;9.103241;-0.66778564;1.291153;-;-;-;-;-;-;-;-;-;-;-;-;-;-;-
1514175008577;-;-;9.194229;-0.6761627;1.3126984;-;-;-;-;-;-;-;-;-;-;-;-;-;-;-
1514175008598;-;-;9.147537;-0.65701294;1.2133484;-;-;-;-;-;-;-;-;-;-;-;-;-;-;-
1514175008618;-;-;9.17627;-0.64624023;1.1977844;-;-;-;-;-;-;-;-;-;-;-;-;-;-;-
1514175008638;-;-;9.166687;-0.69532776;1.2660217;-;-;-;-;-;-;-;-;-;-;-;-;-;-;-
1514175008659;-;-;9.15831;-0.7120819;1.2684174;-;-;-;-;-;-;-;-;-;-;-;-;-;-;-
1514175008678;-;-;9.092468;-0.71806335;1.291153;-;-;-;-;-;-;-;-;-;-;-;-;-;-;-
1514175008698;-;-;9.066132;-0.6977234;1.2923584;-;-;-;-;-;-;-;-;-;-;-;-;-;-;-
1514175008719;-;-;9.12001;-0.68814087;1.2504578;-;-;-;-;-;-;-;-;-;-;-;-;-;-;-
1514175008739;-;-;9.148727;-0.69532776;1.2253113;-;-;-;-;-;-;-;-;-;-;-;-;-;-;-
1514175008759;-;-;9.17746;-0.720459;1.2672119;-;-;-;-;-;-;-;-;-;-;-;-;-;-;-
1514175008780;-;-;9.213379;-0.7084961;1.2899628;-;-;-;-;-;-;-;-;-;-;-;-;-;-;-
1514175008800;-;-;9.165497;-0.700119;1.2181396;-;-;-;-;-;-;-;-;-;-;-;-;-;-;-
1514175008820;-;-;9.1523285;-0.71806335;1.2803802;-;-;-;-;-;-;-;-;-;-;-;-;-;-;-
1514175008841;-;-;9.072113;-0.6821594;1.251648;-;-;-;-;-;-;-;-;-;-;-;-;-;-;-
1514175008861;-;-;9.124786;-0.7312317;1.2337036;-;-;-;-;-;-;-;-;-;-;-;-;-;-;-
1514175008881;-;-;9.136765;-0.72406006;1.2169342;-;-;-;-;-;-;-;-;-;-;-;-;-;-;-
1514175008901;-;-;9.147537;-0.7312317;1.2660217;-;-;-;-;-;-;-;-;-;-;-;-;-;-;-
1514175008922;-;-;9.114014;-0.7312317;1.270813;-;-;-;-;-;-;-;-;-;-;-;-;-;-;-
1514175008942;-;-;9.129578;-0.67378235;1.2983398;-;-;-;-;-;-;-;-;-;-;-;-;-;-;-
1514175008962;-;-;9.161896;-0.68574524;1.2696075;-;-;-;-;-;-;-;-;-;-;-;-;-;-;-
1514175008982;-;-;9.173874;-0.704895;1.2612305;-;-;-;-;-;-;-;-;-;-;-;-;-;-;-
1514175009002;-;-;9.165497;-0.68455505;1.2923584;-;-;-;-;-;-;-;-;-;-;-;-;-;-;-
1514175009023;-;-;9.081696;-0.72525024;1.2564392;-;-;-;-;-;-;-;-;-;-;-;-;-;-;-
1514175009043;-;-;9.142746;-0.70729065;1.2767944;-;-;-;-;-;-;-;-;-;-;-;-;-;-;-
1514175009063;-;-;9.131973;-0.70610046;1.294754;-;-;-;-;-;-;-;-;-;-;-;-;-;-;-
1514175009084;-;-;9.160706;-0.66659546;1.2576447;-;-;-;-;-;-;-;-;-;-;-;-;-;-;-
1514175009104;-;-;9.167892;-0.6701813;1.2827759;-;-;-;-;-;-;-;-;-;-;-;-;-;-;-
1514175009124;-;-;9.209793;-0.6797638;1.3210907;-;-;-;-;-;-;-;-;-;-;-;-;-;-;-
1514175009145;-;-;9.171478;-0.6761627;1.2480621;-;-;-;-;-;-;-;-;-;-;-;-;-;-;-
1514175009165;-;-;9.102051;-0.6917267;1.246872;-;-;-;-;-;-;-;-;-;-;-;-;-;-;-
1514175009185;-;-;9.128387;-0.7096863;1.3198853;-;-;-;-;-;-;-;-;-;-;-;-;-;-;-
1514175009206;-;-;9.135559;-0.70729065;1.2959442;-;-;-;-;-;-;-;-;-;-;-;-;-;-;-
1514175009225;-;-;9.12001;-0.6438446;1.2492523;-;-;-;-;-;-;-;-;-;-;-;-;-;-;-
1514175009245;-;-;9.109222;-0.680954;1.2420807;-;-;-;-;-;-;-;-;-;-;-;-;-;-;-
1514175009266;-;-;9.136765;-0.7120819;1.3294678;-;-;-;-;-;-;-;-;-;-;-;-;-;-;-
1514175009286;-;-;9.12001;-0.70610046;1.2983398;-;-;-;-;-;-;-;-;-;-;-;-;-;-;-
1514175009306;-;-;9.14035;-0.74560547;1.3055267;-;-;-;-;-;-;-;-;-;-;-;-;-;-;-
1514175009327;-;-;9.125992;-0.6725769;1.2923584;-;-;-;-;-;-;-;-;-;-;-;-;-;-;-
1514175009347;-;-;9.15831;-0.6917267;1.2492523;-;-;-;-;-;-;-;-;-;-;-;-;-;-;-
1514175009367;-;-;9.175064;-0.67736816;1.3079224;-;-;-;-;-;-;-;-;-;-;-;-;-;-;-
1514175009388;-;-;9.146347;-0.704895;1.275589;-;-;-;-;-;-;-;-;-;-;-;-;-;-;-
1514175009407;-;-;9.155914;-0.67497253;1.2863617;-;-;-;-;-;-;-;-;-;-;-;-;-;-;-
1514175009427;-;-;9.171478;-0.70729065;1.3270721;-;-;-;-;-;-;-;-;-;-;-;-;-;-;-
1514175009448;-;-;9.175064;-0.700119;1.291153;-;-;-;-;-;-;-;-;-;-;-;-;-;-;-
1514175009468;-;-;9.131973;-0.69532776;1.2923584;-;-;-;-;-;-;-;-;-;-;-;-;-;-;-
1514175009488;-;-;9.145142;-0.65701294;1.2971497;-;-;-;-;-;-;-;-;-;-;-;-;-;-;-
1514175009509;-;-;9.146347;-0.67497253;1.3019257;-;-;-;-;-;-;-;-;-;-;-;-;-;-;-
1514175009529;-;-;9.118805;-0.68814087;1.270813;-;-;-;-;-;-;-;-;-;-;-;-;-;-;-
1514175009549;-;-;9.105637;-0.7372284;1.3079224;-;-;-;-;-;-;-;-;-;-;-;-;-;-;-
1514175009570;-;-;9.109222;-0.7108917;1.3354492;-;-;-;-;-;-;-;-;-;-;-;-;-;-;-
1514175009590;-;-;9.104446;-0.7096863;1.3354492;-;-;-;-;-;-;-;-;-;-;-;-;-;-;-
1514175009610;-;-;9.110428;-0.7084961;1.3198853;-;-;-;-;-;-;-;-;-;-;-;-;-;-;-
1514175009631;-;-;9.13916;-0.68933105;1.2863617;-;-;-;-;-;-;-;-;-;-;-;-;-;-;-
1514175009651;-;-;9.125992;-0.6797638;1.3079224;-;-;-;-;-;-;-;-;-;-;-;-;-;-;-
1514175009671;-;-;9.171478;-0.65582275;1.2863617;-;-;-;-;-;-;-;-;-;-;-;-;-;-;-
1514175009691;-;-;9.1523285;-0.6941223;1.2588348;-;-;-;-;-;-;-;-;-;-;-;-;-;-;-
1514175009712;-;-;9.154724;-0.67736816;1.2624207;-;-;-;-;-;-;-;-;-;-;-;-;-;-;-
1514175009731;-;-;9.129578;-0.64863586;1.2636261;-;-;-;-;-;-;-;-;-;-;-;-;-;-;-
1514175009751;-;-;9.125992;-0.6546173;1.3007355;-;-;-;-;-;-;-;-;-;-;-;-;-;-;-
1514175009772;-;-;9.143951;-0.6582184;1.2923584;-;-;-;-;-;-;-;-;-;-;-;-;-;-;-
1514175009792;-;-;9.172684;-0.6941223;1.330658;-;-;-;-;-;-;-;-;-;-;-;-;-;-;-
1514175009812;-;-;9.148727;-0.7276459;1.3019257;-;-;-;-;-;-;-;-;-;-;-;-;-;-;-
1514175009833;-;-;9.045776;-0.6438446;1.354599;-;-;-;-;-;-;-;-;-;-;-;-;-;-;-
1514175009852;-;-;9.074509;-0.7444;1.4072723;-;-;-;-;-;-;-;-;-;-;-;-;-;-;-
1514175009872;-;-;9.102051;-0.7563782;1.4276276;-;-;-;-;-;-;-;-;-;-;-;-;-;-;-
1514175009892;-;-;9.0972595;-0.7563782;1.3569946;-;-;-;-;-;-;-;-;-;-;-;-;-;-;-
1514175009913;-;-;9.115219;-0.7527771;1.3354492;-;-;-;-;-;-;-;-;-;-;-;-;-;-;-
1514175009932;-;-;9.170288;-0.7551727;1.334259;-;-;-;-;-;-;-;-;-;-;-;-;-;-;-
1514175009952;-;-;9.161896;-0.74320984;1.3893127;-;-;-;-;-;-;-;-;-;-;-;-;-;-;-
1514175009972;-;-;9.111618;-0.799469;1.3917084;-;-;-;-;-;-;-;-;-;-;-;-;-;-;-
1514175009993;-;-;9.102051;-0.8317871;1.3749542;-;-;-;-;-;-;-;-;-;-;-;-;-;-;-
1514175010013;-;-;9.090073;-0.7695465;1.3270721;-;-;-;-;-;-;-;-;-;-;-;-;-;-;-
1514175010033;-;-;9.117615;-0.7503967;1.2923584;-;-;-;-;-;-;-;-;-;-;-;-;-;-;-
1514175010054;-;-;9.17627;-0.69651794;1.2624207;-;-;-;-;-;-;-;-;-;-;-;-;-;-;-
1514175010074;-;-;9.201401;-0.6941223;1.2229156;-;-;-;-;-;-;-;-;-;-;-;-;-;-;-
1514175010094;-;-;9.135559;-0.6833496;1.2229156;-;-;-;-;-;-;-;-;-;-;-;-;-;-;-
1514175010115;-;-;9.189438;-0.625885;1.2337036;-;-;-;-;-;-;-;-;-;-;-;-;-;-;-
1514175010134;-;-;9.154724;-0.6139221;1.2253113;-;-;-;-;-;-;-;-;-;-;-;-;-;-;-
1514175010154;-;-;9.175064;-0.6354675;1.239685;-;-;-;-;-;-;-;-;-;-;-;-;-;-;-
1514175010174;-;-;9.155914;-0.63427734;1.2564392;-;-;-;-;-;-;-;-;-;-;-;-;-;-;-
1514175010195;-;-;9.163101;-0.6821594;1.2696075;-;-;-;-;-;-;-;-;-;-;-;-;-;-;-
1514175010215;-;-;9.0972595;-0.67736816;1.294754;-;-;-;-;-;-;-;-;-;-;-;-;-;-;-
1514175010236;-;-;9.12001;-0.6905365;1.3450317;-;-;-;-;-;-;-;-;-;-;-;-;-;-;-
1514175010256;-;-;9.117615;-0.66300964;1.3713684;-;-;-;-;-;-;-;-;-;-;-;-;-;-;-
1514175010276;-;-;9.135559;-0.6797638;1.4001007;-;-;-;-;-;-;-;-;-;-;-;-;-;-;-
1514175010296;-;-;9.114014;-0.6522217;1.4515686;-;-;-;-;-;-;-;-;-;-;-;-;-;-;-
1514175010317;-;-;9.085281;-0.6689911;1.4384003;-;-;-;-;-;-;-;-;-;-;-;-;-;-;-
1514175010337;-;-;9.115219;-0.6498413;1.449173;-;-;-;-;-;-;-;-;-;-;-;-;-;-;-
1514175010357;-;-;9.124786;-0.64863586;1.4599457;-;-;-;-;-;-;-;-;-;-;-;-;-;-;-
1514175010378;-;-;9.141556;-0.62709045;1.4372101;-;-;-;-;-;-;-;-;-;-;-;-;-;-;-
1514175010398;-;-;9.110428;-0.6641998;1.413269;-;-;-;-;-;-;-;-;-;-;-;-;-;-;-
1514175010418;-;-;9.118805;-0.61631775;1.3893127;-;-;-;-;-;-;-;-;-;-;-;-;-;-;-
1514175010438;-;-;9.094864;-0.5672302;1.3988953;-;-;-;-;-;-;-;-;-;-;-;-;-;-;-
1514175010459;-;-;9.130783;-0.62828064;1.3797455;-;-;-;-;-;-;-;-;-;-;-;-;-;-;-
1514175010479;-;-;9.173874;-0.6222992;1.3617859;-;-;-;-;-;-;-;-;-;-;-;-;-;-;-
1514175010499;-;-;9.166687;-0.6246948;1.3378448;-;-;-;-;-;-;-;-;-;-;-;-;-;-;-
1514175010520;-;-;9.130783;-0.59117126;1.3510132;-;-;-;-;-;-;-;-;-;-;-;-;-;-;-
1514175010539;-;-;9.0972595;-0.6007538;1.4048767;-;-;-;-;-;-;-;-;-;-;-;-;-;-;-
1514175010559;-;-;9.147537;-0.6079407;1.3977051;-;-;-;-;-;-;-;-;-;-;-;-;-;-;-
1514175010580;-;-;9.171478;-0.6402588;1.3617859;-;-;-;-;-;-;-;-;-;-;-;-;-;-;-
1514175010599;-;-;9.104446;-0.6833496;1.3558044;-;-;-;-;-;-;-;-;-;-;-;-;-;-;-
1514175010619;-;-;9.129578;-0.6833496;1.4551544;-;-;-;-;-;-;-;-;-;-;-;-;-;-;-
1514175010640;-;-;9.106842;-0.6618042;1.4910736;-;-;-;-;-;-;-;-;-;-;-;-;-;-;-
1514175010660;-;-;9.087677;-0.63427734;1.5066376;-;-;-;-;-;-;-;-;-;-;-;-;-;-;-
1514175010680;-;-;9.075714;-0.58039856;1.4623413;-;-;-;-;-;-;-;-;-;-;-;-;-;-;-
1514175010701;-;-;9.103241;-0.56243896;1.4360046;-;-;-;-;-;-;-;-;-;-;-;-;-;-;-
1514175010721;-;-;9.104446;-0.621109;1.4587555;-;-;-;-;-;-;-;-;-;-;-;-;-;-;-
1514175010741;-;-;9.104446;-0.6151123;1.4755096;-;-;-;-;-;-;-;-;-;-;-;-;-;-;-
1514175010762;-;-;9.1128235;-0.62828064;1.4407959;-;-;-;-;-;-;-;-;-;-;-;-;-;-;-
1514175010782;-;-;9.116409;-0.6294861;1.4611511;-;-;-;-;-;-;-;-;-;-;-;-;-;-;-
1514175010802;-;-;9.091278;-0.6222992;1.4994507;-;-;-;-;-;-;-;-;-;-;-;-;-;-;-
1514175010823;-;-;9.0972595;-0.641449;1.4503784;-;-;-;-;-;-;-;-;-;-;-;-;-;-;-
1514175010843;-;-;9.091278;-0.61631775;1.4922638;-;-;-;-;-;-;-;-;-;-;-;-;-;-;-
1514175010863;-;-;9.123596;-0.6246948;1.3977051;-;-;-;-;-;-;-;-;-;-;-;-;-;-;-
1514175010883;-;-;9.163101;-0.63786316;1.3617859;-;-;-;-;-;-;-;-;-;-;-;-;-;-;-
1514175010904;-;-;9.142746;-0.61990356;1.4407959;-;-;-;-;-;-;-;-;-;-;-;-;-;-;-
1514175010924;-;-;9.103241;-0.6618042;1.4036865;-;-;-;-;-;-;-;-;-;-;-;-;-;-;-
1514175010944;-;-;9.146347;-0.6701813;1.4156494;-;-;-;-;-;-;-;-;-;-;-;-;-;-;-
1514175010965;-;-;9.164291;-0.6103363;1.4192505;-;-;-;-;-;-;-;-;-;-;-;-;-;-;-
1514175010984;-;-;9.137955;-0.61990356;1.4192505;-;-;-;-;-;-;-;-;-;-;-;-;-;-;-
1514175011004;-;-;9.07811;-0.6246948;1.4324188;-;-;-;-;-;-;-;-;-;-;-;-;-;-;-
1514175011024;-;-;9.12001;-0.6043396;1.3964996;-;-;-;-;-;-;-;-;-;-;-;-;-;-;-
1514175011045;-;-;9.087677;-0.63067627;1.373764;-;-;-;-;-;-;-;-;-;-;-;-;-;-;-
1514175011065;-;-;9.122391;-0.6294861;1.3222809;-;-;-;-;-;-;-;-;-;-;-;-;-;-;-
1514175011085;-;-;9.196625;-0.6426544;1.3258667;-;-;-;-;-;-;-;-;-;-;-;-;-;-;-
1514175011106;-;-;9.171478;-0.63905334;1.3091125;-;-;-;-;-;-;-;-;-;-;-;-;-;-;-
1514175011126;-;-;9.106842;-0.60913086;1.2971497;-;-;-;-;-;-;-;-;-;-;-;-;-;-;-
1514175011146;-;-;9.069733;-0.58877563;1.2851715;-;-;-;-;-;-;-;-;-;-;-;-;-;-;-
1514175011167;-;-;9.066132;-0.61631775;1.2923584;-;-;-;-;-;-;-;-;-;-;-;-;-;-;-
1514175011187;-;-;9.108032;-0.6246948;1.330658;-;-;-;-;-;-;-;-;-;-;-;-;-;-;-
1514175011207;-;-;9.165497;-0.6031494;1.2839813;-;-;-;-;-;-;-;-;-;-;-;-;-;-;-
1514175011228;-;-;9.274429;-0.56962585;1.3139038;-;-;-;-;-;-;-;-;-;-;-;-;-;-;-
1514175011248;-;-;9.161896;-0.49899292;1.3162994;-;-;-;-;-;-;-;-;-;-;-;-;-;-;-
1514175011268;-;-;9.146347;-0.5612488;1.2875671;-;-;-;-;-;-;-;-;-;-;-;-;-;-;-
1514175011288;-;-;9.230133;-0.6905365;1.2265167;-;-;-;-;-;-;-;-;-;-;-;-;-;-;-
1514175011308;-;-;9.193024;-0.7408142;1.1726379;-;-;-;-;-;-;-;-;-;-;-;-;-;-;-
1514175011329;-;-;9.25528;-0.70729065;1.2528534;-;-;-;-;-;-;-;-;-;-;-;-;-;-;-
1514175011349;-;-;9.137955;-0.6546173;1.2181396;-;-;-;-;-;-;-;-;-;-;-;-;-;-;-
1514175011369;-;-;9.111618;-0.6139221;1.112793;-;-;-;-;-;-;-;-;-;-;-;-;-;-;-
1514175011389;-;-;9.121201;-0.6151123;1.0301971;-;-;-;-;-;-;-;-;-;-;-;-;-;-;-
1514175011410;-;-;9.185837;-0.60194397;1.0589142;-;-;-;-;-;-;-;-;-;-;-;-;-;-;-
1514175011430;-;-;9.207397;-0.59117126;1.0206146;-;-;-;-;-;-;-;-;-;-;-;-;-;-;-
1514175011450;-;-;9.242111;-0.6031494;1.0313873;-;-;-;-;-;-;-;-;-;-;-;-;-;-;-
1514175011471;-;-;9.193024;-0.581604;1.0038605;-;-;-;-;-;-;-;-;-;-;-;-;-;-;-
1514175011491;-;-;9.196625;-0.6438446;1.0242004;-;-;-;-;-;-;-;-;-;-;-;-;-;-;-
1514175011511;-;-;9.155914;-0.6426544;0.9882965;-;-;-;-;-;-;-;-;-;-;-;-;-;-;-
1514175011532;-;-;9.184647;-0.59117126;1.0541382;-;-;-;-;-;-;-;-;-;-;-;-;-;-;-
1514175011551;-;-;9.143951;-0.58758545;1.033783;-;-;-;-;-;-;-;-;-;-;-;-;-;-;-
1514175011571;-;-;9.147537;-0.6139221;1.0254059;-;-;-;-;-;-;-;-;-;-;-;-;-;-;-
1514175011591;-;-;9.167892;-0.66659546;1.1163788;-;-;-;-;-;-;-;-;-;-;-;-;-;-;-
1514175011612;-;-;9.137955;-0.6330719;1.1666565;-;-;-;-;-;-;-;-;-;-;-;-;-;-;-
1514175011632;-;-;9.134369;-0.6522217;1.1151886;-;-;-;-;-;-;-;-;-;-;-;-;-;-;-
1514175011652;-;-;9.170288;-0.62350464;1.1008148;-;-;-;-;-;-;-;-;-;-;-;-;-;-;-
1514175011673;-;-;9.200211;-0.5636444;1.097229;-;-;-;-;-;-;-;-;-;-;-;-;-;-;-
1514175011693;-;-;9.203796;-0.4954071;1.1163788;-;-;-;-;-;-;-;-;-;-;-;-;-;-;-
1514175011713;-;-;9.169083;-0.52893066;1.1343384;-;-;-;-;-;-;-;-;-;-;-;-;-;-;-
1514175011733;-;-;9.14035;-0.53730774;1.1475067;-;-;-;-;-;-;-;-;-;-;-;-;-;-;-
1514175011754;-;-;9.111618;-0.5049896;1.1558838;-;-;-;-;-;-;-;-;-;-;-;-;-;-;-
1514175011773;-;-;9.163101;-0.5277252;1.033783;-;-;-;-;-;-;-;-;-;-;-;-;-;-;-
1514175011793;-;-;9.131973;-0.54808044;1.0864563;-;-;-;-;-;-;-;-;-;-;-;-;-;-;-
1514175011814;-;-;9.143951;-0.52653503;1.0768738;-;-;-;-;-;-;-;-;-;-;-;-;-;-;-
1514175011834;-;-;9.135559;-0.51934814;1.0984192;-;-;-;-;-;-;-;-;-;-;-;-;-;-;-
1514175011854;-;-;9.208588;-0.49661255;1.0625153;-;-;-;-;-;-;-;-;-;-;-;-;-;-;-
1514175011874;-;-;9.159515;-0.5097656;1.0589142;-;-;-;-;-;-;-;-;-;-;-;-;-;-;-
1514175011895;-;-;9.184647;-0.5923767;1.0661011;-;-;-;-;-;-;-;-;-;-;-;-;-;-;-
1514175011915;-;-;9.091278;-0.58758545;1.1331329;-;-;-;-;-;-;-;-;-;-;-;-;-;-;-
1514175011935;-;-;9.196625;-0.60194397;1.1451111;-;-;-;-;-;-;-;-;-;-;-;-;-;-;-
1514175011956;-;-;9.189438;-0.6103363;1.0505371;-;-;-;-;-;-;-;-;-;-;-;-;-;-;-
1514175011976;-;-;9.141556;-0.5756073;0.9990692;-;-;-;-;-;-;-;-;-;-;-;-;-;-;-
1514175011996;-;-;9.1523285;-0.5564575;1.0792694;-;-;-;-;-;-;-;-;-;-;-;-;-;-;-
1514175012017;-;-;9.148727;-0.55885315;1.0780792;-;-;-;-;-;-;-;-;-;-;-;-;-;-;-
1514175012037;-;-;9.166687;-0.581604;1.1247559;-;-;-;-;-;-;-;-;-;-;-;-;-;-;-
1514175012057;-;-;9.200211;-0.6426544;1.0912476;-;-;-;-;-;-;-;-;-;-;-;-;-;-;-
1514175012077;-;-;9.194229;-0.6115265;0.99069214;-;-;-;-;-;-;-;-;-;-;-;-;-;-;-
1514175012098;-;-;9.153519;-0.59835815;1.0050507;-;-;-;-;-;-;-;-;-;-;-;-;-;-;-
1514175012118;-;-;9.128387;-0.61631775;0.9607544;-;-;-;-;-;-;-;-;-;-;-;-;-;-;-
1514175012138;-;-;9.1128235;-0.6103363;0.96913147;-;-;-;-;-;-;-;-;-;-;-;-;-;-;-
1514175012159;-;-;9.153519;-0.6103363;1.0038605;-;-;-;-;-;-;-;-;-;-;-;-;-;-;-
1514175012179;-;-;9.122391;-0.62709045;0.95118713;-;-;-;-;-;-;-;-;-;-;-;-;-;-;-
1514175012199;-;-;9.122391;-0.59477234;0.9020996;-;-;-;-;-;-;-;-;-;-;-;-;-;-;-
1514175012220;-;-;9.206192;-0.6246948;0.88414;-;-;-;-;-;-;-;-;-;-;-;-;-;-;-
1514175012239;-;-;9.203796;-0.5564575;0.8039398;-;-;-;-;-;-;-;-;-;-;-;-;-;-;-
1514175012259;-;-;9.285202;-0.53730774;0.7644348;-;-;-;-;-;-;-;-;-;-;-;-;-;-;-
1514175012279;-;-;9.25647;-0.51216125;0.6890106;-;-;-;-;-;-;-;-;-;-;-;-;-;-;-
1514175012300;-;-;9.220566;-0.5708313;0.686615;-;-;-;-;-;-;-;-;-;-;-;-;-;-;-
1514175012319;-;-;9.196625;-0.6294861;0.71055603;-;-;-;-;-;-;-;-;-;-;-;-;-;-;-
1514175012339;-;-;9.21817;-0.63067627;0.70936584;-;-;-;-;-;-;-;-;-;-;-;-;-;-;-
1514175012359;-;-;9.225342;-0.6618042;0.7572479;-;-;-;-;-;-;-;-;-;-;-;-;-;-;-
1514175012380;-;-;9.21817;-0.66778564;0.74768066;-;-;-;-;-;-;-;-;-;-;-;-;-;-;-
1514175012399;-;-;9.205002;-0.65940857;0.78718567;-;-;-;-;-;-;-;-;-;-;-;-;-;-;-
1514175012419;-;-;9.201401;-0.6833496;0.7716217;-;-;-;-;-;-;-;-;-;-;-;-;-;-;-
1514175012440;-;-;9.135559;-0.6115265;0.7512665;-;-;-;-;-;-;-;-;-;-;-;-;-;-;-
1514175012459;-;-;9.1918335;-0.58399963;0.73809814;-;-;-;-;-;-;-;-;-;-;-;-;-;-;-
1514175012479;-;-;9.159515;-0.54689026;0.7045746;-;-;-;-;-;-;-;-;-;-;-;-;-;-;-
1514175012500;-;-;9.116409;-0.5361023;0.7033844;-;-;-;-;-;-;-;-;-;-;-;-;-;-;-
1514175012520;-;-;9.069733;-0.5564575;0.7763977;-;-;-;-;-;-;-;-;-;-;-;-;-;-;-
1514175012540;-;-;9.037399;-0.6139221;0.7799988;-;-;-;-;-;-;-;-;-;-;-;-;-;-;-
1514175012560;-;-;9.011063;-0.6426544;0.8159027;-;-;-;-;-;-;-;-;-;-;-;-;-;-;-
1514175012581;-;-;9.064941;-0.6438446;0.899704;-;-;-;-;-;-;-;-;-;-;-;-;-;-;-
1514175012601;-;-;9.353439;-0.7192688;0.9739227;-;-;-;-;-;-;-;-;-;-;-;-;-;-;-
1514175012621;-;-;9.345062;-0.67378235;0.9451904;-;-;-;-;-;-;-;-;-;-;-;-;-;-;-
1514175012642;-;-;9.369003;-0.704895;0.8985138;-;-;-;-;-;-;-;-;-;-;-;-;-;-;-
1514175012662;-;-;9.418076;-0.6498413;0.79556274;-;-;-;-;-;-;-;-;-;-;-;-;-;-;-
1514175012682;-;-;9.403717;-0.5456848;0.68063354;-;-;-;-;-;-;-;-;-;-;-;-;-;-;-
1514175012703;-;-;9.325912;-0.5325165;0.5190277;-;-;-;-;-;-;-;-;-;-;-;-;-;-;-
1514175012723;-;-;9.151123;-0.54689026;0.33467102;-;-;-;-;-;-;-;-;-;-;-;-;-;-;-
1514175012743;-;-;9.002686;-0.6115265;0.2341156;-;-;-;-;-;-;-;-;-;-;-;-;-;-;-
1514175012763;-;-;9.008667;-0.621109;0.26643372;-;-;-;-;-;-;-;-;-;-;-;-;-;-;-
1514175012784;-;-;9.1128235;-0.6127167;0.4040985;-;-;-;-;-;-;-;-;-;-;-;-;-;-;-
1514175012804;-;-;9.205002;-0.63067627;0.45318604;-;-;-;-;-;-;-;-;-;-;-;-;-;-;-
1514175012824;-;-;9.294785;-0.62709045;0.53100586;-;-;-;-;-;-;-;-;-;-;-;-;-;-;-
1514175012845;-;-;9.358231;-0.6318817;0.6171875;-;-;-;-;-;-;-;-;-;-;-;-;-;-;-
1514175012865;-;-;9.318726;-0.66539;0.5657196;-;-;-;-;-;-;-;-;-;-;-;-;-;-;-
1514175012885;-;-;9.135559;-0.5827942;0.47354126;-;-;-;-;-;-;-;-;-;-;-;-;-;-;-
1514175012906;-;-;9.148727;-0.6905365;0.40171814;-;-;-;-;-;-;-;-;-;-;-;-;-;-;-
1514175012926;-;-;9.178665;-0.6534271;0.3717804;-;-;-;-;-;-;-;-;-;-;-;-;-;-;-
1514175012946;-;-;9.13916;-0.7024994;0.4280548;-;-;-;-;-;-;-;-;-;-;-;-;-;-;-
1514175012967;-;-;9.210983;-0.74679565;0.56811523;-;-;-;-;-;-;-;-;-;-;-;-;-;-;-
1514175012987;-;-;9.123596;-0.7264557;0.4388275;-;-;-;-;-;-;-;-;-;-;-;-;-;-;-
1514175013007;-;-;9.17746;-0.69532776;0.43643188;-;-;-;-;-;-;-;-;-;-;-;-;-;-;-
1514175013027;-;-;9.195419;-0.65940857;0.36221313;-;-;-;-;-;-;-;-;-;-;-;-;-;-;-
1514175013048;-;-;9.233734;-0.71328735;0.32510376;-;-;-;-;-;-;-;-;-;-;-;-;-;-;-
1514175013068;-;-;9.267242;-0.680954;0.29037476;-;-;-;-;-;-;-;-;-;-;-;-;-;-;-
1514175013088;-;-;9.252884;-0.660614;0.24130249;-;-;-;-;-;-;-;-;-;-;-;-;-;-;-
1514175013109;-;-;9.257675;-0.61631775;0.22932434;-;-;-;-;-;-;-;-;-;-;-;-;-;-;-
1514175013129;-;-;9.142746;-0.5049896;0.065322876;-;-;-;-;-;-;-;-;-;-;-;-;-;-;-
1514175013149;-;-;9.145142;-0.5744171;0.09764099;-;-;-;-;-;-;-;-;-;-;-;-;-;-;-
1514175013169;-;-;9.082901;-0.6007538;0.03060913;-;-;-;-;-;-;-;-;-;-;-;-;-;-;-
1514175013190;-;-;9.154724;-0.72406006;0.06652832;-;-;-;-;-;-;-;-;-;-;-;-;-;-;-
1514175013210;-;-;9.178665;-0.77194214;0.08088684;-;-;-;-;-;-;-;-;-;-;-;-;-;-;-
1514175013230;-;-;9.341461;-0.85572815;0.04975891;-;-;-;-;-;-;-;-;-;-;-;-;-;-;-
1514175013251;-;-;9.329498;-0.8748932;-0.099868774;-;-;-;-;-;-;-;-;-;-;-;-;-;-;-
1514175013271;-;-;9.130783;-0.77194214;-0.27464294;-;-;-;-;-;-;-;-;-;-;-;-;-;-;-
1514175013291;-;-;9.136765;-0.65940857;-0.12501526;-;-;-;-;-;-;-;-;-;-;-;-;-;-;-
1514175013311;-;-;9.127182;-0.5827942;-0.15733337;-;-;-;-;-;-;-;-;-;-;-;-;-;-;-
1514175013332;-;-;9.170288;-0.6330719;-0.19683838;-;-;-;-;-;-;-;-;-;-;-;-;-;-;-
1514175013353;-;-;9.09845;-0.6618042;-0.35604858;-;-;-;-;-;-;-;-;-;-;-;-;-;-;-
1514175013372;-;-;9.251678;-0.76116943;-0.25309753;-;-;-;-;-;-;-;-;-;-;-;-;-;-;-
1514175013393;-;-;9.295975;-0.8473511;-0.22317505;-;-;-;-;-;-;-;-;-;-;-;-;-;-;-
1514175013412;-;-;9.312744;-0.8641205;-0.2578888;-;-;-;-;-;-;-;-;-;-;-;-;-;-;-
1514175013432;-;-;9.29718;-0.8988342;-0.2854309;-;-;-;-;-;-;-;-;-;-;-;-;-;-;-
1514175013453;-;-;9.303162;-0.95269775;-0.3297119;-;-;-;-;-;-;-;-;-;-;-;-;-;-;-
1514175013473;-;-;9.230133;-1.012558;-0.34169006;-;-;-;-;-;-;-;-;-;-;-;-;-;-;-
1514175013494;-;-;9.221756;-0.9359436;-0.4278717;-;-;-;-;-;-;-;-;-;-;-;-;-;-;-
1514175013515;-;-;9.17627;-0.8353882;-0.48773193;-;-;-;-;-;-;-;-;-;-;-;-;-;-;-
1514175013535;-;-;9.193024;-0.73243713;-0.5607605;-;-;-;-;-;-;-;-;-;-;-;-;-;-;-
1514175013555;-;-;9.261261;-0.68933105;-0.56555176;-;-;-;-;-;-;-;-;-;-;-;-;-;-;-
1514175013575;-;-;9.258865;-0.73483276;-0.6086426;-;-;-;-;-;-;-;-;-;-;-;-;-;-;-
1514175013596;-;-;9.239716;-0.83657837;-0.551178;-;-;-;-;-;-;-;-;-;-;-;-;-;-;-
1514175013616;-;-;9.21817;-0.9479065;-0.5104828;-;-;-;-;-;-;-;-;-;-;-;-;-;-;-
1514175013636;-;-;9.244507;-0.95988464;-0.47695923;-;-;-;-;-;-;-;-;-;-;-;-;-;-;-
1514175013657;-;-;9.233734;-0.9072113;-0.55477905;-;-;-;-;-;-;-;-;-;-;-;-;-;-;-
1514175013677;-;-;9.203796;-0.87249756;-0.5535736;-;-;-;-;-;-;-;-;-;-;-;-;-;-;-
1514175013697;-;-;9.224152;-0.9503021;-0.53082275;-;-;-;-;-;-;-;-;-;-;-;-;-;-;-
1514175013717;-;-;9.208588;-0.9862213;-0.47097778;-;-;-;-;-;-;-;-;-;-;-;-;-;-;-
1514175013738;-;-;9.227737;-0.957489;-0.5571594;-;-;-;-;-;-;-;-;-;-;-;-;-;-;-
1514175013757;-;-;9.210983;-0.8677063;-0.5284424;-;-;-;-;-;-;-;-;-;-;-;-;-;-;-
1514175013777;-;-;9.213379;-0.89045715;-0.5416107;-;-;-;-;-;-;-;-;-;-;-;-;-;-;-
1514175013798;-;-;9.170288;-0.8880615;-0.5212555;-;-;-;-;-;-;-;-;-;-;-;-;-;-;-
1514175013818;-;-;9.225342;-0.9048157;-0.45780945;-;-;-;-;-;-;-;-;-;-;-;-;-;-;-
1514175013838;-;-;9.312744;-0.89045715;-0.5499878;-;-;-;-;-;-;-;-;-;-;-;-;-;-;-
1514175013859;-;-;9.288788;-0.84495544;-0.57392883;-;-;-;-;-;-;-;-;-;-;-;-;-;-;-
1514175013879;-;-;9.240906;-0.83657837;-0.47576904;-;-;-;-;-;-;-;-;-;-;-;-;-;-;-
1514175013899;-;-;9.21936;-0.8305969;-0.42549133;-;-;-;-;-;-;-;-;-;-;-;-;-;-;-
1514175013919;-;-;9.182251;-0.7958832;-0.45420837;-;-;-;-;-;-;-;-;-;-;-;-;-;-;-
1514175013940;-;-;9.193024;-0.7982788;-0.43745422;-;-;-;-;-;-;-;-;-;-;-;-;-;-;-
1514175013960;-;-;9.181061;-0.80545044;-0.44343567;-;-;-;-;-;-;-;-;-;-;-;-;-;-;-
1514175013981;-;-;9.215775;-0.8162384;-0.5404053;-;-;-;-;-;-;-;-;-;-;-;-;-;-;-
1514175014001;-;-;9.210983;-0.799469;-0.49371338;-;-;-;-;-;-;-;-;-;-;-;-;-;-;-
1514175014021;-;-;9.216965;-0.80426025;-0.46020508;-;-;-;-;-;-;-;-;-;-;-;-;-;-;-
1514175014041;-;-;9.244507;-0.8018646;-0.4458313;-;-;-;-;-;-;-;-;-;-;-;-;-;-;-
1514175014062;-;-;9.209793;-0.8162384;-0.4637909;-;-;-;-;-;-;-;-;-;-;-;-;-;-;-
1514175014082;-;-;9.200211;-0.7420044;-0.47935486;-;-;-;-;-;-;-;-;-;-;-;-;-;-;-
1514175014102;-;-;9.188232;-0.7491913;-0.52604675;-;-;-;-;-;-;-;-;-;-;-;-;-;-;-
1514175014123;-;-;9.216965;-0.7982788;-0.51646423;-;-;-;-;-;-;-;-;-;-;-;-;-;-;-
1514175014143;-;-;9.262466;-0.8174286;-0.55955505;-;-;-;-;-;-;-;-;-;-;-;-;-;-;-
1514175014163;-;-;9.272034;-0.8377838;-0.5416107;-;-;-;-;-;-;-;-;-;-;-;-;-;-;-
1514175014183;-;-;9.2313385;-0.8569336;-0.49491882;-;-;-;-;-;-;-;-;-;-;-;-;-;-;-
1514175014204;-;-;9.155914;-0.8102417;-0.46618652;-;-;-;-;-;-;-;-;-;-;-;-;-;-;-
1514175014224;-;-;9.199005;-0.8174286;-0.40034485;-;-;-;-;-;-;-;-;-;-;-;-;-;-;-
1514175014245;-;-;9.250488;-0.8473511;-0.29141235;-;-;-;-;-;-;-;-;-;-;-;-;-;-;-
1514175014265;-;-;9.201401;-0.87968445;-0.2686615;-;-;-;-;-;-;-;-;-;-;-;-;-;-;-
1514175014285;-;-;9.148727;-0.92277527;-0.3261261;-;-;-;-;-;-;-;-;-;-;-;-;-;-;-
1514175014306;-;-;9.196625;-0.89164734;-0.2866211;-;-;-;-;-;-;-;-;-;-;-;-;-;-;-
1514175014326;-;-;9.196625;-0.9251709;-0.2578888;-;-;-;-;-;-;-;-;-;-;-;-;-;-;-
1514175014346;-;-;9.182251;-0.8880615;-0.2111969;-;-;-;-;-;-;-;-;-;-;-;-;-;-;-
1514175014366;-;-;9.205002;-0.8772888;-0.22198486;-;-;-;-;-;-;-;-;-;-;-;-;-;-;-
1514175014387;-;-;9.23851;-0.8748932;-0.26626587;-;-;-;-;-;-;-;-;-;-;-;-;-;-;-
1514175014407;-;-;9.23732;-0.88087463;-0.28781128;-;-;-;-;-;-;-;-;-;-;-;-;-;-;-
1514175014427;-;-;9.187042;-0.84495544;-0.22557068;-;-;-;-;-;-;-;-;-;-;-;-;-;-;-
1514175014448;-;-;9.209793;-0.8425598;-0.24113464;-;-;-;-;-;-;-;-;-;-;-;-;-;-;-
1514175014467;-;-;9.239716;-0.88446045;-0.26387024;-;-;-;-;-;-;-;-;-;-;-;-;-;-;-
1514175014487;-;-;9.166687;-0.83418274;-0.34048462;-;-;-;-;-;-;-;-;-;-;-;-;-;-;-
1514175014508;-;-;9.187042;-0.8282013;-0.29260254;-;-;-;-;-;-;-;-;-;-;-;-;-;-;-
1514175014527;-;-;9.244507;-0.87368774;-0.21958923;-;-;-;-;-;-;-;-;-;-;-;-;-;-;-
1514175014547;-;-;9.250488;-0.878479;-0.20761108;-;-;-;-;-;-;-;-;-;-;-;-;-;-;-
1514175014568;-;-;9.210983;-0.9155884;-0.2004242;-;-;-;-;-;-;-;-;-;-;-;-;-;-;-
1514175014588;-;-;9.221756;-0.84376526;-0.19802856;-;-;-;-;-;-;-;-;-;-;-;-;-;-;-
1514175014608;-;-;9.281616;-0.8138428;-0.19683838;-;-;-;-;-;-;-;-;-;-;-;-;-;-;-
1514175014629;-;-;9.239716;-0.82221985;-0.23036194;-;-;-;-;-;-;-;-;-;-;-;-;-;-;-
1514175014649;-;-;9.2313385;-0.8928528;-0.21359253;-;-;-;-;-;-;-;-;-;-;-;-;-;-;-
1514175014669;-;-;9.254074;-0.90242004;-0.11303711;-;-;-;-;-;-;-;-;-;-;-;-;-;-;-
1514175014690;-;-;9.23732;-0.88327026;-0.107055664;-;-;-;-;-;-;-;-;-;-;-;-;-;-;-
1514175014710;-;-;9.222961;-0.89164734;-0.099868774;-;-;-;-;-;-;-;-;-;-;-;-;-;-;-
1514175014730;-;-;9.194229;-0.9167938;-0.012481689;-;-;-;-;-;-;-;-;-;-;-;-;-;-;-
1514175014751;-;-;9.149933;-0.9359436;0.053359985;-;-;-;-;-;-;-;-;-;-;-;-;-;-;-
1514175014771;-;-;9.142746;-0.917984;0.05934143;-;-;-;-;-;-;-;-;-;-;-;-;-;-;-
1514175014791;-;-;9.160706;-0.8892517;0.046173096;-;-;-;-;-;-;-;-;-;-;-;-;-;-;-
1514175014812;-;-;9.170288;-0.9072113;0.09046936;-;-;-;-;-;-;-;-;-;-;-;-;-;-;-
1514175014831;-;-;9.208588;-0.9586792;0.06413269;-;-;-;-;-;-;-;-;-;-;-;-;-;-;-
1514175014851;-;-;9.2313385;-0.92996216;0.07609558;-;-;-;-;-;-;-;-;-;-;-;-;-;-;-
1514175014872;-;-;9.207397;-0.92996216;0.110809326;-;-;-;-;-;-;-;-;-;-;-;-;-;-;-
1514175014891;-;-;9.215775;-0.93833923;0.062927246;-;-;-;-;-;-;-;-;-;-;-;-;-;-;-
1514175014911;-;-;9.210983;-0.9215698;0.060531616;-;-;-;-;-;-;-;-;-;-;-;-;-;-;-
1514175014931;-;-;9.201401;-0.8593292;0.065322876;-;-;-;-;-;-;-;-;-;-;-;-;-;-;-
1514175014952;-;-;9.202606;-0.8928528;0.031814575;-;-;-;-;-;-;-;-;-;-;-;-;-;-;-
1514175014972;-;-;9.2313385;-0.90242004;0.01625061;-;-;-;-;-;-;-;-;-;-;-;-;-;-;-
1514175014992;-;-;9.206192;-0.9155884;0.028213501;-;-;-;-;-;-;-;-;-;-;-;-;-;-;-
1514175015013;-;-;9.171478;-0.8988342;0.031814575;-;-;-;-;-;-;-;-;-;-;-;-;-;-;-
1514175015032;-;-;9.234924;-0.85214233;0.03300476;-;-;-;-;-;-;-;-;-;-;-;-;-;-;-
1514175015052;-;-;9.260071;-0.85214233;-0.01727295;-;-;-;-;-;-;-;-;-;-;-;-;-;-;-
1514175015073;-;-;9.225342;-0.8413696;-0.035232544;-;-;-;-;-;-;-;-;-;-;-;-;-;-;-
1514175015093;-;-;9.183456;-0.8593292;-0.01966858;-;-;-;-;-;-;-;-;-;-;-;-;-;-;-
1514175015113;-;-;9.1918335;-0.8413696;0.0054779053;-;-;-;-;-;-;-;-;-;-;-;-;-;-;-
1514175015134;-;-;9.248093;-0.89045715;0.031814575;-;-;-;-;-;-;-;-;-;-;-;-;-;-;-
1514175015153;-;-;9.23613;-0.9191742;-0.071136475;-;-;-;-;-;-;-;-;-;-;-;-;-;-;-
1514175015173;-;-;9.205002;-0.8772888;-0.05079651;-;-;-;-;-;-;-;-;-;-;-;-;-;-;-
1514175015194;-;-;9.213379;-0.8641205;-0.012481689;-;-;-;-;-;-;-;-;-;-;-;-;-;-;-
1514175015213;-;-;9.213379;-0.8772888;0.023422241;-;-;-;-;-;-;-;-;-;-;-;-;-;-;-
1514175015233;-;-;9.228943;-0.8868561;-0.030441284;-;-;-;-;-;-;-;-;-;-;-;-;-;-;-
1514175015253;-;-;9.243301;-0.85095215;-0.061569214;-;-;-;-;-;-;-;-;-;-;-;-;-;-;-
1514175015274;-;-;9.250488;-0.8377838;-0.13220215;-;-;-;-;-;-;-;-;-;-;-;-;-;-;-
1514175015294;-;-;9.257675;-0.8772888;-0.13578796;-;-;-;-;-;-;-;-;-;-;-;-;-;-;-
1514175015314;-;-;9.254074;-0.85214233;-0.0687561;-;-;-;-;-;-;-;-;-;-;-;-;-;-;-
1514175015335;-;-;9.251678;-0.8581238;-0.06994629;-;-;-;-;-;-;-;-;-;-;-;-;-;-;-
1514175015355;-;-;9.266052;-0.88327026;0.012649536;-;-;-;-;-;-;-;-;-;-;-;-;-;-;-
1514175015375;-;-;9.196625;-0.8760834;0.065322876;-;-;-;-;-;-;-;-;-;-;-;-;-;-;-
1514175015396;-;-;9.171478;-0.8270111;0.009063721;-;-;-;-;-;-;-;-;-;-;-;-;-;-;-
1514175015415;-;-;9.14035;-0.83299255;0.03300476;-;-;-;-;-;-;-;-;-;-;-;-;-;-;-
1514175015435;-;-;9.197815;-0.8246155;-5.187988E-4;-;-;-;-;-;-;-;-;-;-;-;-;-;-;-
1514175015456;-;-;9.222961;-0.85095215;0.043777466;-;-;-;-;-;-;-;-;-;-;-;-;-;-;-
1514175015476;-;-;9.2313385;-0.8593292;0.04975891;-;-;-;-;-;-;-;-;-;-;-;-;-;-;-
1514175015496;-;-;9.21936;-0.88446045;0.019836426;-;-;-;-;-;-;-;-;-;-;-;-;-;-;-
1514175015517;-;-;9.200211;-0.83418274;0.004272461;-;-;-;-;-;-;-;-;-;-;-;-;-;-;-
1514175015537;-;-;9.205002;-0.81503296;-0.01008606;-;-;-;-;-;-;-;-;-;-;-;-;-;-;-
1514175015557;-;-;9.207397;-0.8497467;-0.01727295;-;-;-;-;-;-;-;-;-;-;-;-;-;-;-
1514175015578;-;-;9.200211;-0.8605194;-0.024459839;-;-;-;-;-;-;-;-;-;-;-;-;-;-;-
1514175015598;-;-;9.248093;-0.87249756;-0.032836914;-;-;-;-;-;-;-;-;-;-;-;-;-;-;-
1514175015618;-;-;9.21817;-0.8497467;-0.03881836;-;-;-;-;-;-;-;-;-;-;-;-;-;-;-
1514175015638;-;-;9.254074;-0.8665161;-0.044799805;-;-;-;-;-;-;-;-;-;-;-;-;-;-;-
1514175015659;-;-;9.225342;-0.8413696;-0.0687561;-;-;-;-;-;-;-;-;-;-;-;-;-;-;-
1514175015678;-;-;9.21817;-0.83657837;-0.04600525;-;-;-;-;-;-;-;-;-;-;-;-;-;-;-
1514175015698;-;-;9.224152;-0.8246155;-0.063964844;-;-;-;-;-;-;-;-;-;-;-;-;-;-;-
1514175015719;-;-;9.199005;-0.8353882;-0.042419434;-;-;-;-;-;-;-;-;-;-;-;-;-;-;-
1514175015739;-;-;9.244507;-0.8569336;-0.080718994;-;-;-;-;-;-;-;-;-;-;-;-;-;-;-
1514175015759;-;-;9.342667;-0.8305969;-0.22198486;-;-;-;-;-;-;-;-;-;-;-;-;-;-;-
1514175015779;-;-;9.225342;-0.81503296;-0.18486023;-;-;-;-;-;-;-;-;-;-;-;-;-;-;-
1514175015800;-;-;9.276825;-0.84376526;-0.056777954;-;-;-;-;-;-;-;-;-;-;-;-;-;-;-
1514175015820;-;-;9.366608;-0.8473511;0.0569458;-;-;-;-;-;-;-;-;-;-;-;-;-;-;-
1514175015840;-;-;9.185837;-0.8665161;0.09526062;-;-;-;-;-;-;-;-;-;-;-;-;-;-;-
1514175015860;-;-;9.068527;-0.83418274;0.19581604;-;-;-;-;-;-;-;-;-;-;-;-;-;-;-
1514175015881;-;-;9.1523285;-0.84376526;0.2808075;-;-;-;-;-;-;-;-;-;-;-;-;-;-;-
1514175015901;-;-;9.163101;-0.80545044;0.23292542;-;-;-;-;-;-;-;-;-;-;-;-;-;-;-
1514175015921;-;-;9.15712;-0.79467773;0.17904663;-;-;-;-;-;-;-;-;-;-;-;-;-;-;-
1514175015941;-;-;9.183456;-0.8162384;0.16827393;-;-;-;-;-;-;-;-;-;-;-;-;-;-;-
1514175015962;-;-;9.258865;-0.8174286;0.20179749;-;-;-;-;-;-;-;-;-;-;-;-;-;-;-
1514175015981;-;-;9.252884;-0.7815094;0.1251831;-;-;-;-;-;-;-;-;-;-;-;-;-;-;-
1514175016001;-;-;9.216965;-0.8102417;0.16468811;-;-;-;-;-;-;-;-;-;-;-;-;-;-;-
1514175016021;-;-;9.190628;-0.7910919;0.14672852;-;-;-;-;-;-;-;-;-;-;-;-;-;-;-
1514175016042;-;-;9.163101;-0.78271484;0.10003662;-;-;-;-;-;-;-;-;-;-;-;-;-;-;-
1514175016062;-;-;9.172684;-0.7731323;0.11201477;-;-;-;-;-;-;-;-;-;-;-;-;-;-;-
1514175016082;-;-;9.195419;-0.7480011;0.08807373;-;-;-;-;-;-;-;-;-;-;-;-;-;-;-
1514175016102;-;-;9.227737;-0.72406006;0.06652832;-;-;-;-;-;-;-;-;-;-;-;-;-;-;-
1514175016122;-;-;9.266052;-0.73243713;0.021026611;-;-;-;-;-;-;-;-;-;-;-;-;-;-;-
1514175016143;-;-;9.181061;-0.783905;0.0138549805;-;-;-;-;-;-;-;-;-;-;-;-;-;-;-
1514175016163;-;-;9.206192;-0.76594543;0.024627686;-;-;-;-;-;-;-;-;-;-;-;-;-;-;-
1514175016183;-;-;9.244507;-0.8090515;0.021026611;-;-;-;-;-;-;-;-;-;-;-;-;-;-;-
1514175016204;-;-;9.249298;-0.8377838;0.01864624;-;-;-;-;-;-;-;-;-;-;-;-;-;-;-
1514175016224;-;-;9.264847;-0.8485565;0.019836426;-;-;-;-;-;-;-;-;-;-;-;-;-;-;-
1514175016244;-;-;9.257675;-0.8210144;-0.037628174;-;-;-;-;-;-;-;-;-;-;-;-;-;-;-
1514175016265;-;-;9.226547;-0.7922821;0.022232056;-;-;-;-;-;-;-;-;-;-;-;-;-;-;-
1514175016285;-;-;9.209793;-0.783905;0.060531616;-;-;-;-;-;-;-;-;-;-;-;-;-;-;-
1514175016305;-;-;9.221756;-0.80784607;0.029418945;-;-;-;-;-;-;-;-;-;-;-;-;-;-;-
1514175016325;-;-;9.2313385;-0.80067444;0.027023315;-;-;-;-;-;-;-;-;-;-;-;-;-;-;-
1514175016346;-;-;9.220566;-0.80067444;0.06652832;-;-;-;-;-;-;-;-;-;-;-;-;-;-;-
1514175016366;-;-;9.222961;-0.8317871;0.07849121;-;-;-;-;-;-;-;-;-;-;-;-;-;-;-
1514175016386;-;-;9.25528;-0.8473511;0.05215454;-;-;-;-;-;-;-;-;-;-;-;-;-;-;-
1514175016407;-;-;9.224152;-0.82580566;0.07130432;-;-;-;-;-;-;-;-;-;-;-;-;-;-;-
1514175016427;-;-;9.227737;-0.8317871;0.1251831;-;-;-;-;-;-;-;-;-;-;-;-;-;-;-
1514175016447;-;-;9.2756195;-0.8748932;0.16468811;-;-;-;-;-;-;-;-;-;-;-;-;-;-;-
1514175016468;-;-;9.291183;-0.8605194;0.050964355;-;-;-;-;-;-;-;-;-;-;-;-;-;-;-
1514175016488;-;-;9.222961;-0.79467773;0.012649536;-;-;-;-;-;-;-;-;-;-;-;-;-;-;-
1514175016508;-;-;9.187042;-0.7815094;0.079696655;-;-;-;-;-;-;-;-;-;-;-;-;-;-;-
1514175016529;-;-;9.194229;-0.7491913;0.0569458;-;-;-;-;-;-;-;-;-;-;-;-;-;-;-
1514175016548;-;-;9.216965;-0.7515869;0.04736328;-;-;-;-;-;-;-;-;-;-;-;-;-;-;-
1514175016568;-;-;9.190628;-0.7695465;-0.0017089844;-;-;-;-;-;-;-;-;-;-;-;-;-;-;-
1514175016589;-;-;9.233734;-0.84376526;-0.006500244;-;-;-;-;-;-;-;-;-;-;-;-;-;-;-
1514175016608;-;-;9.258865;-0.8461609;-0.0029144287;-;-;-;-;-;-;-;-;-;-;-;-;-;-;-
1514175016628;-;-;9.287598;-0.8270111;6.866455E-4;-;-;-;-;-;-;-;-;-;-;-;-;-;-;-
