TimeStamp[ms];Prox[Cm];Lux[lux];AccX[m/s^2];AccY[m/s^2];AccZ[m/s^2];GyroX[rad/s];GyroY[rad/s];GyroZ[rad/s];MagnX[uT];MagnY[uT];MagnZ[uT];OrienYaw[degrees];OrienPitch[degrees];OrienRoll[degrees];Press[Pa];Temp[C°];Batt[%];Lat;Lng;Speed[m/s]
1514175367584;-;-;8.4448395;-0.85453796;2.2787628;-;-;-;-;-;-;-;-;-;-;-;-;-;-;-
1514175367585;-;-;8.4448395;-0.85453796;2.2787628;-;-;-;-;-;-;-;-;-;-;-;-;-;-;-
1514175367605;-;-;7.9624023;-0.79348755;1.6490936;-;-;-;-;-;-;-;-;-;-;-;-;-;-;-
1514175367625;-;-;8.675873;-0.7216644;1.591629;-;-;-;-;-;-;-;-;-;-;-;-;-;-;-
1514175367646;-;-;8.8207245;-0.7671509;1.1558838;-;-;-;-;-;-;-;-;-;-;-;-;-;-;-
1514175367666;-;-;9.188232;-0.68814087;0.38734436;-;-;-;-;-;-;-;-;-;-;-;-;-;-;-
1514175367686;-;-;9.503082;-0.05847168;-0.14057922;-;-;-;-;-;-;-;-;-;-;-;-;-;-;-
1514175367706;-;-;3.9593048;0.24081421;-0.27226257;-;-;-;-;-;-;-;-;-;-;-;-;-;-;-
1514175367727;-;-;9.9077;0.33657837;-0.5811157;-;-;-;-;-;-;-;-;-;-;-;-;-;-;-
1514175367747;-;-;10.051346;0.56163025;-0.15733337;-;-;-;-;-;-;-;-;-;-;-;-;-;-;-
1514175367767;-;-;10.217743;0.50297546;-1.0228424;-;-;-;-;-;-;-;-;-;-;-;-;-;-;-
1514175367788;-;-;11.011429;0.4874115;-0.8744049;-;-;-;-;-;-;-;-;-;-;-;-;-;-;-
1514175367808;-;-;10.538574;0.2743225;-1.1904297;-;-;-;-;-;-;-;-;-;-;-;-;-;-;-
1514175367837;-;-;8.680664;0.033706665;-1.1174164;-;-;-;-;-;-;-;-;-;-;-;-;-;-;-
1514175367848;-;-;8.478363;0.04927063;-1.0503693;-;-;-;-;-;-;-;-;-;-;-;-;-;-;-
1514175367869;-;-;8.515472;0.088775635;-1.1748657;-;-;-;-;-;-;-;-;-;-;-;-;-;-;-
1514175367889;-;-;8.753693;0.083984375;-1.3113403;-;-;-;-;-;-;-;-;-;-;-;-;-;-;-
1514175367909;-;-;9.094864;0.057647705;-1.4142914;-;-;-;-;-;-;-;-;-;-;-;-;-;-;-
1514175367929;-;-;9.209793;-0.15782166;-1.3723907;-;-;-;-;-;-;-;-;-;-;-;-;-;-;-
1514175367950;-;-;10.149506;-0.54808044;-1.2622528;-;-;-;-;-;-;-;-;-;-;-;-;-;-;-
1514175367971;-;-;10.099228;-0.8641205;-1.5040741;-;-;-;-;-;-;-;-;-;-;-;-;-;-;-
1514175367991;-;-;9.352234;-0.55166626;-1.0491791;-;-;-;-;-;-;-;-;-;-;-;-;-;-;-
1514175368012;-;-;9.47435;-0.76594543;-1.0192413;-;-;-;-;-;-;-;-;-;-;-;-;-;-;-
1514175368032;-;-;9.366608;-0.63786316;-1.4585876;-;-;-;-;-;-;-;-;-;-;-;-;-;-;-
1514175368052;-;-;8.631592;-0.40802002;-1.847641;-;-;-;-;-;-;-;-;-;-;-;-;-;-;-
1514175368073;-;-;8.30957;-0.114730835;-1.5232239;-;-;-;-;-;-;-;-;-;-;-;-;-;-;-
1514175368093;-;-;9.072113;-0.4451294;-1.8859406;-;-;-;-;-;-;-;-;-;-;-;-;-;-;-
1514175368113;-;-;7.5685577;0.43234253;-1.1509247;-;-;-;-;-;-;-;-;-;-;-;-;-;-;-
1514175368134;-;-;10.2357025;1.062027;-0.9581909;-;-;-;-;-;-;-;-;-;-;-;-;-;-;-
1514175368154;-;-;10.221344;0.6214905;-1.7985535;-;-;-;-;-;-;-;-;-;-;-;-;-;-;-
1514175368174;-;-;7.6152496;0.4694519;0.4328308;-;-;-;-;-;-;-;-;-;-;-;-;-;-;-
1514175368195;-;-;9.552155;-0.057266235;-3.2326813;-;-;-;-;-;-;-;-;-;-;-;-;-;-;-
1514175368215;-;-;10.159088;-0.641449;-1.7039948;-;-;-;-;-;-;-;-;-;-;-;-;-;-;-
1514175368235;-;-;10.315903;-0.3757019;-1.9805145;-;-;-;-;-;-;-;-;-;-;-;-;-;-;-
1514175368256;-;-;9.210983;-0.8413696;-1.5459747;-;-;-;-;-;-;-;-;-;-;-;-;-;-;-
1514175368275;-;-;9.070923;-0.5277252;-1.6010437;-;-;-;-;-;-;-;-;-;-;-;-;-;-;-
1514175368295;-;-;8.812347;-0.03453064;-1.0240326;-;-;-;-;-;-;-;-;-;-;-;-;-;-;-
1514175368315;-;-;8.5082855;-0.16500854;-1.001297;-;-;-;-;-;-;-;-;-;-;-;-;-;-;-
1514175368336;-;-;8.054581;0.72683716;-2.895111;-;-;-;-;-;-;-;-;-;-;-;-;-;-;-
1514175368356;-;-;9.3893585;1.0691986;-3.377533;-;-;-;-;-;-;-;-;-;-;-;-;-;-;-
1514175368376;-;-;10.178238;0.48860168;-3.4768982;-;-;-;-;-;-;-;-;-;-;-;-;-;-;-
1514175368397;-;-;9.766434;0.28988647;-3.8348236;-;-;-;-;-;-;-;-;-;-;-;-;-;-;-
1514175368416;-;-;10.530182;-0.42837524;-3.6289215;-;-;-;-;-;-;-;-;-;-;-;-;-;-;-
1514175368436;-;-;10.936005;-0.502594;-3.9629211;-;-;-;-;-;-;-;-;-;-;-;-;-;-;-
1514175368457;-;-;9.279221;-1.2364197;-3.4828796;-;-;-;-;-;-;-;-;-;-;-;-;-;-;-
1514175368477;-;-;6.031479;-0.0728302;-3.203949;-;-;-;-;-;-;-;-;-;-;-;-;-;-;-
1514175368497;-;-;8.141968;0.3174286;-2.709549;-;-;-;-;-;-;-;-;-;-;-;-;-;-;-
1514175368518;-;-;8.868607;0.2527771;-2.7777863;-;-;-;-;-;-;-;-;-;-;-;-;-;-;-
1514175368538;-;-;9.21936;0.6729584;-3.5307617;-;-;-;-;-;-;-;-;-;-;-;-;-;-;-
1514175368559;-;-;8.210205;-0.2966919;-2.3743591;-;-;-;-;-;-;-;-;-;-;-;-;-;-;-
1514175368579;-;-;10.332672;-1.0819855;-3.705536;-;-;-;-;-;-;-;-;-;-;-;-;-;-;-
1514175368599;-;-;6.1452026;-1.3657074;-3.6313171;-;-;-;-;-;-;-;-;-;-;-;-;-;-;-
1514175368620;-;-;12.738846;-1.8972168;-6.033905;-;-;-;-;-;-;-;-;-;-;-;-;-;-;-
1514175368640;-;-;9.135559;-1.1298676;-4.2322693;-;-;-;-;-;-;-;-;-;-;-;-;-;-;-
1514175368660;-;-;9.295975;0.07321167;-2.7897644;-;-;-;-;-;-;-;-;-;-;-;-;-;-;-
1514175368680;-;-;7.9001617;1.1123047;-1.0791016;-;-;-;-;-;-;-;-;-;-;-;-;-;-;-
1514175368701;-;-;7.2585144;0.8273926;-1.3424683;-;-;-;-;-;-;-;-;-;-;-;-;-;-;-
1514175368721;-;-;7.2716827;-0.052474976;-1.9182739;-;-;-;-;-;-;-;-;-;-;-;-;-;-;-
1514175368742;-;-;8.003113;-1.5129395;-2.7873688;-;-;-;-;-;-;-;-;-;-;-;-;-;-;-
1514175368762;-;-;9.110428;-1.1023407;-2.5287933;-;-;-;-;-;-;-;-;-;-;-;-;-;-;-
1514175368782;-;-;9.603638;-1.8960114;-2.5778656;-;-;-;-;-;-;-;-;-;-;-;-;-;-;-
1514175368803;-;-;9.527023;-1.1286774;-2.6963806;-;-;-;-;-;-;-;-;-;-;-;-;-;-;-
1514175368823;-;-;10.181839;-1.2184601;-2.3252869;-;-;-;-;-;-;-;-;-;-;-;-;-;-;-
1514175368843;-;-;8.601654;-1.4626617;-2.1947937;-;-;-;-;-;-;-;-;-;-;-;-;-;-;-
1514175368863;-;-;9.233734;-1.6110992;-4.6213226;-;-;-;-;-;-;-;-;-;-;-;-;-;-;-
1514175368884;-;-;8.357452;-0.5612488;-1.1593018;-;-;-;-;-;-;-;-;-;-;-;-;-;-;-
1514175368905;-;-;8.394562;-0.9957886;-1.7961731;-;-;-;-;-;-;-;-;-;-;-;-;-;-;-
1514175368924;-;-;8.643555;-2.1940918;-2.3623962;-;-;-;-;-;-;-;-;-;-;-;-;-;-;-
1514175368945;-;-;12.707718;-3.653366;-0.5799103;-;-;-;-;-;-;-;-;-;-;-;-;-;-;-
1514175368965;-;-;11.131134;-1.9127808;-2.8089142;-;-;-;-;-;-;-;-;-;-;-;-;-;-;-
1514175368985;-;-;9.63475;-0.68574524;-2.6724396;-;-;-;-;-;-;-;-;-;-;-;-;-;-;-
1514175369005;-;-;9.109222;-0.7372284;-2.278595;-;-;-;-;-;-;-;-;-;-;-;-;-;-;-
1514175369025;-;-;9.026627;-1.7176514;-2.1193848;-;-;-;-;-;-;-;-;-;-;-;-;-;-;-
1514175369046;-;-;7.7936096;-1.5895538;-2.8891144;-;-;-;-;-;-;-;-;-;-;-;-;-;-;-
1514175369066;-;-;8.757278;-1.7619476;-2.1983948;-;-;-;-;-;-;-;-;-;-;-;-;-;-;-
1514175369087;-;-;8.794388;-0.9754486;-1.9290466;-;-;-;-;-;-;-;-;-;-;-;-;-;-;-
1514175369107;-;-;9.017059;-0.22964478;-2.012848;-;-;-;-;-;-;-;-;-;-;-;-;-;-;-
1514175369127;-;-;9.031418;0.045684814;-1.7578583;-;-;-;-;-;-;-;-;-;-;-;-;-;-;-
1514175369147;-;-;9.392944;0.51016235;-2.4138641;-;-;-;-;-;-;-;-;-;-;-;-;-;-;-
1514175369168;-;-;9.877762;0.21687317;-2.4533691;-;-;-;-;-;-;-;-;-;-;-;-;-;-;-
1514175369188;-;-;9.380966;-0.06564331;-2.0355835;-;-;-;-;-;-;-;-;-;-;-;-;-;-;-
1514175369208;-;-;8.861435;-0.636673;-2.0978394;-;-;-;-;-;-;-;-;-;-;-;-;-;-;-
1514175369229;-;-;8.7608795;-1.269928;-1.8201141;-;-;-;-;-;-;-;-;-;-;-;-;-;-;-
1514175369249;-;-;8.698624;-1.5321045;-1.8751678;-;-;-;-;-;-;-;-;-;-;-;-;-;-;-
1514175369270;-;-;8.459198;-1.4842072;-2.13974;-;-;-;-;-;-;-;-;-;-;-;-;-;-;-
1514175369290;-;-;8.18985;-1.3345795;-2.3372498;-;-;-;-;-;-;-;-;-;-;-;-;-;-;-
1514175369310;-;-;8.722565;-1.1585999;-2.4042969;-;-;-;-;-;-;-;-;-;-;-;-;-;-;-
1514175369330;-;-;9.445618;-0.86531067;-2.5814667;-;-;-;-;-;-;-;-;-;-;-;-;-;-;-
1514175369351;-;-;9.682648;-0.5899811;-2.6903992;-;-;-;-;-;-;-;-;-;-;-;-;-;-;-
1514175369371;-;-;9.547363;-0.43554688;-2.4976654;-;-;-;-;-;-;-;-;-;-;-;-;-;-;-
1514175369392;-;-;9.205002;-0.33259583;-2.1145935;-;-;-;-;-;-;-;-;-;-;-;-;-;-;-
1514175369412;-;-;8.6818695;-0.3397827;-1.9075012;-;-;-;-;-;-;-;-;-;-;-;-;-;-;-
1514175369433;-;-;8.520264;-0.6127167;-1.5627289;-;-;-;-;-;-;-;-;-;-;-;-;-;-;-
1514175369452;-;-;8.611237;-1.2112732;-1.5088654;-;-;-;-;-;-;-;-;-;-;-;-;-;-;-
1514175369472;-;-;9.017059;-1.4207611;-1.74469;-;-;-;-;-;-;-;-;-;-;-;-;-;-;-
1514175369493;-;-;9.284012;-1.3980255;-1.7901764;-;-;-;-;-;-;-;-;-;-;-;-;-;-;-
1514175369513;-;-;9.194229;-1.1083221;-2.0008698;-;-;-;-;-;-;-;-;-;-;-;-;-;-;-
1514175369533;-;-;9.019455;-0.6103363;-2.2055817;-;-;-;-;-;-;-;-;-;-;-;-;-;-;-
1514175369554;-;-;8.976349;-0.45350647;-2.3839417;-;-;-;-;-;-;-;-;-;-;-;-;-;-;-
1514175369574;-;-;8.984726;-0.63427734;-2.2750092;-;-;-;-;-;-;-;-;-;-;-;-;-;-;-
1514175369595;-;-;8.957199;-0.8665161;-2.3611908;-;-;-;-;-;-;-;-;-;-;-;-;-;-;-
1514175369615;-;-;9.019455;-0.9934082;-2.5120392;-;-;-;-;-;-;-;-;-;-;-;-;-;-;-
1514175369635;-;-;9.106842;-0.91319275;-2.4629517;-;-;-;-;-;-;-;-;-;-;-;-;-;-;-
1514175369655;-;-;9.339081;-0.78990173;-2.460556;-;-;-;-;-;-;-;-;-;-;-;-;-;-;-
1514175369676;-;-;9.291183;-0.66300964;-2.3300781;-;-;-;-;-;-;-;-;-;-;-;-;-;-;-
1514175369696;-;-;9.141556;-0.6522217;-2.1074066;-;-;-;-;-;-;-;-;-;-;-;-;-;-;-
1514175369716;-;-;8.84108;-0.66778564;-1.8272858;-;-;-;-;-;-;-;-;-;-;-;-;-;-;-
1514175369737;-;-;8.601654;-0.7084961;-1.6429291;-;-;-;-;-;-;-;-;-;-;-;-;-;-;-
1514175369757;-;-;8.588486;-0.69532776;-1.650116;-;-;-;-;-;-;-;-;-;-;-;-;-;-;-
1514175369777;-;-;8.720169;-0.61631775;-1.7279358;-;-;-;-;-;-;-;-;-;-;-;-;-;-;-
1514175369797;-;-;8.876999;-0.6546173;-1.8440552;-;-;-;-;-;-;-;-;-;-;-;-;-;-;-
1514175369818;-;-;9.100845;-0.5923767;-1.9924927;-;-;-;-;-;-;-;-;-;-;-;-;-;-;-
1514175369838;-;-;9.278015;-0.53970337;-2.0894623;-;-;-;-;-;-;-;-;-;-;-;-;-;-;-
1514175369859;-;-;9.304352;-0.49421692;-2.1971893;-;-;-;-;-;-;-;-;-;-;-;-;-;-;-
1514175369879;-;-;9.188232;-0.5037842;-2.2247314;-;-;-;-;-;-;-;-;-;-;-;-;-;-;-
1514175369899;-;-;9.15712;-0.48104858;-2.093048;-;-;-;-;-;-;-;-;-;-;-;-;-;-;-
1514175369920;-;-;9.009872;-0.502594;-1.8380585;-;-;-;-;-;-;-;-;-;-;-;-;-;-;-
1514175369940;-;-;9.086487;-0.6031494;-1.653717;-;-;-;-;-;-;-;-;-;-;-;-;-;-;-
1514175369960;-;-;9.109222;-0.55766296;-1.7949677;-;-;-;-;-;-;-;-;-;-;-;-;-;-;-
1514175369980;-;-;9.128387;-0.48223877;-1.887146;-;-;-;-;-;-;-;-;-;-;-;-;-;-;-
1514175370000;-;-;9.0577545;-0.4056244;-1.9278412;-;-;-;-;-;-;-;-;-;-;-;-;-;-;-
1514175370021;-;-;8.960785;-0.45829773;-1.9841156;-;-;-;-;-;-;-;-;-;-;-;-;-;-;-
1514175370041;-;-;8.8602295;-0.63427734;-1.942215;-;-;-;-;-;-;-;-;-;-;-;-;-;-;-
1514175370061;-;-;8.969162;-0.8533478;-2.0463562;-;-;-;-;-;-;-;-;-;-;-;-;-;-;-
1514175370082;-;-;9.06134;-1.0352936;-2.115799;-;-;-;-;-;-;-;-;-;-;-;-;-;-;-
1514175370102;-;-;9.137955;-0.94192505;-2.1660767;-;-;-;-;-;-;-;-;-;-;-;-;-;-;-
1514175370122;-;-;9.093674;-0.8270111;-2.1612854;-;-;-;-;-;-;-;-;-;-;-;-;-;-;-
1514175370142;-;-;8.988327;-0.8174286;-2.1576843;-;-;-;-;-;-;-;-;-;-;-;-;-;-;-
1514175370163;-;-;8.825516;-0.9107971;-2.2833862;-;-;-;-;-;-;-;-;-;-;-;-;-;-;-
1514175370183;-;-;8.83989;-1.0113525;-2.254654;-;-;-;-;-;-;-;-;-;-;-;-;-;-;-
1514175370203;-;-;8.903336;-0.9790344;-2.294159;-;-;-;-;-;-;-;-;-;-;-;-;-;-;-
1514175370223;-;-;9.009872;-0.9957886;-2.349228;-;-;-;-;-;-;-;-;-;-;-;-;-;-;-
1514175370244;-;-;9.051773;-0.93833923;-2.3803558;-;-;-;-;-;-;-;-;-;-;-;-;-;-;-
1514175370264;-;-;9.024231;-1.0053711;-2.3647919;-;-;-;-;-;-;-;-;-;-;-;-;-;-;-
1514175370284;-;-;8.98114;-0.973053;-2.389923;-;-;-;-;-;-;-;-;-;-;-;-;-;-;-
1514175370304;-;-;8.996704;-0.81503296;-2.508438;-;-;-;-;-;-;-;-;-;-;-;-;-;-;-
1514175370324;-;-;9.005081;-0.6294861;-2.6078033;-;-;-;-;-;-;-;-;-;-;-;-;-;-;-
1514175370345;-;-;8.954803;-0.45350647;-2.5934296;-;-;-;-;-;-;-;-;-;-;-;-;-;-;-
1514175370365;-;-;8.866211;-0.44033813;-2.5922394;-;-;-;-;-;-;-;-;-;-;-;-;-;-;-
1514175370385;-;-;8.627991;-0.5097656;-2.63414;-;-;-;-;-;-;-;-;-;-;-;-;-;-;-
1514175370406;-;-;8.544205;-0.53012085;-2.6664581;-;-;-;-;-;-;-;-;-;-;-;-;-;-;-
1514175370426;-;-;8.52504;-0.73483276;-2.71315;-;-;-;-;-;-;-;-;-;-;-;-;-;-;-
1514175370446;-;-;8.655533;-1.0879669;-2.73349;-;-;-;-;-;-;-;-;-;-;-;-;-;-;-
1514175370466;-;-;8.938049;-1.3058472;-2.8148956;-;-;-;-;-;-;-;-;-;-;-;-;-;-;-
1514175370487;-;-;9.3893585;-1.3908386;-2.883133;-;-;-;-;-;-;-;-;-;-;-;-;-;-;-
1514175370507;-;-;9.63356;-1.2160645;-2.9633331;-;-;-;-;-;-;-;-;-;-;-;-;-;-;-
1514175370527;-;-;9.511459;-0.9048157;-2.9046783;-;-;-;-;-;-;-;-;-;-;-;-;-;-;-
1514175370548;-;-;9.207397;-0.68455505;-2.7562408;-;-;-;-;-;-;-;-;-;-;-;-;-;-;-
1514175370568;-;-;8.715378;-0.6043396;-2.4857025;-;-;-;-;-;-;-;-;-;-;-;-;-;-;-
1514175370588;-;-;8.495117;-0.61990356;-2.350418;-;-;-;-;-;-;-;-;-;-;-;-;-;-;-
1514175370608;-;-;8.490326;-0.30986023;-2.0403748;-;-;-;-;-;-;-;-;-;-;-;-;-;-;-
1514175370629;-;-;8.5082855;-0.6187134;-2.5180206;-;-;-;-;-;-;-;-;-;-;-;-;-;-;-
1514175370648;-;-;8.548981;-1.0185394;-2.6712494;-;-;-;-;-;-;-;-;-;-;-;-;-;-;-
1514175370668;-;-;8.625595;-1.2376099;-3.0231934;-;-;-;-;-;-;-;-;-;-;-;-;-;-;-
1514175370688;-;-;8.696228;-0.8018646;-3.1452942;-;-;-;-;-;-;-;-;-;-;-;-;-;-;-
1514175370709;-;-;8.790802;0.021743774;-3.2063446;-;-;-;-;-;-;-;-;-;-;-;-;-;-;-
1514175370728;-;-;8.608841;0.6849365;-3.3272552;-;-;-;-;-;-;-;-;-;-;-;-;-;-;-
1514175370748;-;-;8.01149;1.0021667;-3.370346;-;-;-;-;-;-;-;-;-;-;-;-;-;-;-
1514175370769;-;-;7.659546;0.7615509;-3.247055;-;-;-;-;-;-;-;-;-;-;-;-;-;-;-
1514175370788;-;-;8.229355;-0.076416016;-2.8352509;-;-;-;-;-;-;-;-;-;-;-;-;-;-;-
1514175370808;-;-;9.293579;-0.51815796;-2.6628723;-;-;-;-;-;-;-;-;-;-;-;-;-;-;-
1514175370829;-;-;9.980713;-0.26437378;-2.9717255;-;-;-;-;-;-;-;-;-;-;-;-;-;-;-
1514175370849;-;-;10.380554;0.110321045;-3.0124207;-;-;-;-;-;-;-;-;-;-;-;-;-;-;-
1514175370869;-;-;9.955582;0.046875;-2.7873688;-;-;-;-;-;-;-;-;-;-;-;-;-;-;-
1514175370889;-;-;9.515045;-0.21528625;-2.79216;-;-;-;-;-;-;-;-;-;-;-;-;-;-;-
1514175370910;-;-;9.124786;0.093566895;-2.8460236;-;-;-;-;-;-;-;-;-;-;-;-;-;-;-
1514175370930;-;-;8.74292;0.7447815;-2.2917633;-;-;-;-;-;-;-;-;-;-;-;-;-;-;-
1514175370950;-;-;8.049789;1.046463;-1.9685516;-;-;-;-;-;-;-;-;-;-;-;-;-;-;-
1514175370971;-;-;7.1160583;0.8501282;-1.555542;-;-;-;-;-;-;-;-;-;-;-;-;-;-;-
1514175370990;-;-;6.378647;0.10673523;-0.9833374;-;-;-;-;-;-;-;-;-;-;-;-;-;-;-
1514175371010;-;-;6.683899;-0.78271484;-1.5675201;-;-;-;-;-;-;-;-;-;-;-;-;-;-;-
1514175371031;-;-;9.041;-1.2232513;-4.2693787;-;-;-;-;-;-;-;-;-;-;-;-;-;-;-
1514175371050;-;-;11.186203;0.2132721;-5.42099;-;-;-;-;-;-;-;-;-;-;-;-;-;-;-
1514175371070;-;-;12.379715;1.5755768;-4.922989;-;-;-;-;-;-;-;-;-;-;-;-;-;-;-
1514175371091;-;-;11.286758;0.9578705;-4.4633026;-;-;-;-;-;-;-;-;-;-;-;-;-;-;-
1514175371111;-;-;9.312744;-0.6977234;-3.488861;-;-;-;-;-;-;-;-;-;-;-;-;-;-;-
1514175371131;-;-;7.2345734;-1.3597107;-3.0231934;-;-;-;-;-;-;-;-;-;-;-;-;-;-;-
1514175371151;-;-;6.201477;-1.214859;-2.6927948;-;-;-;-;-;-;-;-;-;-;-;-;-;-;-
1514175371172;-;-;5.589752;-0.6139221;-2.5802612;-;-;-;-;-;-;-;-;-;-;-;-;-;-;-
1514175371192;-;-;7.83432;-0.46188354;-2.5730896;-;-;-;-;-;-;-;-;-;-;-;-;-;-;-
1514175371212;-;-;9.367798;-1.3381653;-3.159668;-;-;-;-;-;-;-;-;-;-;-;-;-;-;-
1514175371233;-;-;9.564133;-1.4854126;-3.338028;-;-;-;-;-;-;-;-;-;-;-;-;-;-;-
1514175371253;-;-;9.437241;-0.7982788;-3.429016;-;-;-;-;-;-;-;-;-;-;-;-;-;-;-
1514175371273;-;-;9.372589;-0.57681274;-3.2015686;-;-;-;-;-;-;-;-;-;-;-;-;-;-;-
1514175371294;-;-;9.503082;-0.933548;-2.5347748;-;-;-;-;-;-;-;-;-;-;-;-;-;-;-
1514175371314;-;-;9.438431;-1.1035309;-2.0224152;-;-;-;-;-;-;-;-;-;-;-;-;-;-;-
1514175371334;-;-;9.100845;-0.7084961;-2.115799;-;-;-;-;-;-;-;-;-;-;-;-;-;-;-
1514175371355;-;-;8.930862;-0.009384155;-2.0942383;-;-;-;-;-;-;-;-;-;-;-;-;-;-;-
1514175371375;-;-;8.787216;0.45388794;-2.4138641;-;-;-;-;-;-;-;-;-;-;-;-;-;-;-
1514175371395;-;-;8.203018;0.18095398;-2.7299042;-;-;-;-;-;-;-;-;-;-;-;-;-;-;-
1514175371416;-;-;7.9779663;-0.97184753;-2.907074;-;-;-;-;-;-;-;-;-;-;-;-;-;-;-
1514175371436;-;-;8.690247;-1.7930603;-3.0507202;-;-;-;-;-;-;-;-;-;-;-;-;-;-;-
1514175371456;-;-;9.0577545;-2.301834;-3.3835144;-;-;-;-;-;-;-;-;-;-;-;-;-;-;-
1514175371476;-;-;8.772842;-1.9403076;-3.6349182;-;-;-;-;-;-;-;-;-;-;-;-;-;-;-
1514175371497;-;-;8.334702;-1.0556488;-3.598999;-;-;-;-;-;-;-;-;-;-;-;-;-;-;-
1514175371517;-;-;8.333511;-0.22247314;-3.511612;-;-;-;-;-;-;-;-;-;-;-;-;-;-;-
1514175371537;-;-;8.462799;0.03251648;-3.7067413;-;-;-;-;-;-;-;-;-;-;-;-;-;-;-
1514175371558;-;-;8.791992;-0.1302948;-3.689972;-;-;-;-;-;-;-;-;-;-;-;-;-;-;-
1514175371577;-;-;9.124786;-0.2607727;-3.4218292;-;-;-;-;-;-;-;-;-;-;-;-;-;-;-
1514175371597;-;-;9.195419;-0.35176086;-3.3009186;-;-;-;-;-;-;-;-;-;-;-;-;-;-;-
1514175371617;-;-;8.869812;-0.5361023;-3.2853546;-;-;-;-;-;-;-;-;-;-;-;-;-;-;-
1514175371637;-;-;8.392166;-0.8126373;-3.2446594;-;-;-;-;-;-;-;-;-;-;-;-;-;-;-
1514175371658;-;-;8.10965;-0.88327026;-3.1093903;-;-;-;-;-;-;-;-;-;-;-;-;-;-;-
1514175371678;-;-;8.203018;-0.80545044;-2.9489746;-;-;-;-;-;-;-;-;-;-;-;-;-;-;-
1514175371698;-;-;8.422089;-0.57681274;-2.867569;-;-;-;-;-;-;-;-;-;-;-;-;-;-;-
1514175371719;-;-;8.807556;-0.23564148;-2.8424377;-;-;-;-;-;-;-;-;-;-;-;-;-;-;-
1514175371739;-;-;9.023041;0.019348145;-2.8615875;-;-;-;-;-;-;-;-;-;-;-;-;-;-;-
1514175371759;-;-;9.166687;0.05406189;-3.041153;-;-;-;-;-;-;-;-;-;-;-;-;-;-;-
1514175371780;-;-;9.380966;-0.100372314;-3.0710754;-;-;-;-;-;-;-;-;-;-;-;-;-;-;-
1514175371800;-;-;9.148727;-0.17338562;-3.136917;-;-;-;-;-;-;-;-;-;-;-;-;-;-;-
1514175371820;-;-;9.001495;-0.18296814;-3.231491;-;-;-;-;-;-;-;-;-;-;-;-;-;-;-
1514175371841;-;-;8.830307;-0.22247314;-2.9322205;-;-;-;-;-;-;-;-;-;-;-;-;-;-;-
1514175371860;-;-;8.684265;-0.27035522;-2.6353302;-;-;-;-;-;-;-;-;-;-;-;-;-;-;-
1514175371881;-;-;8.654327;-0.47984314;-2.6449127;-;-;-;-;-;-;-;-;-;-;-;-;-;-;-
1514175371900;-;-;8.727356;-0.63067627;-2.6556854;-;-;-;-;-;-;-;-;-;-;-;-;-;-;-
1514175371920;-;-;8.869812;-0.67855835;-2.6269531;-;-;-;-;-;-;-;-;-;-;-;-;-;-;-
1514175371941;-;-;9.001495;-0.67736816;-2.6520996;-;-;-;-;-;-;-;-;-;-;-;-;-;-;-
1514175371960;-;-;9.013458;-0.7216644;-2.728714;-;-;-;-;-;-;-;-;-;-;-;-;-;-;-
1514175371980;-;-;8.944031;-0.7875061;-2.7358856;-;-;-;-;-;-;-;-;-;-;-;-;-;-;-
1514175372001;-;-;8.844666;-0.8868561;-2.7634277;-;-;-;-;-;-;-;-;-;-;-;-;-;-;-
1514175372021;-;-;8.818329;-0.8820648;-2.764618;-;-;-;-;-;-;-;-;-;-;-;-;-;-;-
1514175372041;-;-;8.8051605;-0.8353882;-2.8532104;-;-;-;-;-;-;-;-;-;-;-;-;-;-;-
1514175372061;-;-;8.82193;-0.80067444;-2.8340454;-;-;-;-;-;-;-;-;-;-;-;-;-;-;-
1514175372082;-;-;8.789597;-0.7803192;-2.772995;-;-;-;-;-;-;-;-;-;-;-;-;-;-;-
1514175372102;-;-;8.747711;-0.7312317;-2.7777863;-;-;-;-;-;-;-;-;-;-;-;-;-;-;-
1514175372122;-;-;8.733337;-0.6917267;-2.7945404;-;-;-;-;-;-;-;-;-;-;-;-;-;-;-
1514175372143;-;-;8.712982;-0.6294861;-2.8508148;-;-;-;-;-;-;-;-;-;-;-;-;-;-;-
1514175372163;-;-;8.717773;-0.6510315;-2.9417877;-;-;-;-;-;-;-;-;-;-;-;-;-;-;-
1514175372183;-;-;8.825516;-0.6151123;-2.9034882;-;-;-;-;-;-;-;-;-;-;-;-;-;-;-
1514175372204;-;-;8.867416;-0.6318817;-2.8843231;-;-;-;-;-;-;-;-;-;-;-;-;-;-;-
1514175372224;-;-;8.888962;-0.5959625;-2.8639832;-;-;-;-;-;-;-;-;-;-;-;-;-;-;-
1514175372244;-;-;8.806366;-0.5205536;-2.8939056;-;-;-;-;-;-;-;-;-;-;-;-;-;-;-
1514175372265;-;-;8.7656555;-0.4666748;-2.9010925;-;-;-;-;-;-;-;-;-;-;-;-;-;-;-
1514175372285;-;-;8.799179;-0.5205536;-2.9633331;-;-;-;-;-;-;-;-;-;-;-;-;-;-;-
1514175372305;-;-;8.898544;-0.5145569;-2.9609375;-;-;-;-;-;-;-;-;-;-;-;-;-;-;-
1514175372326;-;-;8.917694;-0.5061798;-2.994461;-;-;-;-;-;-;-;-;-;-;-;-;-;-;-
1514175372346;-;-;8.890167;-0.4666748;-2.9094696;-;-;-;-;-;-;-;-;-;-;-;-;-;-;-
1514175372366;-;-;8.849457;-0.3697052;-2.831665;-;-;-;-;-;-;-;-;-;-;-;-;-;-;-
1514175372386;-;-;8.8003845;-0.34576416;-2.776596;-;-;-;-;-;-;-;-;-;-;-;-;-;-;-
1514175372407;-;-;8.808762;-0.33140564;-2.717926;-;-;-;-;-;-;-;-;-;-;-;-;-;-;-
1514175372427;-;-;8.819534;-0.33259583;-2.7861633;-;-;-;-;-;-;-;-;-;-;-;-;-;-;-
1514175372447;-;-;8.833893;-0.3984375;-2.7670135;-;-;-;-;-;-;-;-;-;-;-;-;-;-;-
1514175372467;-;-;8.866211;-0.48703003;-2.7394867;-;-;-;-;-;-;-;-;-;-;-;-;-;-;-
1514175372487;-;-;8.885376;-0.5744171;-2.7418823;-;-;-;-;-;-;-;-;-;-;-;-;-;-;-
1514175372508;-;-;8.862625;-0.5851898;-2.7119446;-;-;-;-;-;-;-;-;-;-;-;-;-;-;-
1514175372528;-;-;8.855438;-0.63427734;-2.7119446;-;-;-;-;-;-;-;-;-;-;-;-;-;-;-
1514175372548;-;-;8.843475;-0.65701294;-2.689209;-;-;-;-;-;-;-;-;-;-;-;-;-;-;-
1514175372568;-;-;8.802765;-0.67736816;-2.6844177;-;-;-;-;-;-;-;-;-;-;-;-;-;-;-
1514175372589;-;-;8.795593;-0.6713867;-2.7239227;-;-;-;-;-;-;-;-;-;-;-;-;-;-;-
1514175372609;-;-;8.885376;-0.73602295;-2.693985;-;-;-;-;-;-;-;-;-;-;-;-;-;-;-
1514175372629;-;-;8.863831;-0.74679565;-2.6568756;-;-;-;-;-;-;-;-;-;-;-;-;-;-;-
1514175372650;-;-;8.861435;-0.6929321;-2.682022;-;-;-;-;-;-;-;-;-;-;-;-;-;-;-
1514175372670;-;-;8.787216;-0.65582275;-2.673645;-;-;-;-;-;-;-;-;-;-;-;-;-;-;-
1514175372690;-;-;8.865021;-0.6294861;-2.6592712;-;-;-;-;-;-;-;-;-;-;-;-;-;-;-
1514175372710;-;-;8.909317;-0.62709045;-2.665268;-;-;-;-;-;-;-;-;-;-;-;-;-;-;-
1514175372731;-;-;8.898544;-0.6402588;-2.618576;-;-;-;-;-;-;-;-;-;-;-;-;-;-;-
1514175372751;-;-;8.898544;-0.59117126;-2.6233673;-;-;-;-;-;-;-;-;-;-;-;-;-;-;-
1514175372771;-;-;8.953613;-0.5851898;-2.6604767;-;-;-;-;-;-;-;-;-;-;-;-;-;-;-
1514175372792;-;-;8.910507;-0.5732269;-2.6927948;-;-;-;-;-;-;-;-;-;-;-;-;-;-;-
1514175372812;-;-;8.855438;-0.5145569;-2.7394867;-;-;-;-;-;-;-;-;-;-;-;-;-;-;-
1514175372832;-;-;8.876999;-0.5049896;-2.728714;-;-;-;-;-;-;-;-;-;-;-;-;-;-;-
1514175372852;-;-;8.8997345;-0.48582458;-2.685608;-;-;-;-;-;-;-;-;-;-;-;-;-;-;-
1514175372873;-;-;8.88298;-0.47625732;-2.6772308;-;-;-;-;-;-;-;-;-;-;-;-;-;-;-
1514175372893;-;-;8.819534;-0.42477417;-2.709549;-;-;-;-;-;-;-;-;-;-;-;-;-;-;-
1514175372913;-;-;8.818329;-0.4271698;-2.7478638;-;-;-;-;-;-;-;-;-;-;-;-;-;-;-
1514175372934;-;-;8.8602295;-0.47146606;-2.7718048;-;-;-;-;-;-;-;-;-;-;-;-;-;-;-
1514175372954;-;-;8.84108;-0.44752502;-2.7143402;-;-;-;-;-;-;-;-;-;-;-;-;-;-;-
1514175372974;-;-;8.876999;-0.46907043;-2.7538452;-;-;-;-;-;-;-;-;-;-;-;-;-;-;-
1514175372995;-;-;8.873398;-0.4846344;-2.7981415;-;-;-;-;-;-;-;-;-;-;-;-;-;-;-
1514175373015;-;-;8.897339;-0.46907043;-2.725113;-;-;-;-;-;-;-;-;-;-;-;-;-;-;-
1514175373035;-;-;8.879379;-0.43554688;-2.693985;-;-;-;-;-;-;-;-;-;-;-;-;-;-;-
1514175373055;-;-;8.892548;-0.46788025;-2.7502594;-;-;-;-;-;-;-;-;-;-;-;-;-;-;-
1514175373076;-;-;8.874603;-0.4439392;-2.764618;-;-;-;-;-;-;-;-;-;-;-;-;-;-;-
1514175373096;-;-;8.875793;-0.4846344;-2.7191315;-;-;-;-;-;-;-;-;-;-;-;-;-;-;-
1514175373116;-;-;8.861435;-0.4487152;-2.7119446;-;-;-;-;-;-;-;-;-;-;-;-;-;-;-
1514175373137;-;-;8.851852;-0.46788025;-2.7466583;-;-;-;-;-;-;-;-;-;-;-;-;-;-;-
1514175373157;-;-;8.84108;-0.5133667;-2.7430725;-;-;-;-;-;-;-;-;-;-;-;-;-;-;-
1514175373177;-;-;8.874603;-0.5349121;-2.7310944;-;-;-;-;-;-;-;-;-;-;-;-;-;-;-
1514175373198;-;-;8.856644;-0.54089355;-2.7598267;-;-;-;-;-;-;-;-;-;-;-;-;-;-;-
1514175373218;-;-;8.837494;-0.5157623;-2.7059631;-;-;-;-;-;-;-;-;-;-;-;-;-;-;-
1514175373238;-;-;8.847061;-0.5205536;-2.6951904;-;-;-;-;-;-;-;-;-;-;-;-;-;-;-
1514175373258;-;-;8.861435;-0.5241394;-2.7382813;-;-;-;-;-;-;-;-;-;-;-;-;-;-;-
1514175373279;-;-;8.887772;-0.5241394;-2.7143402;-;-;-;-;-;-;-;-;-;-;-;-;-;-;-
1514175373299;-;-;8.890167;-0.55166626;-2.6724396;-;-;-;-;-;-;-;-;-;-;-;-;-;-;-
1514175373320;-;-;8.849457;-0.51815796;-2.6832123;-;-;-;-;-;-;-;-;-;-;-;-;-;-;-
1514175373341;-;-;8.8602295;-0.49421692;-2.7358856;-;-;-;-;-;-;-;-;-;-;-;-;-;-;-
1514175373361;-;-;8.92009;-0.5528717;-2.728714;-;-;-;-;-;-;-;-;-;-;-;-;-;-;-
1514175373381;-;-;8.88298;-0.5456848;-2.749054;-;-;-;-;-;-;-;-;-;-;-;-;-;-;-
1514175373402;-;-;8.815933;-0.5564575;-2.7275085;-;-;-;-;-;-;-;-;-;-;-;-;-;-;-
1514175373422;-;-;8.8051605;-0.5504761;-2.7263184;-;-;-;-;-;-;-;-;-;-;-;-;-;-;-
1514175373442;-;-;8.82193;-0.5540619;-2.6760406;-;-;-;-;-;-;-;-;-;-;-;-;-;-;-
1514175373463;-;-;8.82193;-0.51097107;-2.7586365;-;-;-;-;-;-;-;-;-;-;-;-;-;-;-
1514175373483;-;-;8.845871;-0.4918213;-2.7598267;-;-;-;-;-;-;-;-;-;-;-;-;-;-;-
1514175373503;-;-;8.880585;-0.5169525;-2.7191315;-;-;-;-;-;-;-;-;-;-;-;-;-;-;-
1514175373523;-;-;8.875793;-0.5037842;-2.6903992;-;-;-;-;-;-;-;-;-;-;-;-;-;-;-
1514175373544;-;-;8.854248;-0.52653503;-2.6999817;-;-;-;-;-;-;-;-;-;-;-;-;-;-;-
1514175373563;-;-;8.866211;-0.49421692;-2.7358856;-;-;-;-;-;-;-;-;-;-;-;-;-;-;-
1514175373583;-;-;8.868607;-0.48104858;-2.7598267;-;-;-;-;-;-;-;-;-;-;-;-;-;-;-
1514175373604;-;-;8.876999;-0.4918213;-2.7634277;-;-;-;-;-;-;-;-;-;-;-;-;-;-;-
1514175373623;-;-;8.88298;-0.50738525;-2.7346954;-;-;-;-;-;-;-;-;-;-;-;-;-;-;-
1514175373643;-;-;8.879379;-0.48104858;-2.721527;-;-;-;-;-;-;-;-;-;-;-;-;-;-;-
1514175373664;-;-;8.862625;-0.48104858;-2.7299042;-;-;-;-;-;-;-;-;-;-;-;-;-;-;-
1514175373684;-;-;8.868607;-0.49661255;-2.7059631;-;-;-;-;-;-;-;-;-;-;-;-;-;-;-
1514175373704;-;-;8.865021;-0.47265625;-2.6832123;-;-;-;-;-;-;-;-;-;-;-;-;-;-;-
1514175373724;-;-;8.82193;-0.45231628;-2.685608;-;-;-;-;-;-;-;-;-;-;-;-;-;-;-
1514175373745;-;-;8.865021;-0.4163971;-2.7167358;-;-;-;-;-;-;-;-;-;-;-;-;-;-;-
1514175373765;-;-;8.8602295;-0.41160583;-2.749054;-;-;-;-;-;-;-;-;-;-;-;-;-;-;-
1514175373785;-;-;8.879379;-0.4092102;-2.6951904;-;-;-;-;-;-;-;-;-;-;-;-;-;-;-
1514175373806;-;-;8.884171;-0.43315125;-2.689209;-;-;-;-;-;-;-;-;-;-;-;-;-;-;-
1514175373826;-;-;8.875793;-0.47265625;-2.7358856;-;-;-;-;-;-;-;-;-;-;-;-;-;-;-
1514175373846;-;-;8.82193;-0.4738617;-2.7454681;-;-;-;-;-;-;-;-;-;-;-;-;-;-;-
1514175373867;-;-;8.862625;-0.5049896;-2.7035675;-;-;-;-;-;-;-;-;-;-;-;-;-;-;-
1514175373887;-;-;8.850662;-0.50138855;-2.7083588;-;-;-;-;-;-;-;-;-;-;-;-;-;-;-
1514175373907;-;-;8.894943;-0.502594;-2.6808167;-;-;-;-;-;-;-;-;-;-;-;-;-;-;-
1514175373927;-;-;8.898544;-0.47625732;-2.7155457;-;-;-;-;-;-;-;-;-;-;-;-;-;-;-
1514175373947;-;-;8.930862;-0.46548462;-2.7227173;-;-;-;-;-;-;-;-;-;-;-;-;-;-;-
1514175373968;-;-;8.92128;-0.4559021;-2.7406769;-;-;-;-;-;-;-;-;-;-;-;-;-;-;-
1514175373987;-;-;8.854248;-0.4271698;-2.752655;-;-;-;-;-;-;-;-;-;-;-;-;-;-;-
1514175374007;-;-;8.849457;-0.4439392;-2.7598267;-;-;-;-;-;-;-;-;-;-;-;-;-;-;-
1514175374027;-;-;8.832703;-0.42237854;-2.8077087;-;-;-;-;-;-;-;-;-;-;-;-;-;-;-
1514175374048;-;-;8.854248;-0.47865295;-2.7837677;-;-;-;-;-;-;-;-;-;-;-;-;-;-;-
1514175374068;-;-;8.887772;-0.5241394;-2.7310944;-;-;-;-;-;-;-;-;-;-;-;-;-;-;-
1514175374088;-;-;8.862625;-0.51934814;-2.7382813;-;-;-;-;-;-;-;-;-;-;-;-;-;-;-
1514175374108;-;-;8.865021;-0.5253296;-2.7023773;-;-;-;-;-;-;-;-;-;-;-;-;-;-;-
1514175374129;-;-;8.862625;-0.51934814;-2.689209;-;-;-;-;-;-;-;-;-;-;-;-;-;-;-
1514175374149;-;-;8.868607;-0.5540619;-2.7777863;-;-;-;-;-;-;-;-;-;-;-;-;-;-;-
1514175374169;-;-;8.891357;-0.49899292;-2.7873688;-;-;-;-;-;-;-;-;-;-;-;-;-;-;-
1514175374190;-;-;8.873398;-0.5037842;-2.7705994;-;-;-;-;-;-;-;-;-;-;-;-;-;-;-
1514175374210;-;-;8.866211;-0.49421692;-2.7263184;-;-;-;-;-;-;-;-;-;-;-;-;-;-;-
1514175374230;-;-;8.835098;-0.48104858;-2.6748352;-;-;-;-;-;-;-;-;-;-;-;-;-;-;-
1514175374250;-;-;8.814743;-0.48104858;-2.749054;-;-;-;-;-;-;-;-;-;-;-;-;-;-;-
1514175374270;-;-;8.847061;-0.4834442;-2.757431;-;-;-;-;-;-;-;-;-;-;-;-;-;-;-
1514175374291;-;-;8.875793;-0.49780273;-2.8184967;-;-;-;-;-;-;-;-;-;-;-;-;-;-;-
1514175374310;-;-;8.90094;-0.5061798;-2.852005;-;-;-;-;-;-;-;-;-;-;-;-;-;-;-
1514175374330;-;-;8.818329;-0.5277252;-2.7873688;-;-;-;-;-;-;-;-;-;-;-;-;-;-;-
1514175374350;-;-;8.819534;-0.49301147;-2.7394867;-;-;-;-;-;-;-;-;-;-;-;-;-;-;-
1514175374371;-;-;8.787216;-0.4547119;-2.7394867;-;-;-;-;-;-;-;-;-;-;-;-;-;-;-
1514175374391;-;-;8.844666;-0.4559021;-2.6999817;-;-;-;-;-;-;-;-;-;-;-;-;-;-;-
1514175374411;-;-;8.873398;-0.45231628;-2.7239227;-;-;-;-;-;-;-;-;-;-;-;-;-;-;-
1514175374431;-;-;8.874603;-0.4487152;-2.7634277;-;-;-;-;-;-;-;-;-;-;-;-;-;-;-
1514175374452;-;-;8.8997345;-0.49780273;-2.7514496;-;-;-;-;-;-;-;-;-;-;-;-;-;-;-
1514175374472;-;-;8.875793;-0.52893066;-2.7466583;-;-;-;-;-;-;-;-;-;-;-;-;-;-;-
1514175374492;-;-;8.879379;-0.45948792;-2.7227173;-;-;-;-;-;-;-;-;-;-;-;-;-;-;-
1514175374512;-;-;8.850662;-0.4547119;-2.697586;-;-;-;-;-;-;-;-;-;-;-;-;-;-;-
1514175374533;-;-;8.845871;-0.47027588;-2.7394867;-;-;-;-;-;-;-;-;-;-;-;-;-;-;-
1514175374553;-;-;8.866211;-0.45350647;-2.7023773;-;-;-;-;-;-;-;-;-;-;-;-;-;-;-
1514175374573;-;-;8.868607;-0.45111084;-2.7694092;-;-;-;-;-;-;-;-;-;-;-;-;-;-;-
1514175374594;-;-;8.893753;-0.4259796;-2.7861633;-;-;-;-;-;-;-;-;-;-;-;-;-;-;-
1514175374614;-;-;8.865021;-0.46188354;-2.780182;-;-;-;-;-;-;-;-;-;-;-;-;-;-;-
1514175374634;-;-;8.829102;-0.46427917;-2.737091;-;-;-;-;-;-;-;-;-;-;-;-;-;-;-
1514175374654;-;-;8.865021;-0.47265625;-2.665268;-;-;-;-;-;-;-;-;-;-;-;-;-;-;-
1514175374675;-;-;8.876999;-0.47265625;-2.6520996;-;-;-;-;-;-;-;-;-;-;-;-;-;-;-
1514175374695;-;-;8.904526;-0.50138855;-2.7191315;-;-;-;-;-;-;-;-;-;-;-;-;-;-;-
1514175374715;-;-;8.896149;-0.4846344;-2.7275085;-;-;-;-;-;-;-;-;-;-;-;-;-;-;-
1514175374736;-;-;8.887772;-0.49061584;-2.717926;-;-;-;-;-;-;-;-;-;-;-;-;-;-;-
1514175374755;-;-;8.851852;-0.5049896;-2.6808167;-;-;-;-;-;-;-;-;-;-;-;-;-;-;-
1514175374775;-;-;8.82193;-0.47865295;-2.7047577;-;-;-;-;-;-;-;-;-;-;-;-;-;-;-
1514175374796;-;-;8.831497;-0.45829773;-2.6903992;-;-;-;-;-;-;-;-;-;-;-;-;-;-;-
1514175374816;-;-;8.853058;-0.47146606;-2.7502594;-;-;-;-;-;-;-;-;-;-;-;-;-;-;-
1514175374836;-;-;8.872208;-0.463089;-2.7753906;-;-;-;-;-;-;-;-;-;-;-;-;-;-;-
1514175374856;-;-;8.885376;-0.44631958;-2.752655;-;-;-;-;-;-;-;-;-;-;-;-;-;-;-
1514175374877;-;-;8.888962;-0.43914795;-2.7227173;-;-;-;-;-;-;-;-;-;-;-;-;-;-;-
1514175374897;-;-;8.869812;-0.45231628;-2.682022;-;-;-;-;-;-;-;-;-;-;-;-;-;-;-
1514175374917;-;-;8.865021;-0.42477417;-2.6724396;-;-;-;-;-;-;-;-;-;-;-;-;-;-;-
1514175374938;-;-;8.850662;-0.41400146;-2.7346954;-;-;-;-;-;-;-;-;-;-;-;-;-;-;-
1514175374958;-;-;8.881775;-0.42956543;-2.7107544;-;-;-;-;-;-;-;-;-;-;-;-;-;-;-
1514175374978;-;-;8.893753;-0.4559021;-2.7143402;-;-;-;-;-;-;-;-;-;-;-;-;-;-;-
1514175374998;-;-;8.8602295;-0.47027588;-2.6401215;-;-;-;-;-;-;-;-;-;-;-;-;-;-;-
1514175375019;-;-;8.879379;-0.47625732;-2.6664581;-;-;-;-;-;-;-;-;-;-;-;-;-;-;-
1514175375038;-;-;8.862625;-0.4774475;-2.6449127;-;-;-;-;-;-;-;-;-;-;-;-;-;-;-
1514175375058;-;-;8.898544;-0.4846344;-2.630539;-;-;-;-;-;-;-;-;-;-;-;-;-;-;-
1514175375078;-;-;8.869812;-0.48582458;-2.6508942;-;-;-;-;-;-;-;-;-;-;-;-;-;-;-
1514175375099;-;-;8.884171;-0.49301147;-2.6556854;-;-;-;-;-;-;-;-;-;-;-;-;-;-;-
1514175375119;-;-;8.92128;-0.463089;-2.6568756;-;-;-;-;-;-;-;-;-;-;-;-;-;-;-
1514175375139;-;-;8.90094;-0.45350647;-2.625763;-;-;-;-;-;-;-;-;-;-;-;-;-;-;-
1514175375160;-;-;8.850662;-0.44992065;-2.6365356;-;-;-;-;-;-;-;-;-;-;-;-;-;-;-
1514175375180;-;-;8.844666;-0.43914795;-2.6233673;-;-;-;-;-;-;-;-;-;-;-;-;-;-;-
1514175375200;-;-;8.871002;-0.4259796;-2.6868134;-;-;-;-;-;-;-;-;-;-;-;-;-;-;-
1514175375221;-;-;8.92009;-0.48104858;-2.6760406;-;-;-;-;-;-;-;-;-;-;-;-;-;-;-
1514175375241;-;-;8.88298;-0.44752502;-2.682022;-;-;-;-;-;-;-;-;-;-;-;-;-;-;-
1514175375261;-;-;8.892548;-0.44154358;-2.649704;-;-;-;-;-;-;-;-;-;-;-;-;-;-;-
1514175375281;-;-;8.917694;-0.44273376;-2.614975;-;-;-;-;-;-;-;-;-;-;-;-;-;-;-
1514175375302;-;-;8.910507;-0.44631958;-2.6173706;-;-;-;-;-;-;-;-;-;-;-;-;-;-;-
1514175375322;-;-;8.92128;-0.41760254;-2.6054077;-;-;-;-;-;-;-;-;-;-;-;-;-;-;-
1514175375342;-;-;8.914108;-0.40203857;-2.5922394;-;-;-;-;-;-;-;-;-;-;-;-;-;-;-
1514175375363;-;-;8.944031;-0.35055542;-2.6161804;-;-;-;-;-;-;-;-;-;-;-;-;-;-;-
1514175375383;-;-;8.944031;-0.32901;-2.6484985;-;-;-;-;-;-;-;-;-;-;-;-;-;-;-
1514175375403;-;-;8.866211;-0.2787323;-2.7430725;-;-;-;-;-;-;-;-;-;-;-;-;-;-;-
1514175375424;-;-;8.74292;-0.25239563;-2.7909546;-;-;-;-;-;-;-;-;-;-;-;-;-;-;-
1514175375444;-;-;8.734543;-0.29908752;-2.8771515;-;-;-;-;-;-;-;-;-;-;-;-;-;-;-
1514175375464;-;-;8.754883;-0.23564148;-2.8340454;-;-;-;-;-;-;-;-;-;-;-;-;-;-;-
1514175375485;-;-;8.811157;-0.25360107;-2.780182;-;-;-;-;-;-;-;-;-;-;-;-;-;-;-
1514175375504;-;-;8.788406;-0.31344604;-2.8424377;-;-;-;-;-;-;-;-;-;-;-;-;-;-;-
1514175375524;-;-;8.678268;-0.40802002;-2.8927155;-;-;-;-;-;-;-;-;-;-;-;-;-;-;-
1514175375545;-;-;8.695038;-0.56243896;-2.840042;-;-;-;-;-;-;-;-;-;-;-;-;-;-;-
1514175375565;-;-;8.874603;-0.6522217;-2.6413116;-;-;-;-;-;-;-;-;-;-;-;-;-;-;-
1514175375585;-;-;9.064941;-0.6689911;-2.5982208;-;-;-;-;-;-;-;-;-;-;-;-;-;-;-
1514175375605;-;-;9.136765;-0.59117126;-2.6676483;-;-;-;-;-;-;-;-;-;-;-;-;-;-;-
1514175375626;-;-;9.087677;-0.41879272;-2.6927948;-;-;-;-;-;-;-;-;-;-;-;-;-;-;-
1514175375647;-;-;9.027832;-0.46427917;-2.7071533;-;-;-;-;-;-;-;-;-;-;-;-;-;-;-
1514175375666;-;-;9.011063;-0.48223877;-2.7191315;-;-;-;-;-;-;-;-;-;-;-;-;-;-;-
1514175375687;-;-;8.92128;-0.43914795;-2.8412323;-;-;-;-;-;-;-;-;-;-;-;-;-;-;-
1514175375706;-;-;8.853058;-0.3864746;-2.8448334;-;-;-;-;-;-;-;-;-;-;-;-;-;-;-
1514175375726;-;-;8.861435;-0.31344604;-2.757431;-;-;-;-;-;-;-;-;-;-;-;-;-;-;-
1514175375747;-;-;8.766861;-0.44273376;-2.5371704;-;-;-;-;-;-;-;-;-;-;-;-;-;-;-
1514175375767;-;-;8.752487;-0.66659546;-2.39711;-;-;-;-;-;-;-;-;-;-;-;-;-;-;-
1514175375787;-;-;8.703415;-0.8497467;-2.3647919;-;-;-;-;-;-;-;-;-;-;-;-;-;-;-
1514175375807;-;-;8.738129;-0.92277527;-2.271408;-;-;-;-;-;-;-;-;-;-;-;-;-;-;-
1514175375828;-;-;8.935654;-0.89523315;-2.333664;-;-;-;-;-;-;-;-;-;-;-;-;-;-;-
1514175375848;-;-;9.074509;-0.7228546;-2.3480225;-;-;-;-;-;-;-;-;-;-;-;-;-;-;-
1514175375868;-;-;9.130783;-0.65701294;-2.3228912;-;-;-;-;-;-;-;-;-;-;-;-;-;-;-
1514175375889;-;-;9.0972595;-0.6582184;-2.3635864;-;-;-;-;-;-;-;-;-;-;-;-;-;-;-
1514175375909;-;-;9.108032;-0.64863586;-2.2809906;-;-;-;-;-;-;-;-;-;-;-;-;-;-;-
1514175375929;-;-;9.085281;-0.5444946;-2.2809906;-;-;-;-;-;-;-;-;-;-;-;-;-;-;-
1514175375949;-;-;8.9787445;-0.368515;-2.2965546;-;-;-;-;-;-;-;-;-;-;-;-;-;-;-
1514175375970;-;-;8.8997345;-0.2571869;-2.2211304;-;-;-;-;-;-;-;-;-;-;-;-;-;-;-
1514175375990;-;-;8.806366;-0.27394104;-2.3695831;-;-;-;-;-;-;-;-;-;-;-;-;-;-;-
1514175376010;-;-;8.745316;-0.30267334;-2.436615;-;-;-;-;-;-;-;-;-;-;-;-;-;-;-
1514175376031;-;-;8.734543;-0.27394104;-2.5192108;-;-;-;-;-;-;-;-;-;-;-;-;-;-;-
1514175376051;-;-;8.752487;-0.2320404;-2.5036469;-;-;-;-;-;-;-;-;-;-;-;-;-;-;-
1514175376071;-;-;8.92009;-0.36611938;-2.5371704;-;-;-;-;-;-;-;-;-;-;-;-;-;-;-
1514175376092;-;-;8.976349;-0.48942566;-2.5371704;-;-;-;-;-;-;-;-;-;-;-;-;-;-;-
1514175376112;-;-;8.92128;-0.5277252;-2.4186554;-;-;-;-;-;-;-;-;-;-;-;-;-;-;-
1514175376132;-;-;8.667496;-0.36372375;-2.6209717;-;-;-;-;-;-;-;-;-;-;-;-;-;-;-
1514175376152;-;-;8.289215;0.16419983;-3.1057892;-;-;-;-;-;-;-;-;-;-;-;-;-;-;-
1514175376173;-;-;8.068954;0.7627411;-3.341629;-;-;-;-;-;-;-;-;-;-;-;-;-;-;-
1514175376193;-;-;8.502304;0.88365173;-3.429016;-;-;-;-;-;-;-;-;-;-;-;-;-;-;-
1514175376213;-;-;9.355835;0.39762878;-2.9920654;-;-;-;-;-;-;-;-;-;-;-;-;-;-;-
1514175376234;-;-;9.981918;-0.33380127;-2.309723;-;-;-;-;-;-;-;-;-;-;-;-;-;-;-
1514175376253;-;-;9.669479;-0.7444;-2.591034;-;-;-;-;-;-;-;-;-;-;-;-;-;-;-
1514175376273;-;-;8.853058;-0.7096863;-3.0746765;-;-;-;-;-;-;-;-;-;-;-;-;-;-;-
1514175376293;-;-;8.378998;-0.19493103;-3.140503;-;-;-;-;-;-;-;-;-;-;-;-;-;-;-
1514175376314;-;-;8.374207;0.13546753;-2.8328552;-;-;-;-;-;-;-;-;-;-;-;-;-;-;-
1514175376334;-;-;8.856644;0.27192688;-2.7538452;-;-;-;-;-;-;-;-;-;-;-;-;-;-;-
1514175376354;-;-;9.121201;0.36889648;-2.8579865;-;-;-;-;-;-;-;-;-;-;-;-;-;-;-
1514175376375;-;-;9.164291;0.3425598;-2.9034882;-;-;-;-;-;-;-;-;-;-;-;-;-;-;-
1514175376395;-;-;9.269638;0.13905334;-2.7753906;-;-;-;-;-;-;-;-;-;-;-;-;-;-;-
1514175376414;-;-;9.31633;-0.02973938;-2.6293488;-;-;-;-;-;-;-;-;-;-;-;-;-;-;-
1514175376434;-;-;9.093674;-0.29309082;-2.333664;-;-;-;-;-;-;-;-;-;-;-;-;-;-;-
1514175376455;-;-;8.746506;-0.4846344;-2.1552887;-;-;-;-;-;-;-;-;-;-;-;-;-;-;-
1514175376474;-;-;8.48674;-0.5504761;-2.0080566;-;-;-;-;-;-;-;-;-;-;-;-;-;-;-
1514175376494;-;-;8.501099;-0.51815796;-1.9841156;-;-;-;-;-;-;-;-;-;-;-;-;-;-;-
1514175376514;-;-;8.72496;-0.502594;-2.1816254;-;-;-;-;-;-;-;-;-;-;-;-;-;-;-
1514175376535;-;-;8.948822;-0.5313263;-2.3995056;-;-;-;-;-;-;-;-;-;-;-;-;-;-;-
1514175376555;-;-;9.109222;-0.44033813;-2.6042023;-;-;-;-;-;-;-;-;-;-;-;-;-;-;-
1514175376575;-;-;9.058945;-0.32661438;-2.7406769;-;-;-;-;-;-;-;-;-;-;-;-;-;-;-
1514175376596;-;-;8.905716;-0.12908936;-2.737091;-;-;-;-;-;-;-;-;-;-;-;-;-;-;-
1514175376616;-;-;8.72496;0.14503479;-2.6365356;-;-;-;-;-;-;-;-;-;-;-;-;-;-;-
1514175376637;-;-;8.707001;0.29348755;-2.5455475;-;-;-;-;-;-;-;-;-;-;-;-;-;-;-
1514175376657;-;-;8.808762;0.27552795;-2.483307;-;-;-;-;-;-;-;-;-;-;-;-;-;-;-
1514175376677;-;-;9.013458;0.19651794;-2.531189;-;-;-;-;-;-;-;-;-;-;-;-;-;-;-
1514175376697;-;-;9.0972595;0.14863586;-2.562317;-;-;-;-;-;-;-;-;-;-;-;-;-;-;-
1514175376717;-;-;9.0972595;0.02293396;-2.5802612;-;-;-;-;-;-;-;-;-;-;-;-;-;-;-
1514175376738;-;-;9.024231;-0.078811646;-2.539566;-;-;-;-;-;-;-;-;-;-;-;-;-;-;-
1514175376758;-;-;8.971558;-0.19493103;-2.3947144;-;-;-;-;-;-;-;-;-;-;-;-;-;-;-
1514175376778;-;-;8.964386;-0.2859192;-2.389923;-;-;-;-;-;-;-;-;-;-;-;-;-;-;-
1514175376798;-;-;8.9392395;-0.32421875;-2.3959198;-;-;-;-;-;-;-;-;-;-;-;-;-;-;-
1514175376818;-;-;8.964386;-0.2859192;-2.388733;-;-;-;-;-;-;-;-;-;-;-;-;-;-;-
1514175376839;-;-;8.965576;-0.368515;-2.4138641;-;-;-;-;-;-;-;-;-;-;-;-;-;-;-
1514175376859;-;-;8.985931;-0.34098816;-2.4042969;-;-;-;-;-;-;-;-;-;-;-;-;-;-;-
1514175376879;-;-;8.926071;-0.27633667;-2.3995056;-;-;-;-;-;-;-;-;-;-;-;-;-;-;-
1514175376899;-;-;8.911713;-0.22366333;-2.302536;-;-;-;-;-;-;-;-;-;-;-;-;-;-;-
1514175376920;-;-;8.88298;-0.18536377;-2.3133087;-;-;-;-;-;-;-;-;-;-;-;-;-;-;-
1514175376940;-;-;8.90094;-0.12071228;-2.345642;-;-;-;-;-;-;-;-;-;-;-;-;-;-;-
1514175376960;-;-;8.934448;-0.06803894;-2.350418;-;-;-;-;-;-;-;-;-;-;-;-;-;-;-
1514175376981;-;-;8.988327;-0.06564331;-2.326477;-;-;-;-;-;-;-;-;-;-;-;-;-;-;-
1514175377001;-;-;8.96199;-0.06803894;-2.3240814;-;-;-;-;-;-;-;-;-;-;-;-;-;-;-
1514175377021;-;-;8.951218;-0.16500854;-2.3145142;-;-;-;-;-;-;-;-;-;-;-;-;-;-;-
1514175377041;-;-;8.966782;-0.22366333;-2.349228;-;-;-;-;-;-;-;-;-;-;-;-;-;-;-
1514175377062;-;-;8.9392395;-0.2392273;-2.3384552;-;-;-;-;-;-;-;-;-;-;-;-;-;-;-
1514175377082;-;-;8.896149;-0.17459106;-2.345642;-;-;-;-;-;-;-;-;-;-;-;-;-;-;-
1514175377102;-;-;8.879379;-0.13986206;-2.429428;-;-;-;-;-;-;-;-;-;-;-;-;-;-;-
1514175377123;-;-;8.894943;-0.105148315;-2.4102783;-;-;-;-;-;-;-;-;-;-;-;-;-;-;-
1514175377143;-;-;8.966782;-0.07762146;-2.4533691;-;-;-;-;-;-;-;-;-;-;-;-;-;-;-
1514175377163;-;-;8.970367;-0.08720398;-2.4509735;-;-;-;-;-;-;-;-;-;-;-;-;-;-;-
1514175377184;-;-;8.987122;-0.15663147;-2.373169;-;-;-;-;-;-;-;-;-;-;-;-;-;-;-
1514175377204;-;-;8.985931;-0.19493103;-2.3767548;-;-;-;-;-;-;-;-;-;-;-;-;-;-;-
1514175377224;-;-;8.929672;-0.21289063;-2.3312683;-;-;-;-;-;-;-;-;-;-;-;-;-;-;-
1514175377244;-;-;8.891357;-0.21528625;-2.3085175;-;-;-;-;-;-;-;-;-;-;-;-;-;-;-
1514175377265;-;-;8.871002;-0.21887207;-2.3468323;-;-;-;-;-;-;-;-;-;-;-;-;-;-;-
1514175377285;-;-;8.905716;-0.2392273;-2.4306335;-;-;-;-;-;-;-;-;-;-;-;-;-;-;-
1514175377305;-;-;8.953613;-0.22845459;-2.4533691;-;-;-;-;-;-;-;-;-;-;-;-;-;-;-
1514175377326;-;-;8.993118;-0.16740417;-2.3827515;-;-;-;-;-;-;-;-;-;-;-;-;-;-;-
1514175377346;-;-;8.988327;-0.1697998;-2.4006958;-;-;-;-;-;-;-;-;-;-;-;-;-;-;-
1514175377366;-;-;9.003891;-0.16261292;-2.4246368;-;-;-;-;-;-;-;-;-;-;-;-;-;-;-
1514175377386;-;-;9.020645;-0.16500854;-2.3911285;-;-;-;-;-;-;-;-;-;-;-;-;-;-;-
1514175377407;-;-;9.003891;-0.14225769;-2.3755646;-;-;-;-;-;-;-;-;-;-;-;-;-;-;-
1514175377427;-;-;8.967972;-0.1482544;-2.3623962;-;-;-;-;-;-;-;-;-;-;-;-;-;-;-
1514175377447;-;-;8.897339;-0.14346313;-2.3552094;-;-;-;-;-;-;-;-;-;-;-;-;-;-;-
1514175377468;-;-;8.887772;-0.13986206;-2.3839417;-;-;-;-;-;-;-;-;-;-;-;-;-;-;-
1514175377488;-;-;8.964386;-0.15065002;-2.3540192;-;-;-;-;-;-;-;-;-;-;-;-;-;-;-
1514175377508;-;-;8.997894;-0.10635376;-2.3408508;-;-;-;-;-;-;-;-;-;-;-;-;-;-;-
1514175377529;-;-;8.957199;-0.117126465;-2.3623962;-;-;-;-;-;-;-;-;-;-;-;-;-;-;-
1514175377549;-;-;8.965576;-0.21528625;-2.388733;-;-;-;-;-;-;-;-;-;-;-;-;-;-;-
1514175377569;-;-;8.995499;-0.29190063;-2.381546;-;-;-;-;-;-;-;-;-;-;-;-;-;-;-
1514175377589;-;-;8.984726;-0.2787323;-2.3600006;-;-;-;-;-;-;-;-;-;-;-;-;-;-;-
1514175377610;-;-;8.963181;-0.23564148;-2.4006958;-;-;-;-;-;-;-;-;-;-;-;-;-;-;-
1514175377630;-;-;8.953613;-0.18296814;-2.4581604;-;-;-;-;-;-;-;-;-;-;-;-;-;-;-
1514175377650;-;-;8.930862;-0.12550354;-2.4581604;-;-;-;-;-;-;-;-;-;-;-;-;-;-;-
1514175377671;-;-;8.947617;-0.08241272;-2.4737244;-;-;-;-;-;-;-;-;-;-;-;-;-;-;-
1514175377691;-;-;8.954803;-0.09197998;-2.412674;-;-;-;-;-;-;-;-;-;-;-;-;-;-;-
1514175377711;-;-;8.942825;-0.1530304;-2.2893677;-;-;-;-;-;-;-;-;-;-;-;-;-;-;-
1514175377732;-;-;8.837494;-0.1877594;-2.2953491;-;-;-;-;-;-;-;-;-;-;-;-;-;-;-
1514175377752;-;-;8.8003845;-0.21170044;-2.4114685;-;-;-;-;-;-;-;-;-;-;-;-;-;-;-
1514175377772;-;-;8.881775;-0.20570374;-2.47612;-;-;-;-;-;-;-;-;-;-;-;-;-;-;-
1514175377793;-;-;8.972763;-0.102752686;-2.4258423;-;-;-;-;-;-;-;-;-;-;-;-;-;-;-
1514175377813;-;-;8.993118;-0.062057495;-2.3743591;-;-;-;-;-;-;-;-;-;-;-;-;-;-;-
1514175377833;-;-;8.953613;0.012161255;-2.4545746;-;-;-;-;-;-;-;-;-;-;-;-;-;-;-
1514175377853;-;-;8.957199;0.007369995;-2.5096436;-;-;-;-;-;-;-;-;-;-;-;-;-;-;-
1514175377874;-;-;8.959595;-0.023742676;-2.527588;-;-;-;-;-;-;-;-;-;-;-;-;-;-;-
1514175377894;-;-;8.948822;-0.033325195;-2.5132294;-;-;-;-;-;-;-;-;-;-;-;-;-;-;-
1514175377914;-;-;9.007477;-0.13867188;-2.527588;-;-;-;-;-;-;-;-;-;-;-;-;-;-;-
1514175377935;-;-;9.023041;-0.15184021;-2.5431519;-;-;-;-;-;-;-;-;-;-;-;-;-;-;-
1514175377955;-;-;8.958389;-0.12908936;-2.5108337;-;-;-;-;-;-;-;-;-;-;-;-;-;-;-
1514175377975;-;-;8.881775;-0.15663147;-2.429428;-;-;-;-;-;-;-;-;-;-;-;-;-;-;-
1514175377996;-;-;8.927277;-0.17219543;-2.4138641;-;-;-;-;-;-;-;-;-;-;-;-;-;-;-
1514175378016;-;-;8.965576;-0.13269043;-2.484497;-;-;-;-;-;-;-;-;-;-;-;-;-;-;-
1514175378036;-;-;8.98233;-0.1482544;-2.4174652;-;-;-;-;-;-;-;-;-;-;-;-;-;-;-
1514175378057;-;-;9.011063;-0.17936707;-2.3719635;-;-;-;-;-;-;-;-;-;-;-;-;-;-;-
1514175378077;-;-;8.970367;-0.15782166;-2.3875275;-;-;-;-;-;-;-;-;-;-;-;-;-;-;-
1514175378096;-;-;8.879379;-0.13388062;-2.381546;-;-;-;-;-;-;-;-;-;-;-;-;-;-;-
1514175378116;-;-;8.898544;-0.17936707;-2.3276825;-;-;-;-;-;-;-;-;-;-;-;-;-;-;-
1514175378137;-;-;8.914108;-0.22486877;-2.309723;-;-;-;-;-;-;-;-;-;-;-;-;-;-;-
1514175378157;-;-;8.950012;-0.20092773;-2.309723;-;-;-;-;-;-;-;-;-;-;-;-;-;-;-
1514175378177;-;-;8.941635;-0.1985321;-2.3216858;-;-;-;-;-;-;-;-;-;-;-;-;-;-;-
1514175378198;-;-;8.955994;-0.22486877;-2.2953491;-;-;-;-;-;-;-;-;-;-;-;-;-;-;-
1514175378218;-;-;8.97995;-0.20690918;-2.3157043;-;-;-;-;-;-;-;-;-;-;-;-;-;-;-
1514175378238;-;-;8.990723;-0.23085022;-2.373169;-;-;-;-;-;-;-;-;-;-;-;-;-;-;-
1514175378258;-;-;9.0182495;-0.20570374;-2.4102783;-;-;-;-;-;-;-;-;-;-;-;-;-;-;-
1514175378278;-;-;9.006287;-0.2033081;-2.4378052;-;-;-;-;-;-;-;-;-;-;-;-;-;-;-
1514175378299;-;-;8.990723;-0.22845459;-2.468933;-;-;-;-;-;-;-;-;-;-;-;-;-;-;-
1514175378319;-;-;8.957199;-0.22247314;-2.4641418;-;-;-;-;-;-;-;-;-;-;-;-;-;-;-
1514175378339;-;-;8.897339;-0.26197815;-2.4198608;-;-;-;-;-;-;-;-;-;-;-;-;-;-;-
1514175378359;-;-;8.888962;-0.28831482;-2.4042969;-;-;-;-;-;-;-;-;-;-;-;-;-;-;-
1514175378380;-;-;8.941635;-0.27514648;-2.3839417;-;-;-;-;-;-;-;-;-;-;-;-;-;-;-
1514175378400;-;-;8.927277;-0.24281311;-2.3791504;-;-;-;-;-;-;-;-;-;-;-;-;-;-;-
1514175378420;-;-;8.915298;-0.16261292;-2.4270325;-;-;-;-;-;-;-;-;-;-;-;-;-;-;-
1514175378441;-;-;8.953613;-0.14346313;-2.3983002;-;-;-;-;-;-;-;-;-;-;-;-;-;-;-
1514175378461;-;-;8.963181;-0.22007751;-2.4485931;-;-;-;-;-;-;-;-;-;-;-;-;-;-;-
1514175378481;-;-;8.965576;-0.23683167;-2.4306335;-;-;-;-;-;-;-;-;-;-;-;-;-;-;-
1514175378502;-;-;8.890167;-0.25360107;-2.4114685;-;-;-;-;-;-;-;-;-;-;-;-;-;-;-
1514175378522;-;-;8.866211;-0.25479126;-2.3480225;-;-;-;-;-;-;-;-;-;-;-;-;-;-;-
1514175378542;-;-;8.892548;-0.2787323;-2.3276825;-;-;-;-;-;-;-;-;-;-;-;-;-;-;-
1514175378562;-;-;8.938049;-0.27514648;-2.3360596;-;-;-;-;-;-;-;-;-;-;-;-;-;-;-
1514175378583;-;-;8.9787445;-0.22964478;-2.4186554;-;-;-;-;-;-;-;-;-;-;-;-;-;-;-
1514175378603;-;-;9.007477;-0.16142273;-2.4114685;-;-;-;-;-;-;-;-;-;-;-;-;-;-;-
1514175378623;-;-;9.027832;-0.13986206;-2.4821014;-;-;-;-;-;-;-;-;-;-;-;-;-;-;-
1514175378644;-;-;9.041;-0.21768188;-2.4174652;-;-;-;-;-;-;-;-;-;-;-;-;-;-;-
1514175378664;-;-;8.989517;-0.21887207;-2.3851318;-;-;-;-;-;-;-;-;-;-;-;-;-;-;-
1514175378684;-;-;8.955994;-0.20690918;-2.373169;-;-;-;-;-;-;-;-;-;-;-;-;-;-;-
1514175378704;-;-;8.898544;-0.19374084;-2.4390106;-;-;-;-;-;-;-;-;-;-;-;-;-;-;-
1514175378725;-;-;8.898544;-0.1817627;-2.421051;-;-;-;-;-;-;-;-;-;-;-;-;-;-;-
1514175378745;-;-;8.884171;-0.19013977;-2.4425964;-;-;-;-;-;-;-;-;-;-;-;-;-;-;-
1514175378765;-;-;8.927277;-0.17817688;-2.3755646;-;-;-;-;-;-;-;-;-;-;-;-;-;-;-
1514175378786;-;-;8.918884;-0.12908936;-2.3480225;-;-;-;-;-;-;-;-;-;-;-;-;-;-;-
1514175378806;-;-;8.90213;-0.06086731;-2.4042969;-;-;-;-;-;-;-;-;-;-;-;-;-;-;-
1514175378826;-;-;8.910507;-0.02494812;-2.4438019;-;-;-;-;-;-;-;-;-;-;-;-;-;-;-
1514175378847;-;-;8.918884;-0.023742676;-2.491684;-;-;-;-;-;-;-;-;-;-;-;-;-;-;-
1514175378866;-;-;8.953613;-0.03213501;-2.5263977;-;-;-;-;-;-;-;-;-;-;-;-;-;-;-
1514175378886;-;-;8.960785;-0.057266235;-2.5204163;-;-;-;-;-;-;-;-;-;-;-;-;-;-;-
1514175378906;-;-;8.959595;-0.117126465;-2.4593658;-;-;-;-;-;-;-;-;-;-;-;-;-;-;-
1514175378927;-;-;8.965576;-0.10874939;-2.444992;-;-;-;-;-;-;-;-;-;-;-;-;-;-;-
1514175378947;-;-;8.954803;-0.13748169;-2.4473877;-;-;-;-;-;-;-;-;-;-;-;-;-;-;-
1514175378967;-;-;8.946426;-0.16261292;-2.4354248;-;-;-;-;-;-;-;-;-;-;-;-;-;-;-
1514175378987;-;-;8.923676;-0.13148499;-2.4270325;-;-;-;-;-;-;-;-;-;-;-;-;-;-;-
1514175379008;-;-;8.923676;-0.05368042;-2.4653473;-;-;-;-;-;-;-;-;-;-;-;-;-;-;-
1514175379028;-;-;8.888962;1.9836426E-4;-2.4461975;-;-;-;-;-;-;-;-;-;-;-;-;-;-;-
1514175379048;-;-;8.904526;0.062438965;-2.4342194;-;-;-;-;-;-;-;-;-;-;-;-;-;-;-
1514175379069;-;-;8.938049;0.07321167;-2.4258423;-;-;-;-;-;-;-;-;-;-;-;-;-;-;-
1514175379089;-;-;8.958389;0.026535034;-2.4797058;-;-;-;-;-;-;-;-;-;-;-;-;-;-;-
1514175379109;-;-;8.929672;-0.012969971;-2.4569702;-;-;-;-;-;-;-;-;-;-;-;-;-;-;-
1514175379129;-;-;8.917694;-0.03453064;-2.39711;-;-;-;-;-;-;-;-;-;-;-;-;-;-;-
1514175379150;-;-;8.890167;-0.064453125;-2.4078827;-;-;-;-;-;-;-;-;-;-;-;-;-;-;-
1514175379170;-;-;8.935654;-0.07762146;-2.4270325;-;-;-;-;-;-;-;-;-;-;-;-;-;-;-
1514175379190;-;-;8.934448;-0.071640015;-2.4234467;-;-;-;-;-;-;-;-;-;-;-;-;-;-;-
1514175379211;-;-;8.905716;-0.10635376;-2.4414063;-;-;-;-;-;-;-;-;-;-;-;-;-;-;-
1514175379231;-;-;8.92009;-0.10635376;-2.4198608;-;-;-;-;-;-;-;-;-;-;-;-;-;-;-
1514175379251;-;-;8.944031;-0.11352539;-2.3935242;-;-;-;-;-;-;-;-;-;-;-;-;-;-;-
1514175379271;-;-;8.970367;-0.05368042;-2.4186554;-;-;-;-;-;-;-;-;-;-;-;-;-;-;-
1514175379292;-;-;8.971558;-0.06803894;-2.4533691;-;-;-;-;-;-;-;-;-;-;-;-;-;-;-
1514175379312;-;-;9.002686;-0.08241272;-2.468933;-;-;-;-;-;-;-;-;-;-;-;-;-;-;-
1514175379332;-;-;9.030228;-0.097976685;-2.491684;-;-;-;-;-;-;-;-;-;-;-;-;-;-;-
1514175379353;-;-;9.027832;-0.14944458;-2.5192108;-;-;-;-;-;-;-;-;-;-;-;-;-;-;-
1514175379373;-;-;8.991913;-0.121917725;-2.4665375;-;-;-;-;-;-;-;-;-;-;-;-;-;-;-
1514175379394;-;-;8.935654;-0.14944458;-2.4150696;-;-;-;-;-;-;-;-;-;-;-;-;-;-;-
1514175379414;-;-;8.876999;-0.112335205;-2.357605;-;-;-;-;-;-;-;-;-;-;-;-;-;-;-
1514175379434;-;-;8.886566;-0.1590271;-2.4078827;-;-;-;-;-;-;-;-;-;-;-;-;-;-;-
1514175379454;-;-;8.938049;-0.15423584;-2.39711;-;-;-;-;-;-;-;-;-;-;-;-;-;-;-
1514175379475;-;-;8.947617;-0.18057251;-2.3995056;-;-;-;-;-;-;-;-;-;-;-;-;-;-;-
1514175379495;-;-;8.959595;-0.17219543;-2.39711;-;-;-;-;-;-;-;-;-;-;-;-;-;-;-
1514175379515;-;-;8.946426;-0.14346313;-2.405487;-;-;-;-;-;-;-;-;-;-;-;-;-;-;-
1514175379536;-;-;8.948822;-0.18296814;-2.4042969;-;-;-;-;-;-;-;-;-;-;-;-;-;-;-
1514175379556;-;-;8.945221;-0.19013977;-2.4306335;-;-;-;-;-;-;-;-;-;-;-;-;-;-;-
1514175379576;-;-;8.983536;-0.21289063;-2.412674;-;-;-;-;-;-;-;-;-;-;-;-;-;-;-
1514175379597;-;-;8.953613;-0.2212677;-2.3803558;-;-;-;-;-;-;-;-;-;-;-;-;-;-;-
1514175379617;-;-;9.017059;-0.25120544;-2.3312683;-;-;-;-;-;-;-;-;-;-;-;-;-;-;-
1514175379637;-;-;9.001495;-0.289505;-2.3695831;-;-;-;-;-;-;-;-;-;-;-;-;-;-;-
1514175379657;-;-;9.020645;-0.33499146;-2.3983002;-;-;-;-;-;-;-;-;-;-;-;-;-;-;-
1514175379678;-;-;8.991913;-0.32063293;-2.4438019;-;-;-;-;-;-;-;-;-;-;-;-;-;-;-
1514175379698;-;-;8.929672;-0.31584167;-2.3839417;-;-;-;-;-;-;-;-;-;-;-;-;-;-;-
1514175379718;-;-;8.881775;-0.3697052;-2.365982;-;-;-;-;-;-;-;-;-;-;-;-;-;-;-
1514175379739;-;-;8.887772;-0.38049316;-2.2845764;-;-;-;-;-;-;-;-;-;-;-;-;-;-;-
1514175379758;-;-;8.944031;-0.37809753;-2.2738037;-;-;-;-;-;-;-;-;-;-;-;-;-;-;-
1514175379778;-;-;8.97995;-0.3577423;-2.2893677;-;-;-;-;-;-;-;-;-;-;-;-;-;-;-
1514175379798;-;-;8.950012;-0.38168335;-2.3623962;-;-;-;-;-;-;-;-;-;-;-;-;-;-;-
1514175379819;-;-;8.917694;-0.3589325;-2.350418;-;-;-;-;-;-;-;-;-;-;-;-;-;-;-
1514175379838;-;-;8.969162;-0.368515;-2.3181;-;-;-;-;-;-;-;-;-;-;-;-;-;-;-
1514175379858;-;-;9.002686;-0.3182373;-2.2378998;-;-;-;-;-;-;-;-;-;-;-;-;-;-;-
1514175379879;-;-;8.985931;-0.3757019;-2.2498627;-;-;-;-;-;-;-;-;-;-;-;-;-;-;-
1514175379898;-;-;8.966782;-0.35653687;-2.3647919;-;-;-;-;-;-;-;-;-;-;-;-;-;-;-
1514175379918;-;-;8.945221;-0.36611938;-2.3839417;-;-;-;-;-;-;-;-;-;-;-;-;-;-;-
1514175379939;-;-;8.953613;-0.33380127;-2.3959198;-;-;-;-;-;-;-;-;-;-;-;-;-;-;-
1514175379959;-;-;8.944031;-0.35176086;-2.345642;-;-;-;-;-;-;-;-;-;-;-;-;-;-;-
1514175379979;-;-;8.936844;-0.39006042;-2.3611908;-;-;-;-;-;-;-;-;-;-;-;-;-;-;-
1514175379999;-;-;8.984726;-0.3433838;-2.3288727;-;-;-;-;-;-;-;-;-;-;-;-;-;-;-
1514175380019;-;-;8.969162;-0.32781982;-2.3228912;-;-;-;-;-;-;-;-;-;-;-;-;-;-;-
1514175380040;-;-;8.967972;-0.3433838;-2.3552094;-;-;-;-;-;-;-;-;-;-;-;-;-;-;-
1514175380060;-;-;8.988327;-0.3361969;-2.3252869;-;-;-;-;-;-;-;-;-;-;-;-;-;-;-
1514175380080;-;-;8.993118;-0.33859253;-2.3121185;-;-;-;-;-;-;-;-;-;-;-;-;-;-;-
1514175380101;-;-;8.971558;-0.34576416;-2.3216858;-;-;-;-;-;-;-;-;-;-;-;-;-;-;-
1514175380120;-;-;8.991913;-0.32182312;-2.3228912;-;-;-;-;-;-;-;-;-;-;-;-;-;-;-
1514175380140;-;-;8.953613;-0.29071045;-2.3600006;-;-;-;-;-;-;-;-;-;-;-;-;-;-;-
1514175380161;-;-;8.965576;-0.25958252;-2.3635864;-;-;-;-;-;-;-;-;-;-;-;-;-;-;-
1514175380181;-;-;8.967972;-0.27514648;-2.3228912;-;-;-;-;-;-;-;-;-;-;-;-;-;-;-
1514175380201;-;-;8.977554;-0.26437378;-2.3384552;-;-;-;-;-;-;-;-;-;-;-;-;-;-;-
1514175380221;-;-;8.957199;-0.25958252;-2.405487;-;-;-;-;-;-;-;-;-;-;-;-;-;-;-
1514175380242;-;-;8.927277;-0.23085022;-2.3839417;-;-;-;-;-;-;-;-;-;-;-;-;-;-;-
1514175380262;-;-;8.941635;-0.2033081;-2.3959198;-;-;-;-;-;-;-;-;-;-;-;-;-;-;-
1514175380282;-;-;8.922485;-0.18655396;-2.3695831;-;-;-;-;-;-;-;-;-;-;-;-;-;-;-
1514175380302;-;-;8.922485;-0.17219543;-2.3671875;-;-;-;-;-;-;-;-;-;-;-;-;-;-;-
1514175380323;-;-;8.933258;-0.17098999;-2.4330292;-;-;-;-;-;-;-;-;-;-;-;-;-;-;-
1514175380343;-;-;8.983536;-0.23443604;-2.3827515;-;-;-;-;-;-;-;-;-;-;-;-;-;-;-
1514175380363;-;-;8.991913;-0.25598145;-2.3671875;-;-;-;-;-;-;-;-;-;-;-;-;-;-;-
1514175380383;-;-;8.960785;-0.28710938;-2.3073273;-;-;-;-;-;-;-;-;-;-;-;-;-;-;-
1514175380405;-;-;8.969162;-0.26914978;-2.2857819;-;-;-;-;-;-;-;-;-;-;-;-;-;-;-
1514175380424;-;-;8.976349;-0.26914978;-2.3540192;-;-;-;-;-;-;-;-;-;-;-;-;-;-;-
1514175380444;-;-;8.975159;-0.26914978;-2.3767548;-;-;-;-;-;-;-;-;-;-;-;-;-;-;-
1514175380465;-;-;8.987122;-0.20809937;-2.4006958;-;-;-;-;-;-;-;-;-;-;-;-;-;-;-
1514175380484;-;-;8.989517;-0.2033081;-2.3959198;-;-;-;-;-;-;-;-;-;-;-;-;-;-;-
1514175380504;-;-;8.957199;-0.17459106;-2.3324738;-;-;-;-;-;-;-;-;-;-;-;-;-;-;-
1514175380524;-;-;8.976349;-0.1985321;-2.3133087;-;-;-;-;-;-;-;-;-;-;-;-;-;-;-
1514175380545;-;-;8.945221;-0.1877594;-2.310913;-;-;-;-;-;-;-;-;-;-;-;-;-;-;-
1514175380565;-;-;8.906921;-0.20570374;-2.3240814;-;-;-;-;-;-;-;-;-;-;-;-;-;-;-
1514175380585;-;-;8.96199;-0.21528625;-2.350418;-;-;-;-;-;-;-;-;-;-;-;-;-;-;-
1514175380606;-;-;8.952408;-0.23443604;-2.3240814;-;-;-;-;-;-;-;-;-;-;-;-;-;-;-
1514175380626;-;-;8.946426;-0.24760437;-2.2929688;-;-;-;-;-;-;-;-;-;-;-;-;-;-;-
1514175380646;-;-;8.9787445;-0.22007751;-2.251068;-;-;-;-;-;-;-;-;-;-;-;-;-;-;-
1514175380667;-;-;8.970367;-0.21887207;-2.2929688;-;-;-;-;-;-;-;-;-;-;-;-;-;-;-
1514175380687;-;-;8.988327;-0.19013977;-2.2845764;-;-;-;-;-;-;-;-;-;-;-;-;-;-;-
1514175380707;-;-;8.966782;-0.2571869;-2.294159;-;-;-;-;-;-;-;-;-;-;-;-;-;-;-
1514175380727;-;-;8.954803;-0.2320404;-2.3324738;-;-;-;-;-;-;-;-;-;-;-;-;-;-;-
1514175380748;-;-;8.951218;-0.22845459;-2.3049316;-;-;-;-;-;-;-;-;-;-;-;-;-;-;-
1514175380768;-;-;8.934448;-0.21528625;-2.3384552;-;-;-;-;-;-;-;-;-;-;-;-;-;-;-
1514175380788;-;-;8.944031;-0.16381836;-2.3647919;-;-;-;-;-;-;-;-;-;-;-;-;-;-;-
1514175380808;-;-;8.924881;-0.1925354;-2.3408508;-;-;-;-;-;-;-;-;-;-;-;-;-;-;-
1514175380829;-;-;8.966782;-0.17578125;-2.3623962;-;-;-;-;-;-;-;-;-;-;-;-;-;-;-
1514175380849;-;-;8.988327;-0.15782166;-2.3791504;-;-;-;-;-;-;-;-;-;-;-;-;-;-;-
1514175380870;-;-;8.977554;-0.1925354;-2.3528137;-;-;-;-;-;-;-;-;-;-;-;-;-;-;-
1514175380890;-;-;8.948822;-0.25;-2.342041;-;-;-;-;-;-;-;-;-;-;-;-;-;-;-
1514175380910;-;-;8.955994;-0.24401855;-2.3216858;-;-;-;-;-;-;-;-;-;-;-;-;-;-;-
1514175380930;-;-;8.976349;-0.25239563;-2.3157043;-;-;-;-;-;-;-;-;-;-;-;-;-;-;-
1514175380951;-;-;8.995499;-0.2859192;-2.3360596;-;-;-;-;-;-;-;-;-;-;-;-;-;-;-
1514175380971;-;-;8.994308;-0.26437378;-2.326477;-;-;-;-;-;-;-;-;-;-;-;-;-;-;-
1514175380991;-;-;8.960785;-0.24520874;-2.3540192;-;-;-;-;-;-;-;-;-;-;-;-;-;-;-
1514175381012;-;-;8.970367;-0.30148315;-2.3863373;-;-;-;-;-;-;-;-;-;-;-;-;-;-;-
1514175381031;-;-;9.023041;-0.31225586;-2.4222565;-;-;-;-;-;-;-;-;-;-;-;-;-;-;-
1514175381051;-;-;9.045776;-0.3002777;-2.3935242;-;-;-;-;-;-;-;-;-;-;-;-;-;-;-
1514175381072;-;-;9.042191;-0.25360107;-2.3216858;-;-;-;-;-;-;-;-;-;-;-;-;-;-;-
1514175381092;-;-;9.038605;-0.20451355;-2.3827515;-;-;-;-;-;-;-;-;-;-;-;-;-;-;-
1514175381112;-;-;9.014664;-0.1817627;-2.4306335;-;-;-;-;-;-;-;-;-;-;-;-;-;-;-
1514175381132;-;-;8.951218;-0.20451355;-2.4425964;-;-;-;-;-;-;-;-;-;-;-;-;-;-;-
1514175381153;-;-;8.885376;-0.19613647;-2.4569702;-;-;-;-;-;-;-;-;-;-;-;-;-;-;-
1514175381173;-;-;8.874603;-0.21528625;-2.3983002;-;-;-;-;-;-;-;-;-;-;-;-;-;-;-
1514175381193;-;-;8.8602295;-0.29190063;-2.3181;-;-;-;-;-;-;-;-;-;-;-;-;-;-;-
1514175381214;-;-;8.878189;-0.30625916;-2.4030914;-;-;-;-;-;-;-;-;-;-;-;-;-;-;-
1514175381233;-;-;8.88298;-0.30986023;-2.4150696;-;-;-;-;-;-;-;-;-;-;-;-;-;-;-
1514175381253;-;-;8.880585;-0.26556396;-2.4485931;-;-;-;-;-;-;-;-;-;-;-;-;-;-;-
1514175381273;-;-;8.891357;-0.32302856;-2.4378052;-;-;-;-;-;-;-;-;-;-;-;-;-;-;-
1514175381294;-;-;8.909317;-0.30986023;-2.4258423;-;-;-;-;-;-;-;-;-;-;-;-;-;-;-
1514175381314;-;-;8.878189;-0.28231812;-2.4342194;-;-;-;-;-;-;-;-;-;-;-;-;-;-;-
1514175381334;-;-;8.876999;-0.33021545;-2.3719635;-;-;-;-;-;-;-;-;-;-;-;-;-;-;-
1514175381355;-;-;8.926071;-0.31225586;-2.3564148;-;-;-;-;-;-;-;-;-;-;-;-;-;-;-
1514175381375;-;-;8.951218;-0.37091064;-2.3204956;-;-;-;-;-;-;-;-;-;-;-;-;-;-;-
1514175381395;-;-;8.957199;-0.35295105;-2.345642;-;-;-;-;-;-;-;-;-;-;-;-;-;-;-
1514175381416;-;-;8.97995;-0.38407898;-2.3432465;-;-;-;-;-;-;-;-;-;-;-;-;-;-;-
1514175381435;-;-;9.029022;-0.39006042;-2.3588104;-;-;-;-;-;-;-;-;-;-;-;-;-;-;-
1514175381455;-;-;8.990723;-0.34217834;-2.3635864;-;-;-;-;-;-;-;-;-;-;-;-;-;-;-
1514175381475;-;-;8.983536;-0.38407898;-2.3983002;-;-;-;-;-;-;-;-;-;-;-;-;-;-;-
1514175381496;-;-;8.983536;-0.37928772;-2.3767548;-;-;-;-;-;-;-;-;-;-;-;-;-;-;-
1514175381516;-;-;8.97995;-0.35653687;-2.3600006;-;-;-;-;-;-;-;-;-;-;-;-;-;-;-
1514175381536;-;-;8.987122;-0.35653687;-2.3468323;-;-;-;-;-;-;-;-;-;-;-;-;-;-;-
1514175381557;-;-;9.002686;-0.3697052;-2.3588104;-;-;-;-;-;-;-;-;-;-;-;-;-;-;-
1514175381577;-;-;8.996704;-0.3194275;-2.39711;-;-;-;-;-;-;-;-;-;-;-;-;-;-;-
1514175381597;-;-;8.946426;-0.28471375;-2.4150696;-;-;-;-;-;-;-;-;-;-;-;-;-;-;-
1514175381618;-;-;8.929672;-0.25120544;-2.3875275;-;-;-;-;-;-;-;-;-;-;-;-;-;-;-
1514175381638;-;-;8.924881;-0.26197815;-2.3875275;-;-;-;-;-;-;-;-;-;-;-;-;-;-;-
1514175381658;-;-;8.944031;-0.25958252;-2.3947144;-;-;-;-;-;-;-;-;-;-;-;-;-;-;-
1514175381678;-;-;8.957199;-0.24043274;-2.4545746;-;-;-;-;-;-;-;-;-;-;-;-;-;-;-
1514175381699;-;-;8.966782;-0.2775421;-2.4569702;-;-;-;-;-;-;-;-;-;-;-;-;-;-;-
1514175381719;-;-;8.946426;-0.25837708;-2.4330292;-;-;-;-;-;-;-;-;-;-;-;-;-;-;-
1514175381739;-;-;8.936844;-0.2775421;-2.4186554;-;-;-;-;-;-;-;-;-;-;-;-;-;-;-
1514175381760;-;-;8.924881;-0.23683167;-2.3695831;-;-;-;-;-;-;-;-;-;-;-;-;-;-;-
1514175381780;-;-;8.904526;-0.19613647;-2.4066925;-;-;-;-;-;-;-;-;-;-;-;-;-;-;-
1514175381800;-;-;8.926071;-0.22964478;-2.4629517;-;-;-;-;-;-;-;-;-;-;-;-;-;-;-
1514175381820;-;-;8.953613;-0.18894958;-2.4868927;-;-;-;-;-;-;-;-;-;-;-;-;-;-;-
1514175381841;-;-;8.878189;-0.19613647;-2.4641418;-;-;-;-;-;-;-;-;-;-;-;-;-;-;-
1514175381861;-;-;8.859039;-0.17338562;-2.4174652;-;-;-;-;-;-;-;-;-;-;-;-;-;-;-
1514175381881;-;-;8.861435;-0.20930481;-2.4174652;-;-;-;-;-;-;-;-;-;-;-;-;-;-;-
1514175381902;-;-;8.863831;-0.2212677;-2.4641418;-;-;-;-;-;-;-;-;-;-;-;-;-;-;-
1514175381922;-;-;8.923676;-0.23324585;-2.467743;-;-;-;-;-;-;-;-;-;-;-;-;-;-;-
1514175381942;-;-;8.971558;-0.28112793;-2.4545746;-;-;-;-;-;-;-;-;-;-;-;-;-;-;-
1514175381963;-;-;9.008667;-0.32302856;-2.3947144;-;-;-;-;-;-;-;-;-;-;-;-;-;-;-
1514175381983;-;-;8.958389;-0.30387878;-2.4186554;-;-;-;-;-;-;-;-;-;-;-;-;-;-;-
1514175382003;-;-;8.954803;-0.2715454;-2.3803558;-;-;-;-;-;-;-;-;-;-;-;-;-;-;-
1514175382024;-;-;8.9392395;-0.30267334;-2.388733;-;-;-;-;-;-;-;-;-;-;-;-;-;-;-
1514175382043;-;-;8.915298;-0.24520874;-2.4174652;-;-;-;-;-;-;-;-;-;-;-;-;-;-;-
1514175382065;-;-;8.960785;-0.21409607;-2.4246368;-;-;-;-;-;-;-;-;-;-;-;-;-;-;-
1514175382084;-;-;8.9392395;-0.21289063;-2.4378052;-;-;-;-;-;-;-;-;-;-;-;-;-;-;-
1514175382104;-;-;8.960785;-0.17578125;-2.4354248;-;-;-;-;-;-;-;-;-;-;-;-;-;-;-
1514175382124;-;-;8.935654;-0.18536377;-2.4653473;-;-;-;-;-;-;-;-;-;-;-;-;-;-;-
1514175382145;-;-;8.936844;-0.16619873;-2.4461975;-;-;-;-;-;-;-;-;-;-;-;-;-;-;-
1514175382165;-;-;8.912903;-0.18655396;-2.4378052;-;-;-;-;-;-;-;-;-;-;-;-;-;-;-
1514175382185;-;-;8.924881;-0.18057251;-2.444992;-;-;-;-;-;-;-;-;-;-;-;-;-;-;-
1514175382205;-;-;8.957199;-0.17338562;-2.4414063;-;-;-;-;-;-;-;-;-;-;-;-;-;-;-
1514175382226;-;-;8.941635;-0.17338562;-2.4653473;-;-;-;-;-;-;-;-;-;-;-;-;-;-;-
1514175382246;-;-;8.917694;-0.18415833;-2.4749146;-;-;-;-;-;-;-;-;-;-;-;-;-;-;-
1514175382266;-;-;8.929672;-0.15782166;-2.4617462;-;-;-;-;-;-;-;-;-;-;-;-;-;-;-
1514175382286;-;-;8.927277;-0.12908936;-2.4569702;-;-;-;-;-;-;-;-;-;-;-;-;-;-;-
1514175382307;-;-;8.930862;-0.14465332;-2.4617462;-;-;-;-;-;-;-;-;-;-;-;-;-;-;-
1514175382327;-;-;8.906921;-0.08720398;-2.4270325;-;-;-;-;-;-;-;-;-;-;-;-;-;-;-
1514175382347;-;-;8.887772;-0.083602905;-2.4749146;-;-;-;-;-;-;-;-;-;-;-;-;-;-;-
1514175382368;-;-;8.917694;-0.083602905;-2.4737244;-;-;-;-;-;-;-;-;-;-;-;-;-;-;-
1514175382388;-;-;8.955994;-0.095581055;-2.4270325;-;-;-;-;-;-;-;-;-;-;-;-;-;-;-
1514175382408;-;-;8.951218;-0.1302948;-2.4569702;-;-;-;-;-;-;-;-;-;-;-;-;-;-;-
1514175382429;-;-;8.944031;-0.1530304;-2.388733;-;-;-;-;-;-;-;-;-;-;-;-;-;-;-
1514175382449;-;-;8.929672;-0.16740417;-2.350418;-;-;-;-;-;-;-;-;-;-;-;-;-;-;-
1514175382469;-;-;8.958389;-0.1697998;-2.4042969;-;-;-;-;-;-;-;-;-;-;-;-;-;-;-
1514175382490;-;-;8.966782;-0.1697998;-2.4701385;-;-;-;-;-;-;-;-;-;-;-;-;-;-;-
1514175382510;-;-;8.955994;-0.17338562;-2.4414063;-;-;-;-;-;-;-;-;-;-;-;-;-;-;-
1514175382530;-;-;8.9787445;-0.19613647;-2.4030914;-;-;-;-;-;-;-;-;-;-;-;-;-;-;-
1514175382550;-;-;9.019455;-0.20211792;-2.3683777;-;-;-;-;-;-;-;-;-;-;-;-;-;-;-
1514175382571;-;-;8.990723;-0.21409607;-2.4198608;-;-;-;-;-;-;-;-;-;-;-;-;-;-;-
1514175382591;-;-;8.967972;-0.1769867;-2.4174652;-;-;-;-;-;-;-;-;-;-;-;-;-;-;-
1514175382611;-;-;8.909317;-0.15782166;-2.3791504;-;-;-;-;-;-;-;-;-;-;-;-;-;-;-
1514175382632;-;-;8.936844;-0.21887207;-2.429428;-;-;-;-;-;-;-;-;-;-;-;-;-;-;-
1514175382652;-;-;8.929672;-0.21289063;-2.3923187;-;-;-;-;-;-;-;-;-;-;-;-;-;-;-
1514175382672;-;-;8.948822;-0.22845459;-2.429428;-;-;-;-;-;-;-;-;-;-;-;-;-;-;-
1514175382693;-;-;8.960785;-0.22247314;-2.3863373;-;-;-;-;-;-;-;-;-;-;-;-;-;-;-
1514175382713;-;-;8.963181;-0.22366333;-2.3611908;-;-;-;-;-;-;-;-;-;-;-;-;-;-;-
1514175382733;-;-;8.944031;-0.21768188;-2.3133087;-;-;-;-;-;-;-;-;-;-;-;-;-;-;-
1514175382754;-;-;8.927277;-0.20809937;-2.3719635;-;-;-;-;-;-;-;-;-;-;-;-;-;-;-
1514175382774;-;-;8.938049;-0.21768188;-2.345642;-;-;-;-;-;-;-;-;-;-;-;-;-;-;-
1514175382794;-;-;8.951218;-0.2392273;-2.3181;-;-;-;-;-;-;-;-;-;-;-;-;-;-;-
