TimeStamp[ms];Prox[Cm];Lux[lux];AccX[m/s^2];AccY[m/s^2];AccZ[m/s^2];GyroX[rad/s];GyroY[rad/s];GyroZ[rad/s];MagnX[uT];MagnY[uT];MagnZ[uT];OrienYaw[degrees];OrienPitch[degrees];OrienRoll[degrees];Press[Pa];Temp[C°];Batt[%];Lat;Lng;Speed[m/s]
1514175692625;-;-;8.677078;-1.9163666;2.220108;-;-;-;-;-;-;-;-;-;-;-;-;-;-;-
1514175692626;-;-;8.677078;-1.9163666;2.220108;-;-;-;-;-;-;-;-;-;-;-;-;-;-;-
1514175692646;-;-;8.64595;-1.9450989;2.1231384;-;-;-;-;-;-;-;-;-;-;-;-;-;-;-
1514175692666;-;-;8.797989;-1.779892;2.0644836;-;-;-;-;-;-;-;-;-;-;-;-;-;-;-
1514175692686;-;-;8.96199;-1.6218872;2.3362274;-;-;-;-;-;-;-;-;-;-;-;-;-;-;-
1514175692706;-;-;8.878189;-1.7080688;2.0477295;-;-;-;-;-;-;-;-;-;-;-;-;-;-;-
1514175692727;-;-;8.635178;-2.0995178;2.228485;-;-;-;-;-;-;-;-;-;-;-;-;-;-;-
1514175692747;-;-;8.933258;-2.0420685;2.3015137;-;-;-;-;-;-;-;-;-;-;-;-;-;-;-
1514175692768;-;-;8.316742;-1.5763855;1.0649109;-;-;-;-;-;-;-;-;-;-;-;-;-;-;-
1514175692788;-;-;8.8997345;-1.5476532;1.4539642;-;-;-;-;-;-;-;-;-;-;-;-;-;-;-
1514175692808;-;-;9.65152;-1.5093536;1.3773499;-;-;-;-;-;-;-;-;-;-;-;-;-;-;-
1514175692830;-;-;9.333084;-0.8892517;0.63275146;-;-;-;-;-;-;-;-;-;-;-;-;-;-;-
1514175692849;-;-;9.300766;-1.0029755;0.9487915;-;-;-;-;-;-;-;-;-;-;-;-;-;-;-
1514175692879;-;-;9.187042;-1.522522;0.55015564;-;-;-;-;-;-;-;-;-;-;-;-;-;-;-
1514175692889;-;-;8.906921;-1.7296143;0.6746521;-;-;-;-;-;-;-;-;-;-;-;-;-;-;-
1514175692910;-;-;8.950012;-1.7296143;0.50704956;-;-;-;-;-;-;-;-;-;-;-;-;-;-;-
1514175692930;-;-;9.182251;-1.0005798;0.3717804;-;-;-;-;-;-;-;-;-;-;-;-;-;-;-
1514175692950;-;-;9.251678;-1.961853;1.7580261;-;-;-;-;-;-;-;-;-;-;-;-;-;-;-
1514175692971;-;-;8.295197;-0.47984314;-0.551178;-;-;-;-;-;-;-;-;-;-;-;-;-;-;-
1514175692991;-;-;9.264847;-0.18536377;0.3538208;-;-;-;-;-;-;-;-;-;-;-;-;-;-;-
1514175693011;-;-;10.017822;-0.22366333;-0.4338684;-;-;-;-;-;-;-;-;-;-;-;-;-;-;-
1514175693031;-;-;9.845444;-0.5648346;-1.2873993;-;-;-;-;-;-;-;-;-;-;-;-;-;-;-
1514175693052;-;-;9.41449;-0.210495;-0.29260254;-;-;-;-;-;-;-;-;-;-;-;-;-;-;-
1514175693072;-;-;9.925659;-0.5241394;-0.77622986;-;-;-;-;-;-;-;-;-;-;-;-;-;-;-
1514175693092;-;-;9.385757;-0.22605896;-0.94981384;-;-;-;-;-;-;-;-;-;-;-;-;-;-;-
1514175693113;-;-;9.63475;-0.48942566;-0.27345276;-;-;-;-;-;-;-;-;-;-;-;-;-;-;-
1514175693133;-;-;9.299576;-1.1645813;-0.9629822;-;-;-;-;-;-;-;-;-;-;-;-;-;-;-
1514175693153;-;-;9.606033;-1.3680878;-0.63616943;-;-;-;-;-;-;-;-;-;-;-;-;-;-;-
1514175693173;-;-;9.102051;-0.88087463;-0.97735596;-;-;-;-;-;-;-;-;-;-;-;-;-;-;-
1514175693194;-;-;9.141556;-1.0783997;-0.7774353;-;-;-;-;-;-;-;-;-;-;-;-;-;-;-
1514175693214;-;-;9.085281;-1.1502228;-0.803772;-;-;-;-;-;-;-;-;-;-;-;-;-;-;-
1514175693234;-;-;9.092468;-0.9646759;-0.93904114;-;-;-;-;-;-;-;-;-;-;-;-;-;-;-
1514175693255;-;-;8.204224;-0.6127167;-0.68644714;-;-;-;-;-;-;-;-;-;-;-;-;-;-;-
1514175693275;-;-;8.960785;-0.5337219;-0.53082275;-;-;-;-;-;-;-;-;-;-;-;-;-;-;-
1514175693295;-;-;9.720947;-0.36611938;-0.46020508;-;-;-;-;-;-;-;-;-;-;-;-;-;-;-
1514175693315;-;-;9.2756195;-0.3433838;-0.48773193;-;-;-;-;-;-;-;-;-;-;-;-;-;-;-
1514175693336;-;-;9.058945;-0.52293396;-1.5914612;-;-;-;-;-;-;-;-;-;-;-;-;-;-;-
1514175693356;-;-;9.261261;-0.7910919;-1.1425476;-;-;-;-;-;-;-;-;-;-;-;-;-;-;-
1514175693377;-;-;9.457581;-0.6522217;-1.0288239;-;-;-;-;-;-;-;-;-;-;-;-;-;-;-
1514175693397;-;-;9.67186;-0.016571045;-0.9761505;-;-;-;-;-;-;-;-;-;-;-;-;-;-;-
1514175693417;-;-;8.861435;0.16419983;-1.0419922;-;-;-;-;-;-;-;-;-;-;-;-;-;-;-
1514175693438;-;-;9.012268;-0.31225586;-1.1569061;-;-;-;-;-;-;-;-;-;-;-;-;-;-;-
1514175693458;-;-;9.487518;-0.58877563;-1.1305847;-;-;-;-;-;-;-;-;-;-;-;-;-;-;-
1514175693478;-;-;9.65271;-0.6474457;-1.1664886;-;-;-;-;-;-;-;-;-;-;-;-;-;-;-
1514175693498;-;-;9.25528;-0.60194397;-0.91989136;-;-;-;-;-;-;-;-;-;-;-;-;-;-;-
1514175693519;-;-;9.054169;-0.38407898;-1.0958557;-;-;-;-;-;-;-;-;-;-;-;-;-;-;-
1514175693539;-;-;9.104446;-0.4487152;-0.90911865;-;-;-;-;-;-;-;-;-;-;-;-;-;-;-
1514175693559;-;-;8.691437;-0.5157623;-1.2251434;-;-;-;-;-;-;-;-;-;-;-;-;-;-;-
1514175693580;-;-;8.905716;-0.9323425;-1.4202728;-;-;-;-;-;-;-;-;-;-;-;-;-;-;-
1514175693600;-;-;9.181061;-0.6498413;-1.1425476;-;-;-;-;-;-;-;-;-;-;-;-;-;-;-
1514175693620;-;-;9.003891;-0.30267334;-0.88757324;-;-;-;-;-;-;-;-;-;-;-;-;-;-;-
1514175693640;-;-;8.390976;-0.11352539;-1.4454193;-;-;-;-;-;-;-;-;-;-;-;-;-;-;-
1514175693661;-;-;8.529831;-0.15782166;-1.2909851;-;-;-;-;-;-;-;-;-;-;-;-;-;-;-
1514175693681;-;-;9.225342;0.060043335;-1.3197174;-;-;-;-;-;-;-;-;-;-;-;-;-;-;-
1514175693702;-;-;8.637573;0.31861877;-1.2909851;-;-;-;-;-;-;-;-;-;-;-;-;-;-;-
1514175693722;-;-;10.241684;-0.47027588;-1.6405487;-;-;-;-;-;-;-;-;-;-;-;-;-;-;-
1514175693742;-;-;9.720947;-0.6929321;-1.3723907;-;-;-;-;-;-;-;-;-;-;-;-;-;-;-
1514175693762;-;-;9.718552;-0.20211792;-1.0024872;-;-;-;-;-;-;-;-;-;-;-;-;-;-;-
1514175693783;-;-;9.125992;-0.8377838;-1.4286499;-;-;-;-;-;-;-;-;-;-;-;-;-;-;-
1514175693803;-;-;8.963181;-0.5720215;-1.1030426;-;-;-;-;-;-;-;-;-;-;-;-;-;-;-
1514175693823;-;-;6.952057;-0.50857544;-1.1928253;-;-;-;-;-;-;-;-;-;-;-;-;-;-;-
1514175693844;-;-;9.254074;-0.48942566;-0.9749603;-;-;-;-;-;-;-;-;-;-;-;-;-;-;-
1514175693864;-;-;8.915298;-0.32781982;-1.3280945;-;-;-;-;-;-;-;-;-;-;-;-;-;-;-
1514175693884;-;-;9.81073;-0.58039856;-1.2143707;-;-;-;-;-;-;-;-;-;-;-;-;-;-;-
1514175693905;-;-;9.102051;-0.32661438;-1.2215576;-;-;-;-;-;-;-;-;-;-;-;-;-;-;-
1514175693925;-;-;9.032608;-0.5456848;-1.4190826;-;-;-;-;-;-;-;-;-;-;-;-;-;-;-
1514175693945;-;-;8.935654;-0.28831482;-1.2670441;-;-;-;-;-;-;-;-;-;-;-;-;-;-;-
1514175693966;-;-;8.692642;-0.63067627;-0.64216614;-;-;-;-;-;-;-;-;-;-;-;-;-;-;-
1514175693985;-;-;10.202179;-1.4099884;-2.08107;-;-;-;-;-;-;-;-;-;-;-;-;-;-;-
1514175694005;-;-;9.23732;-0.33859253;-1.1652985;-;-;-;-;-;-;-;-;-;-;-;-;-;-;-
1514175694026;-;-;8.863831;0.055252075;-1.1461334;-;-;-;-;-;-;-;-;-;-;-;-;-;-;-
1514175694046;-;-;9.202606;-0.2320404;-1.1904297;-;-;-;-;-;-;-;-;-;-;-;-;-;-;-
1514175694066;-;-;9.172684;-0.64505005;-1.1760712;-;-;-;-;-;-;-;-;-;-;-;-;-;-;-
1514175694087;-;-;8.96199;-0.7096863;-1.179657;-;-;-;-;-;-;-;-;-;-;-;-;-;-;-
1514175694106;-;-;9.4096985;-0.8533478;-1.2646484;-;-;-;-;-;-;-;-;-;-;-;-;-;-;-
1514175694126;-;-;8.572922;-0.47865295;-0.80856323;-;-;-;-;-;-;-;-;-;-;-;-;-;-;-
1514175694147;-;-;9.801147;-0.5253296;-1.6034393;-;-;-;-;-;-;-;-;-;-;-;-;-;-;-
1514175694167;-;-;9.640747;-1.0592499;-1.3340912;-;-;-;-;-;-;-;-;-;-;-;-;-;-;-
1514175694187;-;-;9.105637;0.107925415;-1.3484497;-;-;-;-;-;-;-;-;-;-;-;-;-;-;-
1514175694207;-;-;8.812347;0.03970337;-1.0994568;-;-;-;-;-;-;-;-;-;-;-;-;-;-;-
1514175694228;-;-;7.758896;-0.0021972656;-1.3149261;-;-;-;-;-;-;-;-;-;-;-;-;-;-;-
1514175694248;-;-;9.251678;0.16059875;-1.6716614;-;-;-;-;-;-;-;-;-;-;-;-;-;-;-
1514175694268;-;-;9.280411;0.48143005;-2.4019012;-;-;-;-;-;-;-;-;-;-;-;-;-;-;-
1514175694289;-;-;8.204224;0.8716736;-1.8308868;-;-;-;-;-;-;-;-;-;-;-;-;-;-;-
1514175694309;-;-;8.110855;1.1434174;-1.5519562;-;-;-;-;-;-;-;-;-;-;-;-;-;-;-
1514175694329;-;-;9.485123;1.6497955;-1.5435791;-;-;-;-;-;-;-;-;-;-;-;-;-;-;-
1514175694350;-;-;9.166687;1.3445435;-1.7422943;-;-;-;-;-;-;-;-;-;-;-;-;-;-;-
1514175694369;-;-;9.201401;1.209259;-1.5771027;-;-;-;-;-;-;-;-;-;-;-;-;-;-;-
1514175694389;-;-;9.29837;0.6538086;-1.5459747;-;-;-;-;-;-;-;-;-;-;-;-;-;-;-
1514175694410;-;-;9.372589;0.60832214;-1.6776581;-;-;-;-;-;-;-;-;-;-;-;-;-;-;-
1514175694430;-;-;9.584473;-1.1585999;-1.4442139;-;-;-;-;-;-;-;-;-;-;-;-;-;-;-
1514175694450;-;-;9.898117;-1.1442413;-2.2522583;-;-;-;-;-;-;-;-;-;-;-;-;-;-;-
1514175694471;-;-;8.418503;-0.21647644;-2.3240814;-;-;-;-;-;-;-;-;-;-;-;-;-;-;-
1514175694491;-;-;9.967545;-0.3757019;-2.2594452;-;-;-;-;-;-;-;-;-;-;-;-;-;-;-
1514175694511;-;-;9.173874;0.028915405;-2.551529;-;-;-;-;-;-;-;-;-;-;-;-;-;-;-
1514175694531;-;-;8.165909;0.259964;-2.06073;-;-;-;-;-;-;-;-;-;-;-;-;-;-;-
1514175694551;-;-;8.6651;0.10194397;-1.2371216;-;-;-;-;-;-;-;-;-;-;-;-;-;-;-
1514175694571;-;-;9.479141;-0.05847168;-1.5986481;-;-;-;-;-;-;-;-;-;-;-;-;-;-;-
1514175694592;-;-;9.329498;-0.3194275;-1.4142914;-;-;-;-;-;-;-;-;-;-;-;-;-;-;-
1514175694612;-;-;9.036209;-0.59954834;-1.8093262;-;-;-;-;-;-;-;-;-;-;-;-;-;-;-
1514175694632;-;-;8.863831;-0.6079407;-1.7219391;-;-;-;-;-;-;-;-;-;-;-;-;-;-;-
1514175694652;-;-;9.048172;-0.28710938;-1.7159576;-;-;-;-;-;-;-;-;-;-;-;-;-;-;-
1514175694673;-;-;9.020645;-0.05847168;-1.7590485;-;-;-;-;-;-;-;-;-;-;-;-;-;-;-
1514175694693;-;-;9.128387;-0.04649353;-1.9290466;-;-;-;-;-;-;-;-;-;-;-;-;-;-;-
1514175694713;-;-;9.480331;-0.20930481;-1.9673462;-;-;-;-;-;-;-;-;-;-;-;-;-;-;-
1514175694734;-;-;9.233734;-0.1769867;-2.5539246;-;-;-;-;-;-;-;-;-;-;-;-;-;-;-
1514175694754;-;-;9.547363;-0.11592102;-2.9046783;-;-;-;-;-;-;-;-;-;-;-;-;-;-;-
1514175694774;-;-;9.971146;-0.076416016;-3.1237488;-;-;-;-;-;-;-;-;-;-;-;-;-;-;-
1514175694795;-;-;9.645538;-0.00579834;-2.978897;-;-;-;-;-;-;-;-;-;-;-;-;-;-;-
1514175694814;-;-;9.164291;0.03730774;-2.6616669;-;-;-;-;-;-;-;-;-;-;-;-;-;-;-
1514175694834;-;-;8.0905;-0.28231812;-2.1505127;-;-;-;-;-;-;-;-;-;-;-;-;-;-;-
1514175694855;-;-;7.636795;-0.8665161;-1.9051056;-;-;-;-;-;-;-;-;-;-;-;-;-;-;-
1514175694875;-;-;7.2980194;-1.4351349;-1.8943329;-;-;-;-;-;-;-;-;-;-;-;-;-;-;-
1514175694895;-;-;7.621231;-1.803833;-1.9086914;-;-;-;-;-;-;-;-;-;-;-;-;-;-;-
1514175694915;-;-;8.595673;-1.3082428;-1.9494019;-;-;-;-;-;-;-;-;-;-;-;-;-;-;-
1514175694936;-;-;9.63475;-0.63427734;-2.0032654;-;-;-;-;-;-;-;-;-;-;-;-;-;-;-
1514175694956;-;-;10.281189;-0.15782166;-2.1983948;-;-;-;-;-;-;-;-;-;-;-;-;-;-;-
1514175694977;-;-;10.56131;-0.100372314;-2.0080566;-;-;-;-;-;-;-;-;-;-;-;-;-;-;-
1514175694996;-;-;10.185425;-0.38287354;-1.6273804;-;-;-;-;-;-;-;-;-;-;-;-;-;-;-
1514175695016;-;-;9.205002;-0.31584167;-1.2526855;-;-;-;-;-;-;-;-;-;-;-;-;-;-;-
1514175695037;-;-;8.699814;-0.6534271;-0.9522095;-;-;-;-;-;-;-;-;-;-;-;-;-;-;-
1514175695057;-;-;8.82312;-1.131073;-0.8600311;-;-;-;-;-;-;-;-;-;-;-;-;-;-;-
1514175695077;-;-;8.912903;-1.3932343;-0.99650574;-;-;-;-;-;-;-;-;-;-;-;-;-;-;-
1514175695097;-;-;8.844666;-1.3944244;-1.3089447;-;-;-;-;-;-;-;-;-;-;-;-;-;-;-
1514175695118;-;-;8.941635;-1.3417511;-1.7063904;-;-;-;-;-;-;-;-;-;-;-;-;-;-;-
1514175695137;-;-;9.021835;-1.3836517;-1.579483;-;-;-;-;-;-;-;-;-;-;-;-;-;-;-
1514175695157;-;-;9.030228;-1.3321838;-1.6213837;-;-;-;-;-;-;-;-;-;-;-;-;-;-;-
1514175695178;-;-;8.905716;-1.0341034;-1.8057404;-;-;-;-;-;-;-;-;-;-;-;-;-;-;-
1514175695198;-;-;8.831497;-0.88446045;-1.8237;-;-;-;-;-;-;-;-;-;-;-;-;-;-;-
1514175695218;-;-;8.778824;-0.9155884;-1.7937775;-;-;-;-;-;-;-;-;-;-;-;-;-;-;-
1514175695238;-;-;8.772842;-0.9251709;-1.8847504;-;-;-;-;-;-;-;-;-;-;-;-;-;-;-
1514175695259;-;-;8.648346;-0.85095215;-2.3384552;-;-;-;-;-;-;-;-;-;-;-;-;-;-;-
1514175695279;-;-;9.039795;-0.5756073;-3.0315704;-;-;-;-;-;-;-;-;-;-;-;-;-;-;-
1514175695299;-;-;9.74968;0.13186646;-3.254242;-;-;-;-;-;-;-;-;-;-;-;-;-;-;-
1514175695319;-;-;10.036987;0.57958984;-2.0942383;-;-;-;-;-;-;-;-;-;-;-;-;-;-;-
1514175695340;-;-;9.754471;-0.21409607;-1.3292999;-;-;-;-;-;-;-;-;-;-;-;-;-;-;-
1514175695360;-;-;8.795593;-1.0149536;-2.7849731;-;-;-;-;-;-;-;-;-;-;-;-;-;-;-
1514175695380;-;-;7.4320984;-0.85453796;-3.662445;-;-;-;-;-;-;-;-;-;-;-;-;-;-;-
1514175695401;-;-;7.36026;-0.53730774;-3.2183228;-;-;-;-;-;-;-;-;-;-;-;-;-;-;-
1514175695420;-;-;8.292801;-0.13388062;-2.6221619;-;-;-;-;-;-;-;-;-;-;-;-;-;-;-
1514175695440;-;-;9.001495;-0.107543945;-2.4342194;-;-;-;-;-;-;-;-;-;-;-;-;-;-;-
1514175695461;-;-;9.118805;-0.44273376;-2.4461975;-;-;-;-;-;-;-;-;-;-;-;-;-;-;-
1514175695481;-;-;9.202606;-1.0137482;-2.1672668;-;-;-;-;-;-;-;-;-;-;-;-;-;-;-
1514175695501;-;-;9.540192;-1.3202057;-2.1493073;-;-;-;-;-;-;-;-;-;-;-;-;-;-;-
1514175695521;-;-;9.675461;-1.4447021;-2.3683777;-;-;-;-;-;-;-;-;-;-;-;-;-;-;-
1514175695542;-;-;9.23851;-1.285492;-2.3516235;-;-;-;-;-;-;-;-;-;-;-;-;-;-;-
1514175695561;-;-;8.788406;-1.0400848;-2.2761993;-;-;-;-;-;-;-;-;-;-;-;-;-;-;-
1514175695581;-;-;8.535812;-0.660614;-2.263031;-;-;-;-;-;-;-;-;-;-;-;-;-;-;-
1514175695602;-;-;8.570541;-0.3768921;-2.2366943;-;-;-;-;-;-;-;-;-;-;-;-;-;-;-
1514175695621;-;-;8.814743;-0.15184021;-2.350418;-;-;-;-;-;-;-;-;-;-;-;-;-;-;-
1514175695641;-;-;8.948822;-0.016571045;-2.2989502;-;-;-;-;-;-;-;-;-;-;-;-;-;-;-
1514175695662;-;-;9.043396;-0.042907715;-2.2199402;-;-;-;-;-;-;-;-;-;-;-;-;-;-;-
1514175695681;-;-;8.996704;-0.36132813;-2.1169891;-;-;-;-;-;-;-;-;-;-;-;-;-;-;-
1514175695701;-;-;9.015854;-0.62709045;-2.045166;-;-;-;-;-;-;-;-;-;-;-;-;-;-;-
1514175695722;-;-;9.148727;-0.79348755;-2.1265717;-;-;-;-;-;-;-;-;-;-;-;-;-;-;-
1514175695741;-;-;9.193024;-0.7779236;-2.2223358;-;-;-;-;-;-;-;-;-;-;-;-;-;-;-
1514175695761;-;-;9.182251;-0.5959625;-2.3133087;-;-;-;-;-;-;-;-;-;-;-;-;-;-;-
1514175695781;-;-;8.996704;-0.45829773;-2.3013458;-;-;-;-;-;-;-;-;-;-;-;-;-;-;-
1514175695802;-;-;8.772842;-0.33738708;-2.2929688;-;-;-;-;-;-;-;-;-;-;-;-;-;-;-
1514175695822;-;-;8.672287;-0.36132813;-2.2881775;-;-;-;-;-;-;-;-;-;-;-;-;-;-;-
1514175695842;-;-;8.783615;-0.38526917;-2.2486725;-;-;-;-;-;-;-;-;-;-;-;-;-;-;-
1514175695863;-;-;8.991913;-0.31704712;-2.388733;-;-;-;-;-;-;-;-;-;-;-;-;-;-;-
1514175695883;-;-;9.052963;-0.095581055;-2.5287933;-;-;-;-;-;-;-;-;-;-;-;-;-;-;-
1514175695903;-;-;8.975159;-0.023742676;-2.6401215;-;-;-;-;-;-;-;-;-;-;-;-;-;-;-
1514175695924;-;-;8.878189;-0.14944458;-2.7239227;-;-;-;-;-;-;-;-;-;-;-;-;-;-;-
1514175695943;-;-;8.854248;-0.20451355;-2.7155457;-;-;-;-;-;-;-;-;-;-;-;-;-;-;-
1514175695963;-;-;8.768051;-0.22605896;-2.5563202;-;-;-;-;-;-;-;-;-;-;-;-;-;-;-
1514175695983;-;-;8.717773;-0.28831482;-2.4629517;-;-;-;-;-;-;-;-;-;-;-;-;-;-;-
1514175696004;-;-;8.8207245;-0.542099;-2.3181;-;-;-;-;-;-;-;-;-;-;-;-;-;-;-
1514175696023;-;-;8.868607;-0.67736816;-2.187622;-;-;-;-;-;-;-;-;-;-;-;-;-;-;-
1514175696043;-;-;8.8207245;-0.6522217;-2.1134033;-;-;-;-;-;-;-;-;-;-;-;-;-;-;-
1514175696064;-;-;8.861435;-0.5049896;-2.1062164;-;-;-;-;-;-;-;-;-;-;-;-;-;-;-
1514175696084;-;-;9.172684;-0.3577423;-2.0044556;-;-;-;-;-;-;-;-;-;-;-;-;-;-;-
1514175696104;-;-;9.373795;-0.33140564;-1.871582;-;-;-;-;-;-;-;-;-;-;-;-;-;-;-
1514175696125;-;-;9.3893585;-0.46788025;-1.792572;-;-;-;-;-;-;-;-;-;-;-;-;-;-;-
1514175696145;-;-;9.193024;-0.78990173;-1.7997589;-;-;-;-;-;-;-;-;-;-;-;-;-;-;-
1514175696165;-;-;8.9991;-1.0604401;-1.7997589;-;-;-;-;-;-;-;-;-;-;-;-;-;-;-
1514175696186;-;-;8.878189;-1.2424011;-1.8787689;-;-;-;-;-;-;-;-;-;-;-;-;-;-;-
1514175696205;-;-;8.896149;-1.2507782;-2.0044556;-;-;-;-;-;-;-;-;-;-;-;-;-;-;-
1514175696225;-;-;8.918884;-1.1478271;-2.1014252;-;-;-;-;-;-;-;-;-;-;-;-;-;-;-
1514175696246;-;-;8.927277;-0.8712921;-2.2211304;-;-;-;-;-;-;-;-;-;-;-;-;-;-;-
1514175696265;-;-;8.967972;-0.46548462;-2.3767548;-;-;-;-;-;-;-;-;-;-;-;-;-;-;-
1514175696285;-;-;8.897339;-0.071640015;-2.5838623;-;-;-;-;-;-;-;-;-;-;-;-;-;-;-
1514175696306;-;-;8.904526;0.17736816;-2.7035675;-;-;-;-;-;-;-;-;-;-;-;-;-;-;-
1514175696326;-;-;8.873398;0.3210144;-2.7514496;-;-;-;-;-;-;-;-;-;-;-;-;-;-;-
1514175696346;-;-;8.940445;0.32580566;-2.5646973;-;-;-;-;-;-;-;-;-;-;-;-;-;-;-
1514175696367;-;-;8.924881;0.24679565;-2.4354248;-;-;-;-;-;-;-;-;-;-;-;-;-;-;-
1514175696387;-;-;8.96199;0.21087646;-2.3588104;-;-;-;-;-;-;-;-;-;-;-;-;-;-;-
1514175696407;-;-;9.029022;0.17497253;-2.3623962;-;-;-;-;-;-;-;-;-;-;-;-;-;-;-
1514175696427;-;-;9.084091;0.1438446;-2.2462769;-;-;-;-;-;-;-;-;-;-;-;-;-;-;-
1514175696448;-;-;8.989517;0.12348938;-2.172058;-;-;-;-;-;-;-;-;-;-;-;-;-;-;-
1514175696468;-;-;8.5849;0.18095398;-2.5455475;-;-;-;-;-;-;-;-;-;-;-;-;-;-;-
1514175696488;-;-;8.1371765;0.5520477;-3.0854492;-;-;-;-;-;-;-;-;-;-;-;-;-;-;-
1514175696509;-;-;8.035431;0.9494934;-3.151291;-;-;-;-;-;-;-;-;-;-;-;-;-;-;-
1514175696529;-;-;9.06134;0.8022461;-2.4509735;-;-;-;-;-;-;-;-;-;-;-;-;-;-;-
1514175696549;-;-;9.926849;-0.1590271;-2.13974;-;-;-;-;-;-;-;-;-;-;-;-;-;-;-
1514175696570;-;-;9.930435;-1.0999451;-2.2726135;-;-;-;-;-;-;-;-;-;-;-;-;-;-;-
1514175696590;-;-;9.342667;-1.7140503;-2.168457;-;-;-;-;-;-;-;-;-;-;-;-;-;-;-
1514175696610;-;-;8.775238;-1.803833;-2.0882568;-;-;-;-;-;-;-;-;-;-;-;-;-;-;-
1514175696631;-;-;8.720169;-0.9562988;-2.1110077;-;-;-;-;-;-;-;-;-;-;-;-;-;-;-
1514175696651;-;-;8.544205;-0.085998535;-2.1457214;-;-;-;-;-;-;-;-;-;-;-;-;-;-;-
1514175696671;-;-;8.58371;0.3964386;-2.3540192;-;-;-;-;-;-;-;-;-;-;-;-;-;-;-
1514175696691;-;-;8.714188;0.30426025;-2.5527344;-;-;-;-;-;-;-;-;-;-;-;-;-;-;-
1514175696712;-;-;9.0972595;-0.11831665;-2.5838623;-;-;-;-;-;-;-;-;-;-;-;-;-;-;-
1514175696732;-;-;9.258865;-0.4846344;-2.488083;-;-;-;-;-;-;-;-;-;-;-;-;-;-;-
1514175696752;-;-;9.243301;-0.7108917;-2.3767548;-;-;-;-;-;-;-;-;-;-;-;-;-;-;-
1514175696773;-;-;9.024231;-0.8485565;-2.1924133;-;-;-;-;-;-;-;-;-;-;-;-;-;-;-
1514175696793;-;-;8.896149;-0.80545044;-2.1493073;-;-;-;-;-;-;-;-;-;-;-;-;-;-;-
1514175696813;-;-;8.728546;-0.6438446;-2.1828308;-;-;-;-;-;-;-;-;-;-;-;-;-;-;-
1514175696834;-;-;8.654327;-0.5432892;-2.2989502;-;-;-;-;-;-;-;-;-;-;-;-;-;-;-
1514175696853;-;-;8.729752;-0.47027588;-2.2929688;-;-;-;-;-;-;-;-;-;-;-;-;-;-;-
1514175696873;-;-;8.941635;-0.4259796;-2.3360596;-;-;-;-;-;-;-;-;-;-;-;-;-;-;-
1514175696893;-;-;8.990723;-0.25239563;-2.4857025;-;-;-;-;-;-;-;-;-;-;-;-;-;-;-
1514175696914;-;-;8.927277;-0.100372314;-2.5419617;-;-;-;-;-;-;-;-;-;-;-;-;-;-;-
1514175696933;-;-;8.851852;-0.02494812;-2.5383606;-;-;-;-;-;-;-;-;-;-;-;-;-;-;-
1514175696953;-;-;8.908112;-0.023742676;-2.4270325;-;-;-;-;-;-;-;-;-;-;-;-;-;-;-
1514175696974;-;-;8.938049;-0.09197998;-2.286972;-;-;-;-;-;-;-;-;-;-;-;-;-;-;-
1514175696994;-;-;8.975159;-0.081207275;-2.3145142;-;-;-;-;-;-;-;-;-;-;-;-;-;-;-
1514175697014;-;-;8.954803;-0.05368042;-2.4198608;-;-;-;-;-;-;-;-;-;-;-;-;-;-;-
1514175697035;-;-;8.894943;0.028915405;-2.3743591;-;-;-;-;-;-;-;-;-;-;-;-;-;-;-
1514175697055;-;-;8.905716;0.04927063;-2.2570496;-;-;-;-;-;-;-;-;-;-;-;-;-;-;-
1514175697075;-;-;8.985931;-0.030929565;-2.3133087;-;-;-;-;-;-;-;-;-;-;-;-;-;-;-
1514175697095;-;-;9.039795;-0.15423584;-2.3480225;-;-;-;-;-;-;-;-;-;-;-;-;-;-;-
1514175697116;-;-;9.021835;-0.27394104;-2.3276825;-;-;-;-;-;-;-;-;-;-;-;-;-;-;-
1514175697136;-;-;8.976349;-0.36132813;-2.3444366;-;-;-;-;-;-;-;-;-;-;-;-;-;-;-
1514175697156;-;-;8.891357;-0.32063293;-2.3348541;-;-;-;-;-;-;-;-;-;-;-;-;-;-;-
1514175697177;-;-;8.905716;-0.29908752;-2.2450714;-;-;-;-;-;-;-;-;-;-;-;-;-;-;-
1514175697197;-;-;8.916504;-0.24401855;-2.1971893;-;-;-;-;-;-;-;-;-;-;-;-;-;-;-
1514175697217;-;-;8.933258;-0.24043274;-2.2989502;-;-;-;-;-;-;-;-;-;-;-;-;-;-;-
1514175697238;-;-;8.941635;-0.28471375;-2.3719635;-;-;-;-;-;-;-;-;-;-;-;-;-;-;-
1514175697257;-;-;8.957199;-0.28231812;-2.3779602;-;-;-;-;-;-;-;-;-;-;-;-;-;-;-
1514175697277;-;-;8.934448;-0.24401855;-2.3288727;-;-;-;-;-;-;-;-;-;-;-;-;-;-;-
1514175697297;-;-;8.906921;-0.24043274;-2.231903;-;-;-;-;-;-;-;-;-;-;-;-;-;-;-
1514175697318;-;-;8.856644;-0.21289063;-2.168457;-;-;-;-;-;-;-;-;-;-;-;-;-;-;-
1514175697337;-;-;8.875793;-0.26914978;-2.1110077;-;-;-;-;-;-;-;-;-;-;-;-;-;-;-
1514175697357;-;-;8.984726;-0.29908752;-2.0858612;-;-;-;-;-;-;-;-;-;-;-;-;-;-;-
1514175697377;-;-;9.056564;-0.3194275;-2.144516;-;-;-;-;-;-;-;-;-;-;-;-;-;-;-
1514175697398;-;-;9.116409;-0.18894958;-2.263031;-;-;-;-;-;-;-;-;-;-;-;-;-;-;-
1514175697418;-;-;9.055359;-0.2033081;-2.278595;-;-;-;-;-;-;-;-;-;-;-;-;-;-;-
1514175697439;-;-;9.009872;-0.30625916;-2.2570496;-;-;-;-;-;-;-;-;-;-;-;-;-;-;-
1514175697459;-;-;8.971558;-0.38526917;-2.2606354;-;-;-;-;-;-;-;-;-;-;-;-;-;-;-
1514175697479;-;-;8.958389;-0.48223877;-2.247467;-;-;-;-;-;-;-;-;-;-;-;-;-;-;-
1514175697499;-;-;8.963181;-0.4774475;-2.3013458;-;-;-;-;-;-;-;-;-;-;-;-;-;-;-
1514175697520;-;-;8.9392395;-0.45350647;-2.3588104;-;-;-;-;-;-;-;-;-;-;-;-;-;-;-
1514175697540;-;-;8.894943;-0.38526917;-2.3288727;-;-;-;-;-;-;-;-;-;-;-;-;-;-;-
1514175697560;-;-;8.936844;-0.3649292;-2.2965546;-;-;-;-;-;-;-;-;-;-;-;-;-;-;-
1514175697581;-;-;8.929672;-0.32182312;-2.1708527;-;-;-;-;-;-;-;-;-;-;-;-;-;-;-
1514175697601;-;-;8.90213;-0.30625916;-2.184021;-;-;-;-;-;-;-;-;-;-;-;-;-;-;-
1514175697622;-;-;8.918884;-0.32661438;-2.2642365;-;-;-;-;-;-;-;-;-;-;-;-;-;-;-
1514175697642;-;-;8.903336;-0.36253357;-2.2654266;-;-;-;-;-;-;-;-;-;-;-;-;-;-;-
1514175697662;-;-;8.927277;-0.39245605;-2.2857819;-;-;-;-;-;-;-;-;-;-;-;-;-;-;-
1514175697682;-;-;8.926071;-0.41281128;-2.3216858;-;-;-;-;-;-;-;-;-;-;-;-;-;-;-
1514175697703;-;-;8.908112;-0.41400146;-2.2606354;-;-;-;-;-;-;-;-;-;-;-;-;-;-;-
1514175697723;-;-;8.90213;-0.3481598;-2.2594452;-;-;-;-;-;-;-;-;-;-;-;-;-;-;-
1514175697743;-;-;8.887772;-0.30625916;-2.3157043;-;-;-;-;-;-;-;-;-;-;-;-;-;-;-
1514175697764;-;-;8.935654;-0.22964478;-2.3911285;-;-;-;-;-;-;-;-;-;-;-;-;-;-;-
1514175697783;-;-;8.967972;-0.20809937;-2.4533691;-;-;-;-;-;-;-;-;-;-;-;-;-;-;-
1514175697804;-;-;9.017059;-0.2607727;-2.4485931;-;-;-;-;-;-;-;-;-;-;-;-;-;-;-
1514175697823;-;-;9.015854;-0.2392273;-2.452179;-;-;-;-;-;-;-;-;-;-;-;-;-;-;-
1514175697844;-;-;8.904526;-0.2679596;-2.4545746;-;-;-;-;-;-;-;-;-;-;-;-;-;-;-
1514175697864;-;-;8.84108;-0.2715454;-2.4354248;-;-;-;-;-;-;-;-;-;-;-;-;-;-;-
1514175697884;-;-;8.814743;-0.33380127;-2.3564148;-;-;-;-;-;-;-;-;-;-;-;-;-;-;-
1514175697905;-;-;8.865021;-0.36253357;-2.309723;-;-;-;-;-;-;-;-;-;-;-;-;-;-;-
1514175697925;-;-;8.872208;-0.33380127;-2.3791504;-;-;-;-;-;-;-;-;-;-;-;-;-;-;-
1514175697945;-;-;8.8997345;-0.28352356;-2.4425964;-;-;-;-;-;-;-;-;-;-;-;-;-;-;-
1514175697965;-;-;8.904526;-0.2799225;-2.4461975;-;-;-;-;-;-;-;-;-;-;-;-;-;-;-
1514175697986;-;-;8.918884;-0.2787323;-2.4593658;-;-;-;-;-;-;-;-;-;-;-;-;-;-;-
1514175698006;-;-;8.916504;-0.34098816;-2.4497833;-;-;-;-;-;-;-;-;-;-;-;-;-;-;-
1514175698026;-;-;8.910507;-0.3577423;-2.4006958;-;-;-;-;-;-;-;-;-;-;-;-;-;-;-
1514175698046;-;-;8.908112;-0.41281128;-2.350418;-;-;-;-;-;-;-;-;-;-;-;-;-;-;-
1514175698067;-;-;8.973953;-0.42956543;-2.350418;-;-;-;-;-;-;-;-;-;-;-;-;-;-;-
1514175698086;-;-;8.964386;-0.4271698;-2.4270325;-;-;-;-;-;-;-;-;-;-;-;-;-;-;-
1514175698106;-;-;8.946426;-0.37449646;-2.4904785;-;-;-;-;-;-;-;-;-;-;-;-;-;-;-
1514175698127;-;-;8.90094;-0.32901;-2.4653473;-;-;-;-;-;-;-;-;-;-;-;-;-;-;-
1514175698147;-;-;8.92009;-0.37091064;-2.4629517;-;-;-;-;-;-;-;-;-;-;-;-;-;-;-
1514175698166;-;-;8.944031;-0.39964294;-2.3983002;-;-;-;-;-;-;-;-;-;-;-;-;-;-;-
1514175698186;-;-;8.955994;-0.36732483;-2.436615;-;-;-;-;-;-;-;-;-;-;-;-;-;-;-
1514175698207;-;-;8.904526;-0.33499146;-2.3959198;-;-;-;-;-;-;-;-;-;-;-;-;-;-;-
1514175698227;-;-;8.924881;-0.35653687;-2.3252869;-;-;-;-;-;-;-;-;-;-;-;-;-;-;-
1514175698247;-;-;8.90094;-0.3433838;-2.3085175;-;-;-;-;-;-;-;-;-;-;-;-;-;-;-
1514175698268;-;-;8.917694;-0.4163971;-2.294159;-;-;-;-;-;-;-;-;-;-;-;-;-;-;-
1514175698288;-;-;8.927277;-0.41999817;-2.3252869;-;-;-;-;-;-;-;-;-;-;-;-;-;-;-
1514175698308;-;-;8.8997345;-0.41041565;-2.3204956;-;-;-;-;-;-;-;-;-;-;-;-;-;-;-
1514175698328;-;-;8.905716;-0.32421875;-2.2989502;-;-;-;-;-;-;-;-;-;-;-;-;-;-;-
1514175698349;-;-;8.894943;-0.30506897;-2.3743591;-;-;-;-;-;-;-;-;-;-;-;-;-;-;-
1514175698369;-;-;8.869812;-0.30267334;-2.3516235;-;-;-;-;-;-;-;-;-;-;-;-;-;-;-
1514175698389;-;-;8.929672;-0.27035522;-2.3204956;-;-;-;-;-;-;-;-;-;-;-;-;-;-;-
1514175698409;-;-;8.938049;-0.24162292;-2.310913;-;-;-;-;-;-;-;-;-;-;-;-;-;-;-
1514175698430;-;-;8.923676;-0.20570374;-2.3252869;-;-;-;-;-;-;-;-;-;-;-;-;-;-;-
1514175698450;-;-;8.881775;-0.3002777;-2.452179;-;-;-;-;-;-;-;-;-;-;-;-;-;-;-
1514175698471;-;-;8.948822;-0.34457397;-2.4174652;-;-;-;-;-;-;-;-;-;-;-;-;-;-;-
1514175698491;-;-;8.953613;-0.28352356;-2.4342194;-;-;-;-;-;-;-;-;-;-;-;-;-;-;-
1514175698511;-;-;8.936844;-0.26316833;-2.3635864;-;-;-;-;-;-;-;-;-;-;-;-;-;-;-
1514175698531;-;-;8.916504;-0.24641418;-2.3204956;-;-;-;-;-;-;-;-;-;-;-;-;-;-;-
1514175698552;-;-;8.952408;-0.24520874;-2.3145142;-;-;-;-;-;-;-;-;-;-;-;-;-;-;-
1514175698572;-;-;8.946426;-0.22247314;-2.2761993;-;-;-;-;-;-;-;-;-;-;-;-;-;-;-
1514175698592;-;-;8.954803;-0.21170044;-2.333664;-;-;-;-;-;-;-;-;-;-;-;-;-;-;-
1514175698613;-;-;8.964386;-0.2272644;-2.3695831;-;-;-;-;-;-;-;-;-;-;-;-;-;-;-
1514175698632;-;-;8.963181;-0.24641418;-2.405487;-;-;-;-;-;-;-;-;-;-;-;-;-;-;-
1514175698652;-;-;8.945221;-0.2320404;-2.3468323;-;-;-;-;-;-;-;-;-;-;-;-;-;-;-
1514175698673;-;-;8.928467;-0.17219543;-2.3228912;-;-;-;-;-;-;-;-;-;-;-;-;-;-;-
1514175698693;-;-;8.905716;-0.1925354;-2.3683777;-;-;-;-;-;-;-;-;-;-;-;-;-;-;-
1514175698713;-;-;8.92009;-0.21409607;-2.381546;-;-;-;-;-;-;-;-;-;-;-;-;-;-;-
1514175698734;-;-;8.933258;-0.22366333;-2.357605;-;-;-;-;-;-;-;-;-;-;-;-;-;-;-
1514175698754;-;-;8.963181;-0.28831482;-2.3157043;-;-;-;-;-;-;-;-;-;-;-;-;-;-;-
1514175698774;-;-;8.997894;-0.32661438;-2.2798004;-;-;-;-;-;-;-;-;-;-;-;-;-;-;-
1514175698794;-;-;9.0182495;-0.31105042;-2.310913;-;-;-;-;-;-;-;-;-;-;-;-;-;-;-
1514175698815;-;-;9.020645;-0.2859192;-2.2761993;-;-;-;-;-;-;-;-;-;-;-;-;-;-;-
1514175698835;-;-;8.96199;-0.26556396;-2.2690277;-;-;-;-;-;-;-;-;-;-;-;-;-;-;-
1514175698855;-;-;8.933258;-0.25837708;-2.251068;-;-;-;-;-;-;-;-;-;-;-;-;-;-;-
1514175698876;-;-;8.915298;-0.26437378;-2.191208;-;-;-;-;-;-;-;-;-;-;-;-;-;-;-
1514175698896;-;-;8.909317;-0.30506897;-2.207962;-;-;-;-;-;-;-;-;-;-;-;-;-;-;-
1514175698917;-;-;8.971558;-0.31584167;-2.199585;-;-;-;-;-;-;-;-;-;-;-;-;-;-;-
1514175698937;-;-;8.987122;-0.29788208;-2.2342987;-;-;-;-;-;-;-;-;-;-;-;-;-;-;-
1514175698956;-;-;8.967972;-0.28710938;-2.2342987;-;-;-;-;-;-;-;-;-;-;-;-;-;-;-
1514175698976;-;-;8.954803;-0.25958252;-2.266632;-;-;-;-;-;-;-;-;-;-;-;-;-;-;-
1514175698997;-;-;8.944031;-0.32661438;-2.2127533;-;-;-;-;-;-;-;-;-;-;-;-;-;-;-
1514175699017;-;-;8.96199;-0.34936523;-2.184021;-;-;-;-;-;-;-;-;-;-;-;-;-;-;-
1514175699037;-;-;8.987122;-0.36132813;-2.203186;-;-;-;-;-;-;-;-;-;-;-;-;-;-;-
1514175699058;-;-;8.97995;-0.39604187;-2.1828308;-;-;-;-;-;-;-;-;-;-;-;-;-;-;-
1514175699077;-;-;8.973953;-0.4271698;-2.223526;-;-;-;-;-;-;-;-;-;-;-;-;-;-;-
1514175699097;-;-;8.985931;-0.45710754;-2.1804352;-;-;-;-;-;-;-;-;-;-;-;-;-;-;-
1514175699117;-;-;8.967972;-0.44033813;-2.199585;-;-;-;-;-;-;-;-;-;-;-;-;-;-;-
1514175699138;-;-;8.969162;-0.38526917;-2.2127533;-;-;-;-;-;-;-;-;-;-;-;-;-;-;-
1514175699157;-;-;8.96199;-0.36132813;-2.2103577;-;-;-;-;-;-;-;-;-;-;-;-;-;-;-
1514175699177;-;-;8.991913;-0.38407898;-2.211563;-;-;-;-;-;-;-;-;-;-;-;-;-;-;-
1514175699197;-;-;8.98233;-0.35653687;-2.2331085;-;-;-;-;-;-;-;-;-;-;-;-;-;-;-
1514175699218;-;-;8.951218;-0.3757019;-2.16008;-;-;-;-;-;-;-;-;-;-;-;-;-;-;-
1514175699238;-;-;8.97995;-0.3469696;-2.1349487;-;-;-;-;-;-;-;-;-;-;-;-;-;-;-
1514175699258;-;-;8.975159;-0.3936615;-2.227127;-;-;-;-;-;-;-;-;-;-;-;-;-;-;-
1514175699279;-;-;8.941635;-0.43675232;-2.187622;-;-;-;-;-;-;-;-;-;-;-;-;-;-;-
1514175699299;-;-;8.96199;-0.3936615;-2.0894623;-;-;-;-;-;-;-;-;-;-;-;-;-;-;-
1514175699319;-;-;8.926071;-0.35534668;-2.0643158;-;-;-;-;-;-;-;-;-;-;-;-;-;-;-
1514175699339;-;-;8.90213;-0.3541565;-2.100235;-;-;-;-;-;-;-;-;-;-;-;-;-;-;-
1514175699360;-;-;8.936844;-0.3541565;-2.1696625;-;-;-;-;-;-;-;-;-;-;-;-;-;-;-
1514175699380;-;-;8.950012;-0.3757019;-2.1313477;-;-;-;-;-;-;-;-;-;-;-;-;-;-;-
1514175699400;-;-;9.0182495;-0.34098816;-2.0774841;-;-;-;-;-;-;-;-;-;-;-;-;-;-;-
1514175699421;-;-;8.976349;-0.35176086;-2.069107;-;-;-;-;-;-;-;-;-;-;-;-;-;-;-
1514175699441;-;-;8.97995;-0.33021545;-2.045166;-;-;-;-;-;-;-;-;-;-;-;-;-;-;-
1514175699461;-;-;8.973953;-0.33021545;-2.084671;-;-;-;-;-;-;-;-;-;-;-;-;-;-;-
1514175699482;-;-;9.021835;-0.3577423;-2.1193848;-;-;-;-;-;-;-;-;-;-;-;-;-;-;-
1514175699502;-;-;9.023041;-0.37449646;-2.1505127;-;-;-;-;-;-;-;-;-;-;-;-;-;-;-
1514175699522;-;-;9.0182495;-0.4259796;-2.175644;-;-;-;-;-;-;-;-;-;-;-;-;-;-;-
1514175699542;-;-;9.036209;-0.41400146;-2.1433258;-;-;-;-;-;-;-;-;-;-;-;-;-;-;-
1514175699563;-;-;9.006287;-0.41281128;-2.1110077;-;-;-;-;-;-;-;-;-;-;-;-;-;-;-
1514175699583;-;-;9.012268;-0.35176086;-2.045166;-;-;-;-;-;-;-;-;-;-;-;-;-;-;-
1514175699603;-;-;8.990723;-0.31584167;-2.084671;-;-;-;-;-;-;-;-;-;-;-;-;-;-;-
1514175699624;-;-;8.929672;-0.30506897;-2.1110077;-;-;-;-;-;-;-;-;-;-;-;-;-;-;-
1514175699644;-;-;8.97995;-0.34098816;-2.1768494;-;-;-;-;-;-;-;-;-;-;-;-;-;-;-
1514175699664;-;-;8.958389;-0.3864746;-2.1612854;-;-;-;-;-;-;-;-;-;-;-;-;-;-;-
1514175699684;-;-;8.988327;-0.3649292;-2.1828308;-;-;-;-;-;-;-;-;-;-;-;-;-;-;-
1514175699705;-;-;8.946426;-0.36732483;-2.1385345;-;-;-;-;-;-;-;-;-;-;-;-;-;-;-
1514175699725;-;-;8.954803;-0.41760254;-2.1337433;-;-;-;-;-;-;-;-;-;-;-;-;-;-;-
1514175699745;-;-;8.951218;-0.4379425;-2.1696625;-;-;-;-;-;-;-;-;-;-;-;-;-;-;-
1514175699766;-;-;8.9787445;-0.3936615;-2.163681;-;-;-;-;-;-;-;-;-;-;-;-;-;-;-
1514175699786;-;-;8.951218;-0.40083313;-2.1373444;-;-;-;-;-;-;-;-;-;-;-;-;-;-;-
1514175699806;-;-;8.997894;-0.38526917;-2.1229706;-;-;-;-;-;-;-;-;-;-;-;-;-;-;-
1514175699827;-;-;8.988327;-0.3984375;-2.1193848;-;-;-;-;-;-;-;-;-;-;-;-;-;-;-
1514175699846;-;-;8.997894;-0.40322876;-2.148117;-;-;-;-;-;-;-;-;-;-;-;-;-;-;-
1514175699866;-;-;8.977554;-0.43077087;-2.144516;-;-;-;-;-;-;-;-;-;-;-;-;-;-;-
1514175699886;-;-;8.991913;-0.50857544;-2.1552887;-;-;-;-;-;-;-;-;-;-;-;-;-;-;-
1514175699907;-;-;8.996704;-0.4846344;-2.13974;-;-;-;-;-;-;-;-;-;-;-;-;-;-;-
1514175699927;-;-;9.015854;-0.4774475;-2.1457214;-;-;-;-;-;-;-;-;-;-;-;-;-;-;-
1514175699947;-;-;9.015854;-0.5169525;-2.1409302;-;-;-;-;-;-;-;-;-;-;-;-;-;-;-
1514175699967;-;-;8.952408;-0.4954071;-2.1217804;-;-;-;-;-;-;-;-;-;-;-;-;-;-;-
1514175699988;-;-;8.988327;-0.49661255;-2.1026306;-;-;-;-;-;-;-;-;-;-;-;-;-;-;-
1514175700008;-;-;8.9787445;-0.45948792;-2.0619202;-;-;-;-;-;-;-;-;-;-;-;-;-;-;-
1514175700028;-;-;8.971558;-0.5061798;-2.175644;-;-;-;-;-;-;-;-;-;-;-;-;-;-;-
1514175700049;-;-;8.955994;-0.4774475;-2.184021;-;-;-;-;-;-;-;-;-;-;-;-;-;-;-
1514175700069;-;-;8.983536;-0.4666748;-2.1193848;-;-;-;-;-;-;-;-;-;-;-;-;-;-;-
1514175700089;-;-;9.00029;-0.48942566;-2.0726929;-;-;-;-;-;-;-;-;-;-;-;-;-;-;-
1514175700110;-;-;8.97995;-0.4487152;-2.041565;-;-;-;-;-;-;-;-;-;-;-;-;-;-;-
1514175700129;-;-;8.928467;-0.4271698;-2.1624756;-;-;-;-;-;-;-;-;-;-;-;-;-;-;-
1514175700149;-;-;8.958389;-0.43315125;-2.1576843;-;-;-;-;-;-;-;-;-;-;-;-;-;-;-
1514175700170;-;-;8.963181;-0.41400146;-2.1229706;-;-;-;-;-;-;-;-;-;-;-;-;-;-;-
1514175700190;-;-;9.013458;-0.42237854;-2.172058;-;-;-;-;-;-;-;-;-;-;-;-;-;-;-
1514175700211;-;-;8.98233;-0.39485168;-2.1624756;-;-;-;-;-;-;-;-;-;-;-;-;-;-;-
1514175700231;-;-;8.995499;-0.42477417;-2.1433258;-;-;-;-;-;-;-;-;-;-;-;-;-;-;-
1514175700251;-;-;8.976349;-0.39485168;-2.1529083;-;-;-;-;-;-;-;-;-;-;-;-;-;-;-
1514175700271;-;-;8.950012;-0.36013794;-2.1672668;-;-;-;-;-;-;-;-;-;-;-;-;-;-;-
1514175700292;-;-;8.935654;-0.3194275;-2.266632;-;-;-;-;-;-;-;-;-;-;-;-;-;-;-
1514175700312;-;-;8.884171;-0.30625916;-2.2558594;-;-;-;-;-;-;-;-;-;-;-;-;-;-;-
1514175700332;-;-;8.892548;-0.3433838;-2.2187347;-;-;-;-;-;-;-;-;-;-;-;-;-;-;-
1514175700352;-;-;8.958389;-0.32063293;-2.1672668;-;-;-;-;-;-;-;-;-;-;-;-;-;-;-
1514175700373;-;-;8.97995;-0.32182312;-2.1864166;-;-;-;-;-;-;-;-;-;-;-;-;-;-;-
1514175700393;-;-;8.969162;-0.29908752;-2.1947937;-;-;-;-;-;-;-;-;-;-;-;-;-;-;-
1514175700413;-;-;8.940445;-0.2775421;-2.2007904;-;-;-;-;-;-;-;-;-;-;-;-;-;-;-
1514175700434;-;-;8.911713;-0.24520874;-2.2175446;-;-;-;-;-;-;-;-;-;-;-;-;-;-;-
1514175700453;-;-;8.906921;-0.19972229;-2.2295227;-;-;-;-;-;-;-;-;-;-;-;-;-;-;-
1514175700473;-;-;8.933258;-0.19374084;-2.2594452;-;-;-;-;-;-;-;-;-;-;-;-;-;-;-
1514175700493;-;-;8.975159;-0.21409607;-2.251068;-;-;-;-;-;-;-;-;-;-;-;-;-;-;-
1514175700513;-;-;8.966782;-0.21409607;-2.2977448;-;-;-;-;-;-;-;-;-;-;-;-;-;-;-
1514175700534;-;-;9.008667;-0.23564148;-2.2498627;-;-;-;-;-;-;-;-;-;-;-;-;-;-;-
1514175700554;-;-;8.991913;-0.21887207;-2.2582397;-;-;-;-;-;-;-;-;-;-;-;-;-;-;-
1514175700574;-;-;8.98233;-0.2679596;-2.2642365;-;-;-;-;-;-;-;-;-;-;-;-;-;-;-
1514175700594;-;-;8.987122;-0.28710938;-2.2881775;-;-;-;-;-;-;-;-;-;-;-;-;-;-;-
1514175700615;-;-;8.97995;-0.33859253;-2.2522583;-;-;-;-;-;-;-;-;-;-;-;-;-;-;-
1514175700635;-;-;8.965576;-0.4044342;-2.1648712;-;-;-;-;-;-;-;-;-;-;-;-;-;-;-
1514175700655;-;-;8.9392395;-0.3649292;-2.1816254;-;-;-;-;-;-;-;-;-;-;-;-;-;-;-
1514175700676;-;-;8.936844;-0.33499146;-2.1660767;-;-;-;-;-;-;-;-;-;-;-;-;-;-;-
1514175700695;-;-;8.930862;-0.29908752;-2.2091675;-;-;-;-;-;-;-;-;-;-;-;-;-;-;-
1514175700715;-;-;8.932053;-0.26675415;-2.2342987;-;-;-;-;-;-;-;-;-;-;-;-;-;-;-
1514175700735;-;-;8.971558;-0.3182373;-2.2139587;-;-;-;-;-;-;-;-;-;-;-;-;-;-;-
1514175700755;-;-;9.029022;-0.3649292;-2.1924133;-;-;-;-;-;-;-;-;-;-;-;-;-;-;-
1514175700776;-;-;8.969162;-0.33021545;-2.184021;-;-;-;-;-;-;-;-;-;-;-;-;-;-;-
1514175700796;-;-;8.946426;-0.368515;-2.1864166;-;-;-;-;-;-;-;-;-;-;-;-;-;-;-
1514175700816;-;-;8.950012;-0.43315125;-2.1696625;-;-;-;-;-;-;-;-;-;-;-;-;-;-;-
1514175700837;-;-;8.977554;-0.44154358;-2.2199402;-;-;-;-;-;-;-;-;-;-;-;-;-;-;-
1514175700857;-;-;8.966782;-0.43315125;-2.2331085;-;-;-;-;-;-;-;-;-;-;-;-;-;-;-
1514175700877;-;-;8.977554;-0.41400146;-2.242691;-;-;-;-;-;-;-;-;-;-;-;-;-;-;-
1514175700898;-;-;8.984726;-0.44154358;-2.2247314;-;-;-;-;-;-;-;-;-;-;-;-;-;-;-
1514175700918;-;-;9.012268;-0.40203857;-2.2223358;-;-;-;-;-;-;-;-;-;-;-;-;-;-;-
1514175700938;-;-;8.960785;-0.38287354;-2.2199402;-;-;-;-;-;-;-;-;-;-;-;-;-;-;-
1514175700958;-;-;8.941635;-0.36132813;-2.2845764;-;-;-;-;-;-;-;-;-;-;-;-;-;-;-
1514175700979;-;-;8.9392395;-0.35295105;-2.2893677;-;-;-;-;-;-;-;-;-;-;-;-;-;-;-
1514175700999;-;-;8.954803;-0.34457397;-2.3181;-;-;-;-;-;-;-;-;-;-;-;-;-;-;-
1514175701019;-;-;8.934448;-0.3254242;-2.2163544;-;-;-;-;-;-;-;-;-;-;-;-;-;-;-
1514175701040;-;-;8.929672;-0.30625916;-2.2043762;-;-;-;-;-;-;-;-;-;-;-;-;-;-;-
1514175701060;-;-;8.940445;-0.3146515;-2.2342987;-;-;-;-;-;-;-;-;-;-;-;-;-;-;-
1514175701080;-;-;8.951218;-0.3984375;-2.2259216;-;-;-;-;-;-;-;-;-;-;-;-;-;-;-
1514175701101;-;-;8.944031;-0.36253357;-2.2247314;-;-;-;-;-;-;-;-;-;-;-;-;-;-;-
1514175701121;-;-;8.944031;-0.30148315;-2.251068;-;-;-;-;-;-;-;-;-;-;-;-;-;-;-
1514175701141;-;-;8.914108;-0.3182373;-2.2438812;-;-;-;-;-;-;-;-;-;-;-;-;-;-;-
1514175701162;-;-;8.884171;-0.3146515;-2.2905731;-;-;-;-;-;-;-;-;-;-;-;-;-;-;-
1514175701182;-;-;8.910507;-0.34936523;-2.2690277;-;-;-;-;-;-;-;-;-;-;-;-;-;-;-
1514175701203;-;-;8.97995;-0.3397827;-2.2498627;-;-;-;-;-;-;-;-;-;-;-;-;-;-;-
1514175701222;-;-;8.977554;-0.33499146;-2.2127533;-;-;-;-;-;-;-;-;-;-;-;-;-;-;-
1514175701242;-;-;8.985931;-0.29908752;-2.2366943;-;-;-;-;-;-;-;-;-;-;-;-;-;-;-
1514175701263;-;-;8.985931;-0.3182373;-2.2570496;-;-;-;-;-;-;-;-;-;-;-;-;-;-;-
1514175701283;-;-;9.012268;-0.32182312;-2.2247314;-;-;-;-;-;-;-;-;-;-;-;-;-;-;-
1514175701303;-;-;8.983536;-0.34576416;-2.247467;-;-;-;-;-;-;-;-;-;-;-;-;-;-;-
1514175701323;-;-;8.938049;-0.33859253;-2.2127533;-;-;-;-;-;-;-;-;-;-;-;-;-;-;-
1514175701344;-;-;8.950012;-0.3469696;-2.1672668;-;-;-;-;-;-;-;-;-;-;-;-;-;-;-
1514175701364;-;-;8.966782;-0.34457397;-2.1888123;-;-;-;-;-;-;-;-;-;-;-;-;-;-;-
1514175701384;-;-;8.960785;-0.3361969;-2.1924133;-;-;-;-;-;-;-;-;-;-;-;-;-;-;-
1514175701405;-;-;8.9392395;-0.3589325;-2.2402954;-;-;-;-;-;-;-;-;-;-;-;-;-;-;-
1514175701425;-;-;8.941635;-0.37091064;-2.2522583;-;-;-;-;-;-;-;-;-;-;-;-;-;-;-
1514175701445;-;-;8.959595;-0.3361969;-2.2067719;-;-;-;-;-;-;-;-;-;-;-;-;-;-;-
1514175701466;-;-;8.977554;-0.32901;-2.144516;-;-;-;-;-;-;-;-;-;-;-;-;-;-;-
1514175701486;-;-;8.971558;-0.2775421;-2.1433258;-;-;-;-;-;-;-;-;-;-;-;-;-;-;-
1514175701506;-;-;8.955994;-0.26437378;-2.2259216;-;-;-;-;-;-;-;-;-;-;-;-;-;-;-
1514175701526;-;-;8.984726;-0.28231812;-2.2043762;-;-;-;-;-;-;-;-;-;-;-;-;-;-;-
1514175701547;-;-;8.960785;-0.31105042;-2.2067719;-;-;-;-;-;-;-;-;-;-;-;-;-;-;-
1514175701566;-;-;8.959595;-0.29071045;-2.1971893;-;-;-;-;-;-;-;-;-;-;-;-;-;-;-
1514175701586;-;-;8.960785;-0.28231812;-2.1708527;-;-;-;-;-;-;-;-;-;-;-;-;-;-;-
1514175701607;-;-;8.96199;-0.28831482;-2.1900177;-;-;-;-;-;-;-;-;-;-;-;-;-;-;-
1514175701627;-;-;8.954803;-0.24880981;-2.2103577;-;-;-;-;-;-;-;-;-;-;-;-;-;-;-
1514175701648;-;-;8.941635;-0.25958252;-2.2163544;-;-;-;-;-;-;-;-;-;-;-;-;-;-;-
1514175701668;-;-;8.960785;-0.29071045;-2.151703;-;-;-;-;-;-;-;-;-;-;-;-;-;-;-
1514175701687;-;-;8.9991;-0.25360107;-2.168457;-;-;-;-;-;-;-;-;-;-;-;-;-;-;-
1514175701707;-;-;8.990723;-0.23803711;-2.1708527;-;-;-;-;-;-;-;-;-;-;-;-;-;-;-
1514175701727;-;-;8.958389;-0.25958252;-2.1576843;-;-;-;-;-;-;-;-;-;-;-;-;-;-;-
1514175701748;-;-;8.98233;-0.24641418;-2.1900177;-;-;-;-;-;-;-;-;-;-;-;-;-;-;-
1514175701768;-;-;8.944031;-0.26316833;-2.1732483;-;-;-;-;-;-;-;-;-;-;-;-;-;-;-
1514175701788;-;-;8.98233;-0.27514648;-2.1888123;-;-;-;-;-;-;-;-;-;-;-;-;-;-;-
1514175701809;-;-;8.991913;-0.30148315;-2.1924133;-;-;-;-;-;-;-;-;-;-;-;-;-;-;-
1514175701829;-;-;8.990723;-0.26556396;-2.1959991;-;-;-;-;-;-;-;-;-;-;-;-;-;-;-
1514175701849;-;-;8.993118;-0.33021545;-2.2187347;-;-;-;-;-;-;-;-;-;-;-;-;-;-;-
1514175701869;-;-;9.012268;-0.3254242;-2.2163544;-;-;-;-;-;-;-;-;-;-;-;-;-;-;-
1514175701890;-;-;8.994308;-0.28352356;-2.1804352;-;-;-;-;-;-;-;-;-;-;-;-;-;-;-
1514175701910;-;-;8.972763;-0.32781982;-2.144516;-;-;-;-;-;-;-;-;-;-;-;-;-;-;-
1514175701930;-;-;8.959595;-0.29309082;-2.1612854;-;-;-;-;-;-;-;-;-;-;-;-;-;-;-
1514175701951;-;-;8.973953;-0.3002777;-2.1708527;-;-;-;-;-;-;-;-;-;-;-;-;-;-;-
1514175701971;-;-;8.960785;-0.2966919;-2.1864166;-;-;-;-;-;-;-;-;-;-;-;-;-;-;-
1514175701991;-;-;8.963181;-0.30148315;-2.168457;-;-;-;-;-;-;-;-;-;-;-;-;-;-;-
1514175702012;-;-;8.973953;-0.30625916;-2.151703;-;-;-;-;-;-;-;-;-;-;-;-;-;-;-
1514175702032;-;-;8.964386;-0.32182312;-2.1373444;-;-;-;-;-;-;-;-;-;-;-;-;-;-;-
1514175702052;-;-;8.924881;-0.34098816;-2.0882568;-;-;-;-;-;-;-;-;-;-;-;-;-;-;-
1514175702073;-;-;8.972763;-0.31105042;-2.1181793;-;-;-;-;-;-;-;-;-;-;-;-;-;-;-
1514175702093;-;-;8.952408;-0.32182312;-2.1576843;-;-;-;-;-;-;-;-;-;-;-;-;-;-;-
1514175702113;-;-;8.933258;-0.28471375;-2.1959991;-;-;-;-;-;-;-;-;-;-;-;-;-;-;-
1514175702134;-;-;8.969162;-0.29788208;-2.1732483;-;-;-;-;-;-;-;-;-;-;-;-;-;-;-
1514175702154;-;-;8.98114;-0.29429626;-2.120575;-;-;-;-;-;-;-;-;-;-;-;-;-;-;-
1514175702174;-;-;8.984726;-0.25479126;-2.132553;-;-;-;-;-;-;-;-;-;-;-;-;-;-;-
1514175702194;-;-;8.964386;-0.27633667;-2.136139;-;-;-;-;-;-;-;-;-;-;-;-;-;-;-
1514175702215;-;-;8.987122;-0.28112793;-2.1457214;-;-;-;-;-;-;-;-;-;-;-;-;-;-;-
1514175702235;-;-;9.014664;-0.29908752;-2.16008;-;-;-;-;-;-;-;-;-;-;-;-;-;-;-
1514175702255;-;-;8.976349;-0.29788208;-2.108612;-;-;-;-;-;-;-;-;-;-;-;-;-;-;-
1514175702276;-;-;8.97995;-0.30986023;-2.1229706;-;-;-;-;-;-;-;-;-;-;-;-;-;-;-
1514175702296;-;-;9.00029;-0.3397827;-2.0738983;-;-;-;-;-;-;-;-;-;-;-;-;-;-;-
1514175702316;-;-;8.996704;-0.31584167;-2.0738983;-;-;-;-;-;-;-;-;-;-;-;-;-;-;-
1514175702337;-;-;9.003891;-0.3194275;-2.108612;-;-;-;-;-;-;-;-;-;-;-;-;-;-;-
1514175702357;-;-;8.945221;-0.30986023;-2.1708527;-;-;-;-;-;-;-;-;-;-;-;-;-;-;-
1514175702376;-;-;8.946426;-0.29788208;-2.1648712;-;-;-;-;-;-;-;-;-;-;-;-;-;-;-
1514175702396;-;-;8.960785;-0.30625916;-2.2091675;-;-;-;-;-;-;-;-;-;-;-;-;-;-;-
1514175702417;-;-;8.98114;-0.29788208;-2.184021;-;-;-;-;-;-;-;-;-;-;-;-;-;-;-
1514175702436;-;-;8.971558;-0.2859192;-2.179245;-;-;-;-;-;-;-;-;-;-;-;-;-;-;-
1514175702456;-;-;8.973953;-0.28710938;-2.1888123;-;-;-;-;-;-;-;-;-;-;-;-;-;-;-
1514175702477;-;-;8.967972;-0.25958252;-2.2103577;-;-;-;-;-;-;-;-;-;-;-;-;-;-;-
1514175702497;-;-;8.952408;-0.29071045;-2.175644;-;-;-;-;-;-;-;-;-;-;-;-;-;-;-
1514175702517;-;-;8.944031;-0.24880981;-2.227127;-;-;-;-;-;-;-;-;-;-;-;-;-;-;-
1514175702538;-;-;8.932053;-0.26675415;-2.2738037;-;-;-;-;-;-;-;-;-;-;-;-;-;-;-
1514175702558;-;-;8.957199;-0.25239563;-2.263031;-;-;-;-;-;-;-;-;-;-;-;-;-;-;-
1514175702578;-;-;8.98233;-0.20570374;-2.2798004;-;-;-;-;-;-;-;-;-;-;-;-;-;-;-
1514175702598;-;-;8.940445;-0.2272644;-2.2905731;-;-;-;-;-;-;-;-;-;-;-;-;-;-;-
1514175702618;-;-;8.918884;-0.21768188;-2.2582397;-;-;-;-;-;-;-;-;-;-;-;-;-;-;-
1514175702639;-;-;8.954803;-0.22605896;-2.2654266;-;-;-;-;-;-;-;-;-;-;-;-;-;-;-
1514175702659;-;-;8.945221;-0.23443604;-2.1888123;-;-;-;-;-;-;-;-;-;-;-;-;-;-;-
1514175702679;-;-;8.952408;-0.22605896;-2.203186;-;-;-;-;-;-;-;-;-;-;-;-;-;-;-
1514175702700;-;-;8.940445;-0.22007751;-2.2127533;-;-;-;-;-;-;-;-;-;-;-;-;-;-;-
1514175702719;-;-;8.98114;-0.24880981;-2.187622;-;-;-;-;-;-;-;-;-;-;-;-;-;-;-
1514175702739;-;-;8.987122;-0.27514648;-2.1385345;-;-;-;-;-;-;-;-;-;-;-;-;-;-;-
1514175702760;-;-;8.98233;-0.32421875;-2.1121979;-;-;-;-;-;-;-;-;-;-;-;-;-;-;-
1514175702780;-;-;8.977554;-0.33499146;-2.0595245;-;-;-;-;-;-;-;-;-;-;-;-;-;-;-
1514175702800;-;-;8.935654;-0.33738708;-2.0834656;-;-;-;-;-;-;-;-;-;-;-;-;-;-;-
1514175702820;-;-;8.970367;-0.32302856;-2.1134033;-;-;-;-;-;-;-;-;-;-;-;-;-;-;-
1514175702841;-;-;8.963181;-0.26675415;-2.1409302;-;-;-;-;-;-;-;-;-;-;-;-;-;-;-
1514175702860;-;-;8.963181;-0.22366333;-2.1816254;-;-;-;-;-;-;-;-;-;-;-;-;-;-;-
1514175702880;-;-;8.994308;-0.21289063;-2.1744537;-;-;-;-;-;-;-;-;-;-;-;-;-;-;-
1514175702900;-;-;8.98114;-0.19613647;-2.179245;-;-;-;-;-;-;-;-;-;-;-;-;-;-;-
1514175702921;-;-;8.933258;-0.210495;-2.1732483;-;-;-;-;-;-;-;-;-;-;-;-;-;-;-
1514175702941;-;-;8.938049;-0.22964478;-2.2091675;-;-;-;-;-;-;-;-;-;-;-;-;-;-;-
1514175702961;-;-;8.963181;-0.3002777;-2.2929688;-;-;-;-;-;-;-;-;-;-;-;-;-;-;-
1514175702981;-;-;8.945221;-0.34098816;-2.2618408;-;-;-;-;-;-;-;-;-;-;-;-;-;-;-
1514175703001;-;-;8.966782;-0.38287354;-2.242691;-;-;-;-;-;-;-;-;-;-;-;-;-;-;-
1514175703021;-;-;8.97995;-0.29548645;-2.2163544;-;-;-;-;-;-;-;-;-;-;-;-;-;-;-
1514175703042;-;-;8.945221;-0.27633667;-2.2366943;-;-;-;-;-;-;-;-;-;-;-;-;-;-;-
1514175703062;-;-;8.923676;-0.25837708;-2.3001404;-;-;-;-;-;-;-;-;-;-;-;-;-;-;-
1514175703082;-;-;8.914108;-0.23564148;-2.294159;-;-;-;-;-;-;-;-;-;-;-;-;-;-;-
1514175703103;-;-;8.947617;-0.1985321;-2.2917633;-;-;-;-;-;-;-;-;-;-;-;-;-;-;-
1514175703123;-;-;8.969162;-0.21528625;-2.2606354;-;-;-;-;-;-;-;-;-;-;-;-;-;-;-
1514175703144;-;-;8.966782;-0.2966919;-2.294159;-;-;-;-;-;-;-;-;-;-;-;-;-;-;-
1514175703164;-;-;8.966782;-0.35534668;-2.2726135;-;-;-;-;-;-;-;-;-;-;-;-;-;-;-
1514175703184;-;-;8.950012;-0.3182373;-2.2366943;-;-;-;-;-;-;-;-;-;-;-;-;-;-;-
1514175703204;-;-;8.997894;-0.30506897;-2.231903;-;-;-;-;-;-;-;-;-;-;-;-;-;-;-
1514175703225;-;-;8.973953;-0.30986023;-2.2833862;-;-;-;-;-;-;-;-;-;-;-;-;-;-;-
1514175703245;-;-;8.971558;-0.3182373;-2.3360596;-;-;-;-;-;-;-;-;-;-;-;-;-;-;-
1514175703265;-;-;9.007477;-0.3433838;-2.2845764;-;-;-;-;-;-;-;-;-;-;-;-;-;-;-
1514175703286;-;-;8.997894;-0.3433838;-2.254654;-;-;-;-;-;-;-;-;-;-;-;-;-;-;-
1514175703306;-;-;9.007477;-0.30506897;-2.2438812;-;-;-;-;-;-;-;-;-;-;-;-;-;-;-
1514175703327;-;-;8.953613;-0.25360107;-2.2642365;-;-;-;-;-;-;-;-;-;-;-;-;-;-;-
1514175703346;-;-;8.951218;-0.25239563;-2.2594452;-;-;-;-;-;-;-;-;-;-;-;-;-;-;-
1514175703367;-;-;8.971558;-0.28471375;-2.23909;-;-;-;-;-;-;-;-;-;-;-;-;-;-;-
1514175703387;-;-;8.938049;-0.35055542;-2.23909;-;-;-;-;-;-;-;-;-;-;-;-;-;-;-
1514175703407;-;-;8.952408;-0.38049316;-2.227127;-;-;-;-;-;-;-;-;-;-;-;-;-;-;-
1514175703427;-;-;8.924881;-0.4487152;-2.1433258;-;-;-;-;-;-;-;-;-;-;-;-;-;-;-
1514175703448;-;-;8.926071;-0.47865295;-2.0679016;-;-;-;-;-;-;-;-;-;-;-;-;-;-;-
1514175703468;-;-;8.945221;-0.52893066;-2.0715027;-;-;-;-;-;-;-;-;-;-;-;-;-;-;-
1514175703488;-;-;8.924881;-0.502594;-2.132553;-;-;-;-;-;-;-;-;-;-;-;-;-;-;-
1514175703509;-;-;8.989517;-0.51934814;-2.1648712;-;-;-;-;-;-;-;-;-;-;-;-;-;-;-
1514175703529;-;-;9.031418;-0.5648346;-2.1277618;-;-;-;-;-;-;-;-;-;-;-;-;-;-;-
1514175703549;-;-;9.0577545;-0.54808044;-2.1014252;-;-;-;-;-;-;-;-;-;-;-;-;-;-;-
1514175703570;-;-;9.033813;-0.48582458;-2.1253662;-;-;-;-;-;-;-;-;-;-;-;-;-;-;-
1514175703590;-;-;8.984726;-0.46548462;-2.1229706;-;-;-;-;-;-;-;-;-;-;-;-;-;-;-
1514175703610;-;-;8.933258;-0.41999817;-2.1648712;-;-;-;-;-;-;-;-;-;-;-;-;-;-;-
1514175703630;-;-;8.929672;-0.42477417;-2.163681;-;-;-;-;-;-;-;-;-;-;-;-;-;-;-
1514175703651;-;-;8.940445;-0.43675232;-2.1385345;-;-;-;-;-;-;-;-;-;-;-;-;-;-;-
1514175703671;-;-;8.922485;-0.4846344;-2.0906525;-;-;-;-;-;-;-;-;-;-;-;-;-;-;-
1514175703691;-;-;8.936844;-0.42118835;-2.1588898;-;-;-;-;-;-;-;-;-;-;-;-;-;-;-
1514175703712;-;-;8.942825;-0.45948792;-2.1121979;-;-;-;-;-;-;-;-;-;-;-;-;-;-;-
1514175703731;-;-;8.942825;-0.43315125;-2.1672668;-;-;-;-;-;-;-;-;-;-;-;-;-;-;-
1514175703751;-;-;8.933258;-0.4666748;-2.1552887;-;-;-;-;-;-;-;-;-;-;-;-;-;-;-
1514175703772;-;-;8.918884;-0.42237854;-2.1038208;-;-;-;-;-;-;-;-;-;-;-;-;-;-;-
1514175703792;-;-;8.944031;-0.41400146;-2.132553;-;-;-;-;-;-;-;-;-;-;-;-;-;-;-
1514175703812;-;-;8.958389;-0.3876648;-2.1552887;-;-;-;-;-;-;-;-;-;-;-;-;-;-;-
1514175703833;-;-;8.957199;-0.41999817;-2.1732483;-;-;-;-;-;-;-;-;-;-;-;-;-;-;-
1514175703853;-;-;9.024231;-0.42956543;-2.179245;-;-;-;-;-;-;-;-;-;-;-;-;-;-;-
1514175703873;-;-;9.055359;-0.4044342;-2.172058;-;-;-;-;-;-;-;-;-;-;-;-;-;-;-
1514175703893;-;-;9.068527;-0.37449646;-2.1421204;-;-;-;-;-;-;-;-;-;-;-;-;-;-;-
1514175703914;-;-;9.046982;-0.38407898;-2.179245;-;-;-;-;-;-;-;-;-;-;-;-;-;-;-
1514175703934;-;-;8.98233;-0.37928772;-2.187622;-;-;-;-;-;-;-;-;-;-;-;-;-;-;-
1514175703954;-;-;8.963181;-0.38049316;-2.1780396;-;-;-;-;-;-;-;-;-;-;-;-;-;-;-
1514175703975;-;-;8.969162;-0.42358398;-2.1373444;-;-;-;-;-;-;-;-;-;-;-;-;-;-;-
1514175703995;-;-;8.972763;-0.4271698;-2.1947937;-;-;-;-;-;-;-;-;-;-;-;-;-;-;-
1514175704015;-;-;8.966782;-0.39485168;-2.1828308;-;-;-;-;-;-;-;-;-;-;-;-;-;-;-
1514175704035;-;-;8.987122;-0.32661438;-2.1780396;-;-;-;-;-;-;-;-;-;-;-;-;-;-;-
1514175704056;-;-;8.963181;-0.2679596;-2.2414856;-;-;-;-;-;-;-;-;-;-;-;-;-;-;-
1514175704076;-;-;8.964386;-0.28710938;-2.2295227;-;-;-;-;-;-;-;-;-;-;-;-;-;-;-
1514175704097;-;-;8.97995;-0.3002777;-2.1852264;-;-;-;-;-;-;-;-;-;-;-;-;-;-;-
1514175704116;-;-;8.948822;-0.32421875;-2.1217804;-;-;-;-;-;-;-;-;-;-;-;-;-;-;-
1514175704136;-;-;8.9787445;-0.3589325;-2.1385345;-;-;-;-;-;-;-;-;-;-;-;-;-;-;-
1514175704157;-;-;9.012268;-0.3972473;-2.1852264;-;-;-;-;-;-;-;-;-;-;-;-;-;-;-
1514175704177;-;-;9.008667;-0.38526917;-2.2331085;-;-;-;-;-;-;-;-;-;-;-;-;-;-;-
1514175704197;-;-;9.002686;-0.368515;-2.231903;-;-;-;-;-;-;-;-;-;-;-;-;-;-;-
1514175704217;-;-;8.9787445;-0.3577423;-2.1505127;-;-;-;-;-;-;-;-;-;-;-;-;-;-;-
1514175704238;-;-;8.990723;-0.3757019;-2.0906525;-;-;-;-;-;-;-;-;-;-;-;-;-;-;-
1514175704257;-;-;8.987122;-0.32901;-2.1457214;-;-;-;-;-;-;-;-;-;-;-;-;-;-;-
1514175704277;-;-;9.006287;-0.30986023;-2.136139;-;-;-;-;-;-;-;-;-;-;-;-;-;-;-
1514175704297;-;-;8.965576;-0.34936523;-2.136139;-;-;-;-;-;-;-;-;-;-;-;-;-;-;-
1514175704318;-;-;8.960785;-0.35176086;-2.1576843;-;-;-;-;-;-;-;-;-;-;-;-;-;-;-
1514175704338;-;-;8.971558;-0.36253357;-2.1409302;-;-;-;-;-;-;-;-;-;-;-;-;-;-;-
1514175704358;-;-;8.969162;-0.3649292;-2.1493073;-;-;-;-;-;-;-;-;-;-;-;-;-;-;-
1514175704379;-;-;9.014664;-0.35534668;-2.132553;-;-;-;-;-;-;-;-;-;-;-;-;-;-;-
1514175704399;-;-;8.966782;-0.29548645;-2.1612854;-;-;-;-;-;-;-;-;-;-;-;-;-;-;-
1514175704419;-;-;8.922485;-0.31105042;-2.1780396;-;-;-;-;-;-;-;-;-;-;-;-;-;-;-
1514175704439;-;-;8.940445;-0.36732483;-2.1971893;-;-;-;-;-;-;-;-;-;-;-;-;-;-;-
1514175704460;-;-;8.997894;-0.38168335;-2.1804352;-;-;-;-;-;-;-;-;-;-;-;-;-;-;-
1514175704480;-;-;8.991913;-0.3768921;-2.179245;-;-;-;-;-;-;-;-;-;-;-;-;-;-;-
1514175704501;-;-;8.985931;-0.3768921;-2.16008;-;-;-;-;-;-;-;-;-;-;-;-;-;-;-
1514175704521;-;-;8.989517;-0.38526917;-2.1457214;-;-;-;-;-;-;-;-;-;-;-;-;-;-;-
1514175704541;-;-;8.996704;-0.37210083;-2.1349487;-;-;-;-;-;-;-;-;-;-;-;-;-;-;-
1514175704561;-;-;8.971558;-0.3984375;-2.1265717;-;-;-;-;-;-;-;-;-;-;-;-;-;-;-
1514175704582;-;-;8.973953;-0.38526917;-2.1074066;-;-;-;-;-;-;-;-;-;-;-;-;-;-;-
1514175704601;-;-;8.960785;-0.39126587;-2.120575;-;-;-;-;-;-;-;-;-;-;-;-;-;-;-
1514175704621;-;-;9.006287;-0.40322876;-2.1145935;-;-;-;-;-;-;-;-;-;-;-;-;-;-;-
1514175704642;-;-;8.988327;-0.39245605;-2.1493073;-;-;-;-;-;-;-;-;-;-;-;-;-;-;-
1514175704661;-;-;8.985931;-0.3876648;-2.0942383;-;-;-;-;-;-;-;-;-;-;-;-;-;-;-
1514175704683;-;-;8.988327;-0.43914795;-2.1134033;-;-;-;-;-;-;-;-;-;-;-;-;-;-;-
1514175704702;-;-;8.959595;-0.45710754;-2.093048;-;-;-;-;-;-;-;-;-;-;-;-;-;-;-
1514175704722;-;-;8.977554;-0.43315125;-2.1038208;-;-;-;-;-;-;-;-;-;-;-;-;-;-;-
1514175704742;-;-;8.990723;-0.42358398;-2.0834656;-;-;-;-;-;-;-;-;-;-;-;-;-;-;-
1514175704763;-;-;8.964386;-0.4666748;-2.0786743;-;-;-;-;-;-;-;-;-;-;-;-;-;-;-
1514175704783;-;-;8.990723;-0.47146606;-2.0583344;-;-;-;-;-;-;-;-;-;-;-;-;-;-;-
1514175704803;-;-;8.984726;-0.4439392;-2.029602;-;-;-;-;-;-;-;-;-;-;-;-;-;-;-
1514175704823;-;-;9.021835;-0.44992065;-2.0631256;-;-;-;-;-;-;-;-;-;-;-;-;-;-;-
1514175704844;-;-;9.008667;-0.40682983;-2.105011;-;-;-;-;-;-;-;-;-;-;-;-;-;-;-
1514175704863;-;-;8.977554;-0.41160583;-2.1181793;-;-;-;-;-;-;-;-;-;-;-;-;-;-;-
1514175704883;-;-;8.965576;-0.40682983;-2.1505127;-;-;-;-;-;-;-;-;-;-;-;-;-;-;-
1514175704904;-;-;8.985931;-0.3589325;-2.1026306;-;-;-;-;-;-;-;-;-;-;-;-;-;-;-
1514175704924;-;-;9.0182495;-0.36253357;-2.0547333;-;-;-;-;-;-;-;-;-;-;-;-;-;-;-
1514175704944;-;-;8.985931;-0.40682983;-2.1098022;-;-;-;-;-;-;-;-;-;-;-;-;-;-;-
1514175704965;-;-;8.984726;-0.38526917;-2.093048;-;-;-;-;-;-;-;-;-;-;-;-;-;-;-
1514175704985;-;-;8.973953;-0.41160583;-2.0272064;-;-;-;-;-;-;-;-;-;-;-;-;-;-;-
1514175705005;-;-;8.97995;-0.40203857;-2.012848;-;-;-;-;-;-;-;-;-;-;-;-;-;-;-
1514175705025;-;-;9.00029;-0.45350647;-2.045166;-;-;-;-;-;-;-;-;-;-;-;-;-;-;-
1514175705045;-;-;8.984726;-0.44033813;-2.084671;-;-;-;-;-;-;-;-;-;-;-;-;-;-;-
1514175705066;-;-;8.987122;-0.4092102;-2.1026306;-;-;-;-;-;-;-;-;-;-;-;-;-;-;-
1514175705086;-;-;8.985931;-0.37449646;-2.0738983;-;-;-;-;-;-;-;-;-;-;-;-;-;-;-
1514175705106;-;-;8.987122;-0.4056244;-2.0786743;-;-;-;-;-;-;-;-;-;-;-;-;-;-;-
1514175705127;-;-;8.97995;-0.3577423;-2.0858612;-;-;-;-;-;-;-;-;-;-;-;-;-;-;-
1514175705147;-;-;8.955994;-0.3433838;-2.0774841;-;-;-;-;-;-;-;-;-;-;-;-;-;-;-
1514175705167;-;-;9.005081;-0.40083313;-2.1145935;-;-;-;-;-;-;-;-;-;-;-;-;-;-;-
1514175705188;-;-;8.966782;-0.43077087;-2.0511475;-;-;-;-;-;-;-;-;-;-;-;-;-;-;-
1514175705208;-;-;9.005081;-0.4259796;-2.1014252;-;-;-;-;-;-;-;-;-;-;-;-;-;-;-
1514175705228;-;-;9.006287;-0.37809753;-2.0786743;-;-;-;-;-;-;-;-;-;-;-;-;-;-;-
1514175705249;-;-;9.002686;-0.39964294;-2.0822754;-;-;-;-;-;-;-;-;-;-;-;-;-;-;-
1514175705269;-;-;9.014664;-0.39126587;-2.0918427;-;-;-;-;-;-;-;-;-;-;-;-;-;-;-
1514175705290;-;-;8.954803;-0.39006042;-2.1648712;-;-;-;-;-;-;-;-;-;-;-;-;-;-;-
1514175705309;-;-;8.967972;-0.36611938;-2.1924133;-;-;-;-;-;-;-;-;-;-;-;-;-;-;-
1514175705330;-;-;8.941635;-0.3577423;-2.163681;-;-;-;-;-;-;-;-;-;-;-;-;-;-;-
1514175705350;-;-;8.936844;-0.29190063;-2.132553;-;-;-;-;-;-;-;-;-;-;-;-;-;-;-
1514175705370;-;-;8.963181;-0.35653687;-2.1337433;-;-;-;-;-;-;-;-;-;-;-;-;-;-;-
1514175705391;-;-;8.976349;-0.3984375;-2.1062164;-;-;-;-;-;-;-;-;-;-;-;-;-;-;-
1514175705411;-;-;8.972763;-0.39006042;-2.120575;-;-;-;-;-;-;-;-;-;-;-;-;-;-;-
1514175705431;-;-;8.98114;-0.40083313;-2.151703;-;-;-;-;-;-;-;-;-;-;-;-;-;-;-
1514175705452;-;-;9.001495;-0.36732483;-2.1337433;-;-;-;-;-;-;-;-;-;-;-;-;-;-;-
1514175705472;-;-;9.007477;-0.35534668;-2.1253662;-;-;-;-;-;-;-;-;-;-;-;-;-;-;-
1514175705492;-;-;8.965576;-0.3433838;-2.1014252;-;-;-;-;-;-;-;-;-;-;-;-;-;-;-
1514175705512;-;-;8.984726;-0.32781982;-2.0978394;-;-;-;-;-;-;-;-;-;-;-;-;-;-;-
1514175705533;-;-;9.006287;-0.30148315;-2.093048;-;-;-;-;-;-;-;-;-;-;-;-;-;-;-
1514175705553;-;-;8.984726;-0.32781982;-2.1038208;-;-;-;-;-;-;-;-;-;-;-;-;-;-;-
1514175705573;-;-;8.958389;-0.32661438;-2.1349487;-;-;-;-;-;-;-;-;-;-;-;-;-;-;-
1514175705594;-;-;8.933258;-0.28112793;-2.1265717;-;-;-;-;-;-;-;-;-;-;-;-;-;-;-
1514175705614;-;-;8.951218;-0.3002777;-2.1277618;-;-;-;-;-;-;-;-;-;-;-;-;-;-;-
1514175705634;-;-;8.971558;-0.33738708;-2.0942383;-;-;-;-;-;-;-;-;-;-;-;-;-;-;-
1514175705654;-;-;8.965576;-0.32182312;-2.168457;-;-;-;-;-;-;-;-;-;-;-;-;-;-;-
1514175705675;-;-;8.958389;-0.33140564;-2.179245;-;-;-;-;-;-;-;-;-;-;-;-;-;-;-
1514175705695;-;-;8.96199;-0.3433838;-2.1229706;-;-;-;-;-;-;-;-;-;-;-;-;-;-;-
1514175705715;-;-;8.957199;-0.33499146;-2.1529083;-;-;-;-;-;-;-;-;-;-;-;-;-;-;-
1514175705736;-;-;8.98114;-0.37809753;-2.1385345;-;-;-;-;-;-;-;-;-;-;-;-;-;-;-
1514175705756;-;-;8.985931;-0.41760254;-2.128952;-;-;-;-;-;-;-;-;-;-;-;-;-;-;-
1514175705776;-;-;9.031418;-0.3589325;-2.1098022;-;-;-;-;-;-;-;-;-;-;-;-;-;-;-
1514175705797;-;-;8.989517;-0.37928772;-2.1265717;-;-;-;-;-;-;-;-;-;-;-;-;-;-;-
1514175705816;-;-;8.985931;-0.36132813;-2.1145935;-;-;-;-;-;-;-;-;-;-;-;-;-;-;-
1514175705836;-;-;8.98114;-0.38287354;-2.1169891;-;-;-;-;-;-;-;-;-;-;-;-;-;-;-
1514175705856;-;-;8.951218;-0.35534668;-2.1026306;-;-;-;-;-;-;-;-;-;-;-;-;-;-;-
1514175705877;-;-;8.964386;-0.3768921;-2.1038208;-;-;-;-;-;-;-;-;-;-;-;-;-;-;-
1514175705897;-;-;8.963181;-0.3768921;-2.105011;-;-;-;-;-;-;-;-;-;-;-;-;-;-;-
1514175705917;-;-;8.957199;-0.368515;-2.1301575;-;-;-;-;-;-;-;-;-;-;-;-;-;-;-
1514175705938;-;-;8.993118;-0.4092102;-2.1421204;-;-;-;-;-;-;-;-;-;-;-;-;-;-;-
1514175705958;-;-;9.009872;-0.42358398;-2.148117;-;-;-;-;-;-;-;-;-;-;-;-;-;-;-
1514175705978;-;-;9.021835;-0.38049316;-2.1505127;-;-;-;-;-;-;-;-;-;-;-;-;-;-;-
1514175705998;-;-;9.035004;-0.38049316;-2.175644;-;-;-;-;-;-;-;-;-;-;-;-;-;-;-
1514175706019;-;-;8.996704;-0.38407898;-2.1145935;-;-;-;-;-;-;-;-;-;-;-;-;-;-;-
1514175706039;-;-;8.98233;-0.37210083;-2.128952;-;-;-;-;-;-;-;-;-;-;-;-;-;-;-
1514175706059;-;-;8.934448;-0.30148315;-2.1313477;-;-;-;-;-;-;-;-;-;-;-;-;-;-;-
1514175706080;-;-;8.929672;-0.24641418;-2.1301575;-;-;-;-;-;-;-;-;-;-;-;-;-;-;-
1514175706100;-;-;8.975159;-0.29788208;-2.168457;-;-;-;-;-;-;-;-;-;-;-;-;-;-;-
1514175706120;-;-;8.9991;-0.2787323;-2.1612854;-;-;-;-;-;-;-;-;-;-;-;-;-;-;-
1514175706141;-;-;9.012268;-0.33259583;-2.179245;-;-;-;-;-;-;-;-;-;-;-;-;-;-;-
1514175706160;-;-;8.985931;-0.32182312;-2.1936035;-;-;-;-;-;-;-;-;-;-;-;-;-;-;-
1514175706180;-;-;8.994308;-0.30387878;-2.1349487;-;-;-;-;-;-;-;-;-;-;-;-;-;-;-
1514175706200;-;-;9.005081;-0.33259583;-2.1493073;-;-;-;-;-;-;-;-;-;-;-;-;-;-;-
1514175706221;-;-;8.991913;-0.37210083;-2.1588898;-;-;-;-;-;-;-;-;-;-;-;-;-;-;-
1514175706241;-;-;8.975159;-0.3194275;-2.207962;-;-;-;-;-;-;-;-;-;-;-;-;-;-;-
1514175706261;-;-;8.989517;-0.30148315;-2.191208;-;-;-;-;-;-;-;-;-;-;-;-;-;-;-
1514175706282;-;-;9.007477;-0.29908752;-2.1648712;-;-;-;-;-;-;-;-;-;-;-;-;-;-;-
1514175706302;-;-;9.009872;-0.33021545;-2.136139;-;-;-;-;-;-;-;-;-;-;-;-;-;-;-
1514175706322;-;-;8.969162;-0.35055542;-2.1493073;-;-;-;-;-;-;-;-;-;-;-;-;-;-;-
1514175706343;-;-;8.98233;-0.32182312;-2.1469116;-;-;-;-;-;-;-;-;-;-;-;-;-;-;-
1514175706363;-;-;8.955994;-0.38887024;-2.1301575;-;-;-;-;-;-;-;-;-;-;-;-;-;-;-
1514175706383;-;-;8.970367;-0.39245605;-2.1193848;-;-;-;-;-;-;-;-;-;-;-;-;-;-;-
1514175706404;-;-;8.954803;-0.4379425;-2.0798798;-;-;-;-;-;-;-;-;-;-;-;-;-;-;-
1514175706424;-;-;8.991913;-0.4271698;-2.1301575;-;-;-;-;-;-;-;-;-;-;-;-;-;-;-
1514175706444;-;-;8.936844;-0.43077087;-2.08107;-;-;-;-;-;-;-;-;-;-;-;-;-;-;-
1514175706465;-;-;9.008667;-0.37449646;-2.1074066;-;-;-;-;-;-;-;-;-;-;-;-;-;-;-
1514175706485;-;-;8.976349;-0.37809753;-2.1505127;-;-;-;-;-;-;-;-;-;-;-;-;-;-;-
1514175706505;-;-;9.003891;-0.40203857;-2.1409302;-;-;-;-;-;-;-;-;-;-;-;-;-;-;-
1514175706525;-;-;8.975159;-0.43315125;-2.1169891;-;-;-;-;-;-;-;-;-;-;-;-;-;-;-
1514175706546;-;-;8.993118;-0.3876648;-2.0738983;-;-;-;-;-;-;-;-;-;-;-;-;-;-;-
1514175706566;-;-;8.98233;-0.4259796;-2.069107;-;-;-;-;-;-;-;-;-;-;-;-;-;-;-
1514175706586;-;-;8.970367;-0.41999817;-2.1301575;-;-;-;-;-;-;-;-;-;-;-;-;-;-;-
1514175706607;-;-;8.967972;-0.42477417;-2.0906525;-;-;-;-;-;-;-;-;-;-;-;-;-;-;-
1514175706627;-;-;8.988327;-0.4044342;-2.1062164;-;-;-;-;-;-;-;-;-;-;-;-;-;-;-
1514175706647;-;-;8.969162;-0.42237854;-2.084671;-;-;-;-;-;-;-;-;-;-;-;-;-;-;-
1514175706667;-;-;8.973953;-0.4044342;-2.1493073;-;-;-;-;-;-;-;-;-;-;-;-;-;-;-
1514175706688;-;-;8.997894;-0.40682983;-2.1337433;-;-;-;-;-;-;-;-;-;-;-;-;-;-;-
1514175706708;-;-;8.98114;-0.3972473;-2.148117;-;-;-;-;-;-;-;-;-;-;-;-;-;-;-
1514175706728;-;-;8.971558;-0.40322876;-2.1337433;-;-;-;-;-;-;-;-;-;-;-;-;-;-;-
1514175706748;-;-;8.971558;-0.38526917;-2.128952;-;-;-;-;-;-;-;-;-;-;-;-;-;-;-
1514175706769;-;-;8.97995;-0.36611938;-2.100235;-;-;-;-;-;-;-;-;-;-;-;-;-;-;-
1514175706789;-;-;8.957199;-0.38887024;-2.1038208;-;-;-;-;-;-;-;-;-;-;-;-;-;-;-
1514175706810;-;-;8.977554;-0.39006042;-2.06073;-;-;-;-;-;-;-;-;-;-;-;-;-;-;-
1514175706830;-;-;8.994308;-0.38887024;-2.0954437;-;-;-;-;-;-;-;-;-;-;-;-;-;-;-
1514175706850;-;-;9.012268;-0.42237854;-2.1277618;-;-;-;-;-;-;-;-;-;-;-;-;-;-;-
1514175706870;-;-;8.98114;-0.4259796;-2.1121979;-;-;-;-;-;-;-;-;-;-;-;-;-;-;-
1514175706890;-;-;8.983536;-0.39604187;-2.014038;-;-;-;-;-;-;-;-;-;-;-;-;-;-;-
1514175706911;-;-;8.994308;-0.35534668;-2.0798798;-;-;-;-;-;-;-;-;-;-;-;-;-;-;-
1514175706931;-;-;8.9787445;-0.39126587;-2.124176;-;-;-;-;-;-;-;-;-;-;-;-;-;-;-
1514175706951;-;-;8.985931;-0.3481598;-2.1564941;-;-;-;-;-;-;-;-;-;-;-;-;-;-;-
1514175706972;-;-;8.969162;-0.31344604;-2.144516;-;-;-;-;-;-;-;-;-;-;-;-;-;-;-
1514175706992;-;-;8.970367;-0.32901;-2.093048;-;-;-;-;-;-;-;-;-;-;-;-;-;-;-
1514175707012;-;-;8.955994;-0.3433838;-2.0487518;-;-;-;-;-;-;-;-;-;-;-;-;-;-;-
1514175707033;-;-;8.988327;-0.35653687;-2.0822754;-;-;-;-;-;-;-;-;-;-;-;-;-;-;-
1514175707053;-;-;8.983536;-0.34098816;-2.1026306;-;-;-;-;-;-;-;-;-;-;-;-;-;-;-
1514175707073;-;-;8.985931;-0.37210083;-2.0918427;-;-;-;-;-;-;-;-;-;-;-;-;-;-;-
1514175707094;-;-;9.006287;-0.40203857;-2.0715027;-;-;-;-;-;-;-;-;-;-;-;-;-;-;-
1514175707114;-;-;8.977554;-0.42837524;-2.0679016;-;-;-;-;-;-;-;-;-;-;-;-;-;-;-
1514175707134;-;-;9.00029;-0.3864746;-2.0643158;-;-;-;-;-;-;-;-;-;-;-;-;-;-;-
1514175707155;-;-;9.006287;-0.368515;-2.0379791;-;-;-;-;-;-;-;-;-;-;-;-;-;-;-
1514175707175;-;-;9.024231;-0.38168335;-2.100235;-;-;-;-;-;-;-;-;-;-;-;-;-;-;-
1514175707195;-;-;8.993118;-0.38049316;-2.08107;-;-;-;-;-;-;-;-;-;-;-;-;-;-;-
1514175707215;-;-;8.973953;-0.38168335;-2.093048;-;-;-;-;-;-;-;-;-;-;-;-;-;-;-
1514175707236;-;-;8.987122;-0.43077087;-2.0511475;-;-;-;-;-;-;-;-;-;-;-;-;-;-;-
1514175707256;-;-;8.996704;-0.45350647;-2.0667114;-;-;-;-;-;-;-;-;-;-;-;-;-;-;-
1514175707276;-;-;9.014664;-0.4451294;-2.0248108;-;-;-;-;-;-;-;-;-;-;-;-;-;-;-
1514175707297;-;-;8.997894;-0.4547119;-2.0487518;-;-;-;-;-;-;-;-;-;-;-;-;-;-;-
1514175707317;-;-;9.005081;-0.44992065;-2.0523376;-;-;-;-;-;-;-;-;-;-;-;-;-;-;-
1514175707337;-;-;9.006287;-0.47984314;-2.0475616;-;-;-;-;-;-;-;-;-;-;-;-;-;-;-
1514175707357;-;-;9.00029;-0.4559021;-2.0619202;-;-;-;-;-;-;-;-;-;-;-;-;-;-;-
1514175707378;-;-;9.00029;-0.43077087;-2.0427704;-;-;-;-;-;-;-;-;-;-;-;-;-;-;-
1514175707398;-;-;9.024231;-0.39964294;-2.0870667;-;-;-;-;-;-;-;-;-;-;-;-;-;-;-
1514175707418;-;-;9.033813;-0.3936615;-2.0463562;-;-;-;-;-;-;-;-;-;-;-;-;-;-;-
1514175707439;-;-;8.966782;-0.41041565;-2.057129;-;-;-;-;-;-;-;-;-;-;-;-;-;-;-
1514175707459;-;-;8.991913;-0.38407898;-2.0523376;-;-;-;-;-;-;-;-;-;-;-;-;-;-;-
1514175707479;-;-;8.984726;-0.38168335;-2.08107;-;-;-;-;-;-;-;-;-;-;-;-;-;-;-
1514175707500;-;-;8.9787445;-0.39604187;-2.0822754;-;-;-;-;-;-;-;-;-;-;-;-;-;-;-
1514175707520;-;-;8.964386;-0.35176086;-2.100235;-;-;-;-;-;-;-;-;-;-;-;-;-;-;-
1514175707540;-;-;8.959595;-0.36372375;-2.0547333;-;-;-;-;-;-;-;-;-;-;-;-;-;-;-
1514175707561;-;-;8.983536;-0.3768921;-2.0702972;-;-;-;-;-;-;-;-;-;-;-;-;-;-;-
1514175707581;-;-;9.020645;-0.37449646;-2.0798798;-;-;-;-;-;-;-;-;-;-;-;-;-;-;-
1514175707601;-;-;8.977554;-0.37809753;-2.0619202;-;-;-;-;-;-;-;-;-;-;-;-;-;-;-
1514175707622;-;-;8.98114;-0.37330627;-2.06073;-;-;-;-;-;-;-;-;-;-;-;-;-;-;-
1514175707642;-;-;8.960785;-0.3469696;-2.0858612;-;-;-;-;-;-;-;-;-;-;-;-;-;-;-
1514175707662;-;-;8.958389;-0.3182373;-2.1457214;-;-;-;-;-;-;-;-;-;-;-;-;-;-;-
1514175707682;-;-;8.988327;-0.3254242;-2.148117;-;-;-;-;-;-;-;-;-;-;-;-;-;-;-
1514175707703;-;-;9.012268;-0.30625916;-2.100235;-;-;-;-;-;-;-;-;-;-;-;-;-;-;-
1514175707723;-;-;9.039795;-0.35176086;-2.0439606;-;-;-;-;-;-;-;-;-;-;-;-;-;-;-
1514175707743;-;-;9.029022;-0.33859253;-2.06073;-;-;-;-;-;-;-;-;-;-;-;-;-;-;-
1514175707764;-;-;8.996704;-0.36132813;-2.1134033;-;-;-;-;-;-;-;-;-;-;-;-;-;-;-
1514175707784;-;-;8.985931;-0.36132813;-2.0894623;-;-;-;-;-;-;-;-;-;-;-;-;-;-;-
1514175707804;-;-;8.990723;-0.34936523;-2.053543;-;-;-;-;-;-;-;-;-;-;-;-;-;-;-
1514175707825;-;-;8.988327;-0.39245605;-2.0702972;-;-;-;-;-;-;-;-;-;-;-;-;-;-;-
