TimeStamp[ms];Prox[Cm];Lux[lux];AccX[m/s^2];AccY[m/s^2];AccZ[m/s^2];GyroX[rad/s];GyroY[rad/s];GyroZ[rad/s];MagnX[uT];MagnY[uT];MagnZ[uT];OrienYaw[degrees];OrienPitch[degrees];OrienRoll[degrees];Press[Pa];Temp[C°];Batt[%];Lat;Lng;Speed[m/s]
1514110917442;-;-;8.4448395;-1.2005005;3.1993408;-;-;-;-;-;-;-;-;-;-;-;-;-;-;-
1514110917444;-;-;8.4448395;-1.2005005;3.1993408;-;-;-;-;-;-;-;-;-;-;-;-;-;-;-
1514110917465;-;-;7.3028107;-0.40802002;3.003006;-;-;-;-;-;-;-;-;-;-;-;-;-;-;-
1514110917485;-;-;8.4687805;-1.2878876;3.8110504;-;-;-;-;-;-;-;-;-;-;-;-;-;-;-
1514110917505;-;-;8.088104;-1.6218872;2.5912018;-;-;-;-;-;-;-;-;-;-;-;-;-;-;-
1514110917525;-;-;8.264084;-0.5600586;2.9228058;-;-;-;-;-;-;-;-;-;-;-;-;-;-;-
1514110917546;-;-;8.967972;-0.0069885254;2.02977;-;-;-;-;-;-;-;-;-;-;-;-;-;-;-
1514110917566;-;-;8.32872;0.6466217;2.1734161;-;-;-;-;-;-;-;-;-;-;-;-;-;-;-
1514110917586;-;-;9.364212;-0.38526917;1.9711151;-;-;-;-;-;-;-;-;-;-;-;-;-;-;-
1514110917607;-;-;8.662704;-0.17459106;1.4431915;-;-;-;-;-;-;-;-;-;-;-;-;-;-;-
1514110917627;-;-;7.779251;-0.026138306;1.9364014;-;-;-;-;-;-;-;-;-;-;-;-;-;-;-
1514110917647;-;-;7.6763;-0.3361969;1.8071136;-;-;-;-;-;-;-;-;-;-;-;-;-;-;-
1514110917668;-;-;8.643555;-0.11592102;1.607193;-;-;-;-;-;-;-;-;-;-;-;-;-;-;-
1514110917696;-;-;9.438431;0.4371338;0.64711;-;-;-;-;-;-;-;-;-;-;-;-;-;-;-
1514110917709;-;-;10.538574;0.927948;0.765625;-;-;-;-;-;-;-;-;-;-;-;-;-;-;-
1514110917729;-;-;11.253235;1.3409424;1.0086365;-;-;-;-;-;-;-;-;-;-;-;-;-;-;-
1514110917750;-;-;10.890518;1.2763062;1.0984192;-;-;-;-;-;-;-;-;-;-;-;-;-;-;-
1514110917769;-;-;9.910095;0.6238861;1.2899628;-;-;-;-;-;-;-;-;-;-;-;-;-;-;-
1514110917790;-;-;8.378998;0.072021484;1.8095093;-;-;-;-;-;-;-;-;-;-;-;-;-;-;-
1514110917811;-;-;9.074509;-0.30267334;2.0429382;-;-;-;-;-;-;-;-;-;-;-;-;-;-;-
1514110917831;-;-;9.161896;-0.34098816;1.8298492;-;-;-;-;-;-;-;-;-;-;-;-;-;-;-
1514110917851;-;-;9.294785;0.0037841797;1.3964996;-;-;-;-;-;-;-;-;-;-;-;-;-;-;-
1514110917872;-;-;9.570114;0.4945984;0.8087311;-;-;-;-;-;-;-;-;-;-;-;-;-;-;-
1514110917892;-;-;10.112396;0.67056274;1.2492523;-;-;-;-;-;-;-;-;-;-;-;-;-;-;-
1514110917913;-;-;9.604828;0.83576965;1.236084;-;-;-;-;-;-;-;-;-;-;-;-;-;-;-
1514110917933;-;-;9.248093;1.1434174;0.6279602;-;-;-;-;-;-;-;-;-;-;-;-;-;-;-
1514110917953;-;-;7.173523;1.2272186;1.4455872;-;-;-;-;-;-;-;-;-;-;-;-;-;-;-
1514110917974;-;-;8.278442;1.2128601;1.1056061;-;-;-;-;-;-;-;-;-;-;-;-;-;-;-
1514110917994;-;-;8.258087;0.9937897;1.8502045;-;-;-;-;-;-;-;-;-;-;-;-;-;-;-
1514110918014;-;-;8.812347;0.7112732;1.6036072;-;-;-;-;-;-;-;-;-;-;-;-;-;-;-
1514110918035;-;-;8.58371;0.6059265;1.0565186;-;-;-;-;-;-;-;-;-;-;-;-;-;-;-
1514110918055;-;-;8.622009;1.0057526;0.9104767;-;-;-;-;-;-;-;-;-;-;-;-;-;-;-
1514110918075;-;-;9.274429;1.3158112;1.0086365;-;-;-;-;-;-;-;-;-;-;-;-;-;-;-
1514110918095;-;-;8.106064;1.1865234;1.5425415;-;-;-;-;-;-;-;-;-;-;-;-;-;-;-
1514110918116;-;-;7.2836456;0.46705627;0.7943573;-;-;-;-;-;-;-;-;-;-;-;-;-;-;-
1514110918136;-;-;8.46759;1.169754;0.36819458;-;-;-;-;-;-;-;-;-;-;-;-;-;-;-
1514110918156;-;-;8.934448;0.84654236;-0.9079132;-;-;-;-;-;-;-;-;-;-;-;-;-;-;-
1514110918176;-;-;7.3854065;1.2751007;-1.4154816;-;-;-;-;-;-;-;-;-;-;-;-;-;-;-
1514110918197;-;-;11.208939;-3.0583954;-1.5423737;-;-;-;-;-;-;-;-;-;-;-;-;-;-;-
1514110918217;-;-;6.8790283;-2.269516;-1.3005676;-;-;-;-;-;-;-;-;-;-;-;-;-;-;-
1514110918237;-;-;12.1367035;-1.0089569;-1.6094208;-;-;-;-;-;-;-;-;-;-;-;-;-;-;-
1514110918258;-;-;14.3190155;-2.1629639;-0.5068817;-;-;-;-;-;-;-;-;-;-;-;-;-;-;-
1514110918278;-;-;9.361816;-3.0655823;-1.7470856;-;-;-;-;-;-;-;-;-;-;-;-;-;-;-
1514110918298;-;-;8.831497;-2.281479;-2.614975;-;-;-;-;-;-;-;-;-;-;-;-;-;-;-
1514110918319;-;-;8.359848;-0.41400146;-2.3647919;-;-;-;-;-;-;-;-;-;-;-;-;-;-;-
1514110918338;-;-;8.274857;-0.9072113;-2.717926;-;-;-;-;-;-;-;-;-;-;-;-;-;-;-
1514110918358;-;-;8.26767;-0.463089;-2.0152283;-;-;-;-;-;-;-;-;-;-;-;-;-;-;-
1514110918379;-;-;8.745316;0.052871704;-0.7271576;-;-;-;-;-;-;-;-;-;-;-;-;-;-;-
1514110918398;-;-;9.187042;-0.55166626;0.3215027;-;-;-;-;-;-;-;-;-;-;-;-;-;-;-
1514110918418;-;-;8.748901;-1.111908;0.1826477;-;-;-;-;-;-;-;-;-;-;-;-;-;-;-
1514110918438;-;-;7.8079834;-0.8533478;-0.5392151;-;-;-;-;-;-;-;-;-;-;-;-;-;-;-
1514110918459;-;-;9.336685;-2.6154785;0.55374146;-;-;-;-;-;-;-;-;-;-;-;-;-;-;-
1514110918479;-;-;7.6020813;-1.4626617;-1.5184326;-;-;-;-;-;-;-;-;-;-;-;-;-;-;-
1514110918499;-;-;7.1531677;-3.7383575;0.3789673;-;-;-;-;-;-;-;-;-;-;-;-;-;-;-
1514110918520;-;-;9.420471;-4.2447205;-1.9194641;-;-;-;-;-;-;-;-;-;-;-;-;-;-;-
1514110918540;-;-;10.347031;-0.32781982;-0.6804657;-;-;-;-;-;-;-;-;-;-;-;-;-;-;-
1514110918560;-;-;7.763687;0.35812378;-1.1676941;-;-;-;-;-;-;-;-;-;-;-;-;-;-;-
1514110918581;-;-;9.196625;0.4359436;-1.3903503;-;-;-;-;-;-;-;-;-;-;-;-;-;-;-
1514110918601;-;-;8.976349;0.2803192;-2.065506;-;-;-;-;-;-;-;-;-;-;-;-;-;-;-
1514110918621;-;-;8.96199;-0.10635376;-1.8619995;-;-;-;-;-;-;-;-;-;-;-;-;-;-;-
1514110918641;-;-;9.341461;0.026535034;-1.7578583;-;-;-;-;-;-;-;-;-;-;-;-;-;-;-
1514110918662;-;-;9.69342;0.16539001;-1.0922699;-;-;-;-;-;-;-;-;-;-;-;-;-;-;-
1514110918682;-;-;9.574905;0.08758545;-0.28303528;-;-;-;-;-;-;-;-;-;-;-;-;-;-;-
1514110918702;-;-;9.15712;-0.88446045;-0.018478394;-;-;-;-;-;-;-;-;-;-;-;-;-;-;-
1514110918722;-;-;8.850662;-1.6266632;-0.35365295;-;-;-;-;-;-;-;-;-;-;-;-;-;-;-
1514110918742;-;-;9.261261;-2.5137177;-2.9238281;-;-;-;-;-;-;-;-;-;-;-;-;-;-;-
1514110918763;-;-;11.471115;-2.4059753;-3.7462463;-;-;-;-;-;-;-;-;-;-;-;-;-;-;-
1514110918783;-;-;12.397659;-1.5045624;-2.5048523;-;-;-;-;-;-;-;-;-;-;-;-;-;-;-
1514110918804;-;-;10.42485;-0.3757019;-3.0279846;-;-;-;-;-;-;-;-;-;-;-;-;-;-;-
1514110918824;-;-;7.343506;0.7615509;-3.8863068;-;-;-;-;-;-;-;-;-;-;-;-;-;-;-
1514110918844;-;-;5.090561;2.1873016;-3.3883057;-;-;-;-;-;-;-;-;-;-;-;-;-;-;-
1514110918865;-;-;5.8806458;2.7870483;-0.46977234;-;-;-;-;-;-;-;-;-;-;-;-;-;-;-
1514110918885;-;-;9.79277;1.3062286;-0.5428009;-;-;-;-;-;-;-;-;-;-;-;-;-;-;-
1514110918905;-;-;12.8884735;-1.6278687;-2.5120392;-;-;-;-;-;-;-;-;-;-;-;-;-;-;-
1514110918926;-;-;14.959457;-3.0619965;-3.1249542;-;-;-;-;-;-;-;-;-;-;-;-;-;-;-
1514110918946;-;-;12.887283;-1.803833;-3.2602234;-;-;-;-;-;-;-;-;-;-;-;-;-;-;-
1514110918967;-;-;9.312744;-0.5899811;-2.342041;-;-;-;-;-;-;-;-;-;-;-;-;-;-;-
1514110918986;-;-;5.750168;0.12588501;-0.7702484;-;-;-;-;-;-;-;-;-;-;-;-;-;-;-
1514110919006;-;-;3.0973969;0.2348175;0.80033875;-;-;-;-;-;-;-;-;-;-;-;-;-;-;-
1514110919027;-;-;2.1217499;0.18334961;1.6443024;-;-;-;-;-;-;-;-;-;-;-;-;-;-;-
1514110919047;-;-;3.5187683;0.2743225;1.5533295;-;-;-;-;-;-;-;-;-;-;-;-;-;-;-
1514110919067;-;-;5.726227;-0.4954071;0.3203125;-;-;-;-;-;-;-;-;-;-;-;-;-;-;-
1514110919087;-;-;8.156342;-1.4746399;-0.2674713;-;-;-;-;-;-;-;-;-;-;-;-;-;-;-
1514110919108;-;-;10.184219;-2.1785278;-0.11424255;-;-;-;-;-;-;-;-;-;-;-;-;-;-;-
1514110919128;-;-;11.581238;-1.5739899;-0.46618652;-;-;-;-;-;-;-;-;-;-;-;-;-;-;-
1514110919148;-;-;10.503845;-0.38049316;-0.73194885;-;-;-;-;-;-;-;-;-;-;-;-;-;-;-
1514110919169;-;-;8.168304;-0.016571045;-0.49371338;-;-;-;-;-;-;-;-;-;-;-;-;-;-;-
1514110919190;-;-;6.5785522;-0.021362305;0.10961914;-;-;-;-;-;-;-;-;-;-;-;-;-;-;-
1514110919210;-;-;6.9795837;1.1889191;-0.4446411;-;-;-;-;-;-;-;-;-;-;-;-;-;-;-
1514110919230;-;-;8.402939;2.7164154;-1.3388672;-;-;-;-;-;-;-;-;-;-;-;-;-;-;-
1514110919251;-;-;9.911285;3.6309967;-2.3935242;-;-;-;-;-;-;-;-;-;-;-;-;-;-;-
1514110919271;-;-;10.842636;2.8468933;-3.080658;-;-;-;-;-;-;-;-;-;-;-;-;-;-;-
1514110919291;-;-;9.8645935;1.5025482;-3.7737732;-;-;-;-;-;-;-;-;-;-;-;-;-;-;-
1514110919312;-;-;6.636017;-0.41760254;-4.5578766;-;-;-;-;-;-;-;-;-;-;-;-;-;-;-
1514110919332;-;-;4.660797;-2.7531433;-4.4944305;-;-;-;-;-;-;-;-;-;-;-;-;-;-;-
1514110919352;-;-;5.2425995;-5.298172;-3.1069946;-;-;-;-;-;-;-;-;-;-;-;-;-;-;-
1514110919372;-;-;9.783203;-4.235153;-1.3723907;-;-;-;-;-;-;-;-;-;-;-;-;-;-;-
1514110919393;-;-;12.604767;-0.34098816;-0.16810608;-;-;-;-;-;-;-;-;-;-;-;-;-;-;-
1514110919413;-;-;13.652222;1.3900299;-3.116562;-;-;-;-;-;-;-;-;-;-;-;-;-;-;-
1514110919433;-;-;18.233536;0.33776855;-2.3875275;-;-;-;-;-;-;-;-;-;-;-;-;-;-;-
1514110919453;-;-;20.461334;-3.2451477;-1.6405487;-;-;-;-;-;-;-;-;-;-;-;-;-;-;-
1514110919473;-;-;20.997635;-4.096283;0.5513458;-;-;-;-;-;-;-;-;-;-;-;-;-;-;-
1514110919494;-;-;12.189377;-2.7459564;1.0134277;-;-;-;-;-;-;-;-;-;-;-;-;-;-;-
1514110919513;-;-;6.6467896;-3.103897;0.8422394;-;-;-;-;-;-;-;-;-;-;-;-;-;-;-
1514110919534;-;-;3.1273193;-3.5180817;0.29637146;-;-;-;-;-;-;-;-;-;-;-;-;-;-;-
1514110919554;-;-;2.7179108;-2.1916962;-0.23036194;-;-;-;-;-;-;-;-;-;-;-;-;-;-;-
1514110919574;-;-;4.6727753;-0.53730774;-0.79418945;-;-;-;-;-;-;-;-;-;-;-;-;-;-;-
1514110919594;-;-;6.5630035;0.88246155;-1.8859406;-;-;-;-;-;-;-;-;-;-;-;-;-;-;-
1514110919615;-;-;7.9839478;2.2279968;-2.2067719;-;-;-;-;-;-;-;-;-;-;-;-;-;-;-
1514110919635;-;-;7.7062225;2.706833;-1.9015045;-;-;-;-;-;-;-;-;-;-;-;-;-;-;-
1514110919655;-;-;6.640808;1.398407;-1.061142;-;-;-;-;-;-;-;-;-;-;-;-;-;-;-
1514110919676;-;-;5.8411407;-0.41041565;-0.6613159;-;-;-;-;-;-;-;-;-;-;-;-;-;-;-
1514110919696;-;-;6.205063;-2.1809235;-0.4063263;-;-;-;-;-;-;-;-;-;-;-;-;-;-;-
1514110919717;-;-;6.9233246;-3.5133057;0.37417603;-;-;-;-;-;-;-;-;-;-;-;-;-;-;-
1514110919737;-;-;6.7617188;-3.320572;0.29516602;-;-;-;-;-;-;-;-;-;-;-;-;-;-;-
1514110919757;-;-;7.59729;-2.554428;-0.31654358;-;-;-;-;-;-;-;-;-;-;-;-;-;-;-
1514110919778;-;-;9.240906;-1.7918701;-0.054382324;-;-;-;-;-;-;-;-;-;-;-;-;-;-;-
1514110919798;-;-;9.698196;-1.2471924;-1.0886841;-;-;-;-;-;-;-;-;-;-;-;-;-;-;-
1514110919818;-;-;7.6152496;0.42277527;-4.492035;-;-;-;-;-;-;-;-;-;-;-;-;-;-;-
1514110919838;-;-;7.3231506;2.746338;-7.658371;-;-;-;-;-;-;-;-;-;-;-;-;-;-;-
1514110919859;-;-;11.681793;5.8875275;-2.7478638;-;-;-;-;-;-;-;-;-;-;-;-;-;-;-
1514110919879;-;-;16.668915;5.4769287;0.30474854;-;-;-;-;-;-;-;-;-;-;-;-;-;-;-
1514110919899;-;-;20.438599;-0.38526917;-3.5894165;-;-;-;-;-;-;-;-;-;-;-;-;-;-;-
1514110919919;-;-;22.54309;-0.107543945;-4.1772003;-;-;-;-;-;-;-;-;-;-;-;-;-;-;-
1514110919940;-;-;17.332123;0.2886963;-4.464508;-;-;-;-;-;-;-;-;-;-;-;-;-;-;-
1514110919960;-;-;13.066849;-1.1789551;-0.35006714;-;-;-;-;-;-;-;-;-;-;-;-;-;-;-
1514110919980;-;-;7.750519;-1.0137482;0.5776825;-;-;-;-;-;-;-;-;-;-;-;-;-;-;-
1514110920001;-;-;3.6767883;-0.68455505;0.7177429;-;-;-;-;-;-;-;-;-;-;-;-;-;-;-
1514110920021;-;-;1.1437225;-0.20690918;0.5860596;-;-;-;-;-;-;-;-;-;-;-;-;-;-;-
1514110920042;-;-;1.4908752;0.02772522;0.8625946;-;-;-;-;-;-;-;-;-;-;-;-;-;-;-
1514110920062;-;-;3.8934631;-0.107543945;0.8506317;-;-;-;-;-;-;-;-;-;-;-;-;-;-;-
1514110920082;-;-;6.8670654;-0.24880981;0.10961914;-;-;-;-;-;-;-;-;-;-;-;-;-;-;-
1514110920102;-;-;7.6308136;-0.48942566;-0.3476715;-;-;-;-;-;-;-;-;-;-;-;-;-;-;-
1514110920123;-;-;7.83432;-0.92037964;-0.8540497;-;-;-;-;-;-;-;-;-;-;-;-;-;-;-
1514110920143;-;-;7.708618;-0.63427734;-0.84806824;-;-;-;-;-;-;-;-;-;-;-;-;-;-;-
1514110920163;-;-;7.252533;0.33657837;-0.40872192;-;-;-;-;-;-;-;-;-;-;-;-;-;-;-
1514110920184;-;-;7.3937836;1.3768616;-1.1844482;-;-;-;-;-;-;-;-;-;-;-;-;-;-;-
1514110920203;-;-;7.624832;2.0675812;-2.2893677;-;-;-;-;-;-;-;-;-;-;-;-;-;-;-
1514110920223;-;-;8.727356;3.4346771;-0.38598633;-;-;-;-;-;-;-;-;-;-;-;-;-;-;-
1514110920243;-;-;8.264084;3.0982819;-0.7522888;-;-;-;-;-;-;-;-;-;-;-;-;-;-;-
1514110920263;-;-;7.85347;2.7116241;-3.191986;-;-;-;-;-;-;-;-;-;-;-;-;-;-;-
1514110920284;-;-;6.980789;2.0101166;-2.7586365;-;-;-;-;-;-;-;-;-;-;-;-;-;-;-
1514110920303;-;-;6.4001923;0.59155273;-1.9446106;-;-;-;-;-;-;-;-;-;-;-;-;-;-;-
1514110920323;-;-;6.7605133;-2.0612183;-3.1548767;-;-;-;-;-;-;-;-;-;-;-;-;-;-;-
1514110920344;-;-;9.118805;-5.6752625;-2.3767548;-;-;-;-;-;-;-;-;-;-;-;-;-;-;-
1514110920364;-;-;13.806656;-8.616547;-2.017624;-;-;-;-;-;-;-;-;-;-;-;-;-;-;-
1514110920384;-;-;18.844055;-4.274658;-2.9812927;-;-;-;-;-;-;-;-;-;-;-;-;-;-;-
1514110920405;-;-;18.96257;2.4626312;-1.7327118;-;-;-;-;-;-;-;-;-;-;-;-;-;-;-
1514110920425;-;-;16.94905;-1.412384;-1.1509247;-;-;-;-;-;-;-;-;-;-;-;-;-;-;-
1514110920445;-;-;16.82814;-6.716736;-1.8117218;-;-;-;-;-;-;-;-;-;-;-;-;-;-;-
1514110920465;-;-;14.25676;-6.29776;-2.2893677;-;-;-;-;-;-;-;-;-;-;-;-;-;-;-
1514110920486;-;-;11.504623;-3.3696442;0.44360352;-;-;-;-;-;-;-;-;-;-;-;-;-;-;-
1514110920506;-;-;8.296402;-0.41760254;0.05934143;-;-;-;-;-;-;-;-;-;-;-;-;-;-;-
1514110920527;-;-;5.1635895;0.23602295;-0.58828735;-;-;-;-;-;-;-;-;-;-;-;-;-;-;-
1514110920547;-;-;2.9704895;0.32939148;-0.2962036;-;-;-;-;-;-;-;-;-;-;-;-;-;-;-
1514110920567;-;-;1.5878448;-0.19013977;-0.37998962;-;-;-;-;-;-;-;-;-;-;-;-;-;-;-
1514110920587;-;-;1.8200836;-1.2040863;-1.6381531;-;-;-;-;-;-;-;-;-;-;-;-;-;-;-
1514110920608;-;-;2.731079;-0.8270111;-1.7578583;-;-;-;-;-;-;-;-;-;-;-;-;-;-;-
1514110920628;-;-;3.8084717;-0.12669373;-1.5543518;-;-;-;-;-;-;-;-;-;-;-;-;-;-;-
1514110920649;-;-;5.450897;-0.088394165;-1.3209229;-;-;-;-;-;-;-;-;-;-;-;-;-;-;-
1514110920669;-;-;7.9157257;-0.62828064;-1.1629028;-;-;-;-;-;-;-;-;-;-;-;-;-;-;-
1514110920689;-;-;10.32428;-1.5835724;-0.80856323;-;-;-;-;-;-;-;-;-;-;-;-;-;-;-
1514110920709;-;-;10.78038;-2.6035004;0.15989685;-;-;-;-;-;-;-;-;-;-;-;-;-;-;-
1514110920730;-;-;10.584061;-3.000946;1.2348938;-;-;-;-;-;-;-;-;-;-;-;-;-;-;-
1514110920750;-;-;10.807922;-2.6729279;0.8482361;-;-;-;-;-;-;-;-;-;-;-;-;-;-;-
1514110920770;-;-;9.046982;-2.142624;-1.5735016;-;-;-;-;-;-;-;-;-;-;-;-;-;-;-
1514110920791;-;-;6.3666687;-1.6051178;-3.1788177;-;-;-;-;-;-;-;-;-;-;-;-;-;-;-
1514110920811;-;-;3.6815796;-0.39485168;-5.089386;-;-;-;-;-;-;-;-;-;-;-;-;-;-;-
1514110920832;-;-;3.6444702;1.5061493;-4.9098206;-;-;-;-;-;-;-;-;-;-;-;-;-;-;-
1514110920852;-;-;9.637146;4.310959;-1.3304901;-;-;-;-;-;-;-;-;-;-;-;-;-;-;-
1514110920873;-;-;16.31099;6.763809;-1.4310455;-;-;-;-;-;-;-;-;-;-;-;-;-;-;-
1514110920893;-;-;20.409866;-0.4666748;-5.525131;-;-;-;-;-;-;-;-;-;-;-;-;-;-;-
1514110920913;-;-;21.038345;-3.7144165;-3.6768036;-;-;-;-;-;-;-;-;-;-;-;-;-;-;-
1514110920933;-;-;15.089951;-1.5715942;-2.71315;-;-;-;-;-;-;-;-;-;-;-;-;-;-;-
1514110920953;-;-;12.984253;1.1206818;-2.5766754;-;-;-;-;-;-;-;-;-;-;-;-;-;-;-
1514110920974;-;-;9.872986;2.4255219;-1.219162;-;-;-;-;-;-;-;-;-;-;-;-;-;-;-
1514110920993;-;-;7.5625763;2.2698975;0.062927246;-;-;-;-;-;-;-;-;-;-;-;-;-;-;-
1514110921013;-;-;5.853119;1.6019135;6.866455E-4;-;-;-;-;-;-;-;-;-;-;-;-;-;-;-
1514110921034;-;-;5.011551;0.47424316;-0.24353027;-;-;-;-;-;-;-;-;-;-;-;-;-;-;-
1514110921053;-;-;5.0283203;-0.9479065;0.37657166;-;-;-;-;-;-;-;-;-;-;-;-;-;-;-
1514110921073;-;-;6.1679535;-1.827774;0.34544373;-;-;-;-;-;-;-;-;-;-;-;-;-;-;-
1514110921093;-;-;7.1687317;-0.9443207;-0.52005005;-;-;-;-;-;-;-;-;-;-;-;-;-;-;-
1514110921114;-;-;6.8287506;0.5664215;-1.0791016;-;-;-;-;-;-;-;-;-;-;-;-;-;-;-
1514110921134;-;-;6.7928467;0.6502228;-0.7056122;-;-;-;-;-;-;-;-;-;-;-;-;-;-;-
1514110921154;-;-;7.2716827;0.031311035;-0.30937195;-;-;-;-;-;-;-;-;-;-;-;-;-;-;-
1514110921175;-;-;7.466812;-0.63427734;0.1539154;-;-;-;-;-;-;-;-;-;-;-;-;-;-;-
1514110921195;-;-;9.390549;-0.35653687;0.36340332;-;-;-;-;-;-;-;-;-;-;-;-;-;-;-
1514110921215;-;-;9.085281;1.5540314;0.25926208;-;-;-;-;-;-;-;-;-;-;-;-;-;-;-
1514110921236;-;-;7.9205017;2.8672485;-1.0599518;-;-;-;-;-;-;-;-;-;-;-;-;-;-;-
1514110921256;-;-;7.5039215;1.492981;-2.8184967;-;-;-;-;-;-;-;-;-;-;-;-;-;-;-
1514110921276;-;-;7.3937836;0.24440002;-2.3851318;-;-;-;-;-;-;-;-;-;-;-;-;-;-;-
1514110921296;-;-;7.4129333;-0.11831665;-3.8156738;-;-;-;-;-;-;-;-;-;-;-;-;-;-;-
1514110921317;-;-;6.2984314;-1.5129395;-2.8148956;-;-;-;-;-;-;-;-;-;-;-;-;-;-;-
1514110921336;-;-;5.991974;-2.961441;-2.2618408;-;-;-;-;-;-;-;-;-;-;-;-;-;-;-
1514110921356;-;-;8.094086;-3.9622192;-1.8859406;-;-;-;-;-;-;-;-;-;-;-;-;-;-;-
1514110921377;-;-;11.211334;-3.6437836;-2.4066925;-;-;-;-;-;-;-;-;-;-;-;-;-;-;-
1514110921397;-;-;14.846939;-0.5899811;-4.1592407;-;-;-;-;-;-;-;-;-;-;-;-;-;-;-
1514110921417;-;-;17.266281;1.4594574;-4.11615;-;-;-;-;-;-;-;-;-;-;-;-;-;-;-
1514110921437;-;-;17.67569;-0.8880615;-1.6764526;-;-;-;-;-;-;-;-;-;-;-;-;-;-;-
1514110921457;-;-;16.295425;-4.278244;-1.3448639;-;-;-;-;-;-;-;-;-;-;-;-;-;-;-
1514110921478;-;-;13.821014;-4.0663605;-0.8684082;-;-;-;-;-;-;-;-;-;-;-;-;-;-;-
1514110921498;-;-;9.744888;-1.7080688;-1.282608;-;-;-;-;-;-;-;-;-;-;-;-;-;-;-
1514110921518;-;-;7.051407;0.15342712;-0.6194153;-;-;-;-;-;-;-;-;-;-;-;-;-;-;-
1514110921538;-;-;5.605316;0.78907776;0.006668091;-;-;-;-;-;-;-;-;-;-;-;-;-;-;-
1514110921559;-;-;5.4245605;0.45628357;0.55255127;-;-;-;-;-;-;-;-;-;-;-;-;-;-;-
1514110921579;-;-;5.6304474;-0.3086548;-0.27464294;-;-;-;-;-;-;-;-;-;-;-;-;-;-;-
1514110921599;-;-;5.707062;-0.50138855;-1.6369476;-;-;-;-;-;-;-;-;-;-;-;-;-;-;-
1514110921620;-;-;6.1907043;-0.17459106;-1.7889862;-;-;-;-;-;-;-;-;-;-;-;-;-;-;-
1514110921640;-;-;6.0566254;-0.3577423;-2.120575;-;-;-;-;-;-;-;-;-;-;-;-;-;-;-
1514110921660;-;-;6.0805664;-0.7444;-1.7973633;-;-;-;-;-;-;-;-;-;-;-;-;-;-;-
1514110921681;-;-;7.837906;-0.67855835;0.012649536;-;-;-;-;-;-;-;-;-;-;-;-;-;-;-
1514110921701;-;-;9.024231;-0.72406006;1.0708923;-;-;-;-;-;-;-;-;-;-;-;-;-;-;-
1514110921721;-;-;8.161133;-1.9917908;0.09046936;-;-;-;-;-;-;-;-;-;-;-;-;-;-;-
1514110921742;-;-;6.730591;-2.6753235;-1.6237793;-;-;-;-;-;-;-;-;-;-;-;-;-;-;-
1514110921762;-;-;5.7381897;-3.0991058;-2.7622223;-;-;-;-;-;-;-;-;-;-;-;-;-;-;-
1514110921782;-;-;4.940918;-1.5548401;-3.729477;-;-;-;-;-;-;-;-;-;-;-;-;-;-;-
1514110921803;-;-;5.6424255;0.6645813;-3.9533386;-;-;-;-;-;-;-;-;-;-;-;-;-;-;-
1514110921822;-;-;7.9779663;2.4841766;-2.9274292;-;-;-;-;-;-;-;-;-;-;-;-;-;-;-
1514110921842;-;-;12.712509;5.296173;-2.6413116;-;-;-;-;-;-;-;-;-;-;-;-;-;-;-
1514110921862;-;-;16.774261;4.15773;-2.614975;-;-;-;-;-;-;-;-;-;-;-;-;-;-;-
1514110921882;-;-;18.668076;-1.6745453;0.7644348;-;-;-;-;-;-;-;-;-;-;-;-;-;-;-
1514110921903;-;-;17.790604;-0.13867188;-7.8068085;-;-;-;-;-;-;-;-;-;-;-;-;-;-;-
1514110921923;-;-;19.09665;-0.3397827;-3.7223053;-;-;-;-;-;-;-;-;-;-;-;-;-;-;-
1514110921943;-;-;13.200928;-0.40802002;0.9966736;-;-;-;-;-;-;-;-;-;-;-;-;-;-;-
1514110921963;-;-;8.513077;0.43234253;0.8829498;-;-;-;-;-;-;-;-;-;-;-;-;-;-;-
1514110921984;-;-;5.351532;0.25637817;0.3310852;-;-;-;-;-;-;-;-;-;-;-;-;-;-;-
1514110922005;-;-;4.596161;-0.090789795;0.18623352;-;-;-;-;-;-;-;-;-;-;-;-;-;-;-
1514110922025;-;-;5.229431;0.009765625;-0.23275757;-;-;-;-;-;-;-;-;-;-;-;-;-;-;-
1514110922045;-;-;6.850296;0.07321167;-0.25549316;-;-;-;-;-;-;-;-;-;-;-;-;-;-;-
1514110922066;-;-;8.809952;-0.59117126;-0.5691376;-;-;-;-;-;-;-;-;-;-;-;-;-;-;-
1514110922085;-;-;8.859039;-1.1490326;-1.1605072;-;-;-;-;-;-;-;-;-;-;-;-;-;-;-
1514110922105;-;-;7.114853;-0.8712921;-2.8340454;-;-;-;-;-;-;-;-;-;-;-;-;-;-;-
1514110922126;-;-;7.2022552;-0.05368042;-0.8564453;-;-;-;-;-;-;-;-;-;-;-;-;-;-;-
1514110922145;-;-;9.147537;0.48980713;0.5573273;-;-;-;-;-;-;-;-;-;-;-;-;-;-;-
1514110922165;-;-;8.485535;1.7695007;-0.54878235;-;-;-;-;-;-;-;-;-;-;-;-;-;-;-
1514110922186;-;-;8.3107605;1.8485107;-3.3116913;-;-;-;-;-;-;-;-;-;-;-;-;-;-;-
1514110922205;-;-;7.5793304;1.2320099;-3.0519257;-;-;-;-;-;-;-;-;-;-;-;-;-;-;-
1514110922225;-;-;7.1447906;1.1817322;-1.9146729;-;-;-;-;-;-;-;-;-;-;-;-;-;-;-
1514110922246;-;-;6.173935;1.2104645;-1.5483704;-;-;-;-;-;-;-;-;-;-;-;-;-;-;-
1514110922266;-;-;4.656021;-0.26675415;-2.9214478;-;-;-;-;-;-;-;-;-;-;-;-;-;-;-
1514110922286;-;-;4.276535;-2.4442902;-3.8408203;-;-;-;-;-;-;-;-;-;-;-;-;-;-;-
1514110922306;-;-;7.882202;-5.024048;-2.1959991;-;-;-;-;-;-;-;-;-;-;-;-;-;-;-
1514110922327;-;-;14.1609955;-7.1309357;-3.4074707;-;-;-;-;-;-;-;-;-;-;-;-;-;-;-
1514110922347;-;-;20.223114;-4.324936;-3.78096;-;-;-;-;-;-;-;-;-;-;-;-;-;-;-
1514110922367;-;-;20.510422;-0.92396545;-2.2965546;-;-;-;-;-;-;-;-;-;-;-;-;-;-;-
1514110922388;-;-;17.18367;-2.2599335;-1.0443878;-;-;-;-;-;-;-;-;-;-;-;-;-;-;-
1514110922408;-;-;8.96199;-4.0340424;0.36698914;-;-;-;-;-;-;-;-;-;-;-;-;-;-;-
1514110922428;-;-;9.9436035;-6.05954;-0.097473145;-;-;-;-;-;-;-;-;-;-;-;-;-;-;-
1514110922449;-;-;10.314713;-3.8125763;-0.42189026;-;-;-;-;-;-;-;-;-;-;-;-;-;-;-
1514110922469;-;-;8.938049;-0.026138306;-2.168457;-;-;-;-;-;-;-;-;-;-;-;-;-;-;-
1514110922489;-;-;8.025848;2.2423553;-2.515625;-;-;-;-;-;-;-;-;-;-;-;-;-;-;-
1514110922510;-;-;6.2589264;3.0731506;-2.266632;-;-;-;-;-;-;-;-;-;-;-;-;-;-;-
1514110922530;-;-;4.490814;1.6665497;-0.69721985;-;-;-;-;-;-;-;-;-;-;-;-;-;-;-
1514110922550;-;-;3.632492;-0.69651794;0.43762207;-;-;-;-;-;-;-;-;-;-;-;-;-;-;-
1514110922570;-;-;3.6576385;-2.3365479;-0.063964844;-;-;-;-;-;-;-;-;-;-;-;-;-;-;-
1514110922591;-;-;4.442932;-2.293457;-0.7965851;-;-;-;-;-;-;-;-;-;-;-;-;-;-;-
1514110922611;-;-;5.5837708;-1.4662628;-1.6429291;-;-;-;-;-;-;-;-;-;-;-;-;-;-;-
1514110922631;-;-;7.605667;-1.5895538;-1.4095001;-;-;-;-;-;-;-;-;-;-;-;-;-;-;-
1514110922652;-;-;10.283585;-2.20607;-0.22077942;-;-;-;-;-;-;-;-;-;-;-;-;-;-;-
1514110922672;-;-;11.522583;-2.8489075;1.1953888;-;-;-;-;-;-;-;-;-;-;-;-;-;-;-
1514110922692;-;-;10.344635;-3.7084198;0.44839478;-;-;-;-;-;-;-;-;-;-;-;-;-;-;-
1514110922712;-;-;8.58371;-3.8424988;-1.069519;-;-;-;-;-;-;-;-;-;-;-;-;-;-;-
1514110922732;-;-;6.968811;-2.6178741;-1.0826874;-;-;-;-;-;-;-;-;-;-;-;-;-;-;-
1514110922753;-;-;5.355118;-1.0041809;-4.1688232;-;-;-;-;-;-;-;-;-;-;-;-;-;-;-
1514110922773;-;-;5.8830414;-1.0640259;-6.741394;-;-;-;-;-;-;-;-;-;-;-;-;-;-;-
1514110922793;-;-;8.657928;1.5552216;-4.8427887;-;-;-;-;-;-;-;-;-;-;-;-;-;-;-
1514110922813;-;-;12.2612;4.1996155;-2.7394867;-;-;-;-;-;-;-;-;-;-;-;-;-;-;-
1514110922834;-;-;13.888062;3.4753723;-3.5487213;-;-;-;-;-;-;-;-;-;-;-;-;-;-;-
1514110922854;-;-;13.224869;-0.7013092;-2.191208;-;-;-;-;-;-;-;-;-;-;-;-;-;-;-
1514110922874;-;-;11.202957;-2.4347076;-2.2103577;-;-;-;-;-;-;-;-;-;-;-;-;-;-;-
1514110922895;-;-;11.0425415;-1.7451782;-3.8144836;-;-;-;-;-;-;-;-;-;-;-;-;-;-;-
1514110922915;-;-;11.060501;2.3572845;-3.1321259;-;-;-;-;-;-;-;-;-;-;-;-;-;-;-
1514110922935;-;-;11.180222;3.2084198;-3.1572723;-;-;-;-;-;-;-;-;-;-;-;-;-;-;-
1514110922955;-;-;10.6666565;2.725998;-2.6568756;-;-;-;-;-;-;-;-;-;-;-;-;-;-;-
1514110922976;-;-;8.753693;0.6633911;-1.4621735;-;-;-;-;-;-;-;-;-;-;-;-;-;-;-
1514110922996;-;-;7.1555634;-0.77194214;-0.7187805;-;-;-;-;-;-;-;-;-;-;-;-;-;-;-
1514110923016;-;-;6.9340973;-1.4662628;0.0856781;-;-;-;-;-;-;-;-;-;-;-;-;-;-;-
1514110923036;-;-;7.8235474;-0.8305969;0.38136292;-;-;-;-;-;-;-;-;-;-;-;-;-;-;-
1514110923056;-;-;8.594482;0.44192505;0.086868286;-;-;-;-;-;-;-;-;-;-;-;-;-;-;-
1514110923077;-;-;9.3498535;1.1865234;-0.94862366;-;-;-;-;-;-;-;-;-;-;-;-;-;-;-
1514110923097;-;-;9.397736;1.106308;-0.34887695;-;-;-;-;-;-;-;-;-;-;-;-;-;-;-
1514110923117;-;-;9.369003;0.28988647;-0.30577087;-;-;-;-;-;-;-;-;-;-;-;-;-;-;-
1514110923138;-;-;8.596878;0.97343445;-1.2119751;-;-;-;-;-;-;-;-;-;-;-;-;-;-;-
1514110923157;-;-;7.2704773;3.0719452;-2.1852264;-;-;-;-;-;-;-;-;-;-;-;-;-;-;-
1514110923177;-;-;5.926132;3.853653;-1.2646484;-;-;-;-;-;-;-;-;-;-;-;-;-;-;-
1514110923197;-;-;3.7953033;3.5519867;-1.6513214;-;-;-;-;-;-;-;-;-;-;-;-;-;-;-
1514110923218;-;-;1.3927155;0.9064026;-3.824051;-;-;-;-;-;-;-;-;-;-;-;-;-;-;-
1514110923238;-;-;1.9014893;-2.87883;-3.8132782;-;-;-;-;-;-;-;-;-;-;-;-;-;-;-
1514110923259;-;-;6.9305115;-6.270218;-2.9334106;-;-;-;-;-;-;-;-;-;-;-;-;-;-;-
1514110923279;-;-;15.020508;-8.313675;-9.303192;-;-;-;-;-;-;-;-;-;-;-;-;-;-;-
1514110923299;-;-;21.691956;-2.0767822;-8.637604;-;-;-;-;-;-;-;-;-;-;-;-;-;-;-
1514110923319;-;-;19.240295;2.8145752;-6.6839294;-;-;-;-;-;-;-;-;-;-;-;-;-;-;-
1514110923340;-;-;20.490067;0.5257263;-3.2255096;-;-;-;-;-;-;-;-;-;-;-;-;-;-;-
1514110923360;-;-;21.839203;-3.3864136;-4.8499756;-;-;-;-;-;-;-;-;-;-;-;-;-;-;-
1514110923380;-;-;13.226059;-2.7567291;-1.2814178;-;-;-;-;-;-;-;-;-;-;-;-;-;-;-
1514110923401;-;-;4.8714905;-0.8090515;-1.1521301;-;-;-;-;-;-;-;-;-;-;-;-;-;-;-
1514110923421;-;-;6.020706;-1.2603607;-1.3436584;-;-;-;-;-;-;-;-;-;-;-;-;-;-;-
1514110923441;-;-;7.3111877;-1.0472717;-1.3712006;-;-;-;-;-;-;-;-;-;-;-;-;-;-;-
1514110923461;-;-;7.715805;-0.4774475;-1.8524323;-;-;-;-;-;-;-;-;-;-;-;-;-;-;-
1514110923482;-;-;5.2042847;-0.3182373;-1.531601;-;-;-;-;-;-;-;-;-;-;-;-;-;-;-
1514110923502;-;-;3.7007294;-0.9359436;-0.47097778;-;-;-;-;-;-;-;-;-;-;-;-;-;-;-
1514110923522;-;-;4.003601;-1.5739899;0.11920166;-;-;-;-;-;-;-;-;-;-;-;-;-;-;-
1514110923543;-;-;5.391037;-1.7882843;-0.17648315;-;-;-;-;-;-;-;-;-;-;-;-;-;-;-
1514110923563;-;-;5.789673;-1.5093536;-0.72595215;-;-;-;-;-;-;-;-;-;-;-;-;-;-;-
1514110923583;-;-;6.513916;-1.5847626;-0.91389465;-;-;-;-;-;-;-;-;-;-;-;-;-;-;-
1514110923603;-;-;8.647156;-2.1916962;-0.69602966;-;-;-;-;-;-;-;-;-;-;-;-;-;-;-
1514110923624;-;-;11.240067;-4.056778;-0.023254395;-;-;-;-;-;-;-;-;-;-;-;-;-;-;-
1514110923644;-;-;13.951508;-5.1617126;-0.12620544;-;-;-;-;-;-;-;-;-;-;-;-;-;-;-
1514110923664;-;-;12.027756;-4.111847;-0.5715332;-;-;-;-;-;-;-;-;-;-;-;-;-;-;-
1514110923684;-;-;7.506317;-4.939041;-9.878998;-;-;-;-;-;-;-;-;-;-;-;-;-;-;-
1514110923705;-;-;9.160706;0.338974;-11.411285;-;-;-;-;-;-;-;-;-;-;-;-;-;-;-
1514110923725;-;-;10.690598;4.5862885;-3.7474365;-;-;-;-;-;-;-;-;-;-;-;-;-;-;-
1514110923745;-;-;11.513016;5.0088654;-3.9317932;-;-;-;-;-;-;-;-;-;-;-;-;-;-;-
1514110923766;-;-;12.177399;-0.24520874;-4.7434235;-;-;-;-;-;-;-;-;-;-;-;-;-;-;-
1514110923786;-;-;13.64624;-5.696808;-4.4716797;-;-;-;-;-;-;-;-;-;-;-;-;-;-;-
1514110923806;-;-;13.977844;-7.3440247;-3.484085;-;-;-;-;-;-;-;-;-;-;-;-;-;-;-
1514110923826;-;-;10.512238;-2.5831451;-2.939392;-;-;-;-;-;-;-;-;-;-;-;-;-;-;-
1514110923847;-;-;8.517868;-0.14944458;-3.0591125;-;-;-;-;-;-;-;-;-;-;-;-;-;-;-
1514110923867;-;-;6.2158356;0.56163025;-3.0064392;-;-;-;-;-;-;-;-;-;-;-;-;-;-;-
1514110923887;-;-;4.695526;0.6286621;-2.7502594;-;-;-;-;-;-;-;-;-;-;-;-;-;-;-
1514110923907;-;-;5.2665405;-0.11592102;-2.9094696;-;-;-;-;-;-;-;-;-;-;-;-;-;-;-
1514110923928;-;-;6.091339;-1.2280273;-3.3547974;-;-;-;-;-;-;-;-;-;-;-;-;-;-;-
1514110923948;-;-;7.604477;-1.7583466;-3.8659515;-;-;-;-;-;-;-;-;-;-;-;-;-;-;-
1514110923968;-;-;9.251678;0.36531067;-4.2214966;-;-;-;-;-;-;-;-;-;-;-;-;-;-;-
1514110923988;-;-;8.3107605;1.8269653;-3.6085815;-;-;-;-;-;-;-;-;-;-;-;-;-;-;-
1514110924009;-;-;6.68869;2.1729279;-3.0591125;-;-;-;-;-;-;-;-;-;-;-;-;-;-;-
1514110924029;-;-;6.1930847;2.0484314;-2.4857025;-;-;-;-;-;-;-;-;-;-;-;-;-;-;-
1514110924049;-;-;6.6815033;1.8808441;-1.9470062;-;-;-;-;-;-;-;-;-;-;-;-;-;-;-
1514110924070;-;-;6.917343;1.9203491;-2.286972;-;-;-;-;-;-;-;-;-;-;-;-;-;-;-
1514110924090;-;-;7.394989;1.9694214;-2.8029327;-;-;-;-;-;-;-;-;-;-;-;-;-;-;-
1514110924110;-;-;8.3897705;2.4458618;-2.3707733;-;-;-;-;-;-;-;-;-;-;-;-;-;-;-
1514110924130;-;-;9.200211;2.9953308;-1.8751678;-;-;-;-;-;-;-;-;-;-;-;-;-;-;-
1514110924150;-;-;9.726929;2.2124329;-1.2562714;-;-;-;-;-;-;-;-;-;-;-;-;-;-;-
1514110924171;-;-;9.402527;-0.36732483;-0.6589203;-;-;-;-;-;-;-;-;-;-;-;-;-;-;-
1514110924190;-;-;8.739319;-2.0504456;-0.09388733;-;-;-;-;-;-;-;-;-;-;-;-;-;-;-
1514110924210;-;-;8.049789;-1.8110199;-2.0679016;-;-;-;-;-;-;-;-;-;-;-;-;-;-;-
1514110924230;-;-;8.693832;-3.9849548;-7.0322876;-;-;-;-;-;-;-;-;-;-;-;-;-;-;-
1514110924250;-;-;12.41922;-6.2917633;-9.033844;-;-;-;-;-;-;-;-;-;-;-;-;-;-;-
1514110924270;-;-;15.653778;-3.895172;-7.144806;-;-;-;-;-;-;-;-;-;-;-;-;-;-;-
1514110924291;-;-;12.2204895;-2.724411;-6.401413;-;-;-;-;-;-;-;-;-;-;-;-;-;-;-
1514110924312;-;-;9.392944;-0.9275665;-3.1141663;-;-;-;-;-;-;-;-;-;-;-;-;-;-;-
1514110924333;-;-;8.472366;0.6861267;-2.625763;-;-;-;-;-;-;-;-;-;-;-;-;-;-;-
1514110924353;-;-;8.307175;0.48860168;-4.041931;-;-;-;-;-;-;-;-;-;-;-;-;-;-;-
1514110924373;-;-;7.9348755;0.01574707;-4.8703156;-;-;-;-;-;-;-;-;-;-;-;-;-;-;-
1514110924394;-;-;8.115631;-0.40682983;-4.283737;-;-;-;-;-;-;-;-;-;-;-;-;-;-;-
1514110924414;-;-;8.337097;0.18933105;-3.3476105;-;-;-;-;-;-;-;-;-;-;-;-;-;-;-
1514110924434;-;-;7.3459015;-0.14585876;-2.3755646;-;-;-;-;-;-;-;-;-;-;-;-;-;-;-
1514110924455;-;-;6.7880554;-1.364502;-1.4238739;-;-;-;-;-;-;-;-;-;-;-;-;-;-;-
1514110924475;-;-;7.1639404;-2.4526672;-1.5208282;-;-;-;-;-;-;-;-;-;-;-;-;-;-;-
1514110924495;-;-;7.830719;-2.0851593;-1.8093262;-;-;-;-;-;-;-;-;-;-;-;-;-;-;-
1514110924516;-;-;7.648773;-1.5739899;-2.045166;-;-;-;-;-;-;-;-;-;-;-;-;-;-;-
1514110924535;-;-;7.5996857;-2.0348816;-2.0858612;-;-;-;-;-;-;-;-;-;-;-;-;-;-;-
1514110924556;-;-;7.4201202;-2.5364685;-1.8679962;-;-;-;-;-;-;-;-;-;-;-;-;-;-;-
1514110924576;-;-;7.3530884;-2.7962341;-1.9841156;-;-;-;-;-;-;-;-;-;-;-;-;-;-;-
1514110924596;-;-;7.308792;-2.261139;-2.3695831;-;-;-;-;-;-;-;-;-;-;-;-;-;-;-
1514110924617;-;-;7.963608;-1.1609955;-2.3193054;-;-;-;-;-;-;-;-;-;-;-;-;-;-;-
1514110924637;-;-;9.206192;-0.6546173;-2.0726929;-;-;-;-;-;-;-;-;-;-;-;-;-;-;-
1514110924657;-;-;10.926422;-1.3836517;-1.2610626;-;-;-;-;-;-;-;-;-;-;-;-;-;-;-
1514110924677;-;-;11.580048;-2.7256012;-0.9474182;-;-;-;-;-;-;-;-;-;-;-;-;-;-;-
1514110924698;-;-;11.619553;-3.9442596;-0.56674194;-;-;-;-;-;-;-;-;-;-;-;-;-;-;-
1514110924718;-;-;11.011429;-4.555969;-0.011291504;-;-;-;-;-;-;-;-;-;-;-;-;-;-;-
1514110924738;-;-;9.89093;-5.1569214;0.3933258;-;-;-;-;-;-;-;-;-;-;-;-;-;-;-
1514110924759;-;-;8.666306;-5.4466095;0.06173706;-;-;-;-;-;-;-;-;-;-;-;-;-;-;-
1514110924779;-;-;7.739746;-4.029251;-0.927063;-;-;-;-;-;-;-;-;-;-;-;-;-;-;-
1514110924800;-;-;7.8438873;-1.7368011;-6.0279236;-;-;-;-;-;-;-;-;-;-;-;-;-;-;-
1514110924819;-;-;9.754471;0.02053833;-7.9337006;-;-;-;-;-;-;-;-;-;-;-;-;-;-;-
1514110924840;-;-;9.194229;1.0931396;-8.978775;-;-;-;-;-;-;-;-;-;-;-;-;-;-;-
1514110924860;-;-;8.544205;2.5009308;-5.6244965;-;-;-;-;-;-;-;-;-;-;-;-;-;-;-
1514110924880;-;-;7.77446;3.4849548;-4.2969055;-;-;-;-;-;-;-;-;-;-;-;-;-;-;-
1514110924901;-;-;8.213791;3.5938873;-4.780533;-;-;-;-;-;-;-;-;-;-;-;-;-;-;-
1514110924921;-;-;10.181839;1.6821136;-4.3567657;-;-;-;-;-;-;-;-;-;-;-;-;-;-;-
1514110924941;-;-;11.801514;0.29826355;-4.3962708;-;-;-;-;-;-;-;-;-;-;-;-;-;-;-
1514110924962;-;-;13.455902;0.4981842;-4.0072174;-;-;-;-;-;-;-;-;-;-;-;-;-;-;-
1514110924982;-;-;11.900864;-0.21289063;-2.5335846;-;-;-;-;-;-;-;-;-;-;-;-;-;-;-
1514110925002;-;-;9.21817;-0.4547119;-2.2283173;-;-;-;-;-;-;-;-;-;-;-;-;-;-;-
1514110925023;-;-;6.5510254;-0.31105042;-2.270218;-;-;-;-;-;-;-;-;-;-;-;-;-;-;-
1514110925043;-;-;5.280899;0.6549988;-1.4382324;-;-;-;-;-;-;-;-;-;-;-;-;-;-;-
1514110925062;-;-;5.1552124;1.4642487;-0.669693;-;-;-;-;-;-;-;-;-;-;-;-;-;-;-
1514110925082;-;-;6.1679535;0.92555237;-0.6625061;-;-;-;-;-;-;-;-;-;-;-;-;-;-;-
1514110925103;-;-;7.8762207;-0.47027588;-1.2131805;-;-;-;-;-;-;-;-;-;-;-;-;-;-;-
1514110925123;-;-;9.438431;-1.3118286;-1.3412628;-;-;-;-;-;-;-;-;-;-;-;-;-;-;-
1514110925143;-;-;9.549759;-1.1957092;-1.2861938;-;-;-;-;-;-;-;-;-;-;-;-;-;-;-
1514110925163;-;-;8.197037;-0.6330719;-1.4394226;-;-;-;-;-;-;-;-;-;-;-;-;-;-;-
1514110925184;-;-;6.099716;-0.09677124;-1.5866699;-;-;-;-;-;-;-;-;-;-;-;-;-;-;-
1514110925204;-;-;3.9497223;0.41677856;-0.76545715;-;-;-;-;-;-;-;-;-;-;-;-;-;-;-
1514110925224;-;-;3.1368866;0.21447754;0.6136017;-;-;-;-;-;-;-;-;-;-;-;-;-;-;-
1514110925244;-;-;4.137665;0.18693542;0.92604065;-;-;-;-;-;-;-;-;-;-;-;-;-;-;-
1514110925265;-;-;6.217041;1.5085449;-0.1381836;-;-;-;-;-;-;-;-;-;-;-;-;-;-;-
1514110925286;-;-;8.708206;3.963791;-3.3524017;-;-;-;-;-;-;-;-;-;-;-;-;-;-;-
1514110925306;-;-;11.455551;4.8125305;-5.525131;-;-;-;-;-;-;-;-;-;-;-;-;-;-;-
1514110925326;-;-;12.462311;1.2583466;-1.9972839;-;-;-;-;-;-;-;-;-;-;-;-;-;-;-
1514110925347;-;-;11.654266;0.596344;-1.2227478;-;-;-;-;-;-;-;-;-;-;-;-;-;-;-
1514110925367;-;-;10.002274;1.5396576;-1.7339172;-;-;-;-;-;-;-;-;-;-;-;-;-;-;-
1514110925387;-;-;8.459198;3.3185577;-2.00206;-;-;-;-;-;-;-;-;-;-;-;-;-;-;-
1514110925407;-;-;7.501526;3.8057709;-2.278595;-;-;-;-;-;-;-;-;-;-;-;-;-;-;-
1514110925428;-;-;5.9895782;1.8604889;-3.2889557;-;-;-;-;-;-;-;-;-;-;-;-;-;-;-
1514110925448;-;-;4.193939;-0.07522583;-4.4309845;-;-;-;-;-;-;-;-;-;-;-;-;-;-;-
1514110925469;-;-;3.359558;-2.842926;-5.010376;-;-;-;-;-;-;-;-;-;-;-;-;-;-;-
1514110925489;-;-;5.30365;-5.009674;-2.7239227;-;-;-;-;-;-;-;-;-;-;-;-;-;-;-
1514110925509;-;-;11.083252;-5.282608;-0.9258728;-;-;-;-;-;-;-;-;-;-;-;-;-;-;-
1514110925529;-;-;15.599915;-3.874817;-2.1971893;-;-;-;-;-;-;-;-;-;-;-;-;-;-;-
1514110925550;-;-;17.437454;-0.02015686;-0.9653778;-;-;-;-;-;-;-;-;-;-;-;-;-;-;-
1514110925570;-;-;16.79103;0.54008484;-1.8691864;-;-;-;-;-;-;-;-;-;-;-;-;-;-;-
1514110925590;-;-;15.178528;-2.8477173;-2.8352509;-;-;-;-;-;-;-;-;-;-;-;-;-;-;-
1514110925611;-;-;13.991013;-2.8620758;-1.3795776;-;-;-;-;-;-;-;-;-;-;-;-;-;-;-
1514110925630;-;-;10.946777;-2.3652802;-0.57632446;-;-;-;-;-;-;-;-;-;-;-;-;-;-;-
1514110925650;-;-;7.391388;-1.3082428;0.137146;-;-;-;-;-;-;-;-;-;-;-;-;-;-;-
1514110925671;-;-;3.9652863;-0.71806335;-0.08909607;-;-;-;-;-;-;-;-;-;-;-;-;-;-;-
1514110925690;-;-;2.2905426;-0.21289063;0.23770142;-;-;-;-;-;-;-;-;-;-;-;-;-;-;-
1514110925710;-;-;3.6073608;-0.55166626;0.82788086;-;-;-;-;-;-;-;-;-;-;-;-;-;-;-
1514110925730;-;-;5.7525635;-1.5368805;-0.12980652;-;-;-;-;-;-;-;-;-;-;-;-;-;-;-
1514110925751;-;-;7.629608;-1.5440674;-1.9242554;-;-;-;-;-;-;-;-;-;-;-;-;-;-;-
1514110925771;-;-;7.9145203;-0.24401855;-2.5527344;-;-;-;-;-;-;-;-;-;-;-;-;-;-;-
1514110925791;-;-;7.454834;0.49699402;-2.2534637;-;-;-;-;-;-;-;-;-;-;-;-;-;-;-
1514110925812;-;-;8.144363;-0.52893066;-1.1126251;-;-;-;-;-;-;-;-;-;-;-;-;-;-;-
1514110925832;-;-;10.332672;-1.9259491;0.45199585;-;-;-;-;-;-;-;-;-;-;-;-;-;-;-
1514110925852;-;-;9.704193;-3.2942352;0.2616577;-;-;-;-;-;-;-;-;-;-;-;-;-;-;-
1514110925873;-;-;8.571732;-4.2734528;-0.44343567;-;-;-;-;-;-;-;-;-;-;-;-;-;-;-
1514110925893;-;-;7.624832;-2.8333435;-0.8468628;-;-;-;-;-;-;-;-;-;-;-;-;-;-;-
1514110925914;-;-;6.3331604;-0.42237854;-3.9437714;-;-;-;-;-;-;-;-;-;-;-;-;-;-;-
1514110925933;-;-;6.8838196;2.0017395;-6.3954315;-;-;-;-;-;-;-;-;-;-;-;-;-;-;-
1514110925953;-;-;8.262878;4.5120697;-6.852722;-;-;-;-;-;-;-;-;-;-;-;-;-;-;-
1514110925974;-;-;11.534561;5.288986;-5.4748535;-;-;-;-;-;-;-;-;-;-;-;-;-;-;-
1514110925993;-;-;17.010101;4.0763245;-2.5192108;-;-;-;-;-;-;-;-;-;-;-;-;-;-;-
1514110926013;-;-;17.708008;1.8963928;0.76802063;-;-;-;-;-;-;-;-;-;-;-;-;-;-;-
1514110926034;-;-;16.758698;2.7619019;-8.707031;-;-;-;-;-;-;-;-;-;-;-;-;-;-;-
1514110926053;-;-;17.227966;1.7120514;-4.804474;-;-;-;-;-;-;-;-;-;-;-;-;-;-;-
1514110926073;-;-;13.208099;-0.071640015;0.04736328;-;-;-;-;-;-;-;-;-;-;-;-;-;-;-
1514110926094;-;-;8.712982;-0.20930481;-0.6397705;-;-;-;-;-;-;-;-;-;-;-;-;-;-;-
1514110926113;-;-;5.869873;0.72683716;-1.2909851;-;-;-;-;-;-;-;-;-;-;-;-;-;-;-
1514110926133;-;-;4.7338257;1.6054993;-1.1569061;-;-;-;-;-;-;-;-;-;-;-;-;-;-;-
1514110926153;-;-;4.6177063;1.0680084;-0.6948395;-;-;-;-;-;-;-;-;-;-;-;-;-;-;-
1514110926174;-;-;5.134857;0.59394836;-0.7606659;-;-;-;-;-;-;-;-;-;-;-;-;-;-;-
1514110926194;-;-;5.3778687;-0.28471375;-0.491333;-;-;-;-;-;-;-;-;-;-;-;-;-;-;-
1514110926214;-;-;5.316818;-1.5201263;-0.34887695;-;-;-;-;-;-;-;-;-;-;-;-;-;-;-
1514110926234;-;-;4.866699;-1.6889191;-0.78222656;-;-;-;-;-;-;-;-;-;-;-;-;-;-;-
1514110926255;-;-;4.865509;-0.7491913;-1.4789276;-;-;-;-;-;-;-;-;-;-;-;-;-;-;-
1514110926274;-;-;7.2585144;0.05166626;-1.3795776;-;-;-;-;-;-;-;-;-;-;-;-;-;-;-
1514110926294;-;-;9.233734;1.6569824;-0.5176544;-;-;-;-;-;-;-;-;-;-;-;-;-;-;-
1514110926315;-;-;9.73053;3.355667;-2.2259216;-;-;-;-;-;-;-;-;-;-;-;-;-;-;-
1514110926335;-;-;9.0733185;3.7985992;-3.5918121;-;-;-;-;-;-;-;-;-;-;-;-;-;-;-
1514110926355;-;-;8.838684;2.2746887;-1.74469;-;-;-;-;-;-;-;-;-;-;-;-;-;-;-
1514110926375;-;-;7.7217865;1.1362457;-2.1888123;-;-;-;-;-;-;-;-;-;-;-;-;-;-;-
1514110926396;-;-;6.102112;-0.4666748;-5.7513885;-;-;-;-;-;-;-;-;-;-;-;-;-;-;-
1514110926416;-;-;5.5119476;-2.7471619;-6.132065;-;-;-;-;-;-;-;-;-;-;-;-;-;-;-
1514110926436;-;-;7.4955444;-4.9953156;-2.47612;-;-;-;-;-;-;-;-;-;-;-;-;-;-;-
1514110926456;-;-;11.952347;-6.3516235;-1.3005676;-;-;-;-;-;-;-;-;-;-;-;-;-;-;-
1514110926476;-;-;16.56836;-4.2291718;-5.206711;-;-;-;-;-;-;-;-;-;-;-;-;-;-;-
1514110926498;-;-;16.71202;2.8061981;-2.8388367;-;-;-;-;-;-;-;-;-;-;-;-;-;-;-
1514110926519;-;-;12.998611;4.0811157;0.78118896;-;-;-;-;-;-;-;-;-;-;-;-;-;-;-
1514110926538;-;-;9.96994;0.43234253;-1.9338379;-;-;-;-;-;-;-;-;-;-;-;-;-;-;-
1514110926558;-;-;14.054459;-4.1537476;-1.4118958;-;-;-;-;-;-;-;-;-;-;-;-;-;-;-
1514110926579;-;-;16.703644;-4.2962036;-1.2299347;-;-;-;-;-;-;-;-;-;-;-;-;-;-;-
1514110926598;-;-;12.524551;-3.079956;-1.1126251;-;-;-;-;-;-;-;-;-;-;-;-;-;-;-
1514110926618;-;-;9.538986;-1.2555695;-1.2790222;-;-;-;-;-;-;-;-;-;-;-;-;-;-;-
1514110926639;-;-;7.593704;0.2300415;-1.313736;-;-;-;-;-;-;-;-;-;-;-;-;-;-;-
1514110926659;-;-;5.845932;0.4191742;-0.30337524;-;-;-;-;-;-;-;-;-;-;-;-;-;-;-
1514110926679;-;-;4.0287323;-0.03691101;-0.11424255;-;-;-;-;-;-;-;-;-;-;-;-;-;-;-
1514110926699;-;-;3.1644287;-0.4666748;-2.278595;-;-;-;-;-;-;-;-;-;-;-;-;-;-;-
1514110926720;-;-;4.070633;0.22883606;-3.6013947;-;-;-;-;-;-;-;-;-;-;-;-;-;-;-
1514110926740;-;-;4.549469;-0.088394165;-3.1500854;-;-;-;-;-;-;-;-;-;-;-;-;-;-;-
1514110926761;-;-;5.2916718;-1.0017853;-2.4749146;-;-;-;-;-;-;-;-;-;-;-;-;-;-;-
1514110926780;-;-;6.9317017;-1.3118286;-0.6289978;-;-;-;-;-;-;-;-;-;-;-;-;-;-;-
1514110926800;-;-;8.56575;-1.9211578;1.5736694;-;-;-;-;-;-;-;-;-;-;-;-;-;-;-
1514110926821;-;-;9.378571;-3.5085144;2.4152374;-;-;-;-;-;-;-;-;-;-;-;-;-;-;-
1514110926841;-;-;9.131973;-4.7115936;1.0254059;-;-;-;-;-;-;-;-;-;-;-;-;-;-;-
1514110926861;-;-;9.031418;-4.7977905;-1.8009491;-;-;-;-;-;-;-;-;-;-;-;-;-;-;-
1514110926882;-;-;8.616028;-2.7423706;-2.899887;-;-;-;-;-;-;-;-;-;-;-;-;-;-;-
1514110926901;-;-;8.212601;-1.0568542;-2.7107544;-;-;-;-;-;-;-;-;-;-;-;-;-;-;-
1514110926921;-;-;6.561798;0.63705444;-5.872299;-;-;-;-;-;-;-;-;-;-;-;-;-;-;-
1514110926941;-;-;8.373016;2.837326;-5.686737;-;-;-;-;-;-;-;-;-;-;-;-;-;-;-
1514110926962;-;-;12.398865;5.6696625;-1.2838135;-;-;-;-;-;-;-;-;-;-;-;-;-;-;-
1514110926982;-;-;17.820526;7.4844666;-3.6552582;-;-;-;-;-;-;-;-;-;-;-;-;-;-;-
1514110927004;-;-;18.913483;1.4989624;-6.7318115;-;-;-;-;-;-;-;-;-;-;-;-;-;-;-
1514110927023;-;-;15.373657;-1.3285828;-3.322464;-;-;-;-;-;-;-;-;-;-;-;-;-;-;-
1514110927043;-;-;12.795105;-1.0173492;-4.8667297;-;-;-;-;-;-;-;-;-;-;-;-;-;-;-
1514110927064;-;-;9.542587;0.05645752;-3.8491974;-;-;-;-;-;-;-;-;-;-;-;-;-;-;-
1514110927084;-;-;6.094925;0.37608337;-1.1533203;-;-;-;-;-;-;-;-;-;-;-;-;-;-;-
1514110927104;-;-;4.1592255;0.754364;0.30714417;-;-;-;-;-;-;-;-;-;-;-;-;-;-;-
1514110927125;-;-;4.248993;1.1565857;0.35621643;-;-;-;-;-;-;-;-;-;-;-;-;-;-;-
1514110927145;-;-;5.098938;1.051239;0.32270813;-;-;-;-;-;-;-;-;-;-;-;-;-;-;-
1514110927165;-;-;6.8275604;0.2922821;0.2616577;-;-;-;-;-;-;-;-;-;-;-;-;-;-;-
1514110927186;-;-;8.4448395;-0.71328735;-0.6110382;-;-;-;-;-;-;-;-;-;-;-;-;-;-;-
1514110927206;-;-;9.228943;-1.0293121;-1.2634583;-;-;-;-;-;-;-;-;-;-;-;-;-;-;-
1514110927226;-;-;9.122391;-1.664978;-1.6070251;-;-;-;-;-;-;-;-;-;-;-;-;-;-;-
1514110927247;-;-;8.918884;-1.8864441;-1.8057404;-;-;-;-;-;-;-;-;-;-;-;-;-;-;-
1514110927267;-;-;7.885788;-0.9682617;-2.491684;-;-;-;-;-;-;-;-;-;-;-;-;-;-;-
1514110927287;-;-;7.1950684;0.18334961;-1.8272858;-;-;-;-;-;-;-;-;-;-;-;-;-;-;-
1514110927307;-;-;7.758896;1.4690399;0.10482788;-;-;-;-;-;-;-;-;-;-;-;-;-;-;-
1514110927328;-;-;7.245346;3.0563965;-1.1545258;-;-;-;-;-;-;-;-;-;-;-;-;-;-;-
1514110927348;-;-;6.3846283;3.7806396;-2.9214478;-;-;-;-;-;-;-;-;-;-;-;-;-;-;-
1514110927369;-;-;7.8283386;2.6625366;-1.1389618;-;-;-;-;-;-;-;-;-;-;-;-;-;-;-
1514110927389;-;-;9.482727;0.84295654;-0.35365295;-;-;-;-;-;-;-;-;-;-;-;-;-;-;-
1514110927409;-;-;8.656723;-1.0233307;-4.1616364;-;-;-;-;-;-;-;-;-;-;-;-;-;-;-
1514110927429;-;-;7.890579;-2.1486053;-7.8666687;-;-;-;-;-;-;-;-;-;-;-;-;-;-;-
1514110927449;-;-;7.8714294;-3.5695648;-7.072983;-;-;-;-;-;-;-;-;-;-;-;-;-;-;-
1514110927470;-;-;7.798401;-4.791809;-2.8101044;-;-;-;-;-;-;-;-;-;-;-;-;-;-;-
1514110927489;-;-;9.412094;-4.958206;0.57888794;-;-;-;-;-;-;-;-;-;-;-;-;-;-;-
1514110927509;-;-;11.969101;-3.3193665;-0.3871765;-;-;-;-;-;-;-;-;-;-;-;-;-;-;-
1514110927529;-;-;14.174164;-0.52653503;-3.1105804;-;-;-;-;-;-;-;-;-;-;-;-;-;-;-
1514110927550;-;-;16.74913;-0.5432892;-6.1811523;-;-;-;-;-;-;-;-;-;-;-;-;-;-;-
1514110927570;-;-;19.529999;0.6849365;-4.635681;-;-;-;-;-;-;-;-;-;-;-;-;-;-;-
1514110927590;-;-;16.807785;0.9075928;-1.8368683;-;-;-;-;-;-;-;-;-;-;-;-;-;-;-
1514110927610;-;-;12.763977;-1.7583466;-1.8464508;-;-;-;-;-;-;-;-;-;-;-;-;-;-;-
1514110927631;-;-;9.767639;-2.9482727;-1.4370422;-;-;-;-;-;-;-;-;-;-;-;-;-;-;-
1514110927651;-;-;6.692276;-2.5005493;-0.7403259;-;-;-;-;-;-;-;-;-;-;-;-;-;-;-
1514110927671;-;-;4.592575;-1.0628357;-0.8001709;-;-;-;-;-;-;-;-;-;-;-;-;-;-;-
1514110927692;-;-;4.7290344;0.30186462;-1.258667;-;-;-;-;-;-;-;-;-;-;-;-;-;-;-
1514110927712;-;-;5.6807404;0.77830505;-1.9458008;-;-;-;-;-;-;-;-;-;-;-;-;-;-;-
1514110927732;-;-;6.391815;0.457489;-2.4342194;-;-;-;-;-;-;-;-;-;-;-;-;-;-;-
1514110927753;-;-;6.6767273;0.34016418;-2.5659027;-;-;-;-;-;-;-;-;-;-;-;-;-;-;-
1514110927772;-;-;6.1799316;0.02053833;-2.9405975;-;-;-;-;-;-;-;-;-;-;-;-;-;-;-
1514110927792;-;-;5.3180084;-1.1430359;-3.0148163;-;-;-;-;-;-;-;-;-;-;-;-;-;-;-
1514110927812;-;-;5.4676514;-2.1976929;-1.911087;-;-;-;-;-;-;-;-;-;-;-;-;-;-;-
1514110927833;-;-;5.917755;-2.6238556;-1.3628082;-;-;-;-;-;-;-;-;-;-;-;-;-;-;-
1514110927853;-;-;6.3666687;-2.9123535;-0.57751465;-;-;-;-;-;-;-;-;-;-;-;-;-;-;-
1514110927873;-;-;7.1639404;-2.988968;0.06652832;-;-;-;-;-;-;-;-;-;-;-;-;-;-;-
1514110927894;-;-;8.774048;-2.945877;-0.97135925;-;-;-;-;-;-;-;-;-;-;-;-;-;-;-
1514110927914;-;-;10.405685;-1.7475739;-2.5024567;-;-;-;-;-;-;-;-;-;-;-;-;-;-;-
1514110927934;-;-;10.703766;-0.33380127;-3.5331573;-;-;-;-;-;-;-;-;-;-;-;-;-;-;-
1514110927955;-;-;8.83989;-0.42237854;-2.6377258;-;-;-;-;-;-;-;-;-;-;-;-;-;-;-
1514110927975;-;-;6.8000183;-0.8772888;-4.5746307;-;-;-;-;-;-;-;-;-;-;-;-;-;-;-
1514110927995;-;-;6.8670654;0.24919128;-5.6005554;-;-;-;-;-;-;-;-;-;-;-;-;-;-;-
1514110928015;-;-;8.241333;3.0336456;-4.657242;-;-;-;-;-;-;-;-;-;-;-;-;-;-;-
1514110928035;-;-;9.207397;5.7953644;-2.915451;-;-;-;-;-;-;-;-;-;-;-;-;-;-;-
1514110928056;-;-;11.214935;3.0121002;-2.7861633;-;-;-;-;-;-;-;-;-;-;-;-;-;-;-
1514110928076;-;-;13.186554;-0.65701294;0.44839478;-;-;-;-;-;-;-;-;-;-;-;-;-;-;-
1514110928096;-;-;13.154236;-1.4818115;-3.2913513;-;-;-;-;-;-;-;-;-;-;-;-;-;-;-
1514110928116;-;-;15.428726;-1.4818115;-9.924484;-;-;-;-;-;-;-;-;-;-;-;-;-;-;-
1514110928137;-;-;16.25592;-0.09437561;-1.5088654;-;-;-;-;-;-;-;-;-;-;-;-;-;-;-
1514110928156;-;-;12.598785;1.2080688;-0.65293884;-;-;-;-;-;-;-;-;-;-;-;-;-;-;-
1514110928176;-;-;8.07135;2.1944733;-2.4258423;-;-;-;-;-;-;-;-;-;-;-;-;-;-;-
1514110928196;-;-;5.090561;1.8317566;-2.3049316;-;-;-;-;-;-;-;-;-;-;-;-;-;-;-
1514110928217;-;-;3.6049652;1.640213;-0.9162903;-;-;-;-;-;-;-;-;-;-;-;-;-;-;-
1514110928236;-;-;4.0012054;1.367279;-0.7738342;-;-;-;-;-;-;-;-;-;-;-;-;-;-;-
1514110928256;-;-;5.272522;0.48262024;-1.6776581;-;-;-;-;-;-;-;-;-;-;-;-;-;-;-
1514110928276;-;-;7.0286713;-0.85095215;-2.0906525;-;-;-;-;-;-;-;-;-;-;-;-;-;-;-
1514110928297;-;-;8.018677;-1.9331207;-1.1616974;-;-;-;-;-;-;-;-;-;-;-;-;-;-;-
1514110928317;-;-;8.376602;-1.9857941;-0.46499634;-;-;-;-;-;-;-;-;-;-;-;-;-;-;-
1514110928337;-;-;8.623199;-1.269928;-1.6381531;-;-;-;-;-;-;-;-;-;-;-;-;-;-;-
1514110928358;-;-;8.671097;0.20848083;-1.674057;-;-;-;-;-;-;-;-;-;-;-;-;-;-;-
1514110928377;-;-;8.005508;1.8760529;-0.8241272;-;-;-;-;-;-;-;-;-;-;-;-;-;-;-
1514110928397;-;-;8.059372;2.979782;-1.2778168;-;-;-;-;-;-;-;-;-;-;-;-;-;-;-
1514110928418;-;-;7.997116;2.679306;-3.2111359;-;-;-;-;-;-;-;-;-;-;-;-;-;-;-
1514110928438;-;-;7.767273;1.1529999;-4.231064;-;-;-;-;-;-;-;-;-;-;-;-;-;-;-
1514110928458;-;-;5.917755;-0.6869507;-3.717514;-;-;-;-;-;-;-;-;-;-;-;-;-;-;-
1514110928478;-;-;4.0502777;-2.906372;-3.7618103;-;-;-;-;-;-;-;-;-;-;-;-;-;-;-
1514110928499;-;-;4.5506744;-4.7750397;-2.0391846;-;-;-;-;-;-;-;-;-;-;-;-;-;-;-
1514110928519;-;-;8.704605;-5.0910797;-0.12860107;-;-;-;-;-;-;-;-;-;-;-;-;-;-;-
1514110928539;-;-;14.514145;-6.37796;-4.337616;-;-;-;-;-;-;-;-;-;-;-;-;-;-;-
1514110928559;-;-;19.088257;-2.3748627;-7.8475037;-;-;-;-;-;-;-;-;-;-;-;-;-;-;-
1514110928580;-;-;18.041992;2.6170502;0.3430481;-;-;-;-;-;-;-;-;-;-;-;-;-;-;-
1514110928600;-;-;16.72998;-0.9155884;-2.9250336;-;-;-;-;-;-;-;-;-;-;-;-;-;-;-
1514110928620;-;-;16.015305;-3.0308685;-3.4242249;-;-;-;-;-;-;-;-;-;-;-;-;-;-;-
1514110928641;-;-;13.831787;-1.5368805;-1.8105316;-;-;-;-;-;-;-;-;-;-;-;-;-;-;-
1514110928660;-;-;8.824326;-0.42837524;-1.3292999;-;-;-;-;-;-;-;-;-;-;-;-;-;-;-
1514110928680;-;-;5.437729;-0.071640015;-1.0982513;-;-;-;-;-;-;-;-;-;-;-;-;-;-;-
1514110928701;-;-;4.090988;0.045684814;-0.89834595;-;-;-;-;-;-;-;-;-;-;-;-;-;-;-
1514110928721;-;-;4.5351105;0.13426208;-0.042419434;-;-;-;-;-;-;-;-;-;-;-;-;-;-;-
1514110928741;-;-;4.7290344;-0.621109;0.7153473;-;-;-;-;-;-;-;-;-;-;-;-;-;-;-
1514110928762;-;-;3.695938;-2.408371;-0.9330597;-;-;-;-;-;-;-;-;-;-;-;-;-;-;-
1514110928782;-;-;2.925003;-2.3940125;-2.843628;-;-;-;-;-;-;-;-;-;-;-;-;-;-;-
1514110928802;-;-;3.6672058;-1.3214111;-3.5343628;-;-;-;-;-;-;-;-;-;-;-;-;-;-;-
1514110928823;-;-;5.5071564;0.5747986;-2.8065186;-;-;-;-;-;-;-;-;-;-;-;-;-;-;-
1514110928843;-;-;9.032608;1.4295349;-0.6828613;-;-;-;-;-;-;-;-;-;-;-;-;-;-;-
1514110928863;-;-;12.151062;-0.27035522;1.0637054;-;-;-;-;-;-;-;-;-;-;-;-;-;-;-
1514110928884;-;-;11.437592;-2.7184296;0.34425354;-;-;-;-;-;-;-;-;-;-;-;-;-;-;-
1514110928904;-;-;9.963959;-6.1265717;-0.5787201;-;-;-;-;-;-;-;-;-;-;-;-;-;-;-
1514110928925;-;-;8.423294;-6.5802765;-1.2754211;-;-;-;-;-;-;-;-;-;-;-;-;-;-;-
1514110928945;-;-;7.1962585;-2.9602356;-2.3707733;-;-;-;-;-;-;-;-;-;-;-;-;-;-;-
1514110928965;-;-;6.4325104;-1.1143036;-4.323242;-;-;-;-;-;-;-;-;-;-;-;-;-;-;-
1514110928988;-;-;7.1519775;0.24679565;-5.2976837;-;-;-;-;-;-;-;-;-;-;-;-;-;-;-
1514110929008;-;-;9.902908;3.745926;-5.112137;-;-;-;-;-;-;-;-;-;-;-;-;-;-;-
1514110929028;-;-;14.311829;7.1169586;-4.448944;-;-;-;-;-;-;-;-;-;-;-;-;-;-;-
1514110929048;-;-;13.8293915;4.446228;-4.8296204;-;-;-;-;-;-;-;-;-;-;-;-;-;-;-
1514110929069;-;-;10.994659;-1.5632172;-1.7195587;-;-;-;-;-;-;-;-;-;-;-;-;-;-;-
1514110929089;-;-;8.535812;-6.440216;0.06173706;-;-;-;-;-;-;-;-;-;-;-;-;-;-;-
1514110929109;-;-;8.086899;-6.771805;-2.0858612;-;-;-;-;-;-;-;-;-;-;-;-;-;-;-
1514110929129;-;-;10.980301;-2.5652008;-4.4070435;-;-;-;-;-;-;-;-;-;-;-;-;-;-;-
1514110929150;-;-;13.210495;2.742752;-3.6983643;-;-;-;-;-;-;-;-;-;-;-;-;-;-;-
1514110929170;-;-;13.2356415;5.3584137;-2.3252869;-;-;-;-;-;-;-;-;-;-;-;-;-;-;-
1514110929190;-;-;7.7972107;3.2622986;-1.6764526;-;-;-;-;-;-;-;-;-;-;-;-;-;-;-
1514110929210;-;-;4.5351105;0.457489;-0.4278717;-;-;-;-;-;-;-;-;-;-;-;-;-;-;-
1514110929231;-;-;3.881485;-1.6625824;0.9882965;-;-;-;-;-;-;-;-;-;-;-;-;-;-;-
1514110929251;-;-;4.9229736;-2.7986298;1.6826019;-;-;-;-;-;-;-;-;-;-;-;-;-;-;-
1514110929271;-;-;7.9121246;-2.2431793;1.5449371;-;-;-;-;-;-;-;-;-;-;-;-;-;-;-
1514110929292;-;-;9.020645;-0.6151123;0.7045746;-;-;-;-;-;-;-;-;-;-;-;-;-;-;-
1514110929312;-;-;8.853058;0.115112305;-2.2893677;-;-;-;-;-;-;-;-;-;-;-;-;-;-;-
1514110929332;-;-;8.228165;0.62268066;-2.7933502;-;-;-;-;-;-;-;-;-;-;-;-;-;-;-
1514110929353;-;-;8.718979;0.38446045;-0.22077942;-;-;-;-;-;-;-;-;-;-;-;-;-;-;-
1514110929373;-;-;9.007477;1.8940125;-0.011291504;-;-;-;-;-;-;-;-;-;-;-;-;-;-;-
1514110929393;-;-;7.636795;4.715576;-0.47695923;-;-;-;-;-;-;-;-;-;-;-;-;-;-;-
1514110929413;-;-;4.307663;4.3013763;-2.7825775;-;-;-;-;-;-;-;-;-;-;-;-;-;-;-
1514110929434;-;-;2.2929382;-0.8174286;-3.9377747;-;-;-;-;-;-;-;-;-;-;-;-;-;-;-
1514110929454;-;-;6.1511993;-7.2602234;-2.9417877;-;-;-;-;-;-;-;-;-;-;-;-;-;-;-
1514110929474;-;-;13.955093;-12.793228;-11.029404;-;-;-;-;-;-;-;-;-;-;-;-;-;-;-
1514110929494;-;-;22.442535;-8.379517;-15.477829;-;-;-;-;-;-;-;-;-;-;-;-;-;-;-
1514110929515;-;-;26.2984;-1.1609955;-3.724701;-;-;-;-;-;-;-;-;-;-;-;-;-;-;-
1514110929535;-;-;14.834961;0.24798584;-7.3195953;-;-;-;-;-;-;-;-;-;-;-;-;-;-;-
1514110929555;-;-;12.143875;-1.4255524;-3.5690765;-;-;-;-;-;-;-;-;-;-;-;-;-;-;-
1514110929576;-;-;7.693054;-0.62828064;-2.551529;-;-;-;-;-;-;-;-;-;-;-;-;-;-;-
1514110929596;-;-;8.373016;-0.67736816;-2.6640625;-;-;-;-;-;-;-;-;-;-;-;-;-;-;-
1514110929616;-;-;8.496307;-1.913971;-2.0619202;-;-;-;-;-;-;-;-;-;-;-;-;-;-;-
1514110929637;-;-;7.985153;-3.6270294;-1.3544312;-;-;-;-;-;-;-;-;-;-;-;-;-;-;-
1514110929657;-;-;6.886215;-3.0823364;-1.2311401;-;-;-;-;-;-;-;-;-;-;-;-;-;-;-
1514110929677;-;-;4.2753296;-1.7224426;-0.7080078;-;-;-;-;-;-;-;-;-;-;-;-;-;-;-
1514110929697;-;-;3.0447235;-1.3525391;-0.5236511;-;-;-;-;-;-;-;-;-;-;-;-;-;-;-
1514110929717;-;-;3.1416779;-0.81144714;-0.57032776;-;-;-;-;-;-;-;-;-;-;-;-;-;-;-
1514110929738;-;-;4.4632874;0.04927063;-1.0264282;-;-;-;-;-;-;-;-;-;-;-;-;-;-;-
1514110929758;-;-;6.3187866;0.8226013;-1.6357574;-;-;-;-;-;-;-;-;-;-;-;-;-;-;-
1514110929778;-;-;6.8431244;0.46228027;-1.9398193;-;-;-;-;-;-;-;-;-;-;-;-;-;-;-
1514110929799;-;-;8.143173;-1.953476;-0.8600311;-;-;-;-;-;-;-;-;-;-;-;-;-;-;-
1514110929820;-;-;11.198166;-4.8720093;1.9579468;-;-;-;-;-;-;-;-;-;-;-;-;-;-;-
1514110929840;-;-;13.657013;-6.417465;2.7623901;-;-;-;-;-;-;-;-;-;-;-;-;-;-;-
1514110929860;-;-;12.954315;-6.593445;-0.13578796;-;-;-;-;-;-;-;-;-;-;-;-;-;-;-
1514110929880;-;-;12.289932;-10.455292;-13.448746;-;-;-;-;-;-;-;-;-;-;-;-;-;-;-
1514110929901;-;-;16.407959;2.1011047;-12.471909;-;-;-;-;-;-;-;-;-;-;-;-;-;-;-
1514110929921;-;-;13.133881;4.628189;-5.3563385;-;-;-;-;-;-;-;-;-;-;-;-;-;-;-
1514110929942;-;-;10.590042;3.6333923;-7.2980347;-;-;-;-;-;-;-;-;-;-;-;-;-;-;-
1514110929962;-;-;6.5354614;3.2096252;-5.5574493;-;-;-;-;-;-;-;-;-;-;-;-;-;-;-
1514110929982;-;-;5.95607;-0.46427917;-4.634491;-;-;-;-;-;-;-;-;-;-;-;-;-;-;-
1514110930002;-;-;6.644394;-3.4450684;-2.1612854;-;-;-;-;-;-;-;-;-;-;-;-;-;-;-
1514110930023;-;-;8.174301;-4.3824005;-1.2969818;-;-;-;-;-;-;-;-;-;-;-;-;-;-;-
1514110930043;-;-;12.2157135;-3.680893;-4.5351257;-;-;-;-;-;-;-;-;-;-;-;-;-;-;-
1514110930063;-;-;12.641876;-1.6386414;-3.5606995;-;-;-;-;-;-;-;-;-;-;-;-;-;-;-
1514110930084;-;-;8.028244;-0.3768921;-3.3308563;-;-;-;-;-;-;-;-;-;-;-;-;-;-;-
1514110930104;-;-;5.87706;0.05645752;-3.0950165;-;-;-;-;-;-;-;-;-;-;-;-;-;-;-
1514110930124;-;-;4.4812317;-0.20092773;-3.1692352;-;-;-;-;-;-;-;-;-;-;-;-;-;-;-
1514110930145;-;-;4.466873;-1.4016113;-4.131714;-;-;-;-;-;-;-;-;-;-;-;-;-;-;-
1514110930165;-;-;7.086136;-0.28831482;-4.0550995;-;-;-;-;-;-;-;-;-;-;-;-;-;-;-
1514110930185;-;-;9.020645;1.5995178;-3.1632538;-;-;-;-;-;-;-;-;-;-;-;-;-;-;-
1514110930205;-;-;8.511871;2.5440369;-2.9729156;-;-;-;-;-;-;-;-;-;-;-;-;-;-;-
1514110930226;-;-;8.576523;1.9801941;-2.6927948;-;-;-;-;-;-;-;-;-;-;-;-;-;-;-
1514110930246;-;-;8.794388;-0.054870605;-2.5611115;-;-;-;-;-;-;-;-;-;-;-;-;-;-;-
1514110930266;-;-;8.094086;-0.8198242;-2.8340454;-;-;-;-;-;-;-;-;-;-;-;-;-;-;-
1514110930287;-;-;7.4045563;0.27192688;-2.728714;-;-;-;-;-;-;-;-;-;-;-;-;-;-;-
1514110930307;-;-;7.0538025;1.4211578;-2.8184967;-;-;-;-;-;-;-;-;-;-;-;-;-;-;-
1514110930327;-;-;7.572159;1.4941711;-2.4006958;-;-;-;-;-;-;-;-;-;-;-;-;-;-;-
1514110930347;-;-;8.296402;1.3529205;-1.9362335;-;-;-;-;-;-;-;-;-;-;-;-;-;-;-
1514110930368;-;-;8.528641;0.7723236;-1.911087;-;-;-;-;-;-;-;-;-;-;-;-;-;-;-
1514110930388;-;-;8.368225;-0.60194397;-2.6832123;-;-;-;-;-;-;-;-;-;-;-;-;-;-;-
1514110930408;-;-;7.9037476;-1.8660889;-4.4776764;-;-;-;-;-;-;-;-;-;-;-;-;-;-;-
1514110930429;-;-;9.076904;-4.542801;-5.32283;-;-;-;-;-;-;-;-;-;-;-;-;-;-;-
1514110930449;-;-;12.02536;-7.262619;-6.4229584;-;-;-;-;-;-;-;-;-;-;-;-;-;-;-
1514110930470;-;-;14.052063;-5.215576;-7.8918;-;-;-;-;-;-;-;-;-;-;-;-;-;-;-
1514110930489;-;-;11.384918;-0.36253357;-6.156006;-;-;-;-;-;-;-;-;-;-;-;-;-;-;-
1514110930510;-;-;9.263657;1.0584259;-4.187973;-;-;-;-;-;-;-;-;-;-;-;-;-;-;-
1514110930530;-;-;7.4165344;0.5628357;-4.912216;-;-;-;-;-;-;-;-;-;-;-;-;-;-;-
1514110930551;-;-;7.550598;-1.3417511;-4.6692047;-;-;-;-;-;-;-;-;-;-;-;-;-;-;-
1514110930571;-;-;7.240555;-2.2072601;-4.1221313;-;-;-;-;-;-;-;-;-;-;-;-;-;-;-
1514110930591;-;-;7.403366;-2.1378326;-3.8743286;-;-;-;-;-;-;-;-;-;-;-;-;-;-;-
1514110930611;-;-;7.6260223;-2.451477;-3.488861;-;-;-;-;-;-;-;-;-;-;-;-;-;-;-
1514110930632;-;-;7.9983215;-2.3473206;-2.725113;-;-;-;-;-;-;-;-;-;-;-;-;-;-;-
1514110930652;-;-;7.35907;-1.5105438;-2.5934296;-;-;-;-;-;-;-;-;-;-;-;-;-;-;-
1514110930672;-;-;7.502716;-0.44154358;-2.55513;-;-;-;-;-;-;-;-;-;-;-;-;-;-;-
1514110930692;-;-;8.3107605;0.42037964;-2.1780396;-;-;-;-;-;-;-;-;-;-;-;-;-;-;-
1514110930713;-;-;8.526245;0.37727356;-2.128952;-;-;-;-;-;-;-;-;-;-;-;-;-;-;-
1514110930733;-;-;7.842697;-0.44033813;-2.0044556;-;-;-;-;-;-;-;-;-;-;-;-;-;-;-
1514110930753;-;-;7.7804413;-1.8122253;-1.3233032;-;-;-;-;-;-;-;-;-;-;-;-;-;-;-
1514110930773;-;-;7.9935303;-3.0272827;-1.1221924;-;-;-;-;-;-;-;-;-;-;-;-;-;-;-
1514110930794;-;-;8.623199;-3.4139404;-1.1341705;-;-;-;-;-;-;-;-;-;-;-;-;-;-;-
1514110930814;-;-;9.25528;-2.8225708;-1.6034393;-;-;-;-;-;-;-;-;-;-;-;-;-;-;-
1514110930834;-;-;9.878967;-1.6697693;-2.270218;-;-;-;-;-;-;-;-;-;-;-;-;-;-;-
1514110930854;-;-;9.61441;-2.332962;-0.76545715;-;-;-;-;-;-;-;-;-;-;-;-;-;-;-
1514110930875;-;-;8.819534;-3.4366913;-0.60983276;-;-;-;-;-;-;-;-;-;-;-;-;-;-;-
1514110930896;-;-;7.837906;-4.7427216;-5.9812317;-;-;-;-;-;-;-;-;-;-;-;-;-;-;-
1514110930916;-;-;11.024597;-2.5639954;-9.0086975;-;-;-;-;-;-;-;-;-;-;-;-;-;-;-
1514110930936;-;-;12.26239;-0.06324768;-7.651184;-;-;-;-;-;-;-;-;-;-;-;-;-;-;-
1514110930957;-;-;10.336258;1.2140503;-7.702667;-;-;-;-;-;-;-;-;-;-;-;-;-;-;-
1514110930977;-;-;8.417313;1.3349609;-4.6452637;-;-;-;-;-;-;-;-;-;-;-;-;-;-;-
1514110930997;-;-;6.905365;1.0021667;-4.6476593;-;-;-;-;-;-;-;-;-;-;-;-;-;-;-
1514110931017;-;-;7.67511;1.0919495;-4.8140564;-;-;-;-;-;-;-;-;-;-;-;-;-;-;-
1514110931038;-;-;7.655945;0.69929504;-4.626114;-;-;-;-;-;-;-;-;-;-;-;-;-;-;-
1514110931058;-;-;8.284424;-0.5792084;-3.974884;-;-;-;-;-;-;-;-;-;-;-;-;-;-;-
1514110931078;-;-;9.067337;-1.5680084;-3.353592;-;-;-;-;-;-;-;-;-;-;-;-;-;-;-
1514110931099;-;-;9.074509;-0.6103363;-3.3248596;-;-;-;-;-;-;-;-;-;-;-;-;-;-;-
1514110931118;-;-;8.2712555;-0.3361969;-3.3404236;-;-;-;-;-;-;-;-;-;-;-;-;-;-;-
1514110931138;-;-;5.991974;-0.19493103;-3.3595734;-;-;-;-;-;-;-;-;-;-;-;-;-;-;-
1514110931158;-;-;5.292877;-0.29548645;-3.1393127;-;-;-;-;-;-;-;-;-;-;-;-;-;-;-
1514110931179;-;-;6.2349854;-0.107543945;-2.6520996;-;-;-;-;-;-;-;-;-;-;-;-;-;-;-
1514110931198;-;-;8.613632;0.4371338;-2.3600006;-;-;-;-;-;-;-;-;-;-;-;-;-;-;-
1514110931218;-;-;10.673843;1.0476532;-3.1704407;-;-;-;-;-;-;-;-;-;-;-;-;-;-;-
1514110931238;-;-;11.734467;2.4243164;-3.8420105;-;-;-;-;-;-;-;-;-;-;-;-;-;-;-
1514110931259;-;-;11.339432;3.6034698;-3.7079315;-;-;-;-;-;-;-;-;-;-;-;-;-;-;-
1514110931279;-;-;10.090851;3.6477509;-3.3715515;-;-;-;-;-;-;-;-;-;-;-;-;-;-;-
1514110931299;-;-;7.7768555;3.2180023;-3.278183;-;-;-;-;-;-;-;-;-;-;-;-;-;-;-
1514110931320;-;-;5.495178;1.7563324;-2.5958252;-;-;-;-;-;-;-;-;-;-;-;-;-;-;-
1514110931340;-;-;4.664398;0.38685608;-1.8428497;-;-;-;-;-;-;-;-;-;-;-;-;-;-;-
1514110931360;-;-;6.457657;0.028915405;-1.1186066;-;-;-;-;-;-;-;-;-;-;-;-;-;-;-
1514110931380;-;-;9.424072;-0.24760437;-0.31295776;-;-;-;-;-;-;-;-;-;-;-;-;-;-;-
1514110931401;-;-;10.381744;-1.3118286;-2.1493073;-;-;-;-;-;-;-;-;-;-;-;-;-;-;-
1514110931421;-;-;11.119156;-1.1645813;-5.2521973;-;-;-;-;-;-;-;-;-;-;-;-;-;-;-
1514110931442;-;-;13.118317;-1.0005798;-7.9253235;-;-;-;-;-;-;-;-;-;-;-;-;-;-;-
1514110931463;-;-;13.066849;-0.50019836;-4.8858795;-;-;-;-;-;-;-;-;-;-;-;-;-;-;-
1514110931483;-;-;7.719391;-1.0472717;-4.2574005;-;-;-;-;-;-;-;-;-;-;-;-;-;-;-
1514110931503;-;-;3.773758;-3.3540802;-2.879547;-;-;-;-;-;-;-;-;-;-;-;-;-;-;-
1514110931524;-;-;3.6313019;-2.0983276;-1.3245087;-;-;-;-;-;-;-;-;-;-;-;-;-;-;-
1514110931544;-;-;7.166336;0.34735107;-4.713501;-;-;-;-;-;-;-;-;-;-;-;-;-;-;-
1514110931564;-;-;11.620743;2.4961395;-6.3128204;-;-;-;-;-;-;-;-;-;-;-;-;-;-;-
1514110931584;-;-;12.705322;2.0220947;-5.033127;-;-;-;-;-;-;-;-;-;-;-;-;-;-;-
1514110931605;-;-;13.003403;0.83576965;-3.449356;-;-;-;-;-;-;-;-;-;-;-;-;-;-;-
1514110931624;-;-;10.4021;-0.02255249;-2.7263184;-;-;-;-;-;-;-;-;-;-;-;-;-;-;-
1514110931644;-;-;7.177109;-0.34217834;-2.6520996;-;-;-;-;-;-;-;-;-;-;-;-;-;-;-
1514110931665;-;-;4.57341;0.2695465;-2.3360596;-;-;-;-;-;-;-;-;-;-;-;-;-;-;-
1514110931685;-;-;3.3703308;1.2116547;-1.8021545;-;-;-;-;-;-;-;-;-;-;-;-;-;-;-
1514110931705;-;-;4.0502777;1.8963928;-1.9039001;-;-;-;-;-;-;-;-;-;-;-;-;-;-;-
1514110931725;-;-;5.169571;1.4869843;-2.1540985;-;-;-;-;-;-;-;-;-;-;-;-;-;-;-
1514110931746;-;-;5.593338;0.23721313;-2.5982208;-;-;-;-;-;-;-;-;-;-;-;-;-;-;-
1514110931766;-;-;5.983597;-0.720459;-2.7789917;-;-;-;-;-;-;-;-;-;-;-;-;-;-;-
1514110931786;-;-;6.770096;-1.7176514;-1.1892395;-;-;-;-;-;-;-;-;-;-;-;-;-;-;-
1514110931807;-;-;8.085709;-1.9415131;0.16947937;-;-;-;-;-;-;-;-;-;-;-;-;-;-;-
1514110931828;-;-;8.730942;-1.1921234;0.40888977;-;-;-;-;-;-;-;-;-;-;-;-;-;-;-
1514110931848;-;-;8.888962;-1.7212372;-0.8073578;-;-;-;-;-;-;-;-;-;-;-;-;-;-;-
1514110931868;-;-;9.559341;-3.3552856;-1.6489258;-;-;-;-;-;-;-;-;-;-;-;-;-;-;-
1514110931888;-;-;9.884949;-4.2052307;-1.9793243;-;-;-;-;-;-;-;-;-;-;-;-;-;-;-
1514110931909;-;-;9.667084;-3.6665344;-2.9178467;-;-;-;-;-;-;-;-;-;-;-;-;-;-;-
1514110931929;-;-;9.403717;-2.2707062;-2.6078033;-;-;-;-;-;-;-;-;-;-;-;-;-;-;-
1514110931949;-;-;8.865021;-1.8206024;-2.6951904;-;-;-;-;-;-;-;-;-;-;-;-;-;-;-
1514110931970;-;-;7.8762207;-0.39245605;-4.554291;-;-;-;-;-;-;-;-;-;-;-;-;-;-;-
1514110931990;-;-;8.061768;2.5153046;-6.7270203;-;-;-;-;-;-;-;-;-;-;-;-;-;-;-
1514110932010;-;-;8.92009;5.4948883;-5.544281;-;-;-;-;-;-;-;-;-;-;-;-;-;-;-
1514110932030;-;-;9.592865;3.7483215;-4.5135803;-;-;-;-;-;-;-;-;-;-;-;-;-;-;-
1514110932051;-;-;12.550888;0.06842041;-3.2279053;-;-;-;-;-;-;-;-;-;-;-;-;-;-;-
1514110932071;-;-;14.013748;-1.1143036;-0.748703;-;-;-;-;-;-;-;-;-;-;-;-;-;-;-
1514110932091;-;-;11.485474;0.25637817;-2.5587158;-;-;-;-;-;-;-;-;-;-;-;-;-;-;-
1514110932112;-;-;10.04776;3.9194946;-6.4505005;-;-;-;-;-;-;-;-;-;-;-;-;-;-;-
1514110932132;-;-;9.695816;5.667267;-5.9524994;-;-;-;-;-;-;-;-;-;-;-;-;-;-;-
1514110932152;-;-;8.6651;3.7590942;-2.5036469;-;-;-;-;-;-;-;-;-;-;-;-;-;-;-
1514110932172;-;-;8.1766815;1.9394989;-0.03163147;-;-;-;-;-;-;-;-;-;-;-;-;-;-;-
1514110932193;-;-;6.9736023;0.37727356;-0.078323364;-;-;-;-;-;-;-;-;-;-;-;-;-;-;-
1514110932213;-;-;5.8902283;0.18214417;0.24009705;-;-;-;-;-;-;-;-;-;-;-;-;-;-;-
1514110932233;-;-;5.7717133;0.8010559;-0.63616943;-;-;-;-;-;-;-;-;-;-;-;-;-;-;-
1514110932253;-;-;5.5717926;0.9483032;-2.0918427;-;-;-;-;-;-;-;-;-;-;-;-;-;-;-
1514110932274;-;-;5.8567047;0.43115234;-1.5124512;-;-;-;-;-;-;-;-;-;-;-;-;-;-;-
1514110932294;-;-;7.3459015;-0.53012085;-0.06755066;-;-;-;-;-;-;-;-;-;-;-;-;-;-;-
1514110932314;-;-;8.40892;-0.27275085;-0.3943634;-;-;-;-;-;-;-;-;-;-;-;-;-;-;-
1514110932335;-;-;8.716583;0.7579498;-1.8069458;-;-;-;-;-;-;-;-;-;-;-;-;-;-;-
1514110932355;-;-;8.678268;0.9686432;-3.705536;-;-;-;-;-;-;-;-;-;-;-;-;-;-;-
1514110932375;-;-;8.4292755;1.027298;-3.44458;-;-;-;-;-;-;-;-;-;-;-;-;-;-;-
1514110932396;-;-;8.325134;1.2379913;-2.1301575;-;-;-;-;-;-;-;-;-;-;-;-;-;-;-
1514110932415;-;-;8.130005;2.2016602;-4.136505;-;-;-;-;-;-;-;-;-;-;-;-;-;-;-
1514110932435;-;-;6.197876;1.5133209;-5.429367;-;-;-;-;-;-;-;-;-;-;-;-;-;-;-
1514110932456;-;-;5.458069;-0.59117126;-5.1181183;-;-;-;-;-;-;-;-;-;-;-;-;-;-;-
1514110932475;-;-;7.154358;-3.3313446;-2.567093;-;-;-;-;-;-;-;-;-;-;-;-;-;-;-
1514110932495;-;-;10.922836;-5.6561127;-2.254654;-;-;-;-;-;-;-;-;-;-;-;-;-;-;-
1514110932515;-;-;15.330566;-3.8903809;-4.009598;-;-;-;-;-;-;-;-;-;-;-;-;-;-;-
1514110932536;-;-;16.73236;-0.14704895;-3.9102478;-;-;-;-;-;-;-;-;-;-;-;-;-;-;-
1514110932556;-;-;17.20163;0.61190796;-6.401413;-;-;-;-;-;-;-;-;-;-;-;-;-;-;-
1514110932576;-;-;16.861649;-1.0999451;-3.3248596;-;-;-;-;-;-;-;-;-;-;-;-;-;-;-
1514110932596;-;-;14.213669;-1.1023407;-0.551178;-;-;-;-;-;-;-;-;-;-;-;-;-;-;-
1514110932617;-;-;10.596024;-1.4111938;-0.946228;-;-;-;-;-;-;-;-;-;-;-;-;-;-;-
1514110932637;-;-;7.304001;-0.87968445;-0.60983276;-;-;-;-;-;-;-;-;-;-;-;-;-;-;-
1514110932657;-;-;4.719467;-0.6534271;-0.90911865;-;-;-;-;-;-;-;-;-;-;-;-;-;-;-
1514110932678;-;-;3.2973022;-1.0161438;-1.2945862;-;-;-;-;-;-;-;-;-;-;-;-;-;-;-
1514110932698;-;-;4.0287323;-0.9503021;-1.8560181;-;-;-;-;-;-;-;-;-;-;-;-;-;-;-
1514110932718;-;-;5.7298126;-0.53970337;-1.4933014;-;-;-;-;-;-;-;-;-;-;-;-;-;-;-
