TimeStamp[ms];Prox[Cm];Lux[lux];AccX[m/s^2];AccY[m/s^2];AccZ[m/s^2];GyroX[rad/s];GyroY[rad/s];GyroZ[rad/s];MagnX[uT];MagnY[uT];MagnZ[uT];OrienYaw[degrees];OrienPitch[degrees];OrienRoll[degrees];Press[Pa];Temp[C°];Batt[%];Lat;Lng;Speed[m/s]
1514110961800;-;-;8.72496;-0.87249756;2.0082245;-;-;-;-;-;-;-;-;-;-;-;-;-;-;-
1514110961801;-;-;8.72496;-0.87249756;2.0082245;-;-;-;-;-;-;-;-;-;-;-;-;-;-;-
1514110961822;-;-;8.623199;-1.111908;1.9256134;-;-;-;-;-;-;-;-;-;-;-;-;-;-;-
1514110961842;-;-;8.538208;-1.0388947;2.211731;-;-;-;-;-;-;-;-;-;-;-;-;-;-;-
1514110961863;-;-;8.56575;-0.9610748;2.4200287;-;-;-;-;-;-;-;-;-;-;-;-;-;-;-
1514110961883;-;-;8.790802;-0.87249756;2.8785095;-;-;-;-;-;-;-;-;-;-;-;-;-;-;-
1514110961904;-;-;9.240906;-0.5528717;2.2225037;-;-;-;-;-;-;-;-;-;-;-;-;-;-;-
1514110961924;-;-;9.23732;-0.4379425;1.7268982;-;-;-;-;-;-;-;-;-;-;-;-;-;-;-
1514110961944;-;-;9.397736;-0.47984314;2.235672;-;-;-;-;-;-;-;-;-;-;-;-;-;-;-
1514110961964;-;-;9.240906;-0.41760254;2.0884247;-;-;-;-;-;-;-;-;-;-;-;-;-;-;-
1514110961986;-;-;9.14035;-0.4044342;1.8310547;-;-;-;-;-;-;-;-;-;-;-;-;-;-;-
1514110962006;-;-;8.952408;-0.34936523;1.6107788;-;-;-;-;-;-;-;-;-;-;-;-;-;-;-
1514110962025;-;-;8.72496;-0.28831482;1.4168549;-;-;-;-;-;-;-;-;-;-;-;-;-;-;-
1514110962049;-;-;8.629196;-0.32901;1.5102234;-;-;-;-;-;-;-;-;-;-;-;-;-;-;-
1514110962066;-;-;8.704605;-0.20809937;1.4012909;-;-;-;-;-;-;-;-;-;-;-;-;-;-;-
1514110962086;-;-;8.847061;-0.00340271;0.9416046;-;-;-;-;-;-;-;-;-;-;-;-;-;-;-
1514110962106;-;-;9.59166;-0.12310791;1.5904388;-;-;-;-;-;-;-;-;-;-;-;-;-;-;-
1514110962126;-;-;10.135147;0.24559021;0.8733673;-;-;-;-;-;-;-;-;-;-;-;-;-;-;-
1514110962147;-;-;9.347458;0.3892517;1.5389557;-;-;-;-;-;-;-;-;-;-;-;-;-;-;-
1514110962167;-;-;9.360626;0.17616272;1.5844421;-;-;-;-;-;-;-;-;-;-;-;-;-;-;-
1514110962188;-;-;9.371399;-0.15065002;1.5150146;-;-;-;-;-;-;-;-;-;-;-;-;-;-;-
1514110962208;-;-;8.496307;-0.51934814;0.4040985;-;-;-;-;-;-;-;-;-;-;-;-;-;-;-
1514110962228;-;-;8.843475;-0.34457397;1.1103973;-;-;-;-;-;-;-;-;-;-;-;-;-;-;-
1514110962248;-;-;7.7529144;-0.35534668;0.62316895;-;-;-;-;-;-;-;-;-;-;-;-;-;-;-
1514110962269;-;-;10.339844;-0.67855835;0.35263062;-;-;-;-;-;-;-;-;-;-;-;-;-;-;-
1514110962289;-;-;7.4440613;-0.24641418;1.0804749;-;-;-;-;-;-;-;-;-;-;-;-;-;-;-
1514110962309;-;-;9.086487;0.021743774;1.1618652;-;-;-;-;-;-;-;-;-;-;-;-;-;-;-
1514110962330;-;-;9.808334;0.35572815;0.1479187;-;-;-;-;-;-;-;-;-;-;-;-;-;-;-
1514110962350;-;-;11.474701;-0.01776123;1.0792694;-;-;-;-;-;-;-;-;-;-;-;-;-;-;-
1514110962370;-;-;9.838257;0.34376526;0.7428894;-;-;-;-;-;-;-;-;-;-;-;-;-;-;-
1514110962391;-;-;9.453995;0.18574524;-0.38238525;-;-;-;-;-;-;-;-;-;-;-;-;-;-;-
1514110962411;-;-;9.033813;-0.0045928955;0.37298584;-;-;-;-;-;-;-;-;-;-;-;-;-;-;-
1514110962431;-;-;10.955154;-0.33738708;-0.014877319;-;-;-;-;-;-;-;-;-;-;-;-;-;-;-
1514110962452;-;-;8.624405;0.046875;-0.9581909;-;-;-;-;-;-;-;-;-;-;-;-;-;-;-
1514110962472;-;-;8.568146;0.23362732;0.5597229;-;-;-;-;-;-;-;-;-;-;-;-;-;-;-
1514110962492;-;-;8.569336;0.031311035;0.30116272;-;-;-;-;-;-;-;-;-;-;-;-;-;-;-
1514110962512;-;-;8.022263;-0.5037842;-0.6517334;-;-;-;-;-;-;-;-;-;-;-;-;-;-;-
1514110962533;-;-;8.952408;-0.21768188;-0.4458313;-;-;-;-;-;-;-;-;-;-;-;-;-;-;-
1514110962553;-;-;9.711365;0.076812744;0.23171997;-;-;-;-;-;-;-;-;-;-;-;-;-;-;-
1514110962573;-;-;9.134369;0.18214417;-0.06755066;-;-;-;-;-;-;-;-;-;-;-;-;-;-;-
1514110962594;-;-;9.653915;-0.45231628;-0.2399292;-;-;-;-;-;-;-;-;-;-;-;-;-;-;-
1514110962614;-;-;8.994308;-0.35055542;-0.9115143;-;-;-;-;-;-;-;-;-;-;-;-;-;-;-
1514110962634;-;-;10.336258;-0.06086731;-0.88157654;-;-;-;-;-;-;-;-;-;-;-;-;-;-;-
1514110962655;-;-;8.997894;-0.009384155;-0.1381836;-;-;-;-;-;-;-;-;-;-;-;-;-;-;-
1514110962675;-;-;9.2756195;-0.18296814;-0.29859924;-;-;-;-;-;-;-;-;-;-;-;-;-;-;-
1514110962695;-;-;9.358231;0.27192688;-0.65293884;-;-;-;-;-;-;-;-;-;-;-;-;-;-;-
1514110962715;-;-;9.59166;0.25637817;-0.8372803;-;-;-;-;-;-;-;-;-;-;-;-;-;-;-
1514110962736;-;-;8.936844;0.48382568;-0.9354553;-;-;-;-;-;-;-;-;-;-;-;-;-;-;-
1514110962756;-;-;6.920929;1.5983276;-1.0288239;-;-;-;-;-;-;-;-;-;-;-;-;-;-;-
1514110962776;-;-;9.398926;0.7136688;0.122787476;-;-;-;-;-;-;-;-;-;-;-;-;-;-;-
1514110962797;-;-;9.702988;-0.05847168;0.072509766;-;-;-;-;-;-;-;-;-;-;-;-;-;-;-
1514110962817;-;-;9.79277;0.074417114;0.7117615;-;-;-;-;-;-;-;-;-;-;-;-;-;-;-
1514110962837;-;-;9.771225;0.15222168;0.37417603;-;-;-;-;-;-;-;-;-;-;-;-;-;-;-
1514110962858;-;-;8.916504;0.03491211;-0.36802673;-;-;-;-;-;-;-;-;-;-;-;-;-;-;-
1514110962878;-;-;8.941635;-0.11831665;-0.5799103;-;-;-;-;-;-;-;-;-;-;-;-;-;-;-
1514110962898;-;-;8.758484;0.31982422;-1.1533203;-;-;-;-;-;-;-;-;-;-;-;-;-;-;-
1514110962918;-;-;8.471176;0.50177;-0.3835907;-;-;-;-;-;-;-;-;-;-;-;-;-;-;-
1514110962939;-;-;9.748489;0.095962524;0.2843933;-;-;-;-;-;-;-;-;-;-;-;-;-;-;-
1514110962959;-;-;12.51738;1.1398315;-1.021637;-;-;-;-;-;-;-;-;-;-;-;-;-;-;-
1514110962979;-;-;8.545395;0.31861877;-1.713562;-;-;-;-;-;-;-;-;-;-;-;-;-;-;-
1514110963000;-;-;8.345474;1.121872;-0.64575195;-;-;-;-;-;-;-;-;-;-;-;-;-;-;-
1514110963019;-;-;7.221405;1.8185883;0.39453125;-;-;-;-;-;-;-;-;-;-;-;-;-;-;-
1514110963039;-;-;7.7888336;1.7886658;0.3933258;-;-;-;-;-;-;-;-;-;-;-;-;-;-;-
1514110963060;-;-;8.175491;1.0751953;0.39692688;-;-;-;-;-;-;-;-;-;-;-;-;-;-;-
1514110963080;-;-;9.546173;0.5472717;0.38615417;-;-;-;-;-;-;-;-;-;-;-;-;-;-;-
1514110963100;-;-;8.791992;0.098358154;-0.13578796;-;-;-;-;-;-;-;-;-;-;-;-;-;-;-
1514110963120;-;-;6.810791;0.48860168;0.096450806;-;-;-;-;-;-;-;-;-;-;-;-;-;-;-
1514110963140;-;-;7.1160583;1.3050385;0.42684937;-;-;-;-;-;-;-;-;-;-;-;-;-;-;-
1514110963160;-;-;8.058182;0.8501282;0.6315613;-;-;-;-;-;-;-;-;-;-;-;-;-;-;-
1514110963181;-;-;10.485901;-2.724411;-1.7387085;-;-;-;-;-;-;-;-;-;-;-;-;-;-;-
1514110963201;-;-;12.574844;-3.400772;0.16348267;-;-;-;-;-;-;-;-;-;-;-;-;-;-;-
1514110963221;-;-;11.091629;-1.5321045;0.4040985;-;-;-;-;-;-;-;-;-;-;-;-;-;-;-
1514110963242;-;-;11.842209;-1.6817322;-1.5878754;-;-;-;-;-;-;-;-;-;-;-;-;-;-;-
1514110963262;-;-;10.8246765;-0.89164734;-0.42549133;-;-;-;-;-;-;-;-;-;-;-;-;-;-;-
1514110963283;-;-;9.504272;-0.69532776;-0.09628296;-;-;-;-;-;-;-;-;-;-;-;-;-;-;-
1514110963302;-;-;8.932053;-1.2579651;-0.6230011;-;-;-;-;-;-;-;-;-;-;-;-;-;-;-
1514110963323;-;-;9.430054;-1.5883636;-0.7163849;-;-;-;-;-;-;-;-;-;-;-;-;-;-;-
1514110963343;-;-;9.184647;-0.92277527;0.50227356;-;-;-;-;-;-;-;-;-;-;-;-;-;-;-
1514110963363;-;-;8.094086;0.04927063;0.9882965;-;-;-;-;-;-;-;-;-;-;-;-;-;-;-
1514110963384;-;-;7.485962;0.18214417;2.0872345;-;-;-;-;-;-;-;-;-;-;-;-;-;-;-
1514110963404;-;-;8.550186;0.42037964;0.23052979;-;-;-;-;-;-;-;-;-;-;-;-;-;-;-
1514110963424;-;-;9.360626;-0.25;-0.64694214;-;-;-;-;-;-;-;-;-;-;-;-;-;-;-
1514110963444;-;-;8.130005;-0.052474976;0.021026611;-;-;-;-;-;-;-;-;-;-;-;-;-;-;-
1514110963465;-;-;9.064941;-0.28710938;0.56811523;-;-;-;-;-;-;-;-;-;-;-;-;-;-;-
1514110963485;-;-;9.406113;-0.44033813;-0.059173584;-;-;-;-;-;-;-;-;-;-;-;-;-;-;-
1514110963505;-;-;9.365402;-0.3194275;-0.37161255;-;-;-;-;-;-;-;-;-;-;-;-;-;-;-
1514110963526;-;-;9.304352;-0.23803711;-1.3185272;-;-;-;-;-;-;-;-;-;-;-;-;-;-;-
1514110963546;-;-;10.210556;0.12828064;-2.3252869;-;-;-;-;-;-;-;-;-;-;-;-;-;-;-
1514110963566;-;-;11.922424;1.0835724;-2.0547333;-;-;-;-;-;-;-;-;-;-;-;-;-;-;-
1514110963586;-;-;11.78595;1.537262;-2.1421204;-;-;-;-;-;-;-;-;-;-;-;-;-;-;-
1514110963607;-;-;9.929245;0.62986755;-1.8787689;-;-;-;-;-;-;-;-;-;-;-;-;-;-;-
1514110963627;-;-;7.375824;-0.5349121;-0.70440674;-;-;-;-;-;-;-;-;-;-;-;-;-;-;-
1514110963647;-;-;6.6779175;-1.7499695;0.17785645;-;-;-;-;-;-;-;-;-;-;-;-;-;-;-
1514110963668;-;-;8.131195;-2.9111633;-0.2962036;-;-;-;-;-;-;-;-;-;-;-;-;-;-;-
1514110963688;-;-;9.753265;-3.0440369;-1.3544312;-;-;-;-;-;-;-;-;-;-;-;-;-;-;-
1514110963708;-;-;11.020996;-2.1737366;-2.3611908;-;-;-;-;-;-;-;-;-;-;-;-;-;-;-
1514110963728;-;-;10.909668;-0.9443207;-2.115799;-;-;-;-;-;-;-;-;-;-;-;-;-;-;-
1514110963749;-;-;9.911285;-1.0724182;-1.0946655;-;-;-;-;-;-;-;-;-;-;-;-;-;-;-
1514110963769;-;-;9.869385;-2.0851593;-0.24113464;-;-;-;-;-;-;-;-;-;-;-;-;-;-;-
1514110963789;-;-;9.443222;-2.9506683;0.10482788;-;-;-;-;-;-;-;-;-;-;-;-;-;-;-
1514110963809;-;-;8.7213745;-3.218811;-0.023254395;-;-;-;-;-;-;-;-;-;-;-;-;-;-;-
1514110963829;-;-;7.7648926;-2.8010254;-0.40393066;-;-;-;-;-;-;-;-;-;-;-;-;-;-;-
1514110963850;-;-;6.742569;-2.0971222;-0.9007416;-;-;-;-;-;-;-;-;-;-;-;-;-;-;-
1514110963871;-;-;6.319992;-1.3513336;-1.4657593;-;-;-;-;-;-;-;-;-;-;-;-;-;-;-
1514110963891;-;-;6.1727448;-0.46788025;-2.263031;-;-;-;-;-;-;-;-;-;-;-;-;-;-;-
1514110963911;-;-;6.309204;0.16539001;-2.4545746;-;-;-;-;-;-;-;-;-;-;-;-;-;-;-
1514110963932;-;-;6.3331604;0.91596985;-2.2570496;-;-;-;-;-;-;-;-;-;-;-;-;-;-;-
1514110963952;-;-;6.1847076;1.4403076;-1.8189087;-;-;-;-;-;-;-;-;-;-;-;-;-;-;-
1514110963972;-;-;5.3563232;1.3553162;-1.1413574;-;-;-;-;-;-;-;-;-;-;-;-;-;-;-
1514110963993;-;-;4.4752502;0.39283752;0.070114136;-;-;-;-;-;-;-;-;-;-;-;-;-;-;-
1514110964013;-;-;4.5865784;-1.0053711;1.0493469;-;-;-;-;-;-;-;-;-;-;-;-;-;-;-
1514110964033;-;-;5.838745;-2.4670258;1.2851715;-;-;-;-;-;-;-;-;-;-;-;-;-;-;-
1514110964053;-;-;7.6858826;-3.2535248;1.0984192;-;-;-;-;-;-;-;-;-;-;-;-;-;-;-
1514110964074;-;-;8.844666;-3.0655823;-0.6732788;-;-;-;-;-;-;-;-;-;-;-;-;-;-;-
1514110964094;-;-;9.479141;-1.9031982;-1.6680756;-;-;-;-;-;-;-;-;-;-;-;-;-;-;-
1514110964114;-;-;10.353012;-1.2424011;-0.89953613;-;-;-;-;-;-;-;-;-;-;-;-;-;-;-
1514110964135;-;-;10.961151;-1.3273926;-0.79299927;-;-;-;-;-;-;-;-;-;-;-;-;-;-;-
1514110964155;-;-;10.4535675;-1.9666443;-2.3588104;-;-;-;-;-;-;-;-;-;-;-;-;-;-;-
1514110964176;-;-;10.40329;-3.0739594;-5.0235443;-;-;-;-;-;-;-;-;-;-;-;-;-;-;-
1514110964196;-;-;12.696945;-2.1569824;-5.8028564;-;-;-;-;-;-;-;-;-;-;-;-;-;-;-
1514110964216;-;-;16.46901;2.0687866;-1.0072784;-;-;-;-;-;-;-;-;-;-;-;-;-;-;-
1514110964236;-;-;15.987778;4.190048;-0.4159088;-;-;-;-;-;-;-;-;-;-;-;-;-;-;-
1514110964257;-;-;13.147049;5.524811;-2.3133087;-;-;-;-;-;-;-;-;-;-;-;-;-;-;-
1514110964278;-;-;15.025299;1.3170013;-1.5771027;-;-;-;-;-;-;-;-;-;-;-;-;-;-;-
1514110964299;-;-;15.224014;-0.96347046;0.1658783;-;-;-;-;-;-;-;-;-;-;-;-;-;-;-
1514110964319;-;-;11.60878;-1.5727997;-1.6716614;-;-;-;-;-;-;-;-;-;-;-;-;-;-;-
1514110964339;-;-;7.949234;-0.076416016;-1.5088654;-;-;-;-;-;-;-;-;-;-;-;-;-;-;-
1514110964359;-;-;6.2541504;0.9207611;-0.6397705;-;-;-;-;-;-;-;-;-;-;-;-;-;-;-
1514110964380;-;-;6.0638123;1.0081482;-0.14416504;-;-;-;-;-;-;-;-;-;-;-;-;-;-;-
1514110964400;-;-;5.905792;0.19891357;0.15270996;-;-;-;-;-;-;-;-;-;-;-;-;-;-;-
1514110964420;-;-;5.403;-0.5444946;-0.10824585;-;-;-;-;-;-;-;-;-;-;-;-;-;-;-
1514110964441;-;-;4.8355865;-0.7851105;-0.31414795;-;-;-;-;-;-;-;-;-;-;-;-;-;-;-
1514110964461;-;-;4.8128357;-0.67497253;-0.008895874;-;-;-;-;-;-;-;-;-;-;-;-;-;-;-
1514110964481;-;-;5.449692;-0.11352539;-0.0041046143;-;-;-;-;-;-;-;-;-;-;-;-;-;-;-
1514110964501;-;-;6.0410614;0.7424011;-0.4745636;-;-;-;-;-;-;-;-;-;-;-;-;-;-;-
1514110964522;-;-;5.820801;1.6497955;-1.1904297;-;-;-;-;-;-;-;-;-;-;-;-;-;-;-
1514110964542;-;-;5.4808197;1.6019135;-0.82292175;-;-;-;-;-;-;-;-;-;-;-;-;-;-;-
1514110964562;-;-;5.8171997;0.59754944;0.6555023;-;-;-;-;-;-;-;-;-;-;-;-;-;-;-
1514110964582;-;-;6.8167877;-0.47027588;1.7508392;-;-;-;-;-;-;-;-;-;-;-;-;-;-;-
1514110964603;-;-;8.370621;-0.8270111;1.1020203;-;-;-;-;-;-;-;-;-;-;-;-;-;-;-
1514110964623;-;-;8.74411;-0.08480835;-0.8312988;-;-;-;-;-;-;-;-;-;-;-;-;-;-;-
1514110964643;-;-;8.570541;1.1769409;-1.7650452;-;-;-;-;-;-;-;-;-;-;-;-;-;-;-
1514110964664;-;-;9.129578;1.750351;-0.6577301;-;-;-;-;-;-;-;-;-;-;-;-;-;-;-
1514110964684;-;-;9.033813;1.7874603;-1.0791016;-;-;-;-;-;-;-;-;-;-;-;-;-;-;-
1514110964704;-;-;9.239716;0.42037964;-3.3200684;-;-;-;-;-;-;-;-;-;-;-;-;-;-;-
1514110964725;-;-;10.184219;-1.9055939;-3.70076;-;-;-;-;-;-;-;-;-;-;-;-;-;-;-
1514110964745;-;-;10.856995;-3.8209534;-4.033554;-;-;-;-;-;-;-;-;-;-;-;-;-;-;-
1514110964764;-;-;12.632294;-4.2555084;-1.5435791;-;-;-;-;-;-;-;-;-;-;-;-;-;-;-
1514110964785;-;-;15.534073;-2.913559;-0.6613159;-;-;-;-;-;-;-;-;-;-;-;-;-;-;-
1514110964805;-;-;18.156921;-1.1418457;2.8114777;-;-;-;-;-;-;-;-;-;-;-;-;-;-;-
1514110964825;-;-;15.537659;-4.0627747;0.36698914;-;-;-;-;-;-;-;-;-;-;-;-;-;-;-
1514110964846;-;-;18.62259;-5.8332825;-2.3791504;-;-;-;-;-;-;-;-;-;-;-;-;-;-;-
1514110964866;-;-;21.276566;-3.5144958;-0.71517944;-;-;-;-;-;-;-;-;-;-;-;-;-;-;-
1514110964886;-;-;10.608002;-0.6833496;-2.7789917;-;-;-;-;-;-;-;-;-;-;-;-;-;-;-
1514110964906;-;-;5.8962097;-0.25958252;-0.99650574;-;-;-;-;-;-;-;-;-;-;-;-;-;-;-
1514110964927;-;-;2.7406464;-0.22845459;-0.18965149;-;-;-;-;-;-;-;-;-;-;-;-;-;-;-
1514110964946;-;-;1.4202576;-0.26556396;-0.6984253;-;-;-;-;-;-;-;-;-;-;-;-;-;-;-
1514110964966;-;-;1.0635223;-0.12789917;-1.8141174;-;-;-;-;-;-;-;-;-;-;-;-;-;-;-
1514110964987;-;-;1.5902405;-0.24641418;-1.7339172;-;-;-;-;-;-;-;-;-;-;-;-;-;-;-
1514110965007;-;-;3.5702515;-0.44154358;-1.5926514;-;-;-;-;-;-;-;-;-;-;-;-;-;-;-
1514110965027;-;-;5.8160095;-0.77194214;-1.5004883;-;-;-;-;-;-;-;-;-;-;-;-;-;-;-
1514110965047;-;-;6.5594025;-1.3537292;-2.2438812;-;-;-;-;-;-;-;-;-;-;-;-;-;-;-
1514110965067;-;-;6.3822327;-1.6182861;-1.9912872;-;-;-;-;-;-;-;-;-;-;-;-;-;-;-
1514110965087;-;-;6.1056976;-2.1677551;-0.98812866;-;-;-;-;-;-;-;-;-;-;-;-;-;-;-
1514110965107;-;-;7.882202;-3.0559998;0.8218994;-;-;-;-;-;-;-;-;-;-;-;-;-;-;-
1514110965127;-;-;9.224152;-3.4809723;2.1387024;-;-;-;-;-;-;-;-;-;-;-;-;-;-;-
1514110965148;-;-;9.347458;-3.1050873;0.3418579;-;-;-;-;-;-;-;-;-;-;-;-;-;-;-
1514110965167;-;-;8.541809;-2.4095764;-1.6429291;-;-;-;-;-;-;-;-;-;-;-;-;-;-;-
1514110965187;-;-;8.685455;-1.1609955;-1.1521301;-;-;-;-;-;-;-;-;-;-;-;-;-;-;-
1514110965207;-;-;8.3107605;-0.7731323;-0.4159088;-;-;-;-;-;-;-;-;-;-;-;-;-;-;-
1514110965228;-;-;7.5158844;-0.9287567;-3.994049;-;-;-;-;-;-;-;-;-;-;-;-;-;-;-
1514110965248;-;-;9.154724;-0.32302856;-7.101715;-;-;-;-;-;-;-;-;-;-;-;-;-;-;-
1514110965268;-;-;12.455124;1.813797;-3.7713776;-;-;-;-;-;-;-;-;-;-;-;-;-;-;-
1514110965289;-;-;15.961441;4.1828613;-1.2287445;-;-;-;-;-;-;-;-;-;-;-;-;-;-;-
1514110965308;-;-;18.7435;2.2770844;-1.7363129;-;-;-;-;-;-;-;-;-;-;-;-;-;-;-
1514110965328;-;-;20.144104;0.8776703;-7.191498;-;-;-;-;-;-;-;-;-;-;-;-;-;-;-
1514110965349;-;-;20.512817;-0.39485168;-2.6449127;-;-;-;-;-;-;-;-;-;-;-;-;-;-;-
1514110965368;-;-;14.404007;-0.42477417;-2.9609375;-;-;-;-;-;-;-;-;-;-;-;-;-;-;-
1514110965389;-;-;9.330688;0.20610046;-3.4230194;-;-;-;-;-;-;-;-;-;-;-;-;-;-;-
1514110965409;-;-;5.612503;0.48860168;-2.3037415;-;-;-;-;-;-;-;-;-;-;-;-;-;-;-
1514110965429;-;-;3.0028229;0.4909973;-0.94262695;-;-;-;-;-;-;-;-;-;-;-;-;-;-;-
1514110965450;-;-;1.6896057;0.14263916;-0.49371338;-;-;-;-;-;-;-;-;-;-;-;-;-;-;-
1514110965470;-;-;1.7566376;-0.46188354;-0.061569214;-;-;-;-;-;-;-;-;-;-;-;-;-;-;-
1514110965490;-;-;3.2458344;-1.0640259;-0.099868774;-;-;-;-;-;-;-;-;-;-;-;-;-;-;-
1514110965511;-;-;4.6236877;-1.170578;-1.1712799;-;-;-;-;-;-;-;-;-;-;-;-;-;-;-
1514110965531;-;-;4.5470734;-1.020935;-1.6429291;-;-;-;-;-;-;-;-;-;-;-;-;-;-;-
1514110965551;-;-;4.8954315;-0.27275085;-2.021225;-;-;-;-;-;-;-;-;-;-;-;-;-;-;-
1514110965572;-;-;6.003952;0.8740692;-1.7039948;-;-;-;-;-;-;-;-;-;-;-;-;-;-;-
1514110965593;-;-;7.2704773;1.9777985;-0.372818;-;-;-;-;-;-;-;-;-;-;-;-;-;-;-
1514110965613;-;-;7.798401;2.3333435;-0.377594;-;-;-;-;-;-;-;-;-;-;-;-;-;-;-
1514110965633;-;-;8.777634;1.9299164;-1.7111664;-;-;-;-;-;-;-;-;-;-;-;-;-;-;-
1514110965654;-;-;9.390549;1.8628845;-3.350006;-;-;-;-;-;-;-;-;-;-;-;-;-;-;-
1514110965674;-;-;9.863403;-0.015365601;-3.0004425;-;-;-;-;-;-;-;-;-;-;-;-;-;-;-
1514110965694;-;-;9.470749;-1.4866028;-2.8304596;-;-;-;-;-;-;-;-;-;-;-;-;-;-;-
1514110965715;-;-;7.7421417;-0.6294861;-4.714691;-;-;-;-;-;-;-;-;-;-;-;-;-;-;-
1514110965734;-;-;5.8830414;1.1817322;-5.7130737;-;-;-;-;-;-;-;-;-;-;-;-;-;-;-
1514110965755;-;-;5.289276;0.4407196;-4.4788666;-;-;-;-;-;-;-;-;-;-;-;-;-;-;-
1514110965775;-;-;8.349075;-2.3114166;-1.8368683;-;-;-;-;-;-;-;-;-;-;-;-;-;-;-
1514110965795;-;-;12.493439;-5.306549;-3.072281;-;-;-;-;-;-;-;-;-;-;-;-;-;-;-
1514110965816;-;-;19.207977;-5.306549;-5.8579254;-;-;-;-;-;-;-;-;-;-;-;-;-;-;-
1514110965836;-;-;22.71428;-3.8424988;-4.9972076;-;-;-;-;-;-;-;-;-;-;-;-;-;-;-
1514110965857;-;-;24.83435;-3.1685333;-4.2657776;-;-;-;-;-;-;-;-;-;-;-;-;-;-;-
1514110965877;-;-;21.490845;-1.3704834;0.029418945;-;-;-;-;-;-;-;-;-;-;-;-;-;-;-
1514110965897;-;-;9.694611;0.06842041;-0.377594;-;-;-;-;-;-;-;-;-;-;-;-;-;-;-
1514110965918;-;-;5.233017;-0.35295105;0.55255127;-;-;-;-;-;-;-;-;-;-;-;-;-;-;-
1514110965938;-;-;4.5506744;-1.2807007;-0.34648132;-;-;-;-;-;-;-;-;-;-;-;-;-;-;-
1514110965958;-;-;4.8631134;-1.9127808;-2.3695831;-;-;-;-;-;-;-;-;-;-;-;-;-;-;-
1514110965978;-;-;6.1763306;-2.0743866;-2.642517;-;-;-;-;-;-;-;-;-;-;-;-;-;-;-
1514110965999;-;-;6.012329;-1.3070374;-2.507248;-;-;-;-;-;-;-;-;-;-;-;-;-;-;-
1514110966019;-;-;5.334778;-0.2212677;-2.1828308;-;-;-;-;-;-;-;-;-;-;-;-;-;-;-
1514110966039;-;-;5.097748;0.1797638;-1.9601746;-;-;-;-;-;-;-;-;-;-;-;-;-;-;-
1514110966059;-;-;5.2665405;-0.49421692;-2.0882568;-;-;-;-;-;-;-;-;-;-;-;-;-;-;-
1514110966079;-;-;5.161194;-1.6266632;-1.9517822;-;-;-;-;-;-;-;-;-;-;-;-;-;-;-
1514110966100;-;-;4.932541;-2.3006287;-1.8344727;-;-;-;-;-;-;-;-;-;-;-;-;-;-;-
1514110966120;-;-;5.0618286;-2.143814;-1.1126251;-;-;-;-;-;-;-;-;-;-;-;-;-;-;-
1514110966140;-;-;5.9201508;-1.5751953;-0.27703857;-;-;-;-;-;-;-;-;-;-;-;-;-;-;-
1514110966160;-;-;7.066971;-0.93473816;1.112793;-;-;-;-;-;-;-;-;-;-;-;-;-;-;-
1514110966181;-;-;8.080917;-1.4470978;1.1223602;-;-;-;-;-;-;-;-;-;-;-;-;-;-;-
1514110966202;-;-;8.865021;-2.372467;-0.16331482;-;-;-;-;-;-;-;-;-;-;-;-;-;-;-
1514110966222;-;-;9.367798;-2.456253;-2.029602;-;-;-;-;-;-;-;-;-;-;-;-;-;-;-
1514110966242;-;-;9.182251;-1.783493;-2.4174652;-;-;-;-;-;-;-;-;-;-;-;-;-;-;-
1514110966262;-;-;8.298798;-1.7332153;-1.1976166;-;-;-;-;-;-;-;-;-;-;-;-;-;-;-
1514110966282;-;-;8.332306;-1.9391174;-2.2163544;-;-;-;-;-;-;-;-;-;-;-;-;-;-;-
1514110966303;-;-;10.428436;-1.3932343;-5.112137;-;-;-;-;-;-;-;-;-;-;-;-;-;-;-
1514110966323;-;-;14.048462;0.5352936;-4.778137;-;-;-;-;-;-;-;-;-;-;-;-;-;-;-
1514110966343;-;-;14.771515;3.2790527;-4.3208466;-;-;-;-;-;-;-;-;-;-;-;-;-;-;-
1514110966364;-;-;17.69484;2.363266;-3.223114;-;-;-;-;-;-;-;-;-;-;-;-;-;-;-
1514110966384;-;-;16.939468;1.8353424;-3.5128021;-;-;-;-;-;-;-;-;-;-;-;-;-;-;-
1514110966404;-;-;15.968613;2.0927277;-4.377121;-;-;-;-;-;-;-;-;-;-;-;-;-;-;-
1514110966425;-;-;14.606323;1.2703094;-2.9513702;-;-;-;-;-;-;-;-;-;-;-;-;-;-;-
1514110966445;-;-;11.718903;0.59036255;-2.1457214;-;-;-;-;-;-;-;-;-;-;-;-;-;-;-
1514110966465;-;-;7.882202;0.14982605;-1.7566681;-;-;-;-;-;-;-;-;-;-;-;-;-;-;-
1514110966485;-;-;5.289276;-0.44992065;-1.3999176;-;-;-;-;-;-;-;-;-;-;-;-;-;-;-
1514110966506;-;-;4.0263367;-1.2807007;-0.27345276;-;-;-;-;-;-;-;-;-;-;-;-;-;-;-
1514110966526;-;-;4.260971;-2.088745;0.23292542;-;-;-;-;-;-;-;-;-;-;-;-;-;-;-
1514110966546;-;-;4.5542603;-2.3796387;-0.40992737;-;-;-;-;-;-;-;-;-;-;-;-;-;-;-
1514110966566;-;-;5.0881653;-1.7320099;-0.88397217;-;-;-;-;-;-;-;-;-;-;-;-;-;-;-
1514110966586;-;-;5.392227;-0.18536377;-1.3795776;-;-;-;-;-;-;-;-;-;-;-;-;-;-;-
1514110966606;-;-;5.4281464;1.2332001;-1.7183533;-;-;-;-;-;-;-;-;-;-;-;-;-;-;-
1514110966627;-;-;5.7932587;2.1837006;-2.3169098;-;-;-;-;-;-;-;-;-;-;-;-;-;-;-
1514110966647;-;-;7.228592;2.0173035;-1.6441345;-;-;-;-;-;-;-;-;-;-;-;-;-;-;-
1514110966667;-;-;8.18985;1.1757507;-0.89115906;-;-;-;-;-;-;-;-;-;-;-;-;-;-;-
1514110966688;-;-;8.029449;0.61190796;-2.1014252;-;-;-;-;-;-;-;-;-;-;-;-;-;-;-
1514110966708;-;-;7.4404755;0.28271484;-1.942215;-;-;-;-;-;-;-;-;-;-;-;-;-;-;-
1514110966728;-;-;7.554199;-0.5935669;0.077301025;-;-;-;-;-;-;-;-;-;-;-;-;-;-;-
1514110966748;-;-;8.335907;-0.9898071;0.8326721;-;-;-;-;-;-;-;-;-;-;-;-;-;-;-
1514110966769;-;-;8.30957;-0.30267334;-0.48893738;-;-;-;-;-;-;-;-;-;-;-;-;-;-;-
1514110966790;-;-;7.653549;0.78907776;-3.6408997;-;-;-;-;-;-;-;-;-;-;-;-;-;-;-
1514110966809;-;-;7.2465363;1.109909;-4.1197357;-;-;-;-;-;-;-;-;-;-;-;-;-;-;-
1514110966829;-;-;7.5984955;-1.3034515;-2.9561615;-;-;-;-;-;-;-;-;-;-;-;-;-;-;-
1514110966850;-;-;10.166275;-4.4015503;-1.8955231;-;-;-;-;-;-;-;-;-;-;-;-;-;-;-
1514110966870;-;-;12.722076;-6.4701385;-3.180008;-;-;-;-;-;-;-;-;-;-;-;-;-;-;-
1514110966890;-;-;14.430344;-4.140579;-3.0914307;-;-;-;-;-;-;-;-;-;-;-;-;-;-;-
1514110966911;-;-;16.484573;-2.2790833;-4.76976;-;-;-;-;-;-;-;-;-;-;-;-;-;-;-
1514110966931;-;-;19.507248;-2.9123535;-3.4457703;-;-;-;-;-;-;-;-;-;-;-;-;-;-;-
1514110966951;-;-;21.68837;-2.427536;-2.0008698;-;-;-;-;-;-;-;-;-;-;-;-;-;-;-
1514110966971;-;-;15.044449;-1.6865234;-0.73194885;-;-;-;-;-;-;-;-;-;-;-;-;-;-;-
1514110966992;-;-;10.195007;-1.2711334;-0.53800964;-;-;-;-;-;-;-;-;-;-;-;-;-;-;-
1514110967012;-;-;7.2513275;-0.7803192;-1.5986481;-;-;-;-;-;-;-;-;-;-;-;-;-;-;-
1514110967032;-;-;5.4281464;-0.24043274;-1.6644897;-;-;-;-;-;-;-;-;-;-;-;-;-;-;-
1514110967052;-;-;4.0838013;-0.112335205;-1.6273804;-;-;-;-;-;-;-;-;-;-;-;-;-;-;-
1514110967073;-;-;3.6971436;-0.41041565;-1.942215;-;-;-;-;-;-;-;-;-;-;-;-;-;-;-
1514110967093;-;-;3.577423;-0.21887207;-1.4645691;-;-;-;-;-;-;-;-;-;-;-;-;-;-;-
1514110967113;-;-;4.5399017;-0.033325195;-0.7630615;-;-;-;-;-;-;-;-;-;-;-;-;-;-;-
1514110967133;-;-;5.154007;-0.0069885254;-1.416687;-;-;-;-;-;-;-;-;-;-;-;-;-;-;-
1514110967153;-;-;6.0482483;-0.4451294;-1.9601746;-;-;-;-;-;-;-;-;-;-;-;-;-;-;-
1514110967174;-;-;6.4289246;-1.4985809;-1.9960785;-;-;-;-;-;-;-;-;-;-;-;-;-;-;-
1514110967194;-;-;5.881851;-2.1629639;-1.808136;-;-;-;-;-;-;-;-;-;-;-;-;-;-;-
1514110967214;-;-;6.2002716;-2.0145264;-0.98931885;-;-;-;-;-;-;-;-;-;-;-;-;-;-;-
1514110967235;-;-;7.928894;-2.5017548;0.87457275;-;-;-;-;-;-;-;-;-;-;-;-;-;-;-
1514110967254;-;-;9.600037;-4.037628;1.8130951;-;-;-;-;-;-;-;-;-;-;-;-;-;-;-
1514110967275;-;-;10.42485;-4.866028;-0.006500244;-;-;-;-;-;-;-;-;-;-;-;-;-;-;-
1514110967295;-;-;10.435623;-4.8289185;-2.5455475;-;-;-;-;-;-;-;-;-;-;-;-;-;-;-
1514110967315;-;-;9.600037;-2.1809235;-3.6289215;-;-;-;-;-;-;-;-;-;-;-;-;-;-;-
1514110967336;-;-;9.311539;1.319397;-6.4624634;-;-;-;-;-;-;-;-;-;-;-;-;-;-;-
1514110967356;-;-;10.159088;1.8748474;-4.970871;-;-;-;-;-;-;-;-;-;-;-;-;-;-;-
1514110967376;-;-;13.05368;2.0963135;-1.8237;-;-;-;-;-;-;-;-;-;-;-;-;-;-;-
1514110967397;-;-;15.348526;2.339325;-1.2957764;-;-;-;-;-;-;-;-;-;-;-;-;-;-;-
1514110967417;-;-;15.881226;2.608673;-2.8819427;-;-;-;-;-;-;-;-;-;-;-;-;-;-;-
1514110967437;-;-;16.07756;4.2032166;-6.2386017;-;-;-;-;-;-;-;-;-;-;-;-;-;-;-
1514110967457;-;-;14.790665;1.0249176;-3.2554321;-;-;-;-;-;-;-;-;-;-;-;-;-;-;-
1514110967477;-;-;12.127121;-0.4056244;-1.6177979;-;-;-;-;-;-;-;-;-;-;-;-;-;-;-
1514110967498;-;-;8.6423645;0.4514923;-1.5375977;-;-;-;-;-;-;-;-;-;-;-;-;-;-;-
1514110967518;-;-;5.8327637;1.4438934;-1.550766;-;-;-;-;-;-;-;-;-;-;-;-;-;-;-
1514110967539;-;-;3.6265106;1.7132416;-1.4549866;-;-;-;-;-;-;-;-;-;-;-;-;-;-;-
1514110967559;-;-;3.2757568;0.635849;-1.6728668;-;-;-;-;-;-;-;-;-;-;-;-;-;-;-
1514110967579;-;-;4.293289;-0.4343567;-1.1497345;-;-;-;-;-;-;-;-;-;-;-;-;-;-;-
1514110967599;-;-;6.1440125;-0.8353882;-0.82173157;-;-;-;-;-;-;-;-;-;-;-;-;-;-;-
1514110967620;-;-;6.4456787;-0.5456848;-1.5196381;-;-;-;-;-;-;-;-;-;-;-;-;-;-;-
1514110967641;-;-;5.8591003;-0.3074646;-1.847641;-;-;-;-;-;-;-;-;-;-;-;-;-;-;-
1514110967661;-;-;5.6579895;-0.012969971;-1.8596191;-;-;-;-;-;-;-;-;-;-;-;-;-;-;-
1514110967681;-;-;6.0290833;0.26834106;-1.6070251;-;-;-;-;-;-;-;-;-;-;-;-;-;-;-
1514110967702;-;-;7.0178986;0.30545044;-0.9450226;-;-;-;-;-;-;-;-;-;-;-;-;-;-;-
1514110967722;-;-;6.6623535;0.59994507;-1.7387085;-;-;-;-;-;-;-;-;-;-;-;-;-;-;-
1514110967742;-;-;7.319565;1.4714355;-2.6508942;-;-;-;-;-;-;-;-;-;-;-;-;-;-;-
1514110967762;-;-;8.8997345;2.6170502;-2.0092468;-;-;-;-;-;-;-;-;-;-;-;-;-;-;-
1514110967783;-;-;8.497513;3.1198425;-2.0918427;-;-;-;-;-;-;-;-;-;-;-;-;-;-;-
1514110967803;-;-;7.241745;2.9378815;-3.2937317;-;-;-;-;-;-;-;-;-;-;-;-;-;-;-
1514110967823;-;-;5.38266;0.8297882;-4.4237976;-;-;-;-;-;-;-;-;-;-;-;-;-;-;-
1514110967843;-;-;6.2433777;-2.9075623;-2.3252869;-;-;-;-;-;-;-;-;-;-;-;-;-;-;-
1514110967864;-;-;10.030991;-5.361618;-0.5404053;-;-;-;-;-;-;-;-;-;-;-;-;-;-;-
1514110967884;-;-;12.907623;-6.5766754;-3.7941284;-;-;-;-;-;-;-;-;-;-;-;-;-;-;-
1514110967905;-;-;18.748291;-5.535202;-5.4497223;-;-;-;-;-;-;-;-;-;-;-;-;-;-;-
1514110967928;-;-;23.58577;-0.37928772;-6.729416;-;-;-;-;-;-;-;-;-;-;-;-;-;-;-
1514110967948;-;-;19.344437;-1.7499695;-3.3954926;-;-;-;-;-;-;-;-;-;-;-;-;-;-;-
1514110967968;-;-;15.087555;-3.7215881;-1.085083;-;-;-;-;-;-;-;-;-;-;-;-;-;-;-
1514110967989;-;-;7.6631317;-2.5065308;-0.3297119;-;-;-;-;-;-;-;-;-;-;-;-;-;-;-
1514110968009;-;-;3.3894806;-0.1530304;0.4100952;-;-;-;-;-;-;-;-;-;-;-;-;-;-;-
1514110968029;-;-;1.9493713;0.8992157;-0.33210754;-;-;-;-;-;-;-;-;-;-;-;-;-;-;-
1514110968050;-;-;1.9134521;0.7232361;-2.045166;-;-;-;-;-;-;-;-;-;-;-;-;-;-;-
1514110968069;-;-;4.7182617;-0.44752502;-3.370346;-;-;-;-;-;-;-;-;-;-;-;-;-;-;-
1514110968089;-;-;8.286819;-0.8317871;-3.247055;-;-;-;-;-;-;-;-;-;-;-;-;-;-;-
1514110968109;-;-;8.085709;-1.1346588;-1.6549072;-;-;-;-;-;-;-;-;-;-;-;-;-;-;-
1514110968130;-;-;7.4596252;-1.8601074;-0.58828735;-;-;-;-;-;-;-;-;-;-;-;-;-;-;-
1514110968150;-;-;6.6156616;-3.0344543;-0.31176758;-;-;-;-;-;-;-;-;-;-;-;-;-;-;-
1514110968170;-;-;6.19429;-3.895172;0.75245667;-;-;-;-;-;-;-;-;-;-;-;-;-;-;-
1514110968190;-;-;6.5594025;-4.472183;0.8913269;-;-;-;-;-;-;-;-;-;-;-;-;-;-;-
1514110968210;-;-;8.007904;-5.289795;0.68782043;-;-;-;-;-;-;-;-;-;-;-;-;-;-;-
1514110968231;-;-;10.159088;-6.125366;-1.0503693;-;-;-;-;-;-;-;-;-;-;-;-;-;-;-
1514110968251;-;-;10.563705;-5.3484497;-1.3879547;-;-;-;-;-;-;-;-;-;-;-;-;-;-;-
1514110968270;-;-;9.930435;-3.7108154;-0.3656311;-;-;-;-;-;-;-;-;-;-;-;-;-;-;-
1514110968290;-;-;9.438431;-1.7870789;-1.8189087;-;-;-;-;-;-;-;-;-;-;-;-;-;-;-
1514110968311;-;-;9.130783;1.5552216;-10.874985;-;-;-;-;-;-;-;-;-;-;-;-;-;-;-
1514110968331;-;-;11.301117;8.057877;-9.321136;-;-;-;-;-;-;-;-;-;-;-;-;-;-;-
1514110968351;-;-;14.812225;5.937805;-2.8699646;-;-;-;-;-;-;-;-;-;-;-;-;-;-;-
1514110968371;-;-;16.121841;0.9854126;-5.8220215;-;-;-;-;-;-;-;-;-;-;-;-;-;-;-
1514110968392;-;-;16.648575;-1.4147797;-8.690262;-;-;-;-;-;-;-;-;-;-;-;-;-;-;-
1514110968412;-;-;18.136566;-0.6103363;-3.8396149;-;-;-;-;-;-;-;-;-;-;-;-;-;-;-
1514110968432;-;-;12.514984;1.2320099;-4.397461;-;-;-;-;-;-;-;-;-;-;-;-;-;-;-
1514110968452;-;-;9.3941345;0.6633911;-3.9497528;-;-;-;-;-;-;-;-;-;-;-;-;-;-;-
1514110968473;-;-;8.024658;-0.3589325;-2.7586365;-;-;-;-;-;-;-;-;-;-;-;-;-;-;-
1514110968493;-;-;6.9544525;-0.87968445;-1.1569061;-;-;-;-;-;-;-;-;-;-;-;-;-;-;-
1514110968513;-;-;5.5777893;-0.9826355;-1.3125305;-;-;-;-;-;-;-;-;-;-;-;-;-;-;-
1514110968533;-;-;4.5506744;-0.9790344;-2.2845764;-;-;-;-;-;-;-;-;-;-;-;-;-;-;-
1514110968554;-;-;4.88945;-0.6474457;-2.4821014;-;-;-;-;-;-;-;-;-;-;-;-;-;-;-
1514110968574;-;-;6.5007477;0.51374817;-2.467743;-;-;-;-;-;-;-;-;-;-;-;-;-;-;-
1514110968594;-;-;7.5865173;1.6545868;-2.3276825;-;-;-;-;-;-;-;-;-;-;-;-;-;-;-
1514110968615;-;-;7.8235474;1.3720703;-1.8416595;-;-;-;-;-;-;-;-;-;-;-;-;-;-;-
1514110968634;-;-;7.9779663;0.51374817;-1.9709473;-;-;-;-;-;-;-;-;-;-;-;-;-;-;-
1514110968654;-;-;8.157532;0.008575439;-2.2295227;-;-;-;-;-;-;-;-;-;-;-;-;-;-;-
1514110968675;-;-;8.315552;0.06124878;-2.3779602;-;-;-;-;-;-;-;-;-;-;-;-;-;-;-
1514110968695;-;-;8.450821;1.4786072;-2.2211304;-;-;-;-;-;-;-;-;-;-;-;-;-;-;-
1514110968715;-;-;8.898544;2.0448456;-1.7961731;-;-;-;-;-;-;-;-;-;-;-;-;-;-;-
1514110968735;-;-;9.534195;1.4690399;-1.8835602;-;-;-;-;-;-;-;-;-;-;-;-;-;-;-
1514110968756;-;-;10.995865;0.29707336;-0.58709717;-;-;-;-;-;-;-;-;-;-;-;-;-;-;-
1514110968776;-;-;10.563705;-0.88087463;-0.496109;-;-;-;-;-;-;-;-;-;-;-;-;-;-;-
1514110968796;-;-;9.385757;-2.380844;-1.5280151;-;-;-;-;-;-;-;-;-;-;-;-;-;-;-
1514110968816;-;-;7.7289734;-2.2946472;-3.2721863;-;-;-;-;-;-;-;-;-;-;-;-;-;-;-
1514110968837;-;-;7.9827576;-4.000519;-7.0478516;-;-;-;-;-;-;-;-;-;-;-;-;-;-;-
1514110968857;-;-;11.825455;-5.1485443;-7.4704285;-;-;-;-;-;-;-;-;-;-;-;-;-;-;-
1514110968877;-;-;11.396896;-2.8644714;-6.9879913;-;-;-;-;-;-;-;-;-;-;-;-;-;-;-
1514110968897;-;-;9.267242;-1.5297089;-5.298889;-;-;-;-;-;-;-;-;-;-;-;-;-;-;-
1514110968917;-;-;9.212173;0.59394836;-4.1628265;-;-;-;-;-;-;-;-;-;-;-;-;-;-;-
1514110968938;-;-;9.9831085;0.9363251;-5.9524994;-;-;-;-;-;-;-;-;-;-;-;-;-;-;-
1514110968958;-;-;10.162674;-0.8533478;-4.523163;-;-;-;-;-;-;-;-;-;-;-;-;-;-;-
1514110968978;-;-;9.224152;-2.2132416;-3.6552582;-;-;-;-;-;-;-;-;-;-;-;-;-;-;-
1514110968999;-;-;8.459198;-2.4706268;-3.2015686;-;-;-;-;-;-;-;-;-;-;-;-;-;-;-
1514110969018;-;-;8.106064;-2.392807;-2.7191315;-;-;-;-;-;-;-;-;-;-;-;-;-;-;-
1514110969038;-;-;7.335129;-1.7894745;-2.1121979;-;-;-;-;-;-;-;-;-;-;-;-;-;-;-
1514110969058;-;-;5.866287;-1.3920441;-1.8584137;-;-;-;-;-;-;-;-;-;-;-;-;-;-;-
1514110969079;-;-;5.374283;-1.451889;-2.0942383;-;-;-;-;-;-;-;-;-;-;-;-;-;-;-
1514110969099;-;-;5.691513;-1.0843811;-2.8843231;-;-;-;-;-;-;-;-;-;-;-;-;-;-;-
1514110969119;-;-;6.9855804;-0.5827942;-2.8472137;-;-;-;-;-;-;-;-;-;-;-;-;-;-;-
1514110969140;-;-;7.422516;-0.5504761;-2.179245;-;-;-;-;-;-;-;-;-;-;-;-;-;-;-
1514110969160;-;-;7.7014465;-1.249588;-1.3245087;-;-;-;-;-;-;-;-;-;-;-;-;-;-;-
1514110969180;-;-;8.655533;-2.5843506;-1.0204468;-;-;-;-;-;-;-;-;-;-;-;-;-;-;-
1514110969201;-;-;9.620392;-4.1058655;-1.0982513;-;-;-;-;-;-;-;-;-;-;-;-;-;-;-
1514110969221;-;-;10.236893;-4.9833374;-2.0307922;-;-;-;-;-;-;-;-;-;-;-;-;-;-;-
1514110969241;-;-;10.697784;-4.1262207;-2.8424377;-;-;-;-;-;-;-;-;-;-;-;-;-;-;-
1514110969262;-;-;10.569687;-2.329361;-2.6389313;-;-;-;-;-;-;-;-;-;-;-;-;-;-;-
1514110969281;-;-;9.911285;-2.250351;-0.927063;-;-;-;-;-;-;-;-;-;-;-;-;-;-;-
1514110969301;-;-;10.581665;-3.713211;1.0062408;-;-;-;-;-;-;-;-;-;-;-;-;-;-;-
1514110969322;-;-;11.139511;-4.5847015;-0.8372803;-;-;-;-;-;-;-;-;-;-;-;-;-;-;-
1514110969343;-;-;10.399704;-3.8209534;-6.1775513;-;-;-;-;-;-;-;-;-;-;-;-;-;-;-
1514110969363;-;-;11.050934;-3.325348;-9.47197;-;-;-;-;-;-;-;-;-;-;-;-;-;-;-
1514110969384;-;-;10.678635;-3.155365;-6.698288;-;-;-;-;-;-;-;-;-;-;-;-;-;-;-
1514110969404;-;-;8.362244;-1.1358643;-4.349579;-;-;-;-;-;-;-;-;-;-;-;-;-;-;-
1514110969424;-;-;5.8507233;1.3660889;-6.0003815;-;-;-;-;-;-;-;-;-;-;-;-;-;-;-
1514110969444;-;-;5.4018097;3.608261;-5.7238464;-;-;-;-;-;-;-;-;-;-;-;-;-;-;-
1514110969465;-;-;7.10408;2.7619019;-5.397049;-;-;-;-;-;-;-;-;-;-;-;-;-;-;-
1514110969484;-;-;9.631165;-0.04649353;-5.286911;-;-;-;-;-;-;-;-;-;-;-;-;-;-;-
1514110969505;-;-;11.899673;-2.5376587;-5.254593;-;-;-;-;-;-;-;-;-;-;-;-;-;-;-
1514110969525;-;-;13.928757;-2.1294556;-4.559067;-;-;-;-;-;-;-;-;-;-;-;-;-;-;-
1514110969545;-;-;11.760803;-1.8912201;-4.1185455;-;-;-;-;-;-;-;-;-;-;-;-;-;-;-
1514110969565;-;-;8.009094;-1.9151764;-3.9796753;-;-;-;-;-;-;-;-;-;-;-;-;-;-;-
1514110969585;-;-;5.3335724;-1.5823822;-4.0155945;-;-;-;-;-;-;-;-;-;-;-;-;-;-;-
1514110969606;-;-;4.067047;-0.23803711;-3.322464;-;-;-;-;-;-;-;-;-;-;-;-;-;-;-
1514110969626;-;-;4.1137238;1.1398315;-3.0136108;-;-;-;-;-;-;-;-;-;-;-;-;-;-;-
1514110969646;-;-;5.663971;2.3824158;-3.646881;-;-;-;-;-;-;-;-;-;-;-;-;-;-;-
1514110969666;-;-;7.9312897;2.5895233;-4.172409;-;-;-;-;-;-;-;-;-;-;-;-;-;-;-
1514110969686;-;-;9.948395;1.8987885;-3.5918121;-;-;-;-;-;-;-;-;-;-;-;-;-;-;-
1514110969707;-;-;10.625961;1.3948212;-2.6951904;-;-;-;-;-;-;-;-;-;-;-;-;-;-;-
1514110969727;-;-;10.0776825;1.4726257;-2.1014252;-;-;-;-;-;-;-;-;-;-;-;-;-;-;-
1514110969747;-;-;8.655533;1.2128601;-1.8955231;-;-;-;-;-;-;-;-;-;-;-;-;-;-;-
1514110969768;-;-;7.3698425;0.9064026;-1.7470856;-;-;-;-;-;-;-;-;-;-;-;-;-;-;-
1514110969788;-;-;6.3571014;0.88604736;-1.8967285;-;-;-;-;-;-;-;-;-;-;-;-;-;-;-
1514110969808;-;-;6.118866;1.5300903;-2.7550507;-;-;-;-;-;-;-;-;-;-;-;-;-;-;-
1514110969828;-;-;6.9855804;1.6845093;-1.8811646;-;-;-;-;-;-;-;-;-;-;-;-;-;-;-
1514110969849;-;-;8.24971;0.8010559;-1.5040741;-;-;-;-;-;-;-;-;-;-;-;-;-;-;-
1514110969869;-;-;9.588074;-0.29190063;-0.9522095;-;-;-;-;-;-;-;-;-;-;-;-;-;-;-
1514110969889;-;-;10.281189;-0.69532776;-0.6218109;-;-;-;-;-;-;-;-;-;-;-;-;-;-;-
1514110969910;-;-;10.549347;-0.9143982;-0.08192444;-;-;-;-;-;-;-;-;-;-;-;-;-;-;-
1514110969930;-;-;10.014236;-0.6438446;-0.7678528;-;-;-;-;-;-;-;-;-;-;-;-;-;-;-
1514110969950;-;-;8.98114;-0.34576416;-3.5259705;-;-;-;-;-;-;-;-;-;-;-;-;-;-;-
1514110969971;-;-;9.209793;-1.076004;-8.859055;-;-;-;-;-;-;-;-;-;-;-;-;-;-;-
1514110969991;-;-;12.516174;-1.427948;-7.365082;-;-;-;-;-;-;-;-;-;-;-;-;-;-;-
1514110970011;-;-;12.501816;-2.732788;-4.718292;-;-;-;-;-;-;-;-;-;-;-;-;-;-;-
1514110970031;-;-;8.718979;-5.973343;-4.635681;-;-;-;-;-;-;-;-;-;-;-;-;-;-;-
1514110970051;-;-;7.088516;-5.6956177;-2.9633331;-;-;-;-;-;-;-;-;-;-;-;-;-;-;-
1514110970072;-;-;7.001129;-1.8912201;-3.9377747;-;-;-;-;-;-;-;-;-;-;-;-;-;-;-
1514110970092;-;-;7.605667;3.1832886;-4.9325714;-;-;-;-;-;-;-;-;-;-;-;-;-;-;-
1514110970112;-;-;10.42485;6.149704;-4.1592407;-;-;-;-;-;-;-;-;-;-;-;-;-;-;-
1514110970133;-;-;11.344223;3.5447998;-4.3902893;-;-;-;-;-;-;-;-;-;-;-;-;-;-;-
1514110970153;-;-;10.391327;0.81062317;-3.9712982;-;-;-;-;-;-;-;-;-;-;-;-;-;-;-
1514110970173;-;-;8.297592;-1.2052917;-2.4964752;-;-;-;-;-;-;-;-;-;-;-;-;-;-;-
1514110970194;-;-;6.5402527;-2.6956787;-1.3269043;-;-;-;-;-;-;-;-;-;-;-;-;-;-;-
1514110970214;-;-;5.231827;-2.372467;-0.2973938;-;-;-;-;-;-;-;-;-;-;-;-;-;-;-
1514110970235;-;-;5.1085205;-1.2771149;-0.16810608;-;-;-;-;-;-;-;-;-;-;-;-;-;-;-
1514110970255;-;-;5.9859924;0.24320984;-1.9254456;-;-;-;-;-;-;-;-;-;-;-;-;-;-;-
1514110970275;-;-;7.4297028;0.5664215;-2.47612;-;-;-;-;-;-;-;-;-;-;-;-;-;-;-
1514110970296;-;-;9.008667;0.30665588;-2.2929688;-;-;-;-;-;-;-;-;-;-;-;-;-;-;-
1514110970317;-;-;10.610397;-0.16500854;-2.594635;-;-;-;-;-;-;-;-;-;-;-;-;-;-;-
1514110970336;-;-;11.314285;-0.581604;-3.0638885;-;-;-;-;-;-;-;-;-;-;-;-;-;-;-
1514110970357;-;-;10.921646;-0.68455505;-3.0710754;-;-;-;-;-;-;-;-;-;-;-;-;-;-;-
1514110970377;-;-;9.499481;-0.542099;-2.9417877;-;-;-;-;-;-;-;-;-;-;-;-;-;-;-
1514110970398;-;-;7.4165344;-0.24043274;-2.5766754;-;-;-;-;-;-;-;-;-;-;-;-;-;-;-
1514110970417;-;-;5.090561;-0.31704712;-1.9996796;-;-;-;-;-;-;-;-;-;-;-;-;-;-;-
1514110970437;-;-;3.042328;-0.7013092;-0.9689636;-;-;-;-;-;-;-;-;-;-;-;-;-;-;-
1514110970457;-;-;2.4689178;-1.3872528;-0.22198486;-;-;-;-;-;-;-;-;-;-;-;-;-;-;-
1514110970478;-;-;3.3044891;-2.341339;0.3095398;-;-;-;-;-;-;-;-;-;-;-;-;-;-;-
1514110970498;-;-;5.300049;-2.949463;0.8326721;-;-;-;-;-;-;-;-;-;-;-;-;-;-;-
1514110970518;-;-;7.684677;-2.981781;0.22094727;-;-;-;-;-;-;-;-;-;-;-;-;-;-;-
1514110970539;-;-;9.832275;-2.6873016;-1.4980927;-;-;-;-;-;-;-;-;-;-;-;-;-;-;-
1514110970559;-;-;10.598419;-2.4885864;-3.978485;-;-;-;-;-;-;-;-;-;-;-;-;-;-;-
1514110970580;-;-;9.657501;-1.1681824;-3.9317932;-;-;-;-;-;-;-;-;-;-;-;-;-;-;-
1514110970600;-;-;9.402527;-0.88446045;-4.8308105;-;-;-;-;-;-;-;-;-;-;-;-;-;-;-
1514110970620;-;-;10.757645;-0.680954;-6.2230377;-;-;-;-;-;-;-;-;-;-;-;-;-;-;-
1514110970640;-;-;12.787918;1.1601868;-5.848358;-;-;-;-;-;-;-;-;-;-;-;-;-;-;-
1514110970661;-;-;13.384079;3.4885406;-4.4501343;-;-;-;-;-;-;-;-;-;-;-;-;-;-;-
1514110970681;-;-;14.23642;3.6190338;-2.1971893;-;-;-;-;-;-;-;-;-;-;-;-;-;-;-
1514110970701;-;-;14.623077;2.624237;-2.7562408;-;-;-;-;-;-;-;-;-;-;-;-;-;-;-
1514110970722;-;-;15.422745;0.27552795;-4.120941;-;-;-;-;-;-;-;-;-;-;-;-;-;-;-
1514110970743;-;-;14.143036;-1.1585999;-2.8879242;-;-;-;-;-;-;-;-;-;-;-;-;-;-;-
1514110970763;-;-;11.337036;-0.37091064;-2.271408;-;-;-;-;-;-;-;-;-;-;-;-;-;-;-
1514110970784;-;-;7.8726196;1.4582672;-1.3783722;-;-;-;-;-;-;-;-;-;-;-;-;-;-;-
1514110970804;-;-;4.822418;2.8026123;-0.57392883;-;-;-;-;-;-;-;-;-;-;-;-;-;-;-
1514110970824;-;-;3.0255585;2.7690887;-0.5248413;-;-;-;-;-;-;-;-;-;-;-;-;-;-;-
1514110970844;-;-;3.1811829;1.3086243;-0.28901672;-;-;-;-;-;-;-;-;-;-;-;-;-;-;-
1514110970865;-;-;5.668762;-0.0728302;-1.2251434;-;-;-;-;-;-;-;-;-;-;-;-;-;-;-
1514110970885;-;-;7.699051;-0.4271698;-2.4533691;-;-;-;-;-;-;-;-;-;-;-;-;-;-;-
1514110970905;-;-;7.7373505;0.05166626;-2.0595245;-;-;-;-;-;-;-;-;-;-;-;-;-;-;-
1514110970925;-;-;7.1914673;0.7651367;-2.0044556;-;-;-;-;-;-;-;-;-;-;-;-;-;-;-
1514110970946;-;-;6.391815;1.5432587;-1.48732;-;-;-;-;-;-;-;-;-;-;-;-;-;-;-
1514110970966;-;-;5.122879;2.0520172;-1.2095795;-;-;-;-;-;-;-;-;-;-;-;-;-;-;-
1514110970986;-;-;4.699112;1.9394989;-1.2323303;-;-;-;-;-;-;-;-;-;-;-;-;-;-;-
1514110971007;-;-;4.6057434;1.8724518;0.22932434;-;-;-;-;-;-;-;-;-;-;-;-;-;-;-
1514110971027;-;-;5.2126617;2.3309479;0.8266754;-;-;-;-;-;-;-;-;-;-;-;-;-;-;-
1514110971047;-;-;5.8902283;2.3524933;-0.417099;-;-;-;-;-;-;-;-;-;-;-;-;-;-;-
1514110971067;-;-;8.387375;0.89801025;-2.5754852;-;-;-;-;-;-;-;-;-;-;-;-;-;-;-
1514110971088;-;-;9.971146;-0.3194275;-3.5523071;-;-;-;-;-;-;-;-;-;-;-;-;-;-;-
1514110971108;-;-;8.514267;-0.51934814;-4.3088837;-;-;-;-;-;-;-;-;-;-;-;-;-;-;-
1514110971128;-;-;7.9312897;-1.3070374;-5.3467712;-;-;-;-;-;-;-;-;-;-;-;-;-;-;-
1514110971149;-;-;10.087265;-3.005722;-4.745819;-;-;-;-;-;-;-;-;-;-;-;-;-;-;-
1514110971169;-;-;13.361328;-3.7347565;-4.784134;-;-;-;-;-;-;-;-;-;-;-;-;-;-;-
1514110971189;-;-;15.8728485;-3.9981232;-4.4585114;-;-;-;-;-;-;-;-;-;-;-;-;-;-;-
1514110971210;-;-;21.07306;-3.0619965;-3.7474365;-;-;-;-;-;-;-;-;-;-;-;-;-;-;-
1514110971230;-;-;20.676819;-3.0105133;-5.228256;-;-;-;-;-;-;-;-;-;-;-;-;-;-;-
1514110971250;-;-;18.991302;-2.087555;-3.9042664;-;-;-;-;-;-;-;-;-;-;-;-;-;-;-
1514110971271;-;-;12.784332;-1.0819855;0.60162354;-;-;-;-;-;-;-;-;-;-;-;-;-;-;-
1514110971292;-;-;8.463989;0.27552795;0.23292542;-;-;-;-;-;-;-;-;-;-;-;-;-;-;-
1514110971312;-;-;4.4477234;0.3677063;-0.7127838;-;-;-;-;-;-;-;-;-;-;-;-;-;-;-
1514110971332;-;-;2.2139282;-0.56843567;-1.0802917;-;-;-;-;-;-;-;-;-;-;-;-;-;-;-
1514110971352;-;-;2.6688232;-2.2419739;-1.5818787;-;-;-;-;-;-;-;-;-;-;-;-;-;-;-
1514110971373;-;-;4.9971924;-2.2072601;-2.8125;-;-;-;-;-;-;-;-;-;-;-;-;-;-;-
1514110971393;-;-;6.1033173;-1.3106384;-2.788559;-;-;-;-;-;-;-;-;-;-;-;-;-;-;-
1514110971413;-;-;6.7497406;-1.0688171;-2.6413116;-;-;-;-;-;-;-;-;-;-;-;-;-;-;-
1514110971434;-;-;6.746155;-1.2208557;-3.0459442;-;-;-;-;-;-;-;-;-;-;-;-;-;-;-
1514110971454;-;-;6.118866;-1.9427032;-2.9202423;-;-;-;-;-;-;-;-;-;-;-;-;-;-;-
1514110971474;-;-;5.526306;-2.5759735;-1.550766;-;-;-;-;-;-;-;-;-;-;-;-;-;-;-
1514110971495;-;-;5.023529;-2.7387695;0.015045166;-;-;-;-;-;-;-;-;-;-;-;-;-;-;-
1514110971515;-;-;5.4137726;-2.2335968;1.0948334;-;-;-;-;-;-;-;-;-;-;-;-;-;-;-
1514110971535;-;-;7.027466;-1.6589966;2.26799;-;-;-;-;-;-;-;-;-;-;-;-;-;-;-
1514110971556;-;-;7.2980194;-2.9793854;1.0924377;-;-;-;-;-;-;-;-;-;-;-;-;-;-;-
1514110971576;-;-;8.490326;-4.092697;-1.061142;-;-;-;-;-;-;-;-;-;-;-;-;-;-;-
1514110971596;-;-;10.423645;-3.2463531;-1.4537964;-;-;-;-;-;-;-;-;-;-;-;-;-;-;-
1514110971617;-;-;10.835449;-0.94551086;-2.1493073;-;-;-;-;-;-;-;-;-;-;-;-;-;-;-
1514110971637;-;-;10.169861;0.38087463;-8.539429;-;-;-;-;-;-;-;-;-;-;-;-;-;-;-
1514110971657;-;-;10.54216;1.437912;-8.956024;-;-;-;-;-;-;-;-;-;-;-;-;-;-;-
1514110971677;-;-;13.545685;1.9275208;-2.187622;-;-;-;-;-;-;-;-;-;-;-;-;-;-;-
1514110971698;-;-;14.466263;1.1075134;-3.247055;-;-;-;-;-;-;-;-;-;-;-;-;-;-;-
1514110971718;-;-;16.818558;-0.4666748;-1.5232239;-;-;-;-;-;-;-;-;-;-;-;-;-;-;-
1514110971738;-;-;18.462173;1.3026428;-8.035461;-;-;-;-;-;-;-;-;-;-;-;-;-;-;-
1514110971758;-;-;19.04158;0.9399109;-6.828781;-;-;-;-;-;-;-;-;-;-;-;-;-;-;-
1514110971778;-;-;14.178955;0.6633911;-3.919815;-;-;-;-;-;-;-;-;-;-;-;-;-;-;-
1514110971799;-;-;8.972763;1.4414978;-2.5096436;-;-;-;-;-;-;-;-;-;-;-;-;-;-;-
1514110971819;-;-;4.4728546;1.7335968;-2.4713287;-;-;-;-;-;-;-;-;-;-;-;-;-;-;-
1514110971839;-;-;1.0323944;1.9275208;-1.784195;-;-;-;-;-;-;-;-;-;-;-;-;-;-;-
1514110971859;-;-;0.016052246;1.0057526;-1.3592224;-;-;-;-;-;-;-;-;-;-;-;-;-;-;-
1514110971880;-;-;1.8679657;-0.054870605;-1.3125305;-;-;-;-;-;-;-;-;-;-;-;-;-;-;-
1514110971900;-;-;5.019928;-0.37928772;-1.8045502;-;-;-;-;-;-;-;-;-;-;-;-;-;-;-
1514110971921;-;-;6.675522;0.25398254;-2.0990295;-;-;-;-;-;-;-;-;-;-;-;-;-;-;-
1514110971941;-;-;6.29126;0.54966736;-1.8991089;-;-;-;-;-;-;-;-;-;-;-;-;-;-;-
1514110971961;-;-;6.011139;-0.0069885254;-1.6884308;-;-;-;-;-;-;-;-;-;-;-;-;-;-;-
1514110971982;-;-;6.869461;-0.1925354;-1.8787689;-;-;-;-;-;-;-;-;-;-;-;-;-;-;-
1514110972002;-;-;7.707428;0.2013092;-1.2730255;-;-;-;-;-;-;-;-;-;-;-;-;-;-;-
1514110972022;-;-;7.5386353;1.3840332;-0.7774353;-;-;-;-;-;-;-;-;-;-;-;-;-;-;-
1514110972042;-;-;7.43808;1.7826691;-1.4549866;-;-;-;-;-;-;-;-;-;-;-;-;-;-;-
1514110972063;-;-;7.928894;1.8449249;-2.1732483;-;-;-;-;-;-;-;-;-;-;-;-;-;-;-
1514110972083;-;-;8.095291;1.3960114;-2.3611908;-;-;-;-;-;-;-;-;-;-;-;-;-;-;-
1514110972103;-;-;6.877838;1.3289795;-2.931015;-;-;-;-;-;-;-;-;-;-;-;-;-;-;-
1514110972123;-;-;5.6112976;0.8513336;-4.226288;-;-;-;-;-;-;-;-;-;-;-;-;-;-;-
1514110972144;-;-;4.9696503;-0.54808044;-7.093338;-;-;-;-;-;-;-;-;-;-;-;-;-;-;-
1514110972163;-;-;8.180283;-2.2443695;-3.9054565;-;-;-;-;-;-;-;-;-;-;-;-;-;-;-
1514110972183;-;-;12.377319;-3.155365;-3.4924622;-;-;-;-;-;-;-;-;-;-;-;-;-;-;-
1514110972204;-;-;16.56717;-3.5037231;-5.7681427;-;-;-;-;-;-;-;-;-;-;-;-;-;-;-
1514110972224;-;-;21.796112;-2.581955;-5.692734;-;-;-;-;-;-;-;-;-;-;-;-;-;-;-
1514110972244;-;-;23.70787;-5.215576;-8.168335;-;-;-;-;-;-;-;-;-;-;-;-;-;-;-
1514110972264;-;-;26.95082;-5.8404694;-4.9373627;-;-;-;-;-;-;-;-;-;-;-;-;-;-;-
1514110972284;-;-;11.887695;-2.6346283;-1.1820526;-;-;-;-;-;-;-;-;-;-;-;-;-;-;-
1514110972305;-;-;4.762558;-0.8605194;-0.55955505;-;-;-;-;-;-;-;-;-;-;-;-;-;-;-
1514110972325;-;-;3.043518;0.074417114;-1.0539703;-;-;-;-;-;-;-;-;-;-;-;-;-;-;-
1514110972345;-;-;2.6628418;-0.6618042;-1.4609833;-;-;-;-;-;-;-;-;-;-;-;-;-;-;-
1514110972365;-;-;2.3875122;-1.9498901;-2.539566;-;-;-;-;-;-;-;-;-;-;-;-;-;-;-
1514110972386;-;-;2.925003;-2.3652802;-2.5539246;-;-;-;-;-;-;-;-;-;-;-;-;-;-;-
1514110972406;-;-;4.2430115;-1.803833;-3.183609;-;-;-;-;-;-;-;-;-;-;-;-;-;-;-
1514110972426;-;-;5.509552;-0.87368774;-4.2693787;-;-;-;-;-;-;-;-;-;-;-;-;-;-;-
1514110972447;-;-;5.3694916;0.3964386;-4.76976;-;-;-;-;-;-;-;-;-;-;-;-;-;-;-
1514110972467;-;-;5.2988586;0.8417511;-4.4082336;-;-;-;-;-;-;-;-;-;-;-;-;-;-;-
1514110972488;-;-;5.54187;-0.10635376;-2.9106598;-;-;-;-;-;-;-;-;-;-;-;-;-;-;-
1514110972508;-;-;6.3187866;-1.5560455;-0.4063263;-;-;-;-;-;-;-;-;-;-;-;-;-;-;-
1514110972528;-;-;6.9700165;-2.7806702;0.6938019;-;-;-;-;-;-;-;-;-;-;-;-;-;-;-
1514110972549;-;-;7.4656067;-2.4071808;0.27841187;-;-;-;-;-;-;-;-;-;-;-;-;-;-;-
1514110972569;-;-;8.40892;-2.2048645;0.7859802;-;-;-;-;-;-;-;-;-;-;-;-;-;-;-
1514110972592;-;-;9.919662;-1.9869995;0.006668091;-;-;-;-;-;-;-;-;-;-;-;-;-;-;-
1514110972611;-;-;10.866577;-0.5780029;-1.8619995;-;-;-;-;-;-;-;-;-;-;-;-;-;-;-
1514110972631;-;-;8.801575;-0.77911377;-4.760193;-;-;-;-;-;-;-;-;-;-;-;-;-;-;-
1514110972652;-;-;8.793198;-1.2914734;-9.712601;-;-;-;-;-;-;-;-;-;-;-;-;-;-;-
1514110972671;-;-;11.7260895;-0.9371338;-7.5817566;-;-;-;-;-;-;-;-;-;-;-;-;-;-;-
1514110972691;-;-;14.966644;2.3249664;-4.895462;-;-;-;-;-;-;-;-;-;-;-;-;-;-;-
1514110972711;-;-;15.036072;2.4243164;-4.244232;-;-;-;-;-;-;-;-;-;-;-;-;-;-;-
1514110972732;-;-;15.610687;1.6928864;-9.005112;-;-;-;-;-;-;-;-;-;-;-;-;-;-;-
1514110972751;-;-;18.2491;0.25637817;-2.9561615;-;-;-;-;-;-;-;-;-;-;-;-;-;-;-
1514110972771;-;-;14.498581;0.13665771;-4.0407257;-;-;-;-;-;-;-;-;-;-;-;-;-;-;-
1514110972792;-;-;11.272385;1.1577911;-4.4621124;-;-;-;-;-;-;-;-;-;-;-;-;-;-;-
1514110972812;-;-;7.945648;1.6545868;-2.7897644;-;-;-;-;-;-;-;-;-;-;-;-;-;-;-
1514110972832;-;-;4.82959;0.86569214;-1.9649506;-;-;-;-;-;-;-;-;-;-;-;-;-;-;-
1514110972853;-;-;3.9628906;-0.042907715;-1.7782135;-;-;-;-;-;-;-;-;-;-;-;-;-;-;-
1514110972873;-;-;4.6105194;-0.7372284;-1.3999176;-;-;-;-;-;-;-;-;-;-;-;-;-;-;-
1514110972894;-;-;5.292877;-1.2986603;-0.867218;-;-;-;-;-;-;-;-;-;-;-;-;-;-;-
1514110972914;-;-;5.455673;-1.601532;-0.43626404;-;-;-;-;-;-;-;-;-;-;-;-;-;-;-
1514110972934;-;-;5.7789;-1.5249176;-0.8025665;-;-;-;-;-;-;-;-;-;-;-;-;-;-;-
1514110972955;-;-;6.4205475;-0.79348755;-1.9182739;-;-;-;-;-;-;-;-;-;-;-;-;-;-;-
1514110972975;-;-;6.948456;0.23242188;-2.7849731;-;-;-;-;-;-;-;-;-;-;-;-;-;-;-
1514110972995;-;-;6.0326843;1.130249;-3.2973328;-;-;-;-;-;-;-;-;-;-;-;-;-;-;-
1514110973015;-;-;5.043869;1.3900299;-2.9094696;-;-;-;-;-;-;-;-;-;-;-;-;-;-;-
1514110973036;-;-;4.6500244;0.56521606;-1.100647;-;-;-;-;-;-;-;-;-;-;-;-;-;-;-
1514110973055;-;-;4.817627;1.200882;-0.8061676;-;-;-;-;-;-;-;-;-;-;-;-;-;-;-
1514110973075;-;-;4.88945;3.000122;-1.7363129;-;-;-;-;-;-;-;-;-;-;-;-;-;-;-
1514110973095;-;-;5.6735535;3.611847;-2.6844177;-;-;-;-;-;-;-;-;-;-;-;-;-;-;-
1514110973116;-;-;6.86586;2.8002167;-2.899887;-;-;-;-;-;-;-;-;-;-;-;-;-;-;-
1514110973135;-;-;7.2429504;0.556839;-4.1185455;-;-;-;-;-;-;-;-;-;-;-;-;-;-;-
1514110973155;-;-;8.363434;-1.9905853;-5.3790894;-;-;-;-;-;-;-;-;-;-;-;-;-;-;-
1514110973176;-;-;11.783554;-4.740326;-3.2769775;-;-;-;-;-;-;-;-;-;-;-;-;-;-;-
1514110973196;-;-;14.918762;-5.2873993;-3.9293976;-;-;-;-;-;-;-;-;-;-;-;-;-;-;-
1514110973216;-;-;20.229095;-3.3624573;-9.723373;-;-;-;-;-;-;-;-;-;-;-;-;-;-;-
1514110973237;-;-;23.82759;-5.2407227;-5.479645;-;-;-;-;-;-;-;-;-;-;-;-;-;-;-
1514110973256;-;-;28.72612;-4.930664;-4.780533;-;-;-;-;-;-;-;-;-;-;-;-;-;-;-
1514110973277;-;-;14.698486;-2.4335175;-2.0248108;-;-;-;-;-;-;-;-;-;-;-;-;-;-;-
1514110973297;-;-;6.2816772;0.54008484;-1.0563507;-;-;-;-;-;-;-;-;-;-;-;-;-;-;-
1514110973317;-;-;3.4888458;1.4103699;-0.19802856;-;-;-;-;-;-;-;-;-;-;-;-;-;-;-
1514110973338;-;-;1.5950317;0.49578857;-2.1864166;-;-;-;-;-;-;-;-;-;-;-;-;-;-;-
1514110973358;-;-;2.133728;-1.036499;-4.108963;-;-;-;-;-;-;-;-;-;-;-;-;-;-;-
1514110973378;-;-;5.3970184;-1.4973755;-3.772583;-;-;-;-;-;-;-;-;-;-;-;-;-;-;-
1514110973399;-;-;6.161972;-0.973053;-2.7239227;-;-;-;-;-;-;-;-;-;-;-;-;-;-;-
1514110973419;-;-;4.0969696;-0.680954;-3.4349976;-;-;-;-;-;-;-;-;-;-;-;-;-;-;-
1514110973439;-;-;2.9106445;-0.581604;-3.468521;-;-;-;-;-;-;-;-;-;-;-;-;-;-;-
1514110973459;-;-;4.0838013;-1.0305176;-2.1983948;-;-;-;-;-;-;-;-;-;-;-;-;-;-;-
1514110973480;-;-;5.185135;-1.913971;-0.7786255;-;-;-;-;-;-;-;-;-;-;-;-;-;-;-
1514110973500;-;-;5.113312;-2.4059753;-0.3943634;-;-;-;-;-;-;-;-;-;-;-;-;-;-;-
1514110973522;-;-;6.123657;-1.9151764;-0.22198486;-;-;-;-;-;-;-;-;-;-;-;-;-;-;-
1514110973543;-;-;7.3063965;-1.4602661;-0.9809418;-;-;-;-;-;-;-;-;-;-;-;-;-;-;-
1514110973563;-;-;8.373016;-2.7292023;-0.64456177;-;-;-;-;-;-;-;-;-;-;-;-;-;-;-
1514110973583;-;-;9.803543;-2.8955994;-1.2443085;-;-;-;-;-;-;-;-;-;-;-;-;-;-;-
1514110973603;-;-;11.779968;-1.743988;-1.9158783;-;-;-;-;-;-;-;-;-;-;-;-;-;-;-
1514110973624;-;-;10.730103;-1.0376892;-3.089035;-;-;-;-;-;-;-;-;-;-;-;-;-;-;-
1514110973643;-;-;8.710602;-1.8409424;-5.108551;-;-;-;-;-;-;-;-;-;-;-;-;-;-;-
1514110973663;-;-;9.074509;-1.3944244;-4.638077;-;-;-;-;-;-;-;-;-;-;-;-;-;-;-
1514110973684;-;-;11.882919;1.3565063;-3.6396942;-;-;-;-;-;-;-;-;-;-;-;-;-;-;-
1514110973704;-;-;13.865311;4.039215;-4.243042;-;-;-;-;-;-;-;-;-;-;-;-;-;-;-
1514110973724;-;-;16.82933;1.2547607;-4.2155;-;-;-;-;-;-;-;-;-;-;-;-;-;-;-
1514110973745;-;-;18.27304;2.9462585;-5.5287323;-;-;-;-;-;-;-;-;-;-;-;-;-;-;-
1514110973764;-;-;18.19403;3.2706757;-5.868698;-;-;-;-;-;-;-;-;-;-;-;-;-;-;-
1514110973784;-;-;14.37767;-0.14465332;-2.7849731;-;-;-;-;-;-;-;-;-;-;-;-;-;-;-
1514110973805;-;-;9.015854;-0.7767334;-1.2933807;-;-;-;-;-;-;-;-;-;-;-;-;-;-;-
1514110973826;-;-;5.8363495;0.39283752;-0.9845276;-;-;-;-;-;-;-;-;-;-;-;-;-;-;-
1514110973845;-;-;4.0490875;1.8461151;-0.9474182;-;-;-;-;-;-;-;-;-;-;-;-;-;-;-
1514110973866;-;-;3.5175781;2.160965;-1.0395966;-;-;-;-;-;-;-;-;-;-;-;-;-;-;-
1514110973885;-;-;3.8407898;0.83218384;-1.3496399;-;-;-;-;-;-;-;-;-;-;-;-;-;-;-
1514110973905;-;-;5.7789;-0.37449646;-1.2024078;-;-;-;-;-;-;-;-;-;-;-;-;-;-;-
1514110973926;-;-;6.8610687;-0.5456848;-1.5806885;-;-;-;-;-;-;-;-;-;-;-;-;-;-;-
1514110973945;-;-;6.2302094;-0.46188354;-1.7003937;-;-;-;-;-;-;-;-;-;-;-;-;-;-;-
1514110973965;-;-;6.2481537;-0.76116943;-0.5499878;-;-;-;-;-;-;-;-;-;-;-;-;-;-;-
1514110973985;-;-;7.2752686;-0.3002777;0.010253906;-;-;-;-;-;-;-;-;-;-;-;-;-;-;-
1514110974006;-;-;7.9312897;0.30065918;-1.8129272;-;-;-;-;-;-;-;-;-;-;-;-;-;-;-
1514110974026;-;-;7.343506;0.9064026;-2.5192108;-;-;-;-;-;-;-;-;-;-;-;-;-;-;-
1514110974046;-;-;5.842346;0.90400696;-0.9797363;-;-;-;-;-;-;-;-;-;-;-;-;-;-;-
1514110974067;-;-;5.015152;0.072021484;0.36819458;-;-;-;-;-;-;-;-;-;-;-;-;-;-;-
1514110974087;-;-;4.745804;-0.5432892;-0.2399292;-;-;-;-;-;-;-;-;-;-;-;-;-;-;-
1514110974107;-;-;6.5115204;-0.76834106;-0.23155212;-;-;-;-;-;-;-;-;-;-;-;-;-;-;-
1514110974127;-;-;8.625595;-0.7108917;-0.7498932;-;-;-;-;-;-;-;-;-;-;-;-;-;-;-
1514110974148;-;-;8.789597;0.040893555;-2.9872742;-;-;-;-;-;-;-;-;-;-;-;-;-;-;-
1514110974168;-;-;8.201828;0.5305023;-5.278534;-;-;-;-;-;-;-;-;-;-;-;-;-;-;-
1514110974188;-;-;9.0182495;0.87527466;-5.571823;-;-;-;-;-;-;-;-;-;-;-;-;-;-;-
1514110974209;-;-;12.870514;-0.9036255;-4.2418365;-;-;-;-;-;-;-;-;-;-;-;-;-;-;-
1514110974229;-;-;16.083542;-3.522873;-6.912567;-;-;-;-;-;-;-;-;-;-;-;-;-;-;-
1514110974249;-;-;19.138535;-3.4546356;-4.448944;-;-;-;-;-;-;-;-;-;-;-;-;-;-;-
1514110974269;-;-;19.733505;-3.3911896;-2.0906525;-;-;-;-;-;-;-;-;-;-;-;-;-;-;-
1514110974290;-;-;16.416336;-4.881592;-4.5064087;-;-;-;-;-;-;-;-;-;-;-;-;-;-;-
1514110974309;-;-;13.827011;-2.7052612;-0.7606659;-;-;-;-;-;-;-;-;-;-;-;-;-;-;-
1514110974329;-;-;10.658279;-1.2759247;-0.24232483;-;-;-;-;-;-;-;-;-;-;-;-;-;-;-
1514110974349;-;-;8.082123;-0.11352539;-0.8145447;-;-;-;-;-;-;-;-;-;-;-;-;-;-;-
1514110974369;-;-;6.0961304;0.5628357;-2.1313477;-;-;-;-;-;-;-;-;-;-;-;-;-;-;-
1514110974390;-;-;5.517929;0.033706665;-2.9884796;-;-;-;-;-;-;-;-;-;-;-;-;-;-;-
1514110974410;-;-;5.971634;-0.92396545;-2.309723;-;-;-;-;-;-;-;-;-;-;-;-;-;-;-
1514110974430;-;-;6.419342;-1.3202057;-1.5136566;-;-;-;-;-;-;-;-;-;-;-;-;-;-;-
1514110974451;-;-;5.9788055;-1.1502228;-1.5735016;-;-;-;-;-;-;-;-;-;-;-;-;-;-;-
1514110974471;-;-;4.963669;-1.5117493;-1.5292053;-;-;-;-;-;-;-;-;-;-;-;-;-;-;-
1514110974491;-;-;4.356735;-1.9846039;-1.5806885;-;-;-;-;-;-;-;-;-;-;-;-;-;-;-
1514110974512;-;-;4.9038086;-2.103119;-1.4621735;-;-;-;-;-;-;-;-;-;-;-;-;-;-;-
1514110974532;-;-;6.7724915;-2.2240143;-1.2107849;-;-;-;-;-;-;-;-;-;-;-;-;-;-;-
1514110974552;-;-;7.088516;-2.5101318;-2.5455475;-;-;-;-;-;-;-;-;-;-;-;-;-;-;-
1514110974573;-;-;7.41893;-2.222824;-1.911087;-;-;-;-;-;-;-;-;-;-;-;-;-;-;-
1514110974592;-;-;7.944458;-1.4399261;-1.6369476;-;-;-;-;-;-;-;-;-;-;-;-;-;-;-
1514110974612;-;-;8.868607;-0.35653687;-1.1976166;-;-;-;-;-;-;-;-;-;-;-;-;-;-;-
1514110974633;-;-;9.966354;-0.5504761;-0.7977905;-;-;-;-;-;-;-;-;-;-;-;-;-;-;-
1514110974653;-;-;10.782776;-1.9355164;-0.961792;-;-;-;-;-;-;-;-;-;-;-;-;-;-;-
1514110974673;-;-;10.870163;-2.6561737;-2.3695831;-;-;-;-;-;-;-;-;-;-;-;-;-;-;-
1514110974694;-;-;9.318726;-2.3904114;-1.8596191;-;-;-;-;-;-;-;-;-;-;-;-;-;-;-
1514110974714;-;-;5.3778687;-1.3082428;-2.816101;-;-;-;-;-;-;-;-;-;-;-;-;-;-;-
1514110974734;-;-;3.498413;-0.3194275;-6.4229584;-;-;-;-;-;-;-;-;-;-;-;-;-;-;-
1514110974754;-;-;6.728195;0.5783844;-4.586609;-;-;-;-;-;-;-;-;-;-;-;-;-;-;-
1514110974775;-;-;11.167053;1.9335022;-3.270996;-;-;-;-;-;-;-;-;-;-;-;-;-;-;-
1514110974795;-;-;14.742783;0.8046417;-5.523941;-;-;-;-;-;-;-;-;-;-;-;-;-;-;-
1514110974815;-;-;17.605057;-1.5117493;-4.675186;-;-;-;-;-;-;-;-;-;-;-;-;-;-;-
1514110974836;-;-;16.259506;-2.416748;-5.884262;-;-;-;-;-;-;-;-;-;-;-;-;-;-;-
1514110974856;-;-;15.167755;-0.15663147;-5.511963;-;-;-;-;-;-;-;-;-;-;-;-;-;-;-
1514110974876;-;-;14.817001;3.7016296;-4.9529266;-;-;-;-;-;-;-;-;-;-;-;-;-;-;-
1514110974896;-;-;13.761169;2.019699;-4.4656982;-;-;-;-;-;-;-;-;-;-;-;-;-;-;-
1514110974917;-;-;10.466736;-0.80545044;-3.9222107;-;-;-;-;-;-;-;-;-;-;-;-;-;-;-
1514110974937;-;-;6.4959564;-2.7986298;-2.9753113;-;-;-;-;-;-;-;-;-;-;-;-;-;-;-
1514110974957;-;-;3.7725525;-3.0488281;-2.0439606;-;-;-;-;-;-;-;-;-;-;-;-;-;-;-
1514110974978;-;-;4.058655;-1.0329132;-1.3747864;-;-;-;-;-;-;-;-;-;-;-;-;-;-;-
1514110974998;-;-;5.497574;2.1334229;-1.550766;-;-;-;-;-;-;-;-;-;-;-;-;-;-;-
1514110975018;-;-;6.7736816;2.5392456;-2.1959991;-;-;-;-;-;-;-;-;-;-;-;-;-;-;-
1514110975039;-;-;7.526657;1.4893799;-1.9565735;-;-;-;-;-;-;-;-;-;-;-;-;-;-;-
1514110975059;-;-;8.059372;0.7507782;-1.452591;-;-;-;-;-;-;-;-;-;-;-;-;-;-;-
1514110975079;-;-;8.223373;0.4084015;-1.2646484;-;-;-;-;-;-;-;-;-;-;-;-;-;-;-
1514110975099;-;-;7.8594513;1.0727997;-1.610611;-;-;-;-;-;-;-;-;-;-;-;-;-;-;-
1514110975120;-;-;7.380615;1.6833191;-2.5802612;-;-;-;-;-;-;-;-;-;-;-;-;-;-;-
1514110975140;-;-;6.8131866;1.595932;-3.4816895;-;-;-;-;-;-;-;-;-;-;-;-;-;-;-
1514110975161;-;-;8.175491;1.5097351;-1.966156;-;-;-;-;-;-;-;-;-;-;-;-;-;-;-
1514110975181;-;-;11.504623;1.8473206;-2.2594452;-;-;-;-;-;-;-;-;-;-;-;-;-;-;-
1514110975201;-;-;16.54802;-3.1625519;-10.469162;-;-;-;-;-;-;-;-;-;-;-;-;-;-;-
1514110975221;-;-;19.650894;-5.615402;-8.193466;-;-;-;-;-;-;-;-;-;-;-;-;-;-;-
1514110975242;-;-;13.777924;-4.2088165;-5.222275;-;-;-;-;-;-;-;-;-;-;-;-;-;-;-
1514110975262;-;-;8.315552;-6.646118;-2.5012512;-;-;-;-;-;-;-;-;-;-;-;-;-;-;-
1514110975282;-;-;4.8116302;-6.579071;-2.460556;-;-;-;-;-;-;-;-;-;-;-;-;-;-;-
1514110975303;-;-;4.518341;-3.5815277;-5.353943;-;-;-;-;-;-;-;-;-;-;-;-;-;-;-
1514110975324;-;-;5.192322;-0.85095215;-5.8459625;-;-;-;-;-;-;-;-;-;-;-;-;-;-;-
1514110975344;-;-;8.551376;0.0181427;-6.5893555;-;-;-;-;-;-;-;-;-;-;-;-;-;-;-
1514110975364;-;-;10.132751;0.79267883;-4.92659;-;-;-;-;-;-;-;-;-;-;-;-;-;-;-
1514110975384;-;-;11.489059;-1.2280273;-4.0239716;-;-;-;-;-;-;-;-;-;-;-;-;-;-;-
1514110975405;-;-;10.412872;-3.4498596;-3.3883057;-;-;-;-;-;-;-;-;-;-;-;-;-;-;-
1514110975425;-;-;7.1531677;-3.3349304;-2.6449127;-;-;-;-;-;-;-;-;-;-;-;-;-;-;-
1514110975445;-;-;4.699112;-3.2942352;-2.7777863;-;-;-;-;-;-;-;-;-;-;-;-;-;-;-
1514110975466;-;-;2.9704895;-2.4550629;-2.895111;-;-;-;-;-;-;-;-;-;-;-;-;-;-;-
1514110975486;-;-;3.2314606;-1.4794312;-2.6568756;-;-;-;-;-;-;-;-;-;-;-;-;-;-;-
1514110975506;-;-;5.078598;-0.5241394;-2.1552887;-;-;-;-;-;-;-;-;-;-;-;-;-;-;-
1514110975526;-;-;6.671936;0.18693542;-1.3831635;-;-;-;-;-;-;-;-;-;-;-;-;-;-;-
1514110975547;-;-;8.593277;0.14624023;-0.6912384;-;-;-;-;-;-;-;-;-;-;-;-;-;-;-
1514110975567;-;-;10.138733;-0.9251709;-1.5998383;-;-;-;-;-;-;-;-;-;-;-;-;-;-;-
1514110975588;-;-;11.13353;-1.3214111;-2.4318237;-;-;-;-;-;-;-;-;-;-;-;-;-;-;-
1514110975608;-;-;11.396896;-0.85095215;-2.3013458;-;-;-;-;-;-;-;-;-;-;-;-;-;-;-
1514110975628;-;-;10.160278;-0.5600586;-3.112976;-;-;-;-;-;-;-;-;-;-;-;-;-;-;-
1514110975648;-;-;8.938049;-1.3740845;-1.5723114;-;-;-;-;-;-;-;-;-;-;-;-;-;-;-
1514110975669;-;-;10.398514;-2.1533966;1.0230103;-;-;-;-;-;-;-;-;-;-;-;-;-;-;-
1514110975689;-;-;11.243668;-2.0851593;-0.43984985;-;-;-;-;-;-;-;-;-;-;-;-;-;-;-
1514110975709;-;-;9.689819;-1.8876343;-2.5766754;-;-;-;-;-;-;-;-;-;-;-;-;-;-;-
1514110975729;-;-;9.13916;-5.0707245;-12.850189;-;-;-;-;-;-;-;-;-;-;-;-;-;-;-
1514110975749;-;-;11.544128;-1.9953766;-7.857086;-;-;-;-;-;-;-;-;-;-;-;-;-;-;-
1514110975770;-;-;12.204926;-0.55885315;-4.6955414;-;-;-;-;-;-;-;-;-;-;-;-;-;-;-
1514110975790;-;-;9.996277;-0.012969971;-7.323181;-;-;-;-;-;-;-;-;-;-;-;-;-;-;-
1514110975810;-;-;6.585739;-0.77911377;-5.2976837;-;-;-;-;-;-;-;-;-;-;-;-;-;-;-
1514110975830;-;-;6.5641937;-3.3899994;-3.36557;-;-;-;-;-;-;-;-;-;-;-;-;-;-;-
1514110975851;-;-;8.985931;-4.0891113;-2.7167358;-;-;-;-;-;-;-;-;-;-;-;-;-;-;-
1514110975871;-;-;10.691803;-2.9710083;-3.8108826;-;-;-;-;-;-;-;-;-;-;-;-;-;-;-
1514110975891;-;-;10.9767;-2.4778137;-3.6157532;-;-;-;-;-;-;-;-;-;-;-;-;-;-;-
1514110975912;-;-;10.295563;-2.4526672;-2.8352509;-;-;-;-;-;-;-;-;-;-;-;-;-;-;-
1514110975931;-;-;7.945648;-1.7463837;-2.8711548;-;-;-;-;-;-;-;-;-;-;-;-;-;-;-
1514110975951;-;-;6.1272583;-1.1897278;-3.7737732;-;-;-;-;-;-;-;-;-;-;-;-;-;-;-
1514110975971;-;-;5.14682;-1.1729736;-4.5423126;-;-;-;-;-;-;-;-;-;-;-;-;-;-;-
1514110975991;-;-;5.564621;-0.7264557;-4.6931458;-;-;-;-;-;-;-;-;-;-;-;-;-;-;-
1514110976011;-;-;6.8526917;0.37368774;-3.997635;-;-;-;-;-;-;-;-;-;-;-;-;-;-;-
1514110976032;-;-;7.5984955;1.6916962;-3.7139282;-;-;-;-;-;-;-;-;-;-;-;-;-;-;-
1514110976052;-;-;7.0262756;2.612259;-3.519989;-;-;-;-;-;-;-;-;-;-;-;-;-;-;-
1514110976072;-;-;6.9005737;1.6701508;-2.7203217;-;-;-;-;-;-;-;-;-;-;-;-;-;-;-
1514110976093;-;-;7.4129333;0.27552795;-2.4114685;-;-;-;-;-;-;-;-;-;-;-;-;-;-;-
1514110976113;-;-;7.497925;-0.21887207;-2.7358856;-;-;-;-;-;-;-;-;-;-;-;-;-;-;-
1514110976133;-;-;7.8474884;0.2695465;-2.9801025;-;-;-;-;-;-;-;-;-;-;-;-;-;-;-
1514110976154;-;-;8.594482;1.374466;-3.2757874;-;-;-;-;-;-;-;-;-;-;-;-;-;-;-
1514110976175;-;-;9.111618;2.7906342;-2.658081;-;-;-;-;-;-;-;-;-;-;-;-;-;-;-
1514110976195;-;-;9.457581;3.0575867;-2.6281433;-;-;-;-;-;-;-;-;-;-;-;-;-;-;-
1514110976215;-;-;9.185837;1.8556976;-2.460556;-;-;-;-;-;-;-;-;-;-;-;-;-;-;-
1514110976235;-;-;9.437241;0.16299438;-0.44943237;-;-;-;-;-;-;-;-;-;-;-;-;-;-;-
1514110976256;-;-;9.843048;-1.313034;0.9416046;-;-;-;-;-;-;-;-;-;-;-;-;-;-;-
1514110976276;-;-;9.538986;-2.4658356;0.20898438;-;-;-;-;-;-;-;-;-;-;-;-;-;-;-
1514110976296;-;-;8.465195;-3.0320587;-1.8272858;-;-;-;-;-;-;-;-;-;-;-;-;-;-;-
1514110976317;-;-;7.624832;-1.491394;-4.4309845;-;-;-;-;-;-;-;-;-;-;-;-;-;-;-
1514110976338;-;-;10.075287;-3.6270294;-9.031448;-;-;-;-;-;-;-;-;-;-;-;-;-;-;-
1514110976357;-;-;14.605118;-3.8281403;-11.559723;-;-;-;-;-;-;-;-;-;-;-;-;-;-;-
1514110976377;-;-;13.514557;-2.590332;-7.1388245;-;-;-;-;-;-;-;-;-;-;-;-;-;-;-
1514110976398;-;-;10.485901;-2.7387695;-4.833206;-;-;-;-;-;-;-;-;-;-;-;-;-;-;-
1514110976417;-;-;6.791641;-1.0101624;-2.7083588;-;-;-;-;-;-;-;-;-;-;-;-;-;-;-
1514110976437;-;-;4.9588776;-0.21170044;-4.654846;-;-;-;-;-;-;-;-;-;-;-;-;-;-;-
1514110976457;-;-;5.347946;-0.5720215;-4.9170074;-;-;-;-;-;-;-;-;-;-;-;-;-;-;-
1514110976477;-;-;6.9424744;-0.70729065;-4.7087097;-;-;-;-;-;-;-;-;-;-;-;-;-;-;-
1514110976498;-;-;7.963608;-0.47984314;-4.5052032;-;-;-;-;-;-;-;-;-;-;-;-;-;-;-
1514110976518;-;-;7.6822815;0.36889648;-4.393875;-;-;-;-;-;-;-;-;-;-;-;-;-;-;-
1514110976538;-;-;6.455261;0.036102295;-3.6923676;-;-;-;-;-;-;-;-;-;-;-;-;-;-;-
1514110976559;-;-;6.7413635;-1.2411957;-3.2949371;-;-;-;-;-;-;-;-;-;-;-;-;-;-;-
1514110976579;-;-;7.4596252;-1.0592499;-2.6903992;-;-;-;-;-;-;-;-;-;-;-;-;-;-;-
1514110976599;-;-;8.402939;-0.8964386;-2.1253662;-;-;-;-;-;-;-;-;-;-;-;-;-;-;-
1514110976619;-;-;8.322739;-1.7942657;-1.729126;-;-;-;-;-;-;-;-;-;-;-;-;-;-;-
1514110976640;-;-;7.825943;-2.566391;-1.5567474;-;-;-;-;-;-;-;-;-;-;-;-;-;-;-
1514110976660;-;-;7.2836456;-2.3389435;-1.8799591;-;-;-;-;-;-;-;-;-;-;-;-;-;-;-
1514110976680;-;-;6.850296;-1.2112732;-2.7466583;-;-;-;-;-;-;-;-;-;-;-;-;-;-;-
1514110976701;-;-;6.592926;0.069625854;-3.4936523;-;-;-;-;-;-;-;-;-;-;-;-;-;-;-
1514110976721;-;-;6.94368;0.9111786;-3.156067;-;-;-;-;-;-;-;-;-;-;-;-;-;-;-
1514110976741;-;-;7.7373505;1.1518097;-2.4641418;-;-;-;-;-;-;-;-;-;-;-;-;-;-;-
1514110976761;-;-;8.783615;-0.078811646;-2.093048;-;-;-;-;-;-;-;-;-;-;-;-;-;-;-
1514110976782;-;-;9.655106;-1.5416718;-1.7853851;-;-;-;-;-;-;-;-;-;-;-;-;-;-;-
1514110976802;-;-;10.435623;-2.4215393;-1.4944916;-;-;-;-;-;-;-;-;-;-;-;-;-;-;-
1514110976822;-;-;10.927628;-2.7603302;-1.3460541;-;-;-;-;-;-;-;-;-;-;-;-;-;-;-
1514110976843;-;-;11.479492;-2.7579346;-0.4242859;-;-;-;-;-;-;-;-;-;-;-;-;-;-;-
1514110976863;-;-;11.829041;-2.2886658;-0.22796631;-;-;-;-;-;-;-;-;-;-;-;-;-;-;-
1514110976883;-;-;11.914032;-1.3657074;-0.99650574;-;-;-;-;-;-;-;-;-;-;-;-;-;-;-
1514110976904;-;-;10.847427;-0.7851105;-1.5758972;-;-;-;-;-;-;-;-;-;-;-;-;-;-;-
1514110976924;-;-;7.114853;-3.957428;-12.08165;-;-;-;-;-;-;-;-;-;-;-;-;-;-;-
1514110976944;-;-;7.34111;-3.9825592;-7.9049683;-;-;-;-;-;-;-;-;-;-;-;-;-;-;-
1514110976964;-;-;9.009872;-1.8972168;-6.797653;-;-;-;-;-;-;-;-;-;-;-;-;-;-;-
1514110976985;-;-;11.260422;3.1485596;-6.2098694;-;-;-;-;-;-;-;-;-;-;-;-;-;-;-
1514110977005;-;-;11.699753;2.739151;-2.685608;-;-;-;-;-;-;-;-;-;-;-;-;-;-;-
1514110977025;-;-;10.902481;-2.0289001;-4.1149445;-;-;-;-;-;-;-;-;-;-;-;-;-;-;-
1514110977046;-;-;11.70694;-4.096283;-5.9836273;-;-;-;-;-;-;-;-;-;-;-;-;-;-;-
1514110977066;-;-;11.067688;-2.2790833;-3.899475;-;-;-;-;-;-;-;-;-;-;-;-;-;-;-
