TimeStamp[ms];Prox[Cm];Lux[lux];AccX[m/s^2];AccY[m/s^2];AccZ[m/s^2];GyroX[rad/s];GyroY[rad/s];GyroZ[rad/s];MagnX[uT];MagnY[uT];MagnZ[uT];OrienYaw[degrees];OrienPitch[degrees];OrienRoll[degrees];Press[Pa];Temp[C°];Batt[%];Lat;Lng;Speed[m/s]
1514111013018;-;-;8.829102;-1.1729736;2.1530762;-;-;-;-;-;-;-;-;-;-;-;-;-;-;-
1514111013024;-;-;8.643555;-1.3477478;2.1925812;-;-;-;-;-;-;-;-;-;-;-;-;-;-;-
1514111013043;-;-;8.186264;-1.6829376;2.3015137;-;-;-;-;-;-;-;-;-;-;-;-;-;-;-
1514111013063;-;-;8.5082855;-1.3812561;2.172226;-;-;-;-;-;-;-;-;-;-;-;-;-;-;-
1514111013083;-;-;8.544205;-0.9072113;1.6431122;-;-;-;-;-;-;-;-;-;-;-;-;-;-;-
1514111013103;-;-;9.541382;0.110321045;1.6478882;-;-;-;-;-;-;-;-;-;-;-;-;-;-;-
1514111013124;-;-;8.768051;-1.1143036;2.9694977;-;-;-;-;-;-;-;-;-;-;-;-;-;-;-
1514111013144;-;-;9.79277;-1.6817322;1.370163;-;-;-;-;-;-;-;-;-;-;-;-;-;-;-
1514111013165;-;-;8.97995;-0.9036255;1.1570892;-;-;-;-;-;-;-;-;-;-;-;-;-;-;-
1514111013185;-;-;7.5709534;-1.2878876;1.196579;-;-;-;-;-;-;-;-;-;-;-;-;-;-;-
1514111013205;-;-;7.574539;-1.2687378;0.46635437;-;-;-;-;-;-;-;-;-;-;-;-;-;-;-
1514111013226;-;-;9.280411;-0.83418274;0.84584045;-;-;-;-;-;-;-;-;-;-;-;-;-;-;-
1514111013245;-;-;10.301544;-0.36013794;0.89730835;-;-;-;-;-;-;-;-;-;-;-;-;-;-;-
1514111013269;-;-;10.058533;-0.093185425;0.44360352;-;-;-;-;-;-;-;-;-;-;-;-;-;-;-
1514111013286;-;-;10.518219;-0.542099;0.8374634;-;-;-;-;-;-;-;-;-;-;-;-;-;-;-
1514111013306;-;-;10.112396;-1.0939636;0.3717804;-;-;-;-;-;-;-;-;-;-;-;-;-;-;-
1514111013326;-;-;11.279572;-1.3740845;-0.8612366;-;-;-;-;-;-;-;-;-;-;-;-;-;-;-
1514111013347;-;-;8.456802;-0.5133667;-0.372818;-;-;-;-;-;-;-;-;-;-;-;-;-;-;-
1514111013367;-;-;9.246902;0.66218567;0.23052979;-;-;-;-;-;-;-;-;-;-;-;-;-;-;-
1514111013387;-;-;8.818329;1.4726257;0.71055603;-;-;-;-;-;-;-;-;-;-;-;-;-;-;-
1514111013408;-;-;8.424484;1.3600922;1.2696075;-;-;-;-;-;-;-;-;-;-;-;-;-;-;-
1514111013428;-;-;7.7816467;-0.03691101;1.5174103;-;-;-;-;-;-;-;-;-;-;-;-;-;-;-
1514111013448;-;-;7.332733;-1.4638672;1.6299438;-;-;-;-;-;-;-;-;-;-;-;-;-;-;-
1514111013468;-;-;7.6571503;-0.16859436;0.9535675;-;-;-;-;-;-;-;-;-;-;-;-;-;-;-
1514111013489;-;-;14.168182;-1.0137482;1.7484436;-;-;-;-;-;-;-;-;-;-;-;-;-;-;-
1514111013509;-;-;12.185776;-1.131073;1.4551544;-;-;-;-;-;-;-;-;-;-;-;-;-;-;-
1514111013529;-;-;10.32309;-0.07522583;0.22094727;-;-;-;-;-;-;-;-;-;-;-;-;-;-;-
1514111013550;-;-;7.387802;1.2260284;-0.5176544;-;-;-;-;-;-;-;-;-;-;-;-;-;-;-
1514111013570;-;-;7.4919434;1.101532;-0.24832153;-;-;-;-;-;-;-;-;-;-;-;-;-;-;-
1514111013590;-;-;7.9540253;0.42755127;0.70098877;-;-;-;-;-;-;-;-;-;-;-;-;-;-;-
1514111013611;-;-;7.7732697;0.45269775;1.4156494;-;-;-;-;-;-;-;-;-;-;-;-;-;-;-
1514111013631;-;-;10.777985;-0.10395813;2.4762878;-;-;-;-;-;-;-;-;-;-;-;-;-;-;-
1514111013651;-;-;7.3770294;0.48860168;2.4116364;-;-;-;-;-;-;-;-;-;-;-;-;-;-;-
1514111013672;-;-;11.574066;-0.56604004;-2.9022827;-;-;-;-;-;-;-;-;-;-;-;-;-;-;-
1514111013692;-;-;8.72377;1.6258545;-1.713562;-;-;-;-;-;-;-;-;-;-;-;-;-;-;-
1514111013712;-;-;7.6511536;1.2164459;0.09286499;-;-;-;-;-;-;-;-;-;-;-;-;-;-;-
1514111013732;-;-;7.015503;-0.25479126;-1.361618;-;-;-;-;-;-;-;-;-;-;-;-;-;-;-
1514111013753;-;-;6.7018585;-0.47265625;-4.3005066;-;-;-;-;-;-;-;-;-;-;-;-;-;-;-
1514111013773;-;-;6.814392;0.2635498;-3.2721863;-;-;-;-;-;-;-;-;-;-;-;-;-;-;-
1514111013793;-;-;9.705383;1.4917755;-0.92826843;-;-;-;-;-;-;-;-;-;-;-;-;-;-;-
1514111013814;-;-;13.208099;0.088775635;-2.0080566;-;-;-;-;-;-;-;-;-;-;-;-;-;-;-
1514111013834;-;-;11.261612;-1.7870789;-1.5986481;-;-;-;-;-;-;-;-;-;-;-;-;-;-;-
1514111013854;-;-;10.118393;-1.8924255;-2.6173706;-;-;-;-;-;-;-;-;-;-;-;-;-;-;-
1514111013874;-;-;8.600464;-0.9550934;-1.5543518;-;-;-;-;-;-;-;-;-;-;-;-;-;-;-
1514111013895;-;-;9.169083;-1.2388;-2.5898438;-;-;-;-;-;-;-;-;-;-;-;-;-;-;-
1514111013915;-;-;10.811508;-0.83657837;-1.9398193;-;-;-;-;-;-;-;-;-;-;-;-;-;-;-
1514111013935;-;-;12.344986;-1.0173492;-1.4107056;-;-;-;-;-;-;-;-;-;-;-;-;-;-;-
1514111013956;-;-;10.891708;-0.7886963;-0.47216797;-;-;-;-;-;-;-;-;-;-;-;-;-;-;-
1514111013976;-;-;9.845444;-1.7056732;-0.2171936;-;-;-;-;-;-;-;-;-;-;-;-;-;-;-
1514111013996;-;-;8.452026;-2.981781;-0.16810608;-;-;-;-;-;-;-;-;-;-;-;-;-;-;-
1514111014017;-;-;6.491165;-3.486969;-1.5232239;-;-;-;-;-;-;-;-;-;-;-;-;-;-;-
1514111014037;-;-;9.623978;-3.1745148;-2.6532898;-;-;-;-;-;-;-;-;-;-;-;-;-;-;-
1514111014057;-;-;5.589752;-0.5432892;-1.9553833;-;-;-;-;-;-;-;-;-;-;-;-;-;-;-
1514111014077;-;-;9.051773;0.9794159;-0.6337738;-;-;-;-;-;-;-;-;-;-;-;-;-;-;-
1514111014098;-;-;7.8881836;1.3780518;-1.0826874;-;-;-;-;-;-;-;-;-;-;-;-;-;-;-
1514111014118;-;-;8.809952;0.110321045;-0.7977905;-;-;-;-;-;-;-;-;-;-;-;-;-;-;-
1514111014138;-;-;9.087677;-1.6110992;-0.26626587;-;-;-;-;-;-;-;-;-;-;-;-;-;-;-
1514111014159;-;-;8.8051605;-2.2359924;-0.0687561;-;-;-;-;-;-;-;-;-;-;-;-;-;-;-
1514111014179;-;-;8.886566;-2.186905;-0.120224;-;-;-;-;-;-;-;-;-;-;-;-;-;-;-
1514111014199;-;-;8.932053;-1.9031982;-0.097473145;-;-;-;-;-;-;-;-;-;-;-;-;-;-;-
1514111014220;-;-;8.819534;-1.4985809;-0.042419434;-;-;-;-;-;-;-;-;-;-;-;-;-;-;-
1514111014240;-;-;8.957199;-1.4267578;0.19700623;-;-;-;-;-;-;-;-;-;-;-;-;-;-;-
1514111014260;-;-;9.090073;-1.6027222;0.3430481;-;-;-;-;-;-;-;-;-;-;-;-;-;-;-
1514111014280;-;-;9.23732;-1.7344055;0.12876892;-;-;-;-;-;-;-;-;-;-;-;-;-;-;-
1514111014301;-;-;9.343857;-1.9127808;-0.5344238;-;-;-;-;-;-;-;-;-;-;-;-;-;-;-
1514111014320;-;-;9.857422;-1.9965668;-1.1377563;-;-;-;-;-;-;-;-;-;-;-;-;-;-;-
1514111014340;-;-;10.902481;-1.7535553;-1.2861938;-;-;-;-;-;-;-;-;-;-;-;-;-;-;-
1514111014360;-;-;12.117538;-2.2048645;-2.271408;-;-;-;-;-;-;-;-;-;-;-;-;-;-;-
1514111014380;-;-;12.822632;-4.6804657;-5.049881;-;-;-;-;-;-;-;-;-;-;-;-;-;-;-
1514111014401;-;-;15.056427;-5.709976;-3.899475;-;-;-;-;-;-;-;-;-;-;-;-;-;-;-
1514111014421;-;-;16.998123;-4.453018;-2.9848938;-;-;-;-;-;-;-;-;-;-;-;-;-;-;-
1514111014441;-;-;15.876434;-2.380844;-9.784424;-;-;-;-;-;-;-;-;-;-;-;-;-;-;-
1514111014461;-;-;7.873825;-0.18057251;-9.67189;-;-;-;-;-;-;-;-;-;-;-;-;-;-;-
1514111014482;-;-;4.1364746;1.2224274;-6.6061096;-;-;-;-;-;-;-;-;-;-;-;-;-;-;-
1514111014502;-;-;3.3942719;1.1123047;-3.8887024;-;-;-;-;-;-;-;-;-;-;-;-;-;-;-
1514111014522;-;-;4.6021423;-1.5045624;-1.737503;-;-;-;-;-;-;-;-;-;-;-;-;-;-;-
1514111014543;-;-;6.8550873;-3.3038025;-3.0686798;-;-;-;-;-;-;-;-;-;-;-;-;-;-;-
1514111014563;-;-;10.497864;-3.0344543;-4.100586;-;-;-;-;-;-;-;-;-;-;-;-;-;-;-
1514111014583;-;-;12.095993;-2.6047058;-4.35318;-;-;-;-;-;-;-;-;-;-;-;-;-;-;-
1514111014604;-;-;10.630753;-1.0700226;-3.203949;-;-;-;-;-;-;-;-;-;-;-;-;-;-;-
1514111014623;-;-;9.309143;0.122299194;-2.6449127;-;-;-;-;-;-;-;-;-;-;-;-;-;-;-
1514111014643;-;-;6.86467;1.4666443;-2.7299042;-;-;-;-;-;-;-;-;-;-;-;-;-;-;-
1514111014663;-;-;6.0099335;1.2774963;-2.5922394;-;-;-;-;-;-;-;-;-;-;-;-;-;-;-
1514111014684;-;-;5.1336517;0.7112732;-2.484497;-;-;-;-;-;-;-;-;-;-;-;-;-;-;-
1514111014703;-;-;5.154007;0.16659546;-1.8284912;-;-;-;-;-;-;-;-;-;-;-;-;-;-;-
1514111014723;-;-;5.845932;-0.34217834;-1.0443878;-;-;-;-;-;-;-;-;-;-;-;-;-;-;-
1514111014743;-;-;6.719818;-0.2859192;-1.5926514;-;-;-;-;-;-;-;-;-;-;-;-;-;-;-
1514111014764;-;-;7.2788696;0.7842865;-2.6006165;-;-;-;-;-;-;-;-;-;-;-;-;-;-;-
1514111014784;-;-;8.42569;1.5504303;-3.2003632;-;-;-;-;-;-;-;-;-;-;-;-;-;-;-
1514111014805;-;-;9.543777;2.323761;-3.1740265;-;-;-;-;-;-;-;-;-;-;-;-;-;-;-
1514111014825;-;-;9.233734;2.2184143;-3.1860046;-;-;-;-;-;-;-;-;-;-;-;-;-;-;-
1514111014845;-;-;8.8003845;1.571991;-3.3164825;-;-;-;-;-;-;-;-;-;-;-;-;-;-;-
1514111014865;-;-;9.185837;1.1518097;-3.408661;-;-;-;-;-;-;-;-;-;-;-;-;-;-;-
1514111014886;-;-;10.311127;0.99858093;-2.962143;-;-;-;-;-;-;-;-;-;-;-;-;-;-;-
1514111014905;-;-;10.788757;0.03730774;-4.8775024;-;-;-;-;-;-;-;-;-;-;-;-;-;-;-
1514111014926;-;-;10.396118;0.22525024;-7.539856;-;-;-;-;-;-;-;-;-;-;-;-;-;-;-
1514111014946;-;-;11.1167755;0.73760986;-5.116928;-;-;-;-;-;-;-;-;-;-;-;-;-;-;-
1514111014967;-;-;12.975861;0.7878876;-4.714691;-;-;-;-;-;-;-;-;-;-;-;-;-;-;-
1514111014987;-;-;10.270416;1.0536346;-7.448883;-;-;-;-;-;-;-;-;-;-;-;-;-;-;-
1514111015007;-;-;6.0661926;0.46107483;-6.4121857;-;-;-;-;-;-;-;-;-;-;-;-;-;-;-
1514111015027;-;-;3.8707123;-0.39604187;-3.5475311;-;-;-;-;-;-;-;-;-;-;-;-;-;-;-
1514111015048;-;-;3.7067108;-1.0987396;-2.685608;-;-;-;-;-;-;-;-;-;-;-;-;-;-;-
1514111015068;-;-;5.8088226;-1.2627563;-3.4948578;-;-;-;-;-;-;-;-;-;-;-;-;-;-;-
1514111015088;-;-;8.387375;-1.1478271;-4.8858795;-;-;-;-;-;-;-;-;-;-;-;-;-;-;-
1514111015108;-;-;10.521805;-1.1598053;-4.258606;-;-;-;-;-;-;-;-;-;-;-;-;-;-;-
1514111015129;-;-;11.358582;-1.1825409;-3.6672363;-;-;-;-;-;-;-;-;-;-;-;-;-;-;-
1514111015149;-;-;10.40329;-1.3680878;-3.0483398;-;-;-;-;-;-;-;-;-;-;-;-;-;-;-
1514111015169;-;-;7.564972;-2.0229034;-2.5527344;-;-;-;-;-;-;-;-;-;-;-;-;-;-;-
1514111015190;-;-;6.005142;-2.332962;-2.2522583;-;-;-;-;-;-;-;-;-;-;-;-;-;-;-
1514111015210;-;-;5.71904;-2.0109406;-2.0248108;-;-;-;-;-;-;-;-;-;-;-;-;-;-;-
1514111015230;-;-;5.8806458;-1.1238861;-1.9481964;-;-;-;-;-;-;-;-;-;-;-;-;-;-;-
1514111015250;-;-;6.0410614;-0.7156677;-2.5120392;-;-;-;-;-;-;-;-;-;-;-;-;-;-;-
1514111015271;-;-;6.328369;-0.9323425;-2.728714;-;-;-;-;-;-;-;-;-;-;-;-;-;-;-
1514111015291;-;-;6.8993835;-1.8612976;-2.4797058;-;-;-;-;-;-;-;-;-;-;-;-;-;-;-
1514111015311;-;-;8.495117;-3.0859375;-2.1648712;-;-;-;-;-;-;-;-;-;-;-;-;-;-;-
1514111015332;-;-;9.981918;-3.344513;-2.5599213;-;-;-;-;-;-;-;-;-;-;-;-;-;-;-
1514111015352;-;-;11.079651;-3.4259033;-2.8567963;-;-;-;-;-;-;-;-;-;-;-;-;-;-;-
1514111015372;-;-;11.395691;-3.4366913;-2.3995056;-;-;-;-;-;-;-;-;-;-;-;-;-;-;-
1514111015392;-;-;11.894882;-3.2762756;-3.5175934;-;-;-;-;-;-;-;-;-;-;-;-;-;-;-
1514111015413;-;-;11.872131;-2.8872223;-6.6288605;-;-;-;-;-;-;-;-;-;-;-;-;-;-;-
1514111015433;-;-;10.14473;-2.3760529;-8.151581;-;-;-;-;-;-;-;-;-;-;-;-;-;-;-
1514111015453;-;-;10.762421;-1.4339294;-9.123627;-;-;-;-;-;-;-;-;-;-;-;-;-;-;-
1514111015474;-;-;11.337036;-0.9191742;-7.888214;-;-;-;-;-;-;-;-;-;-;-;-;-;-;-
1514111015494;-;-;14.283096;0.08039856;-6.1751556;-;-;-;-;-;-;-;-;-;-;-;-;-;-;-
1514111015514;-;-;8.493927;0.9614563;-8.357483;-;-;-;-;-;-;-;-;-;-;-;-;-;-;-
1514111015535;-;-;4.323227;0.49578857;-6.5618286;-;-;-;-;-;-;-;-;-;-;-;-;-;-;-
1514111015555;-;-;3.1512604;-0.47505188;-3.5798492;-;-;-;-;-;-;-;-;-;-;-;-;-;-;-
1514111015575;-;-;3.8491669;-2.1689606;-1.7171631;-;-;-;-;-;-;-;-;-;-;-;-;-;-;-
1514111015596;-;-;6.680313;-2.949463;-1.4897003;-;-;-;-;-;-;-;-;-;-;-;-;-;-;-
1514111015616;-;-;8.625595;-2.4706268;-2.4186554;-;-;-;-;-;-;-;-;-;-;-;-;-;-;-
1514111015636;-;-;8.904526;-2.1773376;-3.6983643;-;-;-;-;-;-;-;-;-;-;-;-;-;-;-
1514111015657;-;-;7.126831;-0.9275665;-3.535553;-;-;-;-;-;-;-;-;-;-;-;-;-;-;-
1514111015677;-;-;5.842346;0.3712921;-2.9369965;-;-;-;-;-;-;-;-;-;-;-;-;-;-;-
1514111015697;-;-;5.110916;1.4558716;-2.7358856;-;-;-;-;-;-;-;-;-;-;-;-;-;-;-
1514111015718;-;-;4.5794067;2.4398804;-2.7634277;-;-;-;-;-;-;-;-;-;-;-;-;-;-;-
1514111015737;-;-;4.244217;2.5548096;-3.3643646;-;-;-;-;-;-;-;-;-;-;-;-;-;-;-
1514111015757;-;-;5.501175;2.1322327;-3.350006;-;-;-;-;-;-;-;-;-;-;-;-;-;-;-
1514111015777;-;-;8.028244;1.5193176;-3.2566223;-;-;-;-;-;-;-;-;-;-;-;-;-;-;-
1514111015797;-;-;10.803131;0.71965027;-3.9964294;-;-;-;-;-;-;-;-;-;-;-;-;-;-;-
1514111015817;-;-;11.177826;2.1334229;-3.4230194;-;-;-;-;-;-;-;-;-;-;-;-;-;-;-
1514111015838;-;-;11.838623;1.6665497;-3.231491;-;-;-;-;-;-;-;-;-;-;-;-;-;-;-
1514111015858;-;-;12.542511;0.8788605;-3.2817688;-;-;-;-;-;-;-;-;-;-;-;-;-;-;-
1514111015878;-;-;12.350983;0.38565063;-2.247467;-;-;-;-;-;-;-;-;-;-;-;-;-;-;-
1514111015899;-;-;9.951996;-0.86172485;-6.1990967;-;-;-;-;-;-;-;-;-;-;-;-;-;-;-
1514111015920;-;-;8.266464;0.82858276;-7.2968445;-;-;-;-;-;-;-;-;-;-;-;-;-;-;-
1514111015940;-;-;8.423294;1.9011841;-3.282959;-;-;-;-;-;-;-;-;-;-;-;-;-;-;-
1514111015960;-;-;11.933197;1.2834778;-5.382675;-;-;-;-;-;-;-;-;-;-;-;-;-;-;-
1514111015981;-;-;9.766434;0.9602661;-7.0514374;-;-;-;-;-;-;-;-;-;-;-;-;-;-;-
1514111016001;-;-;5.438919;-0.21409607;-6.5941467;-;-;-;-;-;-;-;-;-;-;-;-;-;-;-
1514111016021;-;-;3.438568;-0.5504761;-3.8336334;-;-;-;-;-;-;-;-;-;-;-;-;-;-;-
1514111016041;-;-;4.1687927;-0.98861694;-1.4992828;-;-;-;-;-;-;-;-;-;-;-;-;-;-;-
1514111016062;-;-;6.436096;-1.3262024;-2.053543;-;-;-;-;-;-;-;-;-;-;-;-;-;-;-
1514111016082;-;-;8.991913;-1.3980255;-3.5020294;-;-;-;-;-;-;-;-;-;-;-;-;-;-;-
1514111016102;-;-;9.967545;-1.5081482;-4.562668;-;-;-;-;-;-;-;-;-;-;-;-;-;-;-
1514111016122;-;-;9.183456;-1.8481293;-4.3292236;-;-;-;-;-;-;-;-;-;-;-;-;-;-;-
1514111016143;-;-;7.1411896;-2.2563477;-3.3248596;-;-;-;-;-;-;-;-;-;-;-;-;-;-;-
1514111016164;-;-;4.8918457;-2.056427;-2.8927155;-;-;-;-;-;-;-;-;-;-;-;-;-;-;-
1514111016184;-;-;4.5039825;-1.4183655;-2.3384552;-;-;-;-;-;-;-;-;-;-;-;-;-;-;-
1514111016204;-;-;4.1759796;-0.739624;-2.3995056;-;-;-;-;-;-;-;-;-;-;-;-;-;-;-
1514111016225;-;-;4.3543396;-1.0005798;-3.1716309;-;-;-;-;-;-;-;-;-;-;-;-;-;-;-
1514111016245;-;-;5.471237;-1.9893951;-4.361557;-;-;-;-;-;-;-;-;-;-;-;-;-;-;-
1514111016265;-;-;7.961212;-2.8860168;-4.1783905;-;-;-;-;-;-;-;-;-;-;-;-;-;-;-
1514111016285;-;-;10.774399;-2.772293;-3.895874;-;-;-;-;-;-;-;-;-;-;-;-;-;-;-
1514111016306;-;-;12.7939;-1.036499;-3.9293976;-;-;-;-;-;-;-;-;-;-;-;-;-;-;-
1514111016326;-;-;13.288315;-1.2926788;-3.990448;-;-;-;-;-;-;-;-;-;-;-;-;-;-;-
1514111016346;-;-;13.544495;-3.0416412;-3.8623657;-;-;-;-;-;-;-;-;-;-;-;-;-;-;-
1514111016367;-;-;12.342606;-2.6884918;-5.4820404;-;-;-;-;-;-;-;-;-;-;-;-;-;-;-
1514111016387;-;-;10.367386;-2.8896027;-8.282059;-;-;-;-;-;-;-;-;-;-;-;-;-;-;-
1514111016407;-;-;10.084869;-2.7926483;-7.29924;-;-;-;-;-;-;-;-;-;-;-;-;-;-;-
1514111016428;-;-;9.96994;-1.8409424;-8.238968;-;-;-;-;-;-;-;-;-;-;-;-;-;-;-
1514111016448;-;-;14.539276;-1.5967407;-6.8970184;-;-;-;-;-;-;-;-;-;-;-;-;-;-;-
1514111016468;-;-;8.650742;1.2104645;-5.32283;-;-;-;-;-;-;-;-;-;-;-;-;-;-;-
1514111016489;-;-;3.9928284;-0.55526733;-5.764557;-;-;-;-;-;-;-;-;-;-;-;-;-;-;-
1514111016509;-;-;2.9860535;-1.9163666;-3.9653168;-;-;-;-;-;-;-;-;-;-;-;-;-;-;-
1514111016529;-;-;4.1209106;-2.1019135;-3.025589;-;-;-;-;-;-;-;-;-;-;-;-;-;-;-
1514111016549;-;-;7.1172485;-1.0173492;-3.2506409;-;-;-;-;-;-;-;-;-;-;-;-;-;-;-
1514111016570;-;-;8.806366;-0.22845459;-4.2322693;-;-;-;-;-;-;-;-;-;-;-;-;-;-;-
1514111016590;-;-;9.232529;0.08279419;-4.499222;-;-;-;-;-;-;-;-;-;-;-;-;-;-;-
1514111016610;-;-;7.5781403;0.7615509;-4.6368866;-;-;-;-;-;-;-;-;-;-;-;-;-;-;-
1514111016631;-;-;5.490387;1.1470184;-4.044327;-;-;-;-;-;-;-;-;-;-;-;-;-;-;-
1514111016650;-;-;4.1089325;1.532486;-3.6552582;-;-;-;-;-;-;-;-;-;-;-;-;-;-;-
1514111016670;-;-;3.5403137;1.240387;-3.669632;-;-;-;-;-;-;-;-;-;-;-;-;-;-;-
1514111016690;-;-;4.229843;0.43234253;-2.9932709;-;-;-;-;-;-;-;-;-;-;-;-;-;-;-
1514111016711;-;-;5.5909576;-0.13388062;-3.2003632;-;-;-;-;-;-;-;-;-;-;-;-;-;-;-
1514111016731;-;-;7.4297028;0.30426025;-3.4278107;-;-;-;-;-;-;-;-;-;-;-;-;-;-;-
1514111016751;-;-;9.398926;0.56521606;-3.8863068;-;-;-;-;-;-;-;-;-;-;-;-;-;-;-
1514111016772;-;-;10.0298;1.6928864;-4.2178955;-;-;-;-;-;-;-;-;-;-;-;-;-;-;-
1514111016792;-;-;10.349426;2.2627106;-3.7665863;-;-;-;-;-;-;-;-;-;-;-;-;-;-;-
1514111016813;-;-;10.891708;2.2016602;-3.3583832;-;-;-;-;-;-;-;-;-;-;-;-;-;-;-
1514111016833;-;-;12.550888;1.9933624;-4.307678;-;-;-;-;-;-;-;-;-;-;-;-;-;-;-
1514111016853;-;-;12.724472;1.2715149;-3.4314117;-;-;-;-;-;-;-;-;-;-;-;-;-;-;-
1514111016873;-;-;10.997055;0.16299438;-2.642517;-;-;-;-;-;-;-;-;-;-;-;-;-;-;-
1514111016893;-;-;8.082123;-1.2016907;-8.996735;-;-;-;-;-;-;-;-;-;-;-;-;-;-;-
1514111016913;-;-;6.11528;0.9794159;-8.923706;-;-;-;-;-;-;-;-;-;-;-;-;-;-;-
1514111016934;-;-;10.314713;2.9103394;-0.99890137;-;-;-;-;-;-;-;-;-;-;-;-;-;-;-
1514111016954;-;-;15.458649;1.0883636;-6.025528;-;-;-;-;-;-;-;-;-;-;-;-;-;-;-
1514111016974;-;-;7.344696;0.91596985;-9.505493;-;-;-;-;-;-;-;-;-;-;-;-;-;-;-
1514111016995;-;-;6.8874054;0.13665771;-6.563019;-;-;-;-;-;-;-;-;-;-;-;-;-;-;-
1514111017015;-;-;5.866287;-1.1502228;-1.8548279;-;-;-;-;-;-;-;-;-;-;-;-;-;-;-
1514111017035;-;-;6.202667;-2.3197937;0.6052246;-;-;-;-;-;-;-;-;-;-;-;-;-;-;-
1514111017056;-;-;6.695877;-2.2575378;-1.5280151;-;-;-;-;-;-;-;-;-;-;-;-;-;-;-
1514111017076;-;-;7.0214844;-2.238388;-4.602173;-;-;-;-;-;-;-;-;-;-;-;-;-;-;-
1514111017096;-;-;6.4241333;-1.7559509;-5.4197845;-;-;-;-;-;-;-;-;-;-;-;-;-;-;-
1514111017117;-;-;5.8567047;-1.5931549;-3.895874;-;-;-;-;-;-;-;-;-;-;-;-;-;-;-
1514111017137;-;-;4.193939;-2.0612183;-2.6365356;-;-;-;-;-;-;-;-;-;-;-;-;-;-;-
1514111017157;-;-;2.320465;-2.1186829;-2.6006165;-;-;-;-;-;-;-;-;-;-;-;-;-;-;-
1514111017177;-;-;3.6911469;-2.5771637;-2.2366943;-;-;-;-;-;-;-;-;-;-;-;-;-;-;-
1514111017198;-;-;5.3694916;-2.3305664;-2.467743;-;-;-;-;-;-;-;-;-;-;-;-;-;-;-
1514111017218;-;-;7.6427765;-2.0995178;-2.5491486;-;-;-;-;-;-;-;-;-;-;-;-;-;-;-
1514111017238;-;-;8.837494;-1.656601;-3.0423431;-;-;-;-;-;-;-;-;-;-;-;-;-;-;-
1514111017259;-;-;9.030228;-1.7715149;-3.2614136;-;-;-;-;-;-;-;-;-;-;-;-;-;-;-
1514111017279;-;-;9.822708;-2.5316772;-2.6413116;-;-;-;-;-;-;-;-;-;-;-;-;-;-;-
1514111017299;-;-;10.880936;-2.3664703;-2.6353302;-;-;-;-;-;-;-;-;-;-;-;-;-;-;-
1514111017320;-;-;11.86496;-1.7667236;-2.4030914;-;-;-;-;-;-;-;-;-;-;-;-;-;-;-
1514111017340;-;-;11.9631195;-2.6310425;-2.9250336;-;-;-;-;-;-;-;-;-;-;-;-;-;-;-
1514111017360;-;-;11.724899;-3.5133057;-3.369156;-;-;-;-;-;-;-;-;-;-;-;-;-;-;-
1514111017380;-;-;12.016983;-2.9434814;-4.210724;-;-;-;-;-;-;-;-;-;-;-;-;-;-;-
1514111017401;-;-;11.641098;-2.0911407;-6.6564026;-;-;-;-;-;-;-;-;-;-;-;-;-;-;-
1514111017421;-;-;12.099594;-0.6103363;-7.1555786;-;-;-;-;-;-;-;-;-;-;-;-;-;-;-
1514111017441;-;-;12.963898;-0.9395294;-5.5131683;-;-;-;-;-;-;-;-;-;-;-;-;-;-;-
1514111017462;-;-;12.407242;-2.3556976;-5.9357452;-;-;-;-;-;-;-;-;-;-;-;-;-;-;-
1514111017482;-;-;8.784821;-1.7655334;-6.3726807;-;-;-;-;-;-;-;-;-;-;-;-;-;-;-
1514111017502;-;-;4.7912903;-1.4602661;-5.40184;-;-;-;-;-;-;-;-;-;-;-;-;-;-;-
1514111017522;-;-;3.6109467;-1.8888397;-3.377533;-;-;-;-;-;-;-;-;-;-;-;-;-;-;-
1514111017543;-;-;3.797699;-2.471817;-1.8823547;-;-;-;-;-;-;-;-;-;-;-;-;-;-;-
1514111017563;-;-;6.513916;-2.5652008;-2.084671;-;-;-;-;-;-;-;-;-;-;-;-;-;-;-
1514111017583;-;-;9.658707;-1.4087982;-3.6684265;-;-;-;-;-;-;-;-;-;-;-;-;-;-;-
1514111017603;-;-;10.883331;-0.38887024;-4.1736145;-;-;-;-;-;-;-;-;-;-;-;-;-;-;-
1514111017624;-;-;10.149506;0.12828064;-4.694351;-;-;-;-;-;-;-;-;-;-;-;-;-;-;-
1514111017644;-;-;8.365829;0.5819855;-4.69075;-;-;-;-;-;-;-;-;-;-;-;-;-;-;-
1514111017664;-;-;6.5007477;0.9854126;-4.7673645;-;-;-;-;-;-;-;-;-;-;-;-;-;-;-
1514111017684;-;-;5.2234344;1.4175568;-4.476471;-;-;-;-;-;-;-;-;-;-;-;-;-;-;-
1514111017705;-;-;4.6727753;0.99497986;-3.9341888;-;-;-;-;-;-;-;-;-;-;-;-;-;-;-
1514111017725;-;-;5.051056;0.2132721;-3.0591125;-;-;-;-;-;-;-;-;-;-;-;-;-;-;-
1514111017745;-;-;5.371887;-0.009384155;-2.709549;-;-;-;-;-;-;-;-;-;-;-;-;-;-;-
1514111017765;-;-;6.05542;0.12828064;-2.6317444;-;-;-;-;-;-;-;-;-;-;-;-;-;-;-
1514111017786;-;-;6.889801;1.070404;-2.9334106;-;-;-;-;-;-;-;-;-;-;-;-;-;-;-
1514111017806;-;-;7.75531;1.8233795;-3.2853546;-;-;-;-;-;-;-;-;-;-;-;-;-;-;-
1514111017826;-;-;8.631592;1.7922516;-3.2913513;-;-;-;-;-;-;-;-;-;-;-;-;-;-;-
1514111017847;-;-;8.848267;1.7707062;-3.6576538;-;-;-;-;-;-;-;-;-;-;-;-;-;-;-
1514111017867;-;-;8.861435;1.8305664;-3.8156738;-;-;-;-;-;-;-;-;-;-;-;-;-;-;-
1514111017887;-;-;9.974731;1.7862701;-4.01799;-;-;-;-;-;-;-;-;-;-;-;-;-;-;-
1514111017908;-;-;11.260422;1.8760529;-4.028763;-;-;-;-;-;-;-;-;-;-;-;-;-;-;-
1514111017928;-;-;12.246826;0.9961853;-3.6504822;-;-;-;-;-;-;-;-;-;-;-;-;-;-;-
1514111017949;-;-;11.657852;0.74957275;-3.0088348;-;-;-;-;-;-;-;-;-;-;-;-;-;-;-
1514111017969;-;-;9.491104;0.536499;-7.517105;-;-;-;-;-;-;-;-;-;-;-;-;-;-;-
1514111017989;-;-;7.253723;2.998932;-7.3591003;-;-;-;-;-;-;-;-;-;-;-;-;-;-;-
1514111018009;-;-;10.955154;4.2223663;-1.4657593;-;-;-;-;-;-;-;-;-;-;-;-;-;-;-
1514111018029;-;-;12.650253;2.0759583;-9.304382;-;-;-;-;-;-;-;-;-;-;-;-;-;-;-
1514111018050;-;-;6.7006683;1.051239;-10.998276;-;-;-;-;-;-;-;-;-;-;-;-;-;-;-
1514111018069;-;-;4.295685;-1.4339294;-6.15361;-;-;-;-;-;-;-;-;-;-;-;-;-;-;-
1514111018090;-;-;5.7441864;-3.8736267;-3.033966;-;-;-;-;-;-;-;-;-;-;-;-;-;-;-
1514111018110;-;-;7.5386353;-5.002487;-1.1281891;-;-;-;-;-;-;-;-;-;-;-;-;-;-;-
1514111018131;-;-;9.337875;-2.6358185;-3.4002838;-;-;-;-;-;-;-;-;-;-;-;-;-;-;-
1514111018151;-;-;10.347031;-0.95269775;-5.9213715;-;-;-;-;-;-;-;-;-;-;-;-;-;-;-
1514111018171;-;-;10.495468;-0.040512085;-6.275711;-;-;-;-;-;-;-;-;-;-;-;-;-;-;-
1514111018192;-;-;7.228592;0.54008484;-4.3519745;-;-;-;-;-;-;-;-;-;-;-;-;-;-;-
1514111018212;-;-;3.7450256;-0.23085022;-2.9453888;-;-;-;-;-;-;-;-;-;-;-;-;-;-;-
1514111018233;-;-;2.0379486;-1.7164459;-1.8691864;-;-;-;-;-;-;-;-;-;-;-;-;-;-;-
1514111018253;-;-;2.798111;-2.9829865;-1.1724701;-;-;-;-;-;-;-;-;-;-;-;-;-;-;-
1514111018273;-;-;5.0211334;-2.456253;-2.3480225;-;-;-;-;-;-;-;-;-;-;-;-;-;-;-
1514111018294;-;-;6.233795;-1.5967407;-2.9405975;-;-;-;-;-;-;-;-;-;-;-;-;-;-;-
1514111018314;-;-;6.9736023;-1.0233307;-3.0794525;-;-;-;-;-;-;-;-;-;-;-;-;-;-;-
1514111018334;-;-;7.4919434;-1.5799866;-3.598999;-;-;-;-;-;-;-;-;-;-;-;-;-;-;-
1514111018355;-;-;9.067337;-2.8381348;-3.6085815;-;-;-;-;-;-;-;-;-;-;-;-;-;-;-
1514111018374;-;-;9.5677185;-2.9351044;-3.3954926;-;-;-;-;-;-;-;-;-;-;-;-;-;-;-
1514111018394;-;-;9.481522;-2.7579346;-2.9525604;-;-;-;-;-;-;-;-;-;-;-;-;-;-;-
1514111018414;-;-;9.510254;-2.5963135;-2.9812927;-;-;-;-;-;-;-;-;-;-;-;-;-;-;-
1514111018435;-;-;9.462372;-2.5639954;-2.7418823;-;-;-;-;-;-;-;-;-;-;-;-;-;-;-
1514111018455;-;-;9.826294;-2.7986298;-2.768219;-;-;-;-;-;-;-;-;-;-;-;-;-;-;-
1514111018475;-;-;10.625961;-3.0811462;-3.5882263;-;-;-;-;-;-;-;-;-;-;-;-;-;-;-
1514111018496;-;-;11.972702;-2.2551422;-4.301697;-;-;-;-;-;-;-;-;-;-;-;-;-;-;-
1514111018516;-;-;13.2799225;-0.8377838;-4.560272;-;-;-;-;-;-;-;-;-;-;-;-;-;-;-
1514111018536;-;-;12.633499;0.85491943;-6.0386963;-;-;-;-;-;-;-;-;-;-;-;-;-;-;-
1514111018557;-;-;10.093246;0.19293213;-12.104401;-;-;-;-;-;-;-;-;-;-;-;-;-;-;-
1514111018577;-;-;8.994308;-0.38168335;-5.543091;-;-;-;-;-;-;-;-;-;-;-;-;-;-;-
1514111018597;-;-;10.783981;-1.9917908;-0.8564453;-;-;-;-;-;-;-;-;-;-;-;-;-;-;-
1514111018618;-;-;8.617218;-3.2642975;-4.5267487;-;-;-;-;-;-;-;-;-;-;-;-;-;-;-
1514111018638;-;-;5.082184;-3.325348;-6.4911957;-;-;-;-;-;-;-;-;-;-;-;-;-;-;-
1514111018658;-;-;3.749817;-3.732376;-5.3120575;-;-;-;-;-;-;-;-;-;-;-;-;-;-;-
1514111018678;-;-;5.0175323;-3.3313446;-3.176422;-;-;-;-;-;-;-;-;-;-;-;-;-;-;-
1514111018699;-;-;8.108459;-1.2076874;-3.0686798;-;-;-;-;-;-;-;-;-;-;-;-;-;-;-
1514111018718;-;-;8.677078;0.9494934;-3.9892578;-;-;-;-;-;-;-;-;-;-;-;-;-;-;-
1514111018738;-;-;8.304779;1.5528259;-5.1396637;-;-;-;-;-;-;-;-;-;-;-;-;-;-;-
1514111018759;-;-;7.6475677;0.89442444;-5.7753296;-;-;-;-;-;-;-;-;-;-;-;-;-;-;-
1514111018778;-;-;6.3666687;0.517334;-5.266556;-;-;-;-;-;-;-;-;-;-;-;-;-;-;-
1514111018798;-;-;5.7214355;0.833374;-4.4824524;-;-;-;-;-;-;-;-;-;-;-;-;-;-;-
1514111018818;-;-;5.2916718;1.5193176;-4.666809;-;-;-;-;-;-;-;-;-;-;-;-;-;-;-
1514111018839;-;-;4.7685394;1.9131622;-4.639282;-;-;-;-;-;-;-;-;-;-;-;-;-;-;-
1514111018859;-;-;4.6739655;1.5612183;-4.2933197;-;-;-;-;-;-;-;-;-;-;-;-;-;-;-
1514111018879;-;-;5.6807404;1.0356903;-3.6995544;-;-;-;-;-;-;-;-;-;-;-;-;-;-;-
1514111018900;-;-;6.8155823;1.027298;-3.346405;-;-;-;-;-;-;-;-;-;-;-;-;-;-;-
1514111018920;-;-;7.928894;1.1194763;-3.136917;-;-;-;-;-;-;-;-;-;-;-;-;-;-;-
1514111018940;-;-;8.029449;1.2272186;-2.8615875;-;-;-;-;-;-;-;-;-;-;-;-;-;-;-
1514111018960;-;-;7.7134094;1.1829224;-2.484497;-;-;-;-;-;-;-;-;-;-;-;-;-;-;-
1514111018981;-;-;7.355484;0.8441467;-2.1816254;-;-;-;-;-;-;-;-;-;-;-;-;-;-;-
1514111019001;-;-;7.5637665;0.635849;-1.7123718;-;-;-;-;-;-;-;-;-;-;-;-;-;-;-
1514111019021;-;-;8.32753;0.90519714;-1.6644897;-;-;-;-;-;-;-;-;-;-;-;-;-;-;-
1514111019042;-;-;9.303162;0.82499695;-1.8691864;-;-;-;-;-;-;-;-;-;-;-;-;-;-;-
1514111019062;-;-;9.736511;0.97702026;-1.4071045;-;-;-;-;-;-;-;-;-;-;-;-;-;-;-
1514111019082;-;-;9.896927;1.4367065;-1.0922699;-;-;-;-;-;-;-;-;-;-;-;-;-;-;-
1514111019103;-;-;9.650314;1.3026428;-0.6194153;-;-;-;-;-;-;-;-;-;-;-;-;-;-;-
1514111019123;-;-;9.822708;0.21208191;0.01625061;-;-;-;-;-;-;-;-;-;-;-;-;-;-;-
1514111019144;-;-;9.98671;-0.77433777;0.8482361;-;-;-;-;-;-;-;-;-;-;-;-;-;-;-
1514111019165;-;-;9.869385;-1.6589966;1.1654663;-;-;-;-;-;-;-;-;-;-;-;-;-;-;-
1514111019185;-;-;9.026627;-0.83418274;-5.072632;-;-;-;-;-;-;-;-;-;-;-;-;-;-;-
1514111019205;-;-;7.064575;3.5914917;-9.633591;-;-;-;-;-;-;-;-;-;-;-;-;-;-;-
1514111019225;-;-;8.469971;6.2191315;-7.3447266;-;-;-;-;-;-;-;-;-;-;-;-;-;-;-
1514111019245;-;-;12.142685;3.0540009;-7.1531982;-;-;-;-;-;-;-;-;-;-;-;-;-;-;-
1514111019266;-;-;13.291901;-2.597519;-7.503937;-;-;-;-;-;-;-;-;-;-;-;-;-;-;-
1514111019286;-;-;8.829102;-4.0903015;-7.685898;-;-;-;-;-;-;-;-;-;-;-;-;-;-;-
1514111019306;-;-;7.7409363;-1.7966614;-3.7115326;-;-;-;-;-;-;-;-;-;-;-;-;-;-;-
1514111019327;-;-;7.8367157;1.2547607;-2.8053284;-;-;-;-;-;-;-;-;-;-;-;-;-;-;-
1514111019347;-;-;9.103241;1.5671997;-4.050308;-;-;-;-;-;-;-;-;-;-;-;-;-;-;-
1514111019367;-;-;10.242889;0.47184753;-5.654419;-;-;-;-;-;-;-;-;-;-;-;-;-;-;-
1514111019387;-;-;7.770874;0.050476074;-5.0642548;-;-;-;-;-;-;-;-;-;-;-;-;-;-;-
1514111019408;-;-;5.6220703;-1.4291534;-4.184387;-;-;-;-;-;-;-;-;-;-;-;-;-;-;-
1514111019428;-;-;5.2845;-3.1421967;-3.717514;-;-;-;-;-;-;-;-;-;-;-;-;-;-;-
1514111019448;-;-;4.893036;-4.2674713;-3.1381226;-;-;-;-;-;-;-;-;-;-;-;-;-;-;-
1514111019468;-;-;6.0266876;-4.0112915;-2.4306335;-;-;-;-;-;-;-;-;-;-;-;-;-;-;-
1514111019488;-;-;7.435684;-2.676529;-2.2738037;-;-;-;-;-;-;-;-;-;-;-;-;-;-;-
1514111019508;-;-;8.078522;-2.1007233;-1.697998;-;-;-;-;-;-;-;-;-;-;-;-;-;-;-
1514111019529;-;-;8.303574;-2.1809235;-1.8691864;-;-;-;-;-;-;-;-;-;-;-;-;-;-;-
1514111019549;-;-;8.955994;-2.2335968;-2.4797058;-;-;-;-;-;-;-;-;-;-;-;-;-;-;-
1514111019569;-;-;9.79158;-2.368866;-2.4940796;-;-;-;-;-;-;-;-;-;-;-;-;-;-;-
1514111019590;-;-;9.920868;-2.2910614;-2.057129;-;-;-;-;-;-;-;-;-;-;-;-;-;-;-
1514111019610;-;-;9.816711;-1.7320099;-1.4837189;-;-;-;-;-;-;-;-;-;-;-;-;-;-;-
1514111019630;-;-;9.341461;-1.3704834;-1.0348053;-;-;-;-;-;-;-;-;-;-;-;-;-;-;-
1514111019651;-;-;8.732147;-1.7080688;-1.2933807;-;-;-;-;-;-;-;-;-;-;-;-;-;-;-
1514111019670;-;-;8.594482;-2.731598;-1.4944916;-;-;-;-;-;-;-;-;-;-;-;-;-;-;-
1514111019690;-;-;9.118805;-3.131424;-1.203598;-;-;-;-;-;-;-;-;-;-;-;-;-;-;-
1514111019711;-;-;9.2708435;-2.6334229;-0.8396759;-;-;-;-;-;-;-;-;-;-;-;-;-;-;-
1514111019731;-;-;8.909317;-2.0815735;-1.0431824;-;-;-;-;-;-;-;-;-;-;-;-;-;-;-
1514111019751;-;-;8.750107;-1.6374359;-2.8017273;-;-;-;-;-;-;-;-;-;-;-;-;-;-;-
1514111019771;-;-;9.793976;1.6366272;-12.209747;-;-;-;-;-;-;-;-;-;-;-;-;-;-;-
1514111019792;-;-;11.714127;7.612549;-13.710907;-;-;-;-;-;-;-;-;-;-;-;-;-;-;-
1514111019812;-;-;15.334152;2.6302185;-4.9768677;-;-;-;-;-;-;-;-;-;-;-;-;-;-;-
1514111019832;-;-;12.264786;-0.6007538;-3.3978882;-;-;-;-;-;-;-;-;-;-;-;-;-;-;-
1514111019853;-;-;6.1356354;-0.8425598;-3.8180695;-;-;-;-;-;-;-;-;-;-;-;-;-;-;-
1514111019874;-;-;4.0897827;-0.759964;-4.8978577;-;-;-;-;-;-;-;-;-;-;-;-;-;-;-
1514111019894;-;-;6.1835175;-0.32421875;-3.7773743;-;-;-;-;-;-;-;-;-;-;-;-;-;-;-
1514111019914;-;-;7.924103;0.1797638;-3.36557;-;-;-;-;-;-;-;-;-;-;-;-;-;-;-
1514111019935;-;-;8.996704;1.0991364;-3.7115326;-;-;-;-;-;-;-;-;-;-;-;-;-;-;-
1514111019955;-;-;9.683838;2.29982;-2.9884796;-;-;-;-;-;-;-;-;-;-;-;-;-;-;-
1514111019975;-;-;9.184647;2.2339783;-1.8799591;-;-;-;-;-;-;-;-;-;-;-;-;-;-;-
1514111019996;-;-;7.9468384;0.9925842;-1.7794037;-;-;-;-;-;-;-;-;-;-;-;-;-;-;-
1514111020016;-;-;7.312378;-0.37928772;-1.7746124;-;-;-;-;-;-;-;-;-;-;-;-;-;-;-
1514111020036;-;-;7.4716034;-0.9934082;-1.8799591;-;-;-;-;-;-;-;-;-;-;-;-;-;-;-
1514111020057;-;-;8.592087;-0.19134521;-2.179245;-;-;-;-;-;-;-;-;-;-;-;-;-;-;-
1514111020076;-;-;9.213379;0.57121277;-2.2139587;-;-;-;-;-;-;-;-;-;-;-;-;-;-;-
1514111020096;-;-;9.124786;1.6126862;-2.3743591;-;-;-;-;-;-;-;-;-;-;-;-;-;-;-
1514111020116;-;-;8.679474;1.6833191;-2.491684;-;-;-;-;-;-;-;-;-;-;-;-;-;-;-
1514111020137;-;-;7.8127747;1.7659149;-2.3480225;-;-;-;-;-;-;-;-;-;-;-;-;-;-;-
1514111020157;-;-;7.154358;1.7778931;-2.045166;-;-;-;-;-;-;-;-;-;-;-;-;-;-;-
1514111020177;-;-;6.6779175;1.6725464;-1.7207489;-;-;-;-;-;-;-;-;-;-;-;-;-;-;-
1514111020198;-;-;6.5713806;1.2104645;-1.0707245;-;-;-;-;-;-;-;-;-;-;-;-;-;-;-
1514111020218;-;-;6.9113464;0.5077667;-0.66729736;-;-;-;-;-;-;-;-;-;-;-;-;-;-;-
1514111020239;-;-;7.6810913;0.29826355;-0.6720886;-;-;-;-;-;-;-;-;-;-;-;-;-;-;-
1514111020258;-;-;9.011063;0.68733215;-1.2299347;-;-;-;-;-;-;-;-;-;-;-;-;-;-;-
1514111020279;-;-;10.579269;1.908371;-2.6221619;-;-;-;-;-;-;-;-;-;-;-;-;-;-;-
1514111020298;-;-;12.12114;3.6298065;-2.8711548;-;-;-;-;-;-;-;-;-;-;-;-;-;-;-
1514111020318;-;-;13.321823;4.8233185;-4.112549;-;-;-;-;-;-;-;-;-;-;-;-;-;-;-
1514111020338;-;-;15.200073;5.715149;-4.8260345;-;-;-;-;-;-;-;-;-;-;-;-;-;-;-
1514111020359;-;-;18.059952;5.0411835;-4.6692047;-;-;-;-;-;-;-;-;-;-;-;-;-;-;-
1514111020379;-;-;16.550415;1.9227295;-5.3168335;-;-;-;-;-;-;-;-;-;-;-;-;-;-;-
1514111020399;-;-;12.202545;0.8417511;-4.8224335;-;-;-;-;-;-;-;-;-;-;-;-;-;-;-
1514111020419;-;-;6.4456787;-1.0448761;-4.6009674;-;-;-;-;-;-;-;-;-;-;-;-;-;-;-
1514111020440;-;-;3.2302704;-1.696106;-3.2913513;-;-;-;-;-;-;-;-;-;-;-;-;-;-;-
1514111020460;-;-;3.1273193;-1.8924255;-4.2933197;-;-;-;-;-;-;-;-;-;-;-;-;-;-;-
1514111020480;-;-;7.031067;-1.1897278;-4.824829;-;-;-;-;-;-;-;-;-;-;-;-;-;-;-
1514111020500;-;-;11.067688;0.033706665;-5.9129944;-;-;-;-;-;-;-;-;-;-;-;-;-;-;-
1514111020521;-;-;11.60878;0.3102417;-6.2852936;-;-;-;-;-;-;-;-;-;-;-;-;-;-;-
1514111020541;-;-;10.433228;0.60472107;-5.278534;-;-;-;-;-;-;-;-;-;-;-;-;-;-;-
1514111020561;-;-;9.4935;0.19891357;-3.2027588;-;-;-;-;-;-;-;-;-;-;-;-;-;-;-
1514111020581;-;-;8.104858;-1.1095276;-2.7538452;-;-;-;-;-;-;-;-;-;-;-;-;-;-;-
1514111020602;-;-;5.972824;-1.7344055;-2.7155457;-;-;-;-;-;-;-;-;-;-;-;-;-;-;-
1514111020622;-;-;4.201111;-1.8768616;-2.5838623;-;-;-;-;-;-;-;-;-;-;-;-;-;-;-
1514111020642;-;-;4.482437;-1.7176514;-2.1768494;-;-;-;-;-;-;-;-;-;-;-;-;-;-;-
1514111020662;-;-;6.3810425;-1.9043884;-1.7219391;-;-;-;-;-;-;-;-;-;-;-;-;-;-;-
1514111020683;-;-;7.4332886;-1.8026428;-1.6716614;-;-;-;-;-;-;-;-;-;-;-;-;-;-;-
1514111020703;-;-;7.6308136;-1.7727203;-2.065506;-;-;-;-;-;-;-;-;-;-;-;-;-;-;-
1514111020723;-;-;7.4440613;-2.2862701;-2.3396454;-;-;-;-;-;-;-;-;-;-;-;-;-;-;-
1514111020744;-;-;7.8355103;-2.8608856;-2.3073273;-;-;-;-;-;-;-;-;-;-;-;-;-;-;-
1514111020764;-;-;8.618423;-2.882431;-2.1529083;-;-;-;-;-;-;-;-;-;-;-;-;-;-;-
1514111020784;-;-;10.017822;-2.810608;-1.9888916;-;-;-;-;-;-;-;-;-;-;-;-;-;-;-
1514111020805;-;-;9.682648;-3.3624573;-2.1864166;-;-;-;-;-;-;-;-;-;-;-;-;-;-;-
1514111020824;-;-;9.422867;-4.429077;-2.5335846;-;-;-;-;-;-;-;-;-;-;-;-;-;-;-
1514111020844;-;-;9.483917;-4.139389;-2.4138641;-;-;-;-;-;-;-;-;-;-;-;-;-;-;-
1514111020864;-;-;10.042969;-2.854889;-3.6169586;-;-;-;-;-;-;-;-;-;-;-;-;-;-;-
1514111020885;-;-;10.776794;-0.77552795;-4.282547;-;-;-;-;-;-;-;-;-;-;-;-;-;-;-
1514111020905;-;-;11.937973;0.19891357;-7.7912445;-;-;-;-;-;-;-;-;-;-;-;-;-;-;-
1514111020925;-;-;11.425613;-0.8641205;-11.094055;-;-;-;-;-;-;-;-;-;-;-;-;-;-;-
1514111020946;-;-;12.408447;-2.4670258;-8.997925;-;-;-;-;-;-;-;-;-;-;-;-;-;-;-
1514111020966;-;-;12.696945;-4.826523;-5.3204346;-;-;-;-;-;-;-;-;-;-;-;-;-;-;-
1514111020986;-;-;8.174301;-3.697647;-6.7389984;-;-;-;-;-;-;-;-;-;-;-;-;-;-;-
1514111021006;-;-;6.592926;-2.0552368;-5.0391083;-;-;-;-;-;-;-;-;-;-;-;-;-;-;-
1514111021027;-;-;6.0685883;-0.3757019;-2.7825775;-;-;-;-;-;-;-;-;-;-;-;-;-;-;-
1514111021047;-;-;5.5622253;-0.03930664;-2.500061;-;-;-;-;-;-;-;-;-;-;-;-;-;-;-
1514111021067;-;-;6.284073;-0.36372375;-2.0260162;-;-;-;-;-;-;-;-;-;-;-;-;-;-;-
1514111021087;-;-;7.948044;-0.8892517;-2.1936035;-;-;-;-;-;-;-;-;-;-;-;-;-;-;-
1514111021108;-;-;8.125214;-1.5584412;-3.2961273;-;-;-;-;-;-;-;-;-;-;-;-;-;-;-
1514111021128;-;-;7.217804;-1.4483032;-3.5894165;-;-;-;-;-;-;-;-;-;-;-;-;-;-;-
1514111021148;-;-;5.862686;-0.81144714;-3.3272552;-;-;-;-;-;-;-;-;-;-;-;-;-;-;-
1514111021168;-;-;4.960083;0.64901733;-2.5575256;-;-;-;-;-;-;-;-;-;-;-;-;-;-;-
1514111021189;-;-;5.399414;1.4690399;-2.412674;-;-;-;-;-;-;-;-;-;-;-;-;-;-;-
1514111021209;-;-;5.9632416;1.4905853;-2.586258;-;-;-;-;-;-;-;-;-;-;-;-;-;-;-
1514111021229;-;-;5.454483;1.185318;-3.3200684;-;-;-;-;-;-;-;-;-;-;-;-;-;-;-
1514111021250;-;-;6.118866;0.5879669;-3.472107;-;-;-;-;-;-;-;-;-;-;-;-;-;-;-
1514111021270;-;-;7.2070313;0.7124634;-3.654068;-;-;-;-;-;-;-;-;-;-;-;-;-;-;-
1514111021290;-;-;8.833893;1.0943451;-3.353592;-;-;-;-;-;-;-;-;-;-;-;-;-;-;-
1514111021311;-;-;10.264435;1.2870789;-2.8424377;-;-;-;-;-;-;-;-;-;-;-;-;-;-;-
1514111021331;-;-;10.921646;0.9483032;-3.3009186;-;-;-;-;-;-;-;-;-;-;-;-;-;-;-
1514111021351;-;-;11.8050995;2.002945;-4.27417;-;-;-;-;-;-;-;-;-;-;-;-;-;-;-
1514111021371;-;-;12.036148;3.1222382;-4.975662;-;-;-;-;-;-;-;-;-;-;-;-;-;-;-
1514111021392;-;-;11.806305;3.0563965;-4.778137;-;-;-;-;-;-;-;-;-;-;-;-;-;-;-
1514111021412;-;-;10.511032;1.8353424;-3.6995544;-;-;-;-;-;-;-;-;-;-;-;-;-;-;-
1514111021432;-;-;8.872208;0.122299194;-9.534225;-;-;-;-;-;-;-;-;-;-;-;-;-;-;-
1514111021453;-;-;10.167465;2.5200958;-4.756592;-;-;-;-;-;-;-;-;-;-;-;-;-;-;-
1514111021473;-;-;12.194153;2.5895233;-4.3639526;-;-;-;-;-;-;-;-;-;-;-;-;-;-;-
1514111021493;-;-;9.3103485;0.9183655;-8.058197;-;-;-;-;-;-;-;-;-;-;-;-;-;-;-
1514111021514;-;-;5.2030945;-1.1669769;-7.9325104;-;-;-;-;-;-;-;-;-;-;-;-;-;-;-
1514111021534;-;-;1.9804993;-3.0320587;-4.244232;-;-;-;-;-;-;-;-;-;-;-;-;-;-;-
1514111021554;-;-;3.679184;-4.257889;-1.3664093;-;-;-;-;-;-;-;-;-;-;-;-;-;-;-
1514111021574;-;-;5.3778687;-2.9003906;-1.045578;-;-;-;-;-;-;-;-;-;-;-;-;-;-;-
1514111021595;-;-;7.9228973;0.24798584;-3.6684265;-;-;-;-;-;-;-;-;-;-;-;-;-;-;-
1514111021615;-;-;9.014664;1.1506042;-5.6364594;-;-;-;-;-;-;-;-;-;-;-;-;-;-;-
1514111021635;-;-;8.656723;1.5336761;-5.037918;-;-;-;-;-;-;-;-;-;-;-;-;-;-;-
1514111021656;-;-;7.032257;1.164978;-3.4421844;-;-;-;-;-;-;-;-;-;-;-;-;-;-;-
1514111021676;-;-;4.612915;-1.285492;-2.405487;-;-;-;-;-;-;-;-;-;-;-;-;-;-;-
1514111021696;-;-;3.9281769;-2.9829865;-2.4928741;-;-;-;-;-;-;-;-;-;-;-;-;-;-;-
1514111021717;-;-;6.5007477;-3.6509705;-2.3935242;-;-;-;-;-;-;-;-;-;-;-;-;-;-;-
1514111021737;-;-;6.388214;-2.0971222;-2.8687744;-;-;-;-;-;-;-;-;-;-;-;-;-;-;-
1514111021757;-;-;6.798828;-1.6985016;-3.429016;-;-;-;-;-;-;-;-;-;-;-;-;-;-;-
1514111021778;-;-;7.669113;-1.9606628;-3.5618896;-;-;-;-;-;-;-;-;-;-;-;-;-;-;-
1514111021797;-;-;9.408508;-2.7256012;-2.7466583;-;-;-;-;-;-;-;-;-;-;-;-;-;-;-
1514111021817;-;-;10.538574;-3.1685333;-2.8783417;-;-;-;-;-;-;-;-;-;-;-;-;-;-;-
1514111021838;-;-;10.994659;-2.9207306;-3.0914307;-;-;-;-;-;-;-;-;-;-;-;-;-;-;-
1514111021858;-;-;10.985092;-3.2702942;-3.8468018;-;-;-;-;-;-;-;-;-;-;-;-;-;-;-
1514111021878;-;-;11.126343;-3.0308685;-4.417816;-;-;-;-;-;-;-;-;-;-;-;-;-;-;-
1514111021898;-;-;11.624344;-1.9666443;-5.34317;-;-;-;-;-;-;-;-;-;-;-;-;-;-;-
1514111021919;-;-;11.207748;-1.2232513;-6.136856;-;-;-;-;-;-;-;-;-;-;-;-;-;-;-
1514111021939;-;-;10.363785;-2.4885864;-7.709839;-;-;-;-;-;-;-;-;-;-;-;-;-;-;-
1514111021959;-;-;12.604767;-3.4115448;-7.8511047;-;-;-;-;-;-;-;-;-;-;-;-;-;-;-
1514111021980;-;-;14.97023;-3.7706757;-9.0877075;-;-;-;-;-;-;-;-;-;-;-;-;-;-;-
1514111022000;-;-;12.461105;-1.4806213;-7.6882935;-;-;-;-;-;-;-;-;-;-;-;-;-;-;-
1514111022020;-;-;5.086975;0.41079712;-7.8858185;-;-;-;-;-;-;-;-;-;-;-;-;-;-;-
1514111022041;-;-;2.5862274;0.27192688;-6.2230377;-;-;-;-;-;-;-;-;-;-;-;-;-;-;-
1514111022061;-;-;2.6257324;-0.083602905;-3.5415344;-;-;-;-;-;-;-;-;-;-;-;-;-;-;-
1514111022082;-;-;4.2944946;-0.50857544;-2.8747559;-;-;-;-;-;-;-;-;-;-;-;-;-;-;-
1514111022102;-;-;6.5127106;-0.7803192;-3.1943817;-;-;-;-;-;-;-;-;-;-;-;-;-;-;-
1514111022122;-;-;7.67749;-0.9287567;-3.409851;-;-;-;-;-;-;-;-;-;-;-;-;-;-;-
1514111022144;-;-;7.6942596;-1.0065765;-3.567871;-;-;-;-;-;-;-;-;-;-;-;-;-;-;-
1514111022165;-;-;6.9556427;-1.028122;-4.172409;-;-;-;-;-;-;-;-;-;-;-;-;-;-;-
1514111022185;-;-;5.016342;0.4119873;-4.2729645;-;-;-;-;-;-;-;-;-;-;-;-;-;-;-
1514111022206;-;-;3.9473267;1.8652802;-3.998825;-;-;-;-;-;-;-;-;-;-;-;-;-;-;-
1514111022225;-;-;4.063446;2.9187164;-3.6732178;-;-;-;-;-;-;-;-;-;-;-;-;-;-;-
1514111022245;-;-;5.114502;2.7559204;-3.2482452;-;-;-;-;-;-;-;-;-;-;-;-;-;-;-
1514111022266;-;-;6.3343506;1.4666443;-3.3009186;-;-;-;-;-;-;-;-;-;-;-;-;-;-;-
1514111022286;-;-;6.6036987;0.4072113;-3.689972;-;-;-;-;-;-;-;-;-;-;-;-;-;-;-
1514111022306;-;-;9.046982;-0.064453125;-3.8551788;-;-;-;-;-;-;-;-;-;-;-;-;-;-;-
1514111022327;-;-;10.221344;1.2858734;-4.4716797;-;-;-;-;-;-;-;-;-;-;-;-;-;-;-
1514111022346;-;-;10.625961;2.4315033;-4.593796;-;-;-;-;-;-;-;-;-;-;-;-;-;-;-
1514111022366;-;-;10.2752075;2.351303;-4.2214966;-;-;-;-;-;-;-;-;-;-;-;-;-;-;-
1514111022386;-;-;11.032974;1.8161926;-4.7230835;-;-;-;-;-;-;-;-;-;-;-;-;-;-;-
1514111022407;-;-;11.741653;1.611496;-5.413803;-;-;-;-;-;-;-;-;-;-;-;-;-;-;-
1514111022427;-;-;11.37175;1.0057526;-4.4118347;-;-;-;-;-;-;-;-;-;-;-;-;-;-;-
1514111022447;-;-;10.120773;0.09475708;-4.788925;-;-;-;-;-;-;-;-;-;-;-;-;-;-;-
1514111022467;-;-;9.430054;0.7986603;-6.528305;-;-;-;-;-;-;-;-;-;-;-;-;-;-;-
1514111022488;-;-;8.684265;1.7874603;-6.4947815;-;-;-;-;-;-;-;-;-;-;-;-;-;-;-
1514111022508;-;-;9.483917;2.739151;-5.6651917;-;-;-;-;-;-;-;-;-;-;-;-;-;-;-
1514111022528;-;-;8.545395;1.7024689;-7.232193;-;-;-;-;-;-;-;-;-;-;-;-;-;-;-
1514111022549;-;-;6.3582916;0.83218384;-7.6715393;-;-;-;-;-;-;-;-;-;-;-;-;-;-;-
1514111022569;-;-;3.5427094;0.5065613;-5.7669525;-;-;-;-;-;-;-;-;-;-;-;-;-;-;-
1514111022591;-;-;4.2082977;-1.3285828;-3.1309357;-;-;-;-;-;-;-;-;-;-;-;-;-;-;-
1514111022612;-;-;6.695877;-3.1577606;-2.3312683;-;-;-;-;-;-;-;-;-;-;-;-;-;-;-
1514111022632;-;-;7.3854065;-2.353302;-2.6125946;-;-;-;-;-;-;-;-;-;-;-;-;-;-;-
1514111022652;-;-;8.023453;-0.93115234;-3.6085815;-;-;-;-;-;-;-;-;-;-;-;-;-;-;-
1514111022673;-;-;7.873825;-0.5313263;-4.0957947;-;-;-;-;-;-;-;-;-;-;-;-;-;-;-
1514111022693;-;-;7.6080627;-0.7192688;-3.575058;-;-;-;-;-;-;-;-;-;-;-;-;-;-;-
1514111022714;-;-;5.842346;-1.131073;-2.9417877;-;-;-;-;-;-;-;-;-;-;-;-;-;-;-
1514111022734;-;-;4.793686;-1.6194916;-2.898697;-;-;-;-;-;-;-;-;-;-;-;-;-;-;-
1514111022754;-;-;4.691925;-1.5500488;-2.9274292;-;-;-;-;-;-;-;-;-;-;-;-;-;-;-
1514111022774;-;-;5.588562;-1.6422272;-3.12854;-;-;-;-;-;-;-;-;-;-;-;-;-;-;-
1514111022794;-;-;6.9975433;-2.1246643;-3.7103271;-;-;-;-;-;-;-;-;-;-;-;-;-;-;-
1514111022815;-;-;9.007477;-2.6178741;-4.002426;-;-;-;-;-;-;-;-;-;-;-;-;-;-;-
1514111022835;-;-;11.201767;-2.8201752;-4.101776;-;-;-;-;-;-;-;-;-;-;-;-;-;-;-
1514111022855;-;-;11.930801;-2.2012787;-4.0910034;-;-;-;-;-;-;-;-;-;-;-;-;-;-;-
1514111022876;-;-;11.315491;-2.8955994;-4.310074;-;-;-;-;-;-;-;-;-;-;-;-;-;-;-
1514111022896;-;-;11.6267395;-3.3876038;-4.696747;-;-;-;-;-;-;-;-;-;-;-;-;-;-;-
1514111022916;-;-;12.238449;-2.8836212;-6.033905;-;-;-;-;-;-;-;-;-;-;-;-;-;-;-
1514111022936;-;-;11.717712;-2.6980743;-7.737381;-;-;-;-;-;-;-;-;-;-;-;-;-;-;-
1514111022957;-;-;9.911285;-2.4335175;-10.057358;-;-;-;-;-;-;-;-;-;-;-;-;-;-;-
1514111022978;-;-;9.874176;-3.325348;-8.071365;-;-;-;-;-;-;-;-;-;-;-;-;-;-;-
1514111022998;-;-;11.714127;-3.0967102;-4.7877197;-;-;-;-;-;-;-;-;-;-;-;-;-;-;-
1514111023019;-;-;8.085709;0.417984;-6.5893555;-;-;-;-;-;-;-;-;-;-;-;-;-;-;-
1514111023039;-;-;3.7138977;1.3541107;-7.769699;-;-;-;-;-;-;-;-;-;-;-;-;-;-;-
1514111023059;-;-;3.3607483;0.5460663;-5.231842;-;-;-;-;-;-;-;-;-;-;-;-;-;-;-
1514111023080;-;-;4.5207367;-0.95269775;-3.2721863;-;-;-;-;-;-;-;-;-;-;-;-;-;-;-
1514111023100;-;-;6.649185;-2.320984;-2.752655;-;-;-;-;-;-;-;-;-;-;-;-;-;-;-
1514111023120;-;-;8.048599;-2.1845245;-3.314087;-;-;-;-;-;-;-;-;-;-;-;-;-;-;-
1514111023142;-;-;7.8881836;-1.1621857;-4.2250824;-;-;-;-;-;-;-;-;-;-;-;-;-;-;-
1514111023162;-;-;6.4325104;-0.2607727;-4.7111053;-;-;-;-;-;-;-;-;-;-;-;-;-;-;-
1514111023183;-;-;4.2789307;0.9710388;-4.347183;-;-;-;-;-;-;-;-;-;-;-;-;-;-;-
1514111023203;-;-;3.6684113;1.7623291;-4.1580505;-;-;-;-;-;-;-;-;-;-;-;-;-;-;-
1514111023223;-;-;4.6069336;2.4614258;-3.6420898;-;-;-;-;-;-;-;-;-;-;-;-;-;-;-
1514111023244;-;-;6.244568;2.1070862;-3.863556;-;-;-;-;-;-;-;-;-;-;-;-;-;-;-
1514111023263;-;-;6.106903;1.9035797;-4.504013;-;-;-;-;-;-;-;-;-;-;-;-;-;-;-
1514111023283;-;-;6.5821533;1.7012787;-4.61055;-;-;-;-;-;-;-;-;-;-;-;-;-;-;-
1514111023303;-;-;8.078522;1.358902;-4.35437;-;-;-;-;-;-;-;-;-;-;-;-;-;-;-
1514111023323;-;-;9.379776;1.2308044;-3.935379;-;-;-;-;-;-;-;-;-;-;-;-;-;-;-
1514111023344;-;-;9.208588;1.9801941;-3.5092163;-;-;-;-;-;-;-;-;-;-;-;-;-;-;-
1514111023364;-;-;9.169083;2.2375793;-4.3280334;-;-;-;-;-;-;-;-;-;-;-;-;-;-;-
1514111023384;-;-;10.302734;2.29982;-5.7633514;-;-;-;-;-;-;-;-;-;-;-;-;-;-;-
1514111023404;-;-;11.490265;2.5943146;-6.0326996;-;-;-;-;-;-;-;-;-;-;-;-;-;-;-
1514111023425;-;-;11.809891;2.287857;-4.991226;-;-;-;-;-;-;-;-;-;-;-;-;-;-;-
1514111023445;-;-;11.611176;0.70648193;-5.9680634;-;-;-;-;-;-;-;-;-;-;-;-;-;-;-
1514111023465;-;-;11.015015;-0.97784424;-6.17276;-;-;-;-;-;-;-;-;-;-;-;-;-;-;-
1514111023486;-;-;9.621582;-0.16740417;-7.2178345;-;-;-;-;-;-;-;-;-;-;-;-;-;-;-
1514111023507;-;-;9.559341;0.38685608;-6.2781067;-;-;-;-;-;-;-;-;-;-;-;-;-;-;-
1514111023527;-;-;9.550964;0.26115417;-8.489151;-;-;-;-;-;-;-;-;-;-;-;-;-;-;-
1514111023547;-;-;6.570175;0.07081604;-8.363464;-;-;-;-;-;-;-;-;-;-;-;-;-;-;-
1514111023567;-;-;3.9425354;0.17616272;-6.2625427;-;-;-;-;-;-;-;-;-;-;-;-;-;-;-
1514111023588;-;-;4.053879;-0.60194397;-3.1428986;-;-;-;-;-;-;-;-;-;-;-;-;-;-;-
1514111023607;-;-;5.233017;-0.87968445;-2.1900177;-;-;-;-;-;-;-;-;-;-;-;-;-;-;-
1514111023627;-;-;5.941696;-1.1478271;-3.3799286;-;-;-;-;-;-;-;-;-;-;-;-;-;-;-
1514111023648;-;-;7.451248;-2.0336761;-4.219101;-;-;-;-;-;-;-;-;-;-;-;-;-;-;-
1514111023668;-;-;7.85347;-2.0396729;-4.4070435;-;-;-;-;-;-;-;-;-;-;-;-;-;-;-
1514111023688;-;-;7.3291473;-2.1246643;-3.6085815;-;-;-;-;-;-;-;-;-;-;-;-;-;-;-
1514111023708;-;-;5.5789795;-1.913971;-2.7909546;-;-;-;-;-;-;-;-;-;-;-;-;-;-;-
1514111023729;-;-;3.6037598;-1.3908386;-2.105011;-;-;-;-;-;-;-;-;-;-;-;-;-;-;-
1514111023748;-;-;3.6229095;-0.9060211;-2.306137;-;-;-;-;-;-;-;-;-;-;-;-;-;-;-
1514111023768;-;-;5.043869;-1.0771942;-3.3272552;-;-;-;-;-;-;-;-;-;-;-;-;-;-;-
1514111023789;-;-;5.8758545;-1.146637;-4.35318;-;-;-;-;-;-;-;-;-;-;-;-;-;-;-
1514111023808;-;-;7.3973694;-1.7164459;-4.2526093;-;-;-;-;-;-;-;-;-;-;-;-;-;-;-
1514111023828;-;-;9.295975;-3.1338196;-3.484085;-;-;-;-;-;-;-;-;-;-;-;-;-;-;-
1514111023849;-;-;10.971924;-3.84729;-3.686386;-;-;-;-;-;-;-;-;-;-;-;-;-;-;-
1514111023869;-;-;11.8841095;-3.6856842;-4.0012207;-;-;-;-;-;-;-;-;-;-;-;-;-;-;-
1514111023889;-;-;11.123947;-3.8496857;-4.5171814;-;-;-;-;-;-;-;-;-;-;-;-;-;-;-
1514111023909;-;-;11.716522;-3.6449738;-4.538727;-;-;-;-;-;-;-;-;-;-;-;-;-;-;-
1514111023930;-;-;12.884888;-2.2132416;-5.4497223;-;-;-;-;-;-;-;-;-;-;-;-;-;-;-
1514111023949;-;-;11.736862;-0.46788025;-7.0801697;-;-;-;-;-;-;-;-;-;-;-;-;-;-;-
1514111023969;-;-;9.631165;-1.5931549;-8.612457;-;-;-;-;-;-;-;-;-;-;-;-;-;-;-
1514111023989;-;-;9.595245;-2.6094818;-8.113266;-;-;-;-;-;-;-;-;-;-;-;-;-;-;-
1514111024010;-;-;13.054871;-3.6485748;-5.908203;-;-;-;-;-;-;-;-;-;-;-;-;-;-;-
1514111024030;-;-;11.4292145;-2.088745;-7.1472015;-;-;-;-;-;-;-;-;-;-;-;-;-;-;-
1514111024050;-;-;4.568619;0.79267883;-9.778427;-;-;-;-;-;-;-;-;-;-;-;-;-;-;-
1514111024071;-;-;3.1201324;1.0177307;-7.3770447;-;-;-;-;-;-;-;-;-;-;-;-;-;-;-
1514111024091;-;-;4.3256073;0.5161438;-3.9760895;-;-;-;-;-;-;-;-;-;-;-;-;-;-;-
1514111024111;-;-;6.667145;-0.83299255;-2.6484985;-;-;-;-;-;-;-;-;-;-;-;-;-;-;-
1514111024132;-;-;8.534622;-2.0995178;-3.8420105;-;-;-;-;-;-;-;-;-;-;-;-;-;-;-
1514111024152;-;-;8.399353;-2.1677551;-3.5235748;-;-;-;-;-;-;-;-;-;-;-;-;-;-;-
1514111024172;-;-;6.8371277;-2.1581879;-3.2458496;-;-;-;-;-;-;-;-;-;-;-;-;-;-;-
1514111024193;-;-;5.5634155;-1.5428772;-3.4182434;-;-;-;-;-;-;-;-;-;-;-;-;-;-;-
1514111024213;-;-;4.4752502;0.38804626;-3.2889557;-;-;-;-;-;-;-;-;-;-;-;-;-;-;-
1514111024235;-;-;3.9102173;2.545227;-3.3045197;-;-;-;-;-;-;-;-;-;-;-;-;-;-;-
1514111024254;-;-;4.0742188;3.276657;-3.504425;-;-;-;-;-;-;-;-;-;-;-;-;-;-;-
1514111024274;-;-;5.337158;2.8109894;-3.7270966;-;-;-;-;-;-;-;-;-;-;-;-;-;-;-
1514111024294;-;-;7.1914673;1.8592834;-4.1544495;-;-;-;-;-;-;-;-;-;-;-;-;-;-;-
1514111024315;-;-;7.2393646;1.0201263;-4.420212;-;-;-;-;-;-;-;-;-;-;-;-;-;-;-
1514111024335;-;-;7.090912;0.3461609;-4.077835;-;-;-;-;-;-;-;-;-;-;-;-;-;-;-
1514111024355;-;-;6.877838;0.4909973;-3.2159271;-;-;-;-;-;-;-;-;-;-;-;-;-;-;-
1514111024375;-;-;7.3135834;1.3864288;-3.0231934;-;-;-;-;-;-;-;-;-;-;-;-;-;-;-
1514111024395;-;-;7.906143;2.2196198;-3.314087;-;-;-;-;-;-;-;-;-;-;-;-;-;-;-
1514111024416;-;-;8.164719;2.655365;-3.432602;-;-;-;-;-;-;-;-;-;-;-;-;-;-;-
1514111024436;-;-;8.614822;2.8301392;-3.231491;-;-;-;-;-;-;-;-;-;-;-;-;-;-;-
1514111024456;-;-;9.697006;3.6429749;-3.5128021;-;-;-;-;-;-;-;-;-;-;-;-;-;-;-
1514111024477;-;-;10.671448;3.8979492;-3.2003632;-;-;-;-;-;-;-;-;-;-;-;-;-;-;-
1514111024496;-;-;12.426392;3.0348358;-2.2462769;-;-;-;-;-;-;-;-;-;-;-;-;-;-;-
1514111024516;-;-;13.502594;1.516922;-2.3600006;-;-;-;-;-;-;-;-;-;-;-;-;-;-;-
1514111024536;-;-;12.334213;-0.76594543;-6.6839294;-;-;-;-;-;-;-;-;-;-;-;-;-;-;-
1514111024557;-;-;13.483429;-0.463089;-4.124527;-;-;-;-;-;-;-;-;-;-;-;-;-;-;-
1514111024576;-;-;10.06572;1.1625824;-4.651245;-;-;-;-;-;-;-;-;-;-;-;-;-;-;-
1514111024596;-;-;9.683838;2.727188;-5.745407;-;-;-;-;-;-;-;-;-;-;-;-;-;-;-
1514111024617;-;-;6.6432037;3.2515106;-7.0873566;-;-;-;-;-;-;-;-;-;-;-;-;-;-;-
1514111024636;-;-;4.3998413;1.7312012;-6.761734;-;-;-;-;-;-;-;-;-;-;-;-;-;-;-
1514111024656;-;-;3.9557037;1.0093536;-6.0315094;-;-;-;-;-;-;-;-;-;-;-;-;-;-;-
1514111024676;-;-;6.0494385;0.84773254;-4.0706635;-;-;-;-;-;-;-;-;-;-;-;-;-;-;-
1514111024697;-;-;9.134369;0.2132721;-3.9736938;-;-;-;-;-;-;-;-;-;-;-;-;-;-;-
1514111024717;-;-;10.2357025;-0.054870605;-5.91539;-;-;-;-;-;-;-;-;-;-;-;-;-;-;-
1514111024737;-;-;9.814316;-0.095581055;-5.986023;-;-;-;-;-;-;-;-;-;-;-;-;-;-;-
1514111024757;-;-;7.997116;0.61550903;-4.1783905;-;-;-;-;-;-;-;-;-;-;-;-;-;-;-
1514111024778;-;-;6.3331604;0.7124634;-3.1309357;-;-;-;-;-;-;-;-;-;-;-;-;-;-;-
1514111024797;-;-;5.237808;0.036102295;-3.1381226;-;-;-;-;-;-;-;-;-;-;-;-;-;-;-
1514111024817;-;-;5.3563232;-1.1502228;-2.8567963;-;-;-;-;-;-;-;-;-;-;-;-;-;-;-
1514111024838;-;-;5.892624;-2.1414185;-2.954956;-;-;-;-;-;-;-;-;-;-;-;-;-;-;-
1514111024858;-;-;6.908966;-2.4407043;-3.6528625;-;-;-;-;-;-;-;-;-;-;-;-;-;-;-
1514111024878;-;-;6.117676;-1.6745453;-3.7558136;-;-;-;-;-;-;-;-;-;-;-;-;-;-;-
1514111024899;-;-;6.2864685;-1.4315338;-3.7785645;-;-;-;-;-;-;-;-;-;-;-;-;-;-;-
1514111024919;-;-;7.040634;-1.2052917;-3.6504822;-;-;-;-;-;-;-;-;-;-;-;-;-;-;-
1514111024939;-;-;7.7888336;-1.2196503;-3.6516724;-;-;-;-;-;-;-;-;-;-;-;-;-;-;-
1514111024960;-;-;7.3339233;-0.94911194;-3.5798492;-;-;-;-;-;-;-;-;-;-;-;-;-;-;-
1514111024980;-;-;6.5953217;-0.74679565;-3.3547974;-;-;-;-;-;-;-;-;-;-;-;-;-;-;-
1514111025000;-;-;6.5749664;-1.1131134;-2.986084;-;-;-;-;-;-;-;-;-;-;-;-;-;-;-
1514111025021;-;-;7.007126;-1.5021667;-2.8496094;-;-;-;-;-;-;-;-;-;-;-;-;-;-;-
1514111025041;-;-;7.7445374;-1.3525391;-2.7299042;-;-;-;-;-;-;-;-;-;-;-;-;-;-;-
1514111025060;-;-;8.492722;-1.1059265;-2.5491486;-;-;-;-;-;-;-;-;-;-;-;-;-;-;-
1514111025081;-;-;9.002686;-1.2615509;-2.389923;-;-;-;-;-;-;-;-;-;-;-;-;-;-;-
1514111025101;-;-;8.903336;-1.8074341;-2.207962;-;-;-;-;-;-;-;-;-;-;-;-;-;-;-
1514111025121;-;-;8.673492;-2.471817;-2.7670135;-;-;-;-;-;-;-;-;-;-;-;-;-;-;-
1514111025142;-;-;8.74411;-2.0528412;-3.5559082;-;-;-;-;-;-;-;-;-;-;-;-;-;-;-
1514111025162;-;-;8.214996;-2.5244904;-3.2482452;-;-;-;-;-;-;-;-;-;-;-;-;-;-;-
1514111025182;-;-;8.229355;-3.6378021;-1.8488312;-;-;-;-;-;-;-;-;-;-;-;-;-;-;-
1514111025203;-;-;9.993881;-2.3401337;-0.9546051;-;-;-;-;-;-;-;-;-;-;-;-;-;-;-
1514111025223;-;-;10.410477;0.32460022;-2.4964752;-;-;-;-;-;-;-;-;-;-;-;-;-;-;-
1514111025243;-;-;9.852631;2.5559998;-13.5229645;-;-;-;-;-;-;-;-;-;-;-;-;-;-;-
1514111025263;-;-;12.256409;2.4015808;-8.11087;-;-;-;-;-;-;-;-;-;-;-;-;-;-;-
1514111025284;-;-;13.436752;2.7535248;-6.2493744;-;-;-;-;-;-;-;-;-;-;-;-;-;-;-
1514111025304;-;-;8.774048;3.2850342;-7.5590057;-;-;-;-;-;-;-;-;-;-;-;-;-;-;-
1514111025324;-;-;4.9947968;2.2746887;-5.32283;-;-;-;-;-;-;-;-;-;-;-;-;-;-;-
1514111025345;-;-;3.2218933;0.6717682;-3.5630798;-;-;-;-;-;-;-;-;-;-;-;-;-;-;-
1514111025365;-;-;4.201111;-0.38526917;-3.2398682;-;-;-;-;-;-;-;-;-;-;-;-;-;-;-
1514111025385;-;-;6.205063;-0.15423584;-3.3715515;-;-;-;-;-;-;-;-;-;-;-;-;-;-;-
1514111025405;-;-;8.094086;0.04208374;-3.974884;-;-;-;-;-;-;-;-;-;-;-;-;-;-;-
1514111025426;-;-;10.0381775;0.086380005;-4.907425;-;-;-;-;-;-;-;-;-;-;-;-;-;-;-
1514111025446;-;-;11.545334;-0.5037842;-3.9617157;-;-;-;-;-;-;-;-;-;-;-;-;-;-;-
1514111025466;-;-;11.237671;-0.86172485;-2.601822;-;-;-;-;-;-;-;-;-;-;-;-;-;-;-
1514111025486;-;-;9.068527;-0.45111084;-1.7901764;-;-;-;-;-;-;-;-;-;-;-;-;-;-;-
1514111025507;-;-;7.1519775;0.56044006;-1.7758179;-;-;-;-;-;-;-;-;-;-;-;-;-;-;-
1514111025528;-;-;5.9297333;1.3325653;-1.8847504;-;-;-;-;-;-;-;-;-;-;-;-;-;-;-
1514111025548;-;-;6.0027466;1.2978516;-2.1181793;-;-;-;-;-;-;-;-;-;-;-;-;-;-;-
1514111025568;-;-;6.9424744;0.9064026;-2.2462769;-;-;-;-;-;-;-;-;-;-;-;-;-;-;-
1514111025589;-;-;8.195847;0.8202057;-1.7147675;-;-;-;-;-;-;-;-;-;-;-;-;-;-;-
1514111025609;-;-;8.826721;0.8190155;-1.4154816;-;-;-;-;-;-;-;-;-;-;-;-;-;-;-
1514111025629;-;-;8.711792;0.89442444;-1.4861145;-;-;-;-;-;-;-;-;-;-;-;-;-;-;-
1514111025649;-;-;8.322739;0.8010559;-1.2131805;-;-;-;-;-;-;-;-;-;-;-;-;-;-;-
1514111025670;-;-;8.527435;0.60113525;-0.9845276;-;-;-;-;-;-;-;-;-;-;-;-;-;-;-
1514111025689;-;-;9.200211;0.28271484;-0.66371155;-;-;-;-;-;-;-;-;-;-;-;-;-;-;-
1514111025709;-;-;9.304352;-0.16740417;-1.1964111;-;-;-;-;-;-;-;-;-;-;-;-;-;-;-
1514111025730;-;-;8.489136;0.730423;-2.642517;-;-;-;-;-;-;-;-;-;-;-;-;-;-;-
1514111025749;-;-;7.312378;2.2124329;-6.6372375;-;-;-;-;-;-;-;-;-;-;-;-;-;-;-
1514111025770;-;-;9.274429;0.84295654;-8.430496;-;-;-;-;-;-;-;-;-;-;-;-;-;-;-
1514111025790;-;-;11.461533;-1.1681824;-8.583725;-;-;-;-;-;-;-;-;-;-;-;-;-;-;-
1514111025810;-;-;13.1698;-3.0775604;-7.148407;-;-;-;-;-;-;-;-;-;-;-;-;-;-;-
1514111025831;-;-;10.594833;-1.858902;-6.3954315;-;-;-;-;-;-;-;-;-;-;-;-;-;-;-
1514111025850;-;-;8.8003845;0.69929504;-3.4194336;-;-;-;-;-;-;-;-;-;-;-;-;-;-;-
1514111025870;-;-;9.436035;1.8473206;-2.3073273;-;-;-;-;-;-;-;-;-;-;-;-;-;-;-
1514111025890;-;-;10.104019;0.2013092;-2.689209;-;-;-;-;-;-;-;-;-;-;-;-;-;-;-
1514111025911;-;-;8.182678;-1.0029755;-3.7785645;-;-;-;-;-;-;-;-;-;-;-;-;-;-;-
1514111025931;-;-;6.13443;-1.5404816;-3.4110565;-;-;-;-;-;-;-;-;-;-;-;-;-;-;-
1514111025952;-;-;5.1959076;-2.1282501;-2.8328552;-;-;-;-;-;-;-;-;-;-;-;-;-;-;-
1514111025971;-;-;4.9552917;-2.7028656;-2.4438019;-;-;-;-;-;-;-;-;-;-;-;-;-;-;-
1514111025991;-;-;4.6691895;-2.4885864;-2.721527;-;-;-;-;-;-;-;-;-;-;-;-;-;-;-
1514111026012;-;-;6.0494385;-1.4650574;-3.2219086;-;-;-;-;-;-;-;-;-;-;-;-;-;-;-
1514111026032;-;-;8.7608795;-0.1302948;-2.6927948;-;-;-;-;-;-;-;-;-;-;-;-;-;-;-
1514111026052;-;-;10.68103;-0.06324768;-2.7837677;-;-;-;-;-;-;-;-;-;-;-;-;-;-;-
1514111026072;-;-;10.348236;-0.7910919;-3.38591;-;-;-;-;-;-;-;-;-;-;-;-;-;-;-
1514111026093;-;-;9.422867;-1.6494141;-3.1620636;-;-;-;-;-;-;-;-;-;-;-;-;-;-;-
1514111026113;-;-;9.09845;-2.2635193;-2.8029327;-;-;-;-;-;-;-;-;-;-;-;-;-;-;-
1514111026133;-;-;9.682648;-2.4897766;-2.682022;-;-;-;-;-;-;-;-;-;-;-;-;-;-;-
1514111026153;-;-;9.002686;-2.5879364;-3.0866394;-;-;-;-;-;-;-;-;-;-;-;-;-;-;-
1514111026174;-;-;7.8606567;-3.3145752;-4.0981903;-;-;-;-;-;-;-;-;-;-;-;-;-;-;-
1514111026193;-;-;6.378647;-3.400772;-6.0171356;-;-;-;-;-;-;-;-;-;-;-;-;-;-;-
1514111026213;-;-;8.581314;-1.0053711;-13.888077;-;-;-;-;-;-;-;-;-;-;-;-;-;-;-
1514111026233;-;-;14.844543;6.193985;-6.523514;-;-;-;-;-;-;-;-;-;-;-;-;-;-;-
1514111026254;-;-;14.997772;2.9821625;-1.9960785;-;-;-;-;-;-;-;-;-;-;-;-;-;-;-
1514111026273;-;-;12.732849;-0.97184753;-3.089035;-;-;-;-;-;-;-;-;-;-;-;-;-;-;-
1514111026293;-;-;7.2477417;-3.2619019;-4.4692993;-;-;-;-;-;-;-;-;-;-;-;-;-;-;-
1514111026313;-;-;5.823181;-2.736374;-3.4601288;-;-;-;-;-;-;-;-;-;-;-;-;-;-;-
1514111026333;-;-;6.8993835;0.55804443;-1.5196381;-;-;-;-;-;-;-;-;-;-;-;-;-;-;-
1514111026354;-;-;7.4560394;2.311798;-2.2989502;-;-;-;-;-;-;-;-;-;-;-;-;-;-;-
1514111026374;-;-;7.9504395;2.9534454;-3.20755;-;-;-;-;-;-;-;-;-;-;-;-;-;-;-
1514111026394;-;-;9.06015;3.0887146;-2.4557648;-;-;-;-;-;-;-;-;-;-;-;-;-;-;-
1514111026415;-;-;9.790375;2.5990906;-1.9098969;-;-;-;-;-;-;-;-;-;-;-;-;-;-;-
1514111026434;-;-;8.344284;1.2547607;-1.6285706;-;-;-;-;-;-;-;-;-;-;-;-;-;-;-
1514111026454;-;-;7.51709;0.046875;-1.4597778;-;-;-;-;-;-;-;-;-;-;-;-;-;-;-
1514111026474;-;-;7.6786957;-0.15542603;-1.7542725;-;-;-;-;-;-;-;-;-;-;-;-;-;-;-
1514111026495;-;-;7.423706;0.124694824;-1.6393433;-;-;-;-;-;-;-;-;-;-;-;-;-;-;-
1514111026516;-;-;6.9580383;0.35812378;-1.3747864;-;-;-;-;-;-;-;-;-;-;-;-;-;-;-
1514111026537;-;-;6.4049835;0.71006775;-1.2155762;-;-;-;-;-;-;-;-;-;-;-;-;-;-;-
1514111026557;-;-;6.225418;0.92555237;-1.4681549;-;-;-;-;-;-;-;-;-;-;-;-;-;-;-
1514111026577;-;-;7.1842957;1.7790833;-1.3999176;-;-;-;-;-;-;-;-;-;-;-;-;-;-;-
1514111026598;-;-;8.993118;2.5643768;-2.345642;-;-;-;-;-;-;-;-;-;-;-;-;-;-;-
1514111026617;-;-;9.8993225;2.991745;-2.9561615;-;-;-;-;-;-;-;-;-;-;-;-;-;-;-
1514111026637;-;-;10.258453;2.655365;-3.2889557;-;-;-;-;-;-;-;-;-;-;-;-;-;-;-
1514111026657;-;-;10.823471;3.2347565;-2.3600006;-;-;-;-;-;-;-;-;-;-;-;-;-;-;-
1514111026678;-;-;13.149445;4.0643463;-0.24353027;-;-;-;-;-;-;-;-;-;-;-;-;-;-;-
1514111026698;-;-;13.679764;4.660507;-1.4885101;-;-;-;-;-;-;-;-;-;-;-;-;-;-;-
1514111026718;-;-;14.058044;3.015686;-8.107285;-;-;-;-;-;-;-;-;-;-;-;-;-;-;-
1514111026738;-;-;13.889252;3.0659637;-6.9401093;-;-;-;-;-;-;-;-;-;-;-;-;-;-;-
1514111026759;-;-;10.76123;2.5224762;-5.5897827;-;-;-;-;-;-;-;-;-;-;-;-;-;-;-
1514111026779;-;-;7.7601013;2.086731;-6.639633;-;-;-;-;-;-;-;-;-;-;-;-;-;-;-
1514111026799;-;-;4.664398;1.5947266;-7.493164;-;-;-;-;-;-;-;-;-;-;-;-;-;-;-
1514111026819;-;-;2.77417;0.29588318;-6.7749023;-;-;-;-;-;-;-;-;-;-;-;-;-;-;-
1514111026839;-;-;4.782913;-1.2411957;-5.516754;-;-;-;-;-;-;-;-;-;-;-;-;-;-;-
1514111026859;-;-;7.8127747;-2.3580933;-5.0079803;-;-;-;-;-;-;-;-;-;-;-;-;-;-;-
1514111026880;-;-;10.080078;-2.4418945;-6.8347626;-;-;-;-;-;-;-;-;-;-;-;-;-;-;-
1514111026900;-;-;9.912491;-1.6494141;-6.949692;-;-;-;-;-;-;-;-;-;-;-;-;-;-;-
1514111026920;-;-;9.3893585;-1.1777496;-5.374298;-;-;-;-;-;-;-;-;-;-;-;-;-;-;-
1514111026941;-;-;7.865448;-0.5277252;-4.258606;-;-;-;-;-;-;-;-;-;-;-;-;-;-;-
1514111026961;-;-;5.8315735;-0.040512085;-3.7498322;-;-;-;-;-;-;-;-;-;-;-;-;-;-;-
1514111026981;-;-;4.4285583;0.03730774;-3.144104;-;-;-;-;-;-;-;-;-;-;-;-;-;-;-
1514111027002;-;-;5.1336517;-0.3876648;-2.764618;-;-;-;-;-;-;-;-;-;-;-;-;-;-;-
1514111027022;-;-;6.4803925;-1.020935;-2.962143;-;-;-;-;-;-;-;-;-;-;-;-;-;-;-
1514111027042;-;-;7.0980988;-1.309433;-3.3919067;-;-;-;-;-;-;-;-;-;-;-;-;-;-;-
1514111027063;-;-;7.861847;-2.4646454;-3.5846405;-;-;-;-;-;-;-;-;-;-;-;-;-;-;-
1514111027083;-;-;9.118805;-3.752716;-3.7821503;-;-;-;-;-;-;-;-;-;-;-;-;-;-;-
1514111027103;-;-;9.400131;-3.4809723;-3.7031403;-;-;-;-;-;-;-;-;-;-;-;-;-;-;-
1514111027124;-;-;10.129166;-2.9207306;-3.6516724;-;-;-;-;-;-;-;-;-;-;-;-;-;-;-
1514111027143;-;-;9.766434;-3.0667877;-3.7797546;-;-;-;-;-;-;-;-;-;-;-;-;-;-;-
1514111027163;-;-;9.044586;-2.949463;-4.2526093;-;-;-;-;-;-;-;-;-;-;-;-;-;-;-
1514111027183;-;-;8.812347;-2.1318512;-5.377884;-;-;-;-;-;-;-;-;-;-;-;-;-;-;-
1514111027204;-;-;9.566528;-1.0975494;-6.3200073;-;-;-;-;-;-;-;-;-;-;-;-;-;-;-
1514111027224;-;-;9.905304;0.17018127;-6.42894;-;-;-;-;-;-;-;-;-;-;-;-;-;-;-
1514111027244;-;-;9.760452;0.21566772;-9.822723;-;-;-;-;-;-;-;-;-;-;-;-;-;-;-
1514111027265;-;-;9.0733185;-0.18415833;-14.360931;-;-;-;-;-;-;-;-;-;-;-;-;-;-;-
1514111027285;-;-;13.093185;-2.5436401;-8.470001;-;-;-;-;-;-;-;-;-;-;-;-;-;-;-
1514111027305;-;-;12.7651825;-5.0850983;-4.615341;-;-;-;-;-;-;-;-;-;-;-;-;-;-;-
1514111027326;-;-;5.8567047;-2.1761322;-6.1572113;-;-;-;-;-;-;-;-;-;-;-;-;-;-;-
1514111027345;-;-;2.9058533;-1.5871582;-6.384659;-;-;-;-;-;-;-;-;-;-;-;-;-;-;-
1514111027365;-;-;1.9170532;-1.9786224;-3.3799286;-;-;-;-;-;-;-;-;-;-;-;-;-;-;-
1514111027385;-;-;3.5235596;-1.9307251;-2.8627777;-;-;-;-;-;-;-;-;-;-;-;-;-;-;-
1514111027406;-;-;6.917343;-1.4183655;-3.0243835;-;-;-;-;-;-;-;-;-;-;-;-;-;-;-
1514111027426;-;-;9.562927;-0.8018646;-5.3012695;-;-;-;-;-;-;-;-;-;-;-;-;-;-;-
1514111027446;-;-;10.726517;-0.38287354;-6.3367615;-;-;-;-;-;-;-;-;-;-;-;-;-;-;-
1514111027467;-;-;7.9935303;-0.23324585;-6.1356506;-;-;-;-;-;-;-;-;-;-;-;-;-;-;-
1514111027487;-;-;5.6101074;0.8118286;-4.5255585;-;-;-;-;-;-;-;-;-;-;-;-;-;-;-
1514111027506;-;-;4.6189117;1.8592834;-3.8815155;-;-;-;-;-;-;-;-;-;-;-;-;-;-;-
1514111027527;-;-;4.3603363;1.8245697;-3.827652;-;-;-;-;-;-;-;-;-;-;-;-;-;-;-
1514111027546;-;-;4.323227;1.3421478;-4.0946045;-;-;-;-;-;-;-;-;-;-;-;-;-;-;-
1514111027566;-;-;4.8559265;0.7471771;-4.171219;-;-;-;-;-;-;-;-;-;-;-;-;-;-;-
1514111027587;-;-;6.0266876;1.1518097;-3.7366638;-;-;-;-;-;-;-;-;-;-;-;-;-;-;-
1514111027607;-;-;7.818756;0.85491943;-3.8001099;-;-;-;-;-;-;-;-;-;-;-;-;-;-;-
1514111027627;-;-;8.095291;0.85491943;-4.069458;-;-;-;-;-;-;-;-;-;-;-;-;-;-;-
1514111027648;-;-;7.738556;1.6067047;-3.8108826;-;-;-;-;-;-;-;-;-;-;-;-;-;-;-
1514111027668;-;-;8.162323;1.8748474;-3.7737732;-;-;-;-;-;-;-;-;-;-;-;-;-;-;-
1514111027688;-;-;8.831497;2.0328674;-3.9258118;-;-;-;-;-;-;-;-;-;-;-;-;-;-;-
1514111027708;-;-;9.659897;2.1944733;-4.270569;-;-;-;-;-;-;-;-;-;-;-;-;-;-;-
1514111027729;-;-;10.619965;2.0687866;-4.3160553;-;-;-;-;-;-;-;-;-;-;-;-;-;-;-
1514111027749;-;-;11.538147;1.9777985;-4.086212;-;-;-;-;-;-;-;-;-;-;-;-;-;-;-
1514111027769;-;-;11.279572;1.3253784;-5.5610504;-;-;-;-;-;-;-;-;-;-;-;-;-;-;-
1514111027790;-;-;10.715744;0.31982422;-9.9496155;-;-;-;-;-;-;-;-;-;-;-;-;-;-;-
1514111027810;-;-;13.513367;1.7958374;-5.224655;-;-;-;-;-;-;-;-;-;-;-;-;-;-;-
1514111027831;-;-;12.561676;1.5516357;-5.9058075;-;-;-;-;-;-;-;-;-;-;-;-;-;-;-
1514111027850;-;-;8.034241;1.6833191;-8.668716;-;-;-;-;-;-;-;-;-;-;-;-;-;-;-
1514111027870;-;-;4.7206573;-0.076416016;-8.371841;-;-;-;-;-;-;-;-;-;-;-;-;-;-;-
1514111027891;-;-;1.4777069;-2.032486;-4.227478;-;-;-;-;-;-;-;-;-;-;-;-;-;-;-
1514111027912;-;-;2.9034576;-2.9446716;-2.3085175;-;-;-;-;-;-;-;-;-;-;-;-;-;-;-
1514111027932;-;-;6.285263;-1.4135895;-2.7394867;-;-;-;-;-;-;-;-;-;-;-;-;-;-;-
1514111027952;-;-;8.478363;0.8609009;-4.84877;-;-;-;-;-;-;-;-;-;-;-;-;-;-;-
1514111027972;-;-;9.305557;1.6378326;-6.0470734;-;-;-;-;-;-;-;-;-;-;-;-;-;-;-
1514111027993;-;-;9.003891;1.3146057;-5.907013;-;-;-;-;-;-;-;-;-;-;-;-;-;-;-
1514111028012;-;-;7.6152496;0.014556885;-3.9868622;-;-;-;-;-;-;-;-;-;-;-;-;-;-;-
1514111028032;-;-;5.344345;-1.4937897;-2.2295227;-;-;-;-;-;-;-;-;-;-;-;-;-;-;-
1514111028053;-;-;4.4213867;-3.000946;-1.5040741;-;-;-;-;-;-;-;-;-;-;-;-;-;-;-
1514111028073;-;-;5.189926;-3.704834;-1.634552;-;-;-;-;-;-;-;-;-;-;-;-;-;-;-
1514111028093;-;-;6.7377777;-3.3720398;-2.4952698;-;-;-;-;-;-;-;-;-;-;-;-;-;-;-
1514111028114;-;-;6.4289246;-2.1126862;-3.136917;-;-;-;-;-;-;-;-;-;-;-;-;-;-;-
1514111028134;-;-;6.5989075;-1.483017;-3.214737;-;-;-;-;-;-;-;-;-;-;-;-;-;-;-
1514111028154;-;-;7.7265778;-2.0468445;-3.4146423;-;-;-;-;-;-;-;-;-;-;-;-;-;-;-
1514111028174;-;-;9.881363;-2.186905;-3.7378693;-;-;-;-;-;-;-;-;-;-;-;-;-;-;-
1514111028195;-;-;11.764404;-2.0145264;-4.191559;-;-;-;-;-;-;-;-;-;-;-;-;-;-;-
1514111028215;-;-;11.875732;-2.009735;-4.579422;-;-;-;-;-;-;-;-;-;-;-;-;-;-;-
1514111028235;-;-;11.09642;-2.4837952;-5.0642548;-;-;-;-;-;-;-;-;-;-;-;-;-;-;-
1514111028256;-;-;11.264008;-2.1246643;-5.1312866;-;-;-;-;-;-;-;-;-;-;-;-;-;-;-
1514111028276;-;-;10.625961;-1.4818115;-6.3643036;-;-;-;-;-;-;-;-;-;-;-;-;-;-;-
1514111028296;-;-;9.755661;-1.7212372;-9.172699;-;-;-;-;-;-;-;-;-;-;-;-;-;-;-
1514111028317;-;-;10.338654;-1.8936157;-8.770477;-;-;-;-;-;-;-;-;-;-;-;-;-;-;-
1514111028337;-;-;12.99263;-3.0153046;-6.9844055;-;-;-;-;-;-;-;-;-;-;-;-;-;-;-
