TimeStamp[ms];Prox[Cm];Lux[lux];AccX[m/s^2];AccY[m/s^2];AccZ[m/s^2];GyroX[rad/s];GyroY[rad/s];GyroZ[rad/s];MagnX[uT];MagnY[uT];MagnZ[uT];OrienYaw[degrees];OrienPitch[degrees];OrienRoll[degrees];Press[Pa];Temp[C°];Batt[%];Lat;Lng;Speed[m/s]
1514111058970;-;-;8.405334;-1.0999451;1.1319427;-;-;-;-;-;-;-;-;-;-;-;-;-;-;-
1514111058971;-;-;8.405334;-1.0999451;1.1319427;-;-;-;-;-;-;-;-;-;-;-;-;-;-;-
1514111058990;-;-;9.027832;-0.88087463;1.7304993;-;-;-;-;-;-;-;-;-;-;-;-;-;-;-
1514111059010;-;-;8.98233;-0.9586792;0.5345917;-;-;-;-;-;-;-;-;-;-;-;-;-;-;-
1514111059030;-;-;9.408508;-1.2819061;-1.4980927;-;-;-;-;-;-;-;-;-;-;-;-;-;-;-
1514111059050;-;-;8.897339;-0.94192505;2.2009583;-;-;-;-;-;-;-;-;-;-;-;-;-;-;-
1514111059070;-;-;8.960785;-0.63427734;1.0218048;-;-;-;-;-;-;-;-;-;-;-;-;-;-;-
1514111059091;-;-;8.969162;-0.09677124;0.3933258;-;-;-;-;-;-;-;-;-;-;-;-;-;-;-
1514111059111;-;-;10.022614;0.14025879;-0.012481689;-;-;-;-;-;-;-;-;-;-;-;-;-;-;-
1514111059131;-;-;10.694199;-0.064453125;0.1658783;-;-;-;-;-;-;-;-;-;-;-;-;-;-;-
1514111059152;-;-;9.787979;-0.35653687;0.04736328;-;-;-;-;-;-;-;-;-;-;-;-;-;-;-
1514111059172;-;-;9.056564;-0.7108917;-0.01008606;-;-;-;-;-;-;-;-;-;-;-;-;-;-;-
1514111059192;-;-;8.908112;-0.9479065;0.07609558;-;-;-;-;-;-;-;-;-;-;-;-;-;-;-
1514111059223;-;-;9.214569;-0.98143005;0.5441742;-;-;-;-;-;-;-;-;-;-;-;-;-;-;-
1514111059233;-;-;9.243301;-0.9562988;0.5848694;-;-;-;-;-;-;-;-;-;-;-;-;-;-;-
1514111059253;-;-;9.319916;-0.8174286;0.508255;-;-;-;-;-;-;-;-;-;-;-;-;-;-;-
1514111059274;-;-;9.430054;-0.9287567;0.16827393;-;-;-;-;-;-;-;-;-;-;-;-;-;-;-
1514111059294;-;-;9.764038;-1.0496674;-0.5966644;-;-;-;-;-;-;-;-;-;-;-;-;-;-;-
1514111059314;-;-;9.499481;-0.58039856;0.681839;-;-;-;-;-;-;-;-;-;-;-;-;-;-;-
1514111059335;-;-;8.402939;0.09236145;0.54177856;-;-;-;-;-;-;-;-;-;-;-;-;-;-;-
1514111059355;-;-;9.151123;0.46347046;0.29516602;-;-;-;-;-;-;-;-;-;-;-;-;-;-;-
1514111059375;-;-;9.462372;1.6462097;0.71894836;-;-;-;-;-;-;-;-;-;-;-;-;-;-;-
1514111059395;-;-;9.252884;0.16539001;-0.23275757;-;-;-;-;-;-;-;-;-;-;-;-;-;-;-
1514111059416;-;-;8.480759;0.46347046;-0.13220215;-;-;-;-;-;-;-;-;-;-;-;-;-;-;-
1514111059436;-;-;9.896927;1.343338;0.40290833;-;-;-;-;-;-;-;-;-;-;-;-;-;-;-
1514111059456;-;-;10.274002;1.4893799;1.5233917;-;-;-;-;-;-;-;-;-;-;-;-;-;-;-
1514111059476;-;-;9.121201;1.9526672;0.5956421;-;-;-;-;-;-;-;-;-;-;-;-;-;-;-
1514111059497;-;-;7.894165;1.5887451;-0.05319214;-;-;-;-;-;-;-;-;-;-;-;-;-;-;-
1514111059517;-;-;8.768051;0.6645813;1.12117;-;-;-;-;-;-;-;-;-;-;-;-;-;-;-
1514111059538;-;-;10.075287;0.556839;2.0393524;-;-;-;-;-;-;-;-;-;-;-;-;-;-;-
1514111059558;-;-;8.406525;0.7842865;1.2097473;-;-;-;-;-;-;-;-;-;-;-;-;-;-;-
1514111059578;-;-;6.3846283;0.21806335;0.7967529;-;-;-;-;-;-;-;-;-;-;-;-;-;-;-
1514111059598;-;-;9.106842;-0.83299255;0.9595642;-;-;-;-;-;-;-;-;-;-;-;-;-;-;-
1514111059619;-;-;9.422867;0.23602295;1.0589142;-;-;-;-;-;-;-;-;-;-;-;-;-;-;-
1514111059639;-;-;9.457581;0.8297882;1.5377655;-;-;-;-;-;-;-;-;-;-;-;-;-;-;-
1514111059659;-;-;8.553772;-0.38168335;0.70578;-;-;-;-;-;-;-;-;-;-;-;-;-;-;-
1514111059679;-;-;7.396179;-0.3757019;-0.37400818;-;-;-;-;-;-;-;-;-;-;-;-;-;-;-
1514111059699;-;-;7.9121246;-1.656601;-1.3161316;-;-;-;-;-;-;-;-;-;-;-;-;-;-;-
1514111059720;-;-;9.771225;-2.7782745;-2.1971893;-;-;-;-;-;-;-;-;-;-;-;-;-;-;-
1514111059740;-;-;10.32428;-2.566391;-3.8001099;-;-;-;-;-;-;-;-;-;-;-;-;-;-;-
1514111059760;-;-;9.400131;-0.3182373;-3.7749786;-;-;-;-;-;-;-;-;-;-;-;-;-;-;-
1514111059781;-;-;9.072113;1.2727051;-3.9485474;-;-;-;-;-;-;-;-;-;-;-;-;-;-;-
1514111059801;-;-;10.017822;3.0264587;-2.9250336;-;-;-;-;-;-;-;-;-;-;-;-;-;-;-
1514111059821;-;-;9.49469;3.975769;-2.23909;-;-;-;-;-;-;-;-;-;-;-;-;-;-;-
1514111059842;-;-;8.23056;3.1772919;-1.650116;-;-;-;-;-;-;-;-;-;-;-;-;-;-;-
1514111059862;-;-;7.9001617;1.2284241;-0.8887634;-;-;-;-;-;-;-;-;-;-;-;-;-;-;-
1514111059882;-;-;7.7804413;1.2966461;-0.26626587;-;-;-;-;-;-;-;-;-;-;-;-;-;-;-
1514111059902;-;-;8.64476;0.3605194;-2.749054;-;-;-;-;-;-;-;-;-;-;-;-;-;-;-
1514111059923;-;-;3.537918;-0.40322876;-3.0483398;-;-;-;-;-;-;-;-;-;-;-;-;-;-;-
1514111059943;-;-;10.624756;-2.4622498;-2.606598;-;-;-;-;-;-;-;-;-;-;-;-;-;-;-
1514111059964;-;-;10.829468;-2.693283;-2.9166565;-;-;-;-;-;-;-;-;-;-;-;-;-;-;-
1514111059984;-;-;11.875732;-3.2798615;-1.2335358;-;-;-;-;-;-;-;-;-;-;-;-;-;-;-
1514111060004;-;-;9.847839;-3.6330109;-0.24832153;-;-;-;-;-;-;-;-;-;-;-;-;-;-;-
1514111060025;-;-;8.465195;-5.3951416;-1.0563507;-;-;-;-;-;-;-;-;-;-;-;-;-;-;-
1514111060045;-;-;8.0533905;-2.6825104;-3.278183;-;-;-;-;-;-;-;-;-;-;-;-;-;-;-
1514111060065;-;-;8.648346;-0.6402588;-2.2917633;-;-;-;-;-;-;-;-;-;-;-;-;-;-;-
1514111060085;-;-;7.7445374;-0.24162292;-3.630127;-;-;-;-;-;-;-;-;-;-;-;-;-;-;-
1514111060106;-;-;8.832703;-0.46427917;-1.7518768;-;-;-;-;-;-;-;-;-;-;-;-;-;-;-
1514111060125;-;-;9.524628;-1.1813507;-1.6405487;-;-;-;-;-;-;-;-;-;-;-;-;-;-;-
1514111060145;-;-;9.384567;-1.2843018;-1.8237;-;-;-;-;-;-;-;-;-;-;-;-;-;-;-
1514111060165;-;-;8.832703;-1.2711334;-2.1217804;-;-;-;-;-;-;-;-;-;-;-;-;-;-;-
1514111060186;-;-;8.416107;-1.4902039;-1.9314423;-;-;-;-;-;-;-;-;-;-;-;-;-;-;-
1514111060206;-;-;8.335907;-1.7810974;-1.7961731;-;-;-;-;-;-;-;-;-;-;-;-;-;-;-
1514111060226;-;-;8.405334;-1.8816528;-1.8380585;-;-;-;-;-;-;-;-;-;-;-;-;-;-;-
1514111060247;-;-;8.56694;-1.7703247;-1.9206696;-;-;-;-;-;-;-;-;-;-;-;-;-;-;-
1514111060266;-;-;9.007477;-1.5572357;-2.0631256;-;-;-;-;-;-;-;-;-;-;-;-;-;-;-
1514111060286;-;-;9.385757;-1.3010559;-2.2953491;-;-;-;-;-;-;-;-;-;-;-;-;-;-;-
1514111060306;-;-;9.592865;-1.4961853;-2.4354248;-;-;-;-;-;-;-;-;-;-;-;-;-;-;-
1514111060327;-;-;9.977127;-1.6326599;-2.4174652;-;-;-;-;-;-;-;-;-;-;-;-;-;-;-
1514111060347;-;-;11.327454;-2.2443695;-2.6006165;-;-;-;-;-;-;-;-;-;-;-;-;-;-;-
1514111060367;-;-;13.125504;-2.5556183;-3.2398682;-;-;-;-;-;-;-;-;-;-;-;-;-;-;-
1514111060388;-;-;15.075577;-3.0895233;-5.10495;-;-;-;-;-;-;-;-;-;-;-;-;-;-;-
1514111060408;-;-;17.39795;-4.016083;-5.583786;-;-;-;-;-;-;-;-;-;-;-;-;-;-;-
1514111060428;-;-;16.872437;-4.403946;-2.7071533;-;-;-;-;-;-;-;-;-;-;-;-;-;-;-
1514111060449;-;-;12.929184;-4.666107;-4.1388855;-;-;-;-;-;-;-;-;-;-;-;-;-;-;-
1514111060469;-;-;7.628418;-3.6677246;-7.1543884;-;-;-;-;-;-;-;-;-;-;-;-;-;-;-
1514111060489;-;-;3.5894012;-3.0583954;-7.5422516;-;-;-;-;-;-;-;-;-;-;-;-;-;-;-
1514111060510;-;-;1.1760406;-2.4550629;-5.7705383;-;-;-;-;-;-;-;-;-;-;-;-;-;-;-
1514111060530;-;-;2.4401855;-1.348938;-4.67041;-;-;-;-;-;-;-;-;-;-;-;-;-;-;-
1514111060550;-;-;6.2709045;-0.55166626;-4.0084076;-;-;-;-;-;-;-;-;-;-;-;-;-;-;-
1514111060571;-;-;10.107605;-0.8186188;-4.4860535;-;-;-;-;-;-;-;-;-;-;-;-;-;-;-
1514111060591;-;-;10.7061615;-0.42477417;-5.2964935;-;-;-;-;-;-;-;-;-;-;-;-;-;-;-
1514111060611;-;-;9.89093;-0.917984;-3.5415344;-;-;-;-;-;-;-;-;-;-;-;-;-;-;-
1514111060631;-;-;8.751297;-1.9714355;-1.531601;-;-;-;-;-;-;-;-;-;-;-;-;-;-;-
1514111060651;-;-;7.0693665;-1.9259491;-1.6357574;-;-;-;-;-;-;-;-;-;-;-;-;-;-;-
1514111060672;-;-;5.553833;-1.0652313;-2.191208;-;-;-;-;-;-;-;-;-;-;-;-;-;-;-
1514111060692;-;-;4.790085;-0.02734375;-2.7705994;-;-;-;-;-;-;-;-;-;-;-;-;-;-;-
1514111060712;-;-;4.9552917;1.7778931;-2.673645;-;-;-;-;-;-;-;-;-;-;-;-;-;-;-
1514111060733;-;-;5.814804;2.6721191;-2.3755646;-;-;-;-;-;-;-;-;-;-;-;-;-;-;-
1514111060753;-;-;7.031067;2.4362946;-2.0152283;-;-;-;-;-;-;-;-;-;-;-;-;-;-;-
1514111060774;-;-;7.6858826;1.070404;-2.9441833;-;-;-;-;-;-;-;-;-;-;-;-;-;-;-
1514111060794;-;-;8.835098;-0.01776123;-3.0794525;-;-;-;-;-;-;-;-;-;-;-;-;-;-;-
1514111060814;-;-;9.930435;-0.5720215;-2.8125;-;-;-;-;-;-;-;-;-;-;-;-;-;-;-
1514111060834;-;-;9.49469;-0.14346313;-2.8053284;-;-;-;-;-;-;-;-;-;-;-;-;-;-;-
1514111060855;-;-;8.493927;0.3102417;-3.1500854;-;-;-;-;-;-;-;-;-;-;-;-;-;-;-
1514111060875;-;-;7.750519;1.1637726;-3.2518463;-;-;-;-;-;-;-;-;-;-;-;-;-;-;-
1514111060895;-;-;8.185074;1.9071808;-3.1237488;-;-;-;-;-;-;-;-;-;-;-;-;-;-;-
1514111060915;-;-;9.3941345;2.1920776;-3.1321259;-;-;-;-;-;-;-;-;-;-;-;-;-;-;-
1514111060936;-;-;10.616379;1.7323914;-3.6492767;-;-;-;-;-;-;-;-;-;-;-;-;-;-;-
1514111060956;-;-;12.412033;0.26115417;-5.101364;-;-;-;-;-;-;-;-;-;-;-;-;-;-;-
1514111060976;-;-;11.709335;-0.7300415;-7.7158356;-;-;-;-;-;-;-;-;-;-;-;-;-;-;-
1514111060996;-;-;11.556107;0.65979004;-8.577744;-;-;-;-;-;-;-;-;-;-;-;-;-;-;-
1514111061016;-;-;12.667007;1.2523651;-6.7521667;-;-;-;-;-;-;-;-;-;-;-;-;-;-;-
1514111061037;-;-;11.795517;1.576767;-5.6484375;-;-;-;-;-;-;-;-;-;-;-;-;-;-;-
1514111061056;-;-;7.3662567;0.8992157;-5.10376;-;-;-;-;-;-;-;-;-;-;-;-;-;-;-
1514111061076;-;-;4.245407;-0.47625732;-3.4601288;-;-;-;-;-;-;-;-;-;-;-;-;-;-;-
1514111061097;-;-;2.6017914;-1.4291534;-1.8380585;-;-;-;-;-;-;-;-;-;-;-;-;-;-;-
1514111061116;-;-;3.5678558;-1.6087189;-1.4657593;-;-;-;-;-;-;-;-;-;-;-;-;-;-;-
1514111061136;-;-;6.086548;-1.076004;-1.8213043;-;-;-;-;-;-;-;-;-;-;-;-;-;-;-
1514111061157;-;-;9.017059;-0.37210083;-2.9298248;-;-;-;-;-;-;-;-;-;-;-;-;-;-;-
1514111061177;-;-;10.552933;-0.6222992;-4.3831024;-;-;-;-;-;-;-;-;-;-;-;-;-;-;-
1514111061197;-;-;10.436813;-0.8964386;-4.183182;-;-;-;-;-;-;-;-;-;-;-;-;-;-;-
1514111061217;-;-;8.985931;-1.5967407;-3.1500854;-;-;-;-;-;-;-;-;-;-;-;-;-;-;-
1514111061238;-;-;6.376251;-2.1701508;-3.3452148;-;-;-;-;-;-;-;-;-;-;-;-;-;-;-
1514111061258;-;-;6.0290833;-2.8333435;-3.1776276;-;-;-;-;-;-;-;-;-;-;-;-;-;-;-
1514111061278;-;-;4.2873077;-1.9798126;-2.934616;-;-;-;-;-;-;-;-;-;-;-;-;-;-;-
1514111061299;-;-;4.6153107;-1.5979309;-2.6832123;-;-;-;-;-;-;-;-;-;-;-;-;-;-;-
1514111061319;-;-;5.9632416;-2.1701508;-2.9645386;-;-;-;-;-;-;-;-;-;-;-;-;-;-;-
1514111061339;-;-;7.7265778;-2.598709;-3.377533;-;-;-;-;-;-;-;-;-;-;-;-;-;-;-
1514111061359;-;-;10.920441;-2.1916962;-3.9090424;-;-;-;-;-;-;-;-;-;-;-;-;-;-;-
1514111061380;-;-;11.1371155;-2.7303925;-4.9840393;-;-;-;-;-;-;-;-;-;-;-;-;-;-;-
1514111061400;-;-;11.637512;-3.6210327;-4.2143097;-;-;-;-;-;-;-;-;-;-;-;-;-;-;-
1514111061420;-;-;13.732437;-4.1298065;-3.8743286;-;-;-;-;-;-;-;-;-;-;-;-;-;-;-
1514111061440;-;-;14.1203;-2.1557922;-4.307678;-;-;-;-;-;-;-;-;-;-;-;-;-;-;-
1514111061461;-;-;11.533356;-0.08480835;-7.1508026;-;-;-;-;-;-;-;-;-;-;-;-;-;-;-
1514111061481;-;-;8.139572;-0.27035522;-10.143555;-;-;-;-;-;-;-;-;-;-;-;-;-;-;-
1514111061501;-;-;5.9189606;-0.91319275;-8.316772;-;-;-;-;-;-;-;-;-;-;-;-;-;-;-
1514111061521;-;-;8.76207;-1.6518097;-3.9317932;-;-;-;-;-;-;-;-;-;-;-;-;-;-;-
1514111061542;-;-;9.422867;-1.1849365;-6.354721;-;-;-;-;-;-;-;-;-;-;-;-;-;-;-
1514111061562;-;-;3.8551483;0.21566772;-7.547043;-;-;-;-;-;-;-;-;-;-;-;-;-;-;-
1514111061582;-;-;5.170761;0.888443;-4.657242;-;-;-;-;-;-;-;-;-;-;-;-;-;-;-
1514111061602;-;-;5.557434;0.14503479;-2.0248108;-;-;-;-;-;-;-;-;-;-;-;-;-;-;-
1514111061622;-;-;6.5115204;-1.9989624;-0.4063263;-;-;-;-;-;-;-;-;-;-;-;-;-;-;-
1514111061643;-;-;8.1527405;-3.917923;-1.871582;-;-;-;-;-;-;-;-;-;-;-;-;-;-;-
1514111061663;-;-;10.295563;-3.7156067;-3.8707428;-;-;-;-;-;-;-;-;-;-;-;-;-;-;-
1514111061683;-;-;8.578918;-2.0995178;-5.049881;-;-;-;-;-;-;-;-;-;-;-;-;-;-;-
1514111061703;-;-;5.775299;-0.028533936;-4.263397;-;-;-;-;-;-;-;-;-;-;-;-;-;-;-
1514111061724;-;-;3.8288116;2.734375;-3.6217499;-;-;-;-;-;-;-;-;-;-;-;-;-;-;-
1514111061744;-;-;4.450119;4.118225;-3.0519257;-;-;-;-;-;-;-;-;-;-;-;-;-;-;-
1514111061764;-;-;6.2421722;3.4442444;-2.9561615;-;-;-;-;-;-;-;-;-;-;-;-;-;-;-
1514111061784;-;-;7.482376;2.1011047;-4.306488;-;-;-;-;-;-;-;-;-;-;-;-;-;-;-
1514111061805;-;-;8.874603;0.53289795;-5.3084564;-;-;-;-;-;-;-;-;-;-;-;-;-;-;-
1514111061825;-;-;9.799957;0.18693542;-4.8032837;-;-;-;-;-;-;-;-;-;-;-;-;-;-;-
1514111061845;-;-;10.289566;2.1717377;-3.8108826;-;-;-;-;-;-;-;-;-;-;-;-;-;-;-
1514111061866;-;-;10.633133;1.9825897;-3.772583;-;-;-;-;-;-;-;-;-;-;-;-;-;-;-
1514111061885;-;-;11.824249;1.3660889;-4.2717743;-;-;-;-;-;-;-;-;-;-;-;-;-;-;-
1514111061905;-;-;12.45752;0.14743042;-3.6265259;-;-;-;-;-;-;-;-;-;-;-;-;-;-;-
1514111061926;-;-;10.385345;-2.151001;-2.3193054;-;-;-;-;-;-;-;-;-;-;-;-;-;-;-
1514111061946;-;-;5.312027;-2.1402283;-10.651123;-;-;-;-;-;-;-;-;-;-;-;-;-;-;-
1514111061966;-;-;3.2793427;1.9885712;-10.332687;-;-;-;-;-;-;-;-;-;-;-;-;-;-;-
1514111061987;-;-;11.1167755;4.920273;-1.7865906;-;-;-;-;-;-;-;-;-;-;-;-;-;-;-
1514111062007;-;-;13.847351;3.493332;-7.2800903;-;-;-;-;-;-;-;-;-;-;-;-;-;-;-
1514111062027;-;-;8.639969;-0.16142273;-9.899338;-;-;-;-;-;-;-;-;-;-;-;-;-;-;-
1514111062048;-;-;4.9624786;-1.799057;-6.855118;-;-;-;-;-;-;-;-;-;-;-;-;-;-;-
1514111062068;-;-;4.785309;-3.7180023;-0.4159088;-;-;-;-;-;-;-;-;-;-;-;-;-;-;-
1514111062088;-;-;5.7489624;-3.656952;0.83865356;-;-;-;-;-;-;-;-;-;-;-;-;-;-;-
1514111062109;-;-;6.919739;-2.0899506;-2.570694;-;-;-;-;-;-;-;-;-;-;-;-;-;-;-
1514111062129;-;-;7.9624023;-0.98143005;-5.161209;-;-;-;-;-;-;-;-;-;-;-;-;-;-;-
1514111062150;-;-;8.304779;-0.6330719;-5.6328735;-;-;-;-;-;-;-;-;-;-;-;-;-;-;-
1514111062171;-;-;6.1511993;-0.25837708;-3.4852753;-;-;-;-;-;-;-;-;-;-;-;-;-;-;-
1514111062191;-;-;3.6456604;-0.44752502;-1.9553833;-;-;-;-;-;-;-;-;-;-;-;-;-;-;-
1514111062211;-;-;3.457718;-1.3561249;-2.4545746;-;-;-;-;-;-;-;-;-;-;-;-;-;-;-
1514111062231;-;-;5.0283203;-2.3796387;-2.8891144;-;-;-;-;-;-;-;-;-;-;-;-;-;-;-
1514111062252;-;-;6.323578;-2.5400543;-3.259018;-;-;-;-;-;-;-;-;-;-;-;-;-;-;-
1514111062273;-;-;8.15155;-2.629837;-3.4218292;-;-;-;-;-;-;-;-;-;-;-;-;-;-;-
1514111062293;-;-;10.010651;-3.0117188;-3.661255;-;-;-;-;-;-;-;-;-;-;-;-;-;-;-
1514111062313;-;-;11.246048;-3.2559204;-4.076645;-;-;-;-;-;-;-;-;-;-;-;-;-;-;-
1514111062333;-;-;12.147476;-2.574768;-3.7474365;-;-;-;-;-;-;-;-;-;-;-;-;-;-;-
1514111062354;-;-;14.275925;-3.4462585;-3.4433746;-;-;-;-;-;-;-;-;-;-;-;-;-;-;-
1514111062374;-;-;15.772293;-2.4646454;-3.5882263;-;-;-;-;-;-;-;-;-;-;-;-;-;-;-
1514111062394;-;-;13.400833;0.13905334;-4.1628265;-;-;-;-;-;-;-;-;-;-;-;-;-;-;-
1514111062415;-;-;8.168304;-0.7096863;-10.5625305;-;-;-;-;-;-;-;-;-;-;-;-;-;-;-
1514111062435;-;-;3.6468658;-3.6701202;-14.201721;-;-;-;-;-;-;-;-;-;-;-;-;-;-;-
1514111062455;-;-;8.553772;-3.479782;-4.468094;-;-;-;-;-;-;-;-;-;-;-;-;-;-;-
1514111062476;-;-;19.982498;-3.064392;0.7752075;-;-;-;-;-;-;-;-;-;-;-;-;-;-;-
1514111062496;-;-;6.6300354;-1.0879669;-10.79837;-;-;-;-;-;-;-;-;-;-;-;-;-;-;-
1514111062516;-;-;5.3455505;-0.22605896;-4.4501343;-;-;-;-;-;-;-;-;-;-;-;-;-;-;-
1514111062537;-;-;3.7222748;-0.34098816;-1.3783722;-;-;-;-;-;-;-;-;-;-;-;-;-;-;-
1514111062556;-;-;2.185196;-1.585968;0.9212494;-;-;-;-;-;-;-;-;-;-;-;-;-;-;-
1514111062576;-;-;3.1967468;-2.6561737;-0.12620544;-;-;-;-;-;-;-;-;-;-;-;-;-;-;-
1514111062597;-;-;5.2389984;-2.1641693;-3.4397888;-;-;-;-;-;-;-;-;-;-;-;-;-;-;-
1514111062616;-;-;7.51709;0.31263733;-5.2976837;-;-;-;-;-;-;-;-;-;-;-;-;-;-;-
1514111062636;-;-;7.6906586;2.292633;-4.575836;-;-;-;-;-;-;-;-;-;-;-;-;-;-;-
1514111062657;-;-;6.308014;3.0252686;-4.089813;-;-;-;-;-;-;-;-;-;-;-;-;-;-;-
1514111062677;-;-;5.1097107;3.1138458;-3.4038696;-;-;-;-;-;-;-;-;-;-;-;-;-;-;-
1514111062697;-;-;5.20549;2.449463;-3.3583832;-;-;-;-;-;-;-;-;-;-;-;-;-;-;-
1514111062717;-;-;5.687912;0.9470978;-3.6133575;-;-;-;-;-;-;-;-;-;-;-;-;-;-;-
1514111062738;-;-;6.070984;0.15342712;-4.0239716;-;-;-;-;-;-;-;-;-;-;-;-;-;-;-
1514111062758;-;-;7.3375244;0.064834595;-3.3284607;-;-;-;-;-;-;-;-;-;-;-;-;-;-;-
1514111062779;-;-;8.751297;0.5700073;-3.278183;-;-;-;-;-;-;-;-;-;-;-;-;-;-;-
1514111062799;-;-;10.169861;1.7288055;-3.4697113;-;-;-;-;-;-;-;-;-;-;-;-;-;-;-
1514111062819;-;-;10.694199;2.9199219;-3.824051;-;-;-;-;-;-;-;-;-;-;-;-;-;-;-
1514111062839;-;-;11.739258;2.442276;-4.53154;-;-;-;-;-;-;-;-;-;-;-;-;-;-;-
1514111062859;-;-;12.542511;1.8018341;-5.6328735;-;-;-;-;-;-;-;-;-;-;-;-;-;-;-
1514111062880;-;-;11.639908;0.27192688;-3.219513;-;-;-;-;-;-;-;-;-;-;-;-;-;-;-
1514111062899;-;-;10.230911;-0.6941223;-3.5175934;-;-;-;-;-;-;-;-;-;-;-;-;-;-;-
1514111062919;-;-;7.8678436;-0.10874939;-7.809204;-;-;-;-;-;-;-;-;-;-;-;-;-;-;-
1514111062940;-;-;6.9544525;2.0089264;-9.75209;-;-;-;-;-;-;-;-;-;-;-;-;-;-;-
1514111062960;-;-;10.829468;3.7135925;-6.6731567;-;-;-;-;-;-;-;-;-;-;-;-;-;-;-
1514111062980;-;-;11.782349;3.3269348;-9.450424;-;-;-;-;-;-;-;-;-;-;-;-;-;-;-
1514111063001;-;-;8.206619;1.343338;-10.666687;-;-;-;-;-;-;-;-;-;-;-;-;-;-;-
1514111063021;-;-;4.642853;0.65979004;-7.924118;-;-;-;-;-;-;-;-;-;-;-;-;-;-;-
1514111063041;-;-;5.217453;-1.3537292;-3.3344421;-;-;-;-;-;-;-;-;-;-;-;-;-;-;-
1514111063062;-;-;5.8195953;-2.8620758;-1.0886841;-;-;-;-;-;-;-;-;-;-;-;-;-;-;-
1514111063081;-;-;6.1715393;-1.5297089;-2.1588898;-;-;-;-;-;-;-;-;-;-;-;-;-;-;-
1514111063101;-;-;7.482376;-0.2033081;-4.7350464;-;-;-;-;-;-;-;-;-;-;-;-;-;-;-
1514111063121;-;-;6.8239594;-0.09197998;-5.096573;-;-;-;-;-;-;-;-;-;-;-;-;-;-;-
1514111063142;-;-;4.9038086;-0.8066559;-3.7151184;-;-;-;-;-;-;-;-;-;-;-;-;-;-;-
1514111063162;-;-;3.208725;-2.1318512;-2.4090881;-;-;-;-;-;-;-;-;-;-;-;-;-;-;-
1514111063182;-;-;3.2027283;-3.202057;-2.163681;-;-;-;-;-;-;-;-;-;-;-;-;-;-;-
1514111063203;-;-;4.746994;-3.1733246;-2.5599213;-;-;-;-;-;-;-;-;-;-;-;-;-;-;-
1514111063222;-;-;5.8878326;-2.456253;-3.2266998;-;-;-;-;-;-;-;-;-;-;-;-;-;-;-
1514111063243;-;-;6.5797577;-1.9594574;-4.436966;-;-;-;-;-;-;-;-;-;-;-;-;-;-;-
1514111063263;-;-;7.811569;-2.3940125;-5.5574493;-;-;-;-;-;-;-;-;-;-;-;-;-;-;-
1514111063284;-;-;9.562927;-3.3457031;-5.0115814;-;-;-;-;-;-;-;-;-;-;-;-;-;-;-
1514111063304;-;-;10.289566;-2.8524933;-3.1943817;-;-;-;-;-;-;-;-;-;-;-;-;-;-;-
1514111063324;-;-;11.835022;-1.2292328;-2.5335846;-;-;-;-;-;-;-;-;-;-;-;-;-;-;-
1514111063344;-;-;12.2994995;-1.9391174;-2.9980621;-;-;-;-;-;-;-;-;-;-;-;-;-;-;-
1514111063365;-;-;10.608002;-3.9430542;-4.982849;-;-;-;-;-;-;-;-;-;-;-;-;-;-;-
1514111063385;-;-;10.373367;-3.8891907;-4.5447083;-;-;-;-;-;-;-;-;-;-;-;-;-;-;-
1514111063405;-;-;11.550125;-2.1258545;-4.6141357;-;-;-;-;-;-;-;-;-;-;-;-;-;-;-
1514111063425;-;-;11.638702;-0.11831665;-6.58696;-;-;-;-;-;-;-;-;-;-;-;-;-;-;-
1514111063446;-;-;9.9831085;0.31861877;-11.423248;-;-;-;-;-;-;-;-;-;-;-;-;-;-;-
1514111063466;-;-;8.228165;-1.6685638;-13.803085;-;-;-;-;-;-;-;-;-;-;-;-;-;-;-
1514111063486;-;-;10.646301;-2.9075623;-6.6695557;-;-;-;-;-;-;-;-;-;-;-;-;-;-;-
1514111063506;-;-;10.264435;-2.151001;-6.916168;-;-;-;-;-;-;-;-;-;-;-;-;-;-;-
1514111063526;-;-;5.30365;-1.3262024;-7.802017;-;-;-;-;-;-;-;-;-;-;-;-;-;-;-
1514111063546;-;-;4.600952;-0.77911377;-5.1468506;-;-;-;-;-;-;-;-;-;-;-;-;-;-;-
1514111063567;-;-;4.47406;-0.15542603;-2.5659027;-;-;-;-;-;-;-;-;-;-;-;-;-;-;-
1514111063587;-;-;6.031479;-0.7587738;-1.1114197;-;-;-;-;-;-;-;-;-;-;-;-;-;-;-
1514111063607;-;-;6.426529;-1.4483032;-2.6078033;-;-;-;-;-;-;-;-;-;-;-;-;-;-;-
1514111063628;-;-;5.394623;-1.5237122;-3.6492767;-;-;-;-;-;-;-;-;-;-;-;-;-;-;-
1514111063648;-;-;4.8164215;-0.38168335;-3.5523071;-;-;-;-;-;-;-;-;-;-;-;-;-;-;-
1514111063668;-;-;3.7797394;0.51374817;-3.3835144;-;-;-;-;-;-;-;-;-;-;-;-;-;-;-
1514111063688;-;-;4.165207;1.2391968;-3.1033936;-;-;-;-;-;-;-;-;-;-;-;-;-;-;-
1514111063709;-;-;5.0881653;1.6258545;-3.630127;-;-;-;-;-;-;-;-;-;-;-;-;-;-;-
1514111063729;-;-;6.6156616;1.2655334;-4.7087097;-;-;-;-;-;-;-;-;-;-;-;-;-;-;-
1514111063749;-;-;6.3606873;0.512558;-6.018341;-;-;-;-;-;-;-;-;-;-;-;-;-;-;-
1514111063770;-;-;7.5362396;-0.018966675;-5.716675;-;-;-;-;-;-;-;-;-;-;-;-;-;-;-
1514111063790;-;-;9.808334;0.4012146;-4.811661;-;-;-;-;-;-;-;-;-;-;-;-;-;-;-
1514111063810;-;-;10.216553;2.260315;-5.2581787;-;-;-;-;-;-;-;-;-;-;-;-;-;-;-
1514111063830;-;-;9.758057;3.5771332;-4.966095;-;-;-;-;-;-;-;-;-;-;-;-;-;-;-
1514111063851;-;-;10.605606;3.627411;-5.10495;-;-;-;-;-;-;-;-;-;-;-;-;-;-;-
1514111063871;-;-;10.924042;2.5751495;-5.9201813;-;-;-;-;-;-;-;-;-;-;-;-;-;-;-
1514111063891;-;-;9.989105;1.1039124;-4.857147;-;-;-;-;-;-;-;-;-;-;-;-;-;-;-
1514111063911;-;-;9.450409;-0.44631958;-6.5462646;-;-;-;-;-;-;-;-;-;-;-;-;-;-;-
1514111063932;-;-;7.0693665;-0.32901;-9.539017;-;-;-;-;-;-;-;-;-;-;-;-;-;-;-
1514111063952;-;-;6.348709;1.1278534;-10.169891;-;-;-;-;-;-;-;-;-;-;-;-;-;-;-
1514111063972;-;-;11.21373;4.5000916;-6.5414734;-;-;-;-;-;-;-;-;-;-;-;-;-;-;-
1514111063992;-;-;8.705811;1.5588226;-10.250092;-;-;-;-;-;-;-;-;-;-;-;-;-;-;-
1514111064013;-;-;5.231827;-2.1653595;-10.276428;-;-;-;-;-;-;-;-;-;-;-;-;-;-;-
1514111064032;-;-;1.1161804;-4.326126;-6.4516907;-;-;-;-;-;-;-;-;-;-;-;-;-;-;-
1514111064052;-;-;4.5003967;-4.5811157;-0.95700073;-;-;-;-;-;-;-;-;-;-;-;-;-;-;-
1514111064072;-;-;6.331955;-2.6238556;-1.0024872;-;-;-;-;-;-;-;-;-;-;-;-;-;-;-
1514111064092;-;-;7.099304;-0.19374084;-4.386688;-;-;-;-;-;-;-;-;-;-;-;-;-;-;-
1514111064112;-;-;8.062958;0.083984375;-6.1272736;-;-;-;-;-;-;-;-;-;-;-;-;-;-;-
1514111064133;-;-;7.928894;0.08039856;-5.654419;-;-;-;-;-;-;-;-;-;-;-;-;-;-;-
1514111064153;-;-;6.712631;-0.5097656;-3.9341888;-;-;-;-;-;-;-;-;-;-;-;-;-;-;-
1514111064173;-;-;4.861923;-2.2180328;-3.317688;-;-;-;-;-;-;-;-;-;-;-;-;-;-;-
1514111064194;-;-;3.885086;-3.5528107;-2.9573517;-;-;-;-;-;-;-;-;-;-;-;-;-;-;-
1514111064213;-;-;4.5003967;-3.6725159;-2.649704;-;-;-;-;-;-;-;-;-;-;-;-;-;-;-
1514111064233;-;-;6.261322;-2.2647247;-3.2123413;-;-;-;-;-;-;-;-;-;-;-;-;-;-;-
1514111064254;-;-;6.932907;-0.9766388;-3.9916534;-;-;-;-;-;-;-;-;-;-;-;-;-;-;-
1514111064274;-;-;6.8012238;-0.25598145;-4.9098206;-;-;-;-;-;-;-;-;-;-;-;-;-;-;-
1514111064294;-;-;6.513916;-0.5732269;-4.500412;-;-;-;-;-;-;-;-;-;-;-;-;-;-;-
1514111064315;-;-;7.032257;-1.5680084;-3.5128021;-;-;-;-;-;-;-;-;-;-;-;-;-;-;-
1514111064335;-;-;7.8175507;-2.590332;-3.7234955;-;-;-;-;-;-;-;-;-;-;-;-;-;-;-
1514111064355;-;-;8.206619;-3.4354858;-4.107773;-;-;-;-;-;-;-;-;-;-;-;-;-;-;-
1514111064375;-;-;8.695038;-3.6832886;-3.7223053;-;-;-;-;-;-;-;-;-;-;-;-;-;-;-
1514111064396;-;-;9.135559;-3.1146698;-3.6277313;-;-;-;-;-;-;-;-;-;-;-;-;-;-;-
1514111064416;-;-;9.92804;-2.5615997;-3.8444061;-;-;-;-;-;-;-;-;-;-;-;-;-;-;-
1514111064436;-;-;11.808685;-2.5041504;-4.504013;-;-;-;-;-;-;-;-;-;-;-;-;-;-;-
1514111064457;-;-;14.113113;-1.9642487;-4.5890045;-;-;-;-;-;-;-;-;-;-;-;-;-;-;-
1514111064477;-;-;14.940308;-0.09437561;-3.9341888;-;-;-;-;-;-;-;-;-;-;-;-;-;-;-
1514111064496;-;-;10.550537;0.40361023;-6.721039;-;-;-;-;-;-;-;-;-;-;-;-;-;-;-
1514111064516;-;-;8.029449;-3.0464325;-11.293961;-;-;-;-;-;-;-;-;-;-;-;-;-;-;-
1514111064537;-;-;10.846222;-4.293808;-1.7494812;-;-;-;-;-;-;-;-;-;-;-;-;-;-;-
1514111064557;-;-;11.875732;-5.5244293;-5.8710938;-;-;-;-;-;-;-;-;-;-;-;-;-;-;-
1514111064577;-;-;6.466034;-1.5297089;-11.053345;-;-;-;-;-;-;-;-;-;-;-;-;-;-;-
1514111064598;-;-;4.272949;0.6430359;-9.17749;-;-;-;-;-;-;-;-;-;-;-;-;-;-;-
1514111064617;-;-;3.8647308;0.26715088;-5.4736633;-;-;-;-;-;-;-;-;-;-;-;-;-;-;-
1514111064637;-;-;7.4284973;-0.76356506;-2.781372;-;-;-;-;-;-;-;-;-;-;-;-;-;-;-
1514111064657;-;-;9.215775;-0.80784607;-4.5842133;-;-;-;-;-;-;-;-;-;-;-;-;-;-;-
1514111064678;-;-;8.521454;-0.37809753;-5.1624146;-;-;-;-;-;-;-;-;-;-;-;-;-;-;-
1514111064698;-;-;7.145981;-0.27514648;-4.539917;-;-;-;-;-;-;-;-;-;-;-;-;-;-;-
1514111064718;-;-;5.759735;-0.015365601;-4.0706635;-;-;-;-;-;-;-;-;-;-;-;-;-;-;-
1514111064739;-;-;5.3299866;0.6214905;-4.081436;-;-;-;-;-;-;-;-;-;-;-;-;-;-;-
1514111064758;-;-;5.107315;1.4391022;-4.441757;-;-;-;-;-;-;-;-;-;-;-;-;-;-;-
1514111064778;-;-;4.8858643;1.9394989;-5.070236;-;-;-;-;-;-;-;-;-;-;-;-;-;-;-
1514111064798;-;-;4.9505005;1.4989624;-4.871521;-;-;-;-;-;-;-;-;-;-;-;-;-;-;-
1514111064818;-;-;5.568207;0.55804443;-4.180786;-;-;-;-;-;-;-;-;-;-;-;-;-;-;-
1514111064839;-;-;6.027893;0.08039856;-4.0203857;-;-;-;-;-;-;-;-;-;-;-;-;-;-;-
1514111064859;-;-;6.8287506;-0.033325195;-3.6373138;-;-;-;-;-;-;-;-;-;-;-;-;-;-;-
1514111064879;-;-;7.2357635;0.083984375;-3.5415344;-;-;-;-;-;-;-;-;-;-;-;-;-;-;-
1514111064899;-;-;7.384201;0.038497925;-3.1141663;-;-;-;-;-;-;-;-;-;-;-;-;-;-;-
1514111064920;-;-;7.319565;0.23242188;-2.8089142;-;-;-;-;-;-;-;-;-;-;-;-;-;-;-
1514111064940;-;-;7.1998596;0.5927582;-2.642517;-;-;-;-;-;-;-;-;-;-;-;-;-;-;-
1514111064960;-;-;7.4093475;1.3804474;-2.452179;-;-;-;-;-;-;-;-;-;-;-;-;-;-;-
1514111064981;-;-;7.703827;1.8185883;-2.1121979;-;-;-;-;-;-;-;-;-;-;-;-;-;-;-
1514111065001;-;-;8.000717;1.6138763;-2.1265717;-;-;-;-;-;-;-;-;-;-;-;-;-;-;-
1514111065021;-;-;8.322739;1.1003265;-2.294159;-;-;-;-;-;-;-;-;-;-;-;-;-;-;-
1514111065042;-;-;8.522644;0.83576965;-2.2366943;-;-;-;-;-;-;-;-;-;-;-;-;-;-;-
1514111065062;-;-;8.539413;0.40361023;-1.7195587;-;-;-;-;-;-;-;-;-;-;-;-;-;-;-
1514111065083;-;-;8.5849;0.27192688;-1.0360107;-;-;-;-;-;-;-;-;-;-;-;-;-;-;-
1514111065104;-;-;9.1128235;0.45269775;-0.74272156;-;-;-;-;-;-;-;-;-;-;-;-;-;-;-
1514111065124;-;-;10.208176;0.28630066;-0.98931885;-;-;-;-;-;-;-;-;-;-;-;-;-;-;-
1514111065144;-;-;11.405273;0.2922821;-2.286972;-;-;-;-;-;-;-;-;-;-;-;-;-;-;-
1514111065165;-;-;11.363373;0.83935547;-5.6687927;-;-;-;-;-;-;-;-;-;-;-;-;-;-;-
1514111065186;-;-;10.132751;2.5787506;-10.069336;-;-;-;-;-;-;-;-;-;-;-;-;-;-;-
1514111065206;-;-;10.1566925;3.6645203;-8.830338;-;-;-;-;-;-;-;-;-;-;-;-;-;-;-
1514111065227;-;-;9.225342;3.0803375;-6.3834534;-;-;-;-;-;-;-;-;-;-;-;-;-;-;-
1514111065246;-;-;7.5230713;-0.9467163;-5.982422;-;-;-;-;-;-;-;-;-;-;-;-;-;-;-
1514111065266;-;-;6.4217377;-2.5556183;-6.6360474;-;-;-;-;-;-;-;-;-;-;-;-;-;-;-
1514111065286;-;-;5.4437103;-1.2028961;-5.5742188;-;-;-;-;-;-;-;-;-;-;-;-;-;-;-
1514111065307;-;-;7.5913086;1.3936157;-3.9282074;-;-;-;-;-;-;-;-;-;-;-;-;-;-;-
1514111065327;-;-;10.276398;0.89801025;-4.4237976;-;-;-;-;-;-;-;-;-;-;-;-;-;-;-
1514111065347;-;-;11.668625;-2.4646454;-4.8667297;-;-;-;-;-;-;-;-;-;-;-;-;-;-;-
1514111065368;-;-;10.846222;-2.977005;-4.4381714;-;-;-;-;-;-;-;-;-;-;-;-;-;-;-
1514111065388;-;-;8.812347;-2.2419739;-3.7749786;-;-;-;-;-;-;-;-;-;-;-;-;-;-;-
1514111065408;-;-;6.7138367;-1.8098297;-3.3799286;-;-;-;-;-;-;-;-;-;-;-;-;-;-;-
1514111065429;-;-;4.9433136;-1.7176514;-3.3883057;-;-;-;-;-;-;-;-;-;-;-;-;-;-;-
1514111065449;-;-;4.8750916;-1.724823;-3.2793732;-;-;-;-;-;-;-;-;-;-;-;-;-;-;-
1514111065469;-;-;7.1471863;-2.3652802;-3.0950165;-;-;-;-;-;-;-;-;-;-;-;-;-;-;-
1514111065489;-;-;8.4687805;-2.6226501;-3.0375519;-;-;-;-;-;-;-;-;-;-;-;-;-;-;-
1514111065510;-;-;8.856644;-3.2678986;-3.089035;-;-;-;-;-;-;-;-;-;-;-;-;-;-;-
1514111065529;-;-;8.5633545;-3.7934265;-2.7071533;-;-;-;-;-;-;-;-;-;-;-;-;-;-;-
1514111065549;-;-;8.557373;-3.658142;-1.7422943;-;-;-;-;-;-;-;-;-;-;-;-;-;-;-
1514111065570;-;-;8.534622;-2.3676758;-1.7183533;-;-;-;-;-;-;-;-;-;-;-;-;-;-;-
1514111065590;-;-;7.8043976;-0.9945984;-1.1329651;-;-;-;-;-;-;-;-;-;-;-;-;-;-;-
1514111065610;-;-;7.240555;-0.74560547;-2.0463562;-;-;-;-;-;-;-;-;-;-;-;-;-;-;-
1514111065631;-;-;8.177887;-1.609909;-2.8232727;-;-;-;-;-;-;-;-;-;-;-;-;-;-;-
1514111065650;-;-;10.436813;-2.356903;-1.8440552;-;-;-;-;-;-;-;-;-;-;-;-;-;-;-
1514111065670;-;-;12.680176;-1.7822876;-1.5471649;-;-;-;-;-;-;-;-;-;-;-;-;-;-;-
1514111065691;-;-;11.140717;0.07081604;-3.6684265;-;-;-;-;-;-;-;-;-;-;-;-;-;-;-
1514111065711;-;-;8.228165;0.1510315;-7.8498993;-;-;-;-;-;-;-;-;-;-;-;-;-;-;-
1514111065731;-;-;6.600113;0.99497986;-11.675842;-;-;-;-;-;-;-;-;-;-;-;-;-;-;-
1514111065751;-;-;8.590881;1.9694214;-6.0674286;-;-;-;-;-;-;-;-;-;-;-;-;-;-;-
1514111065771;-;-;9.979523;1.1781464;-3.7163086;-;-;-;-;-;-;-;-;-;-;-;-;-;-;-
1514111065792;-;-;9.766434;-1.8708801;-6.7162476;-;-;-;-;-;-;-;-;-;-;-;-;-;-;-
1514111065812;-;-;10.254852;-5.2886047;-4.6141357;-;-;-;-;-;-;-;-;-;-;-;-;-;-;-
1514111065832;-;-;10.787567;-4.903137;-2.9729156;-;-;-;-;-;-;-;-;-;-;-;-;-;-;-
1514111065853;-;-;10.558914;-0.6222992;-3.001648;-;-;-;-;-;-;-;-;-;-;-;-;-;-;-
1514111065873;-;-;9.056564;3.5855103;-3.8587646;-;-;-;-;-;-;-;-;-;-;-;-;-;-;-
1514111065893;-;-;7.3734283;3.893158;-3.6576538;-;-;-;-;-;-;-;-;-;-;-;-;-;-;-
1514111065913;-;-;6.5713806;2.481781;-2.749054;-;-;-;-;-;-;-;-;-;-;-;-;-;-;-
1514111065934;-;-;5.873459;1.3541107;-2.0427704;-;-;-;-;-;-;-;-;-;-;-;-;-;-;-
1514111065954;-;-;4.853531;0.6131134;-1.1616974;-;-;-;-;-;-;-;-;-;-;-;-;-;-;-
1514111065974;-;-;6.5163116;-0.52653503;-0.7391205;-;-;-;-;-;-;-;-;-;-;-;-;-;-;-
1514111065995;-;-;8.987122;-1.530899;-1.6177979;-;-;-;-;-;-;-;-;-;-;-;-;-;-;-
1514111066015;-;-;10.373367;-0.7767334;-2.8544006;-;-;-;-;-;-;-;-;-;-;-;-;-;-;-
1514111066035;-;-;9.0182495;0.6442261;-2.9980621;-;-;-;-;-;-;-;-;-;-;-;-;-;-;-
1514111066055;-;-;7.5194855;1.556427;-2.7083588;-;-;-;-;-;-;-;-;-;-;-;-;-;-;-
1514111066076;-;-;7.178299;2.2950287;-2.3635864;-;-;-;-;-;-;-;-;-;-;-;-;-;-;-
1514111066096;-;-;7.5865173;2.6457825;-2.0224152;-;-;-;-;-;-;-;-;-;-;-;-;-;-;-
1514111066116;-;-;8.58371;2.4446716;-2.1947937;-;-;-;-;-;-;-;-;-;-;-;-;-;-;-
1514111066136;-;-;9.993881;2.7020416;-2.3444366;-;-;-;-;-;-;-;-;-;-;-;-;-;-;-
1514111066157;-;-;11.820663;3.0084991;-2.0595245;-;-;-;-;-;-;-;-;-;-;-;-;-;-;-
1514111066177;-;-;13.448715;2.8600616;-1.8991089;-;-;-;-;-;-;-;-;-;-;-;-;-;-;-
1514111066197;-;-;13.670181;1.145813;-5.3000793;-;-;-;-;-;-;-;-;-;-;-;-;-;-;-
1514111066217;-;-;13.6642;1.2044678;-7.579361;-;-;-;-;-;-;-;-;-;-;-;-;-;-;-
1514111066238;-;-;11.522583;2.528473;-5.764557;-;-;-;-;-;-;-;-;-;-;-;-;-;-;-
1514111066258;-;-;11.241272;3.2658844;-4.9996033;-;-;-;-;-;-;-;-;-;-;-;-;-;-;-
1514111066278;-;-;6.659958;3.9135132;-6.7545624;-;-;-;-;-;-;-;-;-;-;-;-;-;-;-
1514111066299;-;-;3.3463898;1.8556976;-7.2333984;-;-;-;-;-;-;-;-;-;-;-;-;-;-;-
1514111066319;-;-;2.1205597;-0.35653687;-5.4425354;-;-;-;-;-;-;-;-;-;-;-;-;-;-;-
1514111066339;-;-;5.0330963;-1.9103851;-4.4501343;-;-;-;-;-;-;-;-;-;-;-;-;-;-;-
1514111066360;-;-;8.454422;-1.8816528;-4.672806;-;-;-;-;-;-;-;-;-;-;-;-;-;-;-
1514111066380;-;-;10.554138;-1.3285828;-6.049469;-;-;-;-;-;-;-;-;-;-;-;-;-;-;-
1514111066400;-;-;9.954376;-0.47027588;-5.793289;-;-;-;-;-;-;-;-;-;-;-;-;-;-;-
1514111066420;-;-;8.788406;0.39523315;-4.259796;-;-;-;-;-;-;-;-;-;-;-;-;-;-;-
1514111066440;-;-;7.213028;0.3210144;-3.3188782;-;-;-;-;-;-;-;-;-;-;-;-;-;-;-
1514111066461;-;-;5.687912;-0.5313263;-3.353592;-;-;-;-;-;-;-;-;-;-;-;-;-;-;-
1514111066481;-;-;5.4257507;-1.7080688;-3.2614136;-;-;-;-;-;-;-;-;-;-;-;-;-;-;-
1514111066501;-;-;6.561798;-2.1378326;-2.9561615;-;-;-;-;-;-;-;-;-;-;-;-;-;-;-
1514111066521;-;-;7.5685577;-1.7691193;-3.1297302;-;-;-;-;-;-;-;-;-;-;-;-;-;-;-
1514111066542;-;-;7.731369;-0.7228546;-3.2997284;-;-;-;-;-;-;-;-;-;-;-;-;-;-;-
1514111066562;-;-;7.0609894;-0.51815796;-3.54393;-;-;-;-;-;-;-;-;-;-;-;-;-;-;-
1514111066582;-;-;6.850296;-1.2639465;-3.4780884;-;-;-;-;-;-;-;-;-;-;-;-;-;-;-
1514111066602;-;-;7.126831;-2.0145264;-3.2362823;-;-;-;-;-;-;-;-;-;-;-;-;-;-;-
1514111066623;-;-;8.325134;-2.3281708;-3.2697906;-;-;-;-;-;-;-;-;-;-;-;-;-;-;-
1514111066643;-;-;9.084091;-3.3157806;-3.5702667;-;-;-;-;-;-;-;-;-;-;-;-;-;-;-
1514111066664;-;-;9.63475;-3.4211273;-3.353592;-;-;-;-;-;-;-;-;-;-;-;-;-;-;-
1514111066684;-;-;10.420059;-3.2116241;-3.2111359;-;-;-;-;-;-;-;-;-;-;-;-;-;-;-
1514111066704;-;-;10.977905;-2.9075623;-3.9641113;-;-;-;-;-;-;-;-;-;-;-;-;-;-;-
1514111066724;-;-;11.236481;-2.7351837;-4.219101;-;-;-;-;-;-;-;-;-;-;-;-;-;-;-
1514111066745;-;-;11.285553;-1.819397;-4.523163;-;-;-;-;-;-;-;-;-;-;-;-;-;-;-
1514111066765;-;-;10.036987;-1.6661682;-8.199463;-;-;-;-;-;-;-;-;-;-;-;-;-;-;-
1514111066786;-;-;7.1136627;-2.0983276;-15.386856;-;-;-;-;-;-;-;-;-;-;-;-;-;-;-
1514111066806;-;-;10.351822;-1.2016907;-7.867859;-;-;-;-;-;-;-;-;-;-;-;-;-;-;-
1514111066827;-;-;15.489777;-2.245575;-5.496399;-;-;-;-;-;-;-;-;-;-;-;-;-;-;-
1514111066847;-;-;5.0259247;0.41319275;-10.463181;-;-;-;-;-;-;-;-;-;-;-;-;-;-;-
1514111066867;-;-;4.161606;1.2930603;-4.6452637;-;-;-;-;-;-;-;-;-;-;-;-;-;-;-
1514111066887;-;-;2.5814362;0.18214417;-0.927063;-;-;-;-;-;-;-;-;-;-;-;-;-;-;-
1514111066908;-;-;3.411026;-2.827362;-0.7163849;-;-;-;-;-;-;-;-;-;-;-;-;-;-;-
1514111066927;-;-;5.316818;-4.2339478;-2.0595245;-;-;-;-;-;-;-;-;-;-;-;-;-;-;-
1514111066947;-;-;8.016281;-3.4223175;-3.3547974;-;-;-;-;-;-;-;-;-;-;-;-;-;-;-
1514111066968;-;-;9.100845;-2.5065308;-3.8049011;-;-;-;-;-;-;-;-;-;-;-;-;-;-;-
1514111066988;-;-;8.503494;-0.9682617;-4.243042;-;-;-;-;-;-;-;-;-;-;-;-;-;-;-
1514111067008;-;-;7.1723175;1.2463684;-4.049103;-;-;-;-;-;-;-;-;-;-;-;-;-;-;-
1514111067029;-;-;5.1731567;3.5543823;-4.278946;-;-;-;-;-;-;-;-;-;-;-;-;-;-;-
1514111067049;-;-;5.702286;3.7291565;-4.4393616;-;-;-;-;-;-;-;-;-;-;-;-;-;-;-
1514111067069;-;-;6.4887695;1.7216187;-4.061081;-;-;-;-;-;-;-;-;-;-;-;-;-;-;-
1514111067090;-;-;5.95726;0.36410522;-3.9329834;-;-;-;-;-;-;-;-;-;-;-;-;-;-;-
1514111067110;-;-;6.6767273;-1.0113525;-3.2494507;-;-;-;-;-;-;-;-;-;-;-;-;-;-;-
1514111067130;-;-;7.9228973;-0.25837708;-3.254242;-;-;-;-;-;-;-;-;-;-;-;-;-;-;-
1514111067150;-;-;9.552155;1.2655334;-3.9617157;-;-;-;-;-;-;-;-;-;-;-;-;-;-;-
1514111067171;-;-;11.031769;1.6833191;-4.554291;-;-;-;-;-;-;-;-;-;-;-;-;-;-;-
1514111067191;-;-;10.508636;2.3285522;-4.543518;-;-;-;-;-;-;-;-;-;-;-;-;-;-;-
1514111067211;-;-;11.596802;2.0520172;-4.420212;-;-;-;-;-;-;-;-;-;-;-;-;-;-;-
1514111067232;-;-;10.472733;3.1796875;-3.5247803;-;-;-;-;-;-;-;-;-;-;-;-;-;-;-
1514111067252;-;-;9.876572;1.5480499;-2.4090881;-;-;-;-;-;-;-;-;-;-;-;-;-;-;-
1514111067272;-;-;9.664688;-0.56604004;-4.3687286;-;-;-;-;-;-;-;-;-;-;-;-;-;-;-
1514111067292;-;-;7.6739044;-0.6689911;-11.757248;-;-;-;-;-;-;-;-;-;-;-;-;-;-;-
1514111067312;-;-;7.8151703;2.193283;-9.076935;-;-;-;-;-;-;-;-;-;-;-;-;-;-;-
1514111067333;-;-;12.347382;3.441864;-3.666031;-;-;-;-;-;-;-;-;-;-;-;-;-;-;-
1514111067353;-;-;9.330688;1.5348816;-7.5578156;-;-;-;-;-;-;-;-;-;-;-;-;-;-;-
1514111067373;-;-;4.6500244;-0.44992065;-9.383392;-;-;-;-;-;-;-;-;-;-;-;-;-;-;-
1514111067393;-;-;1.9146576;-1.609909;-5.800461;-;-;-;-;-;-;-;-;-;-;-;-;-;-;-
1514111067414;-;-;3.466095;-2.9793854;-1.9625702;-;-;-;-;-;-;-;-;-;-;-;-;-;-;-
1514111067434;-;-;7.0741577;-2.7208252;-0.91989136;-;-;-;-;-;-;-;-;-;-;-;-;-;-;-
1514111067454;-;-;9.227737;-0.6701813;-4.6165314;-;-;-;-;-;-;-;-;-;-;-;-;-;-;-
1514111067475;-;-;9.3546295;0.25756836;-7.055023;-;-;-;-;-;-;-;-;-;-;-;-;-;-;-
1514111067495;-;-;8.5047;0.031311035;-6.4505005;-;-;-;-;-;-;-;-;-;-;-;-;-;-;-
1514111067515;-;-;6.2266083;-0.641449;-3.5295715;-;-;-;-;-;-;-;-;-;-;-;-;-;-;-
1514111067535;-;-;3.7091064;-1.6937103;-2.0559387;-;-;-;-;-;-;-;-;-;-;-;-;-;-;-
1514111067555;-;-;3.5881958;-2.3676758;-1.5328064;-;-;-;-;-;-;-;-;-;-;-;-;-;-;-
1514111067575;-;-;6.1440125;-2.2096558;-2.0439606;-;-;-;-;-;-;-;-;-;-;-;-;-;-;-
1514111067595;-;-;7.0262756;-0.86531067;-2.9573517;-;-;-;-;-;-;-;-;-;-;-;-;-;-;-
1514111067616;-;-;8.179077;-0.4451294;-3.449356;-;-;-;-;-;-;-;-;-;-;-;-;-;-;-
1514111067636;-;-;8.453217;-1.4339294;-3.9856567;-;-;-;-;-;-;-;-;-;-;-;-;-;-;-
1514111067656;-;-;8.697433;-3.249939;-4.2478333;-;-;-;-;-;-;-;-;-;-;-;-;-;-;-
1514111067676;-;-;10.327881;-4.2255707;-3.9892578;-;-;-;-;-;-;-;-;-;-;-;-;-;-;-
1514111067697;-;-;11.833832;-4.316559;-4.342392;-;-;-;-;-;-;-;-;-;-;-;-;-;-;-
1514111067717;-;-;11.594406;-4.4961243;-5.3443756;-;-;-;-;-;-;-;-;-;-;-;-;-;-;-
1514111067737;-;-;10.828262;-3.5408325;-5.7908936;-;-;-;-;-;-;-;-;-;-;-;-;-;-;-
1514111067758;-;-;9.470749;-1.3034515;-6.7066803;-;-;-;-;-;-;-;-;-;-;-;-;-;-;-
1514111067778;-;-;8.797989;-1.5177307;-8.805191;-;-;-;-;-;-;-;-;-;-;-;-;-;-;-
1514111067798;-;-;12.036148;-0.90242004;-5.908203;-;-;-;-;-;-;-;-;-;-;-;-;-;-;-
1514111067821;-;-;14.292679;-2.3078156;-6.9879913;-;-;-;-;-;-;-;-;-;-;-;-;-;-;-
1514111067840;-;-;10.904877;-2.329361;-9.595276;-;-;-;-;-;-;-;-;-;-;-;-;-;-;-
1514111067860;-;-;6.37027;-0.7779236;-8.625626;-;-;-;-;-;-;-;-;-;-;-;-;-;-;-
1514111067880;-;-;3.4014587;-0.040512085;-6.5031586;-;-;-;-;-;-;-;-;-;-;-;-;-;-;-
1514111067901;-;-;2.8819122;0.50297546;-4.1065674;-;-;-;-;-;-;-;-;-;-;-;-;-;-;-
1514111067921;-;-;4.114929;0.05885315;-3.5235748;-;-;-;-;-;-;-;-;-;-;-;-;-;-;-
1514111067941;-;-;6.1883087;-0.8593292;-4.1137543;-;-;-;-;-;-;-;-;-;-;-;-;-;-;-
1514111067961;-;-;8.349075;-1.388443;-4.8224335;-;-;-;-;-;-;-;-;-;-;-;-;-;-;-
1514111067981;-;-;8.853058;-1.5189362;-4.4704895;-;-;-;-;-;-;-;-;-;-;-;-;-;-;-
1514111068002;-;-;7.9181213;-1.8122253;-3.8575745;-;-;-;-;-;-;-;-;-;-;-;-;-;-;-
1514111068022;-;-;6.849106;-1.5548401;-4.2382507;-;-;-;-;-;-;-;-;-;-;-;-;-;-;-
1514111068042;-;-;5.782486;-0.19972229;-4.993622;-;-;-;-;-;-;-;-;-;-;-;-;-;-;-
1514111068062;-;-;4.7290344;1.7623291;-4.579422;-;-;-;-;-;-;-;-;-;-;-;-;-;-;-
1514111068083;-;-;4.706299;2.4219208;-4.2729645;-;-;-;-;-;-;-;-;-;-;-;-;-;-;-
1514111068103;-;-;5.4197693;1.7802734;-4.3507843;-;-;-;-;-;-;-;-;-;-;-;-;-;-;-
1514111068123;-;-;6.094925;0.36531067;-4.6285095;-;-;-;-;-;-;-;-;-;-;-;-;-;-;-
1514111068144;-;-;6.118866;-0.502594;-4.5770264;-;-;-;-;-;-;-;-;-;-;-;-;-;-;-
1514111068164;-;-;6.3571014;-0.22486877;-4.029953;-;-;-;-;-;-;-;-;-;-;-;-;-;-;-
1514111068184;-;-;7.3267517;0.43115234;-3.7941284;-;-;-;-;-;-;-;-;-;-;-;-;-;-;-
1514111068205;-;-;7.2896423;1.1434174;-4.251419;-;-;-;-;-;-;-;-;-;-;-;-;-;-;-
1514111068225;-;-;7.605667;1.8317566;-4.4034576;-;-;-;-;-;-;-;-;-;-;-;-;-;-;-
1514111068245;-;-;7.7648926;2.0460358;-4.2562103;-;-;-;-;-;-;-;-;-;-;-;-;-;-;-
1514111068266;-;-;8.420898;1.9550629;-3.9018707;-;-;-;-;-;-;-;-;-;-;-;-;-;-;-
1514111068286;-;-;9.172684;2.0077362;-3.856369;-;-;-;-;-;-;-;-;-;-;-;-;-;-;-
1514111068306;-;-;9.503082;2.1908875;-4.097;-;-;-;-;-;-;-;-;-;-;-;-;-;-;-
1514111068327;-;-;10.751648;1.0380707;-3.990448;-;-;-;-;-;-;-;-;-;-;-;-;-;-;-
1514111068347;-;-;10.4021;1.121872;-4.417816;-;-;-;-;-;-;-;-;-;-;-;-;-;-;-
1514111068367;-;-;9.940018;1.5229034;-4.8763123;-;-;-;-;-;-;-;-;-;-;-;-;-;-;-
1514111068387;-;-;9.768829;0.9075928;-9.086517;-;-;-;-;-;-;-;-;-;-;-;-;-;-;-
1514111068408;-;-;12.681381;1.5480499;-5.958481;-;-;-;-;-;-;-;-;-;-;-;-;-;-;-
1514111068428;-;-;11.682999;3.1593475;-7.4704285;-;-;-;-;-;-;-;-;-;-;-;-;-;-;-
1514111068448;-;-;10.999451;2.679306;-9.918488;-;-;-;-;-;-;-;-;-;-;-;-;-;-;-
1514111068468;-;-;7.217804;0.95428467;-10.531418;-;-;-;-;-;-;-;-;-;-;-;-;-;-;-
1514111068488;-;-;2.861557;-0.7910919;-7.796036;-;-;-;-;-;-;-;-;-;-;-;-;-;-;-
1514111068509;-;-;2.4988403;-2.262329;-3.994049;-;-;-;-;-;-;-;-;-;-;-;-;-;-;-
1514111068530;-;-;5.0522614;-1.6889191;-3.3356323;-;-;-;-;-;-;-;-;-;-;-;-;-;-;-
1514111068551;-;-;8.76207;-0.088394165;-6.1512146;-;-;-;-;-;-;-;-;-;-;-;-;-;-;-
1514111068571;-;-;8.186264;0.714859;-7.5817566;-;-;-;-;-;-;-;-;-;-;-;-;-;-;-
1514111068591;-;-;7.561386;1.2391968;-6.314026;-;-;-;-;-;-;-;-;-;-;-;-;-;-;-
1514111068611;-;-;6.355896;0.8609009;-3.9892578;-;-;-;-;-;-;-;-;-;-;-;-;-;-;-
1514111068632;-;-;5.62088;-0.6905365;-2.8137054;-;-;-;-;-;-;-;-;-;-;-;-;-;-;-
1514111068652;-;-;5.20549;-2.7303925;-2.3875275;-;-;-;-;-;-;-;-;-;-;-;-;-;-;-
1514111068672;-;-;5.823181;-3.5767517;-2.2355042;-;-;-;-;-;-;-;-;-;-;-;-;-;-;-
1514111068693;-;-;7.173523;-2.0707855;-2.7538452;-;-;-;-;-;-;-;-;-;-;-;-;-;-;-
1514111068712;-;-;7.7026367;-1.170578;-3.0555115;-;-;-;-;-;-;-;-;-;-;-;-;-;-;-
1514111068732;-;-;6.1452026;-0.81503296;-4.052704;-;-;-;-;-;-;-;-;-;-;-;-;-;-;-
1514111068753;-;-;6.050644;-1.922348;-3.9916534;-;-;-;-;-;-;-;-;-;-;-;-;-;-;-
1514111068773;-;-;7.787628;-3.4642181;-3.5822449;-;-;-;-;-;-;-;-;-;-;-;-;-;-;-
1514111068793;-;-;10.399704;-3.8760223;-4.187973;-;-;-;-;-;-;-;-;-;-;-;-;-;-;-
1514111068813;-;-;12.683777;-3.498932;-4.875107;-;-;-;-;-;-;-;-;-;-;-;-;-;-;-
1514111068833;-;-;11.343018;-4.5332336;-5.0869904;-;-;-;-;-;-;-;-;-;-;-;-;-;-;-
1514111068853;-;-;10.04776;-4.970169;-5.717865;-;-;-;-;-;-;-;-;-;-;-;-;-;-;-
1514111068874;-;-;12.249222;-3.732376;-4.733856;-;-;-;-;-;-;-;-;-;-;-;-;-;-;-
1514111068894;-;-;11.782349;-1.0341034;-6.3834534;-;-;-;-;-;-;-;-;-;-;-;-;-;-;-
1514111068914;-;-;8.554977;-0.44992065;-11.926025;-;-;-;-;-;-;-;-;-;-;-;-;-;-;-
1514111068934;-;-;7.6583405;-0.26914978;-12.560501;-;-;-;-;-;-;-;-;-;-;-;-;-;-;-
1514111068955;-;-;13.641449;-2.696869;-2.4569702;-;-;-;-;-;-;-;-;-;-;-;-;-;-;-
1514111068975;-;-;15.233597;-4.8696136;-5.0438995;-;-;-;-;-;-;-;-;-;-;-;-;-;-;-
1514111068995;-;-;2.4916534;-1.8241882;-8.84111;-;-;-;-;-;-;-;-;-;-;-;-;-;-;-
1514111069015;-;-;2.8076935;0.009765625;-4.701523;-;-;-;-;-;-;-;-;-;-;-;-;-;-;-
1514111069036;-;-;2.9788818;0.88604736;-2.0307922;-;-;-;-;-;-;-;-;-;-;-;-;-;-;-
1514111069056;-;-;3.818039;-0.7336273;-1.5866699;-;-;-;-;-;-;-;-;-;-;-;-;-;-;-
1514111069076;-;-;6.142807;-2.597519;-2.9765015;-;-;-;-;-;-;-;-;-;-;-;-;-;-;-
1514111069096;-;-;10.054947;-3.1290283;-4.8978577;-;-;-;-;-;-;-;-;-;-;-;-;-;-;-
1514111069117;-;-;9.137955;-1.210083;-5.927368;-;-;-;-;-;-;-;-;-;-;-;-;-;-;-
1514111069137;-;-;7.3111877;0.38446045;-4.993622;-;-;-;-;-;-;-;-;-;-;-;-;-;-;-
1514111069157;-;-;4.348358;2.1789093;-3.8946838;-;-;-;-;-;-;-;-;-;-;-;-;-;-;-
1514111069177;-;-;3.081833;2.7535248;-3.7127228;-;-;-;-;-;-;-;-;-;-;-;-;-;-;-
1514111069198;-;-;3.2996979;2.1980743;-3.1860046;-;-;-;-;-;-;-;-;-;-;-;-;-;-;-
1514111069218;-;-;4.881073;0.6669769;-2.79216;-;-;-;-;-;-;-;-;-;-;-;-;-;-;-
1514111069239;-;-;5.9512787;-0.53970337;-3.0447388;-;-;-;-;-;-;-;-;-;-;-;-;-;-;-
1514111069259;-;-;6.118866;-0.17459106;-3.741455;-;-;-;-;-;-;-;-;-;-;-;-;-;-;-
1514111069279;-;-;8.186264;1.2032776;-4.5459137;-;-;-;-;-;-;-;-;-;-;-;-;-;-;-
1514111069300;-;-;9.471954;3.1054688;-5.2893066;-;-;-;-;-;-;-;-;-;-;-;-;-;-;-
1514111069319;-;-;10.277603;4.2546844;-5.6759644;-;-;-;-;-;-;-;-;-;-;-;-;-;-;-
1514111069339;-;-;10.750458;3.5711365;-6.029114;-;-;-;-;-;-;-;-;-;-;-;-;-;-;-
1514111069360;-;-;10.713348;3.1330109;-6.0865784;-;-;-;-;-;-;-;-;-;-;-;-;-;-;-
1514111069379;-;-;12.246826;2.114273;-5.0235443;-;-;-;-;-;-;-;-;-;-;-;-;-;-;-
1514111069399;-;-;11.76799;2.0711823;-4.500412;-;-;-;-;-;-;-;-;-;-;-;-;-;-;-
1514111069420;-;-;10.433228;0.1845398;-6.109314;-;-;-;-;-;-;-;-;-;-;-;-;-;-;-
1514111069440;-;-;9.287598;0.06124878;-8.138412;-;-;-;-;-;-;-;-;-;-;-;-;-;-;-
1514111069460;-;-;7.4560394;0.5065613;-6.789276;-;-;-;-;-;-;-;-;-;-;-;-;-;-;-
1514111069481;-;-;10.161484;1.9514618;-5.737015;-;-;-;-;-;-;-;-;-;-;-;-;-;-;-
1514111069500;-;-;7.7816467;1.829361;-8.224594;-;-;-;-;-;-;-;-;-;-;-;-;-;-;-
1514111069520;-;-;5.3251953;-0.40083313;-9.385788;-;-;-;-;-;-;-;-;-;-;-;-;-;-;-
1514111069540;-;-;3.3068848;-0.5277252;-6.112915;-;-;-;-;-;-;-;-;-;-;-;-;-;-;-
1514111069561;-;-;4.916977;-1.4590759;-3.661255;-;-;-;-;-;-;-;-;-;-;-;-;-;-;-
1514111069581;-;-;6.3690643;-3.143402;-3.302124;-;-;-;-;-;-;-;-;-;-;-;-;-;-;-
1514111069601;-;-;6.987961;-2.739975;-3.326065;-;-;-;-;-;-;-;-;-;-;-;-;-;-;-
1514111069622;-;-;7.9827576;-2.0851593;-4.361557;-;-;-;-;-;-;-;-;-;-;-;-;-;-;-
1514111069642;-;-;8.056976;-2.277893;-4.5973816;-;-;-;-;-;-;-;-;-;-;-;-;-;-;-
1514111069662;-;-;6.7892456;-2.3892212;-4.0742493;-;-;-;-;-;-;-;-;-;-;-;-;-;-;-
1514111069683;-;-;5.209076;-2.7914429;-3.393097;-;-;-;-;-;-;-;-;-;-;-;-;-;-;-
1514111069703;-;-;4.7326355;-3.1745148;-3.0938263;-;-;-;-;-;-;-;-;-;-;-;-;-;-;-
1514111069723;-;-;6.082962;-2.8309479;-2.9896698;-;-;-;-;-;-;-;-;-;-;-;-;-;-;-
1514111069744;-;-;7.125641;-1.7391968;-3.468521;-;-;-;-;-;-;-;-;-;-;-;-;-;-;-
1514111069764;-;-;7.143585;-0.34936523;-3.9569397;-;-;-;-;-;-;-;-;-;-;-;-;-;-;-
1514111069784;-;-;6.880234;-0.3433838;-4.828415;-;-;-;-;-;-;-;-;-;-;-;-;-;-;-
1514111069805;-;-;7.7169952;-1.8636932;-4.706314;-;-;-;-;-;-;-;-;-;-;-;-;-;-;-
1514111069825;-;-;8.440048;-2.9351044;-4.1616364;-;-;-;-;-;-;-;-;-;-;-;-;-;-;-
1514111069845;-;-;9.688629;-2.6884918;-3.8420105;-;-;-;-;-;-;-;-;-;-;-;-;-;-;-
1514111069865;-;-;10.306335;-3.0356598;-3.5762482;-;-;-;-;-;-;-;-;-;-;-;-;-;-;-
1514111069886;-;-;9.743698;-4.1860657;-3.8623657;-;-;-;-;-;-;-;-;-;-;-;-;-;-;-
1514111069906;-;-;10.485901;-4.1896667;-4.6716003;-;-;-;-;-;-;-;-;-;-;-;-;-;-;-
1514111069926;-;-;12.639481;-2.7806702;-4.7745514;-;-;-;-;-;-;-;-;-;-;-;-;-;-;-
1514111069947;-;-;13.7444;-1.151413;-4.6129456;-;-;-;-;-;-;-;-;-;-;-;-;-;-;-
1514111069967;-;-;11.760803;-0.6869507;-7.0011597;-;-;-;-;-;-;-;-;-;-;-;-;-;-;-
1514111069987;-;-;8.993118;-1.9391174;-11.480713;-;-;-;-;-;-;-;-;-;-;-;-;-;-;-
1514111070008;-;-;9.311539;-3.0943146;-7.626053;-;-;-;-;-;-;-;-;-;-;-;-;-;-;-
1514111070027;-;-;13.121918;-3.6485748;-1.7590485;-;-;-;-;-;-;-;-;-;-;-;-;-;-;-
1514111070047;-;-;7.672714;-2.0312958;-8.649567;-;-;-;-;-;-;-;-;-;-;-;-;-;-;-
1514111070068;-;-;4.0023956;-1.3585205;-9.911316;-;-;-;-;-;-;-;-;-;-;-;-;-;-;-
1514111070087;-;-;3.4804688;0.5700073;-6.0793915;-;-;-;-;-;-;-;-;-;-;-;-;-;-;-
1514111070107;-;-;3.5259552;1.1996918;-2.7945404;-;-;-;-;-;-;-;-;-;-;-;-;-;-;-
1514111070128;-;-;5.114502;0.27911377;-1.4549866;-;-;-;-;-;-;-;-;-;-;-;-;-;-;-
1514111070147;-;-;6.7329865;-1.0341034;-2.3049316;-;-;-;-;-;-;-;-;-;-;-;-;-;-;-
1514111070167;-;-;6.991562;-1.5153351;-4.5614624;-;-;-;-;-;-;-;-;-;-;-;-;-;-;-
1514111070188;-;-;7.2549133;-1.3465424;-4.1927643;-;-;-;-;-;-;-;-;-;-;-;-;-;-;-
1514111070207;-;-;5.406601;-1.0556488;-3.6253357;-;-;-;-;-;-;-;-;-;-;-;-;-;-;-
1514111070227;-;-;4.1161194;-0.80426025;-3.3344421;-;-;-;-;-;-;-;-;-;-;-;-;-;-;-
1514111070248;-;-;3.5870056;0.69091797;-2.962143;-;-;-;-;-;-;-;-;-;-;-;-;-;-;-
1514111070268;-;-;4.4010315;1.4235382;-3.2638092;-;-;-;-;-;-;-;-;-;-;-;-;-;-;-
1514111070288;-;-;6.6384125;1.2391968;-3.8946838;-;-;-;-;-;-;-;-;-;-;-;-;-;-;-
1514111070308;-;-;8.906921;0.68014526;-4.441757;-;-;-;-;-;-;-;-;-;-;-;-;-;-;-
1514111070329;-;-;8.876999;0.18814087;-5.096573;-;-;-;-;-;-;-;-;-;-;-;-;-;-;-
1514111070348;-;-;8.131195;1.2715149;-4.583023;-;-;-;-;-;-;-;-;-;-;-;-;-;-;-
1514111070368;-;-;8.124023;1.8209839;-3.764206;-;-;-;-;-;-;-;-;-;-;-;-;-;-;-
1514111070389;-;-;7.8917847;2.292633;-3.8491974;-;-;-;-;-;-;-;-;-;-;-;-;-;-;-
1514111070408;-;-;7.6655273;2.4841766;-4.167618;-;-;-;-;-;-;-;-;-;-;-;-;-;-;-
1514111070428;-;-;7.8726196;2.370453;-3.9461517;-;-;-;-;-;-;-;-;-;-;-;-;-;-;-
1514111070449;-;-;8.138382;2.2902527;-3.2662048;-;-;-;-;-;-;-;-;-;-;-;-;-;-;-
1514111070468;-;-;8.747711;1.9586487;-2.9824982;-;-;-;-;-;-;-;-;-;-;-;-;-;-;-
1514111070488;-;-;9.281616;1.4905853;-3.1476898;-;-;-;-;-;-;-;-;-;-;-;-;-;-;-
1514111070508;-;-;10.625961;1.2272186;-2.342041;-;-;-;-;-;-;-;-;-;-;-;-;-;-;-
1514111070529;-;-;11.909256;1.576767;-2.4150696;-;-;-;-;-;-;-;-;-;-;-;-;-;-;-
1514111070549;-;-;11.982269;1.3074188;-3.9234161;-;-;-;-;-;-;-;-;-;-;-;-;-;-;-
1514111070569;-;-;11.183807;0.7028961;-7.8918;-;-;-;-;-;-;-;-;-;-;-;-;-;-;-
1514111070590;-;-;12.547302;3.2036285;-4.5842133;-;-;-;-;-;-;-;-;-;-;-;-;-;-;-
1514111070610;-;-;15.1474;3.2036285;-2.9872742;-;-;-;-;-;-;-;-;-;-;-;-;-;-;-
1514111070630;-;-;11.51062;3.4813538;-6.950882;-;-;-;-;-;-;-;-;-;-;-;-;-;-;-
1514111070651;-;-;6.233795;3.9338684;-8.964401;-;-;-;-;-;-;-;-;-;-;-;-;-;-;-
1514111070671;-;-;2.8160706;0.8202057;-7.129257;-;-;-;-;-;-;-;-;-;-;-;-;-;-;-
1514111070691;-;-;3.1273193;-0.39964294;-4.6201324;-;-;-;-;-;-;-;-;-;-;-;-;-;-;-
1514111070711;-;-;6.667145;-0.8688965;-3.1321259;-;-;-;-;-;-;-;-;-;-;-;-;-;-;-
1514111070732;-;-;9.135559;-1.2232513;-4.1736145;-;-;-;-;-;-;-;-;-;-;-;-;-;-;-
1514111070752;-;-;10.063324;-0.7264557;-5.567032;-;-;-;-;-;-;-;-;-;-;-;-;-;-;-
1514111070773;-;-;10.274002;-1.1502228;-5.7944794;-;-;-;-;-;-;-;-;-;-;-;-;-;-;-
1514111070793;-;-;8.133591;-1.2759247;-4.0910034;-;-;-;-;-;-;-;-;-;-;-;-;-;-;-
1514111070814;-;-;6.3068237;-0.66778564;-3.2255096;-;-;-;-;-;-;-;-;-;-;-;-;-;-;-
1514111070834;-;-;5.826782;-0.37809753;-3.2817688;-;-;-;-;-;-;-;-;-;-;-;-;-;-;-
1514111070854;-;-;6.288864;-0.83299255;-3.7546234;-;-;-;-;-;-;-;-;-;-;-;-;-;-;-
1514111070875;-;-;6.924515;-1.7523651;-4.5566864;-;-;-;-;-;-;-;-;-;-;-;-;-;-;-
1514111070896;-;-;6.723404;-2.135437;-3.9772797;-;-;-;-;-;-;-;-;-;-;-;-;-;-;-
1514111070917;-;-;6.1092987;-2.0612183;-2.820877;-;-;-;-;-;-;-;-;-;-;-;-;-;-;-
1514111070937;-;-;5.169571;-1.8660889;-2.4533691;-;-;-;-;-;-;-;-;-;-;-;-;-;-;-
1514111070957;-;-;5.3467407;-1.882843;-2.2498627;-;-;-;-;-;-;-;-;-;-;-;-;-;-;-
1514111070978;-;-;6.624054;-1.8541107;-2.4485931;-;-;-;-;-;-;-;-;-;-;-;-;-;-;-
1514111070999;-;-;7.02507;-1.2950745;-2.8567963;-;-;-;-;-;-;-;-;-;-;-;-;-;-;-
1514111071019;-;-;7.3889923;-0.90122986;-2.776596;-;-;-;-;-;-;-;-;-;-;-;-;-;-;-
1514111071039;-;-;7.684677;-0.8856659;-2.4821014;-;-;-;-;-;-;-;-;-;-;-;-;-;-;-
1514111071059;-;-;7.9516296;-1.4602661;-2.310913;-;-;-;-;-;-;-;-;-;-;-;-;-;-;-
1514111071080;-;-;8.204224;-2.2491608;-2.1900177;-;-;-;-;-;-;-;-;-;-;-;-;-;-;-
1514111071100;-;-;8.535812;-2.1797333;-2.4868927;-;-;-;-;-;-;-;-;-;-;-;-;-;-;-
1514111071120;-;-;9.013458;-1.6338501;-2.4749146;-;-;-;-;-;-;-;-;-;-;-;-;-;-;-
1514111071141;-;-;8.98114;-1.2388;-1.911087;-;-;-;-;-;-;-;-;-;-;-;-;-;-;-
1514111071161;-;-;8.794388;-1.0580444;-1.7075806;-;-;-;-;-;-;-;-;-;-;-;-;-;-;-
1514111071181;-;-;8.443649;-1.1322632;-2.2139587;-;-;-;-;-;-;-;-;-;-;-;-;-;-;-
1514111071201;-;-;8.106064;-0.92396545;-3.2326813;-;-;-;-;-;-;-;-;-;-;-;-;-;-;-
1514111071222;-;-;8.089294;-0.3768921;-3.3667603;-;-;-;-;-;-;-;-;-;-;-;-;-;-;-
1514111071242;-;-;9.001495;-0.80545044;-1.401123;-;-;-;-;-;-;-;-;-;-;-;-;-;-;-
1514111071262;-;-;10.412872;-0.75756836;0.11920166;-;-;-;-;-;-;-;-;-;-;-;-;-;-;-
1514111071282;-;-;11.328659;-0.22007751;-3.7546234;-;-;-;-;-;-;-;-;-;-;-;-;-;-;-
1514111071303;-;-;10.619965;2.7523193;-11.065323;-;-;-;-;-;-;-;-;-;-;-;-;-;-;-
1514111071323;-;-;13.610336;0.793869;-6.018341;-;-;-;-;-;-;-;-;-;-;-;-;-;-;-
1514111071343;-;-;11.466324;-1.6003265;-5.796875;-;-;-;-;-;-;-;-;-;-;-;-;-;-;-
1514111071364;-;-;7.240555;-0.93833923;-6.3643036;-;-;-;-;-;-;-;-;-;-;-;-;-;-;-
1514111071384;-;-;4.545883;0.8609009;-5.1300964;-;-;-;-;-;-;-;-;-;-;-;-;-;-;-
1514111071404;-;-;4.477646;2.2064514;-5.1073456;-;-;-;-;-;-;-;-;-;-;-;-;-;-;-
1514111071424;-;-;6.4241333;1.2858734;-4.895462;-;-;-;-;-;-;-;-;-;-;-;-;-;-;-
1514111071445;-;-;8.392166;0.28988647;-4.626114;-;-;-;-;-;-;-;-;-;-;-;-;-;-;-
1514111071465;-;-;10.032196;-0.59477234;-4.7745514;-;-;-;-;-;-;-;-;-;-;-;-;-;-;-
1514111071485;-;-;11.117966;-0.38887024;-4.551895;-;-;-;-;-;-;-;-;-;-;-;-;-;-;-
1514111071506;-;-;10.720535;-0.7886963;-4.141281;-;-;-;-;-;-;-;-;-;-;-;-;-;-;-
1514111071525;-;-;9.052963;-0.7695465;-3.3272552;-;-;-;-;-;-;-;-;-;-;-;-;-;-;-
1514111071546;-;-;6.9664154;-1.0305176;-2.3133087;-;-;-;-;-;-;-;-;-;-;-;-;-;-;-
1514111071566;-;-;5.4915924;-1.1394501;-1.5328064;-;-;-;-;-;-;-;-;-;-;-;-;-;-;-
1514111071586;-;-;5.5322876;-1.1011353;-1.1186066;-;-;-;-;-;-;-;-;-;-;-;-;-;-;-
1514111071606;-;-;6.594116;-1.1645813;-1.2861938;-;-;-;-;-;-;-;-;-;-;-;-;-;-;-
1514111071627;-;-;7.6703186;-0.71687317;-1.5124512;-;-;-;-;-;-;-;-;-;-;-;-;-;-;-
1514111071647;-;-;8.985931;-0.081207275;-1.2945862;-;-;-;-;-;-;-;-;-;-;-;-;-;-;-
1514111071667;-;-;9.789185;0.24440002;-0.9869232;-;-;-;-;-;-;-;-;-;-;-;-;-;-;-
1514111071688;-;-;9.779602;0.32341003;-0.85884094;-;-;-;-;-;-;-;-;-;-;-;-;-;-;-
1514111071708;-;-;9.159515;0.6454315;-1.0623474;-;-;-;-;-;-;-;-;-;-;-;-;-;-;-
1514111071728;-;-;8.809952;0.94470215;-0.9581909;-;-;-;-;-;-;-;-;-;-;-;-;-;-;-
1514111071748;-;-;9.125992;0.94351196;-0.2399292;-;-;-;-;-;-;-;-;-;-;-;-;-;-;-
1514111071769;-;-;11.538147;0.8513336;-0.26387024;-;-;-;-;-;-;-;-;-;-;-;-;-;-;-
1514111071789;-;-;13.148254;0.7735138;-0.33929443;-;-;-;-;-;-;-;-;-;-;-;-;-;-;-
1514111071810;-;-;12.538925;1.5312805;-0.6900482;-;-;-;-;-;-;-;-;-;-;-;-;-;-;-
1514111071831;-;-;10.175842;2.1789093;-1.3161316;-;-;-;-;-;-;-;-;-;-;-;-;-;-;-
1514111071852;-;-;7.0490265;3.0923004;-7.29924;-;-;-;-;-;-;-;-;-;-;-;-;-;-;-
1514111071872;-;-;5.7046814;4.770645;-13.34819;-;-;-;-;-;-;-;-;-;-;-;-;-;-;-
1514111071892;-;-;8.036621;2.308197;-8.93927;-;-;-;-;-;-;-;-;-;-;-;-;-;-;-
1514111071912;-;-;11.639908;-1.4255524;-5.5335083;-;-;-;-;-;-;-;-;-;-;-;-;-;-;-
1514111071933;-;-;10.970718;-4.332123;-6.780899;-;-;-;-;-;-;-;-;-;-;-;-;-;-;-
1514111071953;-;-;10.001068;-4.903137;-6.552246;-;-;-;-;-;-;-;-;-;-;-;-;-;-;-
1514111071973;-;-;9.438431;-1.3908386;-3.1022034;-;-;-;-;-;-;-;-;-;-;-;-;-;-;-
1514111071994;-;-;9.845444;1.0344849;-2.761032;-;-;-;-;-;-;-;-;-;-;-;-;-;-;-
1514111072014;-;-;10.209366;0.9937897;-4.0586853;-;-;-;-;-;-;-;-;-;-;-;-;-;-;-
1514111072034;-;-;8.918884;1.0332947;-5.199524;-;-;-;-;-;-;-;-;-;-;-;-;-;-;-
1514111072054;-;-;5.862686;-0.25958252;-5.8806763;-;-;-;-;-;-;-;-;-;-;-;-;-;-;-
1514111072075;-;-;4.442932;-2.4861908;-5.367111;-;-;-;-;-;-;-;-;-;-;-;-;-;-;-
1514111072095;-;-;4.4632874;-4.7104034;-4.817642;-;-;-;-;-;-;-;-;-;-;-;-;-;-;-
1514111072116;-;-;5.0534515;-5.483734;-3.7462463;-;-;-;-;-;-;-;-;-;-;-;-;-;-;-
1514111072137;-;-;7.0681763;-5.135376;-3.519989;-;-;-;-;-;-;-;-;-;-;-;-;-;-;-
1514111072157;-;-;8.3107605;-4.5416107;-3.6815948;-;-;-;-;-;-;-;-;-;-;-;-;-;-;-
1514111072177;-;-;8.532227;-4.2734528;-3.2482452;-;-;-;-;-;-;-;-;-;-;-;-;-;-;-
1514111072198;-;-;8.1527405;-4.022064;-2.5060425;-;-;-;-;-;-;-;-;-;-;-;-;-;-;-
1514111072217;-;-;8.406525;-3.9514313;-2.5814667;-;-;-;-;-;-;-;-;-;-;-;-;-;-;-
1514111072237;-;-;8.729752;-3.1517792;-3.369156;-;-;-;-;-;-;-;-;-;-;-;-;-;-;-
1514111072257;-;-;9.080505;-2.5855408;-3.7234955;-;-;-;-;-;-;-;-;-;-;-;-;-;-;-
1514111072277;-;-;9.225342;-2.863266;-2.618576;-;-;-;-;-;-;-;-;-;-;-;-;-;-;-
1514111072298;-;-;9.580887;-3.2355652;-1.5328064;-;-;-;-;-;-;-;-;-;-;-;-;-;-;-
1514111072318;-;-;10.392517;-2.9961548;-0.6505432;-;-;-;-;-;-;-;-;-;-;-;-;-;-;-
1514111072338;-;-;10.85939;-1.5548401;-1.8847504;-;-;-;-;-;-;-;-;-;-;-;-;-;-;-
1514111072358;-;-;12.054092;-0.9838257;-3.3188782;-;-;-;-;-;-;-;-;-;-;-;-;-;-;-
1514111072379;-;-;14.272324;-1.388443;-4.338806;-;-;-;-;-;-;-;-;-;-;-;-;-;-;-
1514111072399;-;-;15.943481;-1.7559509;-4.7158966;-;-;-;-;-;-;-;-;-;-;-;-;-;-;-
1514111072419;-;-;11.29155;-0.26914978;-6.780899;-;-;-;-;-;-;-;-;-;-;-;-;-;-;-
1514111072440;-;-;4.3184357;-2.3042297;-18.307785;-;-;-;-;-;-;-;-;-;-;-;-;-;-;-
1514111072460;-;-;6.9305115;-6.2558594;-5.559845;-;-;-;-;-;-;-;-;-;-;-;-;-;-;-
1514111072480;-;-;6.1045074;-7.3356476;-0.68525696;-;-;-;-;-;-;-;-;-;-;-;-;-;-;-
1514111072500;-;-;5.277313;-6.345642;-6.639633;-;-;-;-;-;-;-;-;-;-;-;-;-;-;-
1514111072521;-;-;4.3579407;-4.424286;-8.550201;-;-;-;-;-;-;-;-;-;-;-;-;-;-;-
1514111072540;-;-;4.6859436;0.033706665;-5.587387;-;-;-;-;-;-;-;-;-;-;-;-;-;-;-
1514111072560;-;-;5.8758545;1.4989624;-4.7194824;-;-;-;-;-;-;-;-;-;-;-;-;-;-;-
1514111072580;-;-;7.8678436;0.7914734;-4.8583527;-;-;-;-;-;-;-;-;-;-;-;-;-;-;-
1514111072600;-;-;8.897339;-0.54927063;-5.3515625;-;-;-;-;-;-;-;-;-;-;-;-;-;-;-
1514111072621;-;-;7.6032715;-1.4147797;-4.405838;-;-;-;-;-;-;-;-;-;-;-;-;-;-;-
1514111072641;-;-;7.1950684;-1.8289795;-3.449356;-;-;-;-;-;-;-;-;-;-;-;-;-;-;-
1514111072661;-;-;6.9664154;-1.7212372;-2.867569;-;-;-;-;-;-;-;-;-;-;-;-;-;-;-
1514111072682;-;-;5.892624;-0.37091064;-2.6927948;-;-;-;-;-;-;-;-;-;-;-;-;-;-;-
1514111072702;-;-;5.6148987;0.93392944;-3.1381226;-;-;-;-;-;-;-;-;-;-;-;-;-;-;-
1514111072722;-;-;5.9740295;1.6737366;-3.93898;-;-;-;-;-;-;-;-;-;-;-;-;-;-;-
1514111072742;-;-;7.02388;1.4295349;-4.5698547;-;-;-;-;-;-;-;-;-;-;-;-;-;-;-
1514111072762;-;-;7.9600067;0.7124634;-4.761383;-;-;-;-;-;-;-;-;-;-;-;-;-;-;-
1514111072782;-;-;8.599258;0.71965027;-4.5494995;-;-;-;-;-;-;-;-;-;-;-;-;-;-;-
1514111072803;-;-;8.0138855;2.0328674;-4.3831024;-;-;-;-;-;-;-;-;-;-;-;-;-;-;-
1514111072822;-;-;7.976776;2.560791;-4.282547;-;-;-;-;-;-;-;-;-;-;-;-;-;-;-
1514111072843;-;-;7.451248;2.6170502;-4.083832;-;-;-;-;-;-;-;-;-;-;-;-;-;-;-
1514111072863;-;-;7.593704;1.6450043;-3.729477;-;-;-;-;-;-;-;-;-;-;-;-;-;-;-
1514111072883;-;-;7.604477;1.1386414;-3.867157;-;-;-;-;-;-;-;-;-;-;-;-;-;-;-
1514111072904;-;-;8.1719055;0.87646484;-3.4553528;-;-;-;-;-;-;-;-;-;-;-;-;-;-;-
1514111072924;-;-;10.14711;0.67655945;-2.665268;-;-;-;-;-;-;-;-;-;-;-;-;-;-;-
1514111072944;-;-;11.135925;0.64064026;-3.8001099;-;-;-;-;-;-;-;-;-;-;-;-;-;-;-
1514111072964;-;-;9.737701;1.130249;-8.818359;-;-;-;-;-;-;-;-;-;-;-;-;-;-;-
1514111072985;-;-;13.98143;1.8209839;-6.9245453;-;-;-;-;-;-;-;-;-;-;-;-;-;-;-
1514111073005;-;-;15.512527;2.4769897;-6.1907196;-;-;-;-;-;-;-;-;-;-;-;-;-;-;-
1514111073025;-;-;10.93721;3.1437836;-8.774063;-;-;-;-;-;-;-;-;-;-;-;-;-;-;-
1514111073046;-;-;8.817139;1.1661682;-8.909332;-;-;-;-;-;-;-;-;-;-;-;-;-;-;-
1514111073067;-;-;4.146057;-0.44033813;-6.703079;-;-;-;-;-;-;-;-;-;-;-;-;-;-;-
1514111073087;-;-;1.8536072;-2.1486053;-2.6353302;-;-;-;-;-;-;-;-;-;-;-;-;-;-;-
1514111073107;-;-;3.3894806;-2.6585693;-2.7753906;-;-;-;-;-;-;-;-;-;-;-;-;-;-;-
1514111073128;-;-;7.0107117;-1.4159851;-5.741806;-;-;-;-;-;-;-;-;-;-;-;-;-;-;-
1514111073148;-;-;9.125992;0.05166626;-6.559433;-;-;-;-;-;-;-;-;-;-;-;-;-;-;-
1514111073168;-;-;9.665878;0.53289795;-6.8670807;-;-;-;-;-;-;-;-;-;-;-;-;-;-;-
1514111073189;-;-;8.876999;1.3972015;-4.8607483;-;-;-;-;-;-;-;-;-;-;-;-;-;-;-
1514111073209;-;-;6.493561;1.7252197;-2.9118652;-;-;-;-;-;-;-;-;-;-;-;-;-;-;-
1514111073229;-;-;4.814026;0.44551086;-2.2642365;-;-;-;-;-;-;-;-;-;-;-;-;-;-;-
1514111073250;-;-;4.805649;-1.7691193;-2.1193848;-;-;-;-;-;-;-;-;-;-;-;-;-;-;-
1514111073269;-;-;5.493988;-3.1517792;-2.4162598;-;-;-;-;-;-;-;-;-;-;-;-;-;-;-
1514111073289;-;-;7.2752686;-2.942276;-2.7454681;-;-;-;-;-;-;-;-;-;-;-;-;-;-;-
1514111073309;-;-;7.296814;-1.7451782;-3.2219086;-;-;-;-;-;-;-;-;-;-;-;-;-;-;-
1514111073330;-;-;6.3654785;-1.6625824;-3.6720276;-;-;-;-;-;-;-;-;-;-;-;-;-;-;-
1514111073350;-;-;6.5402527;-2.1342316;-3.6373138;-;-;-;-;-;-;-;-;-;-;-;-;-;-;-
1514111073370;-;-;8.055786;-1.7619476;-3.5559082;-;-;-;-;-;-;-;-;-;-;-;-;-;-;-
1514111073391;-;-;10.625961;-1.6087189;-3.954544;-;-;-;-;-;-;-;-;-;-;-;-;-;-;-
1514111073411;-;-;11.571671;-1.5093536;-4.448944;-;-;-;-;-;-;-;-;-;-;-;-;-;-;-
1514111073431;-;-;11.044937;-2.0707855;-5.2689514;-;-;-;-;-;-;-;-;-;-;-;-;-;-;-
1514111073452;-;-;12.649063;-3.2176208;-5.0953827;-;-;-;-;-;-;-;-;-;-;-;-;-;-;-
1514111073472;-;-;13.282318;-1.5787811;-5.0032043;-;-;-;-;-;-;-;-;-;-;-;-;-;-;-
1514111073492;-;-;11.4328;-0.542099;-6.033905;-;-;-;-;-;-;-;-;-;-;-;-;-;-;-
1514111073512;-;-;8.434067;-1.4566803;-8.7513275;-;-;-;-;-;-;-;-;-;-;-;-;-;-;-
1514111073533;-;-;8.068954;-2.9781952;-8.695053;-;-;-;-;-;-;-;-;-;-;-;-;-;-;-
1514111073553;-;-;11.107193;-3.0536194;-5.484436;-;-;-;-;-;-;-;-;-;-;-;-;-;-;-
1514111073574;-;-;12.306686;-2.104309;-4.4908447;-;-;-;-;-;-;-;-;-;-;-;-;-;-;-
1514111073594;-;-;4.4728546;-0.46427917;-6.8970184;-;-;-;-;-;-;-;-;-;-;-;-;-;-;-
1514111073614;-;-;3.0926056;-0.700119;-4.6296997;-;-;-;-;-;-;-;-;-;-;-;-;-;-;-
1514111073634;-;-;3.569046;-0.9263611;-2.749054;-;-;-;-;-;-;-;-;-;-;-;-;-;-;-
1514111073654;-;-;4.5949554;-0.9467163;-2.014038;-;-;-;-;-;-;-;-;-;-;-;-;-;-;-
1514111073675;-;-;6.6228485;-0.8282013;-1.7758179;-;-;-;-;-;-;-;-;-;-;-;-;-;-;-
1514111073695;-;-;8.017471;-0.016571045;-3.38591;-;-;-;-;-;-;-;-;-;-;-;-;-;-;-
1514111073715;-;-;8.168304;0.8345642;-5.18277;-;-;-;-;-;-;-;-;-;-;-;-;-;-;-
1514111073735;-;-;7.1759186;0.9111786;-5.5933685;-;-;-;-;-;-;-;-;-;-;-;-;-;-;-
1514111073756;-;-;5.0857697;0.7519684;-4.7506104;-;-;-;-;-;-;-;-;-;-;-;-;-;-;-
1514111073776;-;-;4.110138;0.78549194;-4.282547;-;-;-;-;-;-;-;-;-;-;-;-;-;-;-
1514111073796;-;-;4.817627;0.9291382;-3.3583832;-;-;-;-;-;-;-;-;-;-;-;-;-;-;-
1514111073817;-;-;5.7884674;1.279892;-3.6564636;-;-;-;-;-;-;-;-;-;-;-;-;-;-;-
1514111073837;-;-;6.1883087;1.9143524;-5.3683167;-;-;-;-;-;-;-;-;-;-;-;-;-;-;-
1514111073857;-;-;8.417313;2.1944733;-5.8854675;-;-;-;-;-;-;-;-;-;-;-;-;-;-;-
1514111073878;-;-;10.033386;2.631424;-6.0638275;-;-;-;-;-;-;-;-;-;-;-;-;-;-;-
1514111073898;-;-;11.085648;2.7690887;-6.081787;-;-;-;-;-;-;-;-;-;-;-;-;-;-;-
1514111073918;-;-;10.348236;2.837326;-5.4987946;-;-;-;-;-;-;-;-;-;-;-;-;-;-;-
1514111073939;-;-;11.019806;2.5200958;-4.998413;-;-;-;-;-;-;-;-;-;-;-;-;-;-;-
1514111073959;-;-;10.985092;1.0045624;-3.8372192;-;-;-;-;-;-;-;-;-;-;-;-;-;-;-
1514111073979;-;-;8.826721;-1.2364197;-4.9840393;-;-;-;-;-;-;-;-;-;-;-;-;-;-;-
1514111073999;-;-;5.600525;-1.8565063;-9.298401;-;-;-;-;-;-;-;-;-;-;-;-;-;-;-
1514111074020;-;-;4.9469147;0.08518982;-9.892166;-;-;-;-;-;-;-;-;-;-;-;-;-;-;-
1514111074040;-;-;10.819885;3.754303;-5.962082;-;-;-;-;-;-;-;-;-;-;-;-;-;-;-
1514111074060;-;-;10.849808;3.4825592;-7.900177;-;-;-;-;-;-;-;-;-;-;-;-;-;-;-
1514111074080;-;-;7.26091;-0.097976685;-9.865829;-;-;-;-;-;-;-;-;-;-;-;-;-;-;-
1514111074101;-;-;3.4230042;-0.8090515;-8.46402;-;-;-;-;-;-;-;-;-;-;-;-;-;-;-
1514111074121;-;-;4.367508;-1.7727203;-4.041931;-;-;-;-;-;-;-;-;-;-;-;-;-;-;-
1514111074141;-;-;6.7006683;-3.337326;-1.871582;-;-;-;-;-;-;-;-;-;-;-;-;-;-;-
1514111074161;-;-;7.4727936;-1.6697693;-3.3787384;-;-;-;-;-;-;-;-;-;-;-;-;-;-;-
1514111074182;-;-;7.6499634;0.17018127;-5.429367;-;-;-;-;-;-;-;-;-;-;-;-;-;-;-
1514111074202;-;-;7.411743;0.0756073;-5.3946533;-;-;-;-;-;-;-;-;-;-;-;-;-;-;-
1514111074222;-;-;6.1523895;-1.1059265;-3.9880524;-;-;-;-;-;-;-;-;-;-;-;-;-;-;-
1514111074243;-;-;4.6500244;-2.1881104;-3.3511963;-;-;-;-;-;-;-;-;-;-;-;-;-;-;-
1514111074263;-;-;4.6069336;-2.6597595;-3.0758667;-;-;-;-;-;-;-;-;-;-;-;-;-;-;-
1514111074283;-;-;5.174362;-2.5256958;-2.8496094;-;-;-;-;-;-;-;-;-;-;-;-;-;-;-
