TimeStamp[ms];Prox[Cm];Lux[lux];AccX[m/s^2];AccY[m/s^2];AccZ[m/s^2];GyroX[rad/s];GyroY[rad/s];GyroZ[rad/s];MagnX[uT];MagnY[uT];MagnZ[uT];OrienYaw[degrees];OrienPitch[degrees];OrienRoll[degrees];Press[Pa];Temp[C°];Batt[%];Lat;Lng;Speed[m/s]
1514098826800;-;-;9.082901;0.2515869;-0.85523987;-;-;-;-;-;-;-;-;-;-;-;-;-;-;-
1514098826801;-;-;9.082901;0.2515869;-0.85523987;-;-;-;-;-;-;-;-;-;-;-;-;-;-;-
1514098826815;-;-;9.263657;0.32580566;-0.9162903;-;-;-;-;-;-;-;-;-;-;-;-;-;-;-
1514098826835;-;-;9.035004;0.24320984;-0.6792755;-;-;-;-;-;-;-;-;-;-;-;-;-;-;-
1514098826855;-;-;9.100845;-0.035720825;-0.91989136;-;-;-;-;-;-;-;-;-;-;-;-;-;-;-
1514098826875;-;-;9.142746;-0.36013794;-0.9438324;-;-;-;-;-;-;-;-;-;-;-;-;-;-;-
1514098826896;-;-;8.977554;-0.2966919;-0.5320282;-;-;-;-;-;-;-;-;-;-;-;-;-;-;-
1514098826916;-;-;9.160706;0.21566772;-1.0228424;-;-;-;-;-;-;-;-;-;-;-;-;-;-;-
1514098826938;-;-;9.351044;0.22764587;-0.94143677;-;-;-;-;-;-;-;-;-;-;-;-;-;-;-
1514098826958;-;-;9.184647;0.259964;-1.1210022;-;-;-;-;-;-;-;-;-;-;-;-;-;-;-
1514098826978;-;-;9.207397;0.117507935;-1.1581116;-;-;-;-;-;-;-;-;-;-;-;-;-;-;-
1514098826998;-;-;9.122391;-0.13269043;-0.5021057;-;-;-;-;-;-;-;-;-;-;-;-;-;-;-
1514098827018;-;-;9.039795;0.20848083;-1.4071045;-;-;-;-;-;-;-;-;-;-;-;-;-;-;-
1514098827052;-;-;8.90094;0.77471924;-2.8484192;-;-;-;-;-;-;-;-;-;-;-;-;-;-;-
1514098827059;-;-;8.788406;0.6382446;-2.2007904;-;-;-;-;-;-;-;-;-;-;-;-;-;-;-
1514098827079;-;-;9.070923;0.25517273;-1.0000916;-;-;-;-;-;-;-;-;-;-;-;-;-;-;-
1514098827099;-;-;8.313156;1.8628845;-0.2171936;-;-;-;-;-;-;-;-;-;-;-;-;-;-;-
1514098827122;-;-;8.862625;1.7156372;-1.0264282;-;-;-;-;-;-;-;-;-;-;-;-;-;-;-
1514098827142;-;-;8.807556;0.66578674;-1.0096741;-;-;-;-;-;-;-;-;-;-;-;-;-;-;-
1514098827162;-;-;7.948044;0.47424316;-1.4849243;-;-;-;-;-;-;-;-;-;-;-;-;-;-;-
1514098827183;-;-;8.944031;0.4012146;-1.1269836;-;-;-;-;-;-;-;-;-;-;-;-;-;-;-
1514098827203;-;-;9.153519;0.7244415;-0.9797363;-;-;-;-;-;-;-;-;-;-;-;-;-;-;-
1514098827223;-;-;9.330688;0.7256317;-1.5483704;-;-;-;-;-;-;-;-;-;-;-;-;-;-;-
1514098827244;-;-;9.187042;0.7591553;-1.3963318;-;-;-;-;-;-;-;-;-;-;-;-;-;-;-
1514098827264;-;-;9.43364;0.21208191;-1.3245087;-;-;-;-;-;-;-;-;-;-;-;-;-;-;-
1514098827284;-;-;9.4096985;0.20968628;-1.3855591;-;-;-;-;-;-;-;-;-;-;-;-;-;-;-
1514098827304;-;-;9.012268;0.58317566;-1.3005676;-;-;-;-;-;-;-;-;-;-;-;-;-;-;-
1514098827325;-;-;9.123596;0.6131134;-1.3113403;-;-;-;-;-;-;-;-;-;-;-;-;-;-;-
1514098827345;-;-;8.951218;0.576004;-1.4549866;-;-;-;-;-;-;-;-;-;-;-;-;-;-;-
1514098827365;-;-;8.702209;0.49339294;-1.5435791;-;-;-;-;-;-;-;-;-;-;-;-;-;-;-
1514098827386;-;-;8.423294;0.61190796;-1.6800537;-;-;-;-;-;-;-;-;-;-;-;-;-;-;-
1514098827406;-;-;8.056976;0.49938965;-1.9338379;-;-;-;-;-;-;-;-;-;-;-;-;-;-;-
1514098827426;-;-;7.6763;0.2240448;-2.1385345;-;-;-;-;-;-;-;-;-;-;-;-;-;-;-
1514098827447;-;-;7.2657013;0.17497253;-2.1145935;-;-;-;-;-;-;-;-;-;-;-;-;-;-;-
1514098827467;-;-;6.778473;0.33776855;-2.215149;-;-;-;-;-;-;-;-;-;-;-;-;-;-;-
1514098827487;-;-;6.987961;0.36650085;-2.9920654;-;-;-;-;-;-;-;-;-;-;-;-;-;-;-
1514098827508;-;-;5.8710785;0.55085754;-2.780182;-;-;-;-;-;-;-;-;-;-;-;-;-;-;-
1514098827528;-;-;5.528702;0.36291504;-2.3169098;-;-;-;-;-;-;-;-;-;-;-;-;-;-;-
1514098827549;-;-;6.0374756;-0.062057495;-2.0798798;-;-;-;-;-;-;-;-;-;-;-;-;-;-;-
1514098827569;-;-;5.656784;0.5053711;-2.3552094;-;-;-;-;-;-;-;-;-;-;-;-;-;-;-
1514098827589;-;-;5.4413147;0.6023407;-2.7502594;-;-;-;-;-;-;-;-;-;-;-;-;-;-;-
1514098827610;-;-;5.569397;0.50297546;-3.2326813;-;-;-;-;-;-;-;-;-;-;-;-;-;-;-
1514098827630;-;-;5.739395;0.4479065;-3.6277313;-;-;-;-;-;-;-;-;-;-;-;-;-;-;-
1514098827650;-;-;5.684326;0.5520477;-4.53154;-;-;-;-;-;-;-;-;-;-;-;-;-;-;-
1514098827671;-;-;6.5833435;0.42277527;-3.3284607;-;-;-;-;-;-;-;-;-;-;-;-;-;-;-
1514098827690;-;-;8.898544;-0.27633667;-3.2099457;-;-;-;-;-;-;-;-;-;-;-;-;-;-;-
1514098827710;-;-;8.551376;-0.00340271;-4.401062;-;-;-;-;-;-;-;-;-;-;-;-;-;-;-
1514098827731;-;-;8.004303;0.48262024;-4.4273987;-;-;-;-;-;-;-;-;-;-;-;-;-;-;-
1514098827751;-;-;7.997116;0.5245209;-3.473297;-;-;-;-;-;-;-;-;-;-;-;-;-;-;-
1514098827771;-;-;7.825943;0.08279419;-4.085022;-;-;-;-;-;-;-;-;-;-;-;-;-;-;-
1514098827791;-;-;9.023041;-0.8868561;-5.029541;-;-;-;-;-;-;-;-;-;-;-;-;-;-;-
1514098827812;-;-;10.327881;-1.4099884;-5.874695;-;-;-;-;-;-;-;-;-;-;-;-;-;-;-
1514098827832;-;-;10.661865;0.52093506;-5.575409;-;-;-;-;-;-;-;-;-;-;-;-;-;-;-
1514098827852;-;-;10.997055;-0.16619873;-5.590973;-;-;-;-;-;-;-;-;-;-;-;-;-;-;-
1514098827873;-;-;9.372589;0.38446045;-5.2653656;-;-;-;-;-;-;-;-;-;-;-;-;-;-;-
1514098827893;-;-;8.972763;0.24559021;-4.714691;-;-;-;-;-;-;-;-;-;-;-;-;-;-;-
1514098827913;-;-;9.146347;-0.023742676;-4.9996033;-;-;-;-;-;-;-;-;-;-;-;-;-;-;-
1514098827934;-;-;8.843475;-0.21409607;-5.255783;-;-;-;-;-;-;-;-;-;-;-;-;-;-;-
1514098827954;-;-;8.769257;0.112716675;-4.6524506;-;-;-;-;-;-;-;-;-;-;-;-;-;-;-
1514098827974;-;-;9.15712;0.44432068;-4.4118347;-;-;-;-;-;-;-;-;-;-;-;-;-;-;-
1514098827994;-;-;8.709396;0.65141296;-4.650055;-;-;-;-;-;-;-;-;-;-;-;-;-;-;-
1514098828015;-;-;8.862625;0.28271484;-5.1731873;-;-;-;-;-;-;-;-;-;-;-;-;-;-;-
1514098828035;-;-;9.369003;0.20489502;-5.10495;-;-;-;-;-;-;-;-;-;-;-;-;-;-;-
1514098828055;-;-;9.301956;0.48262024;-4.3328247;-;-;-;-;-;-;-;-;-;-;-;-;-;-;-
1514098828076;-;-;8.717773;0.5819855;-4.606964;-;-;-;-;-;-;-;-;-;-;-;-;-;-;-
1514098828096;-;-;8.26886;0.13067627;-4.7027283;-;-;-;-;-;-;-;-;-;-;-;-;-;-;-
1514098828116;-;-;8.167114;0.0181427;-3.9126434;-;-;-;-;-;-;-;-;-;-;-;-;-;-;-
1514098828137;-;-;8.122818;-0.17578125;-3.056717;-;-;-;-;-;-;-;-;-;-;-;-;-;-;-
1514098828157;-;-;8.7608795;-0.0010070801;-2.1959991;-;-;-;-;-;-;-;-;-;-;-;-;-;-;-
1514098828177;-;-;9.530609;0.27192688;-1.9769287;-;-;-;-;-;-;-;-;-;-;-;-;-;-;-
1514098828198;-;-;11.089233;0.14025879;-1.3245087;-;-;-;-;-;-;-;-;-;-;-;-;-;-;-
1514098828218;-;-;12.064865;0.122299194;-1.3436584;-;-;-;-;-;-;-;-;-;-;-;-;-;-;-
1514098828238;-;-;11.730881;0.3222046;-1.571106;-;-;-;-;-;-;-;-;-;-;-;-;-;-;-
1514098828258;-;-;13.937134;-0.63905334;-2.045166;-;-;-;-;-;-;-;-;-;-;-;-;-;-;-
1514098828279;-;-;15.077972;-0.6043396;-1.753067;-;-;-;-;-;-;-;-;-;-;-;-;-;-;-
1514098828299;-;-;14.0664215;-0.41760254;-1.188034;-;-;-;-;-;-;-;-;-;-;-;-;-;-;-
1514098828319;-;-;12.076843;-0.6510315;-1.7913818;-;-;-;-;-;-;-;-;-;-;-;-;-;-;-
1514098828339;-;-;9.658707;-0.2775421;-0.020858765;-;-;-;-;-;-;-;-;-;-;-;-;-;-;-
1514098828359;-;-;7.5685577;0.9506836;1.5569153;-;-;-;-;-;-;-;-;-;-;-;-;-;-;-
1514098828380;-;-;8.179077;0.3892517;1.1187744;-;-;-;-;-;-;-;-;-;-;-;-;-;-;-
1514098828400;-;-;6.6551666;0.20489502;1.4874878;-;-;-;-;-;-;-;-;-;-;-;-;-;-;-
1514098828420;-;-;5.9788055;0.12828064;2.1985626;-;-;-;-;-;-;-;-;-;-;-;-;-;-;-
1514098828440;-;-;6.5785522;1.070404;1.1415253;-;-;-;-;-;-;-;-;-;-;-;-;-;-;-
1514098828461;-;-;6.1272583;0.20848083;0.1251831;-;-;-;-;-;-;-;-;-;-;-;-;-;-;-
1514098828481;-;-;9.284012;-0.9072113;0.22215271;-;-;-;-;-;-;-;-;-;-;-;-;-;-;-
1514098828501;-;-;11.155075;-0.52893066;0.26763916;-;-;-;-;-;-;-;-;-;-;-;-;-;-;-
1514098828522;-;-;11.25444;0.08758545;-0.099868774;-;-;-;-;-;-;-;-;-;-;-;-;-;-;-
1514098828542;-;-;10.806717;0.5819855;-0.38957214;-;-;-;-;-;-;-;-;-;-;-;-;-;-;-
1514098828562;-;-;10.104019;0.9099884;-0.5068817;-;-;-;-;-;-;-;-;-;-;-;-;-;-;-
1514098828583;-;-;9.96994;0.3904419;1.0924377;-;-;-;-;-;-;-;-;-;-;-;-;-;-;-
1514098828603;-;-;8.874603;-0.36732483;0.36698914;-;-;-;-;-;-;-;-;-;-;-;-;-;-;-
1514098828623;-;-;8.657928;-0.40682983;-0.2686615;-;-;-;-;-;-;-;-;-;-;-;-;-;-;-
1514098828643;-;-;9.87059;-1.5249176;-0.29260254;-;-;-;-;-;-;-;-;-;-;-;-;-;-;-
1514098828664;-;-;8.516663;-2.1976929;0.5740967;-;-;-;-;-;-;-;-;-;-;-;-;-;-;-
1514098828683;-;-;8.405334;-1.5440674;1.4024811;-;-;-;-;-;-;-;-;-;-;-;-;-;-;-
1514098828703;-;-;7.659546;-0.5097656;1.2827759;-;-;-;-;-;-;-;-;-;-;-;-;-;-;-
1514098828724;-;-;8.499908;-0.06324768;1.1463013;-;-;-;-;-;-;-;-;-;-;-;-;-;-;-
1514098828743;-;-;9.323517;-0.9371338;0.41368103;-;-;-;-;-;-;-;-;-;-;-;-;-;-;-
1514098828763;-;-;10.71814;-0.92037964;0.84584045;-;-;-;-;-;-;-;-;-;-;-;-;-;-;-
1514098828784;-;-;6.4839935;-0.13508606;-1.1317749;-;-;-;-;-;-;-;-;-;-;-;-;-;-;-
1514098828804;-;-;13.659409;-0.83299255;-0.90312195;-;-;-;-;-;-;-;-;-;-;-;-;-;-;-
1514098828824;-;-;16.774261;0.3964386;7.3341217;-;-;-;-;-;-;-;-;-;-;-;-;-;-;-
1514098828844;-;-;10.789963;1.0656128;9.842056;-;-;-;-;-;-;-;-;-;-;-;-;-;-;-
1514098828865;-;-;3.1787872;-0.117126465;-5.819626;-;-;-;-;-;-;-;-;-;-;-;-;-;-;-
1514098828885;-;-;8.778824;-1.3621063;1.373764;-;-;-;-;-;-;-;-;-;-;-;-;-;-;-
1514098828905;-;-;10.229721;-1.1562042;1.3091125;-;-;-;-;-;-;-;-;-;-;-;-;-;-;-
1514098828926;-;-;8.639969;-0.33140564;-0.083114624;-;-;-;-;-;-;-;-;-;-;-;-;-;-;-
1514098828946;-;-;9.148727;0.4658661;0.3023529;-;-;-;-;-;-;-;-;-;-;-;-;-;-;-
1514098828967;-;-;8.477158;-0.5205536;1.5413513;-;-;-;-;-;-;-;-;-;-;-;-;-;-;-
1514098828987;-;-;8.650742;1.1075134;0.14553833;-;-;-;-;-;-;-;-;-;-;-;-;-;-;-
1514098829007;-;-;9.914871;0.23362732;0.96673584;-;-;-;-;-;-;-;-;-;-;-;-;-;-;-
1514098829027;-;-;9.716156;0.27671814;0.74168396;-;-;-;-;-;-;-;-;-;-;-;-;-;-;-
1514098829048;-;-;9.552155;0.25398254;0.37417603;-;-;-;-;-;-;-;-;-;-;-;-;-;-;-
1514098829068;-;-;9.469559;-0.03691101;0.27720642;-;-;-;-;-;-;-;-;-;-;-;-;-;-;-
1514098829088;-;-;9.329498;-0.10874939;0.096450806;-;-;-;-;-;-;-;-;-;-;-;-;-;-;-
1514098829108;-;-;9.299576;-0.13748169;-0.12860107;-;-;-;-;-;-;-;-;-;-;-;-;-;-;-
1514098829129;-;-;9.210983;-0.100372314;-0.2902069;-;-;-;-;-;-;-;-;-;-;-;-;-;-;-
1514098829149;-;-;9.406113;0.01574707;-0.06036377;-;-;-;-;-;-;-;-;-;-;-;-;-;-;-
1514098829169;-;-;9.649124;0.19891357;0.39093018;-;-;-;-;-;-;-;-;-;-;-;-;-;-;-
1514098829189;-;-;9.294785;0.27792358;0.55374146;-;-;-;-;-;-;-;-;-;-;-;-;-;-;-
1514098829210;-;-;8.934448;0.050476074;0.5944519;-;-;-;-;-;-;-;-;-;-;-;-;-;-;-
1514098829229;-;-;9.269638;0.22285461;0.6746521;-;-;-;-;-;-;-;-;-;-;-;-;-;-;-
1514098829249;-;-;8.811157;0.05645752;0.67225647;-;-;-;-;-;-;-;-;-;-;-;-;-;-;-
1514098829270;-;-;9.337875;0.086380005;0.54177856;-;-;-;-;-;-;-;-;-;-;-;-;-;-;-
1514098829290;-;-;8.782425;-0.20570374;0.78718567;-;-;-;-;-;-;-;-;-;-;-;-;-;-;-
1514098829310;-;-;9.786789;-0.6929321;0.7069702;-;-;-;-;-;-;-;-;-;-;-;-;-;-;-
1514098829331;-;-;8.97995;-0.48703003;0.32629395;-;-;-;-;-;-;-;-;-;-;-;-;-;-;-
1514098829351;-;-;9.564133;-0.23085022;0.46754456;-;-;-;-;-;-;-;-;-;-;-;-;-;-;-
1514098829371;-;-;9.074509;-0.015365601;1.002655;-;-;-;-;-;-;-;-;-;-;-;-;-;-;-
1514098829392;-;-;9.015854;-0.16500854;0.66867065;-;-;-;-;-;-;-;-;-;-;-;-;-;-;-
1514098829411;-;-;9.330688;-0.36253357;0.60043335;-;-;-;-;-;-;-;-;-;-;-;-;-;-;-
1514098829431;-;-;8.857834;-0.40802002;0.56451416;-;-;-;-;-;-;-;-;-;-;-;-;-;-;-
1514098829451;-;-;9.336685;-0.32182312;0.54296875;-;-;-;-;-;-;-;-;-;-;-;-;-;-;-
1514098829472;-;-;9.23732;-0.4163971;0.78118896;-;-;-;-;-;-;-;-;-;-;-;-;-;-;-
1514098829492;-;-;9.476746;-0.6989136;0.54655457;-;-;-;-;-;-;-;-;-;-;-;-;-;-;-
1514098829512;-;-;9.194229;-0.6618042;0.44360352;-;-;-;-;-;-;-;-;-;-;-;-;-;-;-
1514098829533;-;-;9.260071;-0.5049896;0.71655273;-;-;-;-;-;-;-;-;-;-;-;-;-;-;-
1514098829552;-;-;9.130783;-0.2715454;0.6602783;-;-;-;-;-;-;-;-;-;-;-;-;-;-;-
1514098829572;-;-;8.769257;-0.15184021;0.7859802;-;-;-;-;-;-;-;-;-;-;-;-;-;-;-
1514098829592;-;-;8.833893;-0.36732483;0.7536621;-;-;-;-;-;-;-;-;-;-;-;-;-;-;-
1514098829613;-;-;9.102051;-0.3194275;0.6842346;-;-;-;-;-;-;-;-;-;-;-;-;-;-;-
1514098829633;-;-;9.062546;-0.18296814;0.8661804;-;-;-;-;-;-;-;-;-;-;-;-;-;-;-
1514098829653;-;-;9.13916;-0.2212677;0.8985138;-;-;-;-;-;-;-;-;-;-;-;-;-;-;-
1514098829674;-;-;8.990723;-0.41999817;0.65789795;-;-;-;-;-;-;-;-;-;-;-;-;-;-;-
1514098829694;-;-;8.813553;-0.5145569;0.7943573;-;-;-;-;-;-;-;-;-;-;-;-;-;-;-
1514098829714;-;-;8.997894;-0.4846344;0.6997833;-;-;-;-;-;-;-;-;-;-;-;-;-;-;-
1514098829734;-;-;9.111618;-0.7563782;0.89730835;-;-;-;-;-;-;-;-;-;-;-;-;-;-;-
1514098829755;-;-;9.764038;-0.6869507;0.72013855;-;-;-;-;-;-;-;-;-;-;-;-;-;-;-
1514098829775;-;-;9.300766;-0.13269043;0.46875;-;-;-;-;-;-;-;-;-;-;-;-;-;-;-
1514098829795;-;-;8.869812;0.26235962;0.6782379;-;-;-;-;-;-;-;-;-;-;-;-;-;-;-
1514098829816;-;-;8.733337;-0.052474976;0.9894867;-;-;-;-;-;-;-;-;-;-;-;-;-;-;-
1514098829835;-;-;8.8602295;-0.76475525;0.50346375;-;-;-;-;-;-;-;-;-;-;-;-;-;-;-
1514098829855;-;-;9.0972595;-1.3716888;0.19102478;-;-;-;-;-;-;-;-;-;-;-;-;-;-;-
1514098829876;-;-;9.5677185;-1.2603607;-0.049591064;-;-;-;-;-;-;-;-;-;-;-;-;-;-;-
1514098829896;-;-;9.817917;-0.71447754;0.0138549805;-;-;-;-;-;-;-;-;-;-;-;-;-;-;-
1514098829916;-;-;9.993881;-0.28231812;-0.19325256;-;-;-;-;-;-;-;-;-;-;-;-;-;-;-
1514098829937;-;-;9.874176;-0.050079346;-0.075927734;-;-;-;-;-;-;-;-;-;-;-;-;-;-;-
1514098829957;-;-;9.497086;1.9836426E-4;0.027023315;-;-;-;-;-;-;-;-;-;-;-;-;-;-;-
1514098829977;-;-;9.151123;-0.021362305;0.2053833;-;-;-;-;-;-;-;-;-;-;-;-;-;-;-
1514098829997;-;-;8.782425;-0.090789795;0.42684937;-;-;-;-;-;-;-;-;-;-;-;-;-;-;-
1514098830018;-;-;8.715378;-0.15663147;0.5381775;-;-;-;-;-;-;-;-;-;-;-;-;-;-;-
1514098830038;-;-;8.957199;-0.30986023;0.30714417;-;-;-;-;-;-;-;-;-;-;-;-;-;-;-
1514098830058;-;-;9.220566;-0.33259583;0.18144226;-;-;-;-;-;-;-;-;-;-;-;-;-;-;-
1514098830079;-;-;9.357025;-0.39604187;0.091659546;-;-;-;-;-;-;-;-;-;-;-;-;-;-;-
1514098830099;-;-;9.379776;-0.54689026;0.15510559;-;-;-;-;-;-;-;-;-;-;-;-;-;-;-
1514098830119;-;-;9.406113;-0.6522217;0.19821167;-;-;-;-;-;-;-;-;-;-;-;-;-;-;-
1514098830140;-;-;9.39534;-0.5456848;0.12876892;-;-;-;-;-;-;-;-;-;-;-;-;-;-;-
1514098830160;-;-;9.346252;-0.3433838;0.16947937;-;-;-;-;-;-;-;-;-;-;-;-;-;-;-
1514098830180;-;-;9.280411;-0.210495;0.26643372;-;-;-;-;-;-;-;-;-;-;-;-;-;-;-
1514098830201;-;-;9.214569;-0.24641418;0.39453125;-;-;-;-;-;-;-;-;-;-;-;-;-;-;-
1514098830220;-;-;9.172684;-0.32421875;0.49150085;-;-;-;-;-;-;-;-;-;-;-;-;-;-;-
1514098830240;-;-;9.197815;-0.4092102;0.57170105;-;-;-;-;-;-;-;-;-;-;-;-;-;-;-
1514098830260;-;-;9.149933;-0.38287354;0.6064148;-;-;-;-;-;-;-;-;-;-;-;-;-;-;-
1514098830281;-;-;9.050568;-0.31584167;0.6961975;-;-;-;-;-;-;-;-;-;-;-;-;-;-;-
1514098830301;-;-;9.136765;-0.3086548;0.760849;-;-;-;-;-;-;-;-;-;-;-;-;-;-;-
1514098830321;-;-;9.284012;-0.39126587;0.69021606;-;-;-;-;-;-;-;-;-;-;-;-;-;-;-
1514098830342;-;-;9.289993;-0.41041565;0.61239624;-;-;-;-;-;-;-;-;-;-;-;-;-;-;-
1514098830363;-;-;9.172684;-0.36611938;0.6351471;-;-;-;-;-;-;-;-;-;-;-;-;-;-;-
1514098830382;-;-;9.151123;-0.3074646;0.65789795;-;-;-;-;-;-;-;-;-;-;-;-;-;-;-
1514098830403;-;-;9.257675;-0.20451355;0.55374146;-;-;-;-;-;-;-;-;-;-;-;-;-;-;-
1514098830423;-;-;9.339081;-0.22605896;0.49987793;-;-;-;-;-;-;-;-;-;-;-;-;-;-;-
1514098830443;-;-;9.239716;-0.24520874;0.44360352;-;-;-;-;-;-;-;-;-;-;-;-;-;-;-
1514098830464;-;-;9.06134;-0.29190063;0.29637146;-;-;-;-;-;-;-;-;-;-;-;-;-;-;-
1514098830484;-;-;8.950012;-0.2320404;0.4974823;-;-;-;-;-;-;-;-;-;-;-;-;-;-;-
1514098830504;-;-;8.9787445;-0.16142273;0.5274048;-;-;-;-;-;-;-;-;-;-;-;-;-;-;-
1514098830524;-;-;9.214569;-0.117126465;0.5597229;-;-;-;-;-;-;-;-;-;-;-;-;-;-;-
1514098830544;-;-;9.410904;-0.25120544;0.5764923;-;-;-;-;-;-;-;-;-;-;-;-;-;-;-
1514098830565;-;-;9.653915;-0.36372375;0.61839294;-;-;-;-;-;-;-;-;-;-;-;-;-;-;-
1514098830585;-;-;9.527023;-0.38287354;0.72372437;-;-;-;-;-;-;-;-;-;-;-;-;-;-;-
1514098830605;-;-;9.300766;-0.24401855;0.8254852;-;-;-;-;-;-;-;-;-;-;-;-;-;-;-
1514098830626;-;-;9.085281;-0.114730835;0.7799988;-;-;-;-;-;-;-;-;-;-;-;-;-;-;-
1514098830645;-;-;8.959595;-0.12669373;0.75245667;-;-;-;-;-;-;-;-;-;-;-;-;-;-;-
1514098830665;-;-;8.965576;-0.08241272;0.7153473;-;-;-;-;-;-;-;-;-;-;-;-;-;-;-
1514098830685;-;-;8.966782;-0.083602905;0.6746521;-;-;-;-;-;-;-;-;-;-;-;-;-;-;-
1514098830705;-;-;8.994308;-0.045303345;0.6159973;-;-;-;-;-;-;-;-;-;-;-;-;-;-;-
1514098830726;-;-;9.037399;-0.045303345;0.6243744;-;-;-;-;-;-;-;-;-;-;-;-;-;-;-
1514098830746;-;-;9.118805;-0.0728302;0.62916565;-;-;-;-;-;-;-;-;-;-;-;-;-;-;-
1514098830766;-;-;9.249298;-0.13388062;0.54296875;-;-;-;-;-;-;-;-;-;-;-;-;-;-;-
1514098830786;-;-;9.328293;-0.23324585;0.40888977;-;-;-;-;-;-;-;-;-;-;-;-;-;-;-
1514098830807;-;-;9.367798;-0.27633667;0.43403625;-;-;-;-;-;-;-;-;-;-;-;-;-;-;-
1514098830827;-;-;9.352234;-0.2607727;0.58966064;-;-;-;-;-;-;-;-;-;-;-;-;-;-;-
1514098830847;-;-;9.2756195;-0.28112793;0.69740295;-;-;-;-;-;-;-;-;-;-;-;-;-;-;-
1514098830867;-;-;9.2756195;-0.39964294;0.6830292;-;-;-;-;-;-;-;-;-;-;-;-;-;-;-
1514098830888;-;-;9.3103485;-0.62709045;0.7620392;-;-;-;-;-;-;-;-;-;-;-;-;-;-;-
1514098830908;-;-;9.23732;-0.72406006;0.86499023;-;-;-;-;-;-;-;-;-;-;-;-;-;-;-
1514098830929;-;-;9.109222;-0.6641998;1.0098419;-;-;-;-;-;-;-;-;-;-;-;-;-;-;-
1514098830949;-;-;8.833893;-0.37091064;0.8697815;-;-;-;-;-;-;-;-;-;-;-;-;-;-;-
1514098830969;-;-;8.927277;-0.4918213;0.7620392;-;-;-;-;-;-;-;-;-;-;-;-;-;-;-
1514098830989;-;-;8.722565;-0.7491913;0.63035583;-;-;-;-;-;-;-;-;-;-;-;-;-;-;-
1514098831009;-;-;8.991913;-0.7803192;0.81710815;-;-;-;-;-;-;-;-;-;-;-;-;-;-;-
1514098831030;-;-;9.640747;-0.47265625;0.21138;-;-;-;-;-;-;-;-;-;-;-;-;-;-;-
1514098831049;-;-;10.245285;-0.29309082;-0.25909424;-;-;-;-;-;-;-;-;-;-;-;-;-;-;-
1514098831069;-;-;10.344635;-0.36013794;-0.41111755;-;-;-;-;-;-;-;-;-;-;-;-;-;-;-
1514098831089;-;-;9.476746;-0.6330719;-0.5571594;-;-;-;-;-;-;-;-;-;-;-;-;-;-;-
1514098831110;-;-;8.859039;-0.09437561;0.23052979;-;-;-;-;-;-;-;-;-;-;-;-;-;-;-
1514098831130;-;-;8.461594;0.5185394;0.84703064;-;-;-;-;-;-;-;-;-;-;-;-;-;-;-
1514098831150;-;-;8.489136;0.35812378;0.62316895;-;-;-;-;-;-;-;-;-;-;-;-;-;-;-
1514098831171;-;-;8.780029;-0.076416016;0.42086792;-;-;-;-;-;-;-;-;-;-;-;-;-;-;-
1514098831191;-;-;9.075714;-0.33380127;0.7045746;-;-;-;-;-;-;-;-;-;-;-;-;-;-;-
1514098831211;-;-;8.759674;-0.093185425;1.0649109;-;-;-;-;-;-;-;-;-;-;-;-;-;-;-
1514098831232;-;-;9.058945;-0.0728302;1.1989746;-;-;-;-;-;-;-;-;-;-;-;-;-;-;-
1514098831252;-;-;9.7017975;-0.36611938;0.70217896;-;-;-;-;-;-;-;-;-;-;-;-;-;-;-
1514098831272;-;-;9.962769;-0.7875061;0.15151978;-;-;-;-;-;-;-;-;-;-;-;-;-;-;-
1514098831293;-;-;9.281616;-0.9431305;0.122787476;-;-;-;-;-;-;-;-;-;-;-;-;-;-;-
1514098831313;-;-;8.600464;-0.5792084;0.4100952;-;-;-;-;-;-;-;-;-;-;-;-;-;-;-
1514098831334;-;-;8.574127;-0.0105896;0.5657196;-;-;-;-;-;-;-;-;-;-;-;-;-;-;-
1514098831354;-;-;8.917694;0.75556946;0.24609375;-;-;-;-;-;-;-;-;-;-;-;-;-;-;-
1514098831374;-;-;9.282806;0.9961853;-0.047195435;-;-;-;-;-;-;-;-;-;-;-;-;-;-;-
1514098831394;-;-;9.644333;0.81422424;-0.2507019;-;-;-;-;-;-;-;-;-;-;-;-;-;-;-
1514098831415;-;-;9.667084;0.28630066;-0.0914917;-;-;-;-;-;-;-;-;-;-;-;-;-;-;-
1514098831435;-;-;9.513855;0.07321167;0.16468811;-;-;-;-;-;-;-;-;-;-;-;-;-;-;-
1514098831455;-;-;9.41449;0.072021484;0.21975708;-;-;-;-;-;-;-;-;-;-;-;-;-;-;-
1514098831476;-;-;9.239716;0.16778564;0.3035431;-;-;-;-;-;-;-;-;-;-;-;-;-;-;-
1514098831496;-;-;9.09845;0.2132721;0.33706665;-;-;-;-;-;-;-;-;-;-;-;-;-;-;-
1514098831516;-;-;8.954803;0.24679565;0.37538147;-;-;-;-;-;-;-;-;-;-;-;-;-;-;-
1514098831537;-;-;8.960785;0.36650085;0.46635437;-;-;-;-;-;-;-;-;-;-;-;-;-;-;-
1514098831557;-;-;9.030228;0.33657837;0.38375854;-;-;-;-;-;-;-;-;-;-;-;-;-;-;-
1514098831578;-;-;9.151123;0.27192688;0.24130249;-;-;-;-;-;-;-;-;-;-;-;-;-;-;-
1514098831598;-;-;9.284012;0.115112305;0.23052979;-;-;-;-;-;-;-;-;-;-;-;-;-;-;-
1514098831618;-;-;9.336685;-0.050079346;0.30474854;-;-;-;-;-;-;-;-;-;-;-;-;-;-;-
1514098831639;-;-;9.286407;-0.1697998;0.36579895;-;-;-;-;-;-;-;-;-;-;-;-;-;-;-
1514098831659;-;-;9.203796;-0.17936707;0.39453125;-;-;-;-;-;-;-;-;-;-;-;-;-;-;-
1514098831679;-;-;9.149933;-0.15663147;0.41249084;-;-;-;-;-;-;-;-;-;-;-;-;-;-;-
1514098831699;-;-;9.141556;-0.090789795;0.45916748;-;-;-;-;-;-;-;-;-;-;-;-;-;-;-
1514098831719;-;-;9.1918335;-0.1015625;0.43403625;-;-;-;-;-;-;-;-;-;-;-;-;-;-;-
1514098831740;-;-;9.21817;-0.16381836;0.44360352;-;-;-;-;-;-;-;-;-;-;-;-;-;-;-
1514098831760;-;-;9.210983;-0.17338562;0.4328308;-;-;-;-;-;-;-;-;-;-;-;-;-;-;-
1514098831780;-;-;9.301956;-0.21647644;0.39692688;-;-;-;-;-;-;-;-;-;-;-;-;-;-;-
1514098831801;-;-;9.351044;-0.22964478;0.31072998;-;-;-;-;-;-;-;-;-;-;-;-;-;-;-
1514098831820;-;-;9.288788;-0.210495;0.24967957;-;-;-;-;-;-;-;-;-;-;-;-;-;-;-
1514098831840;-;-;9.129578;-0.19972229;0.27122498;-;-;-;-;-;-;-;-;-;-;-;-;-;-;-
1514098831861;-;-;9.054169;-0.17936707;0.31552124;-;-;-;-;-;-;-;-;-;-;-;-;-;-;-
1514098831881;-;-;9.129578;-0.1697998;0.3035431;-;-;-;-;-;-;-;-;-;-;-;-;-;-;-
1514098831901;-;-;9.220566;-0.1410675;0.2448883;-;-;-;-;-;-;-;-;-;-;-;-;-;-;-
1514098831921;-;-;9.2756195;-0.112335205;0.22813416;-;-;-;-;-;-;-;-;-;-;-;-;-;-;-
1514098831942;-;-;9.328293;-0.08480835;0.20059204;-;-;-;-;-;-;-;-;-;-;-;-;-;-;-
1514098831962;-;-;9.318726;-0.078811646;0.23532104;-;-;-;-;-;-;-;-;-;-;-;-;-;-;-
1514098831982;-;-;9.25528;-0.05368042;0.2341156;-;-;-;-;-;-;-;-;-;-;-;-;-;-;-
1514098832003;-;-;9.188232;-0.035720825;0.2520752;-;-;-;-;-;-;-;-;-;-;-;-;-;-;-
1514098832023;-;-;9.178665;-0.016571045;0.29397583;-;-;-;-;-;-;-;-;-;-;-;-;-;-;-
1514098832043;-;-;9.136765;-0.00819397;0.33587646;-;-;-;-;-;-;-;-;-;-;-;-;-;-;-
1514098832063;-;-;9.130783;0.0037841797;0.3310852;-;-;-;-;-;-;-;-;-;-;-;-;-;-;-
1514098832083;-;-;9.194229;0.0061798096;0.3203125;-;-;-;-;-;-;-;-;-;-;-;-;-;-;-
1514098832104;-;-;9.224152;0.016952515;0.3430481;-;-;-;-;-;-;-;-;-;-;-;-;-;-;-
1514098832124;-;-;9.215775;0.013366699;0.3023529;-;-;-;-;-;-;-;-;-;-;-;-;-;-;-
1514098832144;-;-;9.216965;0.0049743652;0.30474854;-;-;-;-;-;-;-;-;-;-;-;-;-;-;-
1514098832165;-;-;9.153519;0.03251648;0.3418579;-;-;-;-;-;-;-;-;-;-;-;-;-;-;-
1514098832185;-;-;9.185837;0.010971069;0.32868958;-;-;-;-;-;-;-;-;-;-;-;-;-;-;-
1514098832205;-;-;9.165497;0.02532959;0.3095398;-;-;-;-;-;-;-;-;-;-;-;-;-;-;-
1514098832226;-;-;9.175064;0.0025787354;0.25447083;-;-;-;-;-;-;-;-;-;-;-;-;-;-;-
1514098832246;-;-;9.263657;0.04208374;0.22573853;-;-;-;-;-;-;-;-;-;-;-;-;-;-;-
1514098832266;-;-;9.221756;0.050476074;0.26882935;-;-;-;-;-;-;-;-;-;-;-;-;-;-;-
1514098832286;-;-;9.17746;0.091171265;0.27841187;-;-;-;-;-;-;-;-;-;-;-;-;-;-;-
1514098832307;-;-;9.266052;0.09475708;0.27243042;-;-;-;-;-;-;-;-;-;-;-;-;-;-;-
1514098832326;-;-;9.278015;0.103149414;0.2628479;-;-;-;-;-;-;-;-;-;-;-;-;-;-;-
1514098832346;-;-;9.23732;0.067230225;0.25326538;-;-;-;-;-;-;-;-;-;-;-;-;-;-;-
1514098832367;-;-;9.190628;0.028915405;0.26524353;-;-;-;-;-;-;-;-;-;-;-;-;-;-;-
1514098832387;-;-;9.15831;-0.064453125;0.3598175;-;-;-;-;-;-;-;-;-;-;-;-;-;-;-
1514098832407;-;-;9.153519;-0.04649353;0.4112854;-;-;-;-;-;-;-;-;-;-;-;-;-;-;-
1514098832427;-;-;9.136765;0.016952515;0.3789673;-;-;-;-;-;-;-;-;-;-;-;-;-;-;-
1514098832448;-;-;9.172684;0.0049743652;0.33467102;-;-;-;-;-;-;-;-;-;-;-;-;-;-;-
1514098832468;-;-;9.141556;0.03251648;0.34544373;-;-;-;-;-;-;-;-;-;-;-;-;-;-;-
1514098832488;-;-;9.199005;-0.0010070801;0.4005127;-;-;-;-;-;-;-;-;-;-;-;-;-;-;-
1514098832509;-;-;9.222961;-0.03691101;0.36698914;-;-;-;-;-;-;-;-;-;-;-;-;-;-;-
1514098832529;-;-;9.267242;-0.02255249;0.41368103;-;-;-;-;-;-;-;-;-;-;-;-;-;-;-
1514098832549;-;-;9.230133;-0.0105896;0.37538147;-;-;-;-;-;-;-;-;-;-;-;-;-;-;-
1514098832570;-;-;9.215775;-0.0069885254;0.38015747;-;-;-;-;-;-;-;-;-;-;-;-;-;-;-
1514098832590;-;-;9.178665;0.0181427;0.33587646;-;-;-;-;-;-;-;-;-;-;-;-;-;-;-
1514098832610;-;-;9.084091;0.06602478;0.3598175;-;-;-;-;-;-;-;-;-;-;-;-;-;-;-
1514098832630;-;-;9.149933;0.036102295;0.36579895;-;-;-;-;-;-;-;-;-;-;-;-;-;-;-
1514098832651;-;-;9.21817;0.04208374;0.38375854;-;-;-;-;-;-;-;-;-;-;-;-;-;-;-
1514098832671;-;-;9.233734;-0.05368042;0.41488647;-;-;-;-;-;-;-;-;-;-;-;-;-;-;-
1514098832692;-;-;9.194229;-0.07522583;0.43762207;-;-;-;-;-;-;-;-;-;-;-;-;-;-;-
1514098832712;-;-;9.169083;-0.097976685;0.49150085;-;-;-;-;-;-;-;-;-;-;-;-;-;-;-
1514098832732;-;-;9.137955;-0.028533936;0.51065063;-;-;-;-;-;-;-;-;-;-;-;-;-;-;-
1514098832752;-;-;9.149933;-0.011779785;0.51065063;-;-;-;-;-;-;-;-;-;-;-;-;-;-;-
1514098832773;-;-;9.154724;0.02053833;0.45558167;-;-;-;-;-;-;-;-;-;-;-;-;-;-;-
1514098832793;-;-;9.189438;0.016952515;0.5046692;-;-;-;-;-;-;-;-;-;-;-;-;-;-;-
1514098832813;-;-;9.224152;-0.052474976;0.5094452;-;-;-;-;-;-;-;-;-;-;-;-;-;-;-
1514098832834;-;-;9.201401;-0.04649353;0.5058594;-;-;-;-;-;-;-;-;-;-;-;-;-;-;-
1514098832854;-;-;9.154724;-0.06324768;0.5298004;-;-;-;-;-;-;-;-;-;-;-;-;-;-;-
1514098832874;-;-;9.155914;-0.030929565;0.5166321;-;-;-;-;-;-;-;-;-;-;-;-;-;-;-
1514098832895;-;-;9.21936;-0.045303345;0.5226135;-;-;-;-;-;-;-;-;-;-;-;-;-;-;-
1514098832915;-;-;9.212173;-0.045303345;0.44839478;-;-;-;-;-;-;-;-;-;-;-;-;-;-;-
1514098832935;-;-;9.146347;-0.050079346;0.5058594;-;-;-;-;-;-;-;-;-;-;-;-;-;-;-
1514098832956;-;-;9.21817;-0.05847168;0.49388123;-;-;-;-;-;-;-;-;-;-;-;-;-;-;-
1514098832975;-;-;9.242111;-0.05607605;0.47354126;-;-;-;-;-;-;-;-;-;-;-;-;-;-;-
1514098832995;-;-;9.203796;-0.071640015;0.49987793;-;-;-;-;-;-;-;-;-;-;-;-;-;-;-
1514098833016;-;-;9.155914;-0.038116455;0.4795227;-;-;-;-;-;-;-;-;-;-;-;-;-;-;-
1514098833036;-;-;9.220566;-0.078811646;0.50227356;-;-;-;-;-;-;-;-;-;-;-;-;-;-;-
1514098833056;-;-;9.206192;-0.097976685;0.5800781;-;-;-;-;-;-;-;-;-;-;-;-;-;-;-
1514098833076;-;-;9.15712;-0.09437561;0.54177856;-;-;-;-;-;-;-;-;-;-;-;-;-;-;-
1514098833097;-;-;9.117615;-0.047698975;0.55374146;-;-;-;-;-;-;-;-;-;-;-;-;-;-;-
1514098833117;-;-;9.181061;-0.13388062;0.51304626;-;-;-;-;-;-;-;-;-;-;-;-;-;-;-
1514098833138;-;-;9.216965;-0.078811646;0.5453644;-;-;-;-;-;-;-;-;-;-;-;-;-;-;-
1514098833158;-;-;9.212173;-0.054870605;0.54776;-;-;-;-;-;-;-;-;-;-;-;-;-;-;-
1514098833178;-;-;9.215775;-0.033325195;0.58966064;-;-;-;-;-;-;-;-;-;-;-;-;-;-;-
1514098833199;-;-;9.203796;-0.05128479;0.58128357;-;-;-;-;-;-;-;-;-;-;-;-;-;-;-
1514098833219;-;-;9.170288;-0.069244385;0.5513458;-;-;-;-;-;-;-;-;-;-;-;-;-;-;-
1514098833240;-;-;9.151123;-0.074035645;0.5298004;-;-;-;-;-;-;-;-;-;-;-;-;-;-;-
1514098833260;-;-;9.166687;-0.069244385;0.52381897;-;-;-;-;-;-;-;-;-;-;-;-;-;-;-
1514098833280;-;-;9.142746;-0.052474976;0.60401917;-;-;-;-;-;-;-;-;-;-;-;-;-;-;-
1514098833301;-;-;9.160706;-0.038116455;0.61479187;-;-;-;-;-;-;-;-;-;-;-;-;-;-;-
1514098833321;-;-;9.17746;-0.05368042;0.5968323;-;-;-;-;-;-;-;-;-;-;-;-;-;-;-
1514098833341;-;-;9.142746;0.0049743652;0.65190125;-;-;-;-;-;-;-;-;-;-;-;-;-;-;-
1514098833361;-;-;9.183456;-0.0069885254;0.6064148;-;-;-;-;-;-;-;-;-;-;-;-;-;-;-
1514098833382;-;-;9.185837;0.02293396;0.58366394;-;-;-;-;-;-;-;-;-;-;-;-;-;-;-
1514098833402;-;-;9.184647;0.014556885;0.60162354;-;-;-;-;-;-;-;-;-;-;-;-;-;-;-
1514098833422;-;-;9.199005;0.03491211;0.5764923;-;-;-;-;-;-;-;-;-;-;-;-;-;-;-
1514098833443;-;-;9.172684;0.014556885;0.59324646;-;-;-;-;-;-;-;-;-;-;-;-;-;-;-
1514098833463;-;-;9.171478;0.0013885498;0.54655457;-;-;-;-;-;-;-;-;-;-;-;-;-;-;-
1514098833483;-;-;9.175064;-0.016571045;0.55374146;-;-;-;-;-;-;-;-;-;-;-;-;-;-;-
1514098833504;-;-;9.169083;-0.012969971;0.52142334;-;-;-;-;-;-;-;-;-;-;-;-;-;-;-
1514098833524;-;-;9.163101;0.01574707;0.5561371;-;-;-;-;-;-;-;-;-;-;-;-;-;-;-
1514098833544;-;-;9.199005;0.0049743652;0.55015564;-;-;-;-;-;-;-;-;-;-;-;-;-;-;-
1514098833565;-;-;9.172684;0.02293396;0.563324;-;-;-;-;-;-;-;-;-;-;-;-;-;-;-
1514098833585;-;-;9.200211;-0.023742676;0.5800781;-;-;-;-;-;-;-;-;-;-;-;-;-;-;-
1514098833605;-;-;9.181061;-0.059661865;0.61239624;-;-;-;-;-;-;-;-;-;-;-;-;-;-;-
1514098833626;-;-;9.226547;-0.040512085;0.6602783;-;-;-;-;-;-;-;-;-;-;-;-;-;-;-
1514098833646;-;-;9.207397;-0.105148315;0.6159973;-;-;-;-;-;-;-;-;-;-;-;-;-;-;-
1514098833666;-;-;9.201401;-0.09437561;0.53100586;-;-;-;-;-;-;-;-;-;-;-;-;-;-;-
1514098833686;-;-;9.130783;-0.078811646;0.58966064;-;-;-;-;-;-;-;-;-;-;-;-;-;-;-
1514098833707;-;-;9.212173;-0.05128479;0.59085083;-;-;-;-;-;-;-;-;-;-;-;-;-;-;-
1514098833727;-;-;9.214569;-0.038116455;0.5740967;-;-;-;-;-;-;-;-;-;-;-;-;-;-;-
1514098833747;-;-;9.155914;0.012161255;0.6064148;-;-;-;-;-;-;-;-;-;-;-;-;-;-;-
1514098833767;-;-;9.165497;0.055252075;0.66148376;-;-;-;-;-;-;-;-;-;-;-;-;-;-;-
1514098833788;-;-;9.137955;0.03970337;0.8254852;-;-;-;-;-;-;-;-;-;-;-;-;-;-;-
1514098833808;-;-;9.080505;0.086380005;0.92245483;-;-;-;-;-;-;-;-;-;-;-;-;-;-;-
1514098833828;-;-;9.023041;0.06364441;0.9751282;-;-;-;-;-;-;-;-;-;-;-;-;-;-;-
1514098833849;-;-;9.17627;-0.018966675;0.8554077;-;-;-;-;-;-;-;-;-;-;-;-;-;-;-
1514098833869;-;-;9.461182;-0.35653687;0.60401917;-;-;-;-;-;-;-;-;-;-;-;-;-;-;-
1514098833889;-;-;9.540192;-0.42956543;0.53100586;-;-;-;-;-;-;-;-;-;-;-;-;-;-;-
1514098833909;-;-;9.268448;-0.20451355;0.5693054;-;-;-;-;-;-;-;-;-;-;-;-;-;-;-
1514098833930;-;-;8.983536;0.07800293;0.6375427;-;-;-;-;-;-;-;-;-;-;-;-;-;-;-
1514098833950;-;-;8.8997345;0.23602295;0.47833252;-;-;-;-;-;-;-;-;-;-;-;-;-;-;-
1514098833970;-;-;8.996704;0.09715271;0.20059204;-;-;-;-;-;-;-;-;-;-;-;-;-;-;-
1514098833991;-;-;9.093674;-0.08958435;0.12757874;-;-;-;-;-;-;-;-;-;-;-;-;-;-;-
1514098834011;-;-;9.118805;-0.19732666;0.2448883;-;-;-;-;-;-;-;-;-;-;-;-;-;-;-
1514098834031;-;-;9.196625;-0.17338562;0.42445374;-;-;-;-;-;-;-;-;-;-;-;-;-;-;-
1514098834052;-;-;9.210983;-0.12310791;0.52142334;-;-;-;-;-;-;-;-;-;-;-;-;-;-;-
1514098834072;-;-;9.261261;-0.112335205;0.6088104;-;-;-;-;-;-;-;-;-;-;-;-;-;-;-
1514098834092;-;-;9.39534;-0.112335205;0.6243744;-;-;-;-;-;-;-;-;-;-;-;-;-;-;-
1514098834113;-;-;9.412094;-0.0728302;0.6088104;-;-;-;-;-;-;-;-;-;-;-;-;-;-;-
1514098834133;-;-;9.325912;0.05885315;0.69859314;-;-;-;-;-;-;-;-;-;-;-;-;-;-;-
1514098834153;-;-;9.175064;0.110321045;0.80513;-;-;-;-;-;-;-;-;-;-;-;-;-;-;-
1514098834174;-;-;9.015854;0.14503479;0.79556274;-;-;-;-;-;-;-;-;-;-;-;-;-;-;-
1514098834193;-;-;9.038605;0.12948608;0.71295166;-;-;-;-;-;-;-;-;-;-;-;-;-;-;-
1514098834213;-;-;9.165497;0.14144897;0.6315613;-;-;-;-;-;-;-;-;-;-;-;-;-;-;-
1514098834233;-;-;9.21817;0.13665771;0.5669098;-;-;-;-;-;-;-;-;-;-;-;-;-;-;-
1514098834254;-;-;9.1918335;0.12588501;0.47833252;-;-;-;-;-;-;-;-;-;-;-;-;-;-;-
1514098834274;-;-;9.141556;0.038497925;0.5118408;-;-;-;-;-;-;-;-;-;-;-;-;-;-;-
1514098834294;-;-;9.148727;-0.018966675;0.6100006;-;-;-;-;-;-;-;-;-;-;-;-;-;-;-
1514098834315;-;-;9.184647;-0.023742676;0.6207886;-;-;-;-;-;-;-;-;-;-;-;-;-;-;-
1514098834335;-;-;9.222961;-0.018966675;0.686615;-;-;-;-;-;-;-;-;-;-;-;-;-;-;-
1514098834355;-;-;9.248093;0.076812744;0.70098877;-;-;-;-;-;-;-;-;-;-;-;-;-;-;-
1514098834375;-;-;9.2313385;0.088775635;0.5764923;-;-;-;-;-;-;-;-;-;-;-;-;-;-;-
1514098834396;-;-;9.224152;0.06364441;0.54776;-;-;-;-;-;-;-;-;-;-;-;-;-;-;-
1514098834416;-;-;9.201401;0.0049743652;0.63394165;-;-;-;-;-;-;-;-;-;-;-;-;-;-;-
1514098834436;-;-;9.216965;-0.069244385;0.63394165;-;-;-;-;-;-;-;-;-;-;-;-;-;-;-
1514098834457;-;-;9.104446;-0.112335205;0.7823944;-;-;-;-;-;-;-;-;-;-;-;-;-;-;-
1514098834477;-;-;8.972763;-0.1697998;0.9212494;-;-;-;-;-;-;-;-;-;-;-;-;-;-;-
1514098834497;-;-;9.1523285;-0.24641418;0.84584045;-;-;-;-;-;-;-;-;-;-;-;-;-;-;-
1514098834518;-;-;9.330688;-0.33380127;0.62197876;-;-;-;-;-;-;-;-;-;-;-;-;-;-;-
1514098834538;-;-;9.359421;-0.27035522;0.58247375;-;-;-;-;-;-;-;-;-;-;-;-;-;-;-
1514098834558;-;-;9.220566;-0.04888916;0.5968323;-;-;-;-;-;-;-;-;-;-;-;-;-;-;-
1514098834579;-;-;9.043396;0.24320984;0.6854248;-;-;-;-;-;-;-;-;-;-;-;-;-;-;-
1514098834599;-;-;8.863831;0.48262024;0.7440796;-;-;-;-;-;-;-;-;-;-;-;-;-;-;-
1514098834619;-;-;8.855438;0.4191742;0.82069397;-;-;-;-;-;-;-;-;-;-;-;-;-;-;-
1514098834640;-;-;9.06134;0.16539001;0.8027344;-;-;-;-;-;-;-;-;-;-;-;-;-;-;-
1514098834660;-;-;9.21936;-0.078811646;0.7763977;-;-;-;-;-;-;-;-;-;-;-;-;-;-;-
1514098834680;-;-;9.318726;-0.32182312;0.78956604;-;-;-;-;-;-;-;-;-;-;-;-;-;-;-
1514098834701;-;-;9.352234;-0.40203857;0.6483154;-;-;-;-;-;-;-;-;-;-;-;-;-;-;-
1514098834721;-;-;9.363022;-0.41400146;0.5453644;-;-;-;-;-;-;-;-;-;-;-;-;-;-;-
1514098834741;-;-;9.221756;-0.2679596;0.5226135;-;-;-;-;-;-;-;-;-;-;-;-;-;-;-
1514098834761;-;-;9.041;-0.09437561;0.65908813;-;-;-;-;-;-;-;-;-;-;-;-;-;-;-
1514098834782;-;-;8.964386;0.046875;0.70098877;-;-;-;-;-;-;-;-;-;-;-;-;-;-;-
1514098834802;-;-;9.063736;0.069625854;0.58128357;-;-;-;-;-;-;-;-;-;-;-;-;-;-;-
1514098834822;-;-;9.188232;-0.009384155;0.45199585;-;-;-;-;-;-;-;-;-;-;-;-;-;-;-
1514098834843;-;-;9.274429;0.0061798096;0.33706665;-;-;-;-;-;-;-;-;-;-;-;-;-;-;-
1514098834863;-;-;9.319916;0.10194397;0.3598175;-;-;-;-;-;-;-;-;-;-;-;-;-;-;-
1514098834883;-;-;9.261261;0.21806335;0.39453125;-;-;-;-;-;-;-;-;-;-;-;-;-;-;-
1514098834904;-;-;9.181061;0.21087646;0.46276855;-;-;-;-;-;-;-;-;-;-;-;-;-;-;-
1514098834924;-;-;9.088882;0.18214417;0.46635437;-;-;-;-;-;-;-;-;-;-;-;-;-;-;-
1514098834944;-;-;9.105637;0.124694824;0.4579773;-;-;-;-;-;-;-;-;-;-;-;-;-;-;-
1514098834965;-;-;9.154724;0.124694824;0.47114563;-;-;-;-;-;-;-;-;-;-;-;-;-;-;-
1514098834985;-;-;9.209793;0.115112305;0.4795227;-;-;-;-;-;-;-;-;-;-;-;-;-;-;-
1514098835005;-;-;9.227737;0.08758545;0.43164063;-;-;-;-;-;-;-;-;-;-;-;-;-;-;-
1514098835025;-;-;9.203796;0.091171265;0.5154419;-;-;-;-;-;-;-;-;-;-;-;-;-;-;-
1514098835046;-;-;9.17746;0.1043396;0.5058594;-;-;-;-;-;-;-;-;-;-;-;-;-;-;-
1514098835065;-;-;9.1918335;0.119903564;0.4867096;-;-;-;-;-;-;-;-;-;-;-;-;-;-;-
1514098835085;-;-;9.179855;0.107925415;0.4986725;-;-;-;-;-;-;-;-;-;-;-;-;-;-;-
1514098835105;-;-;9.175064;0.057647705;0.44241333;-;-;-;-;-;-;-;-;-;-;-;-;-;-;-
1514098835126;-;-;9.189438;-0.012969971;0.30116272;-;-;-;-;-;-;-;-;-;-;-;-;-;-;-
1514098835146;-;-;9.210983;-0.08958435;0.30714417;-;-;-;-;-;-;-;-;-;-;-;-;-;-;-
1514098835166;-;-;9.173874;-0.093185425;0.43762207;-;-;-;-;-;-;-;-;-;-;-;-;-;-;-
1514098835187;-;-;9.151123;-0.081207275;0.57528687;-;-;-;-;-;-;-;-;-;-;-;-;-;-;-
1514098835207;-;-;9.260071;-0.03930664;0.5561371;-;-;-;-;-;-;-;-;-;-;-;-;-;-;-
1514098835227;-;-;9.232529;0.079193115;0.5944519;-;-;-;-;-;-;-;-;-;-;-;-;-;-;-
1514098835247;-;-;9.23732;0.13546753;0.6650696;-;-;-;-;-;-;-;-;-;-;-;-;-;-;-
1514098835268;-;-;9.250488;0.15222168;0.63993835;-;-;-;-;-;-;-;-;-;-;-;-;-;-;-
1514098835287;-;-;9.222961;0.10194397;0.60401917;-;-;-;-;-;-;-;-;-;-;-;-;-;-;-
1514098835307;-;-;9.104446;0.03970337;0.5848694;-;-;-;-;-;-;-;-;-;-;-;-;-;-;-
1514098835328;-;-;9.06134;0.050476074;0.58128357;-;-;-;-;-;-;-;-;-;-;-;-;-;-;-
1514098835347;-;-;9.052963;0.033706665;0.6255646;-;-;-;-;-;-;-;-;-;-;-;-;-;-;-
1514098835368;-;-;9.108032;-0.023742676;0.5860596;-;-;-;-;-;-;-;-;-;-;-;-;-;-;-
1514098835388;-;-;9.199005;-0.11592102;0.508255;-;-;-;-;-;-;-;-;-;-;-;-;-;-;-
1514098835408;-;-;9.289993;-0.1410675;0.4807129;-;-;-;-;-;-;-;-;-;-;-;-;-;-;-
1514098835429;-;-;9.3103485;-0.16500854;0.47114563;-;-;-;-;-;-;-;-;-;-;-;-;-;-;-
1514098835449;-;-;9.250488;-0.1482544;0.46635437;-;-;-;-;-;-;-;-;-;-;-;-;-;-;-
1514098835469;-;-;9.185837;-0.1590271;0.44360352;-;-;-;-;-;-;-;-;-;-;-;-;-;-;-
1514098835489;-;-;9.135559;-0.20092773;0.43522644;-;-;-;-;-;-;-;-;-;-;-;-;-;-;-
1514098835509;-;-;9.142746;-0.16500854;0.48431396;-;-;-;-;-;-;-;-;-;-;-;-;-;-;-
1514098835530;-;-;9.226547;-0.14585876;0.49388123;-;-;-;-;-;-;-;-;-;-;-;-;-;-;-
1514098835549;-;-;9.227737;-0.088394165;0.52500916;-;-;-;-;-;-;-;-;-;-;-;-;-;-;-
1514098835569;-;-;9.244507;-0.021362305;0.5441742;-;-;-;-;-;-;-;-;-;-;-;-;-;-;-
1514098835590;-;-;9.222961;-0.011779785;0.50704956;-;-;-;-;-;-;-;-;-;-;-;-;-;-;-
1514098835610;-;-;9.214569;0.012161255;0.5226135;-;-;-;-;-;-;-;-;-;-;-;-;-;-;-
1514098835630;-;-;9.163101;-0.028533936;0.5405731;-;-;-;-;-;-;-;-;-;-;-;-;-;-;-
1514098835651;-;-;9.136765;-0.035720825;0.56451416;-;-;-;-;-;-;-;-;-;-;-;-;-;-;-
1514098835670;-;-;9.114014;-0.05607605;0.56211853;-;-;-;-;-;-;-;-;-;-;-;-;-;-;-
1514098835690;-;-;9.167892;-0.059661865;0.5764923;-;-;-;-;-;-;-;-;-;-;-;-;-;-;-
1514098835710;-;-;9.166687;-0.109939575;0.5549469;-;-;-;-;-;-;-;-;-;-;-;-;-;-;-
1514098835730;-;-;9.183456;-0.1015625;0.60043335;-;-;-;-;-;-;-;-;-;-;-;-;-;-;-
1514098835751;-;-;9.206192;-0.081207275;0.58366394;-;-;-;-;-;-;-;-;-;-;-;-;-;-;-
1514098835771;-;-;9.228943;-0.109939575;0.5585327;-;-;-;-;-;-;-;-;-;-;-;-;-;-;-
1514098835791;-;-;9.214569;-0.088394165;0.5992279;-;-;-;-;-;-;-;-;-;-;-;-;-;-;-
1514098835811;-;-;9.165497;-0.066848755;0.56211853;-;-;-;-;-;-;-;-;-;-;-;-;-;-;-
1514098835832;-;-;9.175064;-0.064453125;0.6531067;-;-;-;-;-;-;-;-;-;-;-;-;-;-;-
1514098835852;-;-;9.197815;-0.08001709;0.56811523;-;-;-;-;-;-;-;-;-;-;-;-;-;-;-
1514098835872;-;-;9.155914;-0.088394165;0.58247375;-;-;-;-;-;-;-;-;-;-;-;-;-;-;-
1514098835892;-;-;9.182251;-0.047698975;0.6387329;-;-;-;-;-;-;-;-;-;-;-;-;-;-;-
1514098835913;-;-;9.264847;-0.047698975;0.53219604;-;-;-;-;-;-;-;-;-;-;-;-;-;-;-
1514098835933;-;-;9.2313385;-0.04649353;0.5693054;-;-;-;-;-;-;-;-;-;-;-;-;-;-;-
1514098835953;-;-;9.149933;-0.035720825;0.6279602;-;-;-;-;-;-;-;-;-;-;-;-;-;-;-
1514098835974;-;-;9.182251;-0.08001709;0.65908813;-;-;-;-;-;-;-;-;-;-;-;-;-;-;-
1514098835994;-;-;9.17627;-0.06324768;0.6531067;-;-;-;-;-;-;-;-;-;-;-;-;-;-;-
1514098836014;-;-;9.151123;-0.045303345;0.6555023;-;-;-;-;-;-;-;-;-;-;-;-;-;-;-
1514098836035;-;-;9.164291;-0.03453064;0.6052246;-;-;-;-;-;-;-;-;-;-;-;-;-;-;-
1514098836055;-;-;9.17627;-0.08001709;0.58966064;-;-;-;-;-;-;-;-;-;-;-;-;-;-;-
1514098836075;-;-;9.143951;-0.09916687;0.59085083;-;-;-;-;-;-;-;-;-;-;-;-;-;-;-
1514098836096;-;-;9.160706;-0.097976685;0.64711;-;-;-;-;-;-;-;-;-;-;-;-;-;-;-
1514098836116;-;-;9.21936;-0.1410675;0.63035583;-;-;-;-;-;-;-;-;-;-;-;-;-;-;-
1514098836136;-;-;9.273239;-0.13388062;0.5992279;-;-;-;-;-;-;-;-;-;-;-;-;-;-;-
1514098836157;-;-;9.228943;-0.102752686;0.5860596;-;-;-;-;-;-;-;-;-;-;-;-;-;-;-
1514098836177;-;-;9.193024;-0.09437561;0.57170105;-;-;-;-;-;-;-;-;-;-;-;-;-;-;-
1514098836197;-;-;9.151123;-0.066848755;0.62197876;-;-;-;-;-;-;-;-;-;-;-;-;-;-;-
1514098836218;-;-;9.153519;-0.04888916;0.62677;-;-;-;-;-;-;-;-;-;-;-;-;-;-;-
1514098836238;-;-;9.129578;-0.02973938;0.6638794;-;-;-;-;-;-;-;-;-;-;-;-;-;-;-
1514098836258;-;-;9.165497;-0.050079346;0.6375427;-;-;-;-;-;-;-;-;-;-;-;-;-;-;-
1514098836278;-;-;9.175064;-0.03930664;0.6770477;-;-;-;-;-;-;-;-;-;-;-;-;-;-;-
1514098836299;-;-;9.183456;-0.042907715;0.65789795;-;-;-;-;-;-;-;-;-;-;-;-;-;-;-
1514098836319;-;-;9.173874;-0.03691101;0.66986084;-;-;-;-;-;-;-;-;-;-;-;-;-;-;-
1514098836339;-;-;9.183456;-0.042907715;0.65908813;-;-;-;-;-;-;-;-;-;-;-;-;-;-;-
1514098836359;-;-;9.187042;-0.012969971;0.6531067;-;-;-;-;-;-;-;-;-;-;-;-;-;-;-
1514098836380;-;-;9.172684;-0.03691101;0.66148376;-;-;-;-;-;-;-;-;-;-;-;-;-;-;-
1514098836400;-;-;9.193024;-0.014175415;0.66986084;-;-;-;-;-;-;-;-;-;-;-;-;-;-;-
1514098836420;-;-;9.183456;-0.040512085;0.6542969;-;-;-;-;-;-;-;-;-;-;-;-;-;-;-
1514098836441;-;-;9.167892;-0.02255249;0.6531067;-;-;-;-;-;-;-;-;-;-;-;-;-;-;-
1514098836461;-;-;9.173874;-0.035720825;0.65908813;-;-;-;-;-;-;-;-;-;-;-;-;-;-;-
1514098836481;-;-;9.161896;-0.016571045;0.6243744;-;-;-;-;-;-;-;-;-;-;-;-;-;-;-
1514098836502;-;-;9.17746;-0.05847168;0.60401917;-;-;-;-;-;-;-;-;-;-;-;-;-;-;-
1514098836522;-;-;9.130783;-0.083602905;0.66867065;-;-;-;-;-;-;-;-;-;-;-;-;-;-;-
1514098836542;-;-;9.137955;-0.069244385;0.6650696;-;-;-;-;-;-;-;-;-;-;-;-;-;-;-
1514098836562;-;-;9.23613;-0.06564331;0.7033844;-;-;-;-;-;-;-;-;-;-;-;-;-;-;-
1514098836583;-;-;9.286407;-0.121917725;0.60043335;-;-;-;-;-;-;-;-;-;-;-;-;-;-;-
1514098836603;-;-;9.2313385;-0.11114502;0.63275146;-;-;-;-;-;-;-;-;-;-;-;-;-;-;-
1514098836623;-;-;9.179855;-0.07522583;0.72013855;-;-;-;-;-;-;-;-;-;-;-;-;-;-;-
1514098836644;-;-;9.226547;-0.057266235;0.6758423;-;-;-;-;-;-;-;-;-;-;-;-;-;-;-
1514098836664;-;-;9.0972595;0.057647705;0.6387329;-;-;-;-;-;-;-;-;-;-;-;-;-;-;-
1514098836684;-;-;9.093674;0.074417114;0.67225647;-;-;-;-;-;-;-;-;-;-;-;-;-;-;-
1514098836705;-;-;9.172684;-0.014175415;0.66148376;-;-;-;-;-;-;-;-;-;-;-;-;-;-;-
1514098836725;-;-;9.206192;-0.064453125;0.66986084;-;-;-;-;-;-;-;-;-;-;-;-;-;-;-
1514098836745;-;-;9.209793;-0.057266235;0.65190125;-;-;-;-;-;-;-;-;-;-;-;-;-;-;-
1514098836766;-;-;9.185837;-0.02255249;0.6483154;-;-;-;-;-;-;-;-;-;-;-;-;-;-;-
1514098836786;-;-;9.199005;0.026535034;0.70936584;-;-;-;-;-;-;-;-;-;-;-;-;-;-;-
1514098836807;-;-;9.173874;0.040893555;0.6531067;-;-;-;-;-;-;-;-;-;-;-;-;-;-;-
1514098836827;-;-;9.165497;0.014556885;0.6207886;-;-;-;-;-;-;-;-;-;-;-;-;-;-;-
1514098836847;-;-;9.203796;0.0013885498;0.6746521;-;-;-;-;-;-;-;-;-;-;-;-;-;-;-
1514098836867;-;-;9.201401;0.03012085;0.69021606;-;-;-;-;-;-;-;-;-;-;-;-;-;-;-
1514098836889;-;-;9.173874;-0.00340271;0.71295166;-;-;-;-;-;-;-;-;-;-;-;-;-;-;-
1514098836908;-;-;9.15712;0.0061798096;0.68063354;-;-;-;-;-;-;-;-;-;-;-;-;-;-;-
1514098836929;-;-;9.141556;0.009765625;0.70578;-;-;-;-;-;-;-;-;-;-;-;-;-;-;-
1514098836949;-;-;9.146347;0.04447937;0.70578;-;-;-;-;-;-;-;-;-;-;-;-;-;-;-
1514098836969;-;-;9.134369;0.064834595;0.7440796;-;-;-;-;-;-;-;-;-;-;-;-;-;-;-
1514098836989;-;-;9.143951;0.046875;0.7404938;-;-;-;-;-;-;-;-;-;-;-;-;-;-;-
1514098837010;-;-;9.17746;0.045684814;0.73091125;-;-;-;-;-;-;-;-;-;-;-;-;-;-;-
1514098837030;-;-;9.159515;-0.028533936;0.765625;-;-;-;-;-;-;-;-;-;-;-;-;-;-;-
1514098837050;-;-;9.166687;-0.02255249;0.72732544;-;-;-;-;-;-;-;-;-;-;-;-;-;-;-
1514098837070;-;-;9.160706;-0.03930664;0.71295166;-;-;-;-;-;-;-;-;-;-;-;-;-;-;-
1514098837091;-;-;9.173874;-0.06086731;0.69140625;-;-;-;-;-;-;-;-;-;-;-;-;-;-;-
1514098837111;-;-;9.183456;-0.012969971;0.7117615;-;-;-;-;-;-;-;-;-;-;-;-;-;-;-
1514098837131;-;-;9.170288;-0.038116455;0.6997833;-;-;-;-;-;-;-;-;-;-;-;-;-;-;-
1514098837151;-;-;9.153519;-0.04649353;0.6710663;-;-;-;-;-;-;-;-;-;-;-;-;-;-;-
1514098837171;-;-;9.154724;-0.01776123;0.72013855;-;-;-;-;-;-;-;-;-;-;-;-;-;-;-
1514098837192;-;-;9.15831;-0.016571045;0.7117615;-;-;-;-;-;-;-;-;-;-;-;-;-;-;-
1514098837212;-;-;9.155914;-0.042907715;0.67944336;-;-;-;-;-;-;-;-;-;-;-;-;-;-;-
1514098837232;-;-;9.17746;-0.02734375;0.67944336;-;-;-;-;-;-;-;-;-;-;-;-;-;-;-
1514098837253;-;-;9.197815;-0.026138306;0.71055603;-;-;-;-;-;-;-;-;-;-;-;-;-;-;-
1514098837273;-;-;9.15831;0.024139404;0.7345123;-;-;-;-;-;-;-;-;-;-;-;-;-;-;-
1514098837293;-;-;9.149933;0.021743774;0.77401733;-;-;-;-;-;-;-;-;-;-;-;-;-;-;-
1514098837314;-;-;9.195419;0.010971069;0.7428894;-;-;-;-;-;-;-;-;-;-;-;-;-;-;-
1514098837334;-;-;9.221756;-0.00340271;0.74768066;-;-;-;-;-;-;-;-;-;-;-;-;-;-;-
1514098837354;-;-;9.14035;0.016952515;0.7428894;-;-;-;-;-;-;-;-;-;-;-;-;-;-;-
1514098837375;-;-;9.166687;-0.014175415;0.75605774;-;-;-;-;-;-;-;-;-;-;-;-;-;-;-
1514098837395;-;-;9.203796;0.06124878;0.64711;-;-;-;-;-;-;-;-;-;-;-;-;-;-;-
1514098837415;-;-;9.143951;0.050476074;0.6842346;-;-;-;-;-;-;-;-;-;-;-;-;-;-;-
1514098837436;-;-;9.147537;0.038497925;0.72612;-;-;-;-;-;-;-;-;-;-;-;-;-;-;-
1514098837456;-;-;9.209793;-0.02734375;0.7692261;-;-;-;-;-;-;-;-;-;-;-;-;-;-;-
1514098837476;-;-;9.153519;-0.02494812;0.74887085;-;-;-;-;-;-;-;-;-;-;-;-;-;-;-
1514098837496;-;-;9.14035;0.031311035;0.7368927;-;-;-;-;-;-;-;-;-;-;-;-;-;-;-
1514098837517;-;-;9.1523285;0.08758545;0.75605774;-;-;-;-;-;-;-;-;-;-;-;-;-;-;-
1514098837537;-;-;9.166687;0.05166626;0.7536621;-;-;-;-;-;-;-;-;-;-;-;-;-;-;-
1514098837558;-;-;9.161896;0.03730774;0.69021606;-;-;-;-;-;-;-;-;-;-;-;-;-;-;-
1514098837578;-;-;9.17746;0.03012085;0.7404938;-;-;-;-;-;-;-;-;-;-;-;-;-;-;-
1514098837598;-;-;9.213379;0.012161255;0.7536621;-;-;-;-;-;-;-;-;-;-;-;-;-;-;-
1514098837618;-;-;9.205002;0.008575439;0.7285156;-;-;-;-;-;-;-;-;-;-;-;-;-;-;-
1514098837639;-;-;9.169083;-0.00340271;0.7404938;-;-;-;-;-;-;-;-;-;-;-;-;-;-;-
1514098837659;-;-;9.167892;0.0037841797;0.72972107;-;-;-;-;-;-;-;-;-;-;-;-;-;-;-
1514098837679;-;-;9.137955;0.02772522;0.7285156;-;-;-;-;-;-;-;-;-;-;-;-;-;-;-
1514098837699;-;-;9.190628;-0.02255249;0.73928833;-;-;-;-;-;-;-;-;-;-;-;-;-;-;-
1514098837720;-;-;9.13916;-0.021362305;0.7644348;-;-;-;-;-;-;-;-;-;-;-;-;-;-;-
1514098837740;-;-;9.181061;-0.0045928955;0.75845337;-;-;-;-;-;-;-;-;-;-;-;-;-;-;-
1514098837760;-;-;9.145142;0.03012085;0.72972107;-;-;-;-;-;-;-;-;-;-;-;-;-;-;-
1514098837781;-;-;9.188232;0.031311035;0.74887085;-;-;-;-;-;-;-;-;-;-;-;-;-;-;-
1514098837800;-;-;9.122391;0.03251648;0.71295166;-;-;-;-;-;-;-;-;-;-;-;-;-;-;-
1514098837820;-;-;9.159515;0.021743774;0.7285156;-;-;-;-;-;-;-;-;-;-;-;-;-;-;-
1514098837840;-;-;9.188232;-0.052474976;0.75605774;-;-;-;-;-;-;-;-;-;-;-;-;-;-;-
1514098837860;-;-;9.181061;-0.05368042;0.7859802;-;-;-;-;-;-;-;-;-;-;-;-;-;-;-
1514098837881;-;-;9.165497;-0.030929565;0.73809814;-;-;-;-;-;-;-;-;-;-;-;-;-;-;-
1514098837901;-;-;9.136765;0.0049743652;0.765625;-;-;-;-;-;-;-;-;-;-;-;-;-;-;-
1514098837921;-;-;9.134369;0.02293396;0.7357025;-;-;-;-;-;-;-;-;-;-;-;-;-;-;-
1514098837942;-;-;9.127182;0.048080444;0.74528503;-;-;-;-;-;-;-;-;-;-;-;-;-;-;-
1514098837962;-;-;9.170288;0.010971069;0.74887085;-;-;-;-;-;-;-;-;-;-;-;-;-;-;-
1514098837982;-;-;9.199005;-0.0069885254;0.78837585;-;-;-;-;-;-;-;-;-;-;-;-;-;-;-
1514098838003;-;-;9.15712;-0.0069885254;0.7728119;-;-;-;-;-;-;-;-;-;-;-;-;-;-;-
1514098838023;-;-;9.147537;-0.0069885254;0.74768066;-;-;-;-;-;-;-;-;-;-;-;-;-;-;-
1514098838043;-;-;9.13916;-0.035720825;0.74528503;-;-;-;-;-;-;-;-;-;-;-;-;-;-;-
1514098838063;-;-;9.166687;-0.02494812;0.7835846;-;-;-;-;-;-;-;-;-;-;-;-;-;-;-
1514098838084;-;-;9.142746;0.024139404;0.80633545;-;-;-;-;-;-;-;-;-;-;-;-;-;-;-
1514098838104;-;-;9.075714;0.05645752;0.78837585;-;-;-;-;-;-;-;-;-;-;-;-;-;-;-
1514098838124;-;-;9.183456;0.052871704;0.75845337;-;-;-;-;-;-;-;-;-;-;-;-;-;-;-
1514098838145;-;-;9.288788;0.016952515;0.60762024;-;-;-;-;-;-;-;-;-;-;-;-;-;-;-
1514098838165;-;-;9.200211;-0.05128479;0.63394165;-;-;-;-;-;-;-;-;-;-;-;-;-;-;-
1514098838185;-;-;9.181061;-0.06086731;0.666275;-;-;-;-;-;-;-;-;-;-;-;-;-;-;-
1514098838206;-;-;9.155914;-0.028533936;0.69140625;-;-;-;-;-;-;-;-;-;-;-;-;-;-;-
1514098838225;-;-;9.118805;-0.02255249;0.6770477;-;-;-;-;-;-;-;-;-;-;-;-;-;-;-
1514098838245;-;-;9.133179;0.010971069;0.66148376;-;-;-;-;-;-;-;-;-;-;-;-;-;-;-
1514098838266;-;-;9.103241;0.014556885;0.62197876;-;-;-;-;-;-;-;-;-;-;-;-;-;-;-
1514098838285;-;-;9.1918335;-0.014175415;0.6064148;-;-;-;-;-;-;-;-;-;-;-;-;-;-;-
1514098838305;-;-;9.189438;-0.02494812;0.5956421;-;-;-;-;-;-;-;-;-;-;-;-;-;-;-
1514098838326;-;-;9.220566;-0.0010070801;0.6255646;-;-;-;-;-;-;-;-;-;-;-;-;-;-;-
1514098838345;-;-;9.224152;-0.059661865;0.67944336;-;-;-;-;-;-;-;-;-;-;-;-;-;-;-
1514098838365;-;-;9.173874;-0.01776123;0.64112854;-;-;-;-;-;-;-;-;-;-;-;-;-;-;-
1514098838386;-;-;9.154724;0.0025787354;0.6926117;-;-;-;-;-;-;-;-;-;-;-;-;-;-;-
1514098838405;-;-;9.13916;-0.0069885254;0.6650696;-;-;-;-;-;-;-;-;-;-;-;-;-;-;-
1514098838425;-;-;9.17627;-0.0069885254;0.5980377;-;-;-;-;-;-;-;-;-;-;-;-;-;-;-
1514098838446;-;-;9.172684;-0.042907715;0.6710663;-;-;-;-;-;-;-;-;-;-;-;-;-;-;-
1514098838466;-;-;9.169083;-0.026138306;0.666275;-;-;-;-;-;-;-;-;-;-;-;-;-;-;-
1514098838486;-;-;9.15831;0.007369995;0.67225647;-;-;-;-;-;-;-;-;-;-;-;-;-;-;-
1514098838506;-;-;9.194229;-0.02255249;0.6531067;-;-;-;-;-;-;-;-;-;-;-;-;-;-;-
1514098838527;-;-;9.170288;-0.028533936;0.64112854;-;-;-;-;-;-;-;-;-;-;-;-;-;-;-
1514098838547;-;-;9.189438;-0.011779785;0.65190125;-;-;-;-;-;-;-;-;-;-;-;-;-;-;-
1514098838567;-;-;9.179855;-0.018966675;0.6447296;-;-;-;-;-;-;-;-;-;-;-;-;-;-;-
1514098838588;-;-;9.182251;-0.016571045;0.64711;-;-;-;-;-;-;-;-;-;-;-;-;-;-;-
1514098838607;-;-;9.203796;-0.040512085;0.64352417;-;-;-;-;-;-;-;-;-;-;-;-;-;-;-
1514098838627;-;-;9.166687;-0.00340271;0.65908813;-;-;-;-;-;-;-;-;-;-;-;-;-;-;-
1514098838648;-;-;9.145142;0.03491211;0.6830292;-;-;-;-;-;-;-;-;-;-;-;-;-;-;-
1514098838668;-;-;9.161896;0.0049743652;0.6758423;-;-;-;-;-;-;-;-;-;-;-;-;-;-;-
1514098838689;-;-;9.17746;0.0061798096;0.64711;-;-;-;-;-;-;-;-;-;-;-;-;-;-;-
1514098838709;-;-;9.197815;-0.028533936;0.63993835;-;-;-;-;-;-;-;-;-;-;-;-;-;-;-
1514098838729;-;-;9.131973;0.019348145;0.6854248;-;-;-;-;-;-;-;-;-;-;-;-;-;-;-
1514098838750;-;-;9.130783;-0.011779785;0.72732544;-;-;-;-;-;-;-;-;-;-;-;-;-;-;-
1514098838769;-;-;9.17746;-0.028533936;0.69740295;-;-;-;-;-;-;-;-;-;-;-;-;-;-;-
1514098838789;-;-;9.172684;-0.01776123;0.68782043;-;-;-;-;-;-;-;-;-;-;-;-;-;-;-
1514098838810;-;-;9.131973;-0.03930664;0.7177429;-;-;-;-;-;-;-;-;-;-;-;-;-;-;-
1514098838830;-;-;9.230133;-0.021362305;0.70936584;-;-;-;-;-;-;-;-;-;-;-;-;-;-;-
1514098838850;-;-;9.187042;0.01574707;0.5956421;-;-;-;-;-;-;-;-;-;-;-;-;-;-;-
1514098838872;-;-;9.17627;-0.00579834;0.68063354;-;-;-;-;-;-;-;-;-;-;-;-;-;-;-
1514098838891;-;-;9.161896;-0.0069885254;0.6997833;-;-;-;-;-;-;-;-;-;-;-;-;-;-;-
1514098838911;-;-;9.199005;-0.038116455;0.73091125;-;-;-;-;-;-;-;-;-;-;-;-;-;-;-
1514098838931;-;-;9.135559;-0.03453064;0.72732544;-;-;-;-;-;-;-;-;-;-;-;-;-;-;-
1514098838952;-;-;9.151123;-0.009384155;0.6758423;-;-;-;-;-;-;-;-;-;-;-;-;-;-;-
1514098838972;-;-;9.125992;0.033706665;0.69859314;-;-;-;-;-;-;-;-;-;-;-;-;-;-;-
1514098838992;-;-;9.166687;0.0061798096;0.681839;-;-;-;-;-;-;-;-;-;-;-;-;-;-;-
1514098839012;-;-;9.164291;0.009765625;0.6842346;-;-;-;-;-;-;-;-;-;-;-;-;-;-;-
1514098839033;-;-;9.195419;-0.030929565;0.6830292;-;-;-;-;-;-;-;-;-;-;-;-;-;-;-
1514098839053;-;-;9.212173;-0.030929565;0.6782379;-;-;-;-;-;-;-;-;-;-;-;-;-;-;-
1514098839073;-;-;9.212173;-0.00579834;0.69740295;-;-;-;-;-;-;-;-;-;-;-;-;-;-;-
1514098839094;-;-;9.178665;0.024139404;0.70936584;-;-;-;-;-;-;-;-;-;-;-;-;-;-;-
1514098839114;-;-;9.148727;-0.0105896;0.70817566;-;-;-;-;-;-;-;-;-;-;-;-;-;-;-
1514098839134;-;-;9.149933;-0.014175415;0.721344;-;-;-;-;-;-;-;-;-;-;-;-;-;-;-
1514098839155;-;-;9.165497;-0.050079346;0.72372437;-;-;-;-;-;-;-;-;-;-;-;-;-;-;-
1514098839175;-;-;9.167892;1.9836426E-4;0.70217896;-;-;-;-;-;-;-;-;-;-;-;-;-;-;-
1514098839195;-;-;9.15712;0.026535034;0.7141571;-;-;-;-;-;-;-;-;-;-;-;-;-;-;-
1514098839216;-;-;9.165497;-0.00579834;0.70936584;-;-;-;-;-;-;-;-;-;-;-;-;-;-;-
1514098839236;-;-;9.148727;-0.014175415;0.72372437;-;-;-;-;-;-;-;-;-;-;-;-;-;-;-
1514098839256;-;-;9.155914;-0.030929565;0.77401733;-;-;-;-;-;-;-;-;-;-;-;-;-;-;-
1514098839276;-;-;9.163101;-0.0069885254;0.7464752;-;-;-;-;-;-;-;-;-;-;-;-;-;-;-
1514098839296;-;-;9.172684;0.007369995;0.72732544;-;-;-;-;-;-;-;-;-;-;-;-;-;-;-
1514098839317;-;-;9.161896;-0.02015686;0.7333069;-;-;-;-;-;-;-;-;-;-;-;-;-;-;-
1514098839337;-;-;9.166687;-0.015365601;0.7153473;-;-;-;-;-;-;-;-;-;-;-;-;-;-;-
1514098839357;-;-;9.167892;-0.0021972656;0.70936584;-;-;-;-;-;-;-;-;-;-;-;-;-;-;-
1514098839378;-;-;9.182251;0.0037841797;0.7249298;-;-;-;-;-;-;-;-;-;-;-;-;-;-;-
1514098839398;-;-;9.173874;-0.0069885254;0.70098877;-;-;-;-;-;-;-;-;-;-;-;-;-;-;-
1514098839418;-;-;9.159515;-0.0105896;0.7357025;-;-;-;-;-;-;-;-;-;-;-;-;-;-;-
1514098839438;-;-;9.151123;-0.01776123;0.7357025;-;-;-;-;-;-;-;-;-;-;-;-;-;-;-
1514098839459;-;-;9.188232;-0.02494812;0.73091125;-;-;-;-;-;-;-;-;-;-;-;-;-;-;-
1514098839479;-;-;9.181061;0.0049743652;0.7464752;-;-;-;-;-;-;-;-;-;-;-;-;-;-;-
1514098839499;-;-;9.141556;-0.02973938;0.74168396;-;-;-;-;-;-;-;-;-;-;-;-;-;-;-
1514098839519;-;-;9.228943;-0.009384155;0.7728119;-;-;-;-;-;-;-;-;-;-;-;-;-;-;-
1514098839540;-;-;9.203796;0.0025787354;0.65190125;-;-;-;-;-;-;-;-;-;-;-;-;-;-;-
1514098839560;-;-;9.118805;-0.014175415;0.70578;-;-;-;-;-;-;-;-;-;-;-;-;-;-;-
1514098839580;-;-;9.170288;0.0025787354;0.7752075;-;-;-;-;-;-;-;-;-;-;-;-;-;-;-
1514098839601;-;-;9.214569;-0.06564331;0.7763977;-;-;-;-;-;-;-;-;-;-;-;-;-;-;-
1514098839621;-;-;9.129578;-0.08480835;0.7620392;-;-;-;-;-;-;-;-;-;-;-;-;-;-;-
1514098839641;-;-;9.14035;0.009765625;0.7536621;-;-;-;-;-;-;-;-;-;-;-;-;-;-;-
1514098839662;-;-;9.151123;0.064834595;0.7141571;-;-;-;-;-;-;-;-;-;-;-;-;-;-;-
1514098839682;-;-;9.170288;0.012161255;0.7512665;-;-;-;-;-;-;-;-;-;-;-;-;-;-;-
1514098839702;-;-;9.164291;-0.04649353;0.69140625;-;-;-;-;-;-;-;-;-;-;-;-;-;-;-
1514098839723;-;-;9.184647;-0.047698975;0.72732544;-;-;-;-;-;-;-;-;-;-;-;-;-;-;-
1514098839743;-;-;9.224152;-0.03930664;0.7572479;-;-;-;-;-;-;-;-;-;-;-;-;-;-;-
1514098839763;-;-;9.197815;-0.021362305;0.78956604;-;-;-;-;-;-;-;-;-;-;-;-;-;-;-
1514098839784;-;-;9.15831;0.0061798096;0.75845337;-;-;-;-;-;-;-;-;-;-;-;-;-;-;-
1514098839804;-;-;9.142746;0.0037841797;0.75245667;-;-;-;-;-;-;-;-;-;-;-;-;-;-;-
1514098839825;-;-;9.145142;-0.038116455;0.7799988;-;-;-;-;-;-;-;-;-;-;-;-;-;-;-
1514098839845;-;-;9.15831;-0.030929565;0.7572479;-;-;-;-;-;-;-;-;-;-;-;-;-;-;-
1514098839865;-;-;9.172684;1.9836426E-4;0.78718567;-;-;-;-;-;-;-;-;-;-;-;-;-;-;-
1514098839886;-;-;9.193024;1.9836426E-4;0.760849;-;-;-;-;-;-;-;-;-;-;-;-;-;-;-
1514098839906;-;-;9.145142;-0.01776123;0.8123169;-;-;-;-;-;-;-;-;-;-;-;-;-;-;-
1514098839926;-;-;9.153519;-0.03930664;0.7177429;-;-;-;-;-;-;-;-;-;-;-;-;-;-;-
1514098839947;-;-;9.169083;-0.050079346;0.77401733;-;-;-;-;-;-;-;-;-;-;-;-;-;-;-
1514098839966;-;-;9.179855;-0.026138306;0.7572479;-;-;-;-;-;-;-;-;-;-;-;-;-;-;-
1514098839986;-;-;9.182251;-0.03691101;0.7357025;-;-;-;-;-;-;-;-;-;-;-;-;-;-;-
1514098840006;-;-;9.1918335;-0.021362305;0.77760315;-;-;-;-;-;-;-;-;-;-;-;-;-;-;-
1514098840027;-;-;9.136765;-0.026138306;0.76322937;-;-;-;-;-;-;-;-;-;-;-;-;-;-;-
1514098840047;-;-;9.15712;-0.011779785;0.7321167;-;-;-;-;-;-;-;-;-;-;-;-;-;-;-
1514098840067;-;-;9.179855;0.0025787354;0.7799988;-;-;-;-;-;-;-;-;-;-;-;-;-;-;-
1514098840088;-;-;9.189438;-0.0105896;0.73928833;-;-;-;-;-;-;-;-;-;-;-;-;-;-;-
1514098840108;-;-;9.183456;-0.016571045;0.75245667;-;-;-;-;-;-;-;-;-;-;-;-;-;-;-
1514098840129;-;-;9.161896;-0.009384155;0.7752075;-;-;-;-;-;-;-;-;-;-;-;-;-;-;-
1514098840149;-;-;9.213379;-0.009384155;0.7644348;-;-;-;-;-;-;-;-;-;-;-;-;-;-;-
1514098840169;-;-;9.151123;-0.009384155;0.76322937;-;-;-;-;-;-;-;-;-;-;-;-;-;-;-
1514098840189;-;-;9.155914;-0.0069885254;0.76802063;-;-;-;-;-;-;-;-;-;-;-;-;-;-;-
1514098840210;-;-;9.249298;0.0037841797;0.6830292;-;-;-;-;-;-;-;-;-;-;-;-;-;-;-
1514098840230;-;-;9.154724;0.04447937;0.69740295;-;-;-;-;-;-;-;-;-;-;-;-;-;-;-
1514098840250;-;-;9.1523285;-0.033325195;0.7644348;-;-;-;-;-;-;-;-;-;-;-;-;-;-;-
1514098840271;-;-;9.210983;-0.05607605;0.7153473;-;-;-;-;-;-;-;-;-;-;-;-;-;-;-
1514098840291;-;-;9.181061;-0.069244385;0.77879333;-;-;-;-;-;-;-;-;-;-;-;-;-;-;-
1514098840312;-;-;9.142746;-0.00579834;0.74887085;-;-;-;-;-;-;-;-;-;-;-;-;-;-;-
1514098840331;-;-;9.146347;0.010971069;0.77401733;-;-;-;-;-;-;-;-;-;-;-;-;-;-;-
1514098840352;-;-;9.118805;0.033706665;0.7249298;-;-;-;-;-;-;-;-;-;-;-;-;-;-;-
1514098840372;-;-;9.170288;-0.009384155;0.7153473;-;-;-;-;-;-;-;-;-;-;-;-;-;-;-
1514098840393;-;-;9.17627;-0.02973938;0.69021606;-;-;-;-;-;-;-;-;-;-;-;-;-;-;-
1514098840413;-;-;9.269638;-0.018966675;0.70098877;-;-;-;-;-;-;-;-;-;-;-;-;-;-;-
1514098840433;-;-;9.203796;-0.011779785;0.69021606;-;-;-;-;-;-;-;-;-;-;-;-;-;-;-
1514098840453;-;-;9.181061;0.0013885498;0.6351471;-;-;-;-;-;-;-;-;-;-;-;-;-;-;-
1514098840474;-;-;9.153519;0.0025787354;0.7177429;-;-;-;-;-;-;-;-;-;-;-;-;-;-;-
1514098840494;-;-;9.154724;-0.009384155;0.7357025;-;-;-;-;-;-;-;-;-;-;-;-;-;-;-
1514098840514;-;-;9.125992;-0.03213501;0.76683044;-;-;-;-;-;-;-;-;-;-;-;-;-;-;-
1514098840534;-;-;9.133179;-0.00579834;0.7728119;-;-;-;-;-;-;-;-;-;-;-;-;-;-;-
1514098840555;-;-;9.125992;0.0061798096;0.765625;-;-;-;-;-;-;-;-;-;-;-;-;-;-;-
1514098840575;-;-;9.161896;-0.0010070801;0.78837585;-;-;-;-;-;-;-;-;-;-;-;-;-;-;-
1514098840595;-;-;9.17627;0.0025787354;0.7428894;-;-;-;-;-;-;-;-;-;-;-;-;-;-;-
1514098840615;-;-;9.167892;-0.02255249;0.7823944;-;-;-;-;-;-;-;-;-;-;-;-;-;-;-
1514098840635;-;-;9.142746;-0.0105896;0.7716217;-;-;-;-;-;-;-;-;-;-;-;-;-;-;-
1514098840656;-;-;9.154724;-0.02734375;0.760849;-;-;-;-;-;-;-;-;-;-;-;-;-;-;-
1514098840675;-;-;9.171478;-0.05607605;0.7249298;-;-;-;-;-;-;-;-;-;-;-;-;-;-;-
1514098840695;-;-;9.188232;-0.02734375;0.6207886;-;-;-;-;-;-;-;-;-;-;-;-;-;-;-
1514098840715;-;-;9.195419;-0.009384155;0.65190125;-;-;-;-;-;-;-;-;-;-;-;-;-;-;-
1514098840736;-;-;9.196625;-0.050079346;0.686615;-;-;-;-;-;-;-;-;-;-;-;-;-;-;-
1514098840755;-;-;9.201401;-0.02973938;0.62316895;-;-;-;-;-;-;-;-;-;-;-;-;-;-;-
1514098840775;-;-;9.183456;-0.033325195;0.60043335;-;-;-;-;-;-;-;-;-;-;-;-;-;-;-
1514098840796;-;-;9.124786;0.0025787354;0.6542969;-;-;-;-;-;-;-;-;-;-;-;-;-;-;-
1514098840815;-;-;9.170288;-0.030929565;0.61479187;-;-;-;-;-;-;-;-;-;-;-;-;-;-;-
1514098840835;-;-;9.234924;-0.035720825;0.5992279;-;-;-;-;-;-;-;-;-;-;-;-;-;-;-
1514098840856;-;-;9.169083;0.0037841797;0.61839294;-;-;-;-;-;-;-;-;-;-;-;-;-;-;-
1514098840876;-;-;9.193024;-0.03213501;0.642334;-;-;-;-;-;-;-;-;-;-;-;-;-;-;-
1514098840896;-;-;9.214569;-0.0069885254;0.5549469;-;-;-;-;-;-;-;-;-;-;-;-;-;-;-
1514098840917;-;-;9.161896;-0.02973938;0.58366394;-;-;-;-;-;-;-;-;-;-;-;-;-;-;-
1514098840936;-;-;9.212173;-0.045303345;0.6387329;-;-;-;-;-;-;-;-;-;-;-;-;-;-;-
1514098840956;-;-;9.201401;-0.064453125;0.63394165;-;-;-;-;-;-;-;-;-;-;-;-;-;-;-
1514098840976;-;-;9.129578;-0.02494812;0.6363373;-;-;-;-;-;-;-;-;-;-;-;-;-;-;-
1514098840997;-;-;9.147537;-0.011779785;0.5884552;-;-;-;-;-;-;-;-;-;-;-;-;-;-;-
1514098841017;-;-;9.1523285;-0.0045928955;0.60762024;-;-;-;-;-;-;-;-;-;-;-;-;-;-;-
1514098841037;-;-;9.166687;-0.021362305;0.5980377;-;-;-;-;-;-;-;-;-;-;-;-;-;-;-
1514098841058;-;-;9.193024;-0.02734375;0.5740967;-;-;-;-;-;-;-;-;-;-;-;-;-;-;-
1514098841078;-;-;9.201401;-0.033325195;0.6064148;-;-;-;-;-;-;-;-;-;-;-;-;-;-;-
1514098841099;-;-;9.25528;-0.03930664;0.63394165;-;-;-;-;-;-;-;-;-;-;-;-;-;-;-
1514098841119;-;-;9.227737;-0.03930664;0.5968323;-;-;-;-;-;-;-;-;-;-;-;-;-;-;-
1514098841139;-;-;9.165497;0.0037841797;0.602829;-;-;-;-;-;-;-;-;-;-;-;-;-;-;-
1514098841160;-;-;9.17627;-0.026138306;0.602829;-;-;-;-;-;-;-;-;-;-;-;-;-;-;-
1514098841180;-;-;9.160706;-0.023742676;0.5800781;-;-;-;-;-;-;-;-;-;-;-;-;-;-;-
1514098841200;-;-;9.15831;-0.04170227;0.6100006;-;-;-;-;-;-;-;-;-;-;-;-;-;-;-
1514098841221;-;-;9.149933;-0.059661865;0.62916565;-;-;-;-;-;-;-;-;-;-;-;-;-;-;-
1514098841241;-;-;9.184647;-0.06324768;0.6650696;-;-;-;-;-;-;-;-;-;-;-;-;-;-;-
1514098841261;-;-;9.159515;-0.040512085;0.6602783;-;-;-;-;-;-;-;-;-;-;-;-;-;-;-
1514098841282;-;-;9.181061;-0.028533936;0.6363373;-;-;-;-;-;-;-;-;-;-;-;-;-;-;-
1514098841302;-;-;9.166687;-0.03213501;0.63993835;-;-;-;-;-;-;-;-;-;-;-;-;-;-;-
1514098841322;-;-;9.175064;0.0049743652;0.60401917;-;-;-;-;-;-;-;-;-;-;-;-;-;-;-
1514098841343;-;-;9.172684;-0.0021972656;0.66148376;-;-;-;-;-;-;-;-;-;-;-;-;-;-;-
1514098841363;-;-;9.149933;-0.026138306;0.6483154;-;-;-;-;-;-;-;-;-;-;-;-;-;-;-
1514098841383;-;-;9.153519;-0.00579834;0.6207886;-;-;-;-;-;-;-;-;-;-;-;-;-;-;-
1514098841404;-;-;9.173874;-0.009384155;0.65908813;-;-;-;-;-;-;-;-;-;-;-;-;-;-;-
1514098841424;-;-;9.184647;-0.02255249;0.6255646;-;-;-;-;-;-;-;-;-;-;-;-;-;-;-
1514098841444;-;-;9.182251;-0.0010070801;0.6363373;-;-;-;-;-;-;-;-;-;-;-;-;-;-;-
1514098841464;-;-;9.154724;-0.035720825;0.6483154;-;-;-;-;-;-;-;-;-;-;-;-;-;-;-
1514098841485;-;-;9.189438;-0.0010070801;0.6555023;-;-;-;-;-;-;-;-;-;-;-;-;-;-;-
1514098841504;-;-;9.207397;-0.040512085;0.6088104;-;-;-;-;-;-;-;-;-;-;-;-;-;-;-
1514098841524;-;-;9.13916;0.0181427;0.6830292;-;-;-;-;-;-;-;-;-;-;-;-;-;-;-
1514098841545;-;-;9.167892;-0.02494812;0.6758423;-;-;-;-;-;-;-;-;-;-;-;-;-;-;-
1514098841565;-;-;9.234924;0.0061798096;0.5764923;-;-;-;-;-;-;-;-;-;-;-;-;-;-;-
1514098841585;-;-;9.175064;0.026535034;0.5776825;-;-;-;-;-;-;-;-;-;-;-;-;-;-;-
1514098841606;-;-;9.161896;-0.035720825;0.64352417;-;-;-;-;-;-;-;-;-;-;-;-;-;-;-
1514098841626;-;-;9.185837;-0.05607605;0.6938019;-;-;-;-;-;-;-;-;-;-;-;-;-;-;-
1514098841646;-;-;9.151123;-0.05128479;0.73928833;-;-;-;-;-;-;-;-;-;-;-;-;-;-;-
1514098841667;-;-;9.149933;0.0049743652;0.6495056;-;-;-;-;-;-;-;-;-;-;-;-;-;-;-
1514098841687;-;-;9.167892;0.012161255;0.6351471;-;-;-;-;-;-;-;-;-;-;-;-;-;-;-
1514098841708;-;-;9.1523285;-0.0045928955;0.6447296;-;-;-;-;-;-;-;-;-;-;-;-;-;-;-
1514098841728;-;-;9.169083;-0.0069885254;0.61239624;-;-;-;-;-;-;-;-;-;-;-;-;-;-;-
1514098841748;-;-;9.183456;0.0025787354;0.61839294;-;-;-;-;-;-;-;-;-;-;-;-;-;-;-
1514098841768;-;-;9.221756;-0.040512085;0.6746521;-;-;-;-;-;-;-;-;-;-;-;-;-;-;-
1514098841789;-;-;9.209793;-0.018966675;0.61958313;-;-;-;-;-;-;-;-;-;-;-;-;-;-;-
1514098841809;-;-;9.170288;-0.026138306;0.69140625;-;-;-;-;-;-;-;-;-;-;-;-;-;-;-
1514098841829;-;-;9.147537;-0.0010070801;0.68063354;-;-;-;-;-;-;-;-;-;-;-;-;-;-;-
1514098841849;-;-;9.161896;-0.03213501;0.6243744;-;-;-;-;-;-;-;-;-;-;-;-;-;-;-
1514098841870;-;-;9.163101;-0.038116455;0.6842346;-;-;-;-;-;-;-;-;-;-;-;-;-;-;-
1514098841890;-;-;9.15831;-0.052474976;0.681839;-;-;-;-;-;-;-;-;-;-;-;-;-;-;-
1514098841911;-;-;9.181061;-0.028533936;0.66267395;-;-;-;-;-;-;-;-;-;-;-;-;-;-;-
1514098841931;-;-;9.163101;-0.030929565;0.65190125;-;-;-;-;-;-;-;-;-;-;-;-;-;-;-
1514098841951;-;-;9.188232;-0.009384155;0.6854248;-;-;-;-;-;-;-;-;-;-;-;-;-;-;-
1514098841972;-;-;9.178665;-0.03453064;0.6758423;-;-;-;-;-;-;-;-;-;-;-;-;-;-;-
