TimeStamp[ms];Prox[Cm];Lux[lux];AccX[m/s^2];AccY[m/s^2];AccZ[m/s^2];GyroX[rad/s];GyroY[rad/s];GyroZ[rad/s];MagnX[uT];MagnY[uT];MagnZ[uT];OrienYaw[degrees];OrienPitch[degrees];OrienRoll[degrees];Press[Pa];Temp[C°];Batt[%];Lat;Lng;Speed[m/s]
1514098551245;-;-;8.115631;-3.1769104;-1.0240326;-;-;-;-;-;-;-;-;-;-;-;-;-;-;-
1514098551263;-;-;8.03064;-2.559204;-0.7415161;-;-;-;-;-;-;-;-;-;-;-;-;-;-;-
1514098551283;-;-;9.009872;-2.4730225;-0.5224457;-;-;-;-;-;-;-;-;-;-;-;-;-;-;-
1514098551304;-;-;9.1523285;-3.03685;-0.6086426;-;-;-;-;-;-;-;-;-;-;-;-;-;-;-
1514098551324;-;-;7.9264984;-2.4095764;-0.9186859;-;-;-;-;-;-;-;-;-;-;-;-;-;-;-
1514098551344;-;-;8.576523;-0.6079407;0.7859802;-;-;-;-;-;-;-;-;-;-;-;-;-;-;-
1514098551364;-;-;8.027054;-4.41951;-4.891861;-;-;-;-;-;-;-;-;-;-;-;-;-;-;-
1514098551385;-;-;8.847061;-2.5316772;-0.47216797;-;-;-;-;-;-;-;-;-;-;-;-;-;-;-
1514098551404;-;-;9.644333;-2.190506;-2.1924133;-;-;-;-;-;-;-;-;-;-;-;-;-;-;-
1514098551424;-;-;8.774048;-2.2719116;-1.7327118;-;-;-;-;-;-;-;-;-;-;-;-;-;-;-
1514098551444;-;-;8.26767;-2.3592987;-1.6010437;-;-;-;-;-;-;-;-;-;-;-;-;-;-;-
1514098551465;-;-;8.772842;-1.8888397;-1.697998;-;-;-;-;-;-;-;-;-;-;-;-;-;-;-
1514098551485;-;-;9.115219;-1.6266632;-1.9769287;-;-;-;-;-;-;-;-;-;-;-;-;-;-;-
1514098551516;-;-;7.973175;-1.9762268;-2.8388367;-;-;-;-;-;-;-;-;-;-;-;-;-;-;-
1514098551526;-;-;9.262466;-2.7136383;-2.7586365;-;-;-;-;-;-;-;-;-;-;-;-;-;-;-
1514098551546;-;-;9.516251;-2.1306458;-2.939392;-;-;-;-;-;-;-;-;-;-;-;-;-;-;-
1514098551566;-;-;10.903687;-2.511322;-2.915451;-;-;-;-;-;-;-;-;-;-;-;-;-;-;-
1514098551586;-;-;8.095291;-1.7020874;-3.3511963;-;-;-;-;-;-;-;-;-;-;-;-;-;-;-
1514098551607;-;-;12.700531;-2.9291077;-2.79216;-;-;-;-;-;-;-;-;-;-;-;-;-;-;-
1514098551627;-;-;7.332733;-0.9060211;-3.0782623;-;-;-;-;-;-;-;-;-;-;-;-;-;-;-
1514098551648;-;-;8.0905;-1.1190948;-2.7346954;-;-;-;-;-;-;-;-;-;-;-;-;-;-;-
1514098551668;-;-;8.047409;1.0835724;-2.8651733;-;-;-;-;-;-;-;-;-;-;-;-;-;-;-
1514098551688;-;-;9.431244;-1.9666443;-4.86792;-;-;-;-;-;-;-;-;-;-;-;-;-;-;-
1514098551708;-;-;8.475967;-0.5827942;-4.5423126;-;-;-;-;-;-;-;-;-;-;-;-;-;-;-
1514098551728;-;-;9.309143;-0.6043396;-2.4701385;-;-;-;-;-;-;-;-;-;-;-;-;-;-;-
1514098551749;-;-;9.580887;0.069625854;-3.6121674;-;-;-;-;-;-;-;-;-;-;-;-;-;-;-
1514098551769;-;-;8.667496;1.0763855;-3.3787384;-;-;-;-;-;-;-;-;-;-;-;-;-;-;-
1514098551790;-;-;9.6862335;1.4833984;-2.5934296;-;-;-;-;-;-;-;-;-;-;-;-;-;-;-
1514098551810;-;-;10.550537;0.9171753;-2.115799;-;-;-;-;-;-;-;-;-;-;-;-;-;-;-
1514098551831;-;-;9.659897;-0.042907715;-2.5587158;-;-;-;-;-;-;-;-;-;-;-;-;-;-;-
1514098551850;-;-;9.82988;-0.5636444;-4.11734;-;-;-;-;-;-;-;-;-;-;-;-;-;-;-
1514098551870;-;-;10.119583;-0.7156677;-3.2422638;-;-;-;-;-;-;-;-;-;-;-;-;-;-;-
1514098551891;-;-;9.115219;0.03730774;-3.2003632;-;-;-;-;-;-;-;-;-;-;-;-;-;-;-
1514098551911;-;-;8.861435;0.51135254;-1.8931274;-;-;-;-;-;-;-;-;-;-;-;-;-;-;-
1514098551931;-;-;8.159927;0.967453;-3.4242249;-;-;-;-;-;-;-;-;-;-;-;-;-;-;-
1514098551952;-;-;9.439636;-0.05368042;0.58128357;-;-;-;-;-;-;-;-;-;-;-;-;-;-;-
1514098551972;-;-;6.185913;0.63105774;-4.35318;-;-;-;-;-;-;-;-;-;-;-;-;-;-;-
1514098551992;-;-;7.901352;0.36650085;-2.7406769;-;-;-;-;-;-;-;-;-;-;-;-;-;-;-
1514098552013;-;-;8.414917;0.16778564;-3.298523;-;-;-;-;-;-;-;-;-;-;-;-;-;-;-
1514098552033;-;-;8.757278;0.44192505;-3.8144836;-;-;-;-;-;-;-;-;-;-;-;-;-;-;-
1514098552053;-;-;9.111618;0.7447815;-4.105377;-;-;-;-;-;-;-;-;-;-;-;-;-;-;-
1514098552074;-;-;8.574127;1.1841278;-3.903061;-;-;-;-;-;-;-;-;-;-;-;-;-;-;-
1514098552094;-;-;7.8127747;1.4726257;-3.425415;-;-;-;-;-;-;-;-;-;-;-;-;-;-;-
1514098552114;-;-;7.0334625;1.4367065;-3.535553;-;-;-;-;-;-;-;-;-;-;-;-;-;-;-
1514098552135;-;-;6.826355;1.2739105;-3.887497;-;-;-;-;-;-;-;-;-;-;-;-;-;-;-
1514098552155;-;-;6.7341766;1.2870789;-4.0311584;-;-;-;-;-;-;-;-;-;-;-;-;-;-;-
1514098552175;-;-;7.4009705;1.2415924;-4.1460724;-;-;-;-;-;-;-;-;-;-;-;-;-;-;-
1514098552195;-;-;7.7026367;1.2751007;-4.672806;-;-;-;-;-;-;-;-;-;-;-;-;-;-;-
1514098552216;-;-;8.03064;1.477417;-5.330002;-;-;-;-;-;-;-;-;-;-;-;-;-;-;-
1514098552236;-;-;7.660736;1.6174774;-5.294098;-;-;-;-;-;-;-;-;-;-;-;-;-;-;-
1514098552256;-;-;7.3028107;1.4786072;-5.0845947;-;-;-;-;-;-;-;-;-;-;-;-;-;-;-
1514098552277;-;-;6.3104095;1.062027;-4.4226074;-;-;-;-;-;-;-;-;-;-;-;-;-;-;-
1514098552297;-;-;5.9429016;0.74598694;-4.4297943;-;-;-;-;-;-;-;-;-;-;-;-;-;-;-
1514098552317;-;-;5.495178;0.58078;-4.234665;-;-;-;-;-;-;-;-;-;-;-;-;-;-;-
1514098552338;-;-;5.176758;0.57240295;-4.234665;-;-;-;-;-;-;-;-;-;-;-;-;-;-;-
1514098552358;-;-;4.924164;0.6238861;-4.579422;-;-;-;-;-;-;-;-;-;-;-;-;-;-;-
1514098552378;-;-;5.018738;0.6286621;-4.8739166;-;-;-;-;-;-;-;-;-;-;-;-;-;-;-
1514098552399;-;-;5.2545624;0.6131134;-5.3922577;-;-;-;-;-;-;-;-;-;-;-;-;-;-;-
1514098552419;-;-;5.027115;0.5448761;-6.3882446;-;-;-;-;-;-;-;-;-;-;-;-;-;-;-
1514098552439;-;-;5.097748;0.57958984;-6.057846;-;-;-;-;-;-;-;-;-;-;-;-;-;-;-
1514098552459;-;-;6.038666;0.62028503;-5.0678406;-;-;-;-;-;-;-;-;-;-;-;-;-;-;-
1514098552479;-;-;7.2992096;0.28271484;-4.799698;-;-;-;-;-;-;-;-;-;-;-;-;-;-;-
1514098552500;-;-;7.130417;0.013366699;-5.540695;-;-;-;-;-;-;-;-;-;-;-;-;-;-;-
1514098552520;-;-;6.2038727;0.20610046;-5.7585754;-;-;-;-;-;-;-;-;-;-;-;-;-;-;-
1514098552540;-;-;4.9696503;1.1841278;-5.1707916;-;-;-;-;-;-;-;-;-;-;-;-;-;-;-
1514098552561;-;-;5.4293365;0.9111786;-4.551895;-;-;-;-;-;-;-;-;-;-;-;-;-;-;-
1514098552581;-;-;6.849106;-0.42237854;-5.67836;-;-;-;-;-;-;-;-;-;-;-;-;-;-;-
1514098552601;-;-;8.1527405;-1.7032776;-7.0203094;-;-;-;-;-;-;-;-;-;-;-;-;-;-;-
1514098552622;-;-;8.400543;-1.7523651;-7.3435364;-;-;-;-;-;-;-;-;-;-;-;-;-;-;-
1514098552642;-;-;9.178665;-0.6917267;-6.6803436;-;-;-;-;-;-;-;-;-;-;-;-;-;-;-
1514098552662;-;-;7.394989;1.7048645;-6.5702057;-;-;-;-;-;-;-;-;-;-;-;-;-;-;-
1514098552683;-;-;6.7688904;2.2471466;-6.8539124;-;-;-;-;-;-;-;-;-;-;-;-;-;-;-
1514098552703;-;-;6.2984314;1.710846;-7.5817566;-;-;-;-;-;-;-;-;-;-;-;-;-;-;-
1514098552724;-;-;6.473221;1.0009613;-7.855896;-;-;-;-;-;-;-;-;-;-;-;-;-;-;-
1514098552744;-;-;6.5558167;1.0680084;-7.8139954;-;-;-;-;-;-;-;-;-;-;-;-;-;-;-
1514098552764;-;-;7.635605;1.2128601;-6.8515167;-;-;-;-;-;-;-;-;-;-;-;-;-;-;-
1514098552784;-;-;7.2704773;1.106308;-7.0035553;-;-;-;-;-;-;-;-;-;-;-;-;-;-;-
1514098552805;-;-;7.2034454;0.7424011;-6.789276;-;-;-;-;-;-;-;-;-;-;-;-;-;-;-
1514098552824;-;-;7.7732697;0.48262024;-5.772934;-;-;-;-;-;-;-;-;-;-;-;-;-;-;-
1514098552844;-;-;8.126404;0.5855713;-6.1272736;-;-;-;-;-;-;-;-;-;-;-;-;-;-;-
1514098552865;-;-;7.969589;1.114685;-7.2621307;-;-;-;-;-;-;-;-;-;-;-;-;-;-;-
1514098552885;-;-;8.200638;1.3960114;-7.55542;-;-;-;-;-;-;-;-;-;-;-;-;-;-;-
1514098552905;-;-;8.070145;1.4965668;-7.5973206;-;-;-;-;-;-;-;-;-;-;-;-;-;-;-
1514098552925;-;-;7.7182007;1.2942505;-6.856308;-;-;-;-;-;-;-;-;-;-;-;-;-;-;-
1514098552946;-;-;7.209427;1.0045624;-5.647232;-;-;-;-;-;-;-;-;-;-;-;-;-;-;-
1514098552966;-;-;7.1160583;0.62986755;-5.0666504;-;-;-;-;-;-;-;-;-;-;-;-;-;-;-
1514098552986;-;-;7.566162;0.75556946;-5.250992;-;-;-;-;-;-;-;-;-;-;-;-;-;-;-
1514098553007;-;-;8.264084;1.0680084;-5.1504364;-;-;-;-;-;-;-;-;-;-;-;-;-;-;-
1514098553026;-;-;9.705383;1.374466;-5.143265;-;-;-;-;-;-;-;-;-;-;-;-;-;-;-
1514098553046;-;-;10.965927;1.1925049;-5.9884186;-;-;-;-;-;-;-;-;-;-;-;-;-;-;-
1514098553067;-;-;12.556885;0.6933136;-6.3559265;-;-;-;-;-;-;-;-;-;-;-;-;-;-;-
1514098553087;-;-;11.442383;1.3840332;-6.1033325;-;-;-;-;-;-;-;-;-;-;-;-;-;-;-
1514098553107;-;-;11.020996;1.1673584;-6.25058;-;-;-;-;-;-;-;-;-;-;-;-;-;-;-
1514098553128;-;-;10.969528;1.1290588;-4.9445343;-;-;-;-;-;-;-;-;-;-;-;-;-;-;-
1514098553148;-;-;10.36618;0.7591553;-4.5339355;-;-;-;-;-;-;-;-;-;-;-;-;-;-;-
1514098553168;-;-;9.600037;0.58917236;-4.022766;-;-;-;-;-;-;-;-;-;-;-;-;-;-;-
1514098553188;-;-;8.826721;0.1438446;-3.4613342;-;-;-;-;-;-;-;-;-;-;-;-;-;-;-
1514098553209;-;-;7.711014;-0.25598145;-2.5886536;-;-;-;-;-;-;-;-;-;-;-;-;-;-;-
1514098553229;-;-;7.2501373;-0.38049316;-1.7015991;-;-;-;-;-;-;-;-;-;-;-;-;-;-;-
1514098553249;-;-;7.485962;-0.36372375;-1.610611;-;-;-;-;-;-;-;-;-;-;-;-;-;-;-
1514098553270;-;-;8.144363;-0.24043274;-1.6704712;-;-;-;-;-;-;-;-;-;-;-;-;-;-;-
1514098553289;-;-;8.443649;-0.04888916;-2.0044556;-;-;-;-;-;-;-;-;-;-;-;-;-;-;-
1514098553309;-;-;9.141556;-0.16261292;-2.444992;-;-;-;-;-;-;-;-;-;-;-;-;-;-;-
1514098553329;-;-;9.47435;-0.32302856;-2.9250336;-;-;-;-;-;-;-;-;-;-;-;-;-;-;-
1514098553350;-;-;9.681442;-0.30267334;-2.836441;-;-;-;-;-;-;-;-;-;-;-;-;-;-;-
1514098553370;-;-;10.135147;-0.03691101;-2.2450714;-;-;-;-;-;-;-;-;-;-;-;-;-;-;-
1514098553390;-;-;10.177048;0.23362732;-1.9206696;-;-;-;-;-;-;-;-;-;-;-;-;-;-;-
1514098553411;-;-;9.698196;0.18814087;-1.8021545;-;-;-;-;-;-;-;-;-;-;-;-;-;-;-
1514098553431;-;-;8.7417145;-0.15423584;-1.5459747;-;-;-;-;-;-;-;-;-;-;-;-;-;-;-
1514098553451;-;-;9.023041;-0.35653687;-1.0515747;-;-;-;-;-;-;-;-;-;-;-;-;-;-;-
1514098553471;-;-;9.482727;-0.29788208;-0.6337738;-;-;-;-;-;-;-;-;-;-;-;-;-;-;-
1514098553492;-;-;9.390549;-0.12908936;-0.5535736;-;-;-;-;-;-;-;-;-;-;-;-;-;-;-
1514098553512;-;-;9.122391;-0.11114502;-0.535614;-;-;-;-;-;-;-;-;-;-;-;-;-;-;-
1514098553532;-;-;9.443222;-0.085998535;-0.39915466;-;-;-;-;-;-;-;-;-;-;-;-;-;-;-
1514098553553;-;-;9.439636;-0.04888916;-0.7343445;-;-;-;-;-;-;-;-;-;-;-;-;-;-;-
1514098553573;-;-;9.597641;0.093566895;-0.5715332;-;-;-;-;-;-;-;-;-;-;-;-;-;-;-
1514098553593;-;-;9.694611;0.30784607;-0.24711609;-;-;-;-;-;-;-;-;-;-;-;-;-;-;-
1514098553614;-;-;9.853821;-0.07043457;-0.5607605;-;-;-;-;-;-;-;-;-;-;-;-;-;-;-
1514098553634;-;-;8.774048;-0.062057495;-0.60743713;-;-;-;-;-;-;-;-;-;-;-;-;-;-;-
1514098553654;-;-;8.930862;0.17616272;-1.3388672;-;-;-;-;-;-;-;-;-;-;-;-;-;-;-
1514098553674;-;-;9.07811;0.31503296;-1.6560974;-;-;-;-;-;-;-;-;-;-;-;-;-;-;-
1514098553695;-;-;9.485123;0.4514923;-1.7111664;-;-;-;-;-;-;-;-;-;-;-;-;-;-;-
1514098553715;-;-;9.612015;0.5747986;-1.5531616;-;-;-;-;-;-;-;-;-;-;-;-;-;-;-
1514098553736;-;-;8.453217;0.9710388;-0.9246826;-;-;-;-;-;-;-;-;-;-;-;-;-;-;-
1514098553756;-;-;7.1483765;0.7256317;-1.2239532;-;-;-;-;-;-;-;-;-;-;-;-;-;-;-
1514098553776;-;-;8.1707;0.37010193;-0.50808716;-;-;-;-;-;-;-;-;-;-;-;-;-;-;-
1514098553796;-;-;8.887772;0.052871704;0.17306519;-;-;-;-;-;-;-;-;-;-;-;-;-;-;-
1514098553817;-;-;10.094437;0.20968628;0.44960022;-;-;-;-;-;-;-;-;-;-;-;-;-;-;-
1514098553837;-;-;9.967545;0.42396545;0.38615417;-;-;-;-;-;-;-;-;-;-;-;-;-;-;-
1514098553857;-;-;9.342667;0.67056274;-0.099868774;-;-;-;-;-;-;-;-;-;-;-;-;-;-;-
1514098553878;-;-;8.730942;0.69929504;0.18025208;-;-;-;-;-;-;-;-;-;-;-;-;-;-;-
1514098553898;-;-;8.542999;0.62986755;0.7069702;-;-;-;-;-;-;-;-;-;-;-;-;-;-;-
1514098553918;-;-;8.344284;0.86808777;0.87457275;-;-;-;-;-;-;-;-;-;-;-;-;-;-;-
1514098553939;-;-;8.141968;0.8704834;0.7716217;-;-;-;-;-;-;-;-;-;-;-;-;-;-;-
1514098553959;-;-;8.448425;0.9782257;0.19581604;-;-;-;-;-;-;-;-;-;-;-;-;-;-;-
1514098553979;-;-;8.802765;0.9399109;0.04258728;-;-;-;-;-;-;-;-;-;-;-;-;-;-;-
1514098554000;-;-;9.264847;0.4012146;-0.0053100586;-;-;-;-;-;-;-;-;-;-;-;-;-;-;-
1514098554020;-;-;9.679047;0.2192688;0.41607666;-;-;-;-;-;-;-;-;-;-;-;-;-;-;-
1514098554040;-;-;9.410904;0.38327026;0.8554077;-;-;-;-;-;-;-;-;-;-;-;-;-;-;-
1514098554060;-;-;8.922485;0.41319275;1.2049713;-;-;-;-;-;-;-;-;-;-;-;-;-;-;-
1514098554081;-;-;8.479553;0.26594543;1.3486176;-;-;-;-;-;-;-;-;-;-;-;-;-;-;-
1514098554101;-;-;8.572922;-0.3002777;1.5233917;-;-;-;-;-;-;-;-;-;-;-;-;-;-;-
1514098554121;-;-;8.6651;-0.67378235;0.80033875;-;-;-;-;-;-;-;-;-;-;-;-;-;-;-
1514098554141;-;-;8.783615;-0.27394104;0.25326538;-;-;-;-;-;-;-;-;-;-;-;-;-;-;-
1514098554161;-;-;10.544556;0.31263733;0.25086975;-;-;-;-;-;-;-;-;-;-;-;-;-;-;-
1514098554182;-;-;13.060867;0.80703735;-0.61582947;-;-;-;-;-;-;-;-;-;-;-;-;-;-;-
1514098554202;-;-;10.125565;2.284256;-1.6608887;-;-;-;-;-;-;-;-;-;-;-;-;-;-;-
1514098554222;-;-;7.8750153;2.9618225;-0.9809418;-;-;-;-;-;-;-;-;-;-;-;-;-;-;-
1514098554242;-;-;7.9384613;1.4175568;0.255661;-;-;-;-;-;-;-;-;-;-;-;-;-;-;-
1514098554263;-;-;9.603638;0.06364441;0.9487915;-;-;-;-;-;-;-;-;-;-;-;-;-;-;-
1514098554282;-;-;10.1171875;-0.22366333;0.4507904;-;-;-;-;-;-;-;-;-;-;-;-;-;-;-
1514098554302;-;-;9.742493;0.5281067;0.45439148;-;-;-;-;-;-;-;-;-;-;-;-;-;-;-
1514098554322;-;-;9.002686;0.93751526;-0.10107422;-;-;-;-;-;-;-;-;-;-;-;-;-;-;-
1514098554343;-;-;9.124786;0.79745483;-0.06515503;-;-;-;-;-;-;-;-;-;-;-;-;-;-;-
1514098554362;-;-;9.048172;-0.14465332;-0.2004242;-;-;-;-;-;-;-;-;-;-;-;-;-;-;-
1514098554382;-;-;9.802353;-0.4666748;-0.69721985;-;-;-;-;-;-;-;-;-;-;-;-;-;-;-
1514098554403;-;-;9.793976;-0.5361023;-0.23155212;-;-;-;-;-;-;-;-;-;-;-;-;-;-;-
1514098554423;-;-;9.483917;0.026535034;-0.026855469;-;-;-;-;-;-;-;-;-;-;-;-;-;-;-
1514098554443;-;-;9.264847;0.33418274;0.216156;-;-;-;-;-;-;-;-;-;-;-;-;-;-;-
1514098554464;-;-;9.609619;0.44432068;0.22932434;-;-;-;-;-;-;-;-;-;-;-;-;-;-;-
1514098554484;-;-;9.568924;0.20848083;0.4615631;-;-;-;-;-;-;-;-;-;-;-;-;-;-;-
1514098554504;-;-;9.185837;-0.4092102;0.91645813;-;-;-;-;-;-;-;-;-;-;-;-;-;-;-
1514098554524;-;-;8.809952;-0.6354675;1.0984192;-;-;-;-;-;-;-;-;-;-;-;-;-;-;-
1514098554544;-;-;8.771652;-0.7551727;0.9200592;-;-;-;-;-;-;-;-;-;-;-;-;-;-;-
1514098554565;-;-;8.938049;-0.61990356;0.5980377;-;-;-;-;-;-;-;-;-;-;-;-;-;-;-
1514098554585;-;-;9.111618;-0.5923767;0.33946228;-;-;-;-;-;-;-;-;-;-;-;-;-;-;-
1514098554605;-;-;9.380966;-0.42237854;0.18981934;-;-;-;-;-;-;-;-;-;-;-;-;-;-;-
1514098554626;-;-;9.304352;-0.16859436;-0.2111969;-;-;-;-;-;-;-;-;-;-;-;-;-;-;-
1514098554646;-;-;9.030228;-0.4547119;0.23890686;-;-;-;-;-;-;-;-;-;-;-;-;-;-;-
1514098554666;-;-;9.091278;-0.71447754;0.3705902;-;-;-;-;-;-;-;-;-;-;-;-;-;-;-
1514098554686;-;-;9.498291;-0.66659546;0.5046692;-;-;-;-;-;-;-;-;-;-;-;-;-;-;-
1514098554707;-;-;9.359421;-0.51934814;0.29756165;-;-;-;-;-;-;-;-;-;-;-;-;-;-;-
1514098554726;-;-;9.0182495;-0.7551727;0.5405731;-;-;-;-;-;-;-;-;-;-;-;-;-;-;-
1514098554746;-;-;9.075714;-0.89404297;0.62316895;-;-;-;-;-;-;-;-;-;-;-;-;-;-;-
1514098554767;-;-;9.242111;-0.80545044;0.71894836;-;-;-;-;-;-;-;-;-;-;-;-;-;-;-
1514098554787;-;-;9.313934;-0.6474457;0.6555023;-;-;-;-;-;-;-;-;-;-;-;-;-;-;-
1514098554808;-;-;9.243301;-0.5648346;0.9703369;-;-;-;-;-;-;-;-;-;-;-;-;-;-;-
1514098554828;-;-;8.808762;-0.4056244;0.7069702;-;-;-;-;-;-;-;-;-;-;-;-;-;-;-
1514098554848;-;-;8.754883;-0.14585876;0.760849;-;-;-;-;-;-;-;-;-;-;-;-;-;-;-
1514098554868;-;-;8.562149;-0.42956543;-0.16331482;-;-;-;-;-;-;-;-;-;-;-;-;-;-;-
1514098554889;-;-;9.328293;-0.5851898;-0.8540497;-;-;-;-;-;-;-;-;-;-;-;-;-;-;-
1514098554909;-;-;10.511032;-0.30506897;-0.70440674;-;-;-;-;-;-;-;-;-;-;-;-;-;-;-
1514098554929;-;-;10.454773;0.26115417;0.09286499;-;-;-;-;-;-;-;-;-;-;-;-;-;-;-
1514098554949;-;-;10.189011;0.30186462;0.53938293;-;-;-;-;-;-;-;-;-;-;-;-;-;-;-
1514098554970;-;-;9.110428;-0.012969971;0.74168396;-;-;-;-;-;-;-;-;-;-;-;-;-;-;-
1514098554990;-;-;8.746506;-0.43315125;1.236084;-;-;-;-;-;-;-;-;-;-;-;-;-;-;-
1514098555010;-;-;8.173096;-0.54089355;1.4431915;-;-;-;-;-;-;-;-;-;-;-;-;-;-;-
1514098555030;-;-;8.040222;-0.34576416;1.1834259;-;-;-;-;-;-;-;-;-;-;-;-;-;-;-
1514098555051;-;-;8.98114;-0.06564331;0.91526794;-;-;-;-;-;-;-;-;-;-;-;-;-;-;-
1514098555070;-;-;9.103241;0.19651794;0.15270996;-;-;-;-;-;-;-;-;-;-;-;-;-;-;-
1514098555090;-;-;9.717361;0.2707367;0.60162354;-;-;-;-;-;-;-;-;-;-;-;-;-;-;-
1514098555110;-;-;9.215775;-0.24520874;0.34783936;-;-;-;-;-;-;-;-;-;-;-;-;-;-;-
1514098555131;-;-;9.853821;-0.13627625;0.39093018;-;-;-;-;-;-;-;-;-;-;-;-;-;-;-
1514098555151;-;-;9.566528;-0.21528625;0.40171814;-;-;-;-;-;-;-;-;-;-;-;-;-;-;-
1514098555171;-;-;9.365402;-0.3864746;1.0541382;-;-;-;-;-;-;-;-;-;-;-;-;-;-;-
1514098555192;-;-;8.996704;-0.5923767;0.69021606;-;-;-;-;-;-;-;-;-;-;-;-;-;-;-
1514098555212;-;-;9.050568;-0.47865295;0.58247375;-;-;-;-;-;-;-;-;-;-;-;-;-;-;-
1514098555232;-;-;9.002686;-0.16619873;0.88414;-;-;-;-;-;-;-;-;-;-;-;-;-;-;-
1514098555253;-;-;9.221756;0.107925415;0.51304626;-;-;-;-;-;-;-;-;-;-;-;-;-;-;-
1514098555273;-;-;9.330688;0.29109192;0.9523773;-;-;-;-;-;-;-;-;-;-;-;-;-;-;-
1514098555293;-;-;9.183456;-0.052474976;0.58966064;-;-;-;-;-;-;-;-;-;-;-;-;-;-;-
1514098555314;-;-;9.173874;0.095962524;0.9918823;-;-;-;-;-;-;-;-;-;-;-;-;-;-;-
1514098555334;-;-;9.049377;-0.00819397;0.8877411;-;-;-;-;-;-;-;-;-;-;-;-;-;-;-
1514098555354;-;-;9.092468;0.02053833;1.002655;-;-;-;-;-;-;-;-;-;-;-;-;-;-;-
1514098555375;-;-;9.003891;-0.0010070801;0.9416046;-;-;-;-;-;-;-;-;-;-;-;-;-;-;-
1514098555394;-;-;9.232529;-0.15184021;0.899704;-;-;-;-;-;-;-;-;-;-;-;-;-;-;-
1514098555414;-;-;9.47554;-0.47265625;0.7823944;-;-;-;-;-;-;-;-;-;-;-;-;-;-;-
1514098555434;-;-;9.428848;-0.28471375;0.9212494;-;-;-;-;-;-;-;-;-;-;-;-;-;-;-
1514098555455;-;-;8.947617;-0.39006042;0.8949127;-;-;-;-;-;-;-;-;-;-;-;-;-;-;-
1514098555475;-;-;9.148727;-0.3086548;1.0960236;-;-;-;-;-;-;-;-;-;-;-;-;-;-;-
1514098555495;-;-;9.214569;-0.16142273;0.74887085;-;-;-;-;-;-;-;-;-;-;-;-;-;-;-
1514098555516;-;-;9.501877;-0.097976685;0.19221497;-;-;-;-;-;-;-;-;-;-;-;-;-;-;-
1514098555536;-;-;9.341461;0.20610046;0.66148376;-;-;-;-;-;-;-;-;-;-;-;-;-;-;-
1514098555557;-;-;8.948822;0.25756836;1.0134277;-;-;-;-;-;-;-;-;-;-;-;-;-;-;-
1514098555576;-;-;9.076904;-0.04888916;0.587265;-;-;-;-;-;-;-;-;-;-;-;-;-;-;-
1514098555596;-;-;9.507858;0.22883606;0.65190125;-;-;-;-;-;-;-;-;-;-;-;-;-;-;-
1514098555616;-;-;9.304352;0.5747986;0.8554077;-;-;-;-;-;-;-;-;-;-;-;-;-;-;-
1514098555636;-;-;8.835098;0.26834106;0.7333069;-;-;-;-;-;-;-;-;-;-;-;-;-;-;-
1514098555657;-;-;9.082901;-0.2033081;0.760849;-;-;-;-;-;-;-;-;-;-;-;-;-;-;-
1514098555677;-;-;9.442017;-0.25;0.90689087;-;-;-;-;-;-;-;-;-;-;-;-;-;-;-
1514098555698;-;-;9.542587;0.060043335;0.8590088;-;-;-;-;-;-;-;-;-;-;-;-;-;-;-
1514098555718;-;-;9.187042;0.30186462;0.78837585;-;-;-;-;-;-;-;-;-;-;-;-;-;-;-
1514098555738;-;-;9.002686;0.3425598;0.78718567;-;-;-;-;-;-;-;-;-;-;-;-;-;-;-
1514098555759;-;-;8.873398;0.4694519;0.9284363;-;-;-;-;-;-;-;-;-;-;-;-;-;-;-
1514098555779;-;-;9.0793;0.34854126;0.77041626;-;-;-;-;-;-;-;-;-;-;-;-;-;-;-
1514098555798;-;-;9.260071;0.23960876;0.57888794;-;-;-;-;-;-;-;-;-;-;-;-;-;-;-
1514098555818;-;-;9.3498535;-0.02494812;0.55255127;-;-;-;-;-;-;-;-;-;-;-;-;-;-;-
1514098555839;-;-;9.495895;-0.035720825;0.66267395;-;-;-;-;-;-;-;-;-;-;-;-;-;-;-
1514098555858;-;-;9.39534;0.20010376;0.7464752;-;-;-;-;-;-;-;-;-;-;-;-;-;-;-
1514098555878;-;-;9.151123;0.3509369;0.6555023;-;-;-;-;-;-;-;-;-;-;-;-;-;-;-
1514098555898;-;-;8.672287;0.22525024;0.5262146;-;-;-;-;-;-;-;-;-;-;-;-;-;-;-
1514098555919;-;-;9.029022;-0.08241272;0.64352417;-;-;-;-;-;-;-;-;-;-;-;-;-;-;-
1514098555939;-;-;9.805939;-0.2607727;0.7728119;-;-;-;-;-;-;-;-;-;-;-;-;-;-;-
1514098555959;-;-;10.612793;-0.41160583;0.6531067;-;-;-;-;-;-;-;-;-;-;-;-;-;-;-
1514098555980;-;-;10.772003;-0.60194397;0.21257019;-;-;-;-;-;-;-;-;-;-;-;-;-;-;-
1514098556000;-;-;10.0298;-0.71328735;0.04975891;-;-;-;-;-;-;-;-;-;-;-;-;-;-;-
1514098556020;-;-;8.917694;-0.7156677;0.2915802;-;-;-;-;-;-;-;-;-;-;-;-;-;-;-
1514098556040;-;-;8.296402;-0.5349121;0.56092834;-;-;-;-;-;-;-;-;-;-;-;-;-;-;-
1514098556061;-;-;8.250916;-0.35653687;0.9176636;-;-;-;-;-;-;-;-;-;-;-;-;-;-;-
1514098556081;-;-;8.559753;-0.20690918;1.4228363;-;-;-;-;-;-;-;-;-;-;-;-;-;-;-
1514098556101;-;-;8.594482;0.052871704;1.7987213;-;-;-;-;-;-;-;-;-;-;-;-;-;-;-
1514098556122;-;-;8.64476;0.33657837;2.0644836;-;-;-;-;-;-;-;-;-;-;-;-;-;-;-
1514098556142;-;-;8.876999;0.30665588;2.2488403;-;-;-;-;-;-;-;-;-;-;-;-;-;-;-
1514098556162;-;-;9.278015;-0.20570374;2.3529816;-;-;-;-;-;-;-;-;-;-;-;-;-;-;-
1514098556182;-;-;10.003464;-0.6151123;2.0249786;-;-;-;-;-;-;-;-;-;-;-;-;-;-;-
1514098556203;-;-;9.21817;-0.64863586;1.5952148;-;-;-;-;-;-;-;-;-;-;-;-;-;-;-
1514098556223;-;-;8.493927;-0.49421692;1.5174103;-;-;-;-;-;-;-;-;-;-;-;-;-;-;-
1514098556243;-;-;8.206619;-0.050079346;1.4707184;-;-;-;-;-;-;-;-;-;-;-;-;-;-;-
1514098556264;-;-;8.103668;0.119903564;1.3270721;-;-;-;-;-;-;-;-;-;-;-;-;-;-;-
1514098556285;-;-;8.534622;0.117507935;1.646698;-;-;-;-;-;-;-;-;-;-;-;-;-;-;-
1514098556305;-;-;9.224152;-0.08001709;1.6215515;-;-;-;-;-;-;-;-;-;-;-;-;-;-;-
1514098556325;-;-;10.023819;-0.16859436;1.3593903;-;-;-;-;-;-;-;-;-;-;-;-;-;-;-
1514098556345;-;-;10.646301;-0.00819397;1.2265167;-;-;-;-;-;-;-;-;-;-;-;-;-;-;-
1514098556366;-;-;11.053314;-0.22605896;0.55374146;-;-;-;-;-;-;-;-;-;-;-;-;-;-;-
1514098556386;-;-;10.111206;-0.660614;0.3035431;-;-;-;-;-;-;-;-;-;-;-;-;-;-;-
1514098556405;-;-;8.599258;-0.7264557;0.88534546;-;-;-;-;-;-;-;-;-;-;-;-;-;-;-
1514098556425;-;-;7.667923;-0.5792084;1.5198059;-;-;-;-;-;-;-;-;-;-;-;-;-;-;-
1514098556446;-;-;7.41893;-0.2212677;2.0740662;-;-;-;-;-;-;-;-;-;-;-;-;-;-;-
1514098556466;-;-;7.906143;-0.36132813;1.8729553;-;-;-;-;-;-;-;-;-;-;-;-;-;-;-
1514098556487;-;-;8.545395;-0.5648346;1.5641022;-;-;-;-;-;-;-;-;-;-;-;-;-;-;-
1514098556507;-;-;9.781998;-0.27394104;1.018219;-;-;-;-;-;-;-;-;-;-;-;-;-;-;-
1514098556527;-;-;10.518219;-0.040512085;0.5513458;-;-;-;-;-;-;-;-;-;-;-;-;-;-;-
1514098556548;-;-;10.428436;-0.011779785;0.20298767;-;-;-;-;-;-;-;-;-;-;-;-;-;-;-
1514098556568;-;-;9.884949;-0.19972229;0.53578186;-;-;-;-;-;-;-;-;-;-;-;-;-;-;-
1514098556589;-;-;9.06015;-0.4271698;1.231308;-;-;-;-;-;-;-;-;-;-;-;-;-;-;-
1514098556609;-;-;8.260483;-0.502594;1.4862823;-;-;-;-;-;-;-;-;-;-;-;-;-;-;-
1514098556629;-;-;8.131195;-0.44631958;1.4743195;-;-;-;-;-;-;-;-;-;-;-;-;-;-;-
1514098556650;-;-;8.769257;-0.3649292;1.2241211;-;-;-;-;-;-;-;-;-;-;-;-;-;-;-
1514098556669;-;-;9.076904;-0.50138855;1.0876465;-;-;-;-;-;-;-;-;-;-;-;-;-;-;-
1514098556690;-;-;9.153519;-0.77194214;0.98709106;-;-;-;-;-;-;-;-;-;-;-;-;-;-;-
1514098556710;-;-;9.358231;-0.97424316;0.9990692;-;-;-;-;-;-;-;-;-;-;-;-;-;-;-
1514098556731;-;-;9.3546295;-0.8964386;0.99069214;-;-;-;-;-;-;-;-;-;-;-;-;-;-;-
1514098556751;-;-;9.128387;-0.94911194;1.0218048;-;-;-;-;-;-;-;-;-;-;-;-;-;-;-
1514098556771;-;-;8.98233;-1.0388947;1.112793;-;-;-;-;-;-;-;-;-;-;-;-;-;-;-
1514098556792;-;-;9.230133;-0.98143005;1.0002594;-;-;-;-;-;-;-;-;-;-;-;-;-;-;-
1514098556812;-;-;9.594055;-0.636673;0.8123169;-;-;-;-;-;-;-;-;-;-;-;-;-;-;-
1514098556832;-;-;9.577301;-0.44033813;0.87576294;-;-;-;-;-;-;-;-;-;-;-;-;-;-;-
1514098556852;-;-;9.432449;-0.36611938;1.0086365;-;-;-;-;-;-;-;-;-;-;-;-;-;-;-
1514098556872;-;-;9.342667;-0.46907043;0.80633545;-;-;-;-;-;-;-;-;-;-;-;-;-;-;-
1514098556893;-;-;9.190628;-0.463089;0.5704956;-;-;-;-;-;-;-;-;-;-;-;-;-;-;-
1514098556913;-;-;9.154724;-0.4379425;0.40769958;-;-;-;-;-;-;-;-;-;-;-;-;-;-;-
1514098556933;-;-;9.066132;-0.26556396;0.33348083;-;-;-;-;-;-;-;-;-;-;-;-;-;-;-
1514098556954;-;-;8.935654;-0.2859192;0.38015747;-;-;-;-;-;-;-;-;-;-;-;-;-;-;-
1514098556974;-;-;9.014664;-0.46907043;0.63394165;-;-;-;-;-;-;-;-;-;-;-;-;-;-;-
1514098556994;-;-;9.3498535;-0.58877563;0.6674652;-;-;-;-;-;-;-;-;-;-;-;-;-;-;-
1514098557014;-;-;9.461182;-0.5528717;0.5190277;-;-;-;-;-;-;-;-;-;-;-;-;-;-;-
1514098557035;-;-;9.331894;-0.38526917;0.40649414;-;-;-;-;-;-;-;-;-;-;-;-;-;-;-
1514098557055;-;-;9.055359;-0.19972229;0.6315613;-;-;-;-;-;-;-;-;-;-;-;-;-;-;-
1514098557075;-;-;8.972763;-0.35176086;0.7716217;-;-;-;-;-;-;-;-;-;-;-;-;-;-;-
1514098557098;-;-;9.345062;-0.14585876;1.1020203;-;-;-;-;-;-;-;-;-;-;-;-;-;-;-
1514098557118;-;-;9.559341;-0.3864746;0.99786377;-;-;-;-;-;-;-;-;-;-;-;-;-;-;-
1514098557139;-;-;9.610809;-0.100372314;0.6363373;-;-;-;-;-;-;-;-;-;-;-;-;-;-;-
1514098557159;-;-;9.364212;-0.2212677;0.45916748;-;-;-;-;-;-;-;-;-;-;-;-;-;-;-
1514098557180;-;-;9.249298;-0.28831482;0.48910522;-;-;-;-;-;-;-;-;-;-;-;-;-;-;-
1514098557200;-;-;9.153519;-0.4056244;0.6447296;-;-;-;-;-;-;-;-;-;-;-;-;-;-;-
1514098557220;-;-;9.085281;-0.7084961;0.69859314;-;-;-;-;-;-;-;-;-;-;-;-;-;-;-
1514098557240;-;-;9.172684;-0.8353882;0.5585327;-;-;-;-;-;-;-;-;-;-;-;-;-;-;-
1514098557260;-;-;9.365402;-0.6582184;0.4040985;-;-;-;-;-;-;-;-;-;-;-;-;-;-;-
1514098557281;-;-;9.482727;-0.39006042;0.2640381;-;-;-;-;-;-;-;-;-;-;-;-;-;-;-
1514098557301;-;-;9.420471;-0.05847168;0.017440796;-;-;-;-;-;-;-;-;-;-;-;-;-;-;-
1514098557321;-;-;9.358231;0.15342712;0.060531616;-;-;-;-;-;-;-;-;-;-;-;-;-;-;-
1514098557342;-;-;9.37738;0.23721313;0.16468811;-;-;-;-;-;-;-;-;-;-;-;-;-;-;-
1514098557362;-;-;9.280411;0.16299438;0.42086792;-;-;-;-;-;-;-;-;-;-;-;-;-;-;-
1514098557382;-;-;9.194229;-0.04170227;0.5657196;-;-;-;-;-;-;-;-;-;-;-;-;-;-;-
1514098557403;-;-;9.251678;-0.26316833;0.6890106;-;-;-;-;-;-;-;-;-;-;-;-;-;-;-
1514098557423;-;-;9.279221;-0.44154358;0.8147125;-;-;-;-;-;-;-;-;-;-;-;-;-;-;-
1514098557443;-;-;9.225342;-0.37091064;0.9715271;-;-;-;-;-;-;-;-;-;-;-;-;-;-;-
1514098557463;-;-;9.178665;-0.29071045;1.0649109;-;-;-;-;-;-;-;-;-;-;-;-;-;-;-
1514098557484;-;-;9.074509;-0.25479126;1.1929932;-;-;-;-;-;-;-;-;-;-;-;-;-;-;-
1514098557504;-;-;9.066132;-0.2607727;1.2013702;-;-;-;-;-;-;-;-;-;-;-;-;-;-;-
1514098557524;-;-;9.3103485;-0.43196106;1.0325775;-;-;-;-;-;-;-;-;-;-;-;-;-;-;-
1514098557545;-;-;9.293579;-0.65701294;0.99786377;-;-;-;-;-;-;-;-;-;-;-;-;-;-;-
1514098557565;-;-;9.295975;-0.8665161;0.92245483;-;-;-;-;-;-;-;-;-;-;-;-;-;-;-
1514098557585;-;-;9.33548;-0.8174286;1.0074463;-;-;-;-;-;-;-;-;-;-;-;-;-;-;-
1514098557605;-;-;9.312744;-0.55885315;1.1295471;-;-;-;-;-;-;-;-;-;-;-;-;-;-;-
1514098557625;-;-;8.963181;-0.289505;1.1882019;-;-;-;-;-;-;-;-;-;-;-;-;-;-;-
1514098557646;-;-;8.633987;-0.09437561;1.2492523;-;-;-;-;-;-;-;-;-;-;-;-;-;-;-
1514098557666;-;-;8.477158;-0.102752686;1.4252319;-;-;-;-;-;-;-;-;-;-;-;-;-;-;-
1514098557686;-;-;8.704605;-0.17219543;1.4443817;-;-;-;-;-;-;-;-;-;-;-;-;-;-;-
1514098557706;-;-;9.039795;-0.033325195;1.3462219;-;-;-;-;-;-;-;-;-;-;-;-;-;-;-
1514098557727;-;-;9.406113;0.14863586;1.1846161;-;-;-;-;-;-;-;-;-;-;-;-;-;-;-
1514098557747;-;-;9.674255;0.15701294;1.0828552;-;-;-;-;-;-;-;-;-;-;-;-;-;-;-
1514098557767;-;-;9.625183;0.0049743652;0.98350525;-;-;-;-;-;-;-;-;-;-;-;-;-;-;-
1514098557787;-;-;9.477936;-0.19493103;0.9308319;-;-;-;-;-;-;-;-;-;-;-;-;-;-;-
1514098557808;-;-;9.243301;-0.20451355;1.057724;-;-;-;-;-;-;-;-;-;-;-;-;-;-;-
1514098557828;-;-;8.9991;-0.12071228;1.3055267;-;-;-;-;-;-;-;-;-;-;-;-;-;-;-
1514098557849;-;-;8.983536;0.13067627;1.5401611;-;-;-;-;-;-;-;-;-;-;-;-;-;-;-
1514098557869;-;-;8.786011;0.4479065;1.6275482;-;-;-;-;-;-;-;-;-;-;-;-;-;-;-
1514098557889;-;-;8.572922;0.4084015;1.6000061;-;-;-;-;-;-;-;-;-;-;-;-;-;-;-
1514098557910;-;-;8.971558;0.15940857;1.5305786;-;-;-;-;-;-;-;-;-;-;-;-;-;-;-
1514098557930;-;-;9.166687;-0.057266235;1.246872;-;-;-;-;-;-;-;-;-;-;-;-;-;-;-
1514098557950;-;-;9.3893585;0.122299194;0.82429504;-;-;-;-;-;-;-;-;-;-;-;-;-;-;-
1514098557970;-;-;9.626373;0.57240295;0.8410492;-;-;-;-;-;-;-;-;-;-;-;-;-;-;-
1514098557991;-;-;9.333084;0.66578674;0.9775238;-;-;-;-;-;-;-;-;-;-;-;-;-;-;-
1514098558011;-;-;9.100845;0.107925415;0.8985138;-;-;-;-;-;-;-;-;-;-;-;-;-;-;-
1514098558031;-;-;9.075714;-0.33499146;0.94400024;-;-;-;-;-;-;-;-;-;-;-;-;-;-;-
1514098558052;-;-;9.182251;-0.05607605;1.2588348;-;-;-;-;-;-;-;-;-;-;-;-;-;-;-
1514098558071;-;-;8.813553;0.0049743652;1.5198059;-;-;-;-;-;-;-;-;-;-;-;-;-;-;-
1514098558092;-;-;8.9392395;0.15820313;0.99786377;-;-;-;-;-;-;-;-;-;-;-;-;-;-;-
1514098558112;-;-;9.075714;0.5305023;1.1175842;-;-;-;-;-;-;-;-;-;-;-;-;-;-;-
1514098558132;-;-;9.005081;0.80822754;1.3881226;-;-;-;-;-;-;-;-;-;-;-;-;-;-;-
1514098558152;-;-;8.880585;0.55804443;1.433609;-;-;-;-;-;-;-;-;-;-;-;-;-;-;-
1514098558172;-;-;9.096069;-0.016571045;1.3294678;-;-;-;-;-;-;-;-;-;-;-;-;-;-;-
1514098558193;-;-;9.215775;-0.34098816;1.2049713;-;-;-;-;-;-;-;-;-;-;-;-;-;-;-
1514098558213;-;-;9.31752;-0.29071045;1.1295471;-;-;-;-;-;-;-;-;-;-;-;-;-;-;-
1514098558233;-;-;9.195419;-0.21647644;1.1463013;-;-;-;-;-;-;-;-;-;-;-;-;-;-;-
1514098558254;-;-;9.042191;-0.06086731;1.1882019;-;-;-;-;-;-;-;-;-;-;-;-;-;-;-
1514098558274;-;-;8.868607;0.13186646;1.1894073;-;-;-;-;-;-;-;-;-;-;-;-;-;-;-
1514098558294;-;-;8.964386;0.2192688;1.2720032;-;-;-;-;-;-;-;-;-;-;-;-;-;-;-
1514098558314;-;-;9.0577545;0.24798584;1.29953;-;-;-;-;-;-;-;-;-;-;-;-;-;-;-
1514098558335;-;-;9.151123;0.013366699;1.0960236;-;-;-;-;-;-;-;-;-;-;-;-;-;-;-
1514098558355;-;-;9.292389;-0.18057251;0.85661316;-;-;-;-;-;-;-;-;-;-;-;-;-;-;-
1514098558375;-;-;9.440826;-0.16142273;1.0098419;-;-;-;-;-;-;-;-;-;-;-;-;-;-;-
1514098558396;-;-;9.390549;-0.057266235;1.1451111;-;-;-;-;-;-;-;-;-;-;-;-;-;-;-
1514098558416;-;-;9.268448;-0.06086731;1.0876465;-;-;-;-;-;-;-;-;-;-;-;-;-;-;-
1514098558436;-;-;9.477936;-0.28831482;0.8530121;-;-;-;-;-;-;-;-;-;-;-;-;-;-;-
1514098558456;-;-;9.590469;-0.42118835;0.62916565;-;-;-;-;-;-;-;-;-;-;-;-;-;-;-
1514098558477;-;-;9.371399;-0.3002777;0.49627686;-;-;-;-;-;-;-;-;-;-;-;-;-;-;-
1514098558497;-;-;9.068527;-0.0010070801;0.54296875;-;-;-;-;-;-;-;-;-;-;-;-;-;-;-
1514098558518;-;-;8.878189;0.17497253;0.8159027;-;-;-;-;-;-;-;-;-;-;-;-;-;-;-
1514098558538;-;-;8.940445;0.36650085;0.9715271;-;-;-;-;-;-;-;-;-;-;-;-;-;-;-
1514098558558;-;-;9.020645;0.28271484;1.0601196;-;-;-;-;-;-;-;-;-;-;-;-;-;-;-
1514098558579;-;-;9.1523285;0.1618042;1.0720825;-;-;-;-;-;-;-;-;-;-;-;-;-;-;-
1514098558598;-;-;9.37619;0.083984375;0.939209;-;-;-;-;-;-;-;-;-;-;-;-;-;-;-
1514098558618;-;-;9.485123;-0.016571045;1.0158234;-;-;-;-;-;-;-;-;-;-;-;-;-;-;-
1514098558638;-;-;9.438431;-0.117126465;1.0637054;-;-;-;-;-;-;-;-;-;-;-;-;-;-;-
1514098558659;-;-;9.267242;-0.13986206;1.0158234;-;-;-;-;-;-;-;-;-;-;-;-;-;-;-
1514098558679;-;-;8.934448;-0.083602905;1.1415253;-;-;-;-;-;-;-;-;-;-;-;-;-;-;-
1514098558699;-;-;8.859039;-0.074035645;1.339035;-;-;-;-;-;-;-;-;-;-;-;-;-;-;-
1514098558720;-;-;8.97995;-0.1590271;1.4216461;-;-;-;-;-;-;-;-;-;-;-;-;-;-;-
1514098558740;-;-;9.163101;-0.17936707;1.4048767;-;-;-;-;-;-;-;-;-;-;-;-;-;-;-
1514098558760;-;-;9.261261;-0.12908936;1.3126984;-;-;-;-;-;-;-;-;-;-;-;-;-;-;-
1514098558780;-;-;9.250488;0.043289185;1.2480621;-;-;-;-;-;-;-;-;-;-;-;-;-;-;-
1514098558801;-;-;9.163101;0.17018127;1.1822205;-;-;-;-;-;-;-;-;-;-;-;-;-;-;-
1514098558820;-;-;9.115219;0.12588501;1.1570892;-;-;-;-;-;-;-;-;-;-;-;-;-;-;-
1514098558840;-;-;9.104446;0.024139404;1.160675;-;-;-;-;-;-;-;-;-;-;-;-;-;-;-
1514098558860;-;-;9.15831;-0.030929565;1.1068115;-;-;-;-;-;-;-;-;-;-;-;-;-;-;-
1514098558881;-;-;9.288788;0.009765625;1.0349731;-;-;-;-;-;-;-;-;-;-;-;-;-;-;-
1514098558901;-;-;9.305557;0.07081604;0.9894867;-;-;-;-;-;-;-;-;-;-;-;-;-;-;-
1514098558921;-;-;9.361816;0.081588745;0.90449524;-;-;-;-;-;-;-;-;-;-;-;-;-;-;-
1514098558942;-;-;9.397736;0.014556885;0.81710815;-;-;-;-;-;-;-;-;-;-;-;-;-;-;-
1514098558962;-;-;9.323517;-0.102752686;0.7620392;-;-;-;-;-;-;-;-;-;-;-;-;-;-;-
1514098558982;-;-;9.096069;-0.2607727;0.92245483;-;-;-;-;-;-;-;-;-;-;-;-;-;-;-
1514098559003;-;-;9.044586;-0.25;1.0445557;-;-;-;-;-;-;-;-;-;-;-;-;-;-;-
1514098559023;-;-;9.021835;-0.16142273;1.1666565;-;-;-;-;-;-;-;-;-;-;-;-;-;-;-
1514098559043;-;-;9.07811;-0.114730835;1.2612305;-;-;-;-;-;-;-;-;-;-;-;-;-;-;-
1514098559064;-;-;9.103241;-0.10395813;1.2564392;-;-;-;-;-;-;-;-;-;-;-;-;-;-;-
1514098559084;-;-;9.129578;-0.07522583;1.29953;-;-;-;-;-;-;-;-;-;-;-;-;-;-;-
1514098559104;-;-;9.1918335;-0.00579834;1.3198853;-;-;-;-;-;-;-;-;-;-;-;-;-;-;-
1514098559125;-;-;9.244507;0.08279419;1.3402405;-;-;-;-;-;-;-;-;-;-;-;-;-;-;-
1514098559145;-;-;9.233734;0.17855835;1.2767944;-;-;-;-;-;-;-;-;-;-;-;-;-;-;-
1514098559165;-;-;9.183456;0.20370483;1.236084;-;-;-;-;-;-;-;-;-;-;-;-;-;-;-
1514098559186;-;-;9.116409;0.17018127;1.2480621;-;-;-;-;-;-;-;-;-;-;-;-;-;-;-
1514098559205;-;-;9.025436;0.1558075;1.394104;-;-;-;-;-;-;-;-;-;-;-;-;-;-;-
1514098559225;-;-;9.087677;0.09715271;1.3378448;-;-;-;-;-;-;-;-;-;-;-;-;-;-;-
1514098559246;-;-;9.160706;0.057647705;1.1989746;-;-;-;-;-;-;-;-;-;-;-;-;-;-;-
1514098559265;-;-;9.127182;0.033706665;1.1882019;-;-;-;-;-;-;-;-;-;-;-;-;-;-;-
1514098559285;-;-;9.115219;-0.11352539;1.2241211;-;-;-;-;-;-;-;-;-;-;-;-;-;-;-
1514098559306;-;-;9.108032;-0.21768188;1.2229156;-;-;-;-;-;-;-;-;-;-;-;-;-;-;-
1514098559325;-;-;9.066132;-0.18536377;1.2600403;-;-;-;-;-;-;-;-;-;-;-;-;-;-;-
1514098559345;-;-;9.080505;-0.109939575;1.2696075;-;-;-;-;-;-;-;-;-;-;-;-;-;-;-
1514098559366;-;-;9.074509;-0.07522583;1.2660217;-;-;-;-;-;-;-;-;-;-;-;-;-;-;-
1514098559386;-;-;9.133179;-0.06324768;1.2851715;-;-;-;-;-;-;-;-;-;-;-;-;-;-;-
1514098559406;-;-;9.166687;-0.05847168;1.2588348;-;-;-;-;-;-;-;-;-;-;-;-;-;-;-
1514098559427;-;-;9.194229;0.036102295;1.2815857;-;-;-;-;-;-;-;-;-;-;-;-;-;-;-
1514098559447;-;-;9.243301;0.07800293;1.2348938;-;-;-;-;-;-;-;-;-;-;-;-;-;-;-
1514098559467;-;-;9.175064;0.1043396;1.1882019;-;-;-;-;-;-;-;-;-;-;-;-;-;-;-
1514098559487;-;-;9.129578;0.11152649;1.191803;-;-;-;-;-;-;-;-;-;-;-;-;-;-;-
1514098559508;-;-;9.100845;0.1510315;1.1666565;-;-;-;-;-;-;-;-;-;-;-;-;-;-;-
1514098559528;-;-;9.051773;0.19770813;1.1654663;-;-;-;-;-;-;-;-;-;-;-;-;-;-;-
1514098559548;-;-;9.07811;0.12948608;1.1941986;-;-;-;-;-;-;-;-;-;-;-;-;-;-;-
1514098559568;-;-;9.17627;-0.059661865;1.2384796;-;-;-;-;-;-;-;-;-;-;-;-;-;-;-
1514098559589;-;-;9.200211;-0.24520874;1.255249;-;-;-;-;-;-;-;-;-;-;-;-;-;-;-
1514098559609;-;-;9.145142;-0.30387878;1.2803802;-;-;-;-;-;-;-;-;-;-;-;-;-;-;-
1514098559629;-;-;9.110428;-0.23324585;1.3522034;-;-;-;-;-;-;-;-;-;-;-;-;-;-;-
1514098559650;-;-;9.076904;-0.062057495;1.4623413;-;-;-;-;-;-;-;-;-;-;-;-;-;-;-
1514098559669;-;-;9.027832;0.100753784;1.4515686;-;-;-;-;-;-;-;-;-;-;-;-;-;-;-
1514098559689;-;-;9.111618;0.079193115;1.354599;-;-;-;-;-;-;-;-;-;-;-;-;-;-;-
1514098559710;-;-;9.257675;-0.02734375;1.207367;-;-;-;-;-;-;-;-;-;-;-;-;-;-;-
1514098559730;-;-;9.372589;-0.06324768;1.0481415;-;-;-;-;-;-;-;-;-;-;-;-;-;-;-
1514098559750;-;-;9.323517;-0.10874939;0.9811096;-;-;-;-;-;-;-;-;-;-;-;-;-;-;-
1514098559770;-;-;9.221756;-0.13269043;0.91885376;-;-;-;-;-;-;-;-;-;-;-;-;-;-;-
1514098559790;-;-;9.173874;-0.109939575;0.939209;-;-;-;-;-;-;-;-;-;-;-;-;-;-;-
1514098559811;-;-;9.161896;-0.050079346;0.978714;-;-;-;-;-;-;-;-;-;-;-;-;-;-;-
1514098559831;-;-;9.14035;0.028915405;0.85661316;-;-;-;-;-;-;-;-;-;-;-;-;-;-;-
1514098559851;-;-;9.0972595;0.02772522;0.8614044;-;-;-;-;-;-;-;-;-;-;-;-;-;-;-
1514098559871;-;-;9.187042;-0.0105896;0.9272461;-;-;-;-;-;-;-;-;-;-;-;-;-;-;-
1514098559891;-;-;9.243301;-0.0010070801;0.97273254;-;-;-;-;-;-;-;-;-;-;-;-;-;-;-
1514098559912;-;-;9.274429;0.043289185;1.0014648;-;-;-;-;-;-;-;-;-;-;-;-;-;-;-
1514098559932;-;-;9.201401;0.05885315;1.0397644;-;-;-;-;-;-;-;-;-;-;-;-;-;-;-
1514098559952;-;-;9.104446;0.081588745;1.1044159;-;-;-;-;-;-;-;-;-;-;-;-;-;-;-
1514098559972;-;-;9.117615;-0.00819397;1.0960236;-;-;-;-;-;-;-;-;-;-;-;-;-;-;-
1514098559993;-;-;9.166687;-0.02734375;1.1355286;-;-;-;-;-;-;-;-;-;-;-;-;-;-;-
1514098560013;-;-;9.169083;0.048080444;1.1259613;-;-;-;-;-;-;-;-;-;-;-;-;-;-;-
1514098560035;-;-;9.208588;0.1330719;1.1391296;-;-;-;-;-;-;-;-;-;-;-;-;-;-;-
1514098560054;-;-;9.216965;0.112716675;1.1103973;-;-;-;-;-;-;-;-;-;-;-;-;-;-;-
1514098560074;-;-;9.181061;0.06842041;1.0876465;-;-;-;-;-;-;-;-;-;-;-;-;-;-;-
1514098560094;-;-;9.137955;0.055252075;1.0768738;-;-;-;-;-;-;-;-;-;-;-;-;-;-;-
1514098560115;-;-;9.114014;-0.03691101;1.0792694;-;-;-;-;-;-;-;-;-;-;-;-;-;-;-
1514098560135;-;-;9.151123;0.0037841797;1.0768738;-;-;-;-;-;-;-;-;-;-;-;-;-;-;-
1514098560155;-;-;9.13916;-0.03213501;1.0589142;-;-;-;-;-;-;-;-;-;-;-;-;-;-;-
1514098560176;-;-;9.167892;-0.05607605;1.0493469;-;-;-;-;-;-;-;-;-;-;-;-;-;-;-
1514098560196;-;-;9.200211;-0.05607605;1.0254059;-;-;-;-;-;-;-;-;-;-;-;-;-;-;-
1514098560216;-;-;9.230133;0.0025787354;0.98350525;-;-;-;-;-;-;-;-;-;-;-;-;-;-;-
1514098560237;-;-;9.195419;0.02293396;1.0122375;-;-;-;-;-;-;-;-;-;-;-;-;-;-;-
1514098560256;-;-;9.179855;0.09236145;1.0361786;-;-;-;-;-;-;-;-;-;-;-;-;-;-;-
1514098560276;-;-;9.142746;0.22883606;1.0206146;-;-;-;-;-;-;-;-;-;-;-;-;-;-;-
1514098560296;-;-;9.1128235;0.27313232;1.0565186;-;-;-;-;-;-;-;-;-;-;-;-;-;-;-
1514098560317;-;-;9.15712;0.23242188;1.0684967;-;-;-;-;-;-;-;-;-;-;-;-;-;-;-
1514098560337;-;-;9.226547;0.115112305;1.0002594;-;-;-;-;-;-;-;-;-;-;-;-;-;-;-
1514098560357;-;-;9.184647;0.04447937;1.0158234;-;-;-;-;-;-;-;-;-;-;-;-;-;-;-
1514098560378;-;-;9.146347;0.008575439;1.0589142;-;-;-;-;-;-;-;-;-;-;-;-;-;-;-
1514098560398;-;-;9.137955;0.02293396;1.0517426;-;-;-;-;-;-;-;-;-;-;-;-;-;-;-
1514098560418;-;-;9.088882;-0.0045928955;1.0265961;-;-;-;-;-;-;-;-;-;-;-;-;-;-;-
1514098560439;-;-;9.096069;0.019348145;1.1103973;-;-;-;-;-;-;-;-;-;-;-;-;-;-;-
1514098560459;-;-;9.145142;0.03491211;1.1151886;-;-;-;-;-;-;-;-;-;-;-;-;-;-;-
1514098560479;-;-;9.210983;0.057647705;1.1032104;-;-;-;-;-;-;-;-;-;-;-;-;-;-;-
1514098560499;-;-;9.197815;0.095962524;1.0996246;-;-;-;-;-;-;-;-;-;-;-;-;-;-;-
1514098560520;-;-;9.125992;0.08998108;1.0780792;-;-;-;-;-;-;-;-;-;-;-;-;-;-;-
1514098560540;-;-;9.122391;0.086380005;1.0625153;-;-;-;-;-;-;-;-;-;-;-;-;-;-;-
1514098560560;-;-;9.154724;0.064834595;1.0325775;-;-;-;-;-;-;-;-;-;-;-;-;-;-;-
1514098560581;-;-;9.124786;0.06124878;1.0828552;-;-;-;-;-;-;-;-;-;-;-;-;-;-;-
1514098560601;-;-;9.1128235;-0.02015686;1.0888519;-;-;-;-;-;-;-;-;-;-;-;-;-;-;-
1514098560621;-;-;9.167892;-0.09197998;1.1391296;-;-;-;-;-;-;-;-;-;-;-;-;-;-;-
1514098560642;-;-;9.208588;-0.05368042;1.1546936;-;-;-;-;-;-;-;-;-;-;-;-;-;-;-
1514098560662;-;-;9.185837;-0.035720825;1.1319427;-;-;-;-;-;-;-;-;-;-;-;-;-;-;-
1514098560682;-;-;9.189438;-0.059661865;1.0637054;-;-;-;-;-;-;-;-;-;-;-;-;-;-;-
1514098560703;-;-;9.199005;-0.059661865;1.0014648;-;-;-;-;-;-;-;-;-;-;-;-;-;-;-
1514098560723;-;-;9.197815;-0.064453125;0.97631836;-;-;-;-;-;-;-;-;-;-;-;-;-;-;-
1514098560743;-;-;9.166687;-0.062057495;0.9859009;-;-;-;-;-;-;-;-;-;-;-;-;-;-;-
1514098560764;-;-;9.104446;-0.16859436;1.0445557;-;-;-;-;-;-;-;-;-;-;-;-;-;-;-
1514098560784;-;-;9.108032;-0.1817627;1.0828552;-;-;-;-;-;-;-;-;-;-;-;-;-;-;-
1514098560804;-;-;9.109222;-0.13388062;1.0948334;-;-;-;-;-;-;-;-;-;-;-;-;-;-;-
1514098560824;-;-;9.196625;-0.064453125;1.1283569;-;-;-;-;-;-;-;-;-;-;-;-;-;-;-
1514098560845;-;-;9.1918335;-0.07522583;1.0792694;-;-;-;-;-;-;-;-;-;-;-;-;-;-;-
1514098560865;-;-;9.213379;0.021743774;1.0888519;-;-;-;-;-;-;-;-;-;-;-;-;-;-;-
1514098560885;-;-;9.121201;0.021743774;1.073288;-;-;-;-;-;-;-;-;-;-;-;-;-;-;-
1514098560906;-;-;9.111618;0.040893555;1.1247559;-;-;-;-;-;-;-;-;-;-;-;-;-;-;-
1514098560926;-;-;9.07811;0.013366699;1.0661011;-;-;-;-;-;-;-;-;-;-;-;-;-;-;-
1514098560947;-;-;9.1128235;-0.021362305;1.152298;-;-;-;-;-;-;-;-;-;-;-;-;-;-;-
1514098560967;-;-;9.246902;-0.08958435;0.98350525;-;-;-;-;-;-;-;-;-;-;-;-;-;-;-
1514098560987;-;-;9.273239;-0.1015625;0.9176636;-;-;-;-;-;-;-;-;-;-;-;-;-;-;-
1514098561008;-;-;9.246902;-0.14225769;0.9751282;-;-;-;-;-;-;-;-;-;-;-;-;-;-;-
1514098561027;-;-;9.23732;-0.26316833;0.9380188;-;-;-;-;-;-;-;-;-;-;-;-;-;-;-
1514098561047;-;-;9.23851;-0.34936523;0.89730835;-;-;-;-;-;-;-;-;-;-;-;-;-;-;-
1514098561068;-;-;9.21817;-0.33259583;0.8697815;-;-;-;-;-;-;-;-;-;-;-;-;-;-;-
1514098561087;-;-;9.197815;-0.25598145;0.7548523;-;-;-;-;-;-;-;-;-;-;-;-;-;-;-
1514098561107;-;-;9.1918335;-0.17098999;0.686615;-;-;-;-;-;-;-;-;-;-;-;-;-;-;-
1514098561128;-;-;9.220566;-0.14465332;0.7045746;-;-;-;-;-;-;-;-;-;-;-;-;-;-;-
1514098561148;-;-;9.2708435;-0.0440979;0.6770477;-;-;-;-;-;-;-;-;-;-;-;-;-;-;-
1514098561168;-;-;9.282806;-0.02255249;0.6255646;-;-;-;-;-;-;-;-;-;-;-;-;-;-;-
1514098561189;-;-;9.340271;-0.05368042;0.5585327;-;-;-;-;-;-;-;-;-;-;-;-;-;-;-
1514098561209;-;-;9.272034;-0.08720398;0.60043335;-;-;-;-;-;-;-;-;-;-;-;-;-;-;-
1514098561229;-;-;9.221756;-0.19613647;0.6638794;-;-;-;-;-;-;-;-;-;-;-;-;-;-;-
1514098561250;-;-;9.169083;-0.23324585;0.6926117;-;-;-;-;-;-;-;-;-;-;-;-;-;-;-
1514098561270;-;-;9.221756;-0.21887207;0.7357025;-;-;-;-;-;-;-;-;-;-;-;-;-;-;-
1514098561291;-;-;9.209793;-0.1530304;0.7907715;-;-;-;-;-;-;-;-;-;-;-;-;-;-;-
1514098561311;-;-;9.254074;-0.112335205;0.7835846;-;-;-;-;-;-;-;-;-;-;-;-;-;-;-
1514098561331;-;-;9.281616;-0.10874939;0.78837585;-;-;-;-;-;-;-;-;-;-;-;-;-;-;-
1514098561351;-;-;9.262466;-0.081207275;0.76322937;-;-;-;-;-;-;-;-;-;-;-;-;-;-;-
1514098561372;-;-;9.185837;-0.09197998;0.7907715;-;-;-;-;-;-;-;-;-;-;-;-;-;-;-
1514098561392;-;-;9.155914;-0.105148315;0.85780334;-;-;-;-;-;-;-;-;-;-;-;-;-;-;-
1514098561412;-;-;9.170288;-0.08720398;0.8817444;-;-;-;-;-;-;-;-;-;-;-;-;-;-;-
1514098561433;-;-;9.166687;-0.08241272;0.89372253;-;-;-;-;-;-;-;-;-;-;-;-;-;-;-
1514098561453;-;-;9.17627;-0.12550354;0.9451904;-;-;-;-;-;-;-;-;-;-;-;-;-;-;-
1514098561473;-;-;9.187042;-0.14346313;0.9128723;-;-;-;-;-;-;-;-;-;-;-;-;-;-;-
1514098561493;-;-;9.195419;-0.14944458;0.8949127;-;-;-;-;-;-;-;-;-;-;-;-;-;-;-
1514098561514;-;-;9.141556;-0.078811646;0.9344177;-;-;-;-;-;-;-;-;-;-;-;-;-;-;-
1514098561534;-;-;9.17746;-0.12908936;0.91407776;-;-;-;-;-;-;-;-;-;-;-;-;-;-;-
1514098561554;-;-;9.200211;-0.124313354;0.79556274;-;-;-;-;-;-;-;-;-;-;-;-;-;-;-
1514098561575;-;-;9.167892;-0.15184021;0.85780334;-;-;-;-;-;-;-;-;-;-;-;-;-;-;-
1514098561595;-;-;9.207397;-0.18296814;0.860199;-;-;-;-;-;-;-;-;-;-;-;-;-;-;-
1514098561615;-;-;9.221756;-0.21170044;0.8877411;-;-;-;-;-;-;-;-;-;-;-;-;-;-;-
1514098561636;-;-;9.182251;-0.23803711;0.91885376;-;-;-;-;-;-;-;-;-;-;-;-;-;-;-
1514098561656;-;-;9.206192;-0.23324585;0.8709717;-;-;-;-;-;-;-;-;-;-;-;-;-;-;-
1514098561676;-;-;9.222961;-0.17459106;0.8889313;-;-;-;-;-;-;-;-;-;-;-;-;-;-;-
1514098561697;-;-;9.17627;-0.14704895;0.86738586;-;-;-;-;-;-;-;-;-;-;-;-;-;-;-
1514098561716;-;-;9.134369;-0.109939575;0.9284363;-;-;-;-;-;-;-;-;-;-;-;-;-;-;-
1514098561736;-;-;9.170288;-0.119522095;0.88414;-;-;-;-;-;-;-;-;-;-;-;-;-;-;-
1514098561756;-;-;9.250488;-0.13986206;0.74168396;-;-;-;-;-;-;-;-;-;-;-;-;-;-;-
1514098561777;-;-;9.258865;-0.15184021;0.681839;-;-;-;-;-;-;-;-;-;-;-;-;-;-;-
1514098561797;-;-;9.208588;-0.10874939;0.7357025;-;-;-;-;-;-;-;-;-;-;-;-;-;-;-
1514098561817;-;-;9.228943;-0.083602905;0.7548523;-;-;-;-;-;-;-;-;-;-;-;-;-;-;-
1514098561838;-;-;9.182251;-0.15423584;0.8147125;-;-;-;-;-;-;-;-;-;-;-;-;-;-;-
1514098561859;-;-;9.181061;-0.17936707;0.8123169;-;-;-;-;-;-;-;-;-;-;-;-;-;-;-
1514098561879;-;-;9.209793;-0.1769867;0.7333069;-;-;-;-;-;-;-;-;-;-;-;-;-;-;-
1514098561899;-;-;9.2313385;-0.17578125;0.73091125;-;-;-;-;-;-;-;-;-;-;-;-;-;-;-
1514098561920;-;-;9.25528;-0.18894958;0.80752563;-;-;-;-;-;-;-;-;-;-;-;-;-;-;-
1514098561940;-;-;9.184647;-0.26914978;0.8422394;-;-;-;-;-;-;-;-;-;-;-;-;-;-;-
1514098561960;-;-;9.141556;-0.26556396;0.93681335;-;-;-;-;-;-;-;-;-;-;-;-;-;-;-
1514098561980;-;-;9.125992;-0.1302948;0.9272461;-;-;-;-;-;-;-;-;-;-;-;-;-;-;-
1514098562001;-;-;9.114014;-0.04170227;0.88534546;-;-;-;-;-;-;-;-;-;-;-;-;-;-;-
1514098562021;-;-;9.094864;0.0049743652;0.80513;-;-;-;-;-;-;-;-;-;-;-;-;-;-;-
1514098562041;-;-;9.154724;-0.015365601;0.80633545;-;-;-;-;-;-;-;-;-;-;-;-;-;-;-
1514098562062;-;-;9.243301;-0.03691101;0.8518219;-;-;-;-;-;-;-;-;-;-;-;-;-;-;-
1514098562083;-;-;9.252884;0.05406189;0.7728119;-;-;-;-;-;-;-;-;-;-;-;-;-;-;-
1514098562103;-;-;9.284012;0.16897583;0.7512665;-;-;-;-;-;-;-;-;-;-;-;-;-;-;-
1514098562123;-;-;9.252884;0.17736816;0.6997833;-;-;-;-;-;-;-;-;-;-;-;-;-;-;-
1514098562144;-;-;9.142746;0.124694824;0.75964355;-;-;-;-;-;-;-;-;-;-;-;-;-;-;-
1514098562164;-;-;9.14035;0.09475708;0.75006104;-;-;-;-;-;-;-;-;-;-;-;-;-;-;-
1514098562184;-;-;9.154724;0.062438965;0.71894836;-;-;-;-;-;-;-;-;-;-;-;-;-;-;-
1514098562205;-;-;9.155914;0.038497925;0.72372437;-;-;-;-;-;-;-;-;-;-;-;-;-;-;-
1514098562225;-;-;9.187042;0.0049743652;0.7404938;-;-;-;-;-;-;-;-;-;-;-;-;-;-;-
1514098562246;-;-;9.212173;-0.08720398;0.66986084;-;-;-;-;-;-;-;-;-;-;-;-;-;-;-
1514098562265;-;-;9.224152;-0.117126465;0.67944336;-;-;-;-;-;-;-;-;-;-;-;-;-;-;-
1514098562285;-;-;9.185837;-0.19013977;0.6830292;-;-;-;-;-;-;-;-;-;-;-;-;-;-;-
1514098562305;-;-;9.226547;-0.16381836;0.6758423;-;-;-;-;-;-;-;-;-;-;-;-;-;-;-
1514098562326;-;-;9.175064;-0.114730835;0.61120605;-;-;-;-;-;-;-;-;-;-;-;-;-;-;-
1514098562346;-;-;9.242111;-0.081207275;0.61239624;-;-;-;-;-;-;-;-;-;-;-;-;-;-;-
1514098562366;-;-;9.228943;-0.083602905;0.56092834;-;-;-;-;-;-;-;-;-;-;-;-;-;-;-
1514098562387;-;-;9.252884;-0.090789795;0.5549469;-;-;-;-;-;-;-;-;-;-;-;-;-;-;-
1514098562407;-;-;9.240906;-0.1015625;0.5274048;-;-;-;-;-;-;-;-;-;-;-;-;-;-;-
1514098562428;-;-;9.292389;-0.06803894;0.47473145;-;-;-;-;-;-;-;-;-;-;-;-;-;-;-
1514098562447;-;-;9.291183;-0.090789795;0.46276855;-;-;-;-;-;-;-;-;-;-;-;-;-;-;-
1514098562468;-;-;9.272034;-0.1015625;0.3789673;-;-;-;-;-;-;-;-;-;-;-;-;-;-;-
1514098562488;-;-;9.260071;-0.0010070801;0.40530396;-;-;-;-;-;-;-;-;-;-;-;-;-;-;-
1514098562509;-;-;9.234924;0.060043335;0.3777771;-;-;-;-;-;-;-;-;-;-;-;-;-;-;-
1514098562529;-;-;9.21817;0.13067627;0.31791687;-;-;-;-;-;-;-;-;-;-;-;-;-;-;-
1514098562549;-;-;9.173874;0.2132721;0.2736206;-;-;-;-;-;-;-;-;-;-;-;-;-;-;-
1514098562570;-;-;9.220566;0.18814087;0.36938477;-;-;-;-;-;-;-;-;-;-;-;-;-;-;-
1514098562589;-;-;9.257675;0.18214417;0.37657166;-;-;-;-;-;-;-;-;-;-;-;-;-;-;-
1514098562609;-;-;9.272034;0.18574524;0.3610077;-;-;-;-;-;-;-;-;-;-;-;-;-;-;-
1514098562629;-;-;9.269638;0.15461731;0.31671143;-;-;-;-;-;-;-;-;-;-;-;-;-;-;-
1514098562650;-;-;9.189438;0.15222168;0.44599915;-;-;-;-;-;-;-;-;-;-;-;-;-;-;-
1514098562670;-;-;9.215775;0.10673523;0.45439148;-;-;-;-;-;-;-;-;-;-;-;-;-;-;-
1514098562690;-;-;9.214569;0.1330719;0.36221313;-;-;-;-;-;-;-;-;-;-;-;-;-;-;-
1514098562711;-;-;9.165497;0.12588501;0.42565918;-;-;-;-;-;-;-;-;-;-;-;-;-;-;-
1514098562730;-;-;9.166687;0.060043335;0.4472046;-;-;-;-;-;-;-;-;-;-;-;-;-;-;-
1514098562750;-;-;9.1918335;0.08279419;0.49388123;-;-;-;-;-;-;-;-;-;-;-;-;-;-;-
1514098562771;-;-;9.2313385;0.06842041;0.5166321;-;-;-;-;-;-;-;-;-;-;-;-;-;-;-
1514098562790;-;-;9.23851;0.02532959;0.55015564;-;-;-;-;-;-;-;-;-;-;-;-;-;-;-
1514098562810;-;-;9.193024;0.03012085;0.53338623;-;-;-;-;-;-;-;-;-;-;-;-;-;-;-
1514098562831;-;-;9.123596;0.038497925;0.52500916;-;-;-;-;-;-;-;-;-;-;-;-;-;-;-
1514098562851;-;-;9.167892;0.0756073;0.53578186;-;-;-;-;-;-;-;-;-;-;-;-;-;-;-
1514098562871;-;-;9.213379;0.08279419;0.47833252;-;-;-;-;-;-;-;-;-;-;-;-;-;-;-
1514098562891;-;-;9.274429;0.119903564;0.45916748;-;-;-;-;-;-;-;-;-;-;-;-;-;-;-
1514098562912;-;-;9.261261;0.13426208;0.4507904;-;-;-;-;-;-;-;-;-;-;-;-;-;-;-
1514098562931;-;-;9.208588;0.13186646;0.44360352;-;-;-;-;-;-;-;-;-;-;-;-;-;-;-
1514098562951;-;-;9.201401;0.13665771;0.46516418;-;-;-;-;-;-;-;-;-;-;-;-;-;-;-
1514098562972;-;-;9.187042;0.09475708;0.4472046;-;-;-;-;-;-;-;-;-;-;-;-;-;-;-
1514098562991;-;-;9.171478;0.103149414;0.4974823;-;-;-;-;-;-;-;-;-;-;-;-;-;-;-
1514098563011;-;-;9.205002;0.09954834;0.47833252;-;-;-;-;-;-;-;-;-;-;-;-;-;-;-
1514098563032;-;-;9.199005;0.10913086;0.49269104;-;-;-;-;-;-;-;-;-;-;-;-;-;-;-
1514098563052;-;-;9.194229;0.09715271;0.51423645;-;-;-;-;-;-;-;-;-;-;-;-;-;-;-
1514098563072;-;-;9.215775;0.14025879;0.52500916;-;-;-;-;-;-;-;-;-;-;-;-;-;-;-
1514098563094;-;-;9.213379;0.10194397;0.4974823;-;-;-;-;-;-;-;-;-;-;-;-;-;-;-
1514098563113;-;-;9.234924;0.11392212;0.5369873;-;-;-;-;-;-;-;-;-;-;-;-;-;-;-
1514098563133;-;-;9.2313385;0.14503479;0.5202179;-;-;-;-;-;-;-;-;-;-;-;-;-;-;-
1514098563153;-;-;9.215775;0.1438446;0.4795227;-;-;-;-;-;-;-;-;-;-;-;-;-;-;-
1514098563174;-;-;9.196625;0.13067627;0.48191833;-;-;-;-;-;-;-;-;-;-;-;-;-;-;-
1514098563194;-;-;9.172684;0.112716675;0.48910522;-;-;-;-;-;-;-;-;-;-;-;-;-;-;-
1514098563214;-;-;9.151123;0.10913086;0.56811523;-;-;-;-;-;-;-;-;-;-;-;-;-;-;-
1514098563235;-;-;9.225342;0.091171265;0.43164063;-;-;-;-;-;-;-;-;-;-;-;-;-;-;-
1514098563255;-;-;9.202606;0.05645752;0.46635437;-;-;-;-;-;-;-;-;-;-;-;-;-;-;-
1514098563275;-;-;9.213379;0.043289185;0.5154419;-;-;-;-;-;-;-;-;-;-;-;-;-;-;-
1514098563295;-;-;9.243301;0.083984375;0.57528687;-;-;-;-;-;-;-;-;-;-;-;-;-;-;-
1514098563315;-;-;9.206192;0.08758545;0.57170105;-;-;-;-;-;-;-;-;-;-;-;-;-;-;-
1514098563336;-;-;9.221756;0.093566895;0.6064148;-;-;-;-;-;-;-;-;-;-;-;-;-;-;-
1514098563356;-;-;9.173874;0.07800293;0.5058594;-;-;-;-;-;-;-;-;-;-;-;-;-;-;-
1514098563376;-;-;9.155914;0.13546753;0.5405731;-;-;-;-;-;-;-;-;-;-;-;-;-;-;-
1514098563396;-;-;9.163101;0.12588501;0.53219604;-;-;-;-;-;-;-;-;-;-;-;-;-;-;-
1514098563417;-;-;9.163101;0.09715271;0.5226135;-;-;-;-;-;-;-;-;-;-;-;-;-;-;-
1514098563437;-;-;9.291183;0.08758545;0.4986725;-;-;-;-;-;-;-;-;-;-;-;-;-;-;-
1514098563457;-;-;9.251678;0.086380005;0.48789978;-;-;-;-;-;-;-;-;-;-;-;-;-;-;-
1514098563477;-;-;9.205002;0.081588745;0.5513458;-;-;-;-;-;-;-;-;-;-;-;-;-;-;-
1514098563498;-;-;9.213379;0.110321045;0.53219604;-;-;-;-;-;-;-;-;-;-;-;-;-;-;-
1514098563518;-;-;9.203796;0.10673523;0.57528687;-;-;-;-;-;-;-;-;-;-;-;-;-;-;-
1514098563538;-;-;9.199005;0.11631775;0.5549469;-;-;-;-;-;-;-;-;-;-;-;-;-;-;-
1514098563559;-;-;9.202606;0.13067627;0.55255127;-;-;-;-;-;-;-;-;-;-;-;-;-;-;-
1514098563578;-;-;9.179855;0.083984375;0.4795227;-;-;-;-;-;-;-;-;-;-;-;-;-;-;-
1514098563599;-;-;9.210983;0.07081604;0.46276855;-;-;-;-;-;-;-;-;-;-;-;-;-;-;-
1514098563619;-;-;9.23851;0.083984375;0.4807129;-;-;-;-;-;-;-;-;-;-;-;-;-;-;-
1514098563639;-;-;9.227737;0.093566895;0.45916748;-;-;-;-;-;-;-;-;-;-;-;-;-;-;-
1514098563659;-;-;9.222961;0.09236145;0.5166321;-;-;-;-;-;-;-;-;-;-;-;-;-;-;-
1514098563680;-;-;9.188232;0.124694824;0.5369873;-;-;-;-;-;-;-;-;-;-;-;-;-;-;-
1514098563699;-;-;9.212173;0.14144897;0.5298004;-;-;-;-;-;-;-;-;-;-;-;-;-;-;-
1514098563719;-;-;9.199005;0.08758545;0.5046692;-;-;-;-;-;-;-;-;-;-;-;-;-;-;-
1514098563739;-;-;9.179855;0.05645752;0.5405731;-;-;-;-;-;-;-;-;-;-;-;-;-;-;-
1514098563760;-;-;9.23613;0.05166626;0.5274048;-;-;-;-;-;-;-;-;-;-;-;-;-;-;-
1514098563780;-;-;9.251678;0.06842041;0.45199585;-;-;-;-;-;-;-;-;-;-;-;-;-;-;-
1514098563800;-;-;9.230133;0.086380005;0.44360352;-;-;-;-;-;-;-;-;-;-;-;-;-;-;-
1514098563821;-;-;9.184647;0.100753784;0.54655457;-;-;-;-;-;-;-;-;-;-;-;-;-;-;-
1514098563841;-;-;9.166687;0.079193115;0.56451416;-;-;-;-;-;-;-;-;-;-;-;-;-;-;-
1514098563861;-;-;9.224152;0.08039856;0.60401917;-;-;-;-;-;-;-;-;-;-;-;-;-;-;-
1514098563881;-;-;9.179855;0.079193115;0.5992279;-;-;-;-;-;-;-;-;-;-;-;-;-;-;-
1514098563902;-;-;9.178665;0.07321167;0.5549469;-;-;-;-;-;-;-;-;-;-;-;-;-;-;-
1514098563922;-;-;9.202606;0.124694824;0.5058594;-;-;-;-;-;-;-;-;-;-;-;-;-;-;-
1514098563943;-;-;9.182251;0.07321167;0.56092834;-;-;-;-;-;-;-;-;-;-;-;-;-;-;-
1514098563963;-;-;9.25528;0.069625854;0.4902954;-;-;-;-;-;-;-;-;-;-;-;-;-;-;-
1514098563983;-;-;9.243301;0.079193115;0.4867096;-;-;-;-;-;-;-;-;-;-;-;-;-;-;-
1514098564003;-;-;9.225342;0.07800293;0.4759369;-;-;-;-;-;-;-;-;-;-;-;-;-;-;-
1514098564024;-;-;9.196625;0.064834595;0.46516418;-;-;-;-;-;-;-;-;-;-;-;-;-;-;-
1514098564044;-;-;9.213379;0.12948608;0.4807129;-;-;-;-;-;-;-;-;-;-;-;-;-;-;-
1514098564064;-;-;9.173874;0.10673523;0.51423645;-;-;-;-;-;-;-;-;-;-;-;-;-;-;-
1514098564085;-;-;9.21936;0.074417114;0.49987793;-;-;-;-;-;-;-;-;-;-;-;-;-;-;-
1514098564105;-;-;9.208588;0.064834595;0.5046692;-;-;-;-;-;-;-;-;-;-;-;-;-;-;-
1514098564125;-;-;9.205002;0.095962524;0.51423645;-;-;-;-;-;-;-;-;-;-;-;-;-;-;-
1514098564146;-;-;9.199005;0.10913086;0.51423645;-;-;-;-;-;-;-;-;-;-;-;-;-;-;-
1514098564166;-;-;9.215775;0.08998108;0.5441742;-;-;-;-;-;-;-;-;-;-;-;-;-;-;-
1514098564186;-;-;9.228943;0.110321045;0.49627686;-;-;-;-;-;-;-;-;-;-;-;-;-;-;-
1514098564207;-;-;9.205002;0.09715271;0.5369873;-;-;-;-;-;-;-;-;-;-;-;-;-;-;-
1514098564226;-;-;9.199005;0.117507935;0.5453644;-;-;-;-;-;-;-;-;-;-;-;-;-;-;-
1514098564246;-;-;9.232529;0.1043396;0.49150085;-;-;-;-;-;-;-;-;-;-;-;-;-;-;-
1514098564267;-;-;9.216965;0.043289185;0.4807129;-;-;-;-;-;-;-;-;-;-;-;-;-;-;-
1514098564286;-;-;9.195419;0.081588745;0.5166321;-;-;-;-;-;-;-;-;-;-;-;-;-;-;-
1514098564306;-;-;9.2313385;0.091171265;0.49987793;-;-;-;-;-;-;-;-;-;-;-;-;-;-;-
1514098564327;-;-;9.2708435;0.10194397;0.44122314;-;-;-;-;-;-;-;-;-;-;-;-;-;-;-
1514098564347;-;-;9.195419;0.12109375;0.48431396;-;-;-;-;-;-;-;-;-;-;-;-;-;-;-
1514098564367;-;-;9.148727;0.11152649;0.52381897;-;-;-;-;-;-;-;-;-;-;-;-;-;-;-
1514098564388;-;-;9.161896;0.117507935;0.57528687;-;-;-;-;-;-;-;-;-;-;-;-;-;-;-
1514098564408;-;-;9.215775;0.09715271;0.5884552;-;-;-;-;-;-;-;-;-;-;-;-;-;-;-
1514098564428;-;-;9.23851;0.09475708;0.52381897;-;-;-;-;-;-;-;-;-;-;-;-;-;-;-
1514098564449;-;-;9.197815;0.14982605;0.50346375;-;-;-;-;-;-;-;-;-;-;-;-;-;-;-
1514098564469;-;-;9.183456;0.10194397;0.51065063;-;-;-;-;-;-;-;-;-;-;-;-;-;-;-
1514098564489;-;-;9.175064;0.12109375;0.56451416;-;-;-;-;-;-;-;-;-;-;-;-;-;-;-
1514098564509;-;-;9.21817;0.1043396;0.49987793;-;-;-;-;-;-;-;-;-;-;-;-;-;-;-
1514098564529;-;-;9.250488;0.08758545;0.47233582;-;-;-;-;-;-;-;-;-;-;-;-;-;-;-
1514098564550;-;-;9.203796;0.11392212;0.46395874;-;-;-;-;-;-;-;-;-;-;-;-;-;-;-
1514098564570;-;-;9.199005;0.117507935;0.49388123;-;-;-;-;-;-;-;-;-;-;-;-;-;-;-
1514098564590;-;-;9.1918335;0.09954834;0.53578186;-;-;-;-;-;-;-;-;-;-;-;-;-;-;-
1514098564611;-;-;9.1918335;0.088775635;0.5166321;-;-;-;-;-;-;-;-;-;-;-;-;-;-;-
1514098564631;-;-;9.203796;0.08279419;0.5740967;-;-;-;-;-;-;-;-;-;-;-;-;-;-;-
1514098564651;-;-;9.227737;0.08998108;0.5573273;-;-;-;-;-;-;-;-;-;-;-;-;-;-;-
1514098564672;-;-;9.226547;0.088775635;0.5489502;-;-;-;-;-;-;-;-;-;-;-;-;-;-;-
1514098564691;-;-;9.224152;0.09475708;0.58966064;-;-;-;-;-;-;-;-;-;-;-;-;-;-;-
1514098564711;-;-;9.199005;0.05885315;0.58247375;-;-;-;-;-;-;-;-;-;-;-;-;-;-;-
1514098564732;-;-;9.212173;0.086380005;0.5405731;-;-;-;-;-;-;-;-;-;-;-;-;-;-;-
1514098564752;-;-;9.194229;0.12709045;0.52500916;-;-;-;-;-;-;-;-;-;-;-;-;-;-;-
1514098564772;-;-;9.172684;0.10194397;0.508255;-;-;-;-;-;-;-;-;-;-;-;-;-;-;-
1514098564793;-;-;9.202606;0.119903564;0.54655457;-;-;-;-;-;-;-;-;-;-;-;-;-;-;-
1514098564813;-;-;9.258865;0.107925415;0.48191833;-;-;-;-;-;-;-;-;-;-;-;-;-;-;-
1514098564833;-;-;9.210983;0.095962524;0.5094452;-;-;-;-;-;-;-;-;-;-;-;-;-;-;-
1514098564854;-;-;9.23613;0.05166626;0.5549469;-;-;-;-;-;-;-;-;-;-;-;-;-;-;-
1514098564874;-;-;9.279221;0.0756073;0.4472046;-;-;-;-;-;-;-;-;-;-;-;-;-;-;-
1514098564894;-;-;9.21936;0.07321167;0.47354126;-;-;-;-;-;-;-;-;-;-;-;-;-;-;-
1514098564914;-;-;9.185837;0.12109375;0.55015564;-;-;-;-;-;-;-;-;-;-;-;-;-;-;-
1514098564935;-;-;9.169083;0.1510315;0.58128357;-;-;-;-;-;-;-;-;-;-;-;-;-;-;-
1514098564955;-;-;9.210983;0.07800293;0.57888794;-;-;-;-;-;-;-;-;-;-;-;-;-;-;-
1514098564975;-;-;9.197815;0.06364441;0.6088104;-;-;-;-;-;-;-;-;-;-;-;-;-;-;-
1514098564996;-;-;9.189438;0.074417114;0.61120605;-;-;-;-;-;-;-;-;-;-;-;-;-;-;-
1514098565016;-;-;9.207397;0.093566895;0.53938293;-;-;-;-;-;-;-;-;-;-;-;-;-;-;-
1514098565036;-;-;9.147537;0.122299194;0.55015564;-;-;-;-;-;-;-;-;-;-;-;-;-;-;-
1514098565057;-;-;9.216965;0.07081604;0.5980377;-;-;-;-;-;-;-;-;-;-;-;-;-;-;-
1514098565077;-;-;9.269638;0.055252075;0.5860596;-;-;-;-;-;-;-;-;-;-;-;-;-;-;-
1514098565097;-;-;9.272034;0.06602478;0.6279602;-;-;-;-;-;-;-;-;-;-;-;-;-;-;-
1514098565118;-;-;9.15712;0.093566895;0.53578186;-;-;-;-;-;-;-;-;-;-;-;-;-;-;-
1514098565138;-;-;9.164291;0.091171265;0.5585327;-;-;-;-;-;-;-;-;-;-;-;-;-;-;-
1514098565158;-;-;9.17627;0.095962524;0.57528687;-;-;-;-;-;-;-;-;-;-;-;-;-;-;-
1514098565179;-;-;9.240906;0.026535034;0.6064148;-;-;-;-;-;-;-;-;-;-;-;-;-;-;-
1514098565199;-;-;9.311539;-0.02015686;0.52500916;-;-;-;-;-;-;-;-;-;-;-;-;-;-;-
1514098565219;-;-;9.29718;0.026535034;0.43043518;-;-;-;-;-;-;-;-;-;-;-;-;-;-;-
1514098565239;-;-;9.222961;0.10913086;0.36819458;-;-;-;-;-;-;-;-;-;-;-;-;-;-;-
1514098565259;-;-;9.135559;0.15701294;0.4388275;-;-;-;-;-;-;-;-;-;-;-;-;-;-;-
1514098565280;-;-;9.091278;0.15940857;0.5740967;-;-;-;-;-;-;-;-;-;-;-;-;-;-;-
1514098565300;-;-;9.148727;0.17855835;0.59324646;-;-;-;-;-;-;-;-;-;-;-;-;-;-;-
1514098565320;-;-;9.239716;0.14743042;0.5226135;-;-;-;-;-;-;-;-;-;-;-;-;-;-;-
1514098565340;-;-;9.264847;0.100753784;0.5202179;-;-;-;-;-;-;-;-;-;-;-;-;-;-;-
1514098565361;-;-;9.225342;0.081588745;0.61239624;-;-;-;-;-;-;-;-;-;-;-;-;-;-;-
1514098565381;-;-;9.272034;0.09475708;0.6136017;-;-;-;-;-;-;-;-;-;-;-;-;-;-;-
1514098565401;-;-;9.213379;0.09236145;0.6770477;-;-;-;-;-;-;-;-;-;-;-;-;-;-;-
1514098565421;-;-;9.115219;0.10194397;0.71055603;-;-;-;-;-;-;-;-;-;-;-;-;-;-;-
1514098565442;-;-;9.226547;0.107925415;0.5920563;-;-;-;-;-;-;-;-;-;-;-;-;-;-;-
1514098565462;-;-;9.167892;0.10194397;0.5298004;-;-;-;-;-;-;-;-;-;-;-;-;-;-;-
1514098565483;-;-;9.148727;0.107925415;0.6770477;-;-;-;-;-;-;-;-;-;-;-;-;-;-;-
1514098565503;-;-;9.148727;0.10673523;0.7285156;-;-;-;-;-;-;-;-;-;-;-;-;-;-;-
1514098565523;-;-;9.195419;0.088775635;0.7536621;-;-;-;-;-;-;-;-;-;-;-;-;-;-;-
1514098565543;-;-;9.190628;0.07081604;0.6842346;-;-;-;-;-;-;-;-;-;-;-;-;-;-;-
1514098565564;-;-;9.199005;0.09715271;0.69740295;-;-;-;-;-;-;-;-;-;-;-;-;-;-;-
1514098565584;-;-;9.159515;0.11152649;0.6758423;-;-;-;-;-;-;-;-;-;-;-;-;-;-;-
1514098565604;-;-;9.171478;0.10194397;0.6770477;-;-;-;-;-;-;-;-;-;-;-;-;-;-;-
1514098565625;-;-;9.172684;0.1043396;0.68782043;-;-;-;-;-;-;-;-;-;-;-;-;-;-;-
1514098565645;-;-;9.260071;0.045684814;0.6159973;-;-;-;-;-;-;-;-;-;-;-;-;-;-;-
1514098565665;-;-;9.300766;0.019348145;0.55255127;-;-;-;-;-;-;-;-;-;-;-;-;-;-;-
1514098565685;-;-;9.249298;0.046875;0.56092834;-;-;-;-;-;-;-;-;-;-;-;-;-;-;-
1514098565706;-;-;9.205002;0.04208374;0.5549469;-;-;-;-;-;-;-;-;-;-;-;-;-;-;-
1514098565726;-;-;9.17746;0.048080444;0.5669098;-;-;-;-;-;-;-;-;-;-;-;-;-;-;-
1514098565746;-;-;9.182251;0.06364441;0.59085083;-;-;-;-;-;-;-;-;-;-;-;-;-;-;-
1514098565767;-;-;9.195419;0.08758545;0.5992279;-;-;-;-;-;-;-;-;-;-;-;-;-;-;-
1514098565786;-;-;9.206192;0.110321045;0.6088104;-;-;-;-;-;-;-;-;-;-;-;-;-;-;-
1514098565806;-;-;9.214569;0.08279419;0.5992279;-;-;-;-;-;-;-;-;-;-;-;-;-;-;-
1514098565827;-;-;9.224152;0.079193115;0.6052246;-;-;-;-;-;-;-;-;-;-;-;-;-;-;-
1514098565846;-;-;9.202606;0.033706665;0.57289124;-;-;-;-;-;-;-;-;-;-;-;-;-;-;-
1514098565866;-;-;9.209793;0.038497925;0.64112854;-;-;-;-;-;-;-;-;-;-;-;-;-;-;-
1514098565887;-;-;9.208588;0.07321167;0.67225647;-;-;-;-;-;-;-;-;-;-;-;-;-;-;-
1514098565906;-;-;9.182251;0.124694824;0.666275;-;-;-;-;-;-;-;-;-;-;-;-;-;-;-
1514098565926;-;-;9.178665;0.122299194;0.6255646;-;-;-;-;-;-;-;-;-;-;-;-;-;-;-
1514098565946;-;-;9.188232;0.13905334;0.56451416;-;-;-;-;-;-;-;-;-;-;-;-;-;-;-
1514098565967;-;-;9.170288;0.119903564;0.5776825;-;-;-;-;-;-;-;-;-;-;-;-;-;-;-
1514098565987;-;-;9.21936;0.16778564;0.5549469;-;-;-;-;-;-;-;-;-;-;-;-;-;-;-
1514098566008;-;-;9.171478;0.112716675;0.5561371;-;-;-;-;-;-;-;-;-;-;-;-;-;-;-
1514098566029;-;-;9.189438;0.1438446;0.5513458;-;-;-;-;-;-;-;-;-;-;-;-;-;-;-
1514098566049;-;-;9.23851;0.06842041;0.41966248;-;-;-;-;-;-;-;-;-;-;-;-;-;-;-
1514098566069;-;-;9.196625;0.08758545;0.4328308;-;-;-;-;-;-;-;-;-;-;-;-;-;-;-
1514098566089;-;-;9.194229;0.088775635;0.54776;-;-;-;-;-;-;-;-;-;-;-;-;-;-;-
1514098566109;-;-;9.188232;0.10194397;0.5298004;-;-;-;-;-;-;-;-;-;-;-;-;-;-;-
1514098566130;-;-;9.164291;0.069625854;0.5190277;-;-;-;-;-;-;-;-;-;-;-;-;-;-;-
1514098566150;-;-;9.14035;0.074417114;0.5298004;-;-;-;-;-;-;-;-;-;-;-;-;-;-;-
1514098566170;-;-;9.169083;0.10194397;0.53100586;-;-;-;-;-;-;-;-;-;-;-;-;-;-;-
1514098566191;-;-;9.214569;0.07081604;0.47473145;-;-;-;-;-;-;-;-;-;-;-;-;-;-;-
1514098566211;-;-;9.244507;0.057647705;0.53100586;-;-;-;-;-;-;-;-;-;-;-;-;-;-;-
1514098566232;-;-;9.21936;0.064834595;0.6315613;-;-;-;-;-;-;-;-;-;-;-;-;-;-;-
1514098566252;-;-;9.178665;0.095962524;0.5860596;-;-;-;-;-;-;-;-;-;-;-;-;-;-;-
1514098566273;-;-;9.166687;0.14624023;0.57170105;-;-;-;-;-;-;-;-;-;-;-;-;-;-;-
1514098566293;-;-;9.0793;0.19770813;0.5178375;-;-;-;-;-;-;-;-;-;-;-;-;-;-;-
1514098566313;-;-;9.0577545;0.25875854;0.54776;-;-;-;-;-;-;-;-;-;-;-;-;-;-;-
1514098566334;-;-;9.015854;0.25517273;0.5561371;-;-;-;-;-;-;-;-;-;-;-;-;-;-;-
1514098566354;-;-;8.984726;0.19770813;0.6315613;-;-;-;-;-;-;-;-;-;-;-;-;-;-;-
1514098566374;-;-;9.069733;0.16659546;0.5776825;-;-;-;-;-;-;-;-;-;-;-;-;-;-;-
1514098566395;-;-;9.145142;0.093566895;0.4986725;-;-;-;-;-;-;-;-;-;-;-;-;-;-;-
1514098566415;-;-;9.215775;0.14144897;0.46276855;-;-;-;-;-;-;-;-;-;-;-;-;-;-;-
1514098566435;-;-;9.234924;0.043289185;0.42565918;-;-;-;-;-;-;-;-;-;-;-;-;-;-;-
1514098566455;-;-;9.262466;-0.00340271;0.38734436;-;-;-;-;-;-;-;-;-;-;-;-;-;-;-
1514098566476;-;-;9.233734;-0.03213501;0.38974;-;-;-;-;-;-;-;-;-;-;-;-;-;-;-
1514098566496;-;-;9.12001;-0.1015625;0.32987976;-;-;-;-;-;-;-;-;-;-;-;-;-;-;-
1514098566517;-;-;9.090073;-0.09916687;0.26763916;-;-;-;-;-;-;-;-;-;-;-;-;-;-;-
1514098566537;-;-;9.104446;-0.08720398;0.14074707;-;-;-;-;-;-;-;-;-;-;-;-;-;-;-
1514098566557;-;-;9.13916;-0.076416016;0.01625061;-;-;-;-;-;-;-;-;-;-;-;-;-;-;-
1514098566577;-;-;9.246902;-0.13627625;-0.10586548;-;-;-;-;-;-;-;-;-;-;-;-;-;-;-
