TimeStamp[ms];Prox[Cm];Lux[lux];AccX[m/s^2];AccY[m/s^2];AccZ[m/s^2];GyroX[rad/s];GyroY[rad/s];GyroZ[rad/s];MagnX[uT];MagnY[uT];MagnZ[uT];OrienYaw[degrees];OrienPitch[degrees];OrienRoll[degrees];Press[Pa];Temp[C°];Batt[%];Lat;Lng;Speed[m/s]
1514099177296;-;-;8.976349;-0.368515;0.3418579;-;-;-;-;-;-;-;-;-;-;-;-;-;-;-
1514099177297;-;-;8.976349;-0.368515;0.3418579;-;-;-;-;-;-;-;-;-;-;-;-;-;-;-
1514099177311;-;-;9.165497;-0.56962585;0.4472046;-;-;-;-;-;-;-;-;-;-;-;-;-;-;-
1514099177332;-;-;9.026627;-0.12550354;-0.4458313;-;-;-;-;-;-;-;-;-;-;-;-;-;-;-
1514099177352;-;-;9.1523285;0.119903564;0.031814575;-;-;-;-;-;-;-;-;-;-;-;-;-;-;-
1514099177372;-;-;8.1766815;0.49339294;-0.35246277;-;-;-;-;-;-;-;-;-;-;-;-;-;-;-
1514099177393;-;-;9.691025;0.541275;0.004272461;-;-;-;-;-;-;-;-;-;-;-;-;-;-;-
1514099177413;-;-;9.227737;0.22164917;-0.4458313;-;-;-;-;-;-;-;-;-;-;-;-;-;-;-
1514099177433;-;-;9.787979;0.16659546;-0.52723694;-;-;-;-;-;-;-;-;-;-;-;-;-;-;-
1514099177454;-;-;9.397736;0.0013885498;-0.4745636;-;-;-;-;-;-;-;-;-;-;-;-;-;-;-
1514099177474;-;-;9.091278;-0.035720825;-0.33091736;-;-;-;-;-;-;-;-;-;-;-;-;-;-;-
1514099177494;-;-;9.006287;0.03730774;-0.23394775;-;-;-;-;-;-;-;-;-;-;-;-;-;-;-
1514099177514;-;-;8.951218;0.043289185;-0.3045807;-;-;-;-;-;-;-;-;-;-;-;-;-;-;-
1514099177546;-;-;9.125992;-0.071640015;-0.32254028;-;-;-;-;-;-;-;-;-;-;-;-;-;-;-
1514099177555;-;-;9.221756;-0.06324768;-0.36323547;-;-;-;-;-;-;-;-;-;-;-;-;-;-;-
1514099177575;-;-;9.311539;-0.11352539;-0.41949463;-;-;-;-;-;-;-;-;-;-;-;-;-;-;-
1514099177596;-;-;9.182251;-0.114730835;-0.5248413;-;-;-;-;-;-;-;-;-;-;-;-;-;-;-
1514099177616;-;-;9.239716;-0.0440979;-0.57632446;-;-;-;-;-;-;-;-;-;-;-;-;-;-;-
1514099177637;-;-;9.272034;-0.121917725;-0.73194885;-;-;-;-;-;-;-;-;-;-;-;-;-;-;-
1514099177657;-;-;9.092468;0.11869812;-0.7893982;-;-;-;-;-;-;-;-;-;-;-;-;-;-;-
1514099177676;-;-;9.135559;0.07081604;-0.9905243;-;-;-;-;-;-;-;-;-;-;-;-;-;-;-
1514099177696;-;-;9.196625;0.20610046;-0.8001709;-;-;-;-;-;-;-;-;-;-;-;-;-;-;-
1514099177717;-;-;9.286407;0.083984375;-0.9737549;-;-;-;-;-;-;-;-;-;-;-;-;-;-;-
1514099177736;-;-;9.500687;0.095962524;-0.90312195;-;-;-;-;-;-;-;-;-;-;-;-;-;-;-
1514099177756;-;-;9.220566;0.3174286;-0.8540497;-;-;-;-;-;-;-;-;-;-;-;-;-;-;-
1514099177776;-;-;9.3893585;-0.14225769;-1.143753;-;-;-;-;-;-;-;-;-;-;-;-;-;-;-
1514099177797;-;-;8.953613;0.08518982;-1.5591431;-;-;-;-;-;-;-;-;-;-;-;-;-;-;-
1514099177817;-;-;8.745316;0.009765625;-0.85884094;-;-;-;-;-;-;-;-;-;-;-;-;-;-;-
1514099177837;-;-;9.747284;-0.07762146;-1.4885101;-;-;-;-;-;-;-;-;-;-;-;-;-;-;-
1514099177857;-;-;8.517868;0.29109192;-1.4885101;-;-;-;-;-;-;-;-;-;-;-;-;-;-;-
1514099177878;-;-;8.581314;0.69810486;-0.803772;-;-;-;-;-;-;-;-;-;-;-;-;-;-;-
1514099177898;-;-;10.025009;0.52093506;-1.3041534;-;-;-;-;-;-;-;-;-;-;-;-;-;-;-
1514099177918;-;-;9.045776;0.14624023;-1.1629028;-;-;-;-;-;-;-;-;-;-;-;-;-;-;-
1514099177938;-;-;8.856644;0.13186646;-1.2383118;-;-;-;-;-;-;-;-;-;-;-;-;-;-;-
1514099177959;-;-;9.303162;0.21208191;-0.89234924;-;-;-;-;-;-;-;-;-;-;-;-;-;-;-
1514099177979;-;-;9.062546;0.17376709;-1.3472595;-;-;-;-;-;-;-;-;-;-;-;-;-;-;-
1514099178000;-;-;10.427231;0.12109375;-1.4226685;-;-;-;-;-;-;-;-;-;-;-;-;-;-;-
1514099178019;-;-;8.729752;0.34495544;-1.3712006;-;-;-;-;-;-;-;-;-;-;-;-;-;-;-
1514099178039;-;-;8.299988;0.23721313;-1.1533203;-;-;-;-;-;-;-;-;-;-;-;-;-;-;-
1514099178059;-;-;8.025848;0.06842041;-1.2012024;-;-;-;-;-;-;-;-;-;-;-;-;-;-;-
1514099178080;-;-;9.424072;0.6573944;-1.7674408;-;-;-;-;-;-;-;-;-;-;-;-;-;-;-
1514099178100;-;-;9.807144;0.11392212;-1.1616974;-;-;-;-;-;-;-;-;-;-;-;-;-;-;-
1514099178120;-;-;8.922485;0.05885315;-1.2275391;-;-;-;-;-;-;-;-;-;-;-;-;-;-;-
1514099178140;-;-;9.206192;0.16419983;-1.3640137;-;-;-;-;-;-;-;-;-;-;-;-;-;-;-
1514099178160;-;-;9.127182;0.20610046;-1.2658539;-;-;-;-;-;-;-;-;-;-;-;-;-;-;-
1514099178181;-;-;9.127182;0.20249939;-1.2167664;-;-;-;-;-;-;-;-;-;-;-;-;-;-;-
1514099178201;-;-;9.094864;0.20370483;-1.1473389;-;-;-;-;-;-;-;-;-;-;-;-;-;-;-
1514099178221;-;-;9.043396;0.14982605;-1.1114197;-;-;-;-;-;-;-;-;-;-;-;-;-;-;-
1514099178242;-;-;8.966782;0.30186462;-1.1664886;-;-;-;-;-;-;-;-;-;-;-;-;-;-;-
1514099178262;-;-;9.284012;0.24559021;-1.3903503;-;-;-;-;-;-;-;-;-;-;-;-;-;-;-
1514099178282;-;-;9.361816;0.09475708;-1.3939362;-;-;-;-;-;-;-;-;-;-;-;-;-;-;-
1514099178302;-;-;9.143951;0.20010376;-1.452591;-;-;-;-;-;-;-;-;-;-;-;-;-;-;-
1514099178323;-;-;9.263657;0.05885315;-1.2419128;-;-;-;-;-;-;-;-;-;-;-;-;-;-;-
1514099178343;-;-;8.945221;0.088775635;-1.5184326;-;-;-;-;-;-;-;-;-;-;-;-;-;-;-
1514099178363;-;-;9.005081;0.38565063;-0.5799103;-;-;-;-;-;-;-;-;-;-;-;-;-;-;-
1514099178384;-;-;8.272461;0.38206482;-1.164093;-;-;-;-;-;-;-;-;-;-;-;-;-;-;-
1514099178404;-;-;8.910507;0.42636108;-1.2646484;-;-;-;-;-;-;-;-;-;-;-;-;-;-;-
1514099178424;-;-;10.032196;-0.704895;-1.164093;-;-;-;-;-;-;-;-;-;-;-;-;-;-;-
1514099178445;-;-;8.592087;0.8740692;-2.172058;-;-;-;-;-;-;-;-;-;-;-;-;-;-;-
1514099178465;-;-;9.031418;-0.20809937;-1.2335358;-;-;-;-;-;-;-;-;-;-;-;-;-;-;-
1514099178485;-;-;9.650314;0.8956299;-1.4214783;-;-;-;-;-;-;-;-;-;-;-;-;-;-;-
1514099178506;-;-;9.025436;0.5305023;-0.7283478;-;-;-;-;-;-;-;-;-;-;-;-;-;-;-
1514099178526;-;-;9.495895;-0.917984;-2.0355835;-;-;-;-;-;-;-;-;-;-;-;-;-;-;-
1514099178547;-;-;8.028244;0.057647705;-1.7949677;-;-;-;-;-;-;-;-;-;-;-;-;-;-;-
1514099178567;-;-;9.311539;0.64183044;-1.1820526;-;-;-;-;-;-;-;-;-;-;-;-;-;-;-
1514099178587;-;-;9.922058;0.122299194;-1.6022339;-;-;-;-;-;-;-;-;-;-;-;-;-;-;-
1514099178607;-;-;9.111618;-0.52893066;-2.788559;-;-;-;-;-;-;-;-;-;-;-;-;-;-;-
1514099178627;-;-;9.09845;0.1330719;-2.1193848;-;-;-;-;-;-;-;-;-;-;-;-;-;-;-
1514099178648;-;-;9.024231;0.11392212;-1.6764526;-;-;-;-;-;-;-;-;-;-;-;-;-;-;-
1514099178669;-;-;8.16951;0.7435913;-2.345642;-;-;-;-;-;-;-;-;-;-;-;-;-;-;-
1514099178690;-;-;8.855438;0.23362732;-1.7542725;-;-;-;-;-;-;-;-;-;-;-;-;-;-;-
1514099178710;-;-;9.109222;-0.50857544;0.8314667;-;-;-;-;-;-;-;-;-;-;-;-;-;-;-
1514099178730;-;-;8.955994;-1.7176514;-1.3891449;-;-;-;-;-;-;-;-;-;-;-;-;-;-;-
1514099178750;-;-;9.096069;-0.44033813;-4.658432;-;-;-;-;-;-;-;-;-;-;-;-;-;-;-
1514099178771;-;-;9.033813;0.2192688;-4.9565125;-;-;-;-;-;-;-;-;-;-;-;-;-;-;-
1514099178791;-;-;8.775238;0.29467773;-3.0207977;-;-;-;-;-;-;-;-;-;-;-;-;-;-;-
1514099178811;-;-;8.687851;-0.15065002;-1.7003937;-;-;-;-;-;-;-;-;-;-;-;-;-;-;-
1514099178832;-;-;9.085281;-0.59954834;-2.1660767;-;-;-;-;-;-;-;-;-;-;-;-;-;-;-
1514099178853;-;-;8.242523;0.03730774;-2.804123;-;-;-;-;-;-;-;-;-;-;-;-;-;-;-
1514099178873;-;-;8.892548;0.37487793;-2.8819427;-;-;-;-;-;-;-;-;-;-;-;-;-;-;-
1514099178893;-;-;8.922485;-0.112335205;-3.46492;-;-;-;-;-;-;-;-;-;-;-;-;-;-;-
1514099178913;-;-;9.026627;-0.4259796;-1.8464508;-;-;-;-;-;-;-;-;-;-;-;-;-;-;-
1514099178934;-;-;9.342667;-0.14585876;-1.8679962;-;-;-;-;-;-;-;-;-;-;-;-;-;-;-
1514099178954;-;-;8.910507;-0.16381836;-2.3935242;-;-;-;-;-;-;-;-;-;-;-;-;-;-;-
1514099178974;-;-;9.263657;-0.23324585;-2.0080566;-;-;-;-;-;-;-;-;-;-;-;-;-;-;-
1514099178994;-;-;8.378998;0.26115417;-1.8392639;-;-;-;-;-;-;-;-;-;-;-;-;-;-;-
1514099179015;-;-;8.976349;-0.25;-1.9721375;-;-;-;-;-;-;-;-;-;-;-;-;-;-;-
1514099179035;-;-;9.013458;-0.2787323;-1.8703918;-;-;-;-;-;-;-;-;-;-;-;-;-;-;-
1514099179055;-;-;8.668701;-0.08480835;-2.0738983;-;-;-;-;-;-;-;-;-;-;-;-;-;-;-
1514099179075;-;-;8.996704;-0.18536377;-2.1564941;-;-;-;-;-;-;-;-;-;-;-;-;-;-;-
1514099179096;-;-;9.001495;-0.28831482;-2.2833862;-;-;-;-;-;-;-;-;-;-;-;-;-;-;-
1514099179116;-;-;9.066132;-0.20092773;-1.9888916;-;-;-;-;-;-;-;-;-;-;-;-;-;-;-
1514099179136;-;-;9.15831;-0.32661438;-2.005661;-;-;-;-;-;-;-;-;-;-;-;-;-;-;-
1514099179157;-;-;9.4133;-0.368515;-1.5088654;-;-;-;-;-;-;-;-;-;-;-;-;-;-;-
1514099179178;-;-;8.959595;-0.13627625;-1.9062958;-;-;-;-;-;-;-;-;-;-;-;-;-;-;-
1514099179198;-;-;9.476746;-0.38168335;-2.5335846;-;-;-;-;-;-;-;-;-;-;-;-;-;-;-
1514099179218;-;-;8.659119;-0.25120544;-1.5148468;-;-;-;-;-;-;-;-;-;-;-;-;-;-;-
1514099179239;-;-;8.9392395;-0.16021729;-1.2658539;-;-;-;-;-;-;-;-;-;-;-;-;-;-;-
1514099179259;-;-;9.15712;-0.29788208;-1.5196381;-;-;-;-;-;-;-;-;-;-;-;-;-;-;-
1514099179280;-;-;9.242111;-0.30986023;-1.7051849;-;-;-;-;-;-;-;-;-;-;-;-;-;-;-
1514099179300;-;-;8.772842;-0.23324585;-1.8021545;-;-;-;-;-;-;-;-;-;-;-;-;-;-;-
1514099179321;-;-;9.171478;-0.24281311;-1.2646484;-;-;-;-;-;-;-;-;-;-;-;-;-;-;-
1514099179341;-;-;8.443649;0.13546753;-1.179657;-;-;-;-;-;-;-;-;-;-;-;-;-;-;-
1514099179361;-;-;11.751236;0.49938965;0.34065247;-;-;-;-;-;-;-;-;-;-;-;-;-;-;-
1514099179381;-;-;7.712219;-0.6007538;-1.2203674;-;-;-;-;-;-;-;-;-;-;-;-;-;-;-
1514099179401;-;-;9.627579;-0.4547119;-0.008895874;-;-;-;-;-;-;-;-;-;-;-;-;-;-;-
1514099179422;-;-;9.79158;-0.2859192;-0.1884613;-;-;-;-;-;-;-;-;-;-;-;-;-;-;-
1514099179442;-;-;8.909317;-0.14225769;-0.5571594;-;-;-;-;-;-;-;-;-;-;-;-;-;-;-
1514099179463;-;-;9.25528;-0.093185425;-1.0946655;-;-;-;-;-;-;-;-;-;-;-;-;-;-;-
1514099179482;-;-;9.560532;-0.49661255;-0.22317505;-;-;-;-;-;-;-;-;-;-;-;-;-;-;-
1514099179502;-;-;9.2756195;-0.15423584;-0.22198486;-;-;-;-;-;-;-;-;-;-;-;-;-;-;-
1514099179523;-;-;8.703415;0.24320984;-0.25190735;-;-;-;-;-;-;-;-;-;-;-;-;-;-;-
1514099179542;-;-;9.687424;-0.042907715;0.17425537;-;-;-;-;-;-;-;-;-;-;-;-;-;-;-
1514099179562;-;-;9.442017;-0.5253296;-0.073532104;-;-;-;-;-;-;-;-;-;-;-;-;-;-;-
1514099179582;-;-;8.928467;-0.27514648;-0.36442566;-;-;-;-;-;-;-;-;-;-;-;-;-;-;-
1514099179603;-;-;8.383789;0.10194397;-0.94143677;-;-;-;-;-;-;-;-;-;-;-;-;-;-;-
1514099179622;-;-;8.880585;0.2886963;-0.12620544;-;-;-;-;-;-;-;-;-;-;-;-;-;-;-
1514099179642;-;-;8.296402;-0.076416016;0.3215027;-;-;-;-;-;-;-;-;-;-;-;-;-;-;-
1514099179663;-;-;9.4935;-0.27035522;1.0900421;-;-;-;-;-;-;-;-;-;-;-;-;-;-;-
1514099179684;-;-;8.72496;0.28630066;0.78718567;-;-;-;-;-;-;-;-;-;-;-;-;-;-;-
1514099179703;-;-;8.647156;0.3964386;0.041381836;-;-;-;-;-;-;-;-;-;-;-;-;-;-;-
1514099179723;-;-;9.753265;-0.51216125;-1.713562;-;-;-;-;-;-;-;-;-;-;-;-;-;-;-
1514099179743;-;-;8.531036;0.11152649;-0.11663818;-;-;-;-;-;-;-;-;-;-;-;-;-;-;-
1514099179764;-;-;5.7453766;-0.35295105;-0.51885986;-;-;-;-;-;-;-;-;-;-;-;-;-;-;-
1514099179784;-;-;11.243668;-0.13508606;-0.17408752;-;-;-;-;-;-;-;-;-;-;-;-;-;-;-
1514099179804;-;-;9.287598;-0.20930481;0.41368103;-;-;-;-;-;-;-;-;-;-;-;-;-;-;-
1514099179824;-;-;6.462433;-1.020935;-2.646103;-;-;-;-;-;-;-;-;-;-;-;-;-;-;-
1514099179845;-;-;9.495895;-0.9036255;-0.9953003;-;-;-;-;-;-;-;-;-;-;-;-;-;-;-
1514099179864;-;-;9.324707;0.20729065;1.5006561;-;-;-;-;-;-;-;-;-;-;-;-;-;-;-
1514099179884;-;-;7.2944183;0.4467163;-0.64456177;-;-;-;-;-;-;-;-;-;-;-;-;-;-;-
1514099179905;-;-;8.264084;-0.062057495;-1.4142914;-;-;-;-;-;-;-;-;-;-;-;-;-;-;-
1514099179925;-;-;12.362946;0.22883606;-0.5128784;-;-;-;-;-;-;-;-;-;-;-;-;-;-;-
1514099179946;-;-;10.56131;-0.13867188;-0.29978943;-;-;-;-;-;-;-;-;-;-;-;-;-;-;-
1514099179966;-;-;8.212601;0.07081604;-1.124588;-;-;-;-;-;-;-;-;-;-;-;-;-;-;-
1514099179987;-;-;9.683838;0.076812744;-1.574707;-;-;-;-;-;-;-;-;-;-;-;-;-;-;-
1514099180006;-;-;11.645889;0.5448761;0.4986725;-;-;-;-;-;-;-;-;-;-;-;-;-;-;-
1514099180026;-;-;10.968323;-1.9055939;3.1598358;-;-;-;-;-;-;-;-;-;-;-;-;-;-;-
1514099180046;-;-;6.9855804;1.1039124;19.379349;-;-;-;-;-;-;-;-;-;-;-;-;-;-;-
1514099180067;-;-;8.250916;-1.9965668;-34.107117;-;-;-;-;-;-;-;-;-;-;-;-;-;-;-
1514099180087;-;-;4.268158;-6.4533844;-19.828094;-;-;-;-;-;-;-;-;-;-;-;-;-;-;-
1514099180108;-;-;11.078461;1.7527466;2.1614532;-;-;-;-;-;-;-;-;-;-;-;-;-;-;-
1514099180128;-;-;12.333023;0.7795105;0.022232056;-;-;-;-;-;-;-;-;-;-;-;-;-;-;-
1514099180148;-;-;8.097687;0.23721313;-0.26028442;-;-;-;-;-;-;-;-;-;-;-;-;-;-;-
1514099180168;-;-;8.984726;0.17616272;-0.68167114;-;-;-;-;-;-;-;-;-;-;-;-;-;-;-
1514099180189;-;-;10.228516;-0.47625732;-4.171219;-;-;-;-;-;-;-;-;-;-;-;-;-;-;-
1514099180209;-;-;8.777634;-2.4371033;-2.1038208;-;-;-;-;-;-;-;-;-;-;-;-;-;-;-
1514099180230;-;-;9.491104;0.43952942;-4.1436768;-;-;-;-;-;-;-;-;-;-;-;-;-;-;-
1514099180250;-;-;9.284012;-0.36732483;-1.140152;-;-;-;-;-;-;-;-;-;-;-;-;-;-;-
1514099180270;-;-;8.97995;0.4694519;-0.7295532;-;-;-;-;-;-;-;-;-;-;-;-;-;-;-
1514099180290;-;-;9.747284;-0.3757019;-2.3085175;-;-;-;-;-;-;-;-;-;-;-;-;-;-;-
1514099180311;-;-;9.516251;-0.74679565;-2.1816254;-;-;-;-;-;-;-;-;-;-;-;-;-;-;-
1514099180331;-;-;9.489914;-0.66300964;-1.7087708;-;-;-;-;-;-;-;-;-;-;-;-;-;-;-
1514099180351;-;-;8.472366;-0.5636444;-1.4490051;-;-;-;-;-;-;-;-;-;-;-;-;-;-;-
1514099180372;-;-;6.616867;1.0452576;-2.1936035;-;-;-;-;-;-;-;-;-;-;-;-;-;-;-
1514099180392;-;-;8.619614;-1.2076874;-1.1150208;-;-;-;-;-;-;-;-;-;-;-;-;-;-;-
1514099180412;-;-;9.59166;-0.0021972656;-1.4142914;-;-;-;-;-;-;-;-;-;-;-;-;-;-;-
1514099180433;-;-;9.716156;-0.4439392;-0.38119507;-;-;-;-;-;-;-;-;-;-;-;-;-;-;-
1514099180452;-;-;9.364212;-0.6929321;-0.5966644;-;-;-;-;-;-;-;-;-;-;-;-;-;-;-
1514099180472;-;-;13.560043;-1.2603607;0.91407776;-;-;-;-;-;-;-;-;-;-;-;-;-;-;-
1514099180493;-;-;3.9545135;0.48382568;-2.4581604;-;-;-;-;-;-;-;-;-;-;-;-;-;-;-
1514099180513;-;-;9.980713;-0.3972473;-0.41830444;-;-;-;-;-;-;-;-;-;-;-;-;-;-;-
1514099180533;-;-;9.23613;-0.33021545;-1.0144653;-;-;-;-;-;-;-;-;-;-;-;-;-;-;-
1514099180553;-;-;8.967972;-0.050079346;-0.9749603;-;-;-;-;-;-;-;-;-;-;-;-;-;-;-
1514099180574;-;-;10.442795;-1.012558;-2.053543;-;-;-;-;-;-;-;-;-;-;-;-;-;-;-
1514099180594;-;-;9.77243;-0.38168335;-2.4342194;-;-;-;-;-;-;-;-;-;-;-;-;-;-;-
1514099180614;-;-;9.131973;-1.2160645;0.113204956;-;-;-;-;-;-;-;-;-;-;-;-;-;-;-
1514099180635;-;-;8.8003845;-0.9838257;-0.84088135;-;-;-;-;-;-;-;-;-;-;-;-;-;-;-
1514099180655;-;-;9.663483;-1.2759247;-1.4346466;-;-;-;-;-;-;-;-;-;-;-;-;-;-;-
1514099180675;-;-;8.674683;-0.59477234;-0.7606659;-;-;-;-;-;-;-;-;-;-;-;-;-;-;-
1514099180696;-;-;5.3934326;1.7802734;0.83625793;-;-;-;-;-;-;-;-;-;-;-;-;-;-;-
1514099180716;-;-;9.631165;-0.2320404;0.06173706;-;-;-;-;-;-;-;-;-;-;-;-;-;-;-
1514099180736;-;-;8.32991;1.5683899;-0.70321655;-;-;-;-;-;-;-;-;-;-;-;-;-;-;-
1514099180757;-;-;7.782837;0.51135254;-0.52604675;-;-;-;-;-;-;-;-;-;-;-;-;-;-;-
1514099180777;-;-;8.627991;-0.2212677;-0.8145447;-;-;-;-;-;-;-;-;-;-;-;-;-;-;-
1514099180797;-;-;8.569336;-0.28352356;-0.843277;-;-;-;-;-;-;-;-;-;-;-;-;-;-;-
1514099180818;-;-;9.548569;-1.5344849;-0.022064209;-;-;-;-;-;-;-;-;-;-;-;-;-;-;-
1514099180838;-;-;8.612427;-0.9874115;-1.0910797;-;-;-;-;-;-;-;-;-;-;-;-;-;-;-
1514099180858;-;-;9.444412;-1.0891724;-0.7283478;-;-;-;-;-;-;-;-;-;-;-;-;-;-;-
1514099180878;-;-;7.973175;-0.35534668;-0.6708832;-;-;-;-;-;-;-;-;-;-;-;-;-;-;-
1514099180898;-;-;10.420059;-1.1609955;-1.942215;-;-;-;-;-;-;-;-;-;-;-;-;-;-;-
1514099180919;-;-;10.02861;-0.80067444;-0.04600525;-;-;-;-;-;-;-;-;-;-;-;-;-;-;-
1514099180939;-;-;7.233368;-1.3262024;-0.50808716;-;-;-;-;-;-;-;-;-;-;-;-;-;-;-
1514099180959;-;-;10.742081;1.4989624;0.51065063;-;-;-;-;-;-;-;-;-;-;-;-;-;-;-
1514099180980;-;-;9.88855;-0.071640015;-1.6477203;-;-;-;-;-;-;-;-;-;-;-;-;-;-;-
1514099181000;-;-;9.221756;-0.3254242;0.1479187;-;-;-;-;-;-;-;-;-;-;-;-;-;-;-
1514099181020;-;-;9.190628;0.3461609;-0.2578888;-;-;-;-;-;-;-;-;-;-;-;-;-;-;-
1514099181040;-;-;8.965576;0.14263916;-0.3189392;-;-;-;-;-;-;-;-;-;-;-;-;-;-;-
1514099181061;-;-;9.205002;0.021743774;-0.7858124;-;-;-;-;-;-;-;-;-;-;-;-;-;-;-
1514099181081;-;-;9.452805;-0.29429626;-0.6876526;-;-;-;-;-;-;-;-;-;-;-;-;-;-;-
1514099181102;-;-;9.516251;0.12348938;-1.1102295;-;-;-;-;-;-;-;-;-;-;-;-;-;-;-
1514099181122;-;-;8.315552;0.576004;-0.630188;-;-;-;-;-;-;-;-;-;-;-;-;-;-;-
1514099181142;-;-;9.437241;0.6095123;-1.5675201;-;-;-;-;-;-;-;-;-;-;-;-;-;-;-
1514099181162;-;-;9.418076;0.32460022;-0.6625061;-;-;-;-;-;-;-;-;-;-;-;-;-;-;-
1514099181182;-;-;9.026627;-0.12669373;-1.0048828;-;-;-;-;-;-;-;-;-;-;-;-;-;-;-
1514099181202;-;-;8.995499;-0.021362305;-1.0372009;-;-;-;-;-;-;-;-;-;-;-;-;-;-;-
1514099181223;-;-;9.035004;0.16778564;-0.8959503;-;-;-;-;-;-;-;-;-;-;-;-;-;-;-
1514099181243;-;-;9.301956;0.15342712;-1.2466888;-;-;-;-;-;-;-;-;-;-;-;-;-;-;-
1514099181263;-;-;9.194229;0.16659546;-1.1317749;-;-;-;-;-;-;-;-;-;-;-;-;-;-;-
1514099181283;-;-;8.916504;0.38446045;-0.93785095;-;-;-;-;-;-;-;-;-;-;-;-;-;-;-
1514099181303;-;-;9.352234;0.100753784;-0.90911865;-;-;-;-;-;-;-;-;-;-;-;-;-;-;-
1514099181324;-;-;8.92009;0.21208191;-1.4777374;-;-;-;-;-;-;-;-;-;-;-;-;-;-;-
1514099181344;-;-;9.111618;0.10673523;-1.2514801;-;-;-;-;-;-;-;-;-;-;-;-;-;-;-
1514099181364;-;-;9.0733185;0.122299194;-1.4346466;-;-;-;-;-;-;-;-;-;-;-;-;-;-;-
1514099181384;-;-;9.183456;0.2240448;-1.3891449;-;-;-;-;-;-;-;-;-;-;-;-;-;-;-
1514099181405;-;-;9.193024;0.39164734;-1.511261;-;-;-;-;-;-;-;-;-;-;-;-;-;-;-
1514099181425;-;-;9.360626;0.2922821;-1.3053589;-;-;-;-;-;-;-;-;-;-;-;-;-;-;-
1514099181445;-;-;9.208588;0.06124878;-1.1341705;-;-;-;-;-;-;-;-;-;-;-;-;-;-;-
1514099181466;-;-;8.950012;-0.13269043;-1.3017578;-;-;-;-;-;-;-;-;-;-;-;-;-;-;-
1514099181486;-;-;8.698624;0.1845398;-1.3520355;-;-;-;-;-;-;-;-;-;-;-;-;-;-;-
1514099181506;-;-;9.072113;0.5628357;-1.5292053;-;-;-;-;-;-;-;-;-;-;-;-;-;-;-
1514099181526;-;-;9.366608;-0.052474976;-1.416687;-;-;-;-;-;-;-;-;-;-;-;-;-;-;-
1514099181547;-;-;9.066132;0.009765625;-1.5471649;-;-;-;-;-;-;-;-;-;-;-;-;-;-;-
1514099181567;-;-;9.102051;0.062438965;-1.7267303;-;-;-;-;-;-;-;-;-;-;-;-;-;-;-
1514099181587;-;-;8.922485;0.7435913;-1.3436584;-;-;-;-;-;-;-;-;-;-;-;-;-;-;-
1514099181607;-;-;9.23851;0.7866821;-1.784195;-;-;-;-;-;-;-;-;-;-;-;-;-;-;-
1514099181628;-;-;8.507095;1.130249;-1.7638397;-;-;-;-;-;-;-;-;-;-;-;-;-;-;-
1514099181648;-;-;10.800735;-0.94192505;-2.7514496;-;-;-;-;-;-;-;-;-;-;-;-;-;-;-
1514099181668;-;-;7.5601807;0.47782898;-0.52963257;-;-;-;-;-;-;-;-;-;-;-;-;-;-;-
1514099181689;-;-;9.3498535;0.081588745;-2.3133087;-;-;-;-;-;-;-;-;-;-;-;-;-;-;-
1514099181709;-;-;9.281616;-0.1482544;-1.784195;-;-;-;-;-;-;-;-;-;-;-;-;-;-;-
1514099181730;-;-;8.92128;-0.45710754;-1.7889862;-;-;-;-;-;-;-;-;-;-;-;-;-;-;-
1514099181750;-;-;9.194229;0.2300415;-1.2155762;-;-;-;-;-;-;-;-;-;-;-;-;-;-;-
1514099181770;-;-;8.885376;0.30903625;-1.7363129;-;-;-;-;-;-;-;-;-;-;-;-;-;-;-
1514099181791;-;-;8.997894;0.31263733;-1.5399933;-;-;-;-;-;-;-;-;-;-;-;-;-;-;-
1514099181810;-;-;9.190628;-0.12310791;-1.4897003;-;-;-;-;-;-;-;-;-;-;-;-;-;-;-
1514099181830;-;-;9.032608;-0.51216125;-1.5603333;-;-;-;-;-;-;-;-;-;-;-;-;-;-;-
1514099181851;-;-;9.009872;-0.3146515;-1.4633789;-;-;-;-;-;-;-;-;-;-;-;-;-;-;-
1514099181871;-;-;8.758484;0.7005005;-1.832077;-;-;-;-;-;-;-;-;-;-;-;-;-;-;-
1514099181891;-;-;9.392944;0.17616272;-1.574707;-;-;-;-;-;-;-;-;-;-;-;-;-;-;-
1514099181911;-;-;7.995926;-0.11352539;-0.81095886;-;-;-;-;-;-;-;-;-;-;-;-;-;-;-
1514099181932;-;-;10.100433;-0.8174286;-1.4705505;-;-;-;-;-;-;-;-;-;-;-;-;-;-;-
1514099181952;-;-;9.131973;-0.97065735;-2.2654266;-;-;-;-;-;-;-;-;-;-;-;-;-;-;-
1514099181972;-;-;8.066559;1.3146057;-0.4446411;-;-;-;-;-;-;-;-;-;-;-;-;-;-;-
1514099181993;-;-;9.471954;0.33418274;-1.9960785;-;-;-;-;-;-;-;-;-;-;-;-;-;-;-
1514099182013;-;-;9.280411;0.27313232;-2.0248108;-;-;-;-;-;-;-;-;-;-;-;-;-;-;-
1514099182033;-;-;9.234924;-0.38526917;-1.550766;-;-;-;-;-;-;-;-;-;-;-;-;-;-;-
1514099182053;-;-;8.264084;0.8130188;-1.4705505;-;-;-;-;-;-;-;-;-;-;-;-;-;-;-
1514099182074;-;-;9.164291;0.062438965;-1.6992035;-;-;-;-;-;-;-;-;-;-;-;-;-;-;-
1514099182094;-;-;8.449631;1.1123047;-1.6968079;-;-;-;-;-;-;-;-;-;-;-;-;-;-;-
1514099182115;-;-;7.125641;1.0117493;-1.2861938;-;-;-;-;-;-;-;-;-;-;-;-;-;-;-
1514099182135;-;-;11.13353;0.07800293;-2.333664;-;-;-;-;-;-;-;-;-;-;-;-;-;-;-
1514099182155;-;-;10.792358;-0.40203857;-2.5599213;-;-;-;-;-;-;-;-;-;-;-;-;-;-;-
1514099182176;-;-;8.006699;0.4119873;-1.104248;-;-;-;-;-;-;-;-;-;-;-;-;-;-;-
1514099182196;-;-;8.521454;0.88246155;-1.6321564;-;-;-;-;-;-;-;-;-;-;-;-;-;-;-
1514099182216;-;-;8.627991;0.91596985;-1.792572;-;-;-;-;-;-;-;-;-;-;-;-;-;-;-
1514099182237;-;-;8.892548;0.70887756;-1.6884308;-;-;-;-;-;-;-;-;-;-;-;-;-;-;-
1514099182256;-;-;9.215775;0.5460663;-1.8117218;-;-;-;-;-;-;-;-;-;-;-;-;-;-;-
1514099182276;-;-;9.23851;0.53889465;-1.8248901;-;-;-;-;-;-;-;-;-;-;-;-;-;-;-
1514099182297;-;-;8.88298;0.60113525;-1.7219391;-;-;-;-;-;-;-;-;-;-;-;-;-;-;-
1514099182317;-;-;8.727356;0.63705444;-1.7063904;-;-;-;-;-;-;-;-;-;-;-;-;-;-;-
1514099182336;-;-;8.802765;0.6538086;-1.7363129;-;-;-;-;-;-;-;-;-;-;-;-;-;-;-
1514099182356;-;-;8.881775;0.62028503;-1.9003143;-;-;-;-;-;-;-;-;-;-;-;-;-;-;-
1514099182377;-;-;9.002686;0.58078;-1.990097;-;-;-;-;-;-;-;-;-;-;-;-;-;-;-
1514099182396;-;-;9.072113;0.5305023;-2.0104523;-;-;-;-;-;-;-;-;-;-;-;-;-;-;-
1514099182416;-;-;9.001495;0.6562042;-1.9398193;-;-;-;-;-;-;-;-;-;-;-;-;-;-;-
1514099182436;-;-;8.970367;0.7232361;-1.9697418;-;-;-;-;-;-;-;-;-;-;-;-;-;-;-
1514099182457;-;-;9.030228;0.70648193;-1.9290466;-;-;-;-;-;-;-;-;-;-;-;-;-;-;-
1514099182477;-;-;9.045776;0.61550903;-1.8643951;-;-;-;-;-;-;-;-;-;-;-;-;-;-;-
1514099182497;-;-;9.084091;0.5628357;-1.7973633;-;-;-;-;-;-;-;-;-;-;-;-;-;-;-
1514099182517;-;-;9.005081;0.5592346;-1.7159576;-;-;-;-;-;-;-;-;-;-;-;-;-;-;-
1514099182538;-;-;8.896149;0.61190796;-1.6489258;-;-;-;-;-;-;-;-;-;-;-;-;-;-;-
1514099182558;-;-;8.945221;0.6538086;-1.6333618;-;-;-;-;-;-;-;-;-;-;-;-;-;-;-
1514099182578;-;-;8.959595;0.6789551;-1.6860352;-;-;-;-;-;-;-;-;-;-;-;-;-;-;-
1514099182599;-;-;9.024231;0.65141296;-1.7434998;-;-;-;-;-;-;-;-;-;-;-;-;-;-;-
1514099182619;-;-;9.005081;0.59994507;-1.6848297;-;-;-;-;-;-;-;-;-;-;-;-;-;-;-
1514099182639;-;-;9.006287;0.5640259;-1.6094208;-;-;-;-;-;-;-;-;-;-;-;-;-;-;-
1514099182660;-;-;8.948822;0.517334;-1.5136566;-;-;-;-;-;-;-;-;-;-;-;-;-;-;-
1514099182680;-;-;8.941635;0.5161438;-1.5028687;-;-;-;-;-;-;-;-;-;-;-;-;-;-;-
1514099182700;-;-;9.043396;0.46466064;-1.4813232;-;-;-;-;-;-;-;-;-;-;-;-;-;-;-
1514099182720;-;-;9.06134;0.43952942;-1.3699951;-;-;-;-;-;-;-;-;-;-;-;-;-;-;-
1514099182741;-;-;8.970367;0.39404297;-1.3879547;-;-;-;-;-;-;-;-;-;-;-;-;-;-;-
1514099182761;-;-;8.957199;0.34376526;-1.3280945;-;-;-;-;-;-;-;-;-;-;-;-;-;-;-
1514099182781;-;-;9.001495;0.26235962;-1.401123;-;-;-;-;-;-;-;-;-;-;-;-;-;-;-
1514099182801;-;-;9.024231;0.34016418;-1.4466095;-;-;-;-;-;-;-;-;-;-;-;-;-;-;-
1514099182822;-;-;9.023041;0.40242004;-1.4765472;-;-;-;-;-;-;-;-;-;-;-;-;-;-;-
1514099182842;-;-;8.96199;0.43354797;-1.6213837;-;-;-;-;-;-;-;-;-;-;-;-;-;-;-
1514099182862;-;-;8.923676;0.38565063;-1.634552;-;-;-;-;-;-;-;-;-;-;-;-;-;-;-
1514099182882;-;-;8.850662;0.3605194;-1.6405487;-;-;-;-;-;-;-;-;-;-;-;-;-;-;-
1514099182903;-;-;9.048172;0.378479;-1.784195;-;-;-;-;-;-;-;-;-;-;-;-;-;-;-
1514099182922;-;-;9.142746;0.47782898;-1.8548279;-;-;-;-;-;-;-;-;-;-;-;-;-;-;-
1514099182942;-;-;9.14035;0.42636108;-1.8608093;-;-;-;-;-;-;-;-;-;-;-;-;-;-;-
1514099182962;-;-;9.075714;0.47184753;-1.6752625;-;-;-;-;-;-;-;-;-;-;-;-;-;-;-
1514099182983;-;-;8.984726;0.5233307;-1.6309662;-;-;-;-;-;-;-;-;-;-;-;-;-;-;-
1514099183003;-;-;8.838684;0.66937256;-1.8177185;-;-;-;-;-;-;-;-;-;-;-;-;-;-;-
1514099183023;-;-;8.892548;0.7076721;-1.8572235;-;-;-;-;-;-;-;-;-;-;-;-;-;-;-
1514099183043;-;-;8.977554;0.6430359;-1.8189087;-;-;-;-;-;-;-;-;-;-;-;-;-;-;-
1514099183064;-;-;9.020645;0.56044006;-1.7590485;-;-;-;-;-;-;-;-;-;-;-;-;-;-;-
1514099183084;-;-;8.975159;0.52212524;-1.6429291;-;-;-;-;-;-;-;-;-;-;-;-;-;-;-
1514099183104;-;-;8.9392395;0.38206482;-1.5543518;-;-;-;-;-;-;-;-;-;-;-;-;-;-;-
1514099183125;-;-;9.049377;0.3282013;-1.5124512;-;-;-;-;-;-;-;-;-;-;-;-;-;-;-
1514099183145;-;-;9.014664;0.20968628;-1.5304108;-;-;-;-;-;-;-;-;-;-;-;-;-;-;-
1514099183165;-;-;9.015854;0.34016418;-1.471756;-;-;-;-;-;-;-;-;-;-;-;-;-;-;-
1514099183185;-;-;9.087677;0.4191742;-1.5806885;-;-;-;-;-;-;-;-;-;-;-;-;-;-;-
1514099183206;-;-;9.029022;0.30545044;-1.511261;-;-;-;-;-;-;-;-;-;-;-;-;-;-;-
1514099183226;-;-;9.033813;0.13786316;-1.3712006;-;-;-;-;-;-;-;-;-;-;-;-;-;-;-
1514099183246;-;-;8.972763;0.35932922;-1.3460541;-;-;-;-;-;-;-;-;-;-;-;-;-;-;-
1514099183267;-;-;8.934448;0.67655945;-1.3735962;-;-;-;-;-;-;-;-;-;-;-;-;-;-;-
1514099183287;-;-;8.934448;0.8896332;-1.3987274;-;-;-;-;-;-;-;-;-;-;-;-;-;-;-
1514099183307;-;-;9.025436;0.9602661;-1.4262543;-;-;-;-;-;-;-;-;-;-;-;-;-;-;-
1514099183328;-;-;8.984726;0.8525238;-1.4047089;-;-;-;-;-;-;-;-;-;-;-;-;-;-;-
1514099183348;-;-;9.033813;0.76634216;-1.4310455;-;-;-;-;-;-;-;-;-;-;-;-;-;-;-
1514099183368;-;-;9.025436;0.5987396;-1.3831635;-;-;-;-;-;-;-;-;-;-;-;-;-;-;-
1514099183388;-;-;9.048172;0.44192505;-1.3292999;-;-;-;-;-;-;-;-;-;-;-;-;-;-;-
1514099183409;-;-;8.926071;0.37727356;-1.2670441;-;-;-;-;-;-;-;-;-;-;-;-;-;-;-
1514099183429;-;-;8.988327;0.35453796;-1.258667;-;-;-;-;-;-;-;-;-;-;-;-;-;-;-
1514099183450;-;-;9.278015;0.33537292;-1.4861145;-;-;-;-;-;-;-;-;-;-;-;-;-;-;-
1514099183470;-;-;9.29837;0.30784607;-2.3635864;-;-;-;-;-;-;-;-;-;-;-;-;-;-;-
1514099183490;-;-;9.121201;0.27552795;-2.0978394;-;-;-;-;-;-;-;-;-;-;-;-;-;-;-
1514099183510;-;-;9.115219;0.14624023;-1.7877808;-;-;-;-;-;-;-;-;-;-;-;-;-;-;-
1514099183531;-;-;8.857834;-0.02015686;-1.3065491;-;-;-;-;-;-;-;-;-;-;-;-;-;-;-
1514099183551;-;-;8.607651;-0.021362305;-1.440628;-;-;-;-;-;-;-;-;-;-;-;-;-;-;-
1514099183571;-;-;8.515472;0.14503479;-1.4597778;-;-;-;-;-;-;-;-;-;-;-;-;-;-;-
1514099183592;-;-;8.734543;0.46347046;-1.3963318;-;-;-;-;-;-;-;-;-;-;-;-;-;-;-
1514099183612;-;-;9.124786;0.9818115;-1.5771027;-;-;-;-;-;-;-;-;-;-;-;-;-;-;-
1514099183632;-;-;9.3893585;1.2451782;-1.8093262;-;-;-;-;-;-;-;-;-;-;-;-;-;-;-
1514099183653;-;-;9.209793;1.1541901;-1.6525116;-;-;-;-;-;-;-;-;-;-;-;-;-;-;-
1514099183673;-;-;8.966782;0.8010559;-1.6285706;-;-;-;-;-;-;-;-;-;-;-;-;-;-;-
1514099183693;-;-;8.96199;0.49699402;-1.614212;-;-;-;-;-;-;-;-;-;-;-;-;-;-;-
1514099183714;-;-;9.055359;0.36291504;-1.4681549;-;-;-;-;-;-;-;-;-;-;-;-;-;-;-
1514099183734;-;-;9.072113;0.3497467;-1.4897003;-;-;-;-;-;-;-;-;-;-;-;-;-;-;-
1514099183754;-;-;8.975159;0.40481567;-1.5100555;-;-;-;-;-;-;-;-;-;-;-;-;-;-;-
1514099183775;-;-;8.909317;0.417984;-1.5699158;-;-;-;-;-;-;-;-;-;-;-;-;-;-;-
1514099183794;-;-;8.952408;0.41558838;-1.6752625;-;-;-;-;-;-;-;-;-;-;-;-;-;-;-
1514099183814;-;-;9.066132;0.34376526;-1.5651245;-;-;-;-;-;-;-;-;-;-;-;-;-;-;-
1514099183834;-;-;9.041;0.29467773;-1.3891449;-;-;-;-;-;-;-;-;-;-;-;-;-;-;-
1514099183855;-;-;9.021835;0.31263733;-1.3448639;-;-;-;-;-;-;-;-;-;-;-;-;-;-;-
1514099183875;-;-;8.965576;0.42636108;-1.3412628;-;-;-;-;-;-;-;-;-;-;-;-;-;-;-
1514099183895;-;-;9.035004;0.49938965;-1.4382324;-;-;-;-;-;-;-;-;-;-;-;-;-;-;-
1514099183916;-;-;9.067337;0.4658661;-1.3975372;-;-;-;-;-;-;-;-;-;-;-;-;-;-;-
1514099183936;-;-;9.023041;0.59754944;-1.4885101;-;-;-;-;-;-;-;-;-;-;-;-;-;-;-
1514099183956;-;-;9.011063;0.6143036;-1.618988;-;-;-;-;-;-;-;-;-;-;-;-;-;-;-
1514099183976;-;-;9.030228;0.57240295;-1.5627289;-;-;-;-;-;-;-;-;-;-;-;-;-;-;-
1514099183997;-;-;8.971558;0.55804443;-1.6393433;-;-;-;-;-;-;-;-;-;-;-;-;-;-;-
1514099184017;-;-;9.075714;0.47065735;-1.6213837;-;-;-;-;-;-;-;-;-;-;-;-;-;-;-
1514099184037;-;-;9.055359;0.48501587;-1.7183533;-;-;-;-;-;-;-;-;-;-;-;-;-;-;-
1514099184057;-;-;9.046982;0.39283752;-1.5830841;-;-;-;-;-;-;-;-;-;-;-;-;-;-;-
1514099184078;-;-;9.045776;0.36889648;-1.5220337;-;-;-;-;-;-;-;-;-;-;-;-;-;-;-
1514099184098;-;-;9.026627;0.37487793;-1.3855591;-;-;-;-;-;-;-;-;-;-;-;-;-;-;-
1514099184119;-;-;8.988327;0.36650085;-1.471756;-;-;-;-;-;-;-;-;-;-;-;-;-;-;-
1514099184139;-;-;9.001495;0.46228027;-1.5603333;-;-;-;-;-;-;-;-;-;-;-;-;-;-;-
1514099184159;-;-;9.051773;0.4407196;-1.6369476;-;-;-;-;-;-;-;-;-;-;-;-;-;-;-
1514099184179;-;-;9.087677;0.42396545;-1.6405487;-;-;-;-;-;-;-;-;-;-;-;-;-;-;-
1514099184200;-;-;9.051773;0.41558838;-1.7051849;-;-;-;-;-;-;-;-;-;-;-;-;-;-;-
1514099184220;-;-;9.044586;0.45988464;-1.7506714;-;-;-;-;-;-;-;-;-;-;-;-;-;-;-
1514099184240;-;-;8.965576;0.52093506;-1.7003937;-;-;-;-;-;-;-;-;-;-;-;-;-;-;-
1514099184261;-;-;8.958389;0.5448761;-1.6237793;-;-;-;-;-;-;-;-;-;-;-;-;-;-;-
1514099184281;-;-;9.020645;0.5472717;-1.4980927;-;-;-;-;-;-;-;-;-;-;-;-;-;-;-
1514099184301;-;-;8.988327;0.5532532;-1.6477203;-;-;-;-;-;-;-;-;-;-;-;-;-;-;-
1514099184322;-;-;8.971558;0.51374817;-1.7063904;-;-;-;-;-;-;-;-;-;-;-;-;-;-;-
1514099184342;-;-;9.009872;0.48262024;-1.7961731;-;-;-;-;-;-;-;-;-;-;-;-;-;-;-
1514099184362;-;-;8.92009;0.5197296;-1.7794037;-;-;-;-;-;-;-;-;-;-;-;-;-;-;-
1514099184382;-;-;8.92128;0.5245209;-1.8596191;-;-;-;-;-;-;-;-;-;-;-;-;-;-;-
1514099184403;-;-;8.944031;0.4371338;-1.7674408;-;-;-;-;-;-;-;-;-;-;-;-;-;-;-
1514099184423;-;-;8.915298;0.47065735;-1.7794037;-;-;-;-;-;-;-;-;-;-;-;-;-;-;-
1514099184443;-;-;8.991913;0.4467163;-1.6225891;-;-;-;-;-;-;-;-;-;-;-;-;-;-;-
1514099184464;-;-;8.959595;0.48860168;-1.6716614;-;-;-;-;-;-;-;-;-;-;-;-;-;-;-
1514099184484;-;-;8.926071;0.5460663;-1.7494812;-;-;-;-;-;-;-;-;-;-;-;-;-;-;-
1514099184504;-;-;9.049377;0.51493835;-1.7794037;-;-;-;-;-;-;-;-;-;-;-;-;-;-;-
1514099184525;-;-;8.92009;0.5747986;-1.7183533;-;-;-;-;-;-;-;-;-;-;-;-;-;-;-
1514099184544;-;-;9.054169;0.50297546;-1.7063904;-;-;-;-;-;-;-;-;-;-;-;-;-;-;-
1514099184565;-;-;9.002686;0.50057983;-1.6956024;-;-;-;-;-;-;-;-;-;-;-;-;-;-;-
1514099184585;-;-;9.006287;0.5556488;-1.7698364;-;-;-;-;-;-;-;-;-;-;-;-;-;-;-
1514099184606;-;-;8.971558;0.51016235;-1.7411041;-;-;-;-;-;-;-;-;-;-;-;-;-;-;-
1514099184626;-;-;8.954803;0.50057983;-1.8177185;-;-;-;-;-;-;-;-;-;-;-;-;-;-;-
1514099184646;-;-;8.98114;0.5089569;-1.7219391;-;-;-;-;-;-;-;-;-;-;-;-;-;-;-
1514099184666;-;-;8.906921;0.4981842;-1.8416595;-;-;-;-;-;-;-;-;-;-;-;-;-;-;-
1514099184687;-;-;8.930862;0.5747986;-1.8739777;-;-;-;-;-;-;-;-;-;-;-;-;-;-;-
1514099184707;-;-;8.932053;0.60472107;-1.8703918;-;-;-;-;-;-;-;-;-;-;-;-;-;-;-
1514099184727;-;-;8.936844;0.5879669;-1.847641;-;-;-;-;-;-;-;-;-;-;-;-;-;-;-
1514099184747;-;-;8.973953;0.576004;-1.8380585;-;-;-;-;-;-;-;-;-;-;-;-;-;-;-
1514099184768;-;-;8.8602295;0.59994507;-1.9386139;-;-;-;-;-;-;-;-;-;-;-;-;-;-;-
1514099184788;-;-;8.951218;0.5843811;-1.8667908;-;-;-;-;-;-;-;-;-;-;-;-;-;-;-
1514099184808;-;-;8.951218;0.57240295;-1.9362335;-;-;-;-;-;-;-;-;-;-;-;-;-;-;-
1514099184829;-;-;9.00029;0.58078;-1.8691864;-;-;-;-;-;-;-;-;-;-;-;-;-;-;-
1514099184849;-;-;8.971558;0.48262024;-1.792572;-;-;-;-;-;-;-;-;-;-;-;-;-;-;-
1514099184869;-;-;8.967972;0.4862213;-1.753067;-;-;-;-;-;-;-;-;-;-;-;-;-;-;-
1514099184889;-;-;8.946426;0.44911194;-1.7458801;-;-;-;-;-;-;-;-;-;-;-;-;-;-;-
1514099184910;-;-;8.966782;0.5269165;-1.8201141;-;-;-;-;-;-;-;-;-;-;-;-;-;-;-
1514099184930;-;-;8.918884;0.5592346;-1.8284912;-;-;-;-;-;-;-;-;-;-;-;-;-;-;-
1514099184950;-;-;8.936844;0.6023407;-1.847641;-;-;-;-;-;-;-;-;-;-;-;-;-;-;-
1514099184971;-;-;8.922485;0.5771942;-1.8919373;-;-;-;-;-;-;-;-;-;-;-;-;-;-;-
1514099184991;-;-;8.918884;0.50297546;-1.8739777;-;-;-;-;-;-;-;-;-;-;-;-;-;-;-
1514099185011;-;-;8.970367;0.47065735;-1.8895416;-;-;-;-;-;-;-;-;-;-;-;-;-;-;-
1514099185032;-;-;8.960785;0.4407196;-1.8572235;-;-;-;-;-;-;-;-;-;-;-;-;-;-;-
1514099185051;-;-;8.977554;0.44311523;-1.7877808;-;-;-;-;-;-;-;-;-;-;-;-;-;-;-
1514099185071;-;-;8.953613;0.45988464;-1.7794037;-;-;-;-;-;-;-;-;-;-;-;-;-;-;-
1514099185091;-;-;9.00029;0.47782898;-1.7243347;-;-;-;-;-;-;-;-;-;-;-;-;-;-;-
1514099185112;-;-;9.030228;0.48980713;-1.7327118;-;-;-;-;-;-;-;-;-;-;-;-;-;-;-
1514099185132;-;-;9.036209;0.45030212;-1.713562;-;-;-;-;-;-;-;-;-;-;-;-;-;-;-
1514099185153;-;-;9.017059;0.47543335;-1.768631;-;-;-;-;-;-;-;-;-;-;-;-;-;-;-
1514099185173;-;-;8.955994;0.43832397;-1.7614441;-;-;-;-;-;-;-;-;-;-;-;-;-;-;-
1514099185193;-;-;8.928467;0.45030212;-1.7758179;-;-;-;-;-;-;-;-;-;-;-;-;-;-;-
1514099185213;-;-;8.916504;0.45030212;-1.832077;-;-;-;-;-;-;-;-;-;-;-;-;-;-;-
1514099185234;-;-;8.924881;0.517334;-1.8356628;-;-;-;-;-;-;-;-;-;-;-;-;-;-;-
1514099185254;-;-;8.96199;0.5269165;-1.8440552;-;-;-;-;-;-;-;-;-;-;-;-;-;-;-
1514099185274;-;-;8.975159;0.576004;-1.7889862;-;-;-;-;-;-;-;-;-;-;-;-;-;-;-
1514099185295;-;-;8.996704;0.53170776;-1.7638397;-;-;-;-;-;-;-;-;-;-;-;-;-;-;-
1514099185315;-;-;8.964386;0.51374817;-1.7889862;-;-;-;-;-;-;-;-;-;-;-;-;-;-;-
1514099185335;-;-;8.918884;0.53170776;-1.8165131;-;-;-;-;-;-;-;-;-;-;-;-;-;-;-
1514099185355;-;-;8.955994;0.5233307;-1.7626495;-;-;-;-;-;-;-;-;-;-;-;-;-;-;-
1514099185376;-;-;8.976349;0.5233307;-1.7626495;-;-;-;-;-;-;-;-;-;-;-;-;-;-;-
1514099185395;-;-;8.997894;0.5185394;-1.7626495;-;-;-;-;-;-;-;-;-;-;-;-;-;-;-
1514099185415;-;-;8.996704;0.4658661;-1.7470856;-;-;-;-;-;-;-;-;-;-;-;-;-;-;-
1514099185435;-;-;8.976349;0.48860168;-1.7602539;-;-;-;-;-;-;-;-;-;-;-;-;-;-;-
1514099185456;-;-;8.966782;0.5053711;-1.777008;-;-;-;-;-;-;-;-;-;-;-;-;-;-;-
1514099185476;-;-;8.955994;0.49938965;-1.7710266;-;-;-;-;-;-;-;-;-;-;-;-;-;-;-
1514099185496;-;-;8.98233;0.512558;-1.7183533;-;-;-;-;-;-;-;-;-;-;-;-;-;-;-
1514099185516;-;-;8.952408;0.50416565;-1.7542725;-;-;-;-;-;-;-;-;-;-;-;-;-;-;-
1514099185536;-;-;8.983536;0.49699402;-1.7339172;-;-;-;-;-;-;-;-;-;-;-;-;-;-;-
1514099185557;-;-;8.975159;0.5089569;-1.7267303;-;-;-;-;-;-;-;-;-;-;-;-;-;-;-
1514099185577;-;-;8.965576;0.50297546;-1.7482758;-;-;-;-;-;-;-;-;-;-;-;-;-;-;-
1514099185597;-;-;8.98233;0.5281067;-1.74469;-;-;-;-;-;-;-;-;-;-;-;-;-;-;-
1514099185617;-;-;8.98114;0.4945984;-1.7015991;-;-;-;-;-;-;-;-;-;-;-;-;-;-;-
1514099185638;-;-;8.997894;0.5077667;-1.777008;-;-;-;-;-;-;-;-;-;-;-;-;-;-;-
1514099185658;-;-;8.96199;0.5197296;-1.7949677;-;-;-;-;-;-;-;-;-;-;-;-;-;-;-
1514099185678;-;-;8.966782;0.48382568;-1.7387085;-;-;-;-;-;-;-;-;-;-;-;-;-;-;-
1514099185699;-;-;8.960785;0.55085754;-1.7650452;-;-;-;-;-;-;-;-;-;-;-;-;-;-;-
1514099185719;-;-;8.990723;0.4862213;-1.7458801;-;-;-;-;-;-;-;-;-;-;-;-;-;-;-
1514099185739;-;-;8.955994;0.536499;-1.7123718;-;-;-;-;-;-;-;-;-;-;-;-;-;-;-
1514099185759;-;-;9.00029;0.5460663;-1.6800537;-;-;-;-;-;-;-;-;-;-;-;-;-;-;-
1514099185780;-;-;8.994308;0.5676117;-1.753067;-;-;-;-;-;-;-;-;-;-;-;-;-;-;-
1514099185800;-;-;8.960785;0.54248047;-1.7267303;-;-;-;-;-;-;-;-;-;-;-;-;-;-;-
1514099185820;-;-;8.988327;0.5269165;-1.7817993;-;-;-;-;-;-;-;-;-;-;-;-;-;-;-
1514099185841;-;-;8.985931;0.52093506;-1.6824341;-;-;-;-;-;-;-;-;-;-;-;-;-;-;-
1514099185861;-;-;9.017059;0.51374817;-1.7111664;-;-;-;-;-;-;-;-;-;-;-;-;-;-;-
1514099185881;-;-;8.976349;0.53170776;-1.7494812;-;-;-;-;-;-;-;-;-;-;-;-;-;-;-
1514099185902;-;-;8.967972;0.5305023;-1.7422943;-;-;-;-;-;-;-;-;-;-;-;-;-;-;-
1514099185922;-;-;8.966782;0.49578857;-1.753067;-;-;-;-;-;-;-;-;-;-;-;-;-;-;-
1514099185942;-;-;8.987122;0.4862213;-1.7506714;-;-;-;-;-;-;-;-;-;-;-;-;-;-;-
1514099185963;-;-;8.977554;0.50057983;-1.713562;-;-;-;-;-;-;-;-;-;-;-;-;-;-;-
1514099185983;-;-;8.955994;0.4981842;-1.6788483;-;-;-;-;-;-;-;-;-;-;-;-;-;-;-
1514099186003;-;-;8.964386;0.5269165;-1.7183533;-;-;-;-;-;-;-;-;-;-;-;-;-;-;-
1514099186023;-;-;8.957199;0.541275;-1.7650452;-;-;-;-;-;-;-;-;-;-;-;-;-;-;-
1514099186044;-;-;8.975159;0.56044006;-1.7279358;-;-;-;-;-;-;-;-;-;-;-;-;-;-;-
1514099186064;-;-;8.98114;0.58677673;-1.7267303;-;-;-;-;-;-;-;-;-;-;-;-;-;-;-
1514099186084;-;-;8.951218;0.5472717;-1.7207489;-;-;-;-;-;-;-;-;-;-;-;-;-;-;-
1514099186104;-;-;8.959595;0.5077667;-1.7207489;-;-;-;-;-;-;-;-;-;-;-;-;-;-;-
1514099186125;-;-;8.989517;0.4981842;-1.7626495;-;-;-;-;-;-;-;-;-;-;-;-;-;-;-
1514099186145;-;-;8.98233;0.55085754;-1.7698364;-;-;-;-;-;-;-;-;-;-;-;-;-;-;-
1514099186165;-;-;9.019455;0.54248047;-1.7363129;-;-;-;-;-;-;-;-;-;-;-;-;-;-;-
1514099186186;-;-;8.969162;0.54367065;-1.6549072;-;-;-;-;-;-;-;-;-;-;-;-;-;-;-
1514099186206;-;-;8.984726;0.5376892;-1.6920166;-;-;-;-;-;-;-;-;-;-;-;-;-;-;-
1514099186226;-;-;9.002686;0.48501587;-1.7171631;-;-;-;-;-;-;-;-;-;-;-;-;-;-;-
1514099186246;-;-;8.967972;0.47782898;-1.6884308;-;-;-;-;-;-;-;-;-;-;-;-;-;-;-
1514099186267;-;-;8.972763;0.51493835;-1.6848297;-;-;-;-;-;-;-;-;-;-;-;-;-;-;-
1514099186286;-;-;8.989517;0.51493835;-1.7434998;-;-;-;-;-;-;-;-;-;-;-;-;-;-;-
1514099186306;-;-;8.972763;0.5089569;-1.792572;-;-;-;-;-;-;-;-;-;-;-;-;-;-;-
1514099186326;-;-;8.952408;0.5269165;-1.7339172;-;-;-;-;-;-;-;-;-;-;-;-;-;-;-
1514099186346;-;-;8.951218;0.47543335;-1.6836395;-;-;-;-;-;-;-;-;-;-;-;-;-;-;-
1514099186366;-;-;8.951218;0.5520477;-1.777008;-;-;-;-;-;-;-;-;-;-;-;-;-;-;-
1514099186386;-;-;8.945221;0.5281067;-1.753067;-;-;-;-;-;-;-;-;-;-;-;-;-;-;-
1514099186406;-;-;8.97995;0.5460663;-1.7470856;-;-;-;-;-;-;-;-;-;-;-;-;-;-;-
1514099186426;-;-;9.005081;0.512558;-1.7590485;-;-;-;-;-;-;-;-;-;-;-;-;-;-;-
1514099186446;-;-;8.975159;0.51493835;-1.6620941;-;-;-;-;-;-;-;-;-;-;-;-;-;-;-
1514099186467;-;-;8.930862;0.4874115;-1.6836395;-;-;-;-;-;-;-;-;-;-;-;-;-;-;-
1514099186487;-;-;8.941635;0.46826172;-1.6764526;-;-;-;-;-;-;-;-;-;-;-;-;-;-;-
1514099186507;-;-;9.033813;0.5341034;-1.7111664;-;-;-;-;-;-;-;-;-;-;-;-;-;-;-
1514099186527;-;-;9.019455;0.46107483;-1.6812439;-;-;-;-;-;-;-;-;-;-;-;-;-;-;-
1514099186547;-;-;9.014664;0.4862213;-1.653717;-;-;-;-;-;-;-;-;-;-;-;-;-;-;-
1514099186568;-;-;8.9787445;0.4981842;-1.6872253;-;-;-;-;-;-;-;-;-;-;-;-;-;-;-
1514099186588;-;-;8.963181;0.5532532;-1.7051849;-;-;-;-;-;-;-;-;-;-;-;-;-;-;-
1514099186608;-;-;8.970367;0.6214905;-1.693222;-;-;-;-;-;-;-;-;-;-;-;-;-;-;-
1514099186629;-;-;8.973953;0.6346588;-1.697998;-;-;-;-;-;-;-;-;-;-;-;-;-;-;-
1514099186649;-;-;8.970367;0.556839;-1.6848297;-;-;-;-;-;-;-;-;-;-;-;-;-;-;-
1514099186670;-;-;8.964386;0.54008484;-1.7015991;-;-;-;-;-;-;-;-;-;-;-;-;-;-;-
1514099186690;-;-;8.964386;0.5077667;-1.7039948;-;-;-;-;-;-;-;-;-;-;-;-;-;-;-
1514099186710;-;-;8.953613;0.48501587;-1.7566681;-;-;-;-;-;-;-;-;-;-;-;-;-;-;-
1514099186731;-;-;8.96199;0.541275;-1.7506714;-;-;-;-;-;-;-;-;-;-;-;-;-;-;-
1514099186751;-;-;8.963181;0.5448761;-1.7279358;-;-;-;-;-;-;-;-;-;-;-;-;-;-;-
1514099186771;-;-;8.984726;0.5352936;-1.713562;-;-;-;-;-;-;-;-;-;-;-;-;-;-;-
1514099186792;-;-;8.954803;0.5460663;-1.6525116;-;-;-;-;-;-;-;-;-;-;-;-;-;-;-
1514099186812;-;-;8.996704;0.536499;-1.693222;-;-;-;-;-;-;-;-;-;-;-;-;-;-;-
1514099186832;-;-;8.946426;0.5376892;-1.7267303;-;-;-;-;-;-;-;-;-;-;-;-;-;-;-
1514099186852;-;-;8.98114;0.53889465;-1.6848297;-;-;-;-;-;-;-;-;-;-;-;-;-;-;-
1514099186873;-;-;8.97995;0.517334;-1.7075806;-;-;-;-;-;-;-;-;-;-;-;-;-;-;-
1514099186893;-;-;9.026627;0.49220276;-1.693222;-;-;-;-;-;-;-;-;-;-;-;-;-;-;-
1514099186913;-;-;8.988327;0.48382568;-1.6944122;-;-;-;-;-;-;-;-;-;-;-;-;-;-;-
1514099186934;-;-;8.991913;0.49578857;-1.6261749;-;-;-;-;-;-;-;-;-;-;-;-;-;-;-
1514099186954;-;-;8.964386;0.5053711;-1.6525116;-;-;-;-;-;-;-;-;-;-;-;-;-;-;-
1514099186974;-;-;9.001495;0.5245209;-1.6644897;-;-;-;-;-;-;-;-;-;-;-;-;-;-;-
1514099186995;-;-;9.017059;0.5700073;-1.7183533;-;-;-;-;-;-;-;-;-;-;-;-;-;-;-
1514099187014;-;-;9.025436;0.58917236;-1.8045502;-;-;-;-;-;-;-;-;-;-;-;-;-;-;-
1514099187034;-;-;9.051773;0.5628357;-1.6644897;-;-;-;-;-;-;-;-;-;-;-;-;-;-;-
1514099187054;-;-;8.966782;0.4862213;-1.7147675;-;-;-;-;-;-;-;-;-;-;-;-;-;-;-
1514099187075;-;-;8.957199;0.45509338;-1.4933014;-;-;-;-;-;-;-;-;-;-;-;-;-;-;-
1514099187095;-;-;8.973953;0.52212524;-1.7710266;-;-;-;-;-;-;-;-;-;-;-;-;-;-;-
1514099187115;-;-;8.951218;0.49578857;-1.6812439;-;-;-;-;-;-;-;-;-;-;-;-;-;-;-
1514099187136;-;-;8.991913;0.50057983;-1.7255402;-;-;-;-;-;-;-;-;-;-;-;-;-;-;-
1514099187156;-;-;9.038605;0.4909973;-1.6201935;-;-;-;-;-;-;-;-;-;-;-;-;-;-;-
1514099187176;-;-;8.903336;0.5185394;-1.7243347;-;-;-;-;-;-;-;-;-;-;-;-;-;-;-
1514099187197;-;-;8.975159;0.49220276;-1.6596985;-;-;-;-;-;-;-;-;-;-;-;-;-;-;-
1514099187217;-;-;8.843475;0.56163025;-1.8332825;-;-;-;-;-;-;-;-;-;-;-;-;-;-;-
1514099187237;-;-;9.0793;0.6035309;-1.5914612;-;-;-;-;-;-;-;-;-;-;-;-;-;-;-
1514099187258;-;-;8.954803;0.6023407;-1.7566681;-;-;-;-;-;-;-;-;-;-;-;-;-;-;-
1514099187278;-;-;8.991913;0.55085754;-1.6668854;-;-;-;-;-;-;-;-;-;-;-;-;-;-;-
1514099187298;-;-;9.012268;0.55444336;-1.7099762;-;-;-;-;-;-;-;-;-;-;-;-;-;-;-
1514099187318;-;-;8.959595;0.5484619;-1.7315216;-;-;-;-;-;-;-;-;-;-;-;-;-;-;-
1514099187339;-;-;9.045776;0.49578857;-1.6920166;-;-;-;-;-;-;-;-;-;-;-;-;-;-;-
1514099187358;-;-;8.915298;0.51374817;-1.7506714;-;-;-;-;-;-;-;-;-;-;-;-;-;-;-
1514099187378;-;-;8.977554;0.49339294;-1.7949677;-;-;-;-;-;-;-;-;-;-;-;-;-;-;-
1514099187398;-;-;8.938049;0.54008484;-1.777008;-;-;-;-;-;-;-;-;-;-;-;-;-;-;-
1514099187419;-;-;8.917694;0.5819855;-1.8296814;-;-;-;-;-;-;-;-;-;-;-;-;-;-;-
1514099187439;-;-;8.905716;0.53889465;-1.7698364;-;-;-;-;-;-;-;-;-;-;-;-;-;-;-
1514099187459;-;-;8.947617;0.536499;-1.7901764;-;-;-;-;-;-;-;-;-;-;-;-;-;-;-
1514099187479;-;-;8.954803;0.512558;-1.7674408;-;-;-;-;-;-;-;-;-;-;-;-;-;-;-
1514099187500;-;-;8.923676;0.5197296;-1.8021545;-;-;-;-;-;-;-;-;-;-;-;-;-;-;-
1514099187520;-;-;8.96199;0.54008484;-1.8057404;-;-;-;-;-;-;-;-;-;-;-;-;-;-;-
1514099187540;-;-;8.97995;0.5676117;-1.8045502;-;-;-;-;-;-;-;-;-;-;-;-;-;-;-
1514099187560;-;-;8.947617;0.56163025;-1.7710266;-;-;-;-;-;-;-;-;-;-;-;-;-;-;-
1514099187581;-;-;8.948822;0.5185394;-1.7865906;-;-;-;-;-;-;-;-;-;-;-;-;-;-;-
1514099187600;-;-;8.944031;0.5448761;-1.8392639;-;-;-;-;-;-;-;-;-;-;-;-;-;-;-
1514099187620;-;-;8.941635;0.5257263;-1.7913818;-;-;-;-;-;-;-;-;-;-;-;-;-;-;-
1514099187640;-;-;8.967972;0.5472717;-1.8308868;-;-;-;-;-;-;-;-;-;-;-;-;-;-;-
1514099187661;-;-;8.967972;0.53289795;-1.7889862;-;-;-;-;-;-;-;-;-;-;-;-;-;-;-
1514099187681;-;-;8.926071;0.5269165;-1.7638397;-;-;-;-;-;-;-;-;-;-;-;-;-;-;-
1514099187702;-;-;8.9787445;0.50177;-1.8237;-;-;-;-;-;-;-;-;-;-;-;-;-;-;-
1514099187722;-;-;8.924881;0.50297546;-1.832077;-;-;-;-;-;-;-;-;-;-;-;-;-;-;-
1514099187742;-;-;8.941635;0.5352936;-1.7973633;-;-;-;-;-;-;-;-;-;-;-;-;-;-;-
1514099187762;-;-;8.984726;0.56044006;-1.7949677;-;-;-;-;-;-;-;-;-;-;-;-;-;-;-
1514099187783;-;-;8.988327;0.5197296;-1.777008;-;-;-;-;-;-;-;-;-;-;-;-;-;-;-
1514099187803;-;-;8.955994;0.5281067;-1.7782135;-;-;-;-;-;-;-;-;-;-;-;-;-;-;-
1514099187823;-;-;8.955994;0.5161438;-1.8201141;-;-;-;-;-;-;-;-;-;-;-;-;-;-;-
1514099187843;-;-;8.965576;0.5460663;-1.8093262;-;-;-;-;-;-;-;-;-;-;-;-;-;-;-
1514099187864;-;-;8.9392395;0.5520477;-1.8177185;-;-;-;-;-;-;-;-;-;-;-;-;-;-;-
1514099187884;-;-;8.990723;0.54008484;-1.7937775;-;-;-;-;-;-;-;-;-;-;-;-;-;-;-
1514099187904;-;-;8.954803;0.55804443;-1.8237;-;-;-;-;-;-;-;-;-;-;-;-;-;-;-
1514099187924;-;-;8.970367;0.536499;-1.7746124;-;-;-;-;-;-;-;-;-;-;-;-;-;-;-
1514099187945;-;-;8.972763;0.54248047;-1.8177185;-;-;-;-;-;-;-;-;-;-;-;-;-;-;-
1514099187965;-;-;8.951218;0.536499;-1.8260956;-;-;-;-;-;-;-;-;-;-;-;-;-;-;-
1514099187985;-;-;8.948822;0.54008484;-1.8392639;-;-;-;-;-;-;-;-;-;-;-;-;-;-;-
1514099188006;-;-;8.940445;0.52931213;-1.7901764;-;-;-;-;-;-;-;-;-;-;-;-;-;-;-
1514099188026;-;-;8.973953;0.52212524;-1.8117218;-;-;-;-;-;-;-;-;-;-;-;-;-;-;-
1514099188046;-;-;8.9787445;0.54008484;-1.7985535;-;-;-;-;-;-;-;-;-;-;-;-;-;-;-
1514099188066;-;-;8.976349;0.5269165;-1.7985535;-;-;-;-;-;-;-;-;-;-;-;-;-;-;-
1514099188087;-;-;8.970367;0.53289795;-1.8165131;-;-;-;-;-;-;-;-;-;-;-;-;-;-;-
1514099188107;-;-;8.938049;0.5592346;-1.8224945;-;-;-;-;-;-;-;-;-;-;-;-;-;-;-
1514099188127;-;-;8.963181;0.5676117;-1.8452454;-;-;-;-;-;-;-;-;-;-;-;-;-;-;-
1514099188147;-;-;8.983536;0.53289795;-1.8260956;-;-;-;-;-;-;-;-;-;-;-;-;-;-;-
1514099188168;-;-;8.958389;0.5460663;-1.7901764;-;-;-;-;-;-;-;-;-;-;-;-;-;-;-
1514099188187;-;-;8.945221;0.50297546;-1.7830048;-;-;-;-;-;-;-;-;-;-;-;-;-;-;-
1514099188207;-;-;8.98233;0.53289795;-1.7949677;-;-;-;-;-;-;-;-;-;-;-;-;-;-;-
1514099188227;-;-;8.915298;0.54966736;-1.8189087;-;-;-;-;-;-;-;-;-;-;-;-;-;-;-
1514099188248;-;-;8.932053;0.56044006;-1.8237;-;-;-;-;-;-;-;-;-;-;-;-;-;-;-
1514099188268;-;-;8.963181;0.556839;-1.8332825;-;-;-;-;-;-;-;-;-;-;-;-;-;-;-
1514099188288;-;-;8.975159;0.5747986;-1.8117218;-;-;-;-;-;-;-;-;-;-;-;-;-;-;-
1514099188309;-;-;8.959595;0.52093506;-1.8260956;-;-;-;-;-;-;-;-;-;-;-;-;-;-;-
1514099188329;-;-;8.946426;0.5448761;-1.8296814;-;-;-;-;-;-;-;-;-;-;-;-;-;-;-
1514099188349;-;-;8.970367;0.54367065;-1.8129272;-;-;-;-;-;-;-;-;-;-;-;-;-;-;-
1514099188370;-;-;8.959595;0.5161438;-1.808136;-;-;-;-;-;-;-;-;-;-;-;-;-;-;-
1514099188390;-;-;8.947617;0.50297546;-1.7937775;-;-;-;-;-;-;-;-;-;-;-;-;-;-;-
1514099188410;-;-;8.954803;0.49699402;-1.7865906;-;-;-;-;-;-;-;-;-;-;-;-;-;-;-
1514099188430;-;-;8.940445;0.5245209;-1.8213043;-;-;-;-;-;-;-;-;-;-;-;-;-;-;-
1514099188451;-;-;8.952408;0.5484619;-1.8979187;-;-;-;-;-;-;-;-;-;-;-;-;-;-;-
1514099188471;-;-;8.923676;0.5700073;-1.8667908;-;-;-;-;-;-;-;-;-;-;-;-;-;-;-
1514099188491;-;-;8.948822;0.5819855;-1.8572235;-;-;-;-;-;-;-;-;-;-;-;-;-;-;-
1514099188511;-;-;8.945221;0.56881714;-1.8105316;-;-;-;-;-;-;-;-;-;-;-;-;-;-;-
1514099188532;-;-;8.935654;0.536499;-1.7794037;-;-;-;-;-;-;-;-;-;-;-;-;-;-;-
1514099188552;-;-;8.941635;0.51374817;-1.8201141;-;-;-;-;-;-;-;-;-;-;-;-;-;-;-
1514099188572;-;-;8.994308;0.4802246;-1.8284912;-;-;-;-;-;-;-;-;-;-;-;-;-;-;-
1514099188593;-;-;8.946426;0.50297546;-1.7853851;-;-;-;-;-;-;-;-;-;-;-;-;-;-;-
1514099188613;-;-;8.934448;0.5065613;-1.8224945;-;-;-;-;-;-;-;-;-;-;-;-;-;-;-
1514099188633;-;-;8.942825;0.5305023;-1.777008;-;-;-;-;-;-;-;-;-;-;-;-;-;-;-
1514099188654;-;-;8.972763;0.5197296;-1.8296814;-;-;-;-;-;-;-;-;-;-;-;-;-;-;-
1514099188674;-;-;8.977554;0.57121277;-1.7949677;-;-;-;-;-;-;-;-;-;-;-;-;-;-;-
1514099188694;-;-;8.948822;0.5197296;-1.8177185;-;-;-;-;-;-;-;-;-;-;-;-;-;-;-
1514099188714;-;-;9.002686;0.55444336;-1.8308868;-;-;-;-;-;-;-;-;-;-;-;-;-;-;-
1514099188734;-;-;8.952408;0.58917236;-1.8464508;-;-;-;-;-;-;-;-;-;-;-;-;-;-;-
1514099188755;-;-;8.938049;0.576004;-1.8224945;-;-;-;-;-;-;-;-;-;-;-;-;-;-;-
1514099188775;-;-;8.98114;0.5700073;-1.8404541;-;-;-;-;-;-;-;-;-;-;-;-;-;-;-
1514099188795;-;-;9.007477;0.517334;-1.8045502;-;-;-;-;-;-;-;-;-;-;-;-;-;-;-
1514099188816;-;-;8.996704;0.45988464;-1.7063904;-;-;-;-;-;-;-;-;-;-;-;-;-;-;-
1514099188836;-;-;8.960785;0.42037964;-1.74469;-;-;-;-;-;-;-;-;-;-;-;-;-;-;-
1514099188856;-;-;8.930862;0.5089569;-1.8177185;-;-;-;-;-;-;-;-;-;-;-;-;-;-;-
1514099188877;-;-;8.928467;0.55085754;-1.8308868;-;-;-;-;-;-;-;-;-;-;-;-;-;-;-
1514099188897;-;-;8.989517;0.517334;-1.8021545;-;-;-;-;-;-;-;-;-;-;-;-;-;-;-
1514099188918;-;-;8.964386;0.4874115;-1.7614441;-;-;-;-;-;-;-;-;-;-;-;-;-;-;-
1514099188938;-;-;8.945221;0.517334;-1.7830048;-;-;-;-;-;-;-;-;-;-;-;-;-;-;-
1514099188958;-;-;8.928467;0.50177;-1.8105316;-;-;-;-;-;-;-;-;-;-;-;-;-;-;-
1514099188978;-;-;8.897339;0.54008484;-1.8213043;-;-;-;-;-;-;-;-;-;-;-;-;-;-;-
1514099188999;-;-;8.965576;0.53889465;-1.7973633;-;-;-;-;-;-;-;-;-;-;-;-;-;-;-
1514099189018;-;-;8.969162;0.5592346;-1.7782135;-;-;-;-;-;-;-;-;-;-;-;-;-;-;-
1514099189038;-;-;8.923676;0.5233307;-1.777008;-;-;-;-;-;-;-;-;-;-;-;-;-;-;-
1514099189058;-;-;8.938049;0.59155273;-1.832077;-;-;-;-;-;-;-;-;-;-;-;-;-;-;-
1514099189079;-;-;8.941635;0.5843811;-1.8380585;-;-;-;-;-;-;-;-;-;-;-;-;-;-;-
1514099189100;-;-;8.945221;0.5592346;-1.7973633;-;-;-;-;-;-;-;-;-;-;-;-;-;-;-
1514099189119;-;-;8.954803;0.52931213;-1.832077;-;-;-;-;-;-;-;-;-;-;-;-;-;-;-
1514099189139;-;-;8.929672;0.52931213;-1.7985535;-;-;-;-;-;-;-;-;-;-;-;-;-;-;-
1514099189160;-;-;8.944031;0.556839;-1.7865906;-;-;-;-;-;-;-;-;-;-;-;-;-;-;-
1514099189180;-;-;8.929672;0.5819855;-1.8021545;-;-;-;-;-;-;-;-;-;-;-;-;-;-;-
1514099189200;-;-;8.952408;0.54367065;-1.8021545;-;-;-;-;-;-;-;-;-;-;-;-;-;-;-
1514099189220;-;-;8.967972;0.5664215;-1.8045502;-;-;-;-;-;-;-;-;-;-;-;-;-;-;-
1514099189241;-;-;8.959595;0.5472717;-1.7949677;-;-;-;-;-;-;-;-;-;-;-;-;-;-;-
1514099189261;-;-;8.948822;0.54966736;-1.808136;-;-;-;-;-;-;-;-;-;-;-;-;-;-;-
1514099189281;-;-;8.964386;0.556839;-1.7817993;-;-;-;-;-;-;-;-;-;-;-;-;-;-;-
1514099189301;-;-;8.959595;0.5700073;-1.8057404;-;-;-;-;-;-;-;-;-;-;-;-;-;-;-
1514099189322;-;-;8.972763;0.5771942;-1.8153229;-;-;-;-;-;-;-;-;-;-;-;-;-;-;-
1514099189342;-;-;8.973953;0.5879669;-1.8284912;-;-;-;-;-;-;-;-;-;-;-;-;-;-;-
1514099189362;-;-;8.946426;0.5736084;-1.7949677;-;-;-;-;-;-;-;-;-;-;-;-;-;-;-
1514099189382;-;-;8.965576;0.556839;-1.7865906;-;-;-;-;-;-;-;-;-;-;-;-;-;-;-
1514099189403;-;-;8.97995;0.52212524;-1.7662354;-;-;-;-;-;-;-;-;-;-;-;-;-;-;-
1514099189423;-;-;8.96199;0.50057983;-1.7817993;-;-;-;-;-;-;-;-;-;-;-;-;-;-;-
1514099189443;-;-;8.930862;0.48501587;-1.7674408;-;-;-;-;-;-;-;-;-;-;-;-;-;-;-
1514099189464;-;-;8.965576;0.4874115;-1.7602539;-;-;-;-;-;-;-;-;-;-;-;-;-;-;-
1514099189484;-;-;8.957199;0.5532532;-1.8919373;-;-;-;-;-;-;-;-;-;-;-;-;-;-;-
1514099189504;-;-;8.976349;0.54966736;-1.8560181;-;-;-;-;-;-;-;-;-;-;-;-;-;-;-
1514099189524;-;-;8.971558;0.54966736;-1.8811646;-;-;-;-;-;-;-;-;-;-;-;-;-;-;-
1514099189545;-;-;8.938049;0.47065735;-1.7853851;-;-;-;-;-;-;-;-;-;-;-;-;-;-;-
1514099189565;-;-;8.971558;0.50416565;-1.7901764;-;-;-;-;-;-;-;-;-;-;-;-;-;-;-
1514099189585;-;-;8.941635;0.49578857;-1.8452454;-;-;-;-;-;-;-;-;-;-;-;-;-;-;-
1514099189605;-;-;8.957199;0.48262024;-1.8344727;-;-;-;-;-;-;-;-;-;-;-;-;-;-;-
1514099189626;-;-;8.989517;0.51493835;-1.863205;-;-;-;-;-;-;-;-;-;-;-;-;-;-;-
1514099189647;-;-;8.967972;0.47903442;-1.8093262;-;-;-;-;-;-;-;-;-;-;-;-;-;-;-
1514099189667;-;-;8.98114;0.48382568;-1.8153229;-;-;-;-;-;-;-;-;-;-;-;-;-;-;-
1514099189687;-;-;8.938049;0.49578857;-1.8464508;-;-;-;-;-;-;-;-;-;-;-;-;-;-;-
1514099189707;-;-;8.928467;0.536499;-1.8536224;-;-;-;-;-;-;-;-;-;-;-;-;-;-;-
1514099189728;-;-;8.969162;0.55804443;-1.8344727;-;-;-;-;-;-;-;-;-;-;-;-;-;-;-
1514099189748;-;-;8.942825;0.56044006;-1.8404541;-;-;-;-;-;-;-;-;-;-;-;-;-;-;-
1514099189768;-;-;8.969162;0.54248047;-1.8787689;-;-;-;-;-;-;-;-;-;-;-;-;-;-;-
1514099189788;-;-;8.944031;0.5472717;-1.8679962;-;-;-;-;-;-;-;-;-;-;-;-;-;-;-
1514099189809;-;-;8.928467;0.5664215;-1.8260956;-;-;-;-;-;-;-;-;-;-;-;-;-;-;-
1514099189828;-;-;8.926071;0.5640259;-1.8919373;-;-;-;-;-;-;-;-;-;-;-;-;-;-;-
1514099189848;-;-;8.929672;0.52931213;-1.847641;-;-;-;-;-;-;-;-;-;-;-;-;-;-;-
1514099189869;-;-;8.946426;0.536499;-1.8895416;-;-;-;-;-;-;-;-;-;-;-;-;-;-;-
1514099189889;-;-;8.935654;0.517334;-1.8739777;-;-;-;-;-;-;-;-;-;-;-;-;-;-;-
1514099189909;-;-;8.9392395;0.51016235;-1.8967285;-;-;-;-;-;-;-;-;-;-;-;-;-;-;-
1514099189929;-;-;8.917694;0.53289795;-1.8691864;-;-;-;-;-;-;-;-;-;-;-;-;-;-;-
1514099189950;-;-;8.929672;0.51374817;-1.8656006;-;-;-;-;-;-;-;-;-;-;-;-;-;-;-
1514099189971;-;-;8.996704;0.50057983;-1.8260956;-;-;-;-;-;-;-;-;-;-;-;-;-;-;-
1514099189991;-;-;8.948822;0.5161438;-1.9278412;-;-;-;-;-;-;-;-;-;-;-;-;-;-;-
1514099190012;-;-;8.952408;0.5077667;-1.8751678;-;-;-;-;-;-;-;-;-;-;-;-;-;-;-
1514099190032;-;-;8.898544;0.5376892;-1.8691864;-;-;-;-;-;-;-;-;-;-;-;-;-;-;-
1514099190052;-;-;8.926071;0.5352936;-1.8931274;-;-;-;-;-;-;-;-;-;-;-;-;-;-;-
1514099190072;-;-;8.923676;0.51493835;-1.9146729;-;-;-;-;-;-;-;-;-;-;-;-;-;-;-
1514099190093;-;-;8.930862;0.5676117;-1.8943329;-;-;-;-;-;-;-;-;-;-;-;-;-;-;-
1514099190113;-;-;8.940445;0.5257263;-1.9086914;-;-;-;-;-;-;-;-;-;-;-;-;-;-;-
1514099190133;-;-;8.987122;0.556839;-1.8979187;-;-;-;-;-;-;-;-;-;-;-;-;-;-;-
1514099190154;-;-;8.953613;0.5089569;-1.8572235;-;-;-;-;-;-;-;-;-;-;-;-;-;-;-
1514099190174;-;-;8.932053;0.5197296;-1.8919373;-;-;-;-;-;-;-;-;-;-;-;-;-;-;-
1514099190194;-;-;8.959595;0.51374817;-1.8656006;-;-;-;-;-;-;-;-;-;-;-;-;-;-;-
1514099190214;-;-;8.958389;0.5281067;-1.8751678;-;-;-;-;-;-;-;-;-;-;-;-;-;-;-
1514099190235;-;-;8.935654;0.541275;-1.8799591;-;-;-;-;-;-;-;-;-;-;-;-;-;-;-
1514099190254;-;-;8.951218;0.48143005;-1.8787689;-;-;-;-;-;-;-;-;-;-;-;-;-;-;-
1514099190274;-;-;8.922485;0.49220276;-1.8656006;-;-;-;-;-;-;-;-;-;-;-;-;-;-;-
1514099190295;-;-;8.944031;0.52093506;-1.9122772;-;-;-;-;-;-;-;-;-;-;-;-;-;-;-
1514099190314;-;-;8.951218;0.5352936;-1.9062958;-;-;-;-;-;-;-;-;-;-;-;-;-;-;-
1514099190334;-;-;8.927277;0.55444336;-1.9218597;-;-;-;-;-;-;-;-;-;-;-;-;-;-;-
1514099190354;-;-;8.938049;0.54248047;-1.9122772;-;-;-;-;-;-;-;-;-;-;-;-;-;-;-
1514099190375;-;-;8.930862;0.5305023;-1.9015045;-;-;-;-;-;-;-;-;-;-;-;-;-;-;-
1514099190395;-;-;8.959595;0.5089569;-1.8907318;-;-;-;-;-;-;-;-;-;-;-;-;-;-;-
1514099190415;-;-;8.948822;0.49339294;-1.8835602;-;-;-;-;-;-;-;-;-;-;-;-;-;-;-
1514099190436;-;-;8.964386;0.4862213;-1.8811646;-;-;-;-;-;-;-;-;-;-;-;-;-;-;-
1514099190455;-;-;8.966782;0.5305023;-1.8955231;-;-;-;-;-;-;-;-;-;-;-;-;-;-;-
1514099190475;-;-;8.930862;0.5185394;-1.9230652;-;-;-;-;-;-;-;-;-;-;-;-;-;-;-
1514099190495;-;-;8.951218;0.536499;-1.9242554;-;-;-;-;-;-;-;-;-;-;-;-;-;-;-
1514099190515;-;-;8.936844;0.52931213;-1.9122772;-;-;-;-;-;-;-;-;-;-;-;-;-;-;-
1514099190535;-;-;8.953613;0.5460663;-1.8859406;-;-;-;-;-;-;-;-;-;-;-;-;-;-;-
1514099190555;-;-;8.96199;0.5771942;-1.9158783;-;-;-;-;-;-;-;-;-;-;-;-;-;-;-
1514099190576;-;-;8.92128;0.5185394;-1.9003143;-;-;-;-;-;-;-;-;-;-;-;-;-;-;-
1514099190595;-;-;8.942825;0.53889465;-1.9170685;-;-;-;-;-;-;-;-;-;-;-;-;-;-;-
1514099190615;-;-;8.969162;0.5245209;-1.8955231;-;-;-;-;-;-;-;-;-;-;-;-;-;-;-
1514099190636;-;-;8.953613;0.5233307;-1.9098969;-;-;-;-;-;-;-;-;-;-;-;-;-;-;-
1514099190655;-;-;8.926071;0.47903442;-1.9194641;-;-;-;-;-;-;-;-;-;-;-;-;-;-;-
1514099190675;-;-;8.923676;0.54367065;-1.911087;-;-;-;-;-;-;-;-;-;-;-;-;-;-;-
1514099190696;-;-;8.944031;0.5305023;-1.9446106;-;-;-;-;-;-;-;-;-;-;-;-;-;-;-
1514099190716;-;-;8.928467;0.5628357;-1.9434052;-;-;-;-;-;-;-;-;-;-;-;-;-;-;-
1514099190736;-;-;8.936844;0.5472717;-1.9194641;-;-;-;-;-;-;-;-;-;-;-;-;-;-;-
1514099190757;-;-;8.938049;0.5281067;-1.8560181;-;-;-;-;-;-;-;-;-;-;-;-;-;-;-
1514099190777;-;-;8.966782;0.5197296;-1.8907318;-;-;-;-;-;-;-;-;-;-;-;-;-;-;-
1514099190797;-;-;8.977554;0.49220276;-1.9062958;-;-;-;-;-;-;-;-;-;-;-;-;-;-;-
1514099190817;-;-;8.946426;0.51016235;-1.8691864;-;-;-;-;-;-;-;-;-;-;-;-;-;-;-
1514099190837;-;-;8.940445;0.55804443;-1.8763733;-;-;-;-;-;-;-;-;-;-;-;-;-;-;-
1514099190858;-;-;8.96199;0.5281067;-1.8691864;-;-;-;-;-;-;-;-;-;-;-;-;-;-;-
1514099190878;-;-;8.930862;0.5245209;-1.9015045;-;-;-;-;-;-;-;-;-;-;-;-;-;-;-
1514099190898;-;-;8.922485;0.4981842;-1.8991089;-;-;-;-;-;-;-;-;-;-;-;-;-;-;-
1514099190918;-;-;8.914108;0.54367065;-1.9302368;-;-;-;-;-;-;-;-;-;-;-;-;-;-;-
1514099190939;-;-;8.951218;0.5281067;-1.911087;-;-;-;-;-;-;-;-;-;-;-;-;-;-;-
1514099190959;-;-;8.930862;0.55804443;-1.9158783;-;-;-;-;-;-;-;-;-;-;-;-;-;-;-
1514099190980;-;-;8.927277;0.5305023;-1.8619995;-;-;-;-;-;-;-;-;-;-;-;-;-;-;-
1514099190999;-;-;8.922485;0.5245209;-1.8584137;-;-;-;-;-;-;-;-;-;-;-;-;-;-;-
1514099191020;-;-;8.941635;0.5245209;-1.9003143;-;-;-;-;-;-;-;-;-;-;-;-;-;-;-
1514099191040;-;-;8.953613;0.5245209;-1.9039001;-;-;-;-;-;-;-;-;-;-;-;-;-;-;-
1514099191060;-;-;8.963181;0.5305023;-1.9039001;-;-;-;-;-;-;-;-;-;-;-;-;-;-;-
1514099191081;-;-;8.9392395;0.50297546;-1.8955231;-;-;-;-;-;-;-;-;-;-;-;-;-;-;-
1514099191101;-;-;8.940445;0.5352936;-1.9062958;-;-;-;-;-;-;-;-;-;-;-;-;-;-;-
1514099191122;-;-;8.926071;0.53170776;-1.9218597;-;-;-;-;-;-;-;-;-;-;-;-;-;-;-
1514099191142;-;-;8.946426;0.536499;-1.9062958;-;-;-;-;-;-;-;-;-;-;-;-;-;-;-
1514099191163;-;-;8.941635;0.5472717;-1.8919373;-;-;-;-;-;-;-;-;-;-;-;-;-;-;-
1514099191183;-;-;8.929672;0.5269165;-1.9146729;-;-;-;-;-;-;-;-;-;-;-;-;-;-;-
1514099191203;-;-;8.929672;0.56521606;-1.8967285;-;-;-;-;-;-;-;-;-;-;-;-;-;-;-
1514099191223;-;-;8.936844;0.53289795;-1.8703918;-;-;-;-;-;-;-;-;-;-;-;-;-;-;-
1514099191244;-;-;8.957199;0.512558;-1.8931274;-;-;-;-;-;-;-;-;-;-;-;-;-;-;-
1514099191264;-;-;8.942825;0.5281067;-1.9003143;-;-;-;-;-;-;-;-;-;-;-;-;-;-;-
1514099191284;-;-;8.930862;0.50297546;-1.8560181;-;-;-;-;-;-;-;-;-;-;-;-;-;-;-
1514099191304;-;-;8.923676;0.5448761;-1.8488312;-;-;-;-;-;-;-;-;-;-;-;-;-;-;-
1514099191325;-;-;8.948822;0.54367065;-1.9170685;-;-;-;-;-;-;-;-;-;-;-;-;-;-;-
1514099191345;-;-;8.950012;0.51493835;-1.9721375;-;-;-;-;-;-;-;-;-;-;-;-;-;-;-
1514099191365;-;-;8.935654;0.56044006;-1.8883362;-;-;-;-;-;-;-;-;-;-;-;-;-;-;-
1514099191386;-;-;8.958389;0.51374817;-1.8536224;-;-;-;-;-;-;-;-;-;-;-;-;-;-;-
1514099191405;-;-;8.954803;0.5233307;-1.8703918;-;-;-;-;-;-;-;-;-;-;-;-;-;-;-
1514099191425;-;-;8.953613;0.47424316;-1.8979187;-;-;-;-;-;-;-;-;-;-;-;-;-;-;-
1514099191446;-;-;8.973953;0.5484619;-1.8799591;-;-;-;-;-;-;-;-;-;-;-;-;-;-;-
1514099191466;-;-;8.951218;0.541275;-1.8656006;-;-;-;-;-;-;-;-;-;-;-;-;-;-;-
1514099191486;-;-;8.959595;0.5161438;-1.8679962;-;-;-;-;-;-;-;-;-;-;-;-;-;-;-
1514099191507;-;-;8.9392395;0.4909973;-1.8656006;-;-;-;-;-;-;-;-;-;-;-;-;-;-;-
1514099191527;-;-;8.948822;0.51016235;-1.9039001;-;-;-;-;-;-;-;-;-;-;-;-;-;-;-
1514099191547;-;-;8.930862;0.54248047;-1.8931274;-;-;-;-;-;-;-;-;-;-;-;-;-;-;-
1514099191567;-;-;8.918884;0.53170776;-1.9338379;-;-;-;-;-;-;-;-;-;-;-;-;-;-;-
1514099191588;-;-;8.941635;0.54248047;-1.8608093;-;-;-;-;-;-;-;-;-;-;-;-;-;-;-
1514099191608;-;-;8.928467;0.5269165;-1.8560181;-;-;-;-;-;-;-;-;-;-;-;-;-;-;-
1514099191629;-;-;8.940445;0.517334;-1.887146;-;-;-;-;-;-;-;-;-;-;-;-;-;-;-
1514099191648;-;-;8.9392395;0.51493835;-1.8284912;-;-;-;-;-;-;-;-;-;-;-;-;-;-;-
1514099191669;-;-;8.945221;0.45628357;-1.8452454;-;-;-;-;-;-;-;-;-;-;-;-;-;-;-
1514099191689;-;-;8.946426;0.48501587;-1.8536224;-;-;-;-;-;-;-;-;-;-;-;-;-;-;-
1514099191709;-;-;8.932053;0.5185394;-1.8943329;-;-;-;-;-;-;-;-;-;-;-;-;-;-;-
1514099191730;-;-;8.952408;0.54248047;-1.887146;-;-;-;-;-;-;-;-;-;-;-;-;-;-;-
1514099191750;-;-;8.951218;0.50297546;-1.9015045;-;-;-;-;-;-;-;-;-;-;-;-;-;-;-
1514099191770;-;-;8.947617;0.52931213;-1.8991089;-;-;-;-;-;-;-;-;-;-;-;-;-;-;-
1514099191791;-;-;8.9392395;0.51135254;-1.8931274;-;-;-;-;-;-;-;-;-;-;-;-;-;-;-
1514099191811;-;-;8.960785;0.5305023;-1.8727875;-;-;-;-;-;-;-;-;-;-;-;-;-;-;-
1514099191831;-;-;8.92009;0.54367065;-1.8679962;-;-;-;-;-;-;-;-;-;-;-;-;-;-;-
1514099191852;-;-;8.959595;0.5556488;-1.8619995;-;-;-;-;-;-;-;-;-;-;-;-;-;-;-
1514099191872;-;-;8.964386;0.5281067;-1.9039001;-;-;-;-;-;-;-;-;-;-;-;-;-;-;-
1514099191892;-;-;8.934448;0.52093506;-1.8991089;-;-;-;-;-;-;-;-;-;-;-;-;-;-;-
1514099191913;-;-;8.946426;0.50297546;-1.8500366;-;-;-;-;-;-;-;-;-;-;-;-;-;-;-
1514099191933;-;-;8.924881;0.4862213;-1.8452454;-;-;-;-;-;-;-;-;-;-;-;-;-;-;-
1514099191953;-;-;8.952408;0.5376892;-1.8991089;-;-;-;-;-;-;-;-;-;-;-;-;-;-;-
1514099191973;-;-;8.940445;0.51493835;-1.8979187;-;-;-;-;-;-;-;-;-;-;-;-;-;-;-
1514099191994;-;-;8.927277;0.56163025;-1.950592;-;-;-;-;-;-;-;-;-;-;-;-;-;-;-
1514099192015;-;-;8.954803;0.5448761;-1.8835602;-;-;-;-;-;-;-;-;-;-;-;-;-;-;-
1514099192034;-;-;8.922485;0.5233307;-1.8619995;-;-;-;-;-;-;-;-;-;-;-;-;-;-;-
1514099192054;-;-;8.935654;0.5161438;-1.8703918;-;-;-;-;-;-;-;-;-;-;-;-;-;-;-
1514099192075;-;-;8.948822;0.5305023;-1.8380585;-;-;-;-;-;-;-;-;-;-;-;-;-;-;-
1514099192095;-;-;8.976349;0.52931213;-1.9003143;-;-;-;-;-;-;-;-;-;-;-;-;-;-;-
1514099192115;-;-;8.927277;0.49699402;-1.8907318;-;-;-;-;-;-;-;-;-;-;-;-;-;-;-
1514099192136;-;-;8.928467;0.4945984;-1.8548279;-;-;-;-;-;-;-;-;-;-;-;-;-;-;-
1514099192156;-;-;8.952408;0.4694519;-1.871582;-;-;-;-;-;-;-;-;-;-;-;-;-;-;-
1514099192176;-;-;8.948822;0.50416565;-1.90271;-;-;-;-;-;-;-;-;-;-;-;-;-;-;-
1514099192197;-;-;8.960785;0.51135254;-1.9134827;-;-;-;-;-;-;-;-;-;-;-;-;-;-;-
1514099192217;-;-;8.96199;0.5305023;-1.871582;-;-;-;-;-;-;-;-;-;-;-;-;-;-;-
1514099192237;-;-;8.963181;0.5376892;-1.8596191;-;-;-;-;-;-;-;-;-;-;-;-;-;-;-
1514099192257;-;-;8.933258;0.50416565;-1.8799591;-;-;-;-;-;-;-;-;-;-;-;-;-;-;-
1514099192278;-;-;8.92128;0.54008484;-1.8823547;-;-;-;-;-;-;-;-;-;-;-;-;-;-;-
1514099192298;-;-;8.959595;0.5161438;-1.8859406;-;-;-;-;-;-;-;-;-;-;-;-;-;-;-
1514099192318;-;-;8.964386;0.52212524;-1.8560181;-;-;-;-;-;-;-;-;-;-;-;-;-;-;-
1514099192338;-;-;8.936844;0.51016235;-1.8727875;-;-;-;-;-;-;-;-;-;-;-;-;-;-;-
1514099192358;-;-;8.92009;0.5305023;-1.9003143;-;-;-;-;-;-;-;-;-;-;-;-;-;-;-
1514099192379;-;-;8.910507;0.5341034;-1.9003143;-;-;-;-;-;-;-;-;-;-;-;-;-;-;-
1514099192399;-;-;8.935654;0.5245209;-1.9170685;-;-;-;-;-;-;-;-;-;-;-;-;-;-;-
1514099192419;-;-;8.947617;0.4945984;-1.8691864;-;-;-;-;-;-;-;-;-;-;-;-;-;-;-
1514099192440;-;-;8.953613;0.5352936;-1.8464508;-;-;-;-;-;-;-;-;-;-;-;-;-;-;-
1514099192460;-;-;8.938049;0.5245209;-1.887146;-;-;-;-;-;-;-;-;-;-;-;-;-;-;-
1514099192480;-;-;8.9392395;0.50057983;-1.8991089;-;-;-;-;-;-;-;-;-;-;-;-;-;-;-
1514099192501;-;-;8.941635;0.536499;-1.8619995;-;-;-;-;-;-;-;-;-;-;-;-;-;-;-
1514099192522;-;-;8.950012;0.49578857;-1.9254456;-;-;-;-;-;-;-;-;-;-;-;-;-;-;-
1514099192542;-;-;8.9392395;0.5077667;-1.8643951;-;-;-;-;-;-;-;-;-;-;-;-;-;-;-
1514099192562;-;-;8.953613;0.5281067;-1.8416595;-;-;-;-;-;-;-;-;-;-;-;-;-;-;-
1514099192582;-;-;8.92009;0.4945984;-1.8500366;-;-;-;-;-;-;-;-;-;-;-;-;-;-;-
1514099192602;-;-;8.908112;0.51016235;-1.8787689;-;-;-;-;-;-;-;-;-;-;-;-;-;-;-
1514099192622;-;-;8.924881;0.5065613;-1.9242554;-;-;-;-;-;-;-;-;-;-;-;-;-;-;-
1514099192642;-;-;8.969162;0.5269165;-1.9039001;-;-;-;-;-;-;-;-;-;-;-;-;-;-;-
