TimeStamp[ms];Prox[Cm];Lux[lux];AccX[m/s^2];AccY[m/s^2];AccZ[m/s^2];GyroX[rad/s];GyroY[rad/s];GyroZ[rad/s];MagnX[uT];MagnY[uT];MagnZ[uT];OrienYaw[degrees];OrienPitch[degrees];OrienRoll[degrees];Press[Pa];Temp[C°];Batt[%];Lat;Lng;Speed[m/s]
1514099488333;-;-;8.662704;-0.91200256;2.3948822;-;-;-;-;-;-;-;-;-;-;-;-;-;-;-
1514099488337;-;-;8.940445;-0.81144714;2.4439697;-;-;-;-;-;-;-;-;-;-;-;-;-;-;-
1514099488357;-;-;8.48674;-0.49780273;2.2560272;-;-;-;-;-;-;-;-;-;-;-;-;-;-;-
1514099488378;-;-;8.6818695;-0.23085022;1.4503784;-;-;-;-;-;-;-;-;-;-;-;-;-;-;-
1514099488398;-;-;8.411316;-0.37809753;1.3174896;-;-;-;-;-;-;-;-;-;-;-;-;-;-;-
1514099488418;-;-;9.388153;-0.16500854;2.0393524;-;-;-;-;-;-;-;-;-;-;-;-;-;-;-
1514099488439;-;-;8.97995;0.58317566;0.10482788;-;-;-;-;-;-;-;-;-;-;-;-;-;-;-
1514099488459;-;-;9.2708435;0.30545044;-0.10346985;-;-;-;-;-;-;-;-;-;-;-;-;-;-;-
1514099488479;-;-;9.777206;0.18574524;-0.32852173;-;-;-;-;-;-;-;-;-;-;-;-;-;-;-
1514099488500;-;-;9.388153;-0.31584167;-0.5224457;-;-;-;-;-;-;-;-;-;-;-;-;-;-;-
1514099488519;-;-;9.351044;-0.07043457;-0.22796631;-;-;-;-;-;-;-;-;-;-;-;-;-;-;-
1514099488539;-;-;9.556946;-0.06324768;-0.46977234;-;-;-;-;-;-;-;-;-;-;-;-;-;-;-
1514099488559;-;-;8.703415;0.54008484;0.38375854;-;-;-;-;-;-;-;-;-;-;-;-;-;-;-
1514099488585;-;-;9.680252;0.8513336;-0.7343445;-;-;-;-;-;-;-;-;-;-;-;-;-;-;-
1514099488600;-;-;9.919662;0.80584717;-0.5978699;-;-;-;-;-;-;-;-;-;-;-;-;-;-;-
1514099488620;-;-;9.347458;1.0213165;-0.6601105;-;-;-;-;-;-;-;-;-;-;-;-;-;-;-
1514099488641;-;-;9.461182;0.99858093;-1.0886841;-;-;-;-;-;-;-;-;-;-;-;-;-;-;-
1514099488661;-;-;9.243301;0.7735138;-1.282608;-;-;-;-;-;-;-;-;-;-;-;-;-;-;-
1514099488681;-;-;9.424072;-0.6187134;-1.4729462;-;-;-;-;-;-;-;-;-;-;-;-;-;-;-
1514099488702;-;-;10.12677;-1.5991364;-0.93185425;-;-;-;-;-;-;-;-;-;-;-;-;-;-;-
1514099488722;-;-;9.872986;-1.680542;-0.6397705;-;-;-;-;-;-;-;-;-;-;-;-;-;-;-
1514099488742;-;-;9.161896;-0.9263611;-0.2578888;-;-;-;-;-;-;-;-;-;-;-;-;-;-;-
1514099488763;-;-;8.079727;-0.6031494;0.10722351;-;-;-;-;-;-;-;-;-;-;-;-;-;-;-
1514099488783;-;-;7.9576263;-1.012558;0.44360352;-;-;-;-;-;-;-;-;-;-;-;-;-;-;-
1514099488803;-;-;8.283234;-1.4961853;-0.10346985;-;-;-;-;-;-;-;-;-;-;-;-;-;-;-
1514099488823;-;-;9.445618;-1.5380859;-1.3424683;-;-;-;-;-;-;-;-;-;-;-;-;-;-;-
1514099488844;-;-;10.246475;-0.85214233;-1.9613647;-;-;-;-;-;-;-;-;-;-;-;-;-;-;-
1514099488864;-;-;10.313507;-0.07043457;-2.045166;-;-;-;-;-;-;-;-;-;-;-;-;-;-;-
1514099488885;-;-;10.074097;0.29467773;-2.108612;-;-;-;-;-;-;-;-;-;-;-;-;-;-;-
1514099488905;-;-;8.572922;0.03491211;-1.3987274;-;-;-;-;-;-;-;-;-;-;-;-;-;-;-
1514099488925;-;-;8.066559;-0.83299255;-1.4442139;-;-;-;-;-;-;-;-;-;-;-;-;-;-;-
1514099488945;-;-;7.9899445;-1.7523651;-1.4394226;-;-;-;-;-;-;-;-;-;-;-;-;-;-;-
1514099488966;-;-;8.065353;-2.1701508;-1.4394226;-;-;-;-;-;-;-;-;-;-;-;-;-;-;-
1514099488986;-;-;8.551376;-2.324585;-1.0982513;-;-;-;-;-;-;-;-;-;-;-;-;-;-;-
1514099489006;-;-;9.657501;-2.0767822;-1.1257935;-;-;-;-;-;-;-;-;-;-;-;-;-;-;-
1514099489027;-;-;9.975937;-1.759552;-1.4142914;-;-;-;-;-;-;-;-;-;-;-;-;-;-;-
1514099489047;-;-;10.026215;-1.6290588;-1.7051849;-;-;-;-;-;-;-;-;-;-;-;-;-;-;-
1514099489067;-;-;9.797562;-1.4494934;-1.7494812;-;-;-;-;-;-;-;-;-;-;-;-;-;-;-
1514099489088;-;-;9.133179;-1.2974701;-1.5375977;-;-;-;-;-;-;-;-;-;-;-;-;-;-;-
1514099489108;-;-;8.564545;-1.5955505;-1.5124512;-;-;-;-;-;-;-;-;-;-;-;-;-;-;-
1514099489128;-;-;8.546585;-1.7080688;-1.2514801;-;-;-;-;-;-;-;-;-;-;-;-;-;-;-
1514099489149;-;-;8.42569;-1.7727203;-1.3245087;-;-;-;-;-;-;-;-;-;-;-;-;-;-;-
1514099489168;-;-;8.526245;-1.6889191;-1.5304108;-;-;-;-;-;-;-;-;-;-;-;-;-;-;-
1514099489188;-;-;8.930862;-1.4494934;-1.5782928;-;-;-;-;-;-;-;-;-;-;-;-;-;-;-
1514099489208;-;-;9.47435;-1.2244415;-1.4968872;-;-;-;-;-;-;-;-;-;-;-;-;-;-;-
1514099489229;-;-;9.458786;-1.0149536;-1.5292053;-;-;-;-;-;-;-;-;-;-;-;-;-;-;-
1514099489249;-;-;9.123596;-1.111908;-1.4645691;-;-;-;-;-;-;-;-;-;-;-;-;-;-;-
1514099489269;-;-;9.148727;-1.2124786;-1.3412628;-;-;-;-;-;-;-;-;-;-;-;-;-;-;-
1514099489290;-;-;8.947617;-1.1957092;-1.2012024;-;-;-;-;-;-;-;-;-;-;-;-;-;-;-
1514099489311;-;-;8.903336;-1.1190948;-1.0539703;-;-;-;-;-;-;-;-;-;-;-;-;-;-;-
1514099489330;-;-;8.867416;-1.0747986;-0.8863678;-;-;-;-;-;-;-;-;-;-;-;-;-;-;-
1514099489351;-;-;9.146347;-0.9981842;-1.0276337;-;-;-;-;-;-;-;-;-;-;-;-;-;-;-
1514099489371;-;-;8.984726;-1.0700226;-1.2706451;-;-;-;-;-;-;-;-;-;-;-;-;-;-;-
1514099489391;-;-;9.017059;-1.2519684;-1.1138153;-;-;-;-;-;-;-;-;-;-;-;-;-;-;-
1514099489411;-;-;8.9991;-1.5955505;-1.1545258;-;-;-;-;-;-;-;-;-;-;-;-;-;-;-
1514099489432;-;-;9.272034;-2.0205078;-1.4909058;-;-;-;-;-;-;-;-;-;-;-;-;-;-;-
1514099489451;-;-;9.562927;-2.3006287;-1.618988;-;-;-;-;-;-;-;-;-;-;-;-;-;-;-
1514099489471;-;-;9.397736;-2.080368;-1.5938568;-;-;-;-;-;-;-;-;-;-;-;-;-;-;-
1514099489492;-;-;8.875793;-1.194519;-1.8021545;-;-;-;-;-;-;-;-;-;-;-;-;-;-;-
1514099489511;-;-;8.471176;-0.54927063;-1.847641;-;-;-;-;-;-;-;-;-;-;-;-;-;-;-
1514099489531;-;-;8.036621;-0.2787323;-1.6022339;-;-;-;-;-;-;-;-;-;-;-;-;-;-;-
1514099489552;-;-;8.489136;-0.8018646;-1.6872253;-;-;-;-;-;-;-;-;-;-;-;-;-;-;-
1514099489573;-;-;9.146347;-1.2232513;-1.9841156;-;-;-;-;-;-;-;-;-;-;-;-;-;-;-
1514099489593;-;-;9.458786;-1.2663422;-2.0511475;-;-;-;-;-;-;-;-;-;-;-;-;-;-;-
1514099489614;-;-;9.37619;-1.225647;-1.9924927;-;-;-;-;-;-;-;-;-;-;-;-;-;-;-
1514099489635;-;-;9.2708435;-1.1143036;-1.729126;-;-;-;-;-;-;-;-;-;-;-;-;-;-;-
1514099489655;-;-;9.118805;-0.93473816;-1.4442139;-;-;-;-;-;-;-;-;-;-;-;-;-;-;-
1514099489675;-;-;8.92128;-0.88446045;-1.3903503;-;-;-;-;-;-;-;-;-;-;-;-;-;-;-
1514099489696;-;-;8.703415;-1.115509;-1.3269043;-;-;-;-;-;-;-;-;-;-;-;-;-;-;-
1514099489716;-;-;8.796783;-1.3214111;-1.401123;-;-;-;-;-;-;-;-;-;-;-;-;-;-;-
1514099489737;-;-;8.9991;-1.2328186;-1.5208282;-;-;-;-;-;-;-;-;-;-;-;-;-;-;-
1514099489756;-;-;9.200211;-0.98143005;-1.555542;-;-;-;-;-;-;-;-;-;-;-;-;-;-;-
1514099489777;-;-;9.276825;-0.71806335;-1.5579376;-;-;-;-;-;-;-;-;-;-;-;-;-;-;-
1514099489799;-;-;9.182251;-0.73602295;-1.4023132;-;-;-;-;-;-;-;-;-;-;-;-;-;-;-
1514099489818;-;-;9.082901;-0.8665161;-1.4214783;-;-;-;-;-;-;-;-;-;-;-;-;-;-;-
1514099489838;-;-;9.051773;-1.0352936;-1.3328857;-;-;-;-;-;-;-;-;-;-;-;-;-;-;-
1514099489858;-;-;9.030228;-1.0233307;-1.2658539;-;-;-;-;-;-;-;-;-;-;-;-;-;-;-
1514099489879;-;-;8.987122;-0.9826355;-1.3209229;-;-;-;-;-;-;-;-;-;-;-;-;-;-;-
1514099489899;-;-;8.995499;-0.9874115;-1.4789276;-;-;-;-;-;-;-;-;-;-;-;-;-;-;-
1514099489919;-;-;9.051773;-0.97784424;-1.432251;-;-;-;-;-;-;-;-;-;-;-;-;-;-;-
1514099489940;-;-;9.123596;-0.78990173;-1.4909058;-;-;-;-;-;-;-;-;-;-;-;-;-;-;-
1514099489960;-;-;9.147537;-0.48223877;-1.5040741;-;-;-;-;-;-;-;-;-;-;-;-;-;-;-
1514099489980;-;-;9.175064;-0.1925354;-1.7494812;-;-;-;-;-;-;-;-;-;-;-;-;-;-;-
1514099490000;-;-;8.989517;0.02053833;-1.8512268;-;-;-;-;-;-;-;-;-;-;-;-;-;-;-
1514099490021;-;-;8.872208;0.08518982;-1.8380585;-;-;-;-;-;-;-;-;-;-;-;-;-;-;-
1514099490041;-;-;8.896149;0.08998108;-1.966156;-;-;-;-;-;-;-;-;-;-;-;-;-;-;-
1514099490061;-;-;8.950012;-0.105148315;-2.2295227;-;-;-;-;-;-;-;-;-;-;-;-;-;-;-
1514099490082;-;-;8.970367;-0.39485168;-2.0343933;-;-;-;-;-;-;-;-;-;-;-;-;-;-;-
1514099490102;-;-;9.082901;-0.54927063;-1.90271;-;-;-;-;-;-;-;-;-;-;-;-;-;-;-
1514099490122;-;-;9.111618;-0.6294861;-1.7698364;-;-;-;-;-;-;-;-;-;-;-;-;-;-;-
1514099490145;-;-;8.967972;-0.78271484;-1.6285706;-;-;-;-;-;-;-;-;-;-;-;-;-;-;-
1514099490162;-;-;8.905716;-0.90242004;-1.6046295;-;-;-;-;-;-;-;-;-;-;-;-;-;-;-
1514099490182;-;-;8.971558;-1.1370544;-1.4657593;-;-;-;-;-;-;-;-;-;-;-;-;-;-;-
1514099490202;-;-;9.044586;-1.2232513;-1.3580322;-;-;-;-;-;-;-;-;-;-;-;-;-;-;-
1514099490223;-;-;9.066132;-1.2663422;-1.3328857;-;-;-;-;-;-;-;-;-;-;-;-;-;-;-
1514099490243;-;-;9.116409;-1.2615509;-1.5411835;-;-;-;-;-;-;-;-;-;-;-;-;-;-;-
1514099490263;-;-;9.00029;-1.1969147;-1.7219391;-;-;-;-;-;-;-;-;-;-;-;-;-;-;-
1514099490283;-;-;9.024231;-1.1657867;-1.6429291;-;-;-;-;-;-;-;-;-;-;-;-;-;-;-
1514099490303;-;-;8.958389;-1.0927582;-1.6812439;-;-;-;-;-;-;-;-;-;-;-;-;-;-;-
1514099490323;-;-;9.0182495;-1.0017853;-1.6728668;-;-;-;-;-;-;-;-;-;-;-;-;-;-;-
1514099490343;-;-;9.005081;-0.9910126;-1.6070251;-;-;-;-;-;-;-;-;-;-;-;-;-;-;-
1514099490363;-;-;8.9392395;-0.95150757;-1.7123718;-;-;-;-;-;-;-;-;-;-;-;-;-;-;-
1514099490384;-;-;9.029022;-0.8868561;-1.8237;-;-;-;-;-;-;-;-;-;-;-;-;-;-;-
1514099490404;-;-;8.970367;-0.84376526;-1.9865112;-;-;-;-;-;-;-;-;-;-;-;-;-;-;-
1514099490424;-;-;8.944031;-0.7767334;-2.0523376;-;-;-;-;-;-;-;-;-;-;-;-;-;-;-
1514099490445;-;-;8.993118;-0.7336273;-2.0248108;-;-;-;-;-;-;-;-;-;-;-;-;-;-;-
1514099490465;-;-;8.964386;-0.6498413;-2.036789;-;-;-;-;-;-;-;-;-;-;-;-;-;-;-
1514099490486;-;-;8.865021;-0.6115265;-1.887146;-;-;-;-;-;-;-;-;-;-;-;-;-;-;-
1514099490505;-;-;8.815933;-0.51815796;-2.1229706;-;-;-;-;-;-;-;-;-;-;-;-;-;-;-
1514099490525;-;-;8.893753;-0.27514648;-2.215149;-;-;-;-;-;-;-;-;-;-;-;-;-;-;-
1514099490546;-;-;9.017059;-0.0045928955;-2.3360596;-;-;-;-;-;-;-;-;-;-;-;-;-;-;-
1514099490566;-;-;9.087677;0.3904419;-2.3683777;-;-;-;-;-;-;-;-;-;-;-;-;-;-;-
1514099490586;-;-;9.042191;0.44432068;-2.1816254;-;-;-;-;-;-;-;-;-;-;-;-;-;-;-
1514099490606;-;-;8.990723;0.2515869;-2.1134033;-;-;-;-;-;-;-;-;-;-;-;-;-;-;-
1514099490626;-;-;8.951218;-0.0105896;-2.1576843;-;-;-;-;-;-;-;-;-;-;-;-;-;-;-
1514099490647;-;-;8.885376;-0.1482544;-2.1732483;-;-;-;-;-;-;-;-;-;-;-;-;-;-;-
1514099490667;-;-;8.728546;-0.29309082;-2.1900177;-;-;-;-;-;-;-;-;-;-;-;-;-;-;-
1514099490687;-;-;8.672287;-0.60554504;-2.1612854;-;-;-;-;-;-;-;-;-;-;-;-;-;-;-
1514099490708;-;-;8.855438;-0.85453796;-2.0738983;-;-;-;-;-;-;-;-;-;-;-;-;-;-;-
1514099490728;-;-;8.971558;-0.7420044;-2.0715027;-;-;-;-;-;-;-;-;-;-;-;-;-;-;-
1514099490748;-;-;9.041;-0.37330627;-2.1145935;-;-;-;-;-;-;-;-;-;-;-;-;-;-;-
1514099490769;-;-;8.912903;-0.011779785;-2.0786743;-;-;-;-;-;-;-;-;-;-;-;-;-;-;-
1514099490789;-;-;9.012268;0.1905365;-1.9589691;-;-;-;-;-;-;-;-;-;-;-;-;-;-;-
1514099490810;-;-;9.12001;0.20370483;-1.6872253;-;-;-;-;-;-;-;-;-;-;-;-;-;-;-
1514099490830;-;-;9.244507;0.048080444;-1.5423737;-;-;-;-;-;-;-;-;-;-;-;-;-;-;-
1514099490850;-;-;9.39653;-0.0728302;-1.7039948;-;-;-;-;-;-;-;-;-;-;-;-;-;-;-
1514099490871;-;-;9.206192;-0.24880981;-1.737503;-;-;-;-;-;-;-;-;-;-;-;-;-;-;-
1514099490891;-;-;9.081696;-0.45829773;-1.4358368;-;-;-;-;-;-;-;-;-;-;-;-;-;-;-
1514099490910;-;-;9.086487;-0.32421875;-1.2395172;-;-;-;-;-;-;-;-;-;-;-;-;-;-;-
1514099490930;-;-;8.928467;-0.4092102;-1.1736755;-;-;-;-;-;-;-;-;-;-;-;-;-;-;-
1514099490950;-;-;8.906921;-0.5744171;-1.0982513;-;-;-;-;-;-;-;-;-;-;-;-;-;-;-
1514099490970;-;-;8.934448;-0.76594543;-1.2502899;-;-;-;-;-;-;-;-;-;-;-;-;-;-;-
1514099490991;-;-;9.134369;-0.9790344;-1.3101501;-;-;-;-;-;-;-;-;-;-;-;-;-;-;-
1514099491011;-;-;9.543777;-1.0376892;-1.7734222;-;-;-;-;-;-;-;-;-;-;-;-;-;-;-
1514099491031;-;-;9.637146;-1.175354;-1.8428497;-;-;-;-;-;-;-;-;-;-;-;-;-;-;-
1514099491052;-;-;8.463989;-1.1274719;-2.2486725;-;-;-;-;-;-;-;-;-;-;-;-;-;-;-
1514099491072;-;-;7.506317;-1.1993103;-1.6273804;-;-;-;-;-;-;-;-;-;-;-;-;-;-;-
1514099491092;-;-;8.42688;-1.2986603;-1.4047089;-;-;-;-;-;-;-;-;-;-;-;-;-;-;-
1514099491112;-;-;9.210983;-1.0771942;-0.946228;-;-;-;-;-;-;-;-;-;-;-;-;-;-;-
1514099491133;-;-;9.628769;-0.87368774;-1.2694397;-;-;-;-;-;-;-;-;-;-;-;-;-;-;-
1514099491153;-;-;9.419281;-0.58639526;-1.942215;-;-;-;-;-;-;-;-;-;-;-;-;-;-;-
1514099491173;-;-;9.163101;-0.32661438;-2.2438812;-;-;-;-;-;-;-;-;-;-;-;-;-;-;-
1514099491194;-;-;8.945221;-0.05847168;-2.0164337;-;-;-;-;-;-;-;-;-;-;-;-;-;-;-
1514099491214;-;-;8.942825;0.007369995;-1.8656006;-;-;-;-;-;-;-;-;-;-;-;-;-;-;-
1514099491234;-;-;8.909317;-0.21528625;-1.9290466;-;-;-;-;-;-;-;-;-;-;-;-;-;-;-
1514099491255;-;-;8.84227;-0.49061584;-2.0116425;-;-;-;-;-;-;-;-;-;-;-;-;-;-;-
1514099491274;-;-;8.948822;-0.8270111;-1.90271;-;-;-;-;-;-;-;-;-;-;-;-;-;-;-
1514099491294;-;-;8.98114;-1.1478271;-1.5148468;-;-;-;-;-;-;-;-;-;-;-;-;-;-;-
1514099491315;-;-;8.924881;-1.2627563;-1.3999176;-;-;-;-;-;-;-;-;-;-;-;-;-;-;-
1514099491335;-;-;8.718979;-1.3058472;-1.3735962;-;-;-;-;-;-;-;-;-;-;-;-;-;-;-
1514099491355;-;-;8.657928;-1.1538086;-1.5136566;-;-;-;-;-;-;-;-;-;-;-;-;-;-;-
1514099491376;-;-;8.780029;-1.0257263;-1.5651245;-;-;-;-;-;-;-;-;-;-;-;-;-;-;-
1514099491396;-;-;8.996704;-0.91200256;-1.6273804;-;-;-;-;-;-;-;-;-;-;-;-;-;-;-
1514099491416;-;-;9.240906;-0.7587738;-1.5687103;-;-;-;-;-;-;-;-;-;-;-;-;-;-;-
1514099491437;-;-;9.436035;-0.6905365;-1.6285706;-;-;-;-;-;-;-;-;-;-;-;-;-;-;-
1514099491457;-;-;9.372589;-0.5744171;-1.7183533;-;-;-;-;-;-;-;-;-;-;-;-;-;-;-
1514099491477;-;-;9.239716;-0.7108917;-1.7602539;-;-;-;-;-;-;-;-;-;-;-;-;-;-;-
1514099491497;-;-;9.125992;-0.7671509;-1.8679962;-;-;-;-;-;-;-;-;-;-;-;-;-;-;-
1514099491518;-;-;8.990723;-0.80545044;-2.0750885;-;-;-;-;-;-;-;-;-;-;-;-;-;-;-
1514099491538;-;-;8.936844;-0.7372284;-2.4006958;-;-;-;-;-;-;-;-;-;-;-;-;-;-;-
1514099491559;-;-;9.153519;-0.48223877;-2.3145142;-;-;-;-;-;-;-;-;-;-;-;-;-;-;-
1514099491578;-;-;9.506668;-0.3936615;-1.9062958;-;-;-;-;-;-;-;-;-;-;-;-;-;-;-
1514099491598;-;-;9.23851;-0.21647644;-2.0092468;-;-;-;-;-;-;-;-;-;-;-;-;-;-;-
1514099491619;-;-;8.960785;-0.22366333;-2.1337433;-;-;-;-;-;-;-;-;-;-;-;-;-;-;-
1514099491639;-;-;8.5047;-0.25;-2.2366943;-;-;-;-;-;-;-;-;-;-;-;-;-;-;-
1514099491659;-;-;8.334702;-0.14944458;-2.115799;-;-;-;-;-;-;-;-;-;-;-;-;-;-;-
1514099491679;-;-;8.819534;-0.24760437;-1.8189087;-;-;-;-;-;-;-;-;-;-;-;-;-;-;-
1514099491700;-;-;9.036209;-0.6079407;-1.7482758;-;-;-;-;-;-;-;-;-;-;-;-;-;-;-
1514099491721;-;-;8.929672;-0.9646759;-1.7315216;-;-;-;-;-;-;-;-;-;-;-;-;-;-;-
1514099491741;-;-;8.784821;-1.2160645;-1.8057404;-;-;-;-;-;-;-;-;-;-;-;-;-;-;-
1514099491760;-;-;8.853058;-1.2843018;-1.9230652;-;-;-;-;-;-;-;-;-;-;-;-;-;-;-
1514099491781;-;-;9.09845;-1.0688171;-1.9769287;-;-;-;-;-;-;-;-;-;-;-;-;-;-;-
1514099491801;-;-;9.401321;-0.76594543;-2.0331879;-;-;-;-;-;-;-;-;-;-;-;-;-;-;-
1514099491821;-;-;9.366608;-0.4259796;-2.2798004;-;-;-;-;-;-;-;-;-;-;-;-;-;-;-
1514099491841;-;-;9.130783;-0.30387878;-2.2498627;-;-;-;-;-;-;-;-;-;-;-;-;-;-;-
1514099491862;-;-;8.927277;-0.20570374;-2.278595;-;-;-;-;-;-;-;-;-;-;-;-;-;-;-
1514099491882;-;-;8.83989;-0.24281311;-2.215149;-;-;-;-;-;-;-;-;-;-;-;-;-;-;-
1514099491902;-;-;8.7812195;-0.33499146;-2.0248108;-;-;-;-;-;-;-;-;-;-;-;-;-;-;-
1514099491923;-;-;8.787216;-0.47146606;-1.8488312;-;-;-;-;-;-;-;-;-;-;-;-;-;-;-
1514099491943;-;-;8.837494;-0.64863586;-2.0283966;-;-;-;-;-;-;-;-;-;-;-;-;-;-;-
1514099491963;-;-;8.879379;-0.6701813;-2.0547333;-;-;-;-;-;-;-;-;-;-;-;-;-;-;-
1514099491983;-;-;8.995499;-0.5935669;-2.2091675;-;-;-;-;-;-;-;-;-;-;-;-;-;-;-
1514099492004;-;-;8.972763;-0.50857544;-2.1947937;-;-;-;-;-;-;-;-;-;-;-;-;-;-;-
1514099492024;-;-;9.093674;-0.50138855;-2.199585;-;-;-;-;-;-;-;-;-;-;-;-;-;-;-
1514099492044;-;-;8.819534;-0.5504761;-2.2163544;-;-;-;-;-;-;-;-;-;-;-;-;-;-;-
1514099492065;-;-;9.075714;-0.6115265;-2.2283173;-;-;-;-;-;-;-;-;-;-;-;-;-;-;-
1514099492086;-;-;8.879379;-0.63905334;-2.0906525;-;-;-;-;-;-;-;-;-;-;-;-;-;-;-
1514099492105;-;-;8.950012;-0.68574524;-2.1672668;-;-;-;-;-;-;-;-;-;-;-;-;-;-;-
1514099492125;-;-;9.1918335;-0.61631775;-2.1169891;-;-;-;-;-;-;-;-;-;-;-;-;-;-;-
1514099492146;-;-;8.794388;-0.62709045;-2.1134033;-;-;-;-;-;-;-;-;-;-;-;-;-;-;-
1514099492166;-;-;8.912903;-0.59117126;-2.1373444;-;-;-;-;-;-;-;-;-;-;-;-;-;-;-
1514099492186;-;-;8.863831;-0.5935669;-2.187622;-;-;-;-;-;-;-;-;-;-;-;-;-;-;-
1514099492206;-;-;8.851852;-0.5564575;-2.163681;-;-;-;-;-;-;-;-;-;-;-;-;-;-;-
1514099492227;-;-;8.940445;-0.55166626;-2.1696625;-;-;-;-;-;-;-;-;-;-;-;-;-;-;-
1514099492247;-;-;8.911713;-0.5792084;-2.1540985;-;-;-;-;-;-;-;-;-;-;-;-;-;-;-
1514099492267;-;-;8.952408;-0.5648346;-2.1588898;-;-;-;-;-;-;-;-;-;-;-;-;-;-;-
1514099492288;-;-;9.005081;-0.6127167;-2.2534637;-;-;-;-;-;-;-;-;-;-;-;-;-;-;-
1514099492308;-;-;8.903336;-0.6031494;-2.2103577;-;-;-;-;-;-;-;-;-;-;-;-;-;-;-
1514099492328;-;-;8.8602295;-0.61990356;-2.187622;-;-;-;-;-;-;-;-;-;-;-;-;-;-;-
1514099492348;-;-;8.851852;-0.5935669;-2.2594452;-;-;-;-;-;-;-;-;-;-;-;-;-;-;-
1514099492369;-;-;8.862625;-0.60913086;-2.3001404;-;-;-;-;-;-;-;-;-;-;-;-;-;-;-
1514099492389;-;-;8.866211;-0.6103363;-2.1864166;-;-;-;-;-;-;-;-;-;-;-;-;-;-;-
1514099492410;-;-;8.876999;-0.6354675;-2.187622;-;-;-;-;-;-;-;-;-;-;-;-;-;-;-
1514099492430;-;-;8.881775;-0.6354675;-2.2175446;-;-;-;-;-;-;-;-;-;-;-;-;-;-;-
1514099492451;-;-;8.856644;-0.6318817;-2.1900177;-;-;-;-;-;-;-;-;-;-;-;-;-;-;-
1514099492471;-;-;8.909317;-0.56843567;-2.2486725;-;-;-;-;-;-;-;-;-;-;-;-;-;-;-
1514099492491;-;-;8.941635;-0.5648346;-2.3001404;-;-;-;-;-;-;-;-;-;-;-;-;-;-;-
1514099492511;-;-;8.896149;-0.5337219;-2.2917633;-;-;-;-;-;-;-;-;-;-;-;-;-;-;-
1514099492532;-;-;8.898544;-0.5205536;-2.2355042;-;-;-;-;-;-;-;-;-;-;-;-;-;-;-
1514099492551;-;-;8.885376;-0.52293396;-2.2498627;-;-;-;-;-;-;-;-;-;-;-;-;-;-;-
1514099492572;-;-;8.869812;-0.5241394;-2.2594452;-;-;-;-;-;-;-;-;-;-;-;-;-;-;-
1514099492592;-;-;8.876999;-0.48942566;-2.247467;-;-;-;-;-;-;-;-;-;-;-;-;-;-;-
1514099492612;-;-;8.930862;-0.4846344;-2.2331085;-;-;-;-;-;-;-;-;-;-;-;-;-;-;-
1514099492632;-;-;8.914108;-0.5097656;-2.2798004;-;-;-;-;-;-;-;-;-;-;-;-;-;-;-
1514099492652;-;-;8.928467;-0.502594;-2.263031;-;-;-;-;-;-;-;-;-;-;-;-;-;-;-
1514099492673;-;-;8.926071;-0.5313263;-2.3169098;-;-;-;-;-;-;-;-;-;-;-;-;-;-;-
1514099492693;-;-;8.922485;-0.49061584;-2.3324738;-;-;-;-;-;-;-;-;-;-;-;-;-;-;-
1514099492713;-;-;8.897339;-0.4738617;-2.3228912;-;-;-;-;-;-;-;-;-;-;-;-;-;-;-
1514099492733;-;-;8.908112;-0.48582458;-2.2893677;-;-;-;-;-;-;-;-;-;-;-;-;-;-;-
1514099492753;-;-;8.885376;-0.50738525;-2.2774048;-;-;-;-;-;-;-;-;-;-;-;-;-;-;-
1514099492774;-;-;8.897339;-0.45231628;-2.2774048;-;-;-;-;-;-;-;-;-;-;-;-;-;-;-
1514099492794;-;-;8.936844;-0.48223877;-2.2977448;-;-;-;-;-;-;-;-;-;-;-;-;-;-;-
1514099492814;-;-;8.950012;-0.5241394;-2.2438812;-;-;-;-;-;-;-;-;-;-;-;-;-;-;-
1514099492835;-;-;8.917694;-0.49061584;-2.231903;-;-;-;-;-;-;-;-;-;-;-;-;-;-;-
1514099492855;-;-;8.8997345;-0.52653503;-2.2857819;-;-;-;-;-;-;-;-;-;-;-;-;-;-;-
1514099492875;-;-;8.898544;-0.4846344;-2.306137;-;-;-;-;-;-;-;-;-;-;-;-;-;-;-
1514099492896;-;-;8.879379;-0.49301147;-2.3228912;-;-;-;-;-;-;-;-;-;-;-;-;-;-;-
1514099492916;-;-;8.916504;-0.46548462;-2.2905731;-;-;-;-;-;-;-;-;-;-;-;-;-;-;-
1514099492936;-;-;8.948822;-0.4774475;-2.3743591;-;-;-;-;-;-;-;-;-;-;-;-;-;-;-
1514099492957;-;-;8.910507;-0.55166626;-2.2774048;-;-;-;-;-;-;-;-;-;-;-;-;-;-;-
1514099492977;-;-;8.927277;-0.5780029;-2.270218;-;-;-;-;-;-;-;-;-;-;-;-;-;-;-
1514099492997;-;-;8.952408;-0.56604004;-2.2738037;-;-;-;-;-;-;-;-;-;-;-;-;-;-;-
1514099493018;-;-;8.98233;-0.5744171;-2.230713;-;-;-;-;-;-;-;-;-;-;-;-;-;-;-
1514099493038;-;-;8.954803;-0.62350464;-2.1983948;-;-;-;-;-;-;-;-;-;-;-;-;-;-;-
1514099493058;-;-;8.953613;-0.6917267;-2.2438812;-;-;-;-;-;-;-;-;-;-;-;-;-;-;-
1514099493078;-;-;8.908112;-0.7096863;-2.247467;-;-;-;-;-;-;-;-;-;-;-;-;-;-;-
1514099493098;-;-;8.894943;-0.641449;-2.207962;-;-;-;-;-;-;-;-;-;-;-;-;-;-;-
1514099493119;-;-;8.891357;-0.61990356;-2.282196;-;-;-;-;-;-;-;-;-;-;-;-;-;-;-
1514099493139;-;-;8.911713;-0.5744171;-2.2989502;-;-;-;-;-;-;-;-;-;-;-;-;-;-;-
1514099493159;-;-;8.888962;-0.6103363;-2.231903;-;-;-;-;-;-;-;-;-;-;-;-;-;-;-
1514099493180;-;-;8.910507;-0.6139221;-2.2067719;-;-;-;-;-;-;-;-;-;-;-;-;-;-;-
1514099493200;-;-;8.878189;-0.621109;-2.2355042;-;-;-;-;-;-;-;-;-;-;-;-;-;-;-
1514099493220;-;-;8.886566;-0.6701813;-2.2091675;-;-;-;-;-;-;-;-;-;-;-;-;-;-;-
1514099493240;-;-;8.908112;-0.6522217;-2.263031;-;-;-;-;-;-;-;-;-;-;-;-;-;-;-
1514099493260;-;-;8.876999;-0.6713867;-2.2750092;-;-;-;-;-;-;-;-;-;-;-;-;-;-;-
1514099493280;-;-;8.850662;-0.63786316;-2.263031;-;-;-;-;-;-;-;-;-;-;-;-;-;-;-
1514099493301;-;-;8.859039;-0.6546173;-2.227127;-;-;-;-;-;-;-;-;-;-;-;-;-;-;-
1514099493321;-;-;8.890167;-0.64863586;-2.207962;-;-;-;-;-;-;-;-;-;-;-;-;-;-;-
1514099493341;-;-;8.952408;-0.67855835;-2.1971893;-;-;-;-;-;-;-;-;-;-;-;-;-;-;-
1514099493361;-;-;8.928467;-0.67497253;-2.172058;-;-;-;-;-;-;-;-;-;-;-;-;-;-;-
1514099493382;-;-;8.911713;-0.66300964;-2.1708527;-;-;-;-;-;-;-;-;-;-;-;-;-;-;-
1514099493402;-;-;8.886566;-0.6618042;-2.1588898;-;-;-;-;-;-;-;-;-;-;-;-;-;-;-
1514099493422;-;-;8.863831;-0.7096863;-2.1672668;-;-;-;-;-;-;-;-;-;-;-;-;-;-;-
1514099493443;-;-;8.849457;-0.67497253;-2.1265717;-;-;-;-;-;-;-;-;-;-;-;-;-;-;-
1514099493462;-;-;8.872208;-0.6821594;-2.1169891;-;-;-;-;-;-;-;-;-;-;-;-;-;-;-
1514099493482;-;-;8.933258;-0.60194397;-2.0954437;-;-;-;-;-;-;-;-;-;-;-;-;-;-;-
1514099493503;-;-;8.972763;-0.63067627;-2.128952;-;-;-;-;-;-;-;-;-;-;-;-;-;-;-
1514099493522;-;-;9.064941;-0.61750793;-2.124176;-;-;-;-;-;-;-;-;-;-;-;-;-;-;-
1514099493542;-;-;9.084091;-0.6115265;-2.1373444;-;-;-;-;-;-;-;-;-;-;-;-;-;-;-
1514099493563;-;-;9.045776;-0.6151123;-2.2223358;-;-;-;-;-;-;-;-;-;-;-;-;-;-;-
1514099493583;-;-;8.987122;-0.60913086;-2.175644;-;-;-;-;-;-;-;-;-;-;-;-;-;-;-
1514099493603;-;-;8.946426;-0.56843567;-2.2139587;-;-;-;-;-;-;-;-;-;-;-;-;-;-;-
1514099493623;-;-;8.964386;-0.5851898;-2.1732483;-;-;-;-;-;-;-;-;-;-;-;-;-;-;-
1514099493643;-;-;8.904526;-0.6222992;-2.1373444;-;-;-;-;-;-;-;-;-;-;-;-;-;-;-
1514099493663;-;-;8.908112;-0.60194397;-2.0858612;-;-;-;-;-;-;-;-;-;-;-;-;-;-;-
1514099493684;-;-;8.905716;-0.6869507;-2.1253662;-;-;-;-;-;-;-;-;-;-;-;-;-;-;-
1514099493704;-;-;8.944031;-0.67497253;-2.096634;-;-;-;-;-;-;-;-;-;-;-;-;-;-;-
1514099493724;-;-;8.92009;-0.6821594;-2.1110077;-;-;-;-;-;-;-;-;-;-;-;-;-;-;-
1514099493745;-;-;8.891357;-0.7096863;-2.1026306;-;-;-;-;-;-;-;-;-;-;-;-;-;-;-
1514099493765;-;-;8.8997345;-0.6761627;-2.1301575;-;-;-;-;-;-;-;-;-;-;-;-;-;-;-
1514099493785;-;-;8.885376;-0.7013092;-2.1385345;-;-;-;-;-;-;-;-;-;-;-;-;-;-;-
1514099493805;-;-;8.885376;-0.6797638;-2.1181793;-;-;-;-;-;-;-;-;-;-;-;-;-;-;-
1514099493826;-;-;8.874603;-0.70370483;-2.076294;-;-;-;-;-;-;-;-;-;-;-;-;-;-;-
1514099493846;-;-;8.878189;-0.6522217;-2.0702972;-;-;-;-;-;-;-;-;-;-;-;-;-;-;-
1514099493866;-;-;8.957199;-0.62350464;-2.1098022;-;-;-;-;-;-;-;-;-;-;-;-;-;-;-
1514099493887;-;-;9.024231;-0.5780029;-2.1134033;-;-;-;-;-;-;-;-;-;-;-;-;-;-;-
1514099493907;-;-;9.051773;-0.6246948;-2.179245;-;-;-;-;-;-;-;-;-;-;-;-;-;-;-
1514099493929;-;-;9.012268;-0.60913086;-2.1457214;-;-;-;-;-;-;-;-;-;-;-;-;-;-;-
1514099493949;-;-;8.976349;-0.6402588;-2.1062164;-;-;-;-;-;-;-;-;-;-;-;-;-;-;-
1514099493968;-;-;8.942825;-0.6438446;-2.0942383;-;-;-;-;-;-;-;-;-;-;-;-;-;-;-
1514099493988;-;-;8.934448;-0.6354675;-2.128952;-;-;-;-;-;-;-;-;-;-;-;-;-;-;-
1514099494008;-;-;8.891357;-0.62350464;-2.100235;-;-;-;-;-;-;-;-;-;-;-;-;-;-;-
1514099494029;-;-;8.92009;-0.64505005;-2.0942383;-;-;-;-;-;-;-;-;-;-;-;-;-;-;-
1514099494049;-;-;8.874603;-0.6701813;-2.1181793;-;-;-;-;-;-;-;-;-;-;-;-;-;-;-
1514099494069;-;-;8.897339;-0.6905365;-2.0882568;-;-;-;-;-;-;-;-;-;-;-;-;-;-;-
1514099494089;-;-;8.896149;-0.704895;-2.0583344;-;-;-;-;-;-;-;-;-;-;-;-;-;-;-
1514099494109;-;-;8.914108;-0.680954;-2.0475616;-;-;-;-;-;-;-;-;-;-;-;-;-;-;-
1514099494129;-;-;8.908112;-0.61631775;-2.0738983;-;-;-;-;-;-;-;-;-;-;-;-;-;-;-
1514099494150;-;-;8.927277;-0.59954834;-2.120575;-;-;-;-;-;-;-;-;-;-;-;-;-;-;-
1514099494170;-;-;8.963181;-0.621109;-2.144516;-;-;-;-;-;-;-;-;-;-;-;-;-;-;-
1514099494190;-;-;8.896149;-0.6510315;-2.0391846;-;-;-;-;-;-;-;-;-;-;-;-;-;-;-
1514099494210;-;-;8.875793;-0.6641998;-2.012848;-;-;-;-;-;-;-;-;-;-;-;-;-;-;-
1514099494230;-;-;8.912903;-0.6641998;-2.0379791;-;-;-;-;-;-;-;-;-;-;-;-;-;-;-
1514099494250;-;-;8.940445;-0.63427734;-2.0870667;-;-;-;-;-;-;-;-;-;-;-;-;-;-;-
1514099494271;-;-;8.946426;-0.6330719;-2.1217804;-;-;-;-;-;-;-;-;-;-;-;-;-;-;-
1514099494291;-;-;8.942825;-0.56243896;-2.1193848;-;-;-;-;-;-;-;-;-;-;-;-;-;-;-
1514099494312;-;-;8.9392395;-0.5899811;-2.0834656;-;-;-;-;-;-;-;-;-;-;-;-;-;-;-
1514099494331;-;-;8.950012;-0.6115265;-2.0702972;-;-;-;-;-;-;-;-;-;-;-;-;-;-;-
1514099494352;-;-;8.983536;-0.64505005;-2.069107;-;-;-;-;-;-;-;-;-;-;-;-;-;-;-
1514099494372;-;-;8.97995;-0.65582275;-2.036789;-;-;-;-;-;-;-;-;-;-;-;-;-;-;-
1514099494392;-;-;9.007477;-0.63905334;-2.0798798;-;-;-;-;-;-;-;-;-;-;-;-;-;-;-
1514099494413;-;-;8.987122;-0.6354675;-2.096634;-;-;-;-;-;-;-;-;-;-;-;-;-;-;-
1514099494432;-;-;8.964386;-0.6498413;-2.076294;-;-;-;-;-;-;-;-;-;-;-;-;-;-;-
1514099494452;-;-;8.90094;-0.5899811;-2.1349487;-;-;-;-;-;-;-;-;-;-;-;-;-;-;-
1514099494472;-;-;8.915298;-0.6246948;-2.0750885;-;-;-;-;-;-;-;-;-;-;-;-;-;-;-
1514099494493;-;-;8.898544;-0.6043396;-2.0391846;-;-;-;-;-;-;-;-;-;-;-;-;-;-;-
1514099494513;-;-;8.929672;-0.59716797;-2.0391846;-;-;-;-;-;-;-;-;-;-;-;-;-;-;-
1514099494533;-;-;8.955994;-0.58639526;-2.108612;-;-;-;-;-;-;-;-;-;-;-;-;-;-;-
1514099494553;-;-;8.97995;-0.55166626;-2.1217804;-;-;-;-;-;-;-;-;-;-;-;-;-;-;-
1514099494574;-;-;8.976349;-0.54089355;-2.163681;-;-;-;-;-;-;-;-;-;-;-;-;-;-;-
1514099494594;-;-;8.989517;-0.5600586;-2.1552887;-;-;-;-;-;-;-;-;-;-;-;-;-;-;-
1514099494614;-;-;8.934448;-0.5600586;-2.1433258;-;-;-;-;-;-;-;-;-;-;-;-;-;-;-
1514099494634;-;-;8.92009;-0.56604004;-2.179245;-;-;-;-;-;-;-;-;-;-;-;-;-;-;-
1514099494654;-;-;8.923676;-0.56243896;-2.1110077;-;-;-;-;-;-;-;-;-;-;-;-;-;-;-
1514099494674;-;-;8.924881;-0.5935669;-2.0906525;-;-;-;-;-;-;-;-;-;-;-;-;-;-;-
1514099494695;-;-;8.924881;-0.6151123;-2.1145935;-;-;-;-;-;-;-;-;-;-;-;-;-;-;-
1514099494715;-;-;8.8997345;-0.5827942;-2.1576843;-;-;-;-;-;-;-;-;-;-;-;-;-;-;-
1514099494735;-;-;8.904526;-0.6127167;-2.1469116;-;-;-;-;-;-;-;-;-;-;-;-;-;-;-
1514099494755;-;-;8.947617;-0.5756073;-2.1433258;-;-;-;-;-;-;-;-;-;-;-;-;-;-;-
1514099494776;-;-;8.8997345;-0.5672302;-2.1852264;-;-;-;-;-;-;-;-;-;-;-;-;-;-;-
1514099494797;-;-;8.926071;-0.57681274;-2.1828308;-;-;-;-;-;-;-;-;-;-;-;-;-;-;-
1514099494817;-;-;8.910507;-0.58039856;-2.172058;-;-;-;-;-;-;-;-;-;-;-;-;-;-;-
1514099494837;-;-;8.965576;-0.61750793;-2.1421204;-;-;-;-;-;-;-;-;-;-;-;-;-;-;-
1514099494858;-;-;8.916504;-0.63067627;-2.16008;-;-;-;-;-;-;-;-;-;-;-;-;-;-;-
1514099494877;-;-;8.888962;-0.61750793;-2.1349487;-;-;-;-;-;-;-;-;-;-;-;-;-;-;-
1514099494897;-;-;8.859039;-0.6246948;-2.1852264;-;-;-;-;-;-;-;-;-;-;-;-;-;-;-
1514099494917;-;-;8.880585;-0.5444946;-2.179245;-;-;-;-;-;-;-;-;-;-;-;-;-;-;-
1514099494938;-;-;8.853058;-0.5205536;-2.2211304;-;-;-;-;-;-;-;-;-;-;-;-;-;-;-
1514099494958;-;-;8.888962;-0.5349121;-2.1924133;-;-;-;-;-;-;-;-;-;-;-;-;-;-;-
1514099494978;-;-;8.934448;-0.52893066;-2.1900177;-;-;-;-;-;-;-;-;-;-;-;-;-;-;-
1514099494998;-;-;8.897339;-0.5313263;-2.151703;-;-;-;-;-;-;-;-;-;-;-;-;-;-;-
1514099495019;-;-;8.885376;-0.5253296;-2.128952;-;-;-;-;-;-;-;-;-;-;-;-;-;-;-
1514099495039;-;-;8.911713;-0.51934814;-2.175644;-;-;-;-;-;-;-;-;-;-;-;-;-;-;-
1514099495059;-;-;8.930862;-0.5792084;-2.151703;-;-;-;-;-;-;-;-;-;-;-;-;-;-;-
1514099495080;-;-;8.917694;-0.58758545;-2.13974;-;-;-;-;-;-;-;-;-;-;-;-;-;-;-
1514099495100;-;-;8.963181;-0.52293396;-2.2175446;-;-;-;-;-;-;-;-;-;-;-;-;-;-;-
1514099495120;-;-;8.92128;-0.5277252;-2.191208;-;-;-;-;-;-;-;-;-;-;-;-;-;-;-
1514099495141;-;-;8.869812;-0.49899292;-2.1936035;-;-;-;-;-;-;-;-;-;-;-;-;-;-;-
1514099495161;-;-;8.845871;-0.47505188;-2.1624756;-;-;-;-;-;-;-;-;-;-;-;-;-;-;-
1514099495181;-;-;8.922485;-0.44631958;-2.2127533;-;-;-;-;-;-;-;-;-;-;-;-;-;-;-
1514099495202;-;-;8.954803;-0.51216125;-2.1983948;-;-;-;-;-;-;-;-;-;-;-;-;-;-;-
1514099495221;-;-;8.944031;-0.54689026;-2.227127;-;-;-;-;-;-;-;-;-;-;-;-;-;-;-
1514099495241;-;-;8.928467;-0.52293396;-2.2187347;-;-;-;-;-;-;-;-;-;-;-;-;-;-;-
1514099495261;-;-;8.876999;-0.61990356;-2.13974;-;-;-;-;-;-;-;-;-;-;-;-;-;-;-
1514099495281;-;-;8.808762;-0.68574524;-2.0643158;-;-;-;-;-;-;-;-;-;-;-;-;-;-;-
1514099495302;-;-;8.786011;-0.73602295;-1.9745331;-;-;-;-;-;-;-;-;-;-;-;-;-;-;-
1514099495322;-;-;8.965576;-0.58877563;-2.1493073;-;-;-;-;-;-;-;-;-;-;-;-;-;-;-
1514099495342;-;-;9.25647;-0.4954071;-2.2726135;-;-;-;-;-;-;-;-;-;-;-;-;-;-;-
1514099495363;-;-;9.212173;-0.59117126;-2.3193054;-;-;-;-;-;-;-;-;-;-;-;-;-;-;-
1514099495383;-;-;9.026627;-0.8198242;-2.1181793;-;-;-;-;-;-;-;-;-;-;-;-;-;-;-
1514099495404;-;-;8.905716;-1.0005798;-2.1433258;-;-;-;-;-;-;-;-;-;-;-;-;-;-;-
1514099495424;-;-;8.994308;-1.0352936;-2.3707733;-;-;-;-;-;-;-;-;-;-;-;-;-;-;-
1514099495444;-;-;9.069733;-0.9251709;-2.527588;-;-;-;-;-;-;-;-;-;-;-;-;-;-;-
1514099495464;-;-;9.123596;-0.61990356;-2.5383606;-;-;-;-;-;-;-;-;-;-;-;-;-;-;-
1514099495485;-;-;8.984726;-0.3936615;-2.3516235;-;-;-;-;-;-;-;-;-;-;-;-;-;-;-
1514099495505;-;-;8.72496;-0.2859192;-2.2450714;-;-;-;-;-;-;-;-;-;-;-;-;-;-;-
1514099495525;-;-;8.569336;-0.3397827;-2.1277618;-;-;-;-;-;-;-;-;-;-;-;-;-;-;-
1514099495546;-;-;8.633987;-0.51097107;-2.1145935;-;-;-;-;-;-;-;-;-;-;-;-;-;-;-
1514099495566;-;-;8.714188;-0.77194214;-2.1074066;-;-;-;-;-;-;-;-;-;-;-;-;-;-;-
1514099495586;-;-;8.833893;-0.98861694;-2.2283173;-;-;-;-;-;-;-;-;-;-;-;-;-;-;-
1514099495607;-;-;8.892548;-0.9874115;-2.306137;-;-;-;-;-;-;-;-;-;-;-;-;-;-;-
1514099495627;-;-;8.98114;-0.8892517;-2.3216858;-;-;-;-;-;-;-;-;-;-;-;-;-;-;-
1514099495647;-;-;8.957199;-0.86172485;-2.302536;-;-;-;-;-;-;-;-;-;-;-;-;-;-;-
1514099495667;-;-;8.908112;-0.85572815;-2.4509735;-;-;-;-;-;-;-;-;-;-;-;-;-;-;-
1514099495688;-;-;8.908112;-0.8988342;-2.5970306;-;-;-;-;-;-;-;-;-;-;-;-;-;-;-
1514099495708;-;-;8.932053;-0.783905;-2.4952698;-;-;-;-;-;-;-;-;-;-;-;-;-;-;-
1514099495728;-;-;9.023041;-0.6007538;-2.3001404;-;-;-;-;-;-;-;-;-;-;-;-;-;-;-
1514099495749;-;-;9.003891;-0.47625732;-2.230713;-;-;-;-;-;-;-;-;-;-;-;-;-;-;-
1514099495768;-;-;8.98233;-0.46188354;-2.3240814;-;-;-;-;-;-;-;-;-;-;-;-;-;-;-
1514099495788;-;-;9.0182495;-0.3864746;-2.3348541;-;-;-;-;-;-;-;-;-;-;-;-;-;-;-
1514099495808;-;-;8.879379;-0.25239563;-2.0032654;-;-;-;-;-;-;-;-;-;-;-;-;-;-;-
1514099495829;-;-;8.872208;-0.38287354;-1.9733429;-;-;-;-;-;-;-;-;-;-;-;-;-;-;-
1514099495848;-;-;9.009872;-0.67497253;-2.2989502;-;-;-;-;-;-;-;-;-;-;-;-;-;-;-
1514099495868;-;-;9.1128235;-0.878479;-2.39711;-;-;-;-;-;-;-;-;-;-;-;-;-;-;-
1514099495889;-;-;9.056564;-0.9622803;-2.254654;-;-;-;-;-;-;-;-;-;-;-;-;-;-;-
1514099495909;-;-;8.941635;-0.8688965;-2.2498627;-;-;-;-;-;-;-;-;-;-;-;-;-;-;-
1514099495929;-;-;8.807556;-0.68933105;-2.2091675;-;-;-;-;-;-;-;-;-;-;-;-;-;-;-
1514099495950;-;-;8.675873;-0.4846344;-2.2223358;-;-;-;-;-;-;-;-;-;-;-;-;-;-;-
1514099495969;-;-;8.517868;-0.24520874;-2.3480225;-;-;-;-;-;-;-;-;-;-;-;-;-;-;-
1514099495989;-;-;8.522644;-0.066848755;-2.3923187;-;-;-;-;-;-;-;-;-;-;-;-;-;-;-
1514099496009;-;-;8.656723;0.055252075;-2.3588104;-;-;-;-;-;-;-;-;-;-;-;-;-;-;-
1514099496029;-;-;8.774048;0.088775635;-2.468933;-;-;-;-;-;-;-;-;-;-;-;-;-;-;-
1514099496049;-;-;8.712982;0.06602478;-2.4868927;-;-;-;-;-;-;-;-;-;-;-;-;-;-;-
1514099496070;-;-;8.6818695;-0.1302948;-2.4174652;-;-;-;-;-;-;-;-;-;-;-;-;-;-;-
1514099496090;-;-;8.616028;-0.28352356;-2.4150696;-;-;-;-;-;-;-;-;-;-;-;-;-;-;-
1514099496110;-;-;8.734543;-0.22007751;-2.4390106;-;-;-;-;-;-;-;-;-;-;-;-;-;-;-
1514099496130;-;-;8.608841;-0.14225769;-2.3049316;-;-;-;-;-;-;-;-;-;-;-;-;-;-;-
1514099496151;-;-;8.48793;-0.121917725;-2.1229706;-;-;-;-;-;-;-;-;-;-;-;-;-;-;-
1514099496171;-;-;8.30957;-0.22366333;-1.8643951;-;-;-;-;-;-;-;-;-;-;-;-;-;-;-
1514099496191;-;-;8.492722;-0.29548645;-1.6441345;-;-;-;-;-;-;-;-;-;-;-;-;-;-;-
1514099496212;-;-;9.239716;-0.51216125;-1.7003937;-;-;-;-;-;-;-;-;-;-;-;-;-;-;-
1514099496232;-;-;9.742493;-0.7228546;-1.9912872;-;-;-;-;-;-;-;-;-;-;-;-;-;-;-
1514099496252;-;-;9.9783325;-0.67497253;-2.0786743;-;-;-;-;-;-;-;-;-;-;-;-;-;-;-
1514099496273;-;-;9.990295;-0.37330627;-2.1074066;-;-;-;-;-;-;-;-;-;-;-;-;-;-;-
1514099496293;-;-;9.778412;0.08039856;-1.9805145;-;-;-;-;-;-;-;-;-;-;-;-;-;-;-
1514099496313;-;-;9.476746;0.42037964;-2.0200195;-;-;-;-;-;-;-;-;-;-;-;-;-;-;-
1514099496334;-;-;9.0577545;0.6131134;-1.9637604;-;-;-;-;-;-;-;-;-;-;-;-;-;-;-
1514099496354;-;-;8.910507;0.5736084;-2.0236206;-;-;-;-;-;-;-;-;-;-;-;-;-;-;-
1514099496374;-;-;8.693832;0.1438446;-1.9230652;-;-;-;-;-;-;-;-;-;-;-;-;-;-;-
1514099496394;-;-;8.720169;-0.18296814;-1.9314423;-;-;-;-;-;-;-;-;-;-;-;-;-;-;-
1514099496414;-;-;8.686661;-0.26197815;-1.8859406;-;-;-;-;-;-;-;-;-;-;-;-;-;-;-
1514099496435;-;-;8.898544;-0.08720398;-1.7075806;-;-;-;-;-;-;-;-;-;-;-;-;-;-;-
1514099496455;-;-;8.947617;0.2743225;-1.74469;-;-;-;-;-;-;-;-;-;-;-;-;-;-;-
1514099496475;-;-;8.831497;0.33059692;-1.6321564;-;-;-;-;-;-;-;-;-;-;-;-;-;-;-
1514099496495;-;-;8.74411;0.22883606;-1.4621735;-;-;-;-;-;-;-;-;-;-;-;-;-;-;-
1514099496515;-;-;8.862625;0.11392212;-1.3819733;-;-;-;-;-;-;-;-;-;-;-;-;-;-;-
1514099496535;-;-;9.035004;0.12948608;-1.5411835;-;-;-;-;-;-;-;-;-;-;-;-;-;-;-
1514099496555;-;-;9.214569;0.1618042;-1.650116;-;-;-;-;-;-;-;-;-;-;-;-;-;-;-
1514099496576;-;-;9.2708435;0.0181427;-1.8260956;-;-;-;-;-;-;-;-;-;-;-;-;-;-;-
1514099496596;-;-;9.195419;-0.08958435;-1.911087;-;-;-;-;-;-;-;-;-;-;-;-;-;-;-
1514099496616;-;-;9.025436;-0.071640015;-1.9098969;-;-;-;-;-;-;-;-;-;-;-;-;-;-;-
1514099496637;-;-;8.811157;-0.085998535;-1.8500366;-;-;-;-;-;-;-;-;-;-;-;-;-;-;-
1514099496657;-;-;8.684265;-0.09677124;-1.729126;-;-;-;-;-;-;-;-;-;-;-;-;-;-;-
1514099496677;-;-;8.76207;-0.1769867;-1.6860352;-;-;-;-;-;-;-;-;-;-;-;-;-;-;-
1514099496698;-;-;8.90213;-0.23803711;-1.6525116;-;-;-;-;-;-;-;-;-;-;-;-;-;-;-
1514099496717;-;-;9.121201;-0.07522583;-1.9769287;-;-;-;-;-;-;-;-;-;-;-;-;-;-;-
1514099496737;-;-;9.301956;0.33537292;-2.3623962;-;-;-;-;-;-;-;-;-;-;-;-;-;-;-
1514099496758;-;-;9.439636;0.6322632;-2.4988708;-;-;-;-;-;-;-;-;-;-;-;-;-;-;-
1514099496778;-;-;9.462372;0.7005005;-2.665268;-;-;-;-;-;-;-;-;-;-;-;-;-;-;-
1514099496798;-;-;9.0182495;0.54248047;-2.5934296;-;-;-;-;-;-;-;-;-;-;-;-;-;-;-
1514099496818;-;-;8.365829;0.2743225;-2.310913;-;-;-;-;-;-;-;-;-;-;-;-;-;-;-
1514099496839;-;-;8.041412;-0.04888916;-1.8069458;-;-;-;-;-;-;-;-;-;-;-;-;-;-;-
1514099496859;-;-;8.229355;-0.47265625;-1.4573822;-;-;-;-;-;-;-;-;-;-;-;-;-;-;-
1514099496878;-;-;8.7213745;-0.78990173;-1.3712006;-;-;-;-;-;-;-;-;-;-;-;-;-;-;-
1514099496898;-;-;9.209793;-0.86291504;-1.4933014;-;-;-;-;-;-;-;-;-;-;-;-;-;-;-
1514099496919;-;-;9.327103;-0.6139221;-1.571106;-;-;-;-;-;-;-;-;-;-;-;-;-;-;-
1514099496938;-;-;9.272034;-0.24162292;-1.5663147;-;-;-;-;-;-;-;-;-;-;-;-;-;-;-
1514099496958;-;-;9.124786;0.119903564;-1.689621;-;-;-;-;-;-;-;-;-;-;-;-;-;-;-
1514099496979;-;-;9.12001;0.37249756;-1.9230652;-;-;-;-;-;-;-;-;-;-;-;-;-;-;-
1514099496998;-;-;9.142746;0.44311523;-2.1529083;-;-;-;-;-;-;-;-;-;-;-;-;-;-;-
1514099497018;-;-;9.155914;0.34735107;-2.172058;-;-;-;-;-;-;-;-;-;-;-;-;-;-;-
1514099497039;-;-;9.172684;0.14743042;-2.1457214;-;-;-;-;-;-;-;-;-;-;-;-;-;-;-
1514099497059;-;-;9.050568;-0.045303345;-2.0475616;-;-;-;-;-;-;-;-;-;-;-;-;-;-;-
1514099497079;-;-;8.885376;-0.19613647;-1.8177185;-;-;-;-;-;-;-;-;-;-;-;-;-;-;-
1514099497099;-;-;8.76207;-0.28471375;-1.6357574;-;-;-;-;-;-;-;-;-;-;-;-;-;-;-
1514099497120;-;-;8.815933;-0.29429626;-1.5962524;-;-;-;-;-;-;-;-;-;-;-;-;-;-;-
1514099497140;-;-;8.903336;-0.24880981;-1.6453247;-;-;-;-;-;-;-;-;-;-;-;-;-;-;-
1514099497160;-;-;9.096069;-0.20690918;-1.7470856;-;-;-;-;-;-;-;-;-;-;-;-;-;-;-
1514099497180;-;-;9.146347;-0.074035645;-1.8751678;-;-;-;-;-;-;-;-;-;-;-;-;-;-;-
1514099497201;-;-;9.12001;0.124694824;-1.9541779;-;-;-;-;-;-;-;-;-;-;-;-;-;-;-
1514099497221;-;-;9.011063;0.30784607;-2.0547333;-;-;-;-;-;-;-;-;-;-;-;-;-;-;-
1514099497241;-;-;8.933258;0.34016418;-2.0319977;-;-;-;-;-;-;-;-;-;-;-;-;-;-;-
1514099497261;-;-;8.894943;0.2743225;-1.9972839;-;-;-;-;-;-;-;-;-;-;-;-;-;-;-
1514099497282;-;-;8.874603;0.2240448;-1.8967285;-;-;-;-;-;-;-;-;-;-;-;-;-;-;-
1514099497302;-;-;8.869812;0.13905334;-1.8213043;-;-;-;-;-;-;-;-;-;-;-;-;-;-;-
1514099497322;-;-;8.884171;0.15461731;-1.7422943;-;-;-;-;-;-;-;-;-;-;-;-;-;-;-
1514099497342;-;-;8.933258;0.14982605;-1.7590485;-;-;-;-;-;-;-;-;-;-;-;-;-;-;-
1514099497363;-;-;8.985931;0.1797638;-1.8284912;-;-;-;-;-;-;-;-;-;-;-;-;-;-;-
1514099497382;-;-;8.941635;0.17616272;-1.8440552;-;-;-;-;-;-;-;-;-;-;-;-;-;-;-
1514099497403;-;-;8.967972;0.2132721;-1.8057404;-;-;-;-;-;-;-;-;-;-;-;-;-;-;-
1514099497423;-;-;8.975159;0.20010376;-1.8368683;-;-;-;-;-;-;-;-;-;-;-;-;-;-;-
1514099497443;-;-;9.008667;0.20370483;-1.8979187;-;-;-;-;-;-;-;-;-;-;-;-;-;-;-
1514099497464;-;-;8.989517;0.23960876;-1.9326324;-;-;-;-;-;-;-;-;-;-;-;-;-;-;-
1514099497483;-;-;9.063736;0.24440002;-1.9374237;-;-;-;-;-;-;-;-;-;-;-;-;-;-;-
1514099497503;-;-;8.971558;0.21087646;-1.9374237;-;-;-;-;-;-;-;-;-;-;-;-;-;-;-
1514099497523;-;-;8.880585;0.22285461;-1.8596191;-;-;-;-;-;-;-;-;-;-;-;-;-;-;-
1514099497544;-;-;8.807556;0.21566772;-1.9062958;-;-;-;-;-;-;-;-;-;-;-;-;-;-;-
1514099497564;-;-;8.758484;0.18933105;-1.8943329;-;-;-;-;-;-;-;-;-;-;-;-;-;-;-
1514099497584;-;-;8.7764435;0.1953125;-1.8548279;-;-;-;-;-;-;-;-;-;-;-;-;-;-;-
1514099497604;-;-;8.875793;0.18574524;-1.7506714;-;-;-;-;-;-;-;-;-;-;-;-;-;-;-
1514099497625;-;-;9.056564;0.24320984;-1.887146;-;-;-;-;-;-;-;-;-;-;-;-;-;-;-
1514099497645;-;-;9.106842;0.29467773;-1.9410095;-;-;-;-;-;-;-;-;-;-;-;-;-;-;-
1514099497665;-;-;8.994308;0.29707336;-1.9098969;-;-;-;-;-;-;-;-;-;-;-;-;-;-;-
1514099497685;-;-;9.023041;0.23242188;-1.8619995;-;-;-;-;-;-;-;-;-;-;-;-;-;-;-
1514099497706;-;-;9.080505;0.20249939;-1.9829102;-;-;-;-;-;-;-;-;-;-;-;-;-;-;-
1514099497726;-;-;9.041;0.17376709;-2.0355835;-;-;-;-;-;-;-;-;-;-;-;-;-;-;-
1514099497746;-;-;8.960785;0.1618042;-2.0715027;-;-;-;-;-;-;-;-;-;-;-;-;-;-;-
1514099497767;-;-;8.936844;0.11869812;-1.9960785;-;-;-;-;-;-;-;-;-;-;-;-;-;-;-
1514099497786;-;-;8.98114;0.079193115;-1.9338379;-;-;-;-;-;-;-;-;-;-;-;-;-;-;-
1514099497806;-;-;8.975159;0.24798584;-1.9350281;-;-;-;-;-;-;-;-;-;-;-;-;-;-;-
1514099497827;-;-;8.976349;0.34854126;-1.9529877;-;-;-;-;-;-;-;-;-;-;-;-;-;-;-
1514099497847;-;-;8.954803;0.42755127;-1.9601746;-;-;-;-;-;-;-;-;-;-;-;-;-;-;-
1514099497867;-;-;8.90094;0.36410522;-1.9386139;-;-;-;-;-;-;-;-;-;-;-;-;-;-;-
1514099497887;-;-;8.90094;0.23242188;-1.9769287;-;-;-;-;-;-;-;-;-;-;-;-;-;-;-
1514099497908;-;-;8.90213;0.16419983;-1.9996796;-;-;-;-;-;-;-;-;-;-;-;-;-;-;-
1514099497928;-;-;8.868607;0.11392212;-2.0188293;-;-;-;-;-;-;-;-;-;-;-;-;-;-;-
1514099497948;-;-;8.886566;0.088775635;-2.021225;-;-;-;-;-;-;-;-;-;-;-;-;-;-;-
1514099497969;-;-;8.955994;0.088775635;-1.9601746;-;-;-;-;-;-;-;-;-;-;-;-;-;-;-
1514099497988;-;-;8.993118;0.062438965;-1.9098969;-;-;-;-;-;-;-;-;-;-;-;-;-;-;-
1514099498008;-;-;9.011063;0.02293396;-1.8667908;-;-;-;-;-;-;-;-;-;-;-;-;-;-;-
1514099498028;-;-;9.087677;-0.07522583;-1.966156;-;-;-;-;-;-;-;-;-;-;-;-;-;-;-
1514099498048;-;-;9.115219;-0.13269043;-2.0355835;-;-;-;-;-;-;-;-;-;-;-;-;-;-;-
1514099498069;-;-;9.135559;-0.085998535;-2.0906525;-;-;-;-;-;-;-;-;-;-;-;-;-;-;-
1514099498089;-;-;9.020645;-0.09916687;-2.096634;-;-;-;-;-;-;-;-;-;-;-;-;-;-;-
1514099498109;-;-;8.945221;-0.15423584;-2.0702972;-;-;-;-;-;-;-;-;-;-;-;-;-;-;-
1514099498130;-;-;8.861435;-0.05368042;-2.0870667;-;-;-;-;-;-;-;-;-;-;-;-;-;-;-
1514099498150;-;-;8.82312;0.026535034;-2.1038208;-;-;-;-;-;-;-;-;-;-;-;-;-;-;-
1514099498170;-;-;8.869812;0.12109375;-2.1301575;-;-;-;-;-;-;-;-;-;-;-;-;-;-;-
1514099498191;-;-;8.9787445;0.16778564;-2.1564941;-;-;-;-;-;-;-;-;-;-;-;-;-;-;-
1514099498211;-;-;9.001495;0.13426208;-2.2127533;-;-;-;-;-;-;-;-;-;-;-;-;-;-;-
1514099498232;-;-;8.958389;0.007369995;-2.2103577;-;-;-;-;-;-;-;-;-;-;-;-;-;-;-
1514099498253;-;-;8.873398;-0.040512085;-2.2366943;-;-;-;-;-;-;-;-;-;-;-;-;-;-;-
1514099498273;-;-;8.797989;-0.095581055;-2.2259216;-;-;-;-;-;-;-;-;-;-;-;-;-;-;-
1514099498294;-;-;8.80397;-0.0440979;-2.1744537;-;-;-;-;-;-;-;-;-;-;-;-;-;-;-
1514099498314;-;-;8.876999;-0.026138306;-2.151703;-;-;-;-;-;-;-;-;-;-;-;-;-;-;-
1514099498334;-;-;8.912903;-0.011779785;-2.136139;-;-;-;-;-;-;-;-;-;-;-;-;-;-;-
1514099498354;-;-;8.928467;0.008575439;-2.0990295;-;-;-;-;-;-;-;-;-;-;-;-;-;-;-
1514099498375;-;-;8.9392395;0.0049743652;-2.0786743;-;-;-;-;-;-;-;-;-;-;-;-;-;-;-
1514099498395;-;-;8.9787445;0.0025787354;-2.1074066;-;-;-;-;-;-;-;-;-;-;-;-;-;-;-
1514099498415;-;-;9.0182495;-0.0045928955;-2.0619202;-;-;-;-;-;-;-;-;-;-;-;-;-;-;-
1514099498436;-;-;9.055359;-0.01776123;-2.096634;-;-;-;-;-;-;-;-;-;-;-;-;-;-;-
1514099498456;-;-;9.005081;-0.038116455;-2.179245;-;-;-;-;-;-;-;-;-;-;-;-;-;-;-
1514099498477;-;-;8.945221;-0.02255249;-2.1828308;-;-;-;-;-;-;-;-;-;-;-;-;-;-;-
1514099498497;-;-;8.898544;-0.03213501;-2.2582397;-;-;-;-;-;-;-;-;-;-;-;-;-;-;-
1514099498518;-;-;8.8602295;0.05645752;-2.2247314;-;-;-;-;-;-;-;-;-;-;-;-;-;-;-
1514099498538;-;-;8.8602295;0.07800293;-2.1971893;-;-;-;-;-;-;-;-;-;-;-;-;-;-;-
1514099498558;-;-;8.876999;0.076812744;-2.2498627;-;-;-;-;-;-;-;-;-;-;-;-;-;-;-
1514099498578;-;-;8.887772;0.040893555;-2.2355042;-;-;-;-;-;-;-;-;-;-;-;-;-;-;-
1514099498599;-;-;8.853058;0.036102295;-2.1612854;-;-;-;-;-;-;-;-;-;-;-;-;-;-;-
1514099498619;-;-;8.872208;0.05166626;-2.1121979;-;-;-;-;-;-;-;-;-;-;-;-;-;-;-
1514099498639;-;-;8.880585;0.052871704;-2.1169891;-;-;-;-;-;-;-;-;-;-;-;-;-;-;-
1514099498660;-;-;8.923676;0.07800293;-2.0786743;-;-;-;-;-;-;-;-;-;-;-;-;-;-;-
1514099498679;-;-;8.996704;0.019348145;-2.0798798;-;-;-;-;-;-;-;-;-;-;-;-;-;-;-
1514099498699;-;-;9.041;0.0049743652;-2.045166;-;-;-;-;-;-;-;-;-;-;-;-;-;-;-
1514099498720;-;-;9.013458;0.007369995;-2.014038;-;-;-;-;-;-;-;-;-;-;-;-;-;-;-
1514099498739;-;-;8.990723;0.048080444;-2.0307922;-;-;-;-;-;-;-;-;-;-;-;-;-;-;-
1514099498759;-;-;8.985931;0.086380005;-2.0355835;-;-;-;-;-;-;-;-;-;-;-;-;-;-;-
1514099498780;-;-;9.001495;0.06124878;-1.9685516;-;-;-;-;-;-;-;-;-;-;-;-;-;-;-
1514099498799;-;-;9.039795;0.09954834;-2.005661;-;-;-;-;-;-;-;-;-;-;-;-;-;-;-
1514099498819;-;-;9.039795;0.03730774;-2.0319977;-;-;-;-;-;-;-;-;-;-;-;-;-;-;-
1514099498840;-;-;9.007477;0.06124878;-2.069107;-;-;-;-;-;-;-;-;-;-;-;-;-;-;-
1514099498859;-;-;8.972763;0.06124878;-2.0954437;-;-;-;-;-;-;-;-;-;-;-;-;-;-;-
1514099498879;-;-;8.970367;0.1043396;-2.0978394;-;-;-;-;-;-;-;-;-;-;-;-;-;-;-
1514099498899;-;-;8.887772;0.103149414;-2.1265717;-;-;-;-;-;-;-;-;-;-;-;-;-;-;-
1514099498920;-;-;8.869812;0.09954834;-2.211563;-;-;-;-;-;-;-;-;-;-;-;-;-;-;-
1514099498940;-;-;8.844666;0.062438965;-2.2127533;-;-;-;-;-;-;-;-;-;-;-;-;-;-;-
1514099498960;-;-;8.890167;0.093566895;-2.187622;-;-;-;-;-;-;-;-;-;-;-;-;-;-;-
1514099498980;-;-;8.863831;0.13067627;-2.1612854;-;-;-;-;-;-;-;-;-;-;-;-;-;-;-
1514099499001;-;-;8.837494;0.23841858;-2.1768494;-;-;-;-;-;-;-;-;-;-;-;-;-;-;-
1514099499020;-;-;8.780029;0.28630066;-2.1457214;-;-;-;-;-;-;-;-;-;-;-;-;-;-;-
1514099499040;-;-;8.82312;0.23721313;-2.1062164;-;-;-;-;-;-;-;-;-;-;-;-;-;-;-
1514099499061;-;-;8.850662;0.1845398;-2.1588898;-;-;-;-;-;-;-;-;-;-;-;-;-;-;-
1514099499080;-;-;8.92009;0.1438446;-2.1540985;-;-;-;-;-;-;-;-;-;-;-;-;-;-;-
1514099499100;-;-;8.987122;0.13426208;-2.2055817;-;-;-;-;-;-;-;-;-;-;-;-;-;-;-
1514099499121;-;-;8.954803;0.21447754;-2.2163544;-;-;-;-;-;-;-;-;-;-;-;-;-;-;-
1514099499141;-;-;8.866211;0.19770813;-2.184021;-;-;-;-;-;-;-;-;-;-;-;-;-;-;-
1514099499161;-;-;8.894943;0.1725769;-2.1768494;-;-;-;-;-;-;-;-;-;-;-;-;-;-;-
1514099499181;-;-;8.933258;0.117507935;-2.1744537;-;-;-;-;-;-;-;-;-;-;-;-;-;-;-
1514099499202;-;-;8.957199;0.088775635;-2.1852264;-;-;-;-;-;-;-;-;-;-;-;-;-;-;-
1514099499222;-;-;8.96199;0.076812744;-2.1708527;-;-;-;-;-;-;-;-;-;-;-;-;-;-;-
1514099499242;-;-;8.963181;0.07321167;-2.1959991;-;-;-;-;-;-;-;-;-;-;-;-;-;-;-
1514099499263;-;-;8.959595;0.103149414;-2.211563;-;-;-;-;-;-;-;-;-;-;-;-;-;-;-
1514099499283;-;-;9.015854;0.09954834;-2.1936035;-;-;-;-;-;-;-;-;-;-;-;-;-;-;-
1514099499303;-;-;8.991913;0.0756073;-2.2211304;-;-;-;-;-;-;-;-;-;-;-;-;-;-;-
1514099499323;-;-;8.976349;0.067230225;-2.1780396;-;-;-;-;-;-;-;-;-;-;-;-;-;-;-
1514099499344;-;-;8.911713;0.11392212;-2.1696625;-;-;-;-;-;-;-;-;-;-;-;-;-;-;-
1514099499364;-;-;8.884171;0.14982605;-2.1708527;-;-;-;-;-;-;-;-;-;-;-;-;-;-;-
1514099499384;-;-;8.880585;0.062438965;-2.1864166;-;-;-;-;-;-;-;-;-;-;-;-;-;-;-
1514099499404;-;-;8.8602295;0.04208374;-2.2175446;-;-;-;-;-;-;-;-;-;-;-;-;-;-;-
1514099499425;-;-;8.92009;0.040893555;-2.1529083;-;-;-;-;-;-;-;-;-;-;-;-;-;-;-
1514099499445;-;-;8.926071;0.021743774;-2.2355042;-;-;-;-;-;-;-;-;-;-;-;-;-;-;-
1514099499465;-;-;8.926071;0.014556885;-2.2199402;-;-;-;-;-;-;-;-;-;-;-;-;-;-;-
1514099499485;-;-;8.924881;0.033706665;-2.1900177;-;-;-;-;-;-;-;-;-;-;-;-;-;-;-
1514099499506;-;-;8.881775;0.036102295;-2.2331085;-;-;-;-;-;-;-;-;-;-;-;-;-;-;-
1514099499525;-;-;8.918884;0.02053833;-2.1971893;-;-;-;-;-;-;-;-;-;-;-;-;-;-;-
1514099499545;-;-;8.953613;0.033706665;-2.1924133;-;-;-;-;-;-;-;-;-;-;-;-;-;-;-
1514099499566;-;-;8.938049;0.019348145;-2.2355042;-;-;-;-;-;-;-;-;-;-;-;-;-;-;-
1514099499585;-;-;8.923676;0.05645752;-2.230713;-;-;-;-;-;-;-;-;-;-;-;-;-;-;-
1514099499605;-;-;8.881775;0.026535034;-2.2055817;-;-;-;-;-;-;-;-;-;-;-;-;-;-;-
1514099499625;-;-;8.853058;0.024139404;-2.1421204;-;-;-;-;-;-;-;-;-;-;-;-;-;-;-
1514099499645;-;-;8.884171;0.01574707;-2.1540985;-;-;-;-;-;-;-;-;-;-;-;-;-;-;-
1514099499665;-;-;8.927277;0.06124878;-2.1552887;-;-;-;-;-;-;-;-;-;-;-;-;-;-;-
1514099499686;-;-;8.92128;0.046875;-2.2043762;-;-;-;-;-;-;-;-;-;-;-;-;-;-;-
1514099499706;-;-;8.930862;0.0756073;-2.1648712;-;-;-;-;-;-;-;-;-;-;-;-;-;-;-
1514099499726;-;-;8.945221;0.064834595;-2.16008;-;-;-;-;-;-;-;-;-;-;-;-;-;-;-
1514099499746;-;-;8.90213;0.072021484;-2.1349487;-;-;-;-;-;-;-;-;-;-;-;-;-;-;-
1514099499766;-;-;8.873398;0.08279419;-2.175644;-;-;-;-;-;-;-;-;-;-;-;-;-;-;-
1514099499787;-;-;8.90094;0.06602478;-2.1672668;-;-;-;-;-;-;-;-;-;-;-;-;-;-;-
1514099499807;-;-;8.888962;0.064834595;-2.136139;-;-;-;-;-;-;-;-;-;-;-;-;-;-;-
1514099499828;-;-;8.923676;0.048080444;-2.124176;-;-;-;-;-;-;-;-;-;-;-;-;-;-;-
1514099499848;-;-;8.935654;0.036102295;-2.144516;-;-;-;-;-;-;-;-;-;-;-;-;-;-;-
1514099499868;-;-;9.020645;0.05406189;-2.1552887;-;-;-;-;-;-;-;-;-;-;-;-;-;-;-
1514099499888;-;-;8.994308;0.072021484;-2.16008;-;-;-;-;-;-;-;-;-;-;-;-;-;-;-
1514099499909;-;-;8.966782;0.122299194;-2.2055817;-;-;-;-;-;-;-;-;-;-;-;-;-;-;-
1514099499929;-;-;8.859039;0.074417114;-2.1612854;-;-;-;-;-;-;-;-;-;-;-;-;-;-;-
1514099499949;-;-;8.791992;0.076812744;-2.1217804;-;-;-;-;-;-;-;-;-;-;-;-;-;-;-
1514099499970;-;-;8.80397;0.1330719;-2.1924133;-;-;-;-;-;-;-;-;-;-;-;-;-;-;-
1514099499989;-;-;8.871002;0.13905334;-2.199585;-;-;-;-;-;-;-;-;-;-;-;-;-;-;-
1514099500010;-;-;8.878189;0.095962524;-2.1744537;-;-;-;-;-;-;-;-;-;-;-;-;-;-;-
1514099500031;-;-;8.922485;0.13786316;-2.144516;-;-;-;-;-;-;-;-;-;-;-;-;-;-;-
1514099500051;-;-;8.916504;0.117507935;-2.105011;-;-;-;-;-;-;-;-;-;-;-;-;-;-;-
1514099500071;-;-;8.880585;0.048080444;-2.1301575;-;-;-;-;-;-;-;-;-;-;-;-;-;-;-
1514099500092;-;-;8.851852;0.081588745;-2.105011;-;-;-;-;-;-;-;-;-;-;-;-;-;-;-
1514099500112;-;-;8.84227;0.091171265;-2.0283966;-;-;-;-;-;-;-;-;-;-;-;-;-;-;-
1514099500132;-;-;8.929672;0.07800293;-2.0224152;-;-;-;-;-;-;-;-;-;-;-;-;-;-;-
1514099500152;-;-;9.005081;0.06602478;-2.057129;-;-;-;-;-;-;-;-;-;-;-;-;-;-;-
1514099500172;-;-;9.037399;0.076812744;-2.029602;-;-;-;-;-;-;-;-;-;-;-;-;-;-;-
1514099500193;-;-;9.049377;0.11631775;-2.0750885;-;-;-;-;-;-;-;-;-;-;-;-;-;-;-
1514099500212;-;-;8.977554;0.1043396;-2.0774841;-;-;-;-;-;-;-;-;-;-;-;-;-;-;-
1514099500232;-;-;8.945221;0.12828064;-2.0487518;-;-;-;-;-;-;-;-;-;-;-;-;-;-;-
1514099500253;-;-;8.945221;0.055252075;-2.0343933;-;-;-;-;-;-;-;-;-;-;-;-;-;-;-
1514099500273;-;-;8.97995;0.021743774;-2.0702972;-;-;-;-;-;-;-;-;-;-;-;-;-;-;-
1514099500293;-;-;9.023041;0.048080444;-2.0559387;-;-;-;-;-;-;-;-;-;-;-;-;-;-;-
1514099500313;-;-;9.00029;0.05885315;-2.0427704;-;-;-;-;-;-;-;-;-;-;-;-;-;-;-
1514099500333;-;-;9.007477;0.10673523;-2.00206;-;-;-;-;-;-;-;-;-;-;-;-;-;-;-
1514099500354;-;-;8.969162;0.15701294;-2.00206;-;-;-;-;-;-;-;-;-;-;-;-;-;-;-
1514099500374;-;-;8.948822;0.16659546;-2.0272064;-;-;-;-;-;-;-;-;-;-;-;-;-;-;-
1514099500394;-;-;8.951218;0.16778564;-2.115799;-;-;-;-;-;-;-;-;-;-;-;-;-;-;-
1514099500415;-;-;8.953613;0.13067627;-2.0738983;-;-;-;-;-;-;-;-;-;-;-;-;-;-;-
1514099500435;-;-;8.893753;0.15940857;-2.0559387;-;-;-;-;-;-;-;-;-;-;-;-;-;-;-
1514099500455;-;-;8.83989;0.1330719;-2.0774841;-;-;-;-;-;-;-;-;-;-;-;-;-;-;-
1514099500475;-;-;8.894943;0.15940857;-2.0523376;-;-;-;-;-;-;-;-;-;-;-;-;-;-;-
1514099500496;-;-;8.918884;0.11152649;-2.1385345;-;-;-;-;-;-;-;-;-;-;-;-;-;-;-
1514099500516;-;-;8.960785;0.16419983;-2.0906525;-;-;-;-;-;-;-;-;-;-;-;-;-;-;-
1514099500537;-;-;8.996704;0.19412231;-2.1337433;-;-;-;-;-;-;-;-;-;-;-;-;-;-;-
1514099500557;-;-;8.955994;0.14982605;-2.084671;-;-;-;-;-;-;-;-;-;-;-;-;-;-;-
1514099500577;-;-;8.893753;0.1558075;-2.045166;-;-;-;-;-;-;-;-;-;-;-;-;-;-;-
1514099500598;-;-;8.879379;0.17137146;-2.0224152;-;-;-;-;-;-;-;-;-;-;-;-;-;-;-
1514099500618;-;-;8.915298;0.1725769;-2.045166;-;-;-;-;-;-;-;-;-;-;-;-;-;-;-
1514099500638;-;-;8.936844;0.15701294;-2.0750885;-;-;-;-;-;-;-;-;-;-;-;-;-;-;-
1514099500658;-;-;8.964386;0.1043396;-2.0439606;-;-;-;-;-;-;-;-;-;-;-;-;-;-;-
1514099500679;-;-;8.987122;0.05885315;-1.9577789;-;-;-;-;-;-;-;-;-;-;-;-;-;-;-
1514099500699;-;-;8.984726;0.06364441;-1.9673462;-;-;-;-;-;-;-;-;-;-;-;-;-;-;-
1514099500719;-;-;8.934448;0.043289185;-1.9877014;-;-;-;-;-;-;-;-;-;-;-;-;-;-;-
1514099500740;-;-;8.926071;0.08039856;-2.029602;-;-;-;-;-;-;-;-;-;-;-;-;-;-;-
1514099500759;-;-;8.941635;0.02053833;-2.0068512;-;-;-;-;-;-;-;-;-;-;-;-;-;-;-
1514099500779;-;-;8.952408;-0.011779785;-1.9865112;-;-;-;-;-;-;-;-;-;-;-;-;-;-;-
1514099500800;-;-;8.952408;0.0049743652;-1.9326324;-;-;-;-;-;-;-;-;-;-;-;-;-;-;-
1514099500820;-;-;8.932053;0.062438965;-1.9745331;-;-;-;-;-;-;-;-;-;-;-;-;-;-;-
1514099500840;-;-;8.953613;0.026535034;-1.9877014;-;-;-;-;-;-;-;-;-;-;-;-;-;-;-
1514099500860;-;-;8.932053;0.040893555;-2.0152283;-;-;-;-;-;-;-;-;-;-;-;-;-;-;-
1514099500881;-;-;8.997894;0.014556885;-2.012848;-;-;-;-;-;-;-;-;-;-;-;-;-;-;-
1514099500900;-;-;9.001495;-0.00340271;-1.950592;-;-;-;-;-;-;-;-;-;-;-;-;-;-;-
1514099500920;-;-;8.957199;0.08518982;-1.9936829;-;-;-;-;-;-;-;-;-;-;-;-;-;-;-
1514099500941;-;-;8.933258;0.040893555;-2.0044556;-;-;-;-;-;-;-;-;-;-;-;-;-;-;-
1514099500960;-;-;8.911713;0.021743774;-1.9529877;-;-;-;-;-;-;-;-;-;-;-;-;-;-;-
1514099500980;-;-;8.933258;-0.016571045;-1.9398193;-;-;-;-;-;-;-;-;-;-;-;-;-;-;-
1514099501001;-;-;8.957199;-0.026138306;-1.9362335;-;-;-;-;-;-;-;-;-;-;-;-;-;-;-
1514099501021;-;-;8.970367;0.019348145;-1.9206696;-;-;-;-;-;-;-;-;-;-;-;-;-;-;-
1514099501041;-;-;9.007477;0.07321167;-1.9458008;-;-;-;-;-;-;-;-;-;-;-;-;-;-;-
1514099501062;-;-;9.006287;0.06602478;-1.911087;-;-;-;-;-;-;-;-;-;-;-;-;-;-;-
1514099501082;-;-;8.965576;0.02772522;-1.90271;-;-;-;-;-;-;-;-;-;-;-;-;-;-;-
1514099501102;-;-;8.977554;-0.0105896;-1.8907318;-;-;-;-;-;-;-;-;-;-;-;-;-;-;-
1514099501123;-;-;8.983536;-0.030929565;-1.863205;-;-;-;-;-;-;-;-;-;-;-;-;-;-;-
1514099501143;-;-;9.070923;0.007369995;-1.9398193;-;-;-;-;-;-;-;-;-;-;-;-;-;-;-
1514099501163;-;-;9.066132;0.028915405;-1.9733429;-;-;-;-;-;-;-;-;-;-;-;-;-;-;-
1514099501183;-;-;9.051773;0.0013885498;-1.9254456;-;-;-;-;-;-;-;-;-;-;-;-;-;-;-
1514099501204;-;-;9.001495;0.013366699;-1.9410095;-;-;-;-;-;-;-;-;-;-;-;-;-;-;-
1514099501224;-;-;8.983536;-0.00340271;-1.9410095;-;-;-;-;-;-;-;-;-;-;-;-;-;-;-
1514099501244;-;-;8.951218;0.01574707;-2.017624;-;-;-;-;-;-;-;-;-;-;-;-;-;-;-
1514099501265;-;-;8.967972;0.010971069;-2.0068512;-;-;-;-;-;-;-;-;-;-;-;-;-;-;-
1514099501285;-;-;8.957199;0.10194397;-1.9781189;-;-;-;-;-;-;-;-;-;-;-;-;-;-;-
1514099501305;-;-;8.875793;0.17855835;-1.8811646;-;-;-;-;-;-;-;-;-;-;-;-;-;-;-
1514099501326;-;-;8.881775;0.19651794;-1.8045502;-;-;-;-;-;-;-;-;-;-;-;-;-;-;-
1514099501346;-;-;8.892548;0.10913086;-1.7662354;-;-;-;-;-;-;-;-;-;-;-;-;-;-;-
1514099501366;-;-;8.936844;0.05885315;-1.7806091;-;-;-;-;-;-;-;-;-;-;-;-;-;-;-
1514099501387;-;-;8.993118;0.06842041;-1.8392639;-;-;-;-;-;-;-;-;-;-;-;-;-;-;-
1514099501407;-;-;9.011063;0.04208374;-1.8260956;-;-;-;-;-;-;-;-;-;-;-;-;-;-;-
1514099501428;-;-;9.067337;0.007369995;-1.9039001;-;-;-;-;-;-;-;-;-;-;-;-;-;-;-
1514099501449;-;-;9.054169;-0.0010070801;-1.8955231;-;-;-;-;-;-;-;-;-;-;-;-;-;-;-
1514099501469;-;-;9.048172;-0.014175415;-1.8667908;-;-;-;-;-;-;-;-;-;-;-;-;-;-;-
1514099501489;-;-;9.043396;-0.015365601;-1.8536224;-;-;-;-;-;-;-;-;-;-;-;-;-;-;-
1514099501510;-;-;8.997894;0.05645752;-1.7794037;-;-;-;-;-;-;-;-;-;-;-;-;-;-;-
1514099501530;-;-;8.971558;0.09475708;-1.7782135;-;-;-;-;-;-;-;-;-;-;-;-;-;-;-
1514099501550;-;-;8.928467;0.08998108;-1.737503;-;-;-;-;-;-;-;-;-;-;-;-;-;-;-
1514099501571;-;-;8.940445;0.03012085;-1.7638397;-;-;-;-;-;-;-;-;-;-;-;-;-;-;-
1514099501591;-;-;8.958389;-0.00340271;-1.8224945;-;-;-;-;-;-;-;-;-;-;-;-;-;-;-
1514099501611;-;-;8.977554;0.057647705;-1.8201141;-;-;-;-;-;-;-;-;-;-;-;-;-;-;-
1514099501631;-;-;8.9392395;0.0181427;-1.9098969;-;-;-;-;-;-;-;-;-;-;-;-;-;-;-
1514099501652;-;-;8.914108;0.02532959;-1.8967285;-;-;-;-;-;-;-;-;-;-;-;-;-;-;-
1514099501672;-;-;8.932053;0.0181427;-1.9075012;-;-;-;-;-;-;-;-;-;-;-;-;-;-;-
1514099501692;-;-;8.993118;0.02053833;-1.8931274;-;-;-;-;-;-;-;-;-;-;-;-;-;-;-
1514099501712;-;-;8.984726;0.016952515;-1.8931274;-;-;-;-;-;-;-;-;-;-;-;-;-;-;-
1514099501732;-;-;8.911713;0.02532959;-1.8536224;-;-;-;-;-;-;-;-;-;-;-;-;-;-;-
1514099501753;-;-;8.8997345;0.010971069;-1.7578583;-;-;-;-;-;-;-;-;-;-;-;-;-;-;-
1514099501773;-;-;9.020645;0.01574707;-1.7351074;-;-;-;-;-;-;-;-;-;-;-;-;-;-;-
1514099501793;-;-;8.988327;-0.03453064;-1.8021545;-;-;-;-;-;-;-;-;-;-;-;-;-;-;-
1514099501814;-;-;8.952408;-0.078811646;-1.8201141;-;-;-;-;-;-;-;-;-;-;-;-;-;-;-
1514099501834;-;-;8.957199;-0.11352539;-1.8452454;-;-;-;-;-;-;-;-;-;-;-;-;-;-;-
1514099501854;-;-;8.972763;-0.1877594;-1.8548279;-;-;-;-;-;-;-;-;-;-;-;-;-;-;-
1514099501875;-;-;8.994308;-0.20092773;-1.7638397;-;-;-;-;-;-;-;-;-;-;-;-;-;-;-
1514099501895;-;-;9.007477;-0.11114502;-1.7458801;-;-;-;-;-;-;-;-;-;-;-;-;-;-;-
1514099501915;-;-;9.087677;-0.03691101;-1.7411041;-;-;-;-;-;-;-;-;-;-;-;-;-;-;-
1514099501936;-;-;9.111618;-0.00819397;-1.7913818;-;-;-;-;-;-;-;-;-;-;-;-;-;-;-
1514099501956;-;-;9.085281;0.02053833;-1.8165131;-;-;-;-;-;-;-;-;-;-;-;-;-;-;-
1514099501976;-;-;9.050568;-0.0440979;-1.8667908;-;-;-;-;-;-;-;-;-;-;-;-;-;-;-
1514099501997;-;-;8.990723;-0.0728302;-1.9086914;-;-;-;-;-;-;-;-;-;-;-;-;-;-;-
1514099502016;-;-;8.960785;-0.12789917;-1.9458008;-;-;-;-;-;-;-;-;-;-;-;-;-;-;-
1514099502036;-;-;8.964386;-0.15184021;-1.9051056;-;-;-;-;-;-;-;-;-;-;-;-;-;-;-
1514099502056;-;-;8.945221;-0.117126465;-1.8512268;-;-;-;-;-;-;-;-;-;-;-;-;-;-;-
1514099502077;-;-;8.971558;-0.04888916;-1.8368683;-;-;-;-;-;-;-;-;-;-;-;-;-;-;-
1514099502097;-;-;8.910507;-0.0010070801;-1.8009491;-;-;-;-;-;-;-;-;-;-;-;-;-;-;-
1514099502118;-;-;8.935654;-0.0010070801;-1.7806091;-;-;-;-;-;-;-;-;-;-;-;-;-;-;-
1514099502138;-;-;8.928467;-0.0440979;-1.7949677;-;-;-;-;-;-;-;-;-;-;-;-;-;-;-
1514099502158;-;-;8.983536;-0.08720398;-1.7865906;-;-;-;-;-;-;-;-;-;-;-;-;-;-;-
1514099502179;-;-;8.995499;-0.097976685;-1.8284912;-;-;-;-;-;-;-;-;-;-;-;-;-;-;-
1514099502199;-;-;9.046982;-0.107543945;-1.9122772;-;-;-;-;-;-;-;-;-;-;-;-;-;-;-
1514099502219;-;-;9.011063;-0.15423584;-1.9757233;-;-;-;-;-;-;-;-;-;-;-;-;-;-;-
1514099502239;-;-;8.975159;-0.18536377;-1.926651;-;-;-;-;-;-;-;-;-;-;-;-;-;-;-
1514099502260;-;-;8.942825;-0.17338562;-1.9230652;-;-;-;-;-;-;-;-;-;-;-;-;-;-;-
1514099502280;-;-;8.960785;-0.15542603;-1.8608093;-;-;-;-;-;-;-;-;-;-;-;-;-;-;-
1514099502300;-;-;8.9787445;-0.13269043;-1.8811646;-;-;-;-;-;-;-;-;-;-;-;-;-;-;-
1514099502321;-;-;8.983536;-0.07522583;-1.871582;-;-;-;-;-;-;-;-;-;-;-;-;-;-;-
1514099502341;-;-;9.024231;-0.047698975;-1.871582;-;-;-;-;-;-;-;-;-;-;-;-;-;-;-
1514099502362;-;-;9.0182495;-0.05368042;-1.8943329;-;-;-;-;-;-;-;-;-;-;-;-;-;-;-
1514099502382;-;-;8.966782;-0.09197998;-1.8907318;-;-;-;-;-;-;-;-;-;-;-;-;-;-;-
1514099502402;-;-;8.944031;-0.08720398;-1.9086914;-;-;-;-;-;-;-;-;-;-;-;-;-;-;-
1514099502423;-;-;8.9787445;-0.05128479;-1.9003143;-;-;-;-;-;-;-;-;-;-;-;-;-;-;-
1514099502443;-;-;8.977554;-0.047698975;-1.9062958;-;-;-;-;-;-;-;-;-;-;-;-;-;-;-
1514099502463;-;-;8.991913;-0.078811646;-1.9494019;-;-;-;-;-;-;-;-;-;-;-;-;-;-;-
1514099502483;-;-;9.003891;-0.083602905;-1.9577789;-;-;-;-;-;-;-;-;-;-;-;-;-;-;-
1514099502504;-;-;8.977554;-0.14585876;-1.9374237;-;-;-;-;-;-;-;-;-;-;-;-;-;-;-
1514099502524;-;-;8.923676;-0.16859436;-1.9003143;-;-;-;-;-;-;-;-;-;-;-;-;-;-;-
1514099502544;-;-;8.954803;-0.11114502;-1.9146729;-;-;-;-;-;-;-;-;-;-;-;-;-;-;-
1514099502565;-;-;8.98114;-0.10635376;-1.9182739;-;-;-;-;-;-;-;-;-;-;-;-;-;-;-
1514099502585;-;-;8.966782;-0.109939575;-1.9326324;-;-;-;-;-;-;-;-;-;-;-;-;-;-;-
1514099502605;-;-;8.973953;-0.12789917;-1.9362335;-;-;-;-;-;-;-;-;-;-;-;-;-;-;-
1514099502625;-;-;8.965576;-0.16740417;-1.887146;-;-;-;-;-;-;-;-;-;-;-;-;-;-;-
1514099502646;-;-;8.941635;-0.17098999;-1.9625702;-;-;-;-;-;-;-;-;-;-;-;-;-;-;-
1514099502666;-;-;8.967972;-0.12550354;-1.9577789;-;-;-;-;-;-;-;-;-;-;-;-;-;-;-
1514099502687;-;-;8.965576;-0.08958435;-1.990097;-;-;-;-;-;-;-;-;-;-;-;-;-;-;-
1514099502707;-;-;8.976349;-0.097976685;-1.9410095;-;-;-;-;-;-;-;-;-;-;-;-;-;-;-
1514099502727;-;-;8.987122;-0.1302948;-1.9470062;-;-;-;-;-;-;-;-;-;-;-;-;-;-;-
1514099502747;-;-;8.973953;-0.13388062;-1.9685516;-;-;-;-;-;-;-;-;-;-;-;-;-;-;-
1514099502768;-;-;8.947617;-0.09437561;-1.9553833;-;-;-;-;-;-;-;-;-;-;-;-;-;-;-
1514099502788;-;-;8.989517;-0.124313354;-1.8763733;-;-;-;-;-;-;-;-;-;-;-;-;-;-;-
1514099502808;-;-;9.035004;-0.12789917;-1.9434052;-;-;-;-;-;-;-;-;-;-;-;-;-;-;-
1514099502829;-;-;9.027832;-0.100372314;-1.9625702;-;-;-;-;-;-;-;-;-;-;-;-;-;-;-
1514099502849;-;-;8.957199;-0.078811646;-1.9481964;-;-;-;-;-;-;-;-;-;-;-;-;-;-;-
1514099502870;-;-;8.969162;-0.088394165;-1.9386139;-;-;-;-;-;-;-;-;-;-;-;-;-;-;-
1514099502890;-;-;8.92128;-0.15065002;-1.9278412;-;-;-;-;-;-;-;-;-;-;-;-;-;-;-
1514099502910;-;-;9.014664;-0.08241272;-1.9541779;-;-;-;-;-;-;-;-;-;-;-;-;-;-;-
1514099502930;-;-;9.037399;-0.078811646;-1.9098969;-;-;-;-;-;-;-;-;-;-;-;-;-;-;-
1514099502950;-;-;8.975159;-0.1015625;-1.9446106;-;-;-;-;-;-;-;-;-;-;-;-;-;-;-
1514099502971;-;-;8.926071;-0.07762146;-1.9781189;-;-;-;-;-;-;-;-;-;-;-;-;-;-;-
1514099502990;-;-;8.938049;-0.069244385;-1.9685516;-;-;-;-;-;-;-;-;-;-;-;-;-;-;-
1514099503010;-;-;8.973953;-0.114730835;-1.9470062;-;-;-;-;-;-;-;-;-;-;-;-;-;-;-
1514099503030;-;-;8.975159;-0.08480835;-1.9386139;-;-;-;-;-;-;-;-;-;-;-;-;-;-;-
1514099503051;-;-;8.953613;-0.05368042;-1.9386139;-;-;-;-;-;-;-;-;-;-;-;-;-;-;-
1514099503071;-;-;8.954803;-0.071640015;-1.9912872;-;-;-;-;-;-;-;-;-;-;-;-;-;-;-
1514099503091;-;-;8.933258;-0.03691101;-1.9757233;-;-;-;-;-;-;-;-;-;-;-;-;-;-;-
1514099503112;-;-;8.954803;-0.014175415;-2.0152283;-;-;-;-;-;-;-;-;-;-;-;-;-;-;-
1514099503132;-;-;8.9392395;-0.00340271;-2.0188293;-;-;-;-;-;-;-;-;-;-;-;-;-;-;-
1514099503152;-;-;8.950012;-0.05847168;-1.9565735;-;-;-;-;-;-;-;-;-;-;-;-;-;-;-
1514099503172;-;-;8.934448;-0.04170227;-1.9182739;-;-;-;-;-;-;-;-;-;-;-;-;-;-;-
1514099503193;-;-;8.987122;-0.040512085;-1.9589691;-;-;-;-;-;-;-;-;-;-;-;-;-;-;-
1514099503213;-;-;9.0182495;-0.047698975;-1.9541779;-;-;-;-;-;-;-;-;-;-;-;-;-;-;-
1514099503233;-;-;8.987122;-0.057266235;-1.9170685;-;-;-;-;-;-;-;-;-;-;-;-;-;-;-
1514099503253;-;-;8.987122;-0.12908936;-1.9362335;-;-;-;-;-;-;-;-;-;-;-;-;-;-;-
1514099503274;-;-;8.947617;-0.17459106;-1.9350281;-;-;-;-;-;-;-;-;-;-;-;-;-;-;-
1514099503294;-;-;8.9787445;-0.12550354;-1.966156;-;-;-;-;-;-;-;-;-;-;-;-;-;-;-
1514099503314;-;-;8.976349;-0.076416016;-1.9865112;-;-;-;-;-;-;-;-;-;-;-;-;-;-;-
1514099503335;-;-;8.963181;-0.083602905;-2.0116425;-;-;-;-;-;-;-;-;-;-;-;-;-;-;-
1514099503354;-;-;8.984726;-0.12550354;-1.9781189;-;-;-;-;-;-;-;-;-;-;-;-;-;-;-
1514099503374;-;-;8.944031;-0.102752686;-2.00206;-;-;-;-;-;-;-;-;-;-;-;-;-;-;-
1514099503394;-;-;8.938049;-0.093185425;-2.0164337;-;-;-;-;-;-;-;-;-;-;-;-;-;-;-
1514099503415;-;-;8.916504;-0.071640015;-1.9948883;-;-;-;-;-;-;-;-;-;-;-;-;-;-;-
1514099503434;-;-;8.90213;-0.050079346;-2.0164337;-;-;-;-;-;-;-;-;-;-;-;-;-;-;-
1514099503454;-;-;8.903336;-0.10395813;-2.0379791;-;-;-;-;-;-;-;-;-;-;-;-;-;-;-
1514099503474;-;-;8.936844;-0.08241272;-2.017624;-;-;-;-;-;-;-;-;-;-;-;-;-;-;-
1514099503495;-;-;8.953613;-0.13269043;-1.9853058;-;-;-;-;-;-;-;-;-;-;-;-;-;-;-
1514099503514;-;-;8.959595;-0.11831665;-1.9936829;-;-;-;-;-;-;-;-;-;-;-;-;-;-;-
1514099503534;-;-;8.9787445;-0.11352539;-1.9637604;-;-;-;-;-;-;-;-;-;-;-;-;-;-;-
1514099503555;-;-;8.983536;-0.102752686;-2.0008698;-;-;-;-;-;-;-;-;-;-;-;-;-;-;-
