TimeStamp[ms];Prox[Cm];Lux[lux];AccX[m/s^2];AccY[m/s^2];AccZ[m/s^2];GyroX[rad/s];GyroY[rad/s];GyroZ[rad/s];MagnX[uT];MagnY[uT];MagnZ[uT];OrienYaw[degrees];OrienPitch[degrees];OrienRoll[degrees];Press[Pa];Temp[C°];Batt[%];Lat;Lng;Speed[m/s]
1514100827063;-;-;9.360626;-0.16500854;0.17785645;-;-;-;-;-;-;-;-;-;-;-;-;-;-;-
1514100827070;-;-;8.975159;-0.44273376;0.81829834;-;-;-;-;-;-;-;-;-;-;-;-;-;-;-
1514100827090;-;-;9.205002;-1.0388947;0.77879333;-;-;-;-;-;-;-;-;-;-;-;-;-;-;-
1514100827111;-;-;8.844666;-0.018966675;-1.1545258;-;-;-;-;-;-;-;-;-;-;-;-;-;-;-
1514100827131;-;-;8.463989;0.70648193;-0.5021057;-;-;-;-;-;-;-;-;-;-;-;-;-;-;-
1514100827151;-;-;9.615601;0.69929504;-1.0120697;-;-;-;-;-;-;-;-;-;-;-;-;-;-;-
1514100827171;-;-;9.960373;-0.32781982;-0.49850464;-;-;-;-;-;-;-;-;-;-;-;-;-;-;-
1514100827191;-;-;8.801575;-0.17219543;-0.7522888;-;-;-;-;-;-;-;-;-;-;-;-;-;-;-
1514100827212;-;-;8.92009;0.03730774;-0.40393066;-;-;-;-;-;-;-;-;-;-;-;-;-;-;-
1514100827231;-;-;8.973953;-0.052474976;-0.40274048;-;-;-;-;-;-;-;-;-;-;-;-;-;-;-
1514100827252;-;-;8.334702;0.40242004;-0.451828;-;-;-;-;-;-;-;-;-;-;-;-;-;-;-
1514100827273;-;-;8.90094;0.338974;-0.8396759;-;-;-;-;-;-;-;-;-;-;-;-;-;-;-
1514100827293;-;-;8.967972;0.28390503;-1.6728668;-;-;-;-;-;-;-;-;-;-;-;-;-;-;-
1514100827316;-;-;9.39534;0.39164734;-1.5735016;-;-;-;-;-;-;-;-;-;-;-;-;-;-;-
1514100827333;-;-;9.262466;0.38327026;-1.0324097;-;-;-;-;-;-;-;-;-;-;-;-;-;-;-
1514100827356;-;-;6.7377777;2.0915222;-1.4142914;-;-;-;-;-;-;-;-;-;-;-;-;-;-;-
1514100827377;-;-;10.107605;0.8345642;-0.63616943;-;-;-;-;-;-;-;-;-;-;-;-;-;-;-
1514100827397;-;-;10.313507;0.40600586;-1.1724701;-;-;-;-;-;-;-;-;-;-;-;-;-;-;-
1514100827417;-;-;10.433228;0.028915405;-0.961792;-;-;-;-;-;-;-;-;-;-;-;-;-;-;-
1514100827438;-;-;9.913681;0.069625854;-0.67807007;-;-;-;-;-;-;-;-;-;-;-;-;-;-;-
1514100827458;-;-;9.361816;0.14503479;-0.36442566;-;-;-;-;-;-;-;-;-;-;-;-;-;-;-
1514100827478;-;-;8.932053;0.3461609;-0.40753174;-;-;-;-;-;-;-;-;-;-;-;-;-;-;-
1514100827499;-;-;8.720169;0.61190796;-0.4530182;-;-;-;-;-;-;-;-;-;-;-;-;-;-;-
1514100827519;-;-;8.768051;1.0440674;-0.52604675;-;-;-;-;-;-;-;-;-;-;-;-;-;-;-
1514100827539;-;-;8.769257;1.4271393;-0.52723694;-;-;-;-;-;-;-;-;-;-;-;-;-;-;-
1514100827560;-;-;8.758484;1.5947266;-0.372818;-;-;-;-;-;-;-;-;-;-;-;-;-;-;-
1514100827580;-;-;8.619614;1.5420532;-0.36083984;-;-;-;-;-;-;-;-;-;-;-;-;-;-;-
1514100827601;-;-;8.507095;1.3385468;-0.6194153;-;-;-;-;-;-;-;-;-;-;-;-;-;-;-
1514100827621;-;-;8.383789;1.106308;-0.7893982;-;-;-;-;-;-;-;-;-;-;-;-;-;-;-
1514100827642;-;-;8.478363;1.2368011;-0.88157654;-;-;-;-;-;-;-;-;-;-;-;-;-;-;-
1514100827662;-;-;8.657928;1.5157166;-0.6912384;-;-;-;-;-;-;-;-;-;-;-;-;-;-;-
1514100827682;-;-;9.15712;1.8485107;-0.55955505;-;-;-;-;-;-;-;-;-;-;-;-;-;-;-
1514100827702;-;-;9.215775;1.9299164;-0.63856506;-;-;-;-;-;-;-;-;-;-;-;-;-;-;-
1514100827723;-;-;9.136765;1.7599335;-1.0743103;-;-;-;-;-;-;-;-;-;-;-;-;-;-;-
1514100827742;-;-;9.826294;1.4259338;-1.1664886;-;-;-;-;-;-;-;-;-;-;-;-;-;-;-
1514100827762;-;-;10.289566;1.0883636;-2.39711;-;-;-;-;-;-;-;-;-;-;-;-;-;-;-
1514100827783;-;-;10.360199;0.89323425;-1.7650452;-;-;-;-;-;-;-;-;-;-;-;-;-;-;-
1514100827803;-;-;9.066132;1.0296936;-1.8224945;-;-;-;-;-;-;-;-;-;-;-;-;-;-;-
1514100827823;-;-;8.261688;0.68852234;-3.0638885;-;-;-;-;-;-;-;-;-;-;-;-;-;-;-
1514100827843;-;-;8.240128;-0.5792084;-3.3571777;-;-;-;-;-;-;-;-;-;-;-;-;-;-;-
1514100827864;-;-;8.988327;-1.827774;-3.4397888;-;-;-;-;-;-;-;-;-;-;-;-;-;-;-
1514100827884;-;-;9.404907;-1.388443;-2.73349;-;-;-;-;-;-;-;-;-;-;-;-;-;-;-
1514100827905;-;-;9.81073;-0.105148315;-2.907074;-;-;-;-;-;-;-;-;-;-;-;-;-;-;-
1514100827925;-;-;9.893326;0.17018127;-3.4900665;-;-;-;-;-;-;-;-;-;-;-;-;-;-;-
1514100827945;-;-;10.177048;-0.44631958;-2.7957458;-;-;-;-;-;-;-;-;-;-;-;-;-;-;-
1514100827966;-;-;10.107605;-1.3716888;-2.5754852;-;-;-;-;-;-;-;-;-;-;-;-;-;-;-
1514100827986;-;-;9.458786;-2.435913;-2.2211304;-;-;-;-;-;-;-;-;-;-;-;-;-;-;-
1514100828006;-;-;8.23056;-2.652588;-1.832077;-;-;-;-;-;-;-;-;-;-;-;-;-;-;-
1514100828027;-;-;7.142395;-2.341339;-2.1936035;-;-;-;-;-;-;-;-;-;-;-;-;-;-;-
1514100828047;-;-;6.592926;-1.7188416;-2.405487;-;-;-;-;-;-;-;-;-;-;-;-;-;-;-
1514100828068;-;-;6.2720947;-1.1179047;-2.4318237;-;-;-;-;-;-;-;-;-;-;-;-;-;-;-
1514100828088;-;-;6.494766;-0.54689026;-2.1421204;-;-;-;-;-;-;-;-;-;-;-;-;-;-;-
1514100828108;-;-;7.190277;-0.18894958;-1.8153229;-;-;-;-;-;-;-;-;-;-;-;-;-;-;-
1514100828129;-;-;8.045013;-0.40682983;-2.06073;-;-;-;-;-;-;-;-;-;-;-;-;-;-;-
1514100828149;-;-;8.897339;-0.7120819;-2.3635864;-;-;-;-;-;-;-;-;-;-;-;-;-;-;-
1514100828169;-;-;9.600037;-0.43675232;-2.242691;-;-;-;-;-;-;-;-;-;-;-;-;-;-;-
1514100828189;-;-;10.130356;-0.20570374;-2.014038;-;-;-;-;-;-;-;-;-;-;-;-;-;-;-
1514100828210;-;-;10.539764;-0.20092773;-1.8093262;-;-;-;-;-;-;-;-;-;-;-;-;-;-;-
1514100828229;-;-;10.763626;-0.3577423;-1.8751678;-;-;-;-;-;-;-;-;-;-;-;-;-;-;-
1514100828249;-;-;10.637924;-0.26556396;-1.432251;-;-;-;-;-;-;-;-;-;-;-;-;-;-;-
1514100828270;-;-;9.789185;0.03251648;-0.5284424;-;-;-;-;-;-;-;-;-;-;-;-;-;-;-
1514100828290;-;-;8.863831;-0.24401855;-0.11303711;-;-;-;-;-;-;-;-;-;-;-;-;-;-;-
1514100828310;-;-;8.18866;-0.54089355;-0.35006714;-;-;-;-;-;-;-;-;-;-;-;-;-;-;-
1514100828330;-;-;8.09169;-0.4547119;-1.1700745;-;-;-;-;-;-;-;-;-;-;-;-;-;-;-
1514100828351;-;-;9.001495;-0.3469696;-6.545059;-;-;-;-;-;-;-;-;-;-;-;-;-;-;-
1514100828371;-;-;10.573288;-2.3114166;-7.5590057;-;-;-;-;-;-;-;-;-;-;-;-;-;-;-
1514100828391;-;-;9.076904;-2.1533966;-5.381485;-;-;-;-;-;-;-;-;-;-;-;-;-;-;-
1514100828411;-;-;8.265274;-0.48582458;-3.566681;-;-;-;-;-;-;-;-;-;-;-;-;-;-;-
1514100828432;-;-;8.262878;1.4965668;-3.111786;-;-;-;-;-;-;-;-;-;-;-;-;-;-;-
1514100828452;-;-;9.197815;0.517334;-3.7223053;-;-;-;-;-;-;-;-;-;-;-;-;-;-;-
1514100828472;-;-;12.310272;-2.0588226;-3.832428;-;-;-;-;-;-;-;-;-;-;-;-;-;-;-
1514100828493;-;-;14.795456;-2.8692627;-4.1772003;-;-;-;-;-;-;-;-;-;-;-;-;-;-;-
1514100828513;-;-;13.294296;-0.44033813;-3.448166;-;-;-;-;-;-;-;-;-;-;-;-;-;-;-
1514100828533;-;-;9.813126;0.8345642;-2.144516;-;-;-;-;-;-;-;-;-;-;-;-;-;-;-
1514100828553;-;-;6.2864685;0.32939148;-1.7398987;-;-;-;-;-;-;-;-;-;-;-;-;-;-;-
1514100828574;-;-;2.9070435;-0.36013794;-0.94143677;-;-;-;-;-;-;-;-;-;-;-;-;-;-;-
1514100828594;-;-;0.9342346;-0.5361023;-0.41111755;-;-;-;-;-;-;-;-;-;-;-;-;-;-;-
1514100828614;-;-;1.5495453;-0.21409607;-0.4159088;-;-;-;-;-;-;-;-;-;-;-;-;-;-;-
1514100828635;-;-;3.9988098;0.51135254;-0.12501526;-;-;-;-;-;-;-;-;-;-;-;-;-;-;-
1514100828656;-;-;5.4568787;1.046463;-0.38957214;-;-;-;-;-;-;-;-;-;-;-;-;-;-;-
1514100828675;-;-;6.4995575;0.8417511;-0.53800964;-;-;-;-;-;-;-;-;-;-;-;-;-;-;-
1514100828695;-;-;7.7134094;0.12948608;-1.2131805;-;-;-;-;-;-;-;-;-;-;-;-;-;-;-
1514100828715;-;-;8.122818;-0.6354675;-1.1377563;-;-;-;-;-;-;-;-;-;-;-;-;-;-;-
1514100828736;-;-;7.906143;-0.94911194;-1.4992828;-;-;-;-;-;-;-;-;-;-;-;-;-;-;-
1514100828756;-;-;7.008316;-0.19134521;-1.8572235;-;-;-;-;-;-;-;-;-;-;-;-;-;-;-
1514100828776;-;-;6.494766;0.8309784;-1.6992035;-;-;-;-;-;-;-;-;-;-;-;-;-;-;-
1514100828796;-;-;6.632431;1.2763062;-1.9194641;-;-;-;-;-;-;-;-;-;-;-;-;-;-;-
1514100828816;-;-;7.67511;1.0919495;-2.5646973;-;-;-;-;-;-;-;-;-;-;-;-;-;-;-
1514100828836;-;-;8.797989;0.7136688;-2.8412323;-;-;-;-;-;-;-;-;-;-;-;-;-;-;-
1514100828856;-;-;9.3103485;0.84295654;-2.6113892;-;-;-;-;-;-;-;-;-;-;-;-;-;-;-
1514100828876;-;-;9.6622925;0.88246155;-2.488083;-;-;-;-;-;-;-;-;-;-;-;-;-;-;-
1514100828896;-;-;9.37619;1.1745453;-6.235016;-;-;-;-;-;-;-;-;-;-;-;-;-;-;-
1514100828916;-;-;8.96199;0.88604736;-7.1196747;-;-;-;-;-;-;-;-;-;-;-;-;-;-;-
1514100828936;-;-;9.035004;-1.273529;-4.258606;-;-;-;-;-;-;-;-;-;-;-;-;-;-;-
1514100828956;-;-;9.629974;-2.6621552;-2.9214478;-;-;-;-;-;-;-;-;-;-;-;-;-;-;-
1514100828977;-;-;12.012207;-1.5476532;-6.864685;-;-;-;-;-;-;-;-;-;-;-;-;-;-;-
1514100828998;-;-;19.131363;-2.6980743;-1.0910797;-;-;-;-;-;-;-;-;-;-;-;-;-;-;-
1514100829019;-;-;21.355576;-2.772293;-6.5175323;-;-;-;-;-;-;-;-;-;-;-;-;-;-;-
1514100829039;-;-;17.570343;-2.4263306;-3.3595734;-;-;-;-;-;-;-;-;-;-;-;-;-;-;-
1514100829060;-;-;11.527374;-0.105148315;0.19821167;-;-;-;-;-;-;-;-;-;-;-;-;-;-;-
1514100829080;-;-;7.9755707;1.5588226;-0.64456177;-;-;-;-;-;-;-;-;-;-;-;-;-;-;-
1514100829100;-;-;4.769745;1.4810028;-1.3077545;-;-;-;-;-;-;-;-;-;-;-;-;-;-;-
1514100829121;-;-;2.9238129;-0.289505;-1.8572235;-;-;-;-;-;-;-;-;-;-;-;-;-;-;-
1514100829141;-;-;3.8036804;-1.8648987;-1.5830841;-;-;-;-;-;-;-;-;-;-;-;-;-;-;-
1514100829161;-;-;6.727005;-1.530899;-0.77264404;-;-;-;-;-;-;-;-;-;-;-;-;-;-;-
1514100829182;-;-;7.890579;-0.79707336;-0.81095886;-;-;-;-;-;-;-;-;-;-;-;-;-;-;-
1514100829202;-;-;7.453644;-0.13508606;-0.32133484;-;-;-;-;-;-;-;-;-;-;-;-;-;-;-
1514100829222;-;-;6.0219116;-0.80067444;-1.1138153;-;-;-;-;-;-;-;-;-;-;-;-;-;-;-
1514100829243;-;-;5.912964;-1.9187622;-1.3819733;-;-;-;-;-;-;-;-;-;-;-;-;-;-;-
1514100829263;-;-;6.7533417;-2.5101318;-1.4909058;-;-;-;-;-;-;-;-;-;-;-;-;-;-;-
1514100829283;-;-;7.2633057;-2.1521912;-0.38478088;-;-;-;-;-;-;-;-;-;-;-;-;-;-;-
1514100829304;-;-;7.699051;-1.1274719;-0.8720093;-;-;-;-;-;-;-;-;-;-;-;-;-;-;-
1514100829325;-;-;7.473984;-0.7300415;-1.4741516;-;-;-;-;-;-;-;-;-;-;-;-;-;-;-
1514100829346;-;-;6.888611;-0.45710754;-1.2802124;-;-;-;-;-;-;-;-;-;-;-;-;-;-;-
1514100829366;-;-;7.778061;-0.24760437;-0.9629822;-;-;-;-;-;-;-;-;-;-;-;-;-;-;-
1514100829386;-;-;8.952408;-0.40682983;-2.8053284;-;-;-;-;-;-;-;-;-;-;-;-;-;-;-
1514100829407;-;-;9.73053;-1.0843811;-3.4697113;-;-;-;-;-;-;-;-;-;-;-;-;-;-;-
1514100829427;-;-;9.284012;-1.2998657;-4.1460724;-;-;-;-;-;-;-;-;-;-;-;-;-;-;-
1514100829447;-;-;9.245697;-0.7013092;-4.571045;-;-;-;-;-;-;-;-;-;-;-;-;-;-;-
1514100829467;-;-;10.350616;1.995758;-3.820465;-;-;-;-;-;-;-;-;-;-;-;-;-;-;-
1514100829488;-;-;12.066071;4.846054;-1.064743;-;-;-;-;-;-;-;-;-;-;-;-;-;-;-
1514100829508;-;-;14.402817;4.0643463;-1.9709473;-;-;-;-;-;-;-;-;-;-;-;-;-;-;-
1514100829528;-;-;19.716736;1.9885712;-3.9174347;-;-;-;-;-;-;-;-;-;-;-;-;-;-;-
1514100829548;-;-;20.450562;-2.4251404;-3.0423431;-;-;-;-;-;-;-;-;-;-;-;-;-;-;-
1514100829569;-;-;14.141846;-2.598709;-1.6333618;-;-;-;-;-;-;-;-;-;-;-;-;-;-;-
1514100829589;-;-;8.854248;-0.16619873;-0.5056915;-;-;-;-;-;-;-;-;-;-;-;-;-;-;-
1514100829609;-;-;5.1635895;1.8952026;-0.6996155;-;-;-;-;-;-;-;-;-;-;-;-;-;-;-
1514100829630;-;-;2.4832764;2.8145752;0.023422241;-;-;-;-;-;-;-;-;-;-;-;-;-;-;-
1514100829650;-;-;1.9062805;2.078354;0.39453125;-;-;-;-;-;-;-;-;-;-;-;-;-;-;-
1514100829670;-;-;3.7282562;0.13546753;0.27482605;-;-;-;-;-;-;-;-;-;-;-;-;-;-;-
1514100829691;-;-;6.2553406;-0.7408142;-0.55836487;-;-;-;-;-;-;-;-;-;-;-;-;-;-;-
1514100829711;-;-;7.12204;-0.36132813;-0.93785095;-;-;-;-;-;-;-;-;-;-;-;-;-;-;-
1514100829731;-;-;7.5003204;0.31143188;-0.867218;-;-;-;-;-;-;-;-;-;-;-;-;-;-;-
1514100829752;-;-;7.2716827;1.2104645;-0.89953613;-;-;-;-;-;-;-;-;-;-;-;-;-;-;-
1514100829772;-;-;6.475601;1.5827637;-1.6489258;-;-;-;-;-;-;-;-;-;-;-;-;-;-;-
1514100829792;-;-;5.3898315;1.0727997;-1.5184326;-;-;-;-;-;-;-;-;-;-;-;-;-;-;-
1514100829813;-;-;4.7972717;0.79985046;-0.52005005;-;-;-;-;-;-;-;-;-;-;-;-;-;-;-
1514100829834;-;-;6.244568;0.8692932;-1.1892395;-;-;-;-;-;-;-;-;-;-;-;-;-;-;-
1514100829854;-;-;7.924103;0.79985046;-1.4944916;-;-;-;-;-;-;-;-;-;-;-;-;-;-;-
1514100829874;-;-;8.771652;0.58917236;-2.005661;-;-;-;-;-;-;-;-;-;-;-;-;-;-;-
1514100829895;-;-;9.608414;0.5065613;-2.5204163;-;-;-;-;-;-;-;-;-;-;-;-;-;-;-
1514100829915;-;-;10.774399;0.5771942;-3.1381226;-;-;-;-;-;-;-;-;-;-;-;-;-;-;-
1514100829935;-;-;10.692993;1.145813;-4.8451843;-;-;-;-;-;-;-;-;-;-;-;-;-;-;-
1514100829956;-;-;8.958389;0.7400055;-5.5299225;-;-;-;-;-;-;-;-;-;-;-;-;-;-;-
1514100829976;-;-;8.437653;-2.1222687;-4.4537354;-;-;-;-;-;-;-;-;-;-;-;-;-;-;-
1514100829996;-;-;8.048599;-4.6601257;-2.247467;-;-;-;-;-;-;-;-;-;-;-;-;-;-;-
1514100830017;-;-;10.970718;-3.9981232;-1.3592224;-;-;-;-;-;-;-;-;-;-;-;-;-;-;-
1514100830036;-;-;16.82454;-2.2802887;-1.4107056;-;-;-;-;-;-;-;-;-;-;-;-;-;-;-
1514100830056;-;-;22.946518;-4.470978;-5.3719025;-;-;-;-;-;-;-;-;-;-;-;-;-;-;-
1514100830076;-;-;21.664429;-2.870453;-4.184387;-;-;-;-;-;-;-;-;-;-;-;-;-;-;-
1514100830096;-;-;16.758698;0.8788605;-1.5196381;-;-;-;-;-;-;-;-;-;-;-;-;-;-;-
1514100830116;-;-;10.563705;2.5655823;-0.81933594;-;-;-;-;-;-;-;-;-;-;-;-;-;-;-
1514100830136;-;-;5.584961;1.8473206;-1.0862885;-;-;-;-;-;-;-;-;-;-;-;-;-;-;-
1514100830157;-;-;1.817688;-0.77433777;-1.2718353;-;-;-;-;-;-;-;-;-;-;-;-;-;-;-
1514100830178;-;-;2.217514;-3.2451477;-1.7315216;-;-;-;-;-;-;-;-;-;-;-;-;-;-;-
1514100830198;-;-;5.655594;-2.6082916;-1.2526855;-;-;-;-;-;-;-;-;-;-;-;-;-;-;-
1514100830218;-;-;6.596512;-1.4794312;-0.88157654;-;-;-;-;-;-;-;-;-;-;-;-;-;-;-
1514100830238;-;-;5.466446;-0.92037964;-1.5064697;-;-;-;-;-;-;-;-;-;-;-;-;-;-;-
1514100830259;-;-;3.9413452;-0.59117126;-1.4370422;-;-;-;-;-;-;-;-;-;-;-;-;-;-;-
1514100830279;-;-;3.6061554;-0.8174286;-0.8779907;-;-;-;-;-;-;-;-;-;-;-;-;-;-;-
1514100830299;-;-;4.418991;-1.5476532;-0.40034485;-;-;-;-;-;-;-;-;-;-;-;-;-;-;-
1514100830320;-;-;5.6986847;-1.799057;-0.04600525;-;-;-;-;-;-;-;-;-;-;-;-;-;-;-
1514100830340;-;-;7.948044;-1.5380859;0.5944519;-;-;-;-;-;-;-;-;-;-;-;-;-;-;-
1514100830360;-;-;9.082901;-1.8170013;0.66267395;-;-;-;-;-;-;-;-;-;-;-;-;-;-;-
1514100830381;-;-;8.24852;-3.9705963;-2.2917633;-;-;-;-;-;-;-;-;-;-;-;-;-;-;-
1514100830400;-;-;5.5789795;-4.1286163;-3.678009;-;-;-;-;-;-;-;-;-;-;-;-;-;-;-
1514100830420;-;-;4.8463593;0.08998108;-6.3331757;-;-;-;-;-;-;-;-;-;-;-;-;-;-;-
1514100830440;-;-;7.221405;4.877182;-3.8827057;-;-;-;-;-;-;-;-;-;-;-;-;-;-;-
1514100830461;-;-;12.673004;6.0060425;-3.7151184;-;-;-;-;-;-;-;-;-;-;-;-;-;-;-
1514100830481;-;-;20.275787;3.3616486;-3.6109772;-;-;-;-;-;-;-;-;-;-;-;-;-;-;-
1514100830502;-;-;24.565002;0.8920288;-3.0088348;-;-;-;-;-;-;-;-;-;-;-;-;-;-;-
1514100830522;-;-;25.82315;3.1593475;-8.149185;-;-;-;-;-;-;-;-;-;-;-;-;-;-;-
1514100830542;-;-;19.725113;1.1553955;-3.5930176;-;-;-;-;-;-;-;-;-;-;-;-;-;-;-
1514100830562;-;-;11.613571;-0.92037964;-1.045578;-;-;-;-;-;-;-;-;-;-;-;-;-;-;-
1514100830582;-;-;5.4006042;-0.7982788;-1.7087708;-;-;-;-;-;-;-;-;-;-;-;-;-;-;-
1514100830603;-;-;2.3025208;0.7400055;-1.9374237;-;-;-;-;-;-;-;-;-;-;-;-;-;-;-
1514100830623;-;-;2.4509583;2.1789093;-0.63616943;-;-;-;-;-;-;-;-;-;-;-;-;-;-;-
1514100830643;-;-;3.1321106;2.2100372;-0.40753174;-;-;-;-;-;-;-;-;-;-;-;-;-;-;-
1514100830664;-;-;3.8491669;0.9590759;-0.5978699;-;-;-;-;-;-;-;-;-;-;-;-;-;-;-
1514100830683;-;-;4.180771;-0.19013977;-0.7989807;-;-;-;-;-;-;-;-;-;-;-;-;-;-;-
1514100830704;-;-;5.134857;-1.1382446;-0.7187805;-;-;-;-;-;-;-;-;-;-;-;-;-;-;-
1514100830724;-;-;5.9033966;-1.8074341;-0.90312195;-;-;-;-;-;-;-;-;-;-;-;-;-;-;-
1514100830744;-;-;5.198303;-1.1011353;-0.8959503;-;-;-;-;-;-;-;-;-;-;-;-;-;-;-
1514100830764;-;-;4.2705536;-0.51815796;-1.4729462;-;-;-;-;-;-;-;-;-;-;-;-;-;-;-
1514100830785;-;-;4.611725;-0.28231812;-2.0583344;-;-;-;-;-;-;-;-;-;-;-;-;-;-;-
1514100830805;-;-;6.2816772;0.5305023;-1.7806091;-;-;-;-;-;-;-;-;-;-;-;-;-;-;-
1514100830825;-;-;7.8965607;2.79422;-0.9653778;-;-;-;-;-;-;-;-;-;-;-;-;-;-;-
1514100830846;-;-;9.208588;4.963379;-0.5248413;-;-;-;-;-;-;-;-;-;-;-;-;-;-;-
1514100830866;-;-;9.723343;4.1206055;-2.55513;-;-;-;-;-;-;-;-;-;-;-;-;-;-;-
1514100830886;-;-;9.264847;2.1645508;-5.0247498;-;-;-;-;-;-;-;-;-;-;-;-;-;-;-
1514100830907;-;-;8.193451;0.6645813;-8.7202;-;-;-;-;-;-;-;-;-;-;-;-;-;-;-
1514100830927;-;-;7.6571503;-0.94551086;-6.545059;-;-;-;-;-;-;-;-;-;-;-;-;-;-;-
1514100830947;-;-;6.5869446;-1.6625824;-3.1093903;-;-;-;-;-;-;-;-;-;-;-;-;-;-;-
1514100830968;-;-;8.325134;-2.3030243;-1.0312195;-;-;-;-;-;-;-;-;-;-;-;-;-;-;-
1514100830988;-;-;13.475052;-3.361267;-4.7003326;-;-;-;-;-;-;-;-;-;-;-;-;-;-;-
1514100831008;-;-;27.151932;-4.506897;3.5453033;-;-;-;-;-;-;-;-;-;-;-;-;-;-;-
1514100831029;-;-;24.824768;-4.178894;-5.781311;-;-;-;-;-;-;-;-;-;-;-;-;-;-;-
1514100831049;-;-;18.862015;0.84654236;1.04216;-;-;-;-;-;-;-;-;-;-;-;-;-;-;-
1514100831069;-;-;12.346191;1.3864288;2.414032;-;-;-;-;-;-;-;-;-;-;-;-;-;-;-
1514100831090;-;-;7.909729;-0.25598145;1.0086365;-;-;-;-;-;-;-;-;-;-;-;-;-;-;-
1514100831110;-;-;5.213867;-2.111496;-0.966568;-;-;-;-;-;-;-;-;-;-;-;-;-;-;-
1514100831130;-;-;3.699524;-2.708847;-2.029602;-;-;-;-;-;-;-;-;-;-;-;-;-;-;-
1514100831151;-;-;3.7881165;-3.1386108;-1.8979187;-;-;-;-;-;-;-;-;-;-;-;-;-;-;-
1514100831171;-;-;5.3539276;-2.3078156;-2.591034;-;-;-;-;-;-;-;-;-;-;-;-;-;-;-
1514100831191;-;-;7.1376038;-0.3697052;-1.5495605;-;-;-;-;-;-;-;-;-;-;-;-;-;-;-
1514100831211;-;-;5.6196747;0.25637817;-0.77622986;-;-;-;-;-;-;-;-;-;-;-;-;-;-;-
1514100831232;-;-;3.5415192;-0.39485168;-1.1078339;-;-;-;-;-;-;-;-;-;-;-;-;-;-;-
1514100831252;-;-;2.6305237;-1.6278687;-1.737503;-;-;-;-;-;-;-;-;-;-;-;-;-;-;-
1514100831272;-;-;3.09021;-1.9977722;-1.7051849;-;-;-;-;-;-;-;-;-;-;-;-;-;-;-
1514100831293;-;-;4.6967163;-1.3309784;-0.3620453;-;-;-;-;-;-;-;-;-;-;-;-;-;-;-
1514100831312;-;-;6.229004;-0.49899292;0.8374634;-;-;-;-;-;-;-;-;-;-;-;-;-;-;-
1514100831332;-;-;8.086899;-0.9048157;0.62916565;-;-;-;-;-;-;-;-;-;-;-;-;-;-;-
1514100831353;-;-;9.529419;-2.6023102;1.1391296;-;-;-;-;-;-;-;-;-;-;-;-;-;-;-
1514100831373;-;-;9.080505;-4.022064;-0.4745636;-;-;-;-;-;-;-;-;-;-;-;-;-;-;-
1514100831393;-;-;8.276047;-2.9865723;-1.9577789;-;-;-;-;-;-;-;-;-;-;-;-;-;-;-
1514100831414;-;-;7.961212;1.4331207;-7.802017;-;-;-;-;-;-;-;-;-;-;-;-;-;-;-
1514100831434;-;-;8.340698;4.1325836;-6.7042847;-;-;-;-;-;-;-;-;-;-;-;-;-;-;-
1514100831454;-;-;11.988251;4.9693604;-2.524002;-;-;-;-;-;-;-;-;-;-;-;-;-;-;-
1514100831475;-;-;16.794617;2.5476227;0.6830292;-;-;-;-;-;-;-;-;-;-;-;-;-;-;-
1514100831495;-;-;17.619415;-0.3589325;-2.2594452;-;-;-;-;-;-;-;-;-;-;-;-;-;-;-
1514100831515;-;-;22.715485;1.6270447;-4.148468;-;-;-;-;-;-;-;-;-;-;-;-;-;-;-
1514100831536;-;-;22.094177;0.9997711;-2.89151;-;-;-;-;-;-;-;-;-;-;-;-;-;-;-
1514100831556;-;-;15.313797;-0.7384186;-1.9948883;-;-;-;-;-;-;-;-;-;-;-;-;-;-;-
1514100831576;-;-;8.861435;-0.72525024;-1.3688049;-;-;-;-;-;-;-;-;-;-;-;-;-;-;-
1514100831596;-;-;3.3894806;-0.04170227;-1.6549072;-;-;-;-;-;-;-;-;-;-;-;-;-;-;-
1514100831617;-;-;1.1676636;1.0691986;-1.5591431;-;-;-;-;-;-;-;-;-;-;-;-;-;-;-
1514100831637;-;-;1.3639832;2.0651855;-0.8863678;-;-;-;-;-;-;-;-;-;-;-;-;-;-;-
1514100831657;-;-;2.312088;1.9861755;-0.39076233;-;-;-;-;-;-;-;-;-;-;-;-;-;-;-
1514100831677;-;-;3.6815796;0.78549194;-0.0076904297;-;-;-;-;-;-;-;-;-;-;-;-;-;-;-
1514100831698;-;-;5.529892;-0.5133667;0.29637146;-;-;-;-;-;-;-;-;-;-;-;-;-;-;-
1514100831718;-;-;6.308014;-0.9107971;-0.35725403;-;-;-;-;-;-;-;-;-;-;-;-;-;-;-
1514100831738;-;-;6.206253;0.58078;-0.29978943;-;-;-;-;-;-;-;-;-;-;-;-;-;-;-
1514100831758;-;-;5.418564;2.2818604;-1.1078339;-;-;-;-;-;-;-;-;-;-;-;-;-;-;-
1514100831779;-;-;4.972046;2.4051666;-2.1828308;-;-;-;-;-;-;-;-;-;-;-;-;-;-;-
1514100831799;-;-;6.1595764;1.2774963;-2.1708527;-;-;-;-;-;-;-;-;-;-;-;-;-;-;-
1514100831819;-;-;7.93367;0.11869812;-0.93785095;-;-;-;-;-;-;-;-;-;-;-;-;-;-;-
1514100831840;-;-;9.322311;0.09954834;-1.6560974;-;-;-;-;-;-;-;-;-;-;-;-;-;-;-
1514100831859;-;-;9.365402;1.3253784;-1.1521301;-;-;-;-;-;-;-;-;-;-;-;-;-;-;-
1514100831879;-;-;7.3698425;1.6497955;-1.6860352;-;-;-;-;-;-;-;-;-;-;-;-;-;-;-
1514100831900;-;-;7.1172485;-0.3433838;-5.6316833;-;-;-;-;-;-;-;-;-;-;-;-;-;-;-
1514100831920;-;-;7.643982;-2.1402283;-7.4393005;-;-;-;-;-;-;-;-;-;-;-;-;-;-;-
1514100831941;-;-;10.396118;-1.664978;-6.035095;-;-;-;-;-;-;-;-;-;-;-;-;-;-;-
1514100831961;-;-;11.426819;-0.680954;-4.404648;-;-;-;-;-;-;-;-;-;-;-;-;-;-;-
1514100831981;-;-;15.04924;-1.388443;-6.7988434;-;-;-;-;-;-;-;-;-;-;-;-;-;-;-
1514100832002;-;-;26.66951;-4.5930786;0.7440796;-;-;-;-;-;-;-;-;-;-;-;-;-;-;-
1514100832022;-;-;27.325516;-6.919052;-7.9049683;-;-;-;-;-;-;-;-;-;-;-;-;-;-;-
1514100832042;-;-;20.54155;-2.8620758;-3.3751373;-;-;-;-;-;-;-;-;-;-;-;-;-;-;-
1514100832063;-;-;8.037827;0.7076721;-0.11303711;-;-;-;-;-;-;-;-;-;-;-;-;-;-;-
1514100832083;-;-;2.4880676;1.1434174;-0.654129;-;-;-;-;-;-;-;-;-;-;-;-;-;-;-
1514100832103;-;-;0.99168396;0.4658661;-1.0719147;-;-;-;-;-;-;-;-;-;-;-;-;-;-;-
1514100832124;-;-;2.7286835;-1.2843018;-2.120575;-;-;-;-;-;-;-;-;-;-;-;-;-;-;-
1514100832144;-;-;6.723404;-1.7116699;-2.725113;-;-;-;-;-;-;-;-;-;-;-;-;-;-;-
1514100832164;-;-;8.485535;-0.9191742;-2.2187347;-;-;-;-;-;-;-;-;-;-;-;-;-;-;-
1514100832185;-;-;6.8311462;-1.2843018;-1.5064697;-;-;-;-;-;-;-;-;-;-;-;-;-;-;-
1514100832204;-;-;5.0450745;-2.289856;-0.8720093;-;-;-;-;-;-;-;-;-;-;-;-;-;-;-
1514100832224;-;-;4.7206573;-2.6489868;-0.8684082;-;-;-;-;-;-;-;-;-;-;-;-;-;-;-
1514100832244;-;-;6.3774414;-2.2527466;-1.2215576;-;-;-;-;-;-;-;-;-;-;-;-;-;-;-
1514100832264;-;-;6.8167877;-2.4502716;-1.0360107;-;-;-;-;-;-;-;-;-;-;-;-;-;-;-
1514100832284;-;-;6.426529;-3.3097992;-0.67567444;-;-;-;-;-;-;-;-;-;-;-;-;-;-;-
1514100832305;-;-;6.633621;-4.0855103;-0.22077942;-;-;-;-;-;-;-;-;-;-;-;-;-;-;-
1514100832325;-;-;7.0286713;-3.5647736;0.46754456;-;-;-;-;-;-;-;-;-;-;-;-;-;-;-
1514100832345;-;-;7.7565002;-2.4526672;0.44122314;-;-;-;-;-;-;-;-;-;-;-;-;-;-;-
1514100832366;-;-;7.9264984;-0.8162384;0.3538208;-;-;-;-;-;-;-;-;-;-;-;-;-;-;-
1514100832386;-;-;7.628418;-0.17578125;-0.5918884;-;-;-;-;-;-;-;-;-;-;-;-;-;-;-
1514100832406;-;-;7.7062225;-0.16500854;-0.41830444;-;-;-;-;-;-;-;-;-;-;-;-;-;-;-
1514100832426;-;-;8.806366;0.4119873;-0.0076904297;-;-;-;-;-;-;-;-;-;-;-;-;-;-;-
1514100832447;-;-;9.473145;-0.15542603;-4.8703156;-;-;-;-;-;-;-;-;-;-;-;-;-;-;-
1514100832467;-;-;10.756439;-1.3956299;-6.66597;-;-;-;-;-;-;-;-;-;-;-;-;-;-;-
1514100832487;-;-;11.678207;-0.22247314;-5.10376;-;-;-;-;-;-;-;-;-;-;-;-;-;-;-
1514100832508;-;-;12.317459;3.6884613;-4.441757;-;-;-;-;-;-;-;-;-;-;-;-;-;-;-
1514100832527;-;-;13.736023;6.2323;-2.8424377;-;-;-;-;-;-;-;-;-;-;-;-;-;-;-
1514100832547;-;-;12.219299;3.6561432;-1.966156;-;-;-;-;-;-;-;-;-;-;-;-;-;-;-
1514100832568;-;-;13.449921;1.0404663;-2.7083588;-;-;-;-;-;-;-;-;-;-;-;-;-;-;-
1514100832588;-;-;15.098328;-1.1993103;-2.9765015;-;-;-;-;-;-;-;-;-;-;-;-;-;-;-
1514100832608;-;-;13.807846;-1.5093536;-2.254654;-;-;-;-;-;-;-;-;-;-;-;-;-;-;-
1514100832628;-;-;10.926422;-0.20092773;-1.5531616;-;-;-;-;-;-;-;-;-;-;-;-;-;-;-
1514100832649;-;-;8.386185;0.42277527;-1.5699158;-;-;-;-;-;-;-;-;-;-;-;-;-;-;-
1514100832669;-;-;6.5234985;1.2475739;-1.4825287;-;-;-;-;-;-;-;-;-;-;-;-;-;-;-
1514100832690;-;-;4.2023163;2.1334229;-1.8189087;-;-;-;-;-;-;-;-;-;-;-;-;-;-;-
1514100832710;-;-;2.149292;1.8509064;-1.610611;-;-;-;-;-;-;-;-;-;-;-;-;-;-;-
1514100832730;-;-;2.0224;0.9016113;-0.3045807;-;-;-;-;-;-;-;-;-;-;-;-;-;-;-
1514100832750;-;-;3.1153412;0.3796692;0.57289124;-;-;-;-;-;-;-;-;-;-;-;-;-;-;-
1514100832771;-;-;4.73143;0.18214417;-0.66371155;-;-;-;-;-;-;-;-;-;-;-;-;-;-;-
1514100832791;-;-;6.1679535;1.2475739;-2.9848938;-;-;-;-;-;-;-;-;-;-;-;-;-;-;-
1514100832811;-;-;6.7605133;2.8876038;-1.590271;-;-;-;-;-;-;-;-;-;-;-;-;-;-;-
1514100832831;-;-;8.74292;4.272644;1.6718292;-;-;-;-;-;-;-;-;-;-;-;-;-;-;-
1514100832852;-;-;11.867355;1.2691193;2.070465;-;-;-;-;-;-;-;-;-;-;-;-;-;-;-
1514100832872;-;-;12.656235;-2.2587433;-3.906662;-;-;-;-;-;-;-;-;-;-;-;-;-;-;-
1514100832892;-;-;11.17543;-2.3365479;-4.5914;-;-;-;-;-;-;-;-;-;-;-;-;-;-;-
1514100832913;-;-;8.1922455;0.4945984;1.433609;-;-;-;-;-;-;-;-;-;-;-;-;-;-;-
1514100832934;-;-;6.3032227;0.5520477;1.3797455;-;-;-;-;-;-;-;-;-;-;-;-;-;-;-
1514100832953;-;-;6.7880554;-2.2647247;-3.1847992;-;-;-;-;-;-;-;-;-;-;-;-;-;-;-
1514100832973;-;-;9.215775;-4.2914124;-7.857086;-;-;-;-;-;-;-;-;-;-;-;-;-;-;-
1514100832994;-;-;14.856506;-5.610626;-7.4428864;-;-;-;-;-;-;-;-;-;-;-;-;-;-;-
1514100833014;-;-;17.839691;-3.3983765;-9.604858;-;-;-;-;-;-;-;-;-;-;-;-;-;-;-
1514100833034;-;-;20.851593;-0.53012085;-7.189102;-;-;-;-;-;-;-;-;-;-;-;-;-;-;-
1514100833055;-;-;22.259384;-0.10635376;-8.121643;-;-;-;-;-;-;-;-;-;-;-;-;-;-;-
1514100833075;-;-;19.20079;-1.4746399;-5.89624;-;-;-;-;-;-;-;-;-;-;-;-;-;-;-
1514100833095;-;-;11.481888;-1.764328;-3.3595734;-;-;-;-;-;-;-;-;-;-;-;-;-;-;-
1514100833115;-;-;4.5111694;-1.2878876;-1.9625702;-;-;-;-;-;-;-;-;-;-;-;-;-;-;-
1514100833136;-;-;2.4353943;-1.6709595;-2.306137;-;-;-;-;-;-;-;-;-;-;-;-;-;-;-
1514100833156;-;-;3.0171814;-2.6094818;-2.2774048;-;-;-;-;-;-;-;-;-;-;-;-;-;-;-
1514100833176;-;-;5.210266;-2.2683105;-2.2199402;-;-;-;-;-;-;-;-;-;-;-;-;-;-;-
1514100833197;-;-;5.9117737;-0.94911194;-2.2905731;-;-;-;-;-;-;-;-;-;-;-;-;-;-;-
1514100833218;-;-;5.845932;-0.61990356;-2.203186;-;-;-;-;-;-;-;-;-;-;-;-;-;-;-
1514100833239;-;-;4.802063;-1.4566803;-1.274231;-;-;-;-;-;-;-;-;-;-;-;-;-;-;-
1514100833259;-;-;4.893036;-2.1653595;-0.80496216;-;-;-;-;-;-;-;-;-;-;-;-;-;-;-
1514100833279;-;-;6.297241;-2.056427;-0.7103882;-;-;-;-;-;-;-;-;-;-;-;-;-;-;-
1514100833299;-;-;7.750519;-1.8050385;-0.7846222;-;-;-;-;-;-;-;-;-;-;-;-;-;-;-
1514100833320;-;-;8.698624;-2.0312958;-1.1616974;-;-;-;-;-;-;-;-;-;-;-;-;-;-;-
1514100833340;-;-;8.793198;-2.7651062;-3.1297302;-;-;-;-;-;-;-;-;-;-;-;-;-;-;-
1514100833360;-;-;9.990295;-2.7818756;-4.4513397;-;-;-;-;-;-;-;-;-;-;-;-;-;-;-
1514100833381;-;-;11.285553;-0.51815796;-1.7578583;-;-;-;-;-;-;-;-;-;-;-;-;-;-;-
1514100833400;-;-;12.112762;0.71965027;-0.38478088;-;-;-;-;-;-;-;-;-;-;-;-;-;-;-
1514100833421;-;-;12.979462;1.0991364;-0.7738342;-;-;-;-;-;-;-;-;-;-;-;-;-;-;-
1514100833441;-;-;11.19339;-0.8497467;-3.2554321;-;-;-;-;-;-;-;-;-;-;-;-;-;-;-
1514100833461;-;-;9.388153;-1.882843;-5.6759644;-;-;-;-;-;-;-;-;-;-;-;-;-;-;-
1514100833481;-;-;8.288025;-2.3904114;-9.955612;-;-;-;-;-;-;-;-;-;-;-;-;-;-;-
1514100833502;-;-;6.7533417;-1.3561249;-7.4704285;-;-;-;-;-;-;-;-;-;-;-;-;-;-;-
1514100833522;-;-;6.4373016;1.0392761;-3.3954926;-;-;-;-;-;-;-;-;-;-;-;-;-;-;-
1514100833542;-;-;9.306747;0.46347046;-0.922287;-;-;-;-;-;-;-;-;-;-;-;-;-;-;-
1514100833563;-;-;13.561249;-2.7447662;-3.3404236;-;-;-;-;-;-;-;-;-;-;-;-;-;-;-
1514100833582;-;-;17.63858;-5.3161316;-5.0786133;-;-;-;-;-;-;-;-;-;-;-;-;-;-;-
1514100833602;-;-;15.755539;-3.210434;-5.373108;-;-;-;-;-;-;-;-;-;-;-;-;-;-;-
1514100833622;-;-;11.711731;0.28988647;-4.0036163;-;-;-;-;-;-;-;-;-;-;-;-;-;-;-
1514100833642;-;-;6.261322;0.7735138;-2.9669342;-;-;-;-;-;-;-;-;-;-;-;-;-;-;-
1514100833663;-;-;1.9086609;-0.21887207;-2.4019012;-;-;-;-;-;-;-;-;-;-;-;-;-;-;-
1514100833684;-;-;-0.4699707;-1.0448761;-2.7011719;-;-;-;-;-;-;-;-;-;-;-;-;-;-;-
1514100833704;-;-;0.6493225;-0.56604004;-2.8244781;-;-;-;-;-;-;-;-;-;-;-;-;-;-;-
1514100833724;-;-;3.857544;0.89442444;-3.3667603;-;-;-;-;-;-;-;-;-;-;-;-;-;-;-
1514100833744;-;-;6.849106;2.2734833;-3.0315704;-;-;-;-;-;-;-;-;-;-;-;-;-;-;-
1514100833764;-;-;9.682648;2.450653;-2.2450714;-;-;-;-;-;-;-;-;-;-;-;-;-;-;-
1514100833785;-;-;11.005432;2.2770844;-2.3779602;-;-;-;-;-;-;-;-;-;-;-;-;-;-;-
1514100833805;-;-;9.74968;2.7283783;-3.808487;-;-;-;-;-;-;-;-;-;-;-;-;-;-;-
1514100833825;-;-;8.610046;3.2084198;-3.6744232;-;-;-;-;-;-;-;-;-;-;-;-;-;-;-
1514100833846;-;-;8.740524;2.5907135;-2.7406769;-;-;-;-;-;-;-;-;-;-;-;-;-;-;-
1514100833865;-;-;9.273239;1.7096558;-3.3272552;-;-;-;-;-;-;-;-;-;-;-;-;-;-;-
1514100833886;-;-;8.09169;1.789856;-3.4074707;-;-;-;-;-;-;-;-;-;-;-;-;-;-;-
1514100833906;-;-;7.3626556;2.4159393;-1.0539703;-;-;-;-;-;-;-;-;-;-;-;-;-;-;-
1514100833926;-;-;6.546234;1.9574585;0.7428894;-;-;-;-;-;-;-;-;-;-;-;-;-;-;-
1514100833947;-;-;7.6272125;0.43354797;-2.2534637;-;-;-;-;-;-;-;-;-;-;-;-;-;-;-
1514100833967;-;-;9.086487;-1.2902832;-7.4943695;-;-;-;-;-;-;-;-;-;-;-;-;-;-;-
1514100833987;-;-;15.218033;-5.226349;-7.3567047;-;-;-;-;-;-;-;-;-;-;-;-;-;-;-
1514100834008;-;-;15.261124;-4.649353;-7.9456787;-;-;-;-;-;-;-;-;-;-;-;-;-;-;-
1514100834029;-;-;10.756439;-0.6713867;-7.414154;-;-;-;-;-;-;-;-;-;-;-;-;-;-;-
1514100834048;-;-;10.150711;1.9059753;-6.1572113;-;-;-;-;-;-;-;-;-;-;-;-;-;-;-
1514100834068;-;-;9.804749;3.5471954;-4.092209;-;-;-;-;-;-;-;-;-;-;-;-;-;-;-
1514100834088;-;-;9.036209;0.63105774;-4.1305084;-;-;-;-;-;-;-;-;-;-;-;-;-;-;-
1514100834108;-;-;7.51709;-1.8134155;-3.7665863;-;-;-;-;-;-;-;-;-;-;-;-;-;-;-
1514100834129;-;-;7.387802;-2.479004;-3.1417084;-;-;-;-;-;-;-;-;-;-;-;-;-;-;-
1514100834149;-;-;6.584549;-2.190506;-3.4505615;-;-;-;-;-;-;-;-;-;-;-;-;-;-;-
1514100834169;-;-;5.999161;-2.5017548;-3.0662842;-;-;-;-;-;-;-;-;-;-;-;-;-;-;-
1514100834190;-;-;5.3407593;-2.4825897;-2.4569702;-;-;-;-;-;-;-;-;-;-;-;-;-;-;-
1514100834210;-;-;4.866699;-1.7379913;-2.6293488;-;-;-;-;-;-;-;-;-;-;-;-;-;-;-
1514100834230;-;-;4.9098053;-0.64863586;-2.9178467;-;-;-;-;-;-;-;-;-;-;-;-;-;-;-
1514100834251;-;-;5.517929;0.9866028;-2.9405975;-;-;-;-;-;-;-;-;-;-;-;-;-;-;-
1514100834272;-;-;6.515106;2.5488129;-3.1847992;-;-;-;-;-;-;-;-;-;-;-;-;-;-;-
1514100834292;-;-;7.8283386;2.8911896;-1.9374237;-;-;-;-;-;-;-;-;-;-;-;-;-;-;-
1514100834312;-;-;8.657928;1.595932;-1.2718353;-;-;-;-;-;-;-;-;-;-;-;-;-;-;-
1514100834332;-;-;9.469559;-0.5169525;-1.7422943;-;-;-;-;-;-;-;-;-;-;-;-;-;-;-
1514100834352;-;-;11.271194;-2.5436401;-1.5004883;-;-;-;-;-;-;-;-;-;-;-;-;-;-;-
1514100834373;-;-;13.178177;-3.5372467;-1.1030426;-;-;-;-;-;-;-;-;-;-;-;-;-;-;-
1514100834394;-;-;13.400833;-2.7746887;-1.3831635;-;-;-;-;-;-;-;-;-;-;-;-;-;-;-
1514100834414;-;-;11.139511;-3.0069275;-0.69602966;-;-;-;-;-;-;-;-;-;-;-;-;-;-;-
1514100834435;-;-;8.970367;-3.6042786;0.13835144;-;-;-;-;-;-;-;-;-;-;-;-;-;-;-
1514100834455;-;-;7.550598;-2.8285522;-1.1976166;-;-;-;-;-;-;-;-;-;-;-;-;-;-;-
1514100834475;-;-;7.0693665;-2.4670258;-10.97554;-;-;-;-;-;-;-;-;-;-;-;-;-;-;-
1514100834495;-;-;7.7409363;-1.5081482;-11.62915;-;-;-;-;-;-;-;-;-;-;-;-;-;-;-
1514100834516;-;-;6.750946;2.8433075;-7.857086;-;-;-;-;-;-;-;-;-;-;-;-;-;-;-
1514100834536;-;-;9.063736;6.545944;-1.5148468;-;-;-;-;-;-;-;-;-;-;-;-;-;-;-
1514100834556;-;-;12.301895;3.2383423;-5.247406;-;-;-;-;-;-;-;-;-;-;-;-;-;-;-
1514100834577;-;-;15.616669;-3.2331848;-7.6284485;-;-;-;-;-;-;-;-;-;-;-;-;-;-;-
1514100834597;-;-;17.417114;-5.8488464;-5.239029;-;-;-;-;-;-;-;-;-;-;-;-;-;-;-
1514100834617;-;-;12.239655;-1.289093;-3.4924622;-;-;-;-;-;-;-;-;-;-;-;-;-;-;-
1514100834637;-;-;7.7098236;0.99497986;-2.3193054;-;-;-;-;-;-;-;-;-;-;-;-;-;-;-
1514100834658;-;-;3.7210846;1.2427826;-1.2395172;-;-;-;-;-;-;-;-;-;-;-;-;-;-;-
1514100834678;-;-;0.5044708;0.9925842;-0.8755951;-;-;-;-;-;-;-;-;-;-;-;-;-;-;-
1514100834698;-;-;-0.86502075;0.7878876;-1.1413574;-;-;-;-;-;-;-;-;-;-;-;-;-;-;-
1514100834719;-;-;0.2566681;0.299469;-2.3204956;-;-;-;-;-;-;-;-;-;-;-;-;-;-;-
1514100834739;-;-;2.655655;0.47065735;-3.1249542;-;-;-;-;-;-;-;-;-;-;-;-;-;-;-
1514100834759;-;-;6.5115204;1.2056732;-1.322113;-;-;-;-;-;-;-;-;-;-;-;-;-;-;-
1514100834779;-;-;7.671509;0.5197296;-0.13937378;-;-;-;-;-;-;-;-;-;-;-;-;-;-;-
1514100834800;-;-;7.398575;-0.9862213;0.9918823;-;-;-;-;-;-;-;-;-;-;-;-;-;-;-
1514100834820;-;-;6.6144714;-2.9171448;0.7979584;-;-;-;-;-;-;-;-;-;-;-;-;-;-;-
1514100834840;-;-;5.8471375;-3.7563171;-0.6122284;-;-;-;-;-;-;-;-;-;-;-;-;-;-;-
1514100834861;-;-;5.6819305;-1.6817322;-2.115799;-;-;-;-;-;-;-;-;-;-;-;-;-;-;-
1514100834881;-;-;6.62764;2.0855408;-3.0447388;-;-;-;-;-;-;-;-;-;-;-;-;-;-;-
1514100834901;-;-;8.734543;5.186035;-2.9477692;-;-;-;-;-;-;-;-;-;-;-;-;-;-;-
1514100834922;-;-;11.574066;4.854431;-3.4457703;-;-;-;-;-;-;-;-;-;-;-;-;-;-;-
1514100834942;-;-;10.032196;1.8652802;-3.5978088;-;-;-;-;-;-;-;-;-;-;-;-;-;-;-
1514100834962;-;-;8.449631;1.367279;-2.781372;-;-;-;-;-;-;-;-;-;-;-;-;-;-;-
1514100834983;-;-;5.455673;1.3696747;-7.3926086;-;-;-;-;-;-;-;-;-;-;-;-;-;-;-
1514100835004;-;-;3.7569885;-0.6689911;-9.674286;-;-;-;-;-;-;-;-;-;-;-;-;-;-;-
1514100835023;-;-;6.833542;-2.6154785;-11.70816;-;-;-;-;-;-;-;-;-;-;-;-;-;-;-
1514100835043;-;-;13.801865;-3.5049133;-5.6831512;-;-;-;-;-;-;-;-;-;-;-;-;-;-;-
1514100835063;-;-;22.529922;-2.9829865;-6.595337;-;-;-;-;-;-;-;-;-;-;-;-;-;-;-
1514100835084;-;-;24.744568;-1.5033722;-3.5475311;-;-;-;-;-;-;-;-;-;-;-;-;-;-;-
1514100835103;-;-;22.546692;-3.0583954;-6.211075;-;-;-;-;-;-;-;-;-;-;-;-;-;-;-
1514100835124;-;-;17.202835;-3.9011536;-3.567871;-;-;-;-;-;-;-;-;-;-;-;-;-;-;-
1514100835143;-;-;8.661514;-4.563156;-0.37521362;-;-;-;-;-;-;-;-;-;-;-;-;-;-;-
1514100835163;-;-;1.6321411;-3.2295837;-2.2331085;-;-;-;-;-;-;-;-;-;-;-;-;-;-;-
1514100835183;-;-;-0.72016907;-0.9766388;-3.3152924;-;-;-;-;-;-;-;-;-;-;-;-;-;-;-
1514100835204;-;-;-0.27604675;0.67655945;-3.1488953;-;-;-;-;-;-;-;-;-;-;-;-;-;-;-
1514100835223;-;-;4.548279;0.9291382;-2.5036469;-;-;-;-;-;-;-;-;-;-;-;-;-;-;-
1514100835243;-;-;7.593704;0.0061798096;-2.5934296;-;-;-;-;-;-;-;-;-;-;-;-;-;-;-
1514100835263;-;-;7.3111877;-0.7958832;-2.507248;-;-;-;-;-;-;-;-;-;-;-;-;-;-;-
1514100835283;-;-;6.4241333;-1.0197449;-2.076294;-;-;-;-;-;-;-;-;-;-;-;-;-;-;-
1514100835303;-;-;5.2354126;-0.92037964;-2.2690277;-;-;-;-;-;-;-;-;-;-;-;-;-;-;-
1514100835323;-;-;4.7493896;-0.9323425;-2.3743591;-;-;-;-;-;-;-;-;-;-;-;-;-;-;-
1514100835343;-;-;5.3251953;-0.85095215;-2.0882568;-;-;-;-;-;-;-;-;-;-;-;-;-;-;-
1514100835364;-;-;6.6815033;-1.1657867;-0.89115906;-;-;-;-;-;-;-;-;-;-;-;-;-;-;-
1514100835384;-;-;7.779251;-1.5883636;0.2233429;-;-;-;-;-;-;-;-;-;-;-;-;-;-;-
1514100835404;-;-;8.471176;-1.4842072;0.36579895;-;-;-;-;-;-;-;-;-;-;-;-;-;-;-
1514100835424;-;-;7.5122986;-2.3341522;-1.550766;-;-;-;-;-;-;-;-;-;-;-;-;-;-;-
1514100835445;-;-;6.5007477;-2.8524933;-2.4402008;-;-;-;-;-;-;-;-;-;-;-;-;-;-;-
1514100835464;-;-;6.0889435;-1.9750214;-3.195572;-;-;-;-;-;-;-;-;-;-;-;-;-;-;-
1514100835484;-;-;6.6551666;0.7244415;-6.6480103;-;-;-;-;-;-;-;-;-;-;-;-;-;-;-
1514100835504;-;-;9.974731;3.7926025;-7.452469;-;-;-;-;-;-;-;-;-;-;-;-;-;-;-
1514100835524;-;-;13.8246155;6.350815;-5.235443;-;-;-;-;-;-;-;-;-;-;-;-;-;-;-
1514100835544;-;-;16.21283;4.313339;-1.0563507;-;-;-;-;-;-;-;-;-;-;-;-;-;-;-
1514100835564;-;-;15.84053;2.1465912;-2.5599213;-;-;-;-;-;-;-;-;-;-;-;-;-;-;-
1514100835584;-;-;21.05391;2.8205566;-4.978058;-;-;-;-;-;-;-;-;-;-;-;-;-;-;-
1514100835604;-;-;23.484024;0.086380005;-5.0666504;-;-;-;-;-;-;-;-;-;-;-;-;-;-;-
1514100835624;-;-;16.162552;-1.5488586;-2.7322998;-;-;-;-;-;-;-;-;-;-;-;-;-;-;-
1514100835644;-;-;9.027832;-1.4758301;-2.0116425;-;-;-;-;-;-;-;-;-;-;-;-;-;-;-
1514100835664;-;-;3.3296204;-0.36013794;-1.8440552;-;-;-;-;-;-;-;-;-;-;-;-;-;-;-
1514100835684;-;-;0.31892395;1.5037537;-1.4346466;-;-;-;-;-;-;-;-;-;-;-;-;-;-;-
1514100835704;-;-;0.6301575;3.7578888;-1.3400726;-;-;-;-;-;-;-;-;-;-;-;-;-;-;-
1514100835725;-;-;2.43779;2.892395;-0.85523987;-;-;-;-;-;-;-;-;-;-;-;-;-;-;-
1514100835745;-;-;5.5909576;-0.11592102;-0.37400818;-;-;-;-;-;-;-;-;-;-;-;-;-;-;-
1514100835765;-;-;7.961212;-1.9498901;-0.3297119;-;-;-;-;-;-;-;-;-;-;-;-;-;-;-
1514100835785;-;-;7.8965607;-1.9415131;-0.95700073;-;-;-;-;-;-;-;-;-;-;-;-;-;-;-
1514100835805;-;-;7.292038;-0.9467163;-0.9174957;-;-;-;-;-;-;-;-;-;-;-;-;-;-;-
1514100835826;-;-;6.1607666;-0.078811646;-0.6397705;-;-;-;-;-;-;-;-;-;-;-;-;-;-;-
1514100835846;-;-;4.770935;-0.47984314;-0.9354553;-;-;-;-;-;-;-;-;-;-;-;-;-;-;-
1514100835866;-;-;4.9145813;-1.8301697;-0.04360962;-;-;-;-;-;-;-;-;-;-;-;-;-;-;-
1514100835886;-;-;8.043808;-0.4271698;0.8482361;-;-;-;-;-;-;-;-;-;-;-;-;-;-;-
1514100835907;-;-;10.059723;3.338913;0.022232056;-;-;-;-;-;-;-;-;-;-;-;-;-;-;-
1514100835927;-;-;9.845444;6.738678;-3.9497528;-;-;-;-;-;-;-;-;-;-;-;-;-;-;-
1514100835947;-;-;7.4177246;6.204773;-5.1935425;-;-;-;-;-;-;-;-;-;-;-;-;-;-;-
1514100835968;-;-;5.8950195;2.236374;-5.939331;-;-;-;-;-;-;-;-;-;-;-;-;-;-;-
1514100835988;-;-;5.3024445;-2.2958527;-6.734207;-;-;-;-;-;-;-;-;-;-;-;-;-;-;-
1514100836009;-;-;9.717361;-5.4190826;-6.444504;-;-;-;-;-;-;-;-;-;-;-;-;-;-;-
1514100836029;-;-;14.275925;-6.0391846;-4.301697;-;-;-;-;-;-;-;-;-;-;-;-;-;-;-
1514100836049;-;-;23.626465;-4.0855103;-3.7797546;-;-;-;-;-;-;-;-;-;-;-;-;-;-;-
1514100836069;-;-;27.81633;-4.1333923;-4.911026;-;-;-;-;-;-;-;-;-;-;-;-;-;-;-
1514100836089;-;-;21.15326;-3.3959808;-3.20755;-;-;-;-;-;-;-;-;-;-;-;-;-;-;-
1514100836110;-;-;13.123108;-1.131073;-0.6218109;-;-;-;-;-;-;-;-;-;-;-;-;-;-;-
1514100836130;-;-;7.4991302;0.03251648;0.587265;-;-;-;-;-;-;-;-;-;-;-;-;-;-;-
1514100836152;-;-;4.4812317;0.012161255;-0.12501526;-;-;-;-;-;-;-;-;-;-;-;-;-;-;-
1514100836172;-;-;2.0798492;-0.97784424;-1.6992035;-;-;-;-;-;-;-;-;-;-;-;-;-;-;-
1514100836192;-;-;2.0714722;-2.1234589;-2.0715027;-;-;-;-;-;-;-;-;-;-;-;-;-;-;-
1514100836212;-;-;5.885437;-1.2292328;-2.0715027;-;-;-;-;-;-;-;-;-;-;-;-;-;-;-
1514100836233;-;-;8.295197;0.048080444;-1.8296814;-;-;-;-;-;-;-;-;-;-;-;-;-;-;-
1514100836253;-;-;8.094086;-0.5600586;-1.6393433;-;-;-;-;-;-;-;-;-;-;-;-;-;-;-
1514100836273;-;-;6.5641937;-1.5787811;-1.6656799;-;-;-;-;-;-;-;-;-;-;-;-;-;-;-
1514100836294;-;-;5.1432343;-1.6757507;-2.0475616;-;-;-;-;-;-;-;-;-;-;-;-;-;-;-
1514100836314;-;-;4.518341;-1.1657867;-2.610199;-;-;-;-;-;-;-;-;-;-;-;-;-;-;-
1514100836334;-;-;4.2262573;-0.2775421;-2.4354248;-;-;-;-;-;-;-;-;-;-;-;-;-;-;-
1514100836354;-;-;5.4724426;0.8776703;-0.451828;-;-;-;-;-;-;-;-;-;-;-;-;-;-;-
1514100836375;-;-;6.695877;-0.09197998;1.136734;-;-;-;-;-;-;-;-;-;-;-;-;-;-;-
1514100836395;-;-;7.1878815;-2.2731018;0.7967529;-;-;-;-;-;-;-;-;-;-;-;-;-;-;-
1514100836415;-;-;7.317169;-3.7646942;-0.76426697;-;-;-;-;-;-;-;-;-;-;-;-;-;-;-
1514100836436;-;-;8.632782;-3.732376;-1.3472595;-;-;-;-;-;-;-;-;-;-;-;-;-;-;-
1514100836456;-;-;10.153107;-1.8134155;-1.7734222;-;-;-;-;-;-;-;-;-;-;-;-;-;-;-
1514100836476;-;-;9.571304;0.03491211;-3.2733917;-;-;-;-;-;-;-;-;-;-;-;-;-;-;-
1514100836497;-;-;10.2512665;1.6940918;-7.4716187;-;-;-;-;-;-;-;-;-;-;-;-;-;-;-
1514100836517;-;-;13.258377;3.4370728;-5.460495;-;-;-;-;-;-;-;-;-;-;-;-;-;-;-
1514100836537;-;-;13.15303;3.1066742;-0.86961365;-;-;-;-;-;-;-;-;-;-;-;-;-;-;-
1514100836557;-;-;14.102341;0.5747986;0.87457275;-;-;-;-;-;-;-;-;-;-;-;-;-;-;-
1514100836578;-;-;14.515335;1.0500488;-3.0471344;-;-;-;-;-;-;-;-;-;-;-;-;-;-;-
1514100836598;-;-;18.616608;4.8867645;-6.875458;-;-;-;-;-;-;-;-;-;-;-;-;-;-;-
1514100836618;-;-;16.558792;3.7279663;-3.1225586;-;-;-;-;-;-;-;-;-;-;-;-;-;-;-
1514100836639;-;-;11.59082;1.6497955;-2.867569;-;-;-;-;-;-;-;-;-;-;-;-;-;-;-
1514100836659;-;-;7.7301636;0.010971069;-1.1844482;-;-;-;-;-;-;-;-;-;-;-;-;-;-;-
1514100836679;-;-;5.3335724;-0.040512085;-0.93904114;-;-;-;-;-;-;-;-;-;-;-;-;-;-;-
1514100836699;-;-;4.192734;1.600708;-0.9474182;-;-;-;-;-;-;-;-;-;-;-;-;-;-;-
1514100836720;-;-;3.419403;2.0065308;-0.39794922;-;-;-;-;-;-;-;-;-;-;-;-;-;-;-
1514100836740;-;-;4.1556244;0.59394836;-0.020858765;-;-;-;-;-;-;-;-;-;-;-;-;-;-;-
1514100836760;-;-;5.763336;-0.20570374;-0.18486023;-;-;-;-;-;-;-;-;-;-;-;-;-;-;-
1514100836781;-;-;6.2397766;0.40600586;-0.3261261;-;-;-;-;-;-;-;-;-;-;-;-;-;-;-
1514100836801;-;-;4.945709;0.35572815;-0.1956482;-;-;-;-;-;-;-;-;-;-;-;-;-;-;-
1514100836821;-;-;4.438141;-0.86531067;0.49150085;-;-;-;-;-;-;-;-;-;-;-;-;-;-;-
1514100836841;-;-;5.8950195;-2.0983276;-0.88038635;-;-;-;-;-;-;-;-;-;-;-;-;-;-;-
1514100836861;-;-;7.4129333;-1.4399261;-1.3436584;-;-;-;-;-;-;-;-;-;-;-;-;-;-;-
1514100836882;-;-;7.9995117;0.42037964;-1.2215576;-;-;-;-;-;-;-;-;-;-;-;-;-;-;-
1514100836902;-;-;7.9863434;2.8947754;-2.120575;-;-;-;-;-;-;-;-;-;-;-;-;-;-;-
1514100836922;-;-;7.6571503;4.501297;-3.7282867;-;-;-;-;-;-;-;-;-;-;-;-;-;-;-
1514100836943;-;-;8.598068;4.2271576;-5.456894;-;-;-;-;-;-;-;-;-;-;-;-;-;-;-
1514100836963;-;-;9.421677;2.706833;-6.524719;-;-;-;-;-;-;-;-;-;-;-;-;-;-;-
1514100836983;-;-;11.888901;-0.80307007;-7.975601;-;-;-;-;-;-;-;-;-;-;-;-;-;-;-
1514100837003;-;-;13.710892;-4.5092926;-5.637665;-;-;-;-;-;-;-;-;-;-;-;-;-;-;-
1514100837024;-;-;14.910385;-5.8727875;-3.2757874;-;-;-;-;-;-;-;-;-;-;-;-;-;-;-
1514100837043;-;-;17.237549;-3.981369;-1.7913818;-;-;-;-;-;-;-;-;-;-;-;-;-;-;-
1514100837063;-;-;17.909119;-2.906372;-3.511612;-;-;-;-;-;-;-;-;-;-;-;-;-;-;-
1514100837083;-;-;16.920319;-2.566391;-4.475281;-;-;-;-;-;-;-;-;-;-;-;-;-;-;-
1514100837104;-;-;13.533722;-0.41281128;-2.270218;-;-;-;-;-;-;-;-;-;-;-;-;-;-;-
1514100837124;-;-;11.071274;0.7256317;-2.405487;-;-;-;-;-;-;-;-;-;-;-;-;-;-;-
1514100837145;-;-;8.831497;0.26715088;-2.0283966;-;-;-;-;-;-;-;-;-;-;-;-;-;-;-
1514100837165;-;-;5.988388;-1.3297882;-1.5016785;-;-;-;-;-;-;-;-;-;-;-;-;-;-;-
1514100837186;-;-;3.8527527;-2.4574585;-1.8619995;-;-;-;-;-;-;-;-;-;-;-;-;-;-;-
1514100837207;-;-;2.611374;-2.238388;-2.428238;-;-;-;-;-;-;-;-;-;-;-;-;-;-;-
1514100837227;-;-;2.3875122;-1.2627563;-2.6353302;-;-;-;-;-;-;-;-;-;-;-;-;-;-;-
1514100837247;-;-;3.8252258;-0.11831665;-1.9685516;-;-;-;-;-;-;-;-;-;-;-;-;-;-;-
1514100837267;-;-;5.7848816;0.29467773;-1.2502899;-;-;-;-;-;-;-;-;-;-;-;-;-;-;-
1514100837287;-;-;8.175491;-0.3469696;-2.0164337;-;-;-;-;-;-;-;-;-;-;-;-;-;-;-
1514100837308;-;-;9.881363;-1.1059265;-2.6664581;-;-;-;-;-;-;-;-;-;-;-;-;-;-;-
1514100837328;-;-;9.694611;-1.7655334;-3.3212738;-;-;-;-;-;-;-;-;-;-;-;-;-;-;-
1514100837348;-;-;7.5637665;-1.9367218;-2.9034882;-;-;-;-;-;-;-;-;-;-;-;-;-;-;-
1514100837368;-;-;4.517151;-1.0305176;-0.006500244;-;-;-;-;-;-;-;-;-;-;-;-;-;-;-
1514100837388;-;-;4.4237823;-0.94073486;2.362564;-;-;-;-;-;-;-;-;-;-;-;-;-;-;-
1514100837409;-;-;4.960083;-2.2335968;1.859787;-;-;-;-;-;-;-;-;-;-;-;-;-;-;-
1514100837429;-;-;5.2845;-3.720398;0.25926208;-;-;-;-;-;-;-;-;-;-;-;-;-;-;-
1514100837449;-;-;5.7130585;-3.8832092;-1.4537964;-;-;-;-;-;-;-;-;-;-;-;-;-;-;-
1514100837470;-;-;6.3930054;-2.0540314;-2.230713;-;-;-;-;-;-;-;-;-;-;-;-;-;-;-
1514100837490;-;-;8.290421;-0.093185425;-5.6604004;-;-;-;-;-;-;-;-;-;-;-;-;-;-;-
1514100837511;-;-;12.729263;3.134201;-7.354309;-;-;-;-;-;-;-;-;-;-;-;-;-;-;-
1514100837531;-;-;17.776245;7.9154205;-5.417389;-;-;-;-;-;-;-;-;-;-;-;-;-;-;-
1514100837550;-;-;18.113815;4.446228;-2.148117;-;-;-;-;-;-;-;-;-;-;-;-;-;-;-
1514100837571;-;-;14.223251;-0.92037964;-1.5172424;-;-;-;-;-;-;-;-;-;-;-;-;-;-;-
1514100837591;-;-;18.84166;1.2104645;-6.402603;-;-;-;-;-;-;-;-;-;-;-;-;-;-;-
1514100837611;-;-;19.525208;2.3261566;-2.5263977;-;-;-;-;-;-;-;-;-;-;-;-;-;-;-
1514100837631;-;-;15.051636;2.6146545;-2.6987762;-;-;-;-;-;-;-;-;-;-;-;-;-;-;-
1514100837652;-;-;11.445969;2.2734833;-2.3121185;-;-;-;-;-;-;-;-;-;-;-;-;-;-;-
1514100837673;-;-;8.213791;1.6210632;-1.9098969;-;-;-;-;-;-;-;-;-;-;-;-;-;-;-
1514100837693;-;-;4.758972;1.7563324;-1.3340912;-;-;-;-;-;-;-;-;-;-;-;-;-;-;-
1514100837713;-;-;0.99768066;1.0165253;-0.966568;-;-;-;-;-;-;-;-;-;-;-;-;-;-;-
1514100837734;-;-;-0.33470154;-0.4774475;-0.17887878;-;-;-;-;-;-;-;-;-;-;-;-;-;-;-
1514100837753;-;-;0.32131958;-1.7583466;0.20419312;-;-;-;-;-;-;-;-;-;-;-;-;-;-;-
1514100837773;-;-;4.4177856;-1.5081482;-0.22317505;-;-;-;-;-;-;-;-;-;-;-;-;-;-;-
1514100837793;-;-;6.3175964;-0.43315125;-1.2694397;-;-;-;-;-;-;-;-;-;-;-;-;-;-;-
1514100837813;-;-;6.639618;0.46347046;-0.6661072;-;-;-;-;-;-;-;-;-;-;-;-;-;-;-
1514100837833;-;-;7.3052063;0.60832214;-0.54878235;-;-;-;-;-;-;-;-;-;-;-;-;-;-;-
1514100837854;-;-;8.419693;0.30545044;-1.1449432;-;-;-;-;-;-;-;-;-;-;-;-;-;-;-
1514100837874;-;-;9.379776;-0.12550354;-0.2111969;-;-;-;-;-;-;-;-;-;-;-;-;-;-;-
1514100837894;-;-;9.042191;0.064834595;0.09046936;-;-;-;-;-;-;-;-;-;-;-;-;-;-;-
1514100837914;-;-;8.130005;1.1589813;-3.136917;-;-;-;-;-;-;-;-;-;-;-;-;-;-;-
1514100837935;-;-;7.5865173;1.3600922;-4.2885284;-;-;-;-;-;-;-;-;-;-;-;-;-;-;-
1514100837955;-;-;6.78566;1.0715942;-1.4142914;-;-;-;-;-;-;-;-;-;-;-;-;-;-;-
1514100837975;-;-;7.3075867;1.5815582;-0.60624695;-;-;-;-;-;-;-;-;-;-;-;-;-;-;-
1514100837995;-;-;8.879379;2.3058014;-3.527176;-;-;-;-;-;-;-;-;-;-;-;-;-;-;-
1514100838016;-;-;8.265274;1.837738;-7.5458374;-;-;-;-;-;-;-;-;-;-;-;-;-;-;-
1514100838035;-;-;9.39653;-0.22007751;-6.50795;-;-;-;-;-;-;-;-;-;-;-;-;-;-;-
1514100838055;-;-;10.833054;-3.3720398;-0.72236633;-;-;-;-;-;-;-;-;-;-;-;-;-;-;-
1514100838076;-;-;11.855377;-4.9641876;0.36579895;-;-;-;-;-;-;-;-;-;-;-;-;-;-;-
1514100838095;-;-;17.177689;-4.9677734;-1.0515747;-;-;-;-;-;-;-;-;-;-;-;-;-;-;-
1514100838115;-;-;24.153198;-6.107422;-3.231491;-;-;-;-;-;-;-;-;-;-;-;-;-;-;-
1514100838135;-;-;18.871582;-1.4770355;-4.1113586;-;-;-;-;-;-;-;-;-;-;-;-;-;-;-
1514100838156;-;-;14.351334;0.33059692;0.73928833;-;-;-;-;-;-;-;-;-;-;-;-;-;-;-
1514100838176;-;-;10.485901;0.3605194;0.4759369;-;-;-;-;-;-;-;-;-;-;-;-;-;-;-
1514100838196;-;-;8.290421;-0.25837708;-1.2658539;-;-;-;-;-;-;-;-;-;-;-;-;-;-;-
1514100838216;-;-;6.3211823;-1.313034;-1.7674408;-;-;-;-;-;-;-;-;-;-;-;-;-;-;-
1514100838237;-;-;5.3455505;-1.9008026;-1.8739777;-;-;-;-;-;-;-;-;-;-;-;-;-;-;-
1514100838257;-;-;5.086975;-1.6290588;-1.4897003;-;-;-;-;-;-;-;-;-;-;-;-;-;-;-
1514100838279;-;-;4.5470734;-0.8162384;-1.0731201;-;-;-;-;-;-;-;-;-;-;-;-;-;-;-
1514100838299;-;-;3.6265106;0.01574707;-0.7463074;-;-;-;-;-;-;-;-;-;-;-;-;-;-;-
1514100838319;-;-;3.4529266;-0.43077087;-1.1581116;-;-;-;-;-;-;-;-;-;-;-;-;-;-;-
1514100838340;-;-;4.6727753;-1.6290588;-1.614212;-;-;-;-;-;-;-;-;-;-;-;-;-;-;-
1514100838360;-;-;6.4049835;-2.6477966;-1.6824341;-;-;-;-;-;-;-;-;-;-;-;-;-;-;-
1514100838380;-;-;7.252533;-3.0572052;-2.105011;-;-;-;-;-;-;-;-;-;-;-;-;-;-;-
1514100838400;-;-;7.6415863;-2.4981537;-1.2203674;-;-;-;-;-;-;-;-;-;-;-;-;-;-;-
1514100838421;-;-;8.548981;-2.2515564;-0.6289978;-;-;-;-;-;-;-;-;-;-;-;-;-;-;-
1514100838440;-;-;9.154724;-2.3305664;0.42326355;-;-;-;-;-;-;-;-;-;-;-;-;-;-;-
1514100838460;-;-;8.232956;-2.9123535;-0.07952881;-;-;-;-;-;-;-;-;-;-;-;-;-;-;-
1514100838481;-;-;7.1052856;-2.5376587;-0.60505676;-;-;-;-;-;-;-;-;-;-;-;-;-;-;-
1514100838501;-;-;7.3339233;-0.42477417;-0.7008209;-;-;-;-;-;-;-;-;-;-;-;-;-;-;-
1514100838521;-;-;7.044235;1.1362457;-1.2251434;-;-;-;-;-;-;-;-;-;-;-;-;-;-;-
1514100838541;-;-;7.33992;0.9925842;-5.860321;-;-;-;-;-;-;-;-;-;-;-;-;-;-;-
1514100838561;-;-;8.055786;0.967453;-6.8311768;-;-;-;-;-;-;-;-;-;-;-;-;-;-;-
1514100838582;-;-;10.30513;3.5112915;-4.2765656;-;-;-;-;-;-;-;-;-;-;-;-;-;-;-
1514100838602;-;-;13.351761;7.12175;-4.3352203;-;-;-;-;-;-;-;-;-;-;-;-;-;-;-
1514100838622;-;-;16.095505;6.047943;-1.0958557;-;-;-;-;-;-;-;-;-;-;-;-;-;-;-
1514100838642;-;-;17.294998;1.1745453;-2.6999817;-;-;-;-;-;-;-;-;-;-;-;-;-;-;-
1514100838662;-;-;20.89589;-1.7942657;-6.267334;-;-;-;-;-;-;-;-;-;-;-;-;-;-;-
1514100838683;-;-;15.593918;-0.63067627;-3.072281;-;-;-;-;-;-;-;-;-;-;-;-;-;-;-
1514100838703;-;-;10.872559;-0.61631775;-2.0331879;-;-;-;-;-;-;-;-;-;-;-;-;-;-;-
1514100838723;-;-;7.1160583;-1.0077667;-1.1221924;-;-;-;-;-;-;-;-;-;-;-;-;-;-;-
1514100838743;-;-;4.2873077;-0.56604004;-1.2466888;-;-;-;-;-;-;-;-;-;-;-;-;-;-;-
1514100838764;-;-;1.6884003;0.4586792;-1.8919373;-;-;-;-;-;-;-;-;-;-;-;-;-;-;-
1514100838785;-;-;0.41708374;0.53170776;-1.777008;-;-;-;-;-;-;-;-;-;-;-;-;-;-;-
1514100838805;-;-;1.9002838;0.23602295;-0.535614;-;-;-;-;-;-;-;-;-;-;-;-;-;-;-
1514100838825;-;-;5.715454;0.14503479;-0.6433563;-;-;-;-;-;-;-;-;-;-;-;-;-;-;-
1514100838845;-;-;6.012329;0.28988647;-1.7087708;-;-;-;-;-;-;-;-;-;-;-;-;-;-;-
1514100838866;-;-;5.4796143;1.0213165;-1.6261749;-;-;-;-;-;-;-;-;-;-;-;-;-;-;-
1514100838887;-;-;5.198303;1.8616791;-0.20881653;-;-;-;-;-;-;-;-;-;-;-;-;-;-;-
1514100838908;-;-;6.968811;2.4051666;-0.071136475;-;-;-;-;-;-;-;-;-;-;-;-;-;-;-
1514100838928;-;-;9.161896;2.0280762;-0.5104828;-;-;-;-;-;-;-;-;-;-;-;-;-;-;-
1514100838949;-;-;8.975159;1.9836426E-4;-3.6133575;-;-;-;-;-;-;-;-;-;-;-;-;-;-;-
1514100838969;-;-;9.548569;-0.33140564;-4.172409;-;-;-;-;-;-;-;-;-;-;-;-;-;-;-
1514100838989;-;-;12.095993;1.2296143;1.4228363;-;-;-;-;-;-;-;-;-;-;-;-;-;-;-
1514100839010;-;-;13.551666;0.9578705;1.373764;-;-;-;-;-;-;-;-;-;-;-;-;-;-;-
1514100839030;-;-;10.825867;-0.11114502;-2.3204956;-;-;-;-;-;-;-;-;-;-;-;-;-;-;-
1514100839050;-;-;6.457657;-2.4430847;-3.1931763;-;-;-;-;-;-;-;-;-;-;-;-;-;-;-
1514100839071;-;-;3.4002533;-4.101074;-4.9732666;-;-;-;-;-;-;-;-;-;-;-;-;-;-;-
1514100839090;-;-;4.9816284;-4.072342;-8.466415;-;-;-;-;-;-;-;-;-;-;-;-;-;-;-
1514100839110;-;-;12.93158;-3.9753876;-10.512253;-;-;-;-;-;-;-;-;-;-;-;-;-;-;-
1514100839130;-;-;28.381363;-1.028122;-4.6057587;-;-;-;-;-;-;-;-;-;-;-;-;-;-;-
1514100839151;-;-;25.556198;0.11152649;-12.10321;-;-;-;-;-;-;-;-;-;-;-;-;-;-;-
1514100839171;-;-;22.240234;0.5281067;-5.0438995;-;-;-;-;-;-;-;-;-;-;-;-;-;-;-
1514100839191;-;-;14.788269;-0.8246155;-2.6784363;-;-;-;-;-;-;-;-;-;-;-;-;-;-;-
1514100839212;-;-;5.0726013;-1.7607422;-0.95339966;-;-;-;-;-;-;-;-;-;-;-;-;-;-;-
1514100839231;-;-;1.7350922;-2.3664703;-3.0615082;-;-;-;-;-;-;-;-;-;-;-;-;-;-;-
1514100839251;-;-;0.05555725;-3.3564758;-4.68956;-;-;-;-;-;-;-;-;-;-;-;-;-;-;-
1514100839273;-;-;2.6724243;-2.0971222;-3.3272552;-;-;-;-;-;-;-;-;-;-;-;-;-;-;-
1514100839293;-;-;7.367447;0.85731506;-2.8137054;-;-;-;-;-;-;-;-;-;-;-;-;-;-;-
1514100839314;-;-;7.4129333;0.556839;-2.6760406;-;-;-;-;-;-;-;-;-;-;-;-;-;-;-
1514100839335;-;-;6.4301147;-1.6003265;-1.6166077;-;-;-;-;-;-;-;-;-;-;-;-;-;-;-
1514100839355;-;-;5.631653;-2.2886658;-1.2873993;-;-;-;-;-;-;-;-;-;-;-;-;-;-;-
1514100839375;-;-;6.264923;-2.12706;-0.47576904;-;-;-;-;-;-;-;-;-;-;-;-;-;-;-
1514100839396;-;-;6.0853577;-2.3185883;-0.28781128;-;-;-;-;-;-;-;-;-;-;-;-;-;-;-
1514100839416;-;-;6.003952;-3.5671692;-1.6573029;-;-;-;-;-;-;-;-;-;-;-;-;-;-;-
1514100839436;-;-;7.4105377;-4.0112915;-2.3767548;-;-;-;-;-;-;-;-;-;-;-;-;-;-;-
1514100839456;-;-;8.813553;-3.0811462;-1.697998;-;-;-;-;-;-;-;-;-;-;-;-;-;-;-
1514100839477;-;-;10.909668;-0.86172485;-0.8899536;-;-;-;-;-;-;-;-;-;-;-;-;-;-;-
1514100839497;-;-;11.8841095;0.41558838;0.009063721;-;-;-;-;-;-;-;-;-;-;-;-;-;-;-
1514100839517;-;-;12.899246;-0.35295105;-0.24711609;-;-;-;-;-;-;-;-;-;-;-;-;-;-;-
1514100839538;-;-;12.878906;-1.9881897;-3.3392334;-;-;-;-;-;-;-;-;-;-;-;-;-;-;-
1514100839558;-;-;13.38887;-2.2204285;-8.313187;-;-;-;-;-;-;-;-;-;-;-;-;-;-;-
1514100839577;-;-;12.271973;-0.9060211;-6.954468;-;-;-;-;-;-;-;-;-;-;-;-;-;-;-
1514100839598;-;-;8.26767;0.927948;-7.5506287;-;-;-;-;-;-;-;-;-;-;-;-;-;-;-
1514100839618;-;-;5.605316;2.7834473;-3.8060913;-;-;-;-;-;-;-;-;-;-;-;-;-;-;-
1514100839638;-;-;6.3894196;1.6318359;-1.9051056;-;-;-;-;-;-;-;-;-;-;-;-;-;-;-
1514100839659;-;-;8.898544;-1.8457336;-2.7837677;-;-;-;-;-;-;-;-;-;-;-;-;-;-;-
1514100839679;-;-;12.540115;-4.733139;-4.457321;-;-;-;-;-;-;-;-;-;-;-;-;-;-;-
1514100839699;-;-;14.341751;-4.4661865;-5.0750275;-;-;-;-;-;-;-;-;-;-;-;-;-;-;-
1514100839719;-;-;12.778351;-0.25837708;-4.4142303;-;-;-;-;-;-;-;-;-;-;-;-;-;-;-
1514100839740;-;-;10.628357;1.7060547;-4.223892;-;-;-;-;-;-;-;-;-;-;-;-;-;-;-
1514100839760;-;-;7.0609894;1.8126068;-3.4984436;-;-;-;-;-;-;-;-;-;-;-;-;-;-;-
1514100839780;-;-;2.6772003;0.05406189;-3.1608582;-;-;-;-;-;-;-;-;-;-;-;-;-;-;-
1514100839800;-;-;0.70677185;-0.90242004;-3.4302063;-;-;-;-;-;-;-;-;-;-;-;-;-;-;-
1514100839821;-;-;1.7111511;-0.08001709;-3.2027588;-;-;-;-;-;-;-;-;-;-;-;-;-;-;-
1514100839841;-;-;4.905014;2.3417206;-2.7981415;-;-;-;-;-;-;-;-;-;-;-;-;-;-;-
1514100839861;-;-;8.261688;3.778244;-2.5814667;-;-;-;-;-;-;-;-;-;-;-;-;-;-;-
1514100839881;-;-;9.391739;3.1772919;-1.4537964;-;-;-;-;-;-;-;-;-;-;-;-;-;-;-
1514100839902;-;-;8.756088;2.481781;-1.3915405;-;-;-;-;-;-;-;-;-;-;-;-;-;-;-
1514100839922;-;-;8.619614;2.026886;-2.151703;-;-;-;-;-;-;-;-;-;-;-;-;-;-;-
1514100839942;-;-;8.503494;0.9578705;-2.7777863;-;-;-;-;-;-;-;-;-;-;-;-;-;-;-
1514100839963;-;-;9.747284;-0.58758545;-2.8723602;-;-;-;-;-;-;-;-;-;-;-;-;-;-;-
1514100839983;-;-;9.479141;-0.36611938;-4.994812;-;-;-;-;-;-;-;-;-;-;-;-;-;-;-
1514100840006;-;-;9.29837;2.3105927;-3.6420898;-;-;-;-;-;-;-;-;-;-;-;-;-;-;-
1514100840026;-;-;10.883331;3.881195;0.3490448;-;-;-;-;-;-;-;-;-;-;-;-;-;-;-
1514100840047;-;-;11.821854;1.7395782;-3.5056305;-;-;-;-;-;-;-;-;-;-;-;-;-;-;-
1514100840067;-;-;11.931992;-0.40083313;-4.9648895;-;-;-;-;-;-;-;-;-;-;-;-;-;-;-
1514100840087;-;-;12.175003;-3.5252686;-5.721466;-;-;-;-;-;-;-;-;-;-;-;-;-;-;-
1514100840108;-;-;11.502228;-6.2402954;-4.6476593;-;-;-;-;-;-;-;-;-;-;-;-;-;-;-
1514100840129;-;-;8.2114105;-5.8656006;-5.428177;-;-;-;-;-;-;-;-;-;-;-;-;-;-;-
1514100840149;-;-;4.003601;-4.371628;-6.0039825;-;-;-;-;-;-;-;-;-;-;-;-;-;-;-
1514100840169;-;-;2.7993164;-0.28352356;-6.7940674;-;-;-;-;-;-;-;-;-;-;-;-;-;-;-
1514100840189;-;-;5.236603;4.3815765;-7.2298126;-;-;-;-;-;-;-;-;-;-;-;-;-;-;-
1514100840210;-;-;11.010223;6.3974915;-6.1739655;-;-;-;-;-;-;-;-;-;-;-;-;-;-;-
1514100840231;-;-;14.540482;3.4921417;-5.310852;-;-;-;-;-;-;-;-;-;-;-;-;-;-;-
1514100840252;-;-;14.465057;-0.80307007;-4.092209;-;-;-;-;-;-;-;-;-;-;-;-;-;-;-
1514100840272;-;-;10.56131;-2.973404;-3.2949371;-;-;-;-;-;-;-;-;-;-;-;-;-;-;-
1514100840292;-;-;8.624405;-3.4259033;-2.4138641;-;-;-;-;-;-;-;-;-;-;-;-;-;-;-
1514100840313;-;-;5.5466614;-3.3145752;-1.9793243;-;-;-;-;-;-;-;-;-;-;-;-;-;-;-
1514100840334;-;-;3.4840546;-2.4131622;-2.1253662;-;-;-;-;-;-;-;-;-;-;-;-;-;-;-
1514100840354;-;-;2.7155151;-1.6063232;-2.175644;-;-;-;-;-;-;-;-;-;-;-;-;-;-;-
1514100840374;-;-;3.6229095;-0.50138855;-1.7363129;-;-;-;-;-;-;-;-;-;-;-;-;-;-;-
1514100840395;-;-;5.438919;1.0344849;-2.4797058;-;-;-;-;-;-;-;-;-;-;-;-;-;-;-
1514100840414;-;-;7.8438873;2.7451477;-2.642517;-;-;-;-;-;-;-;-;-;-;-;-;-;-;-
1514100840434;-;-;8.92128;3.062378;-2.4246368;-;-;-;-;-;-;-;-;-;-;-;-;-;-;-
1514100840455;-;-;8.8602295;1.9694214;-2.7753906;-;-;-;-;-;-;-;-;-;-;-;-;-;-;-
1514100840475;-;-;10.053741;0.35214233;-2.0870667;-;-;-;-;-;-;-;-;-;-;-;-;-;-;-
1514100840495;-;-;11.51181;-1.530899;-0.906723;-;-;-;-;-;-;-;-;-;-;-;-;-;-;-
1514100840515;-;-;11.704544;-2.7411652;-1.531601;-;-;-;-;-;-;-;-;-;-;-;-;-;-;-
1514100840535;-;-;9.736511;-3.4259033;-4.172409;-;-;-;-;-;-;-;-;-;-;-;-;-;-;-
1514100840556;-;-;7.8175507;-3.2834625;-8.538239;-;-;-;-;-;-;-;-;-;-;-;-;-;-;-
1514100840576;-;-;6.3020325;-1.8708801;-8.364655;-;-;-;-;-;-;-;-;-;-;-;-;-;-;-
1514100840596;-;-;6.4373016;1.7383881;-3.3763428;-;-;-;-;-;-;-;-;-;-;-;-;-;-;-
1514100840617;-;-;9.931641;4.92865;-0.38598633;-;-;-;-;-;-;-;-;-;-;-;-;-;-;-
1514100840637;-;-;12.683777;1.96344;-6.1584015;-;-;-;-;-;-;-;-;-;-;-;-;-;-;-
1514100840657;-;-;18.332886;-3.1661377;-4.9409485;-;-;-;-;-;-;-;-;-;-;-;-;-;-;-
1514100840677;-;-;18.713577;-3.7335663;-5.6436462;-;-;-;-;-;-;-;-;-;-;-;-;-;-;-
1514100840698;-;-;14.247192;0.50416565;-4.045517;-;-;-;-;-;-;-;-;-;-;-;-;-;-;-
1514100840719;-;-;9.404907;1.6486053;-2.819687;-;-;-;-;-;-;-;-;-;-;-;-;-;-;-
1514100840739;-;-;3.794098;1.6174774;-1.2239532;-;-;-;-;-;-;-;-;-;-;-;-;-;-;-
1514100840760;-;-;-1.7975616;-0.36132813;0.34065247;-;-;-;-;-;-;-;-;-;-;-;-;-;-;-
1514100840780;-;-;-3.2268982;-1.9678345;0.16468811;-;-;-;-;-;-;-;-;-;-;-;-;-;-;-
1514100840800;-;-;-0.5058899;-2.2000732;-0.6110382;-;-;-;-;-;-;-;-;-;-;-;-;-;-;-
1514100840821;-;-;3.8623352;-0.69651794;-1.7830048;-;-;-;-;-;-;-;-;-;-;-;-;-;-;-
1514100840841;-;-;6.790451;0.39283752;-2.0343933;-;-;-;-;-;-;-;-;-;-;-;-;-;-;-
1514100840861;-;-;9.328293;0.30545044;-1.9086914;-;-;-;-;-;-;-;-;-;-;-;-;-;-;-
1514100840882;-;-;9.963959;-0.097976685;-2.0559387;-;-;-;-;-;-;-;-;-;-;-;-;-;-;-
1514100840902;-;-;9.3103485;-0.58639526;-2.3396454;-;-;-;-;-;-;-;-;-;-;-;-;-;-;-
1514100840922;-;-;6.9736023;-0.30986023;-1.8608093;-;-;-;-;-;-;-;-;-;-;-;-;-;-;-
1514100840942;-;-;5.916565;1.2212372;-1.3101501;-;-;-;-;-;-;-;-;-;-;-;-;-;-;-
1514100840963;-;-;6.0135345;2.7870483;-1.4238739;-;-;-;-;-;-;-;-;-;-;-;-;-;-;-
1514100840983;-;-;7.236969;3.371231;-2.843628;-;-;-;-;-;-;-;-;-;-;-;-;-;-;-
1514100841003;-;-;8.707001;2.670929;-4.3244476;-;-;-;-;-;-;-;-;-;-;-;-;-;-;-
1514100841024;-;-;8.819534;1.7299957;-3.764206;-;-;-;-;-;-;-;-;-;-;-;-;-;-;-
1514100841044;-;-;8.695038;1.453476;-1.8751678;-;-;-;-;-;-;-;-;-;-;-;-;-;-;-
1514100841064;-;-;8.428085;1.6605682;-3.772583;-;-;-;-;-;-;-;-;-;-;-;-;-;-;-
1514100841085;-;-;7.2501373;-0.0045928955;-5.650833;-;-;-;-;-;-;-;-;-;-;-;-;-;-;-
1514100841104;-;-;7.380615;-2.4658356;-5.5802;-;-;-;-;-;-;-;-;-;-;-;-;-;-;-
1514100841124;-;-;11.462723;-5.5064697;-4.696747;-;-;-;-;-;-;-;-;-;-;-;-;-;-;-
1514100841144;-;-;13.673782;-4.324936;-5.5814056;-;-;-;-;-;-;-;-;-;-;-;-;-;-;-
1514100841165;-;-;17.666107;0.3964386;-6.287689;-;-;-;-;-;-;-;-;-;-;-;-;-;-;-
1514100841185;-;-;22.490417;2.488968;-3.4984436;-;-;-;-;-;-;-;-;-;-;-;-;-;-;-
1514100841206;-;-;20.22551;-1.4231567;-3.2662048;-;-;-;-;-;-;-;-;-;-;-;-;-;-;-
1514100841226;-;-;15.182129;-3.902359;-3.4062653;-;-;-;-;-;-;-;-;-;-;-;-;-;-;-
1514100841247;-;-;7.383011;-3.988556;-1.5495605;-;-;-;-;-;-;-;-;-;-;-;-;-;-;-
1514100841267;-;-;2.604187;-1.5285034;-0.6828613;-;-;-;-;-;-;-;-;-;-;-;-;-;-;-
1514100841287;-;-;0.30336;1.1721497;-0.5631561;-;-;-;-;-;-;-;-;-;-;-;-;-;-;-
1514100841307;-;-;1.841629;1.9837952;-1.1162109;-;-;-;-;-;-;-;-;-;-;-;-;-;-;-
1514100841328;-;-;4.814026;0.91477966;-1.5232239;-;-;-;-;-;-;-;-;-;-;-;-;-;-;-
1514100841347;-;-;6.9340973;-0.27394104;-1.2215576;-;-;-;-;-;-;-;-;-;-;-;-;-;-;-
1514100841367;-;-;6.588135;-1.2675323;-0.88038635;-;-;-;-;-;-;-;-;-;-;-;-;-;-;-
1514100841388;-;-;5.7453766;-1.9893951;-1.0467834;-;-;-;-;-;-;-;-;-;-;-;-;-;-;-
1514100841407;-;-;5.181549;-2.3796387;-1.1856384;-;-;-;-;-;-;-;-;-;-;-;-;-;-;-
1514100841427;-;-;4.9313507;-1.5153351;-0.5894928;-;-;-;-;-;-;-;-;-;-;-;-;-;-;-
1514100841448;-;-;5.509552;-0.59716797;-0.2507019;-;-;-;-;-;-;-;-;-;-;-;-;-;-;-
1514100841468;-;-;6.70665;-0.71447754;0.9739227;-;-;-;-;-;-;-;-;-;-;-;-;-;-;-
1514100841488;-;-;8.402939;-2.7770844;0.96673584;-;-;-;-;-;-;-;-;-;-;-;-;-;-;-
1514100841508;-;-;8.595673;-4.127411;-0.37400818;-;-;-;-;-;-;-;-;-;-;-;-;-;-;-
1514100841528;-;-;8.23056;-2.775879;-1.3688049;-;-;-;-;-;-;-;-;-;-;-;-;-;-;-
1514100841548;-;-;6.7174225;-0.4882202;-3.025589;-;-;-;-;-;-;-;-;-;-;-;-;-;-;-
1514100841568;-;-;6.9795837;1.96344;-8.388596;-;-;-;-;-;-;-;-;-;-;-;-;-;-;-
1514100841589;-;-;10.503845;4.406723;-8.487961;-;-;-;-;-;-;-;-;-;-;-;-;-;-;-
1514100841610;-;-;14.468643;5.97731;-2.8963013;-;-;-;-;-;-;-;-;-;-;-;-;-;-;-
1514100841630;-;-;17.399155;3.489746;-1.0395966;-;-;-;-;-;-;-;-;-;-;-;-;-;-;-
1514100841650;-;-;21.650055;1.9047852;-4.164032;-;-;-;-;-;-;-;-;-;-;-;-;-;-;-
1514100841670;-;-;26.606049;0.85491943;-6.8419495;-;-;-;-;-;-;-;-;-;-;-;-;-;-;-
1514100841691;-;-;17.605057;-0.28112793;-2.9501648;-;-;-;-;-;-;-;-;-;-;-;-;-;-;-
1514100841711;-;-;10.502655;-0.58399963;-1.1449432;-;-;-;-;-;-;-;-;-;-;-;-;-;-;-
1514100841731;-;-;4.508774;0.26235962;-1.392746;-;-;-;-;-;-;-;-;-;-;-;-;-;-;-
1514100841752;-;-;1.9349976;1.0584259;-0.7127838;-;-;-;-;-;-;-;-;-;-;-;-;-;-;-
1514100841772;-;-;1.2514648;1.6617737;-0.024459839;-;-;-;-;-;-;-;-;-;-;-;-;-;-;-
1514100841792;-;-;2.0164032;1.3062286;0.3490448;-;-;-;-;-;-;-;-;-;-;-;-;-;-;-
1514100841813;-;-;4.0562744;-0.17936707;-0.33570862;-;-;-;-;-;-;-;-;-;-;-;-;-;-;-
1514100841833;-;-;5.806427;-0.6821594;-1.2766266;-;-;-;-;-;-;-;-;-;-;-;-;-;-;-
1514100841853;-;-;6.1045074;-0.1590271;-1.2048035;-;-;-;-;-;-;-;-;-;-;-;-;-;-;-
1514100841873;-;-;5.296463;0.20370483;-0.5631561;-;-;-;-;-;-;-;-;-;-;-;-;-;-;-
1514100841894;-;-;4.390259;-0.088394165;0.06173706;-;-;-;-;-;-;-;-;-;-;-;-;-;-;-
1514100841914;-;-;4.9911957;-0.368515;-1.061142;-;-;-;-;-;-;-;-;-;-;-;-;-;-;-
1514100841934;-;-;6.9101563;0.4694519;-3.6013947;-;-;-;-;-;-;-;-;-;-;-;-;-;-;-
1514100841954;-;-;8.892548;1.8245697;-2.7861633;-;-;-;-;-;-;-;-;-;-;-;-;-;-;-
1514100841974;-;-;9.012268;2.8983765;-0.14416504;-;-;-;-;-;-;-;-;-;-;-;-;-;-;-
1514100841995;-;-;9.026627;3.228775;-0.92826843;-;-;-;-;-;-;-;-;-;-;-;-;-;-;-
1514100842015;-;-;8.679474;2.0388489;-4.903839;-;-;-;-;-;-;-;-;-;-;-;-;-;-;-
1514100842035;-;-;7.135208;-0.18536377;-4.7003326;-;-;-;-;-;-;-;-;-;-;-;-;-;-;-
1514100842056;-;-;5.2042847;-1.2471924;-3.3571777;-;-;-;-;-;-;-;-;-;-;-;-;-;-;-
1514100842076;-;-;5.9429016;-1.3609161;-3.3739471;-;-;-;-;-;-;-;-;-;-;-;-;-;-;-
1514100842096;-;-;8.855438;-2.4311218;-4.2131195;-;-;-;-;-;-;-;-;-;-;-;-;-;-;-
1514100842117;-;-;13.50499;-2.3353577;-7.156784;-;-;-;-;-;-;-;-;-;-;-;-;-;-;-
1514100842136;-;-;19.217545;-1.6434326;-3.8013153;-;-;-;-;-;-;-;-;-;-;-;-;-;-;-
1514100842156;-;-;24.33995;-2.6250458;-2.7346954;-;-;-;-;-;-;-;-;-;-;-;-;-;-;-
1514100842176;-;-;21.769775;-3.4486542;-3.942566;-;-;-;-;-;-;-;-;-;-;-;-;-;-;-
1514100842196;-;-;15.809402;-2.22641;-0.4338684;-;-;-;-;-;-;-;-;-;-;-;-;-;-;-
1514100842217;-;-;10.54335;-1.4315338;-0.24711609;-;-;-;-;-;-;-;-;-;-;-;-;-;-;-
1514100842237;-;-;6.412155;-1.2016907;-1.1473389;-;-;-;-;-;-;-;-;-;-;-;-;-;-;-
1514100842257;-;-;3.1045685;-1.8050385;-1.8572235;-;-;-;-;-;-;-;-;-;-;-;-;-;-;-
1514100842277;-;-;4.49321;-2.1725464;-2.1385345;-;-;-;-;-;-;-;-;-;-;-;-;-;-;-
1514100842298;-;-;6.1835175;-0.49780273;-2.0164337;-;-;-;-;-;-;-;-;-;-;-;-;-;-;-
1514100842317;-;-;5.5191193;1.027298;-1.3173218;-;-;-;-;-;-;-;-;-;-;-;-;-;-;-
1514100842337;-;-;4.1795654;0.64782715;-1.1581116;-;-;-;-;-;-;-;-;-;-;-;-;-;-;-
1514100842358;-;-;3.026764;-0.4163971;-1.9015045;-;-;-;-;-;-;-;-;-;-;-;-;-;-;-
