TimeStamp[ms];Prox[Cm];Lux[lux];AccX[m/s^2];AccY[m/s^2];AccZ[m/s^2];GyroX[rad/s];GyroY[rad/s];GyroZ[rad/s];MagnX[uT];MagnY[uT];MagnZ[uT];OrienYaw[degrees];OrienPitch[degrees];OrienRoll[degrees];Press[Pa];Temp[C°];Batt[%];Lat;Lng;Speed[m/s]
1514100869784;-;-;8.64595;-0.6797638;-0.82292175;-;-;-;-;-;-;-;-;-;-;-;-;-;-;-
1514100869791;-;-;8.994308;-0.621109;-0.99890137;-;-;-;-;-;-;-;-;-;-;-;-;-;-;-
1514100869812;-;-;9.288788;-0.59954834;-1.313736;-;-;-;-;-;-;-;-;-;-;-;-;-;-;-
1514100869832;-;-;8.940445;0.17497253;-1.6800537;-;-;-;-;-;-;-;-;-;-;-;-;-;-;-
1514100869852;-;-;8.794388;0.055252075;-0.7738342;-;-;-;-;-;-;-;-;-;-;-;-;-;-;-
1514100869872;-;-;9.3546295;0.5281067;-1.7937775;-;-;-;-;-;-;-;-;-;-;-;-;-;-;-
1514100869893;-;-;9.036209;-0.4092102;-1.1724701;-;-;-;-;-;-;-;-;-;-;-;-;-;-;-
1514100869913;-;-;8.815933;0.3892517;-1.650116;-;-;-;-;-;-;-;-;-;-;-;-;-;-;-
1514100869933;-;-;8.153946;1.8652802;0.18025208;-;-;-;-;-;-;-;-;-;-;-;-;-;-;-
1514100869954;-;-;9.653915;1.288269;-0.29380798;-;-;-;-;-;-;-;-;-;-;-;-;-;-;-
1514100869974;-;-;10.045364;0.9423065;-0.7115936;-;-;-;-;-;-;-;-;-;-;-;-;-;-;-
1514100869994;-;-;10.623566;0.48860168;-1.2933807;-;-;-;-;-;-;-;-;-;-;-;-;-;-;-
1514100870014;-;-;10.93721;0.17497253;-1.4490051;-;-;-;-;-;-;-;-;-;-;-;-;-;-;-
1514100870037;-;-;9.874176;0.057647705;-0.93185425;-;-;-;-;-;-;-;-;-;-;-;-;-;-;-
1514100870055;-;-;9.406113;0.112716675;-0.65652466;-;-;-;-;-;-;-;-;-;-;-;-;-;-;-
1514100870075;-;-;8.863831;0.41558838;-0.7893982;-;-;-;-;-;-;-;-;-;-;-;-;-;-;-
1514100870095;-;-;8.441254;0.6166992;-1.0838928;-;-;-;-;-;-;-;-;-;-;-;-;-;-;-
1514100870116;-;-;8.337097;0.7627411;-0.98573303;-;-;-;-;-;-;-;-;-;-;-;-;-;-;-
1514100870137;-;-;8.369415;0.8513336;-0.906723;-;-;-;-;-;-;-;-;-;-;-;-;-;-;-
1514100870157;-;-;8.304779;0.71606445;-0.75109863;-;-;-;-;-;-;-;-;-;-;-;-;-;-;-
1514100870177;-;-;8.58371;0.48501587;-0.6792755;-;-;-;-;-;-;-;-;-;-;-;-;-;-;-
1514100870197;-;-;8.894943;0.3497467;-0.5978699;-;-;-;-;-;-;-;-;-;-;-;-;-;-;-
1514100870218;-;-;8.941635;0.33418274;-0.5619507;-;-;-;-;-;-;-;-;-;-;-;-;-;-;-
1514100870238;-;-;9.088882;0.6274719;-0.6601105;-;-;-;-;-;-;-;-;-;-;-;-;-;-;-
1514100870258;-;-;9.049377;0.81062317;-0.63856506;-;-;-;-;-;-;-;-;-;-;-;-;-;-;-
1514100870279;-;-;9.005081;0.7591553;-0.69363403;-;-;-;-;-;-;-;-;-;-;-;-;-;-;-
1514100870299;-;-;8.976349;0.88604736;-0.5619507;-;-;-;-;-;-;-;-;-;-;-;-;-;-;-
1514100870319;-;-;8.964386;1.0727997;-0.45541382;-;-;-;-;-;-;-;-;-;-;-;-;-;-;-
1514100870340;-;-;9.137955;1.0919495;-0.5631561;-;-;-;-;-;-;-;-;-;-;-;-;-;-;-
1514100870360;-;-;9.001495;1.4235382;-0.961792;-;-;-;-;-;-;-;-;-;-;-;-;-;-;-
1514100870380;-;-;8.787216;1.7000732;-1.0000916;-;-;-;-;-;-;-;-;-;-;-;-;-;-;-
1514100870400;-;-;8.8003845;1.8640747;-0.6828613;-;-;-;-;-;-;-;-;-;-;-;-;-;-;-
1514100870420;-;-;9.06134;1.8281708;-0.26148987;-;-;-;-;-;-;-;-;-;-;-;-;-;-;-
1514100870441;-;-;9.783203;1.3301697;0.54776;-;-;-;-;-;-;-;-;-;-;-;-;-;-;-
1514100870461;-;-;10.579269;0.68733215;1.2612305;-;-;-;-;-;-;-;-;-;-;-;-;-;-;-
1514100870481;-;-;10.789963;0.14503479;0.51423645;-;-;-;-;-;-;-;-;-;-;-;-;-;-;-
1514100870502;-;-;11.268799;0.541275;-3.3428192;-;-;-;-;-;-;-;-;-;-;-;-;-;-;-
1514100870522;-;-;10.455963;1.2308044;-7.859482;-;-;-;-;-;-;-;-;-;-;-;-;-;-;-
1514100870542;-;-;12.128311;1.9394989;-6.516327;-;-;-;-;-;-;-;-;-;-;-;-;-;-;-
1514100870563;-;-;10.2752075;2.347702;-6.3044434;-;-;-;-;-;-;-;-;-;-;-;-;-;-;-
1514100870583;-;-;7.7169952;0.54008484;-5.1707916;-;-;-;-;-;-;-;-;-;-;-;-;-;-;-
1514100870603;-;-;6.4325104;-1.4698486;-4.3795166;-;-;-;-;-;-;-;-;-;-;-;-;-;-;-
1514100870624;-;-;6.92572;-1.7391968;-2.594635;-;-;-;-;-;-;-;-;-;-;-;-;-;-;-
1514100870644;-;-;8.684265;-1.2998657;-3.0902252;-;-;-;-;-;-;-;-;-;-;-;-;-;-;-
1514100870664;-;-;10.828262;-0.090789795;-3.4361877;-;-;-;-;-;-;-;-;-;-;-;-;-;-;-
1514100870685;-;-;10.754044;0.28988647;-2.9693298;-;-;-;-;-;-;-;-;-;-;-;-;-;-;-
1514100870704;-;-;9.4133;0.02053833;-2.6317444;-;-;-;-;-;-;-;-;-;-;-;-;-;-;-
1514100870724;-;-;8.024658;-0.2799225;-2.7143402;-;-;-;-;-;-;-;-;-;-;-;-;-;-;-
1514100870744;-;-;6.991562;-0.8593292;-2.2342987;-;-;-;-;-;-;-;-;-;-;-;-;-;-;-
1514100870765;-;-;5.9357147;-1.764328;-1.5375977;-;-;-;-;-;-;-;-;-;-;-;-;-;-;-
1514100870785;-;-;5.8160095;-2.2168427;-0.95939636;-;-;-;-;-;-;-;-;-;-;-;-;-;-;-
1514100870806;-;-;6.4205475;-2.1545868;-1.0276337;-;-;-;-;-;-;-;-;-;-;-;-;-;-;-
1514100870826;-;-;7.1603546;-1.6625824;-1.8177185;-;-;-;-;-;-;-;-;-;-;-;-;-;-;-
1514100870846;-;-;7.380615;-1.1047363;-2.2989502;-;-;-;-;-;-;-;-;-;-;-;-;-;-;-
1514100870866;-;-;7.3183746;-0.8270111;-2.5407562;-;-;-;-;-;-;-;-;-;-;-;-;-;-;-
1514100870887;-;-;7.1280212;-0.38168335;-1.9398193;-;-;-;-;-;-;-;-;-;-;-;-;-;-;-
1514100870907;-;-;7.145981;-0.0045928955;-1.0563507;-;-;-;-;-;-;-;-;-;-;-;-;-;-;-
1514100870927;-;-;7.743332;-0.19972229;-0.37400818;-;-;-;-;-;-;-;-;-;-;-;-;-;-;-
1514100870948;-;-;9.367798;-0.6246948;0.070114136;-;-;-;-;-;-;-;-;-;-;-;-;-;-;-
1514100870968;-;-;11.722504;-1.2579651;-0.8504486;-;-;-;-;-;-;-;-;-;-;-;-;-;-;-
1514100870988;-;-;12.27916;-1.2843018;-2.2067719;-;-;-;-;-;-;-;-;-;-;-;-;-;-;-
1514100871008;-;-;10.980301;0.6394501;-3.1871948;-;-;-;-;-;-;-;-;-;-;-;-;-;-;-
1514100871029;-;-;7.3339233;1.5121307;-0.54878235;-;-;-;-;-;-;-;-;-;-;-;-;-;-;-
1514100871049;-;-;6.901779;-0.76594543;1.5509338;-;-;-;-;-;-;-;-;-;-;-;-;-;-;-
1514100871069;-;-;10.385345;-2.2084656;0.15031433;-;-;-;-;-;-;-;-;-;-;-;-;-;-;-
1514100871090;-;-;13.34816;-2.4466858;-3.6361084;-;-;-;-;-;-;-;-;-;-;-;-;-;-;-
1514100871111;-;-;15.0289;-2.2970428;-8.550201;-;-;-;-;-;-;-;-;-;-;-;-;-;-;-
1514100871131;-;-;13.114731;-3.2487335;-6.591751;-;-;-;-;-;-;-;-;-;-;-;-;-;-;-
1514100871151;-;-;9.3103485;-3.775467;-6.17276;-;-;-;-;-;-;-;-;-;-;-;-;-;-;-
1514100871171;-;-;6.2625275;0.5676117;-3.966507;-;-;-;-;-;-;-;-;-;-;-;-;-;-;-
1514100871192;-;-;6.814392;2.9342804;-4.3591614;-;-;-;-;-;-;-;-;-;-;-;-;-;-;-
1514100871215;-;-;8.971558;0.7651367;-4.760193;-;-;-;-;-;-;-;-;-;-;-;-;-;-;-
1514100871236;-;-;12.91481;-2.0671997;-4.1855774;-;-;-;-;-;-;-;-;-;-;-;-;-;-;-
1514100871256;-;-;15.996155;-1.7715149;-3.638504;-;-;-;-;-;-;-;-;-;-;-;-;-;-;-
1514100871276;-;-;12.807068;0.48501587;-3.8551788;-;-;-;-;-;-;-;-;-;-;-;-;-;-;-
1514100871296;-;-;9.691025;0.6681671;-2.4497833;-;-;-;-;-;-;-;-;-;-;-;-;-;-;-
1514100871317;-;-;5.9273376;0.57240295;-1.8643951;-;-;-;-;-;-;-;-;-;-;-;-;-;-;-
1514100871338;-;-;2.7286835;-0.109939575;-1.1054382;-;-;-;-;-;-;-;-;-;-;-;-;-;-;-
1514100871358;-;-;0.96894836;-0.5325165;-0.37161255;-;-;-;-;-;-;-;-;-;-;-;-;-;-;-
1514100871379;-;-;2.2869568;-0.26437378;-0.65652466;-;-;-;-;-;-;-;-;-;-;-;-;-;-;-
1514100871399;-;-;4.719467;0.26715088;-1.2299347;-;-;-;-;-;-;-;-;-;-;-;-;-;-;-
1514100871419;-;-;6.0530243;0.51135254;-0.5439911;-;-;-;-;-;-;-;-;-;-;-;-;-;-;-
1514100871440;-;-;5.948883;0.23841858;-0.06994629;-;-;-;-;-;-;-;-;-;-;-;-;-;-;-
1514100871460;-;-;5.486801;-0.026138306;0.13595581;-;-;-;-;-;-;-;-;-;-;-;-;-;-;-
1514100871480;-;-;4.770935;-0.19732666;-0.37998962;-;-;-;-;-;-;-;-;-;-;-;-;-;-;-
1514100871501;-;-;5.015152;0.2420044;-1.1413574;-;-;-;-;-;-;-;-;-;-;-;-;-;-;-
1514100871521;-;-;5.576584;1.4019928;-0.9809418;-;-;-;-;-;-;-;-;-;-;-;-;-;-;-
1514100871541;-;-;6.649185;2.8696442;-0.56555176;-;-;-;-;-;-;-;-;-;-;-;-;-;-;-
1514100871562;-;-;7.842697;3.2886353;-2.3049316;-;-;-;-;-;-;-;-;-;-;-;-;-;-;-
1514100871582;-;-;8.288025;1.9119568;-2.6353302;-;-;-;-;-;-;-;-;-;-;-;-;-;-;-
1514100871603;-;-;7.7409363;0.8956299;-2.7023773;-;-;-;-;-;-;-;-;-;-;-;-;-;-;-
1514100871623;-;-;7.671509;0.47065735;-2.2809906;-;-;-;-;-;-;-;-;-;-;-;-;-;-;-
1514100871643;-;-;7.8546753;0.58078;-2.6760406;-;-;-;-;-;-;-;-;-;-;-;-;-;-;-
1514100871664;-;-;7.41893;0.93392944;-6.0710144;-;-;-;-;-;-;-;-;-;-;-;-;-;-;-
1514100871684;-;-;10.400894;-0.66659546;-6.6839294;-;-;-;-;-;-;-;-;-;-;-;-;-;-;-
1514100871704;-;-;13.795883;-4.0041046;-9.440857;-;-;-;-;-;-;-;-;-;-;-;-;-;-;-
1514100871724;-;-;18.047989;-4.455414;-6.701889;-;-;-;-;-;-;-;-;-;-;-;-;-;-;-
1514100871744;-;-;19.925034;-0.88446045;-1.8213043;-;-;-;-;-;-;-;-;-;-;-;-;-;-;-
1514100871765;-;-;20.830048;-1.443512;-2.507248;-;-;-;-;-;-;-;-;-;-;-;-;-;-;-
1514100871785;-;-;16.891586;-3.3169708;-3.262619;-;-;-;-;-;-;-;-;-;-;-;-;-;-;-
1514100871805;-;-;13.2356415;-4.4470367;-0.93785095;-;-;-;-;-;-;-;-;-;-;-;-;-;-;-
1514100871826;-;-;8.824326;-3.1888885;-0.6792755;-;-;-;-;-;-;-;-;-;-;-;-;-;-;-
1514100871846;-;-;5.8997955;-0.19493103;-2.685608;-;-;-;-;-;-;-;-;-;-;-;-;-;-;-
1514100871866;-;-;4.4872284;1.1398315;-2.3133087;-;-;-;-;-;-;-;-;-;-;-;-;-;-;-
1514100871887;-;-;5.363495;0.75675964;-2.0798798;-;-;-;-;-;-;-;-;-;-;-;-;-;-;-
1514100871907;-;-;5.5634155;-0.29190063;-2.3611908;-;-;-;-;-;-;-;-;-;-;-;-;-;-;-
1514100871927;-;-;5.137253;-1.0616302;-1.8739777;-;-;-;-;-;-;-;-;-;-;-;-;-;-;-
1514100871948;-;-;4.587784;-1.3764801;-1.1545258;-;-;-;-;-;-;-;-;-;-;-;-;-;-;-
1514100871968;-;-;4.2633667;-1.4554901;-1.7315216;-;-;-;-;-;-;-;-;-;-;-;-;-;-;-
1514100871988;-;-;4.221466;-1.1059265;-3.3679657;-;-;-;-;-;-;-;-;-;-;-;-;-;-;-
1514100872009;-;-;3.390686;0.086380005;-3.6804047;-;-;-;-;-;-;-;-;-;-;-;-;-;-;-
1514100872029;-;-;3.5427094;0.20489502;-2.203186;-;-;-;-;-;-;-;-;-;-;-;-;-;-;-
1514100872049;-;-;5.015152;-0.16261292;-0.34887695;-;-;-;-;-;-;-;-;-;-;-;-;-;-;-
1514100872069;-;-;7.047821;-0.15663147;2.2225037;-;-;-;-;-;-;-;-;-;-;-;-;-;-;-
1514100872090;-;-;9.9077;-0.8162384;2.548111;-;-;-;-;-;-;-;-;-;-;-;-;-;-;-
1514100872110;-;-;9.804749;-3.878418;-1.1892395;-;-;-;-;-;-;-;-;-;-;-;-;-;-;-
1514100872130;-;-;9.361816;-7.1093903;-1.3496399;-;-;-;-;-;-;-;-;-;-;-;-;-;-;-
1514100872150;-;-;8.616028;-6.0068665;-2.9010925;-;-;-;-;-;-;-;-;-;-;-;-;-;-;-
1514100872171;-;-;8.76207;0.93751526;-6.322403;-;-;-;-;-;-;-;-;-;-;-;-;-;-;-
1514100872191;-;-;10.318298;5.9940796;-5.872299;-;-;-;-;-;-;-;-;-;-;-;-;-;-;-
1514100872211;-;-;12.543716;7.2701874;-2.132553;-;-;-;-;-;-;-;-;-;-;-;-;-;-;-
1514100872231;-;-;15.63942;5.695999;-4.499222;-;-;-;-;-;-;-;-;-;-;-;-;-;-;-
1514100872252;-;-;22.218674;7.0415344;-2.4378052;-;-;-;-;-;-;-;-;-;-;-;-;-;-;-
1514100872272;-;-;26.181091;4.054779;-4.2801514;-;-;-;-;-;-;-;-;-;-;-;-;-;-;-
1514100872291;-;-;20.476898;-2.416748;-2.8232727;-;-;-;-;-;-;-;-;-;-;-;-;-;-;-
1514100872311;-;-;14.005371;-3.5396423;-1.6405487;-;-;-;-;-;-;-;-;-;-;-;-;-;-;-
1514100872333;-;-;7.375824;-1.8612976;-2.5539246;-;-;-;-;-;-;-;-;-;-;-;-;-;-;-
1514100872353;-;-;1.3220825;2.1286316;-1.871582;-;-;-;-;-;-;-;-;-;-;-;-;-;-;-
1514100872373;-;-;-0.8913574;4.4845276;-0.93785095;-;-;-;-;-;-;-;-;-;-;-;-;-;-;-
1514100872394;-;-;-0.8123474;4.604248;-0.6792755;-;-;-;-;-;-;-;-;-;-;-;-;-;-;-
1514100872414;-;-;2.4353943;1.0596313;-0.17529297;-;-;-;-;-;-;-;-;-;-;-;-;-;-;-
1514100872435;-;-;4.8703003;-1.8301697;-0.24472046;-;-;-;-;-;-;-;-;-;-;-;-;-;-;-
1514100872455;-;-;6.8790283;-2.8860168;-0.78700256;-;-;-;-;-;-;-;-;-;-;-;-;-;-;-
1514100872475;-;-;7.414139;-1.4399261;-0.34648132;-;-;-;-;-;-;-;-;-;-;-;-;-;-;-
1514100872496;-;-;7.248932;0.1510315;-0.46858215;-;-;-;-;-;-;-;-;-;-;-;-;-;-;-
1514100872516;-;-;6.3511047;0.65141296;-1.5292053;-;-;-;-;-;-;-;-;-;-;-;-;-;-;-
1514100872536;-;-;6.0697937;0.04447937;-1.9721375;-;-;-;-;-;-;-;-;-;-;-;-;-;-;-
1514100872557;-;-;6.1368256;0.069625854;-0.82173157;-;-;-;-;-;-;-;-;-;-;-;-;-;-;-
1514100872577;-;-;6.802414;1.6067047;-0.43147278;-;-;-;-;-;-;-;-;-;-;-;-;-;-;-
1514100872597;-;-;7.6032715;3.204834;-1.4693604;-;-;-;-;-;-;-;-;-;-;-;-;-;-;-
1514100872618;-;-;7.7768555;3.2335663;-2.271408;-;-;-;-;-;-;-;-;-;-;-;-;-;-;-
1514100872638;-;-;7.6343994;2.648178;-2.7514496;-;-;-;-;-;-;-;-;-;-;-;-;-;-;-
1514100872658;-;-;7.904953;2.1633606;-5.143265;-;-;-;-;-;-;-;-;-;-;-;-;-;-;-
1514100872678;-;-;8.022263;0.99139404;-8.03186;-;-;-;-;-;-;-;-;-;-;-;-;-;-;-
1514100872699;-;-;10.178238;-0.5337219;-5.2450104;-;-;-;-;-;-;-;-;-;-;-;-;-;-;-
1514100872719;-;-;11.225708;-2.3856354;-3.472107;-;-;-;-;-;-;-;-;-;-;-;-;-;-;-
1514100872739;-;-;14.700882;-3.6473694;-4.578232;-;-;-;-;-;-;-;-;-;-;-;-;-;-;-
1514100872760;-;-;22.564636;-4.9079285;0.6052246;-;-;-;-;-;-;-;-;-;-;-;-;-;-;-
1514100872779;-;-;24.809204;-8.026367;-6.1033325;-;-;-;-;-;-;-;-;-;-;-;-;-;-;-
1514100872799;-;-;20.706741;-5.56752;-4.2454376;-;-;-;-;-;-;-;-;-;-;-;-;-;-;-
1514100872820;-;-;14.7344055;-0.52893066;0.8949127;-;-;-;-;-;-;-;-;-;-;-;-;-;-;-
1514100872839;-;-;9.129578;2.0412445;0.77879333;-;-;-;-;-;-;-;-;-;-;-;-;-;-;-
1514100872859;-;-;6.181122;2.892395;-2.1433258;-;-;-;-;-;-;-;-;-;-;-;-;-;-;-
1514100872880;-;-;4.324417;1.5600128;-1.9613647;-;-;-;-;-;-;-;-;-;-;-;-;-;-;-
1514100872899;-;-;4.956482;-0.4044342;-1.9877014;-;-;-;-;-;-;-;-;-;-;-;-;-;-;-
1514100872919;-;-;5.781296;-2.3078156;-2.1732483;-;-;-;-;-;-;-;-;-;-;-;-;-;-;-
1514100872939;-;-;4.6105194;-2.8716583;-2.1588898;-;-;-;-;-;-;-;-;-;-;-;-;-;-;-
1514100872960;-;-;4.201111;-2.95784;-1.5459747;-;-;-;-;-;-;-;-;-;-;-;-;-;-;-
1514100872979;-;-;3.5798187;-2.0779724;-1.6237793;-;-;-;-;-;-;-;-;-;-;-;-;-;-;-
1514100872999;-;-;4.4130096;-0.86531067;-1.9218597;-;-;-;-;-;-;-;-;-;-;-;-;-;-;-
1514100873020;-;-;4.7685394;-0.44033813;-1.8763733;-;-;-;-;-;-;-;-;-;-;-;-;-;-;-
1514100873040;-;-;3.8431854;-1.1741638;-1.030014;-;-;-;-;-;-;-;-;-;-;-;-;-;-;-
1514100873061;-;-;3.9377594;-1.8397522;1.1618652;-;-;-;-;-;-;-;-;-;-;-;-;-;-;-
1514100873081;-;-;6.6539764;-1.9522858;1.6730347;-;-;-;-;-;-;-;-;-;-;-;-;-;-;-
1514100873101;-;-;8.291611;-1.913971;2.3278503;-;-;-;-;-;-;-;-;-;-;-;-;-;-;-
1514100873121;-;-;7.7541046;-1.803833;-1.6046295;-;-;-;-;-;-;-;-;-;-;-;-;-;-;-
1514100873142;-;-;8.084518;-1.0005798;-2.3001404;-;-;-;-;-;-;-;-;-;-;-;-;-;-;-
1514100873162;-;-;8.24852;0.18095398;0.22453308;-;-;-;-;-;-;-;-;-;-;-;-;-;-;-
1514100873182;-;-;7.0490265;1.2822876;-2.4976654;-;-;-;-;-;-;-;-;-;-;-;-;-;-;-
1514100873203;-;-;9.446808;1.1051178;-10.426071;-;-;-;-;-;-;-;-;-;-;-;-;-;-;-
1514100873223;-;-;14.964249;1.8892212;-6.7725067;-;-;-;-;-;-;-;-;-;-;-;-;-;-;-
1514100873243;-;-;17.385986;3.6693115;-1.7123718;-;-;-;-;-;-;-;-;-;-;-;-;-;-;-
1514100873264;-;-;17.608643;3.877594;-2.907074;-;-;-;-;-;-;-;-;-;-;-;-;-;-;-
1514100873284;-;-;18.742294;5.0974426;-6.239807;-;-;-;-;-;-;-;-;-;-;-;-;-;-;-
1514100873304;-;-;22.891449;3.9554138;-7.55542;-;-;-;-;-;-;-;-;-;-;-;-;-;-;-
1514100873324;-;-;16.561188;-0.19134521;-3.1393127;-;-;-;-;-;-;-;-;-;-;-;-;-;-;-
1514100873345;-;-;10.918045;-1.8900299;-2.5024567;-;-;-;-;-;-;-;-;-;-;-;-;-;-;-
1514100873365;-;-;5.830368;-1.4746399;-2.1732483;-;-;-;-;-;-;-;-;-;-;-;-;-;-;-
1514100873385;-;-;2.3288574;-0.54689026;-1.3364716;-;-;-;-;-;-;-;-;-;-;-;-;-;-;-
1514100873406;-;-;-0.2425232;0.3617096;-1.480133;-;-;-;-;-;-;-;-;-;-;-;-;-;-;-
1514100873426;-;-;-0.70700073;0.8609009;-0.3548584;-;-;-;-;-;-;-;-;-;-;-;-;-;-;-
1514100873446;-;-;2.039154;0.3174286;1.0828552;-;-;-;-;-;-;-;-;-;-;-;-;-;-;-
1514100873467;-;-;5.853119;-0.3649292;1.1068115;-;-;-;-;-;-;-;-;-;-;-;-;-;-;-
1514100873487;-;-;5.7322083;-0.37210083;-0.54759216;-;-;-;-;-;-;-;-;-;-;-;-;-;-;-
1514100873507;-;-;4.466873;0.12709045;-1.7099762;-;-;-;-;-;-;-;-;-;-;-;-;-;-;-
1514100873527;-;-;3.905426;0.57121277;-1.2873993;-;-;-;-;-;-;-;-;-;-;-;-;-;-;-
1514100873547;-;-;4.975647;-0.1015625;-1.531601;-;-;-;-;-;-;-;-;-;-;-;-;-;-;-
1514100873568;-;-;7.734955;-0.36013794;-0.6840515;-;-;-;-;-;-;-;-;-;-;-;-;-;-;-
1514100873588;-;-;10.308731;1.5097351;-1.8931274;-;-;-;-;-;-;-;-;-;-;-;-;-;-;-
1514100873608;-;-;10.93959;4.956192;-3.4242249;-;-;-;-;-;-;-;-;-;-;-;-;-;-;-
1514100873629;-;-;8.878189;6.146103;-4.76857;-;-;-;-;-;-;-;-;-;-;-;-;-;-;-
1514100873649;-;-;6.6527863;2.426712;-4.0910034;-;-;-;-;-;-;-;-;-;-;-;-;-;-;-
1514100873669;-;-;5.2856903;-1.2028961;-4.975662;-;-;-;-;-;-;-;-;-;-;-;-;-;-;-
1514100873689;-;-;5.687912;-4.5176697;-5.206711;-;-;-;-;-;-;-;-;-;-;-;-;-;-;-
1514100873710;-;-;8.917694;-4.7499084;-4.330429;-;-;-;-;-;-;-;-;-;-;-;-;-;-;-
1514100873730;-;-;12.159439;-2.9398804;-5.460495;-;-;-;-;-;-;-;-;-;-;-;-;-;-;-
1514100873750;-;-;19.105026;-2.221634;-6.820404;-;-;-;-;-;-;-;-;-;-;-;-;-;-;-
1514100873770;-;-;28.76323;-3.03685;-0.54759216;-;-;-;-;-;-;-;-;-;-;-;-;-;-;-
1514100873791;-;-;25.811188;-3.9861603;-7.4943695;-;-;-;-;-;-;-;-;-;-;-;-;-;-;-
1514100873811;-;-;16.31578;0.103149414;-2.8735504;-;-;-;-;-;-;-;-;-;-;-;-;-;-;-
1514100873831;-;-;8.714188;0.6837311;-0.061569214;-;-;-;-;-;-;-;-;-;-;-;-;-;-;-
1514100873852;-;-;3.4361725;-0.39006042;-0.9330597;-;-;-;-;-;-;-;-;-;-;-;-;-;-;-
1514100873872;-;-;0.7654419;-1.6302643;-2.2618408;-;-;-;-;-;-;-;-;-;-;-;-;-;-;-
1514100873892;-;-;0.9390106;-2.2874756;-3.1022034;-;-;-;-;-;-;-;-;-;-;-;-;-;-;-
1514100873913;-;-;5.312027;-0.5935669;-2.373169;-;-;-;-;-;-;-;-;-;-;-;-;-;-;-
1514100873933;-;-;8.698624;0.9614563;-1.990097;-;-;-;-;-;-;-;-;-;-;-;-;-;-;-
1514100873954;-;-;6.6539764;0.18933105;-2.1169891;-;-;-;-;-;-;-;-;-;-;-;-;-;-;-
1514100873973;-;-;5.734604;-0.7420044;-2.0511475;-;-;-;-;-;-;-;-;-;-;-;-;-;-;-
1514100873994;-;-;4.9983826;-1.2136688;-2.5646973;-;-;-;-;-;-;-;-;-;-;-;-;-;-;-
1514100874014;-;-;4.161606;-0.9036255;-3.2219086;-;-;-;-;-;-;-;-;-;-;-;-;-;-;-
1514100874034;-;-;3.968872;-0.4259796;-2.1936035;-;-;-;-;-;-;-;-;-;-;-;-;-;-;-
1514100874055;-;-;4.0969696;-0.62828064;-0.30337524;-;-;-;-;-;-;-;-;-;-;-;-;-;-;-
1514100874075;-;-;4.901413;-1.5476532;1.4707184;-;-;-;-;-;-;-;-;-;-;-;-;-;-;-
1514100874095;-;-;5.632843;-3.7575073;1.5964203;-;-;-;-;-;-;-;-;-;-;-;-;-;-;-
1514100874116;-;-;6.9400787;-3.7970123;0.52500916;-;-;-;-;-;-;-;-;-;-;-;-;-;-;-
1514100874136;-;-;7.8726196;-1.977417;-1.9302368;-;-;-;-;-;-;-;-;-;-;-;-;-;-;-
1514100874156;-;-;8.495117;-0.8186188;-3.0064392;-;-;-;-;-;-;-;-;-;-;-;-;-;-;-
1514100874176;-;-;7.9935303;-0.035720825;-5.932144;-;-;-;-;-;-;-;-;-;-;-;-;-;-;-
1514100874196;-;-;10.197388;1.2044678;-9.9735565;-;-;-;-;-;-;-;-;-;-;-;-;-;-;-
1514100874216;-;-;14.584763;2.655365;-3.7869415;-;-;-;-;-;-;-;-;-;-;-;-;-;-;-
1514100874237;-;-;17.20642;3.6429749;-2.8220825;-;-;-;-;-;-;-;-;-;-;-;-;-;-;-
1514100874258;-;-;19.940598;3.745926;-3.9090424;-;-;-;-;-;-;-;-;-;-;-;-;-;-;-
1514100874278;-;-;22.065445;2.4961395;-3.4038696;-;-;-;-;-;-;-;-;-;-;-;-;-;-;-
1514100874298;-;-;17.939041;-0.19374084;-2.3228912;-;-;-;-;-;-;-;-;-;-;-;-;-;-;-
1514100874319;-;-;12.6466675;-0.24043274;-0.7199707;-;-;-;-;-;-;-;-;-;-;-;-;-;-;-
1514100874338;-;-;8.617218;0.6861267;-0.7199707;-;-;-;-;-;-;-;-;-;-;-;-;-;-;-
1514100874358;-;-;6.60968;1.6581726;-1.4358368;-;-;-;-;-;-;-;-;-;-;-;-;-;-;-
1514100874379;-;-;5.711853;1.9179535;-1.4334412;-;-;-;-;-;-;-;-;-;-;-;-;-;-;-
1514100874398;-;-;4.5147552;1.6091003;-1.9446106;-;-;-;-;-;-;-;-;-;-;-;-;-;-;-
1514100874418;-;-;3.3248444;0.6681671;-1.7075806;-;-;-;-;-;-;-;-;-;-;-;-;-;-;-
1514100874438;-;-;2.722702;-0.9395294;-0.6792755;-;-;-;-;-;-;-;-;-;-;-;-;-;-;-
1514100874459;-;-;3.8168488;-2.3975983;-0.46139526;-;-;-;-;-;-;-;-;-;-;-;-;-;-;-
1514100874478;-;-;5.9189606;-1.9498901;-1.0910797;-;-;-;-;-;-;-;-;-;-;-;-;-;-;-
1514100874499;-;-;6.834732;-0.28831482;-1.3077545;-;-;-;-;-;-;-;-;-;-;-;-;-;-;-
1514100874519;-;-;6.403778;1.5528259;-1.361618;-;-;-;-;-;-;-;-;-;-;-;-;-;-;-
1514100874539;-;-;4.557846;0.848938;-1.2227478;-;-;-;-;-;-;-;-;-;-;-;-;-;-;-
1514100874559;-;-;3.9736633;-0.7779236;-0.7187805;-;-;-;-;-;-;-;-;-;-;-;-;-;-;-
1514100874580;-;-;5.5825653;-0.8772888;-1.2251434;-;-;-;-;-;-;-;-;-;-;-;-;-;-;-
1514100874600;-;-;8.009094;0.7232361;-1.9733429;-;-;-;-;-;-;-;-;-;-;-;-;-;-;-
1514100874620;-;-;9.128387;3.3700256;-2.029602;-;-;-;-;-;-;-;-;-;-;-;-;-;-;-
1514100874640;-;-;9.06134;5.251877;-2.6927948;-;-;-;-;-;-;-;-;-;-;-;-;-;-;-
1514100874660;-;-;8.514267;3.9015503;-3.3320465;-;-;-;-;-;-;-;-;-;-;-;-;-;-;-
1514100874681;-;-;7.5829315;0.77830505;-5.7274475;-;-;-;-;-;-;-;-;-;-;-;-;-;-;-
1514100874701;-;-;6.554611;-1.7332153;-7.954056;-;-;-;-;-;-;-;-;-;-;-;-;-;-;-
1514100874721;-;-;8.298798;-2.4526672;-6.0782013;-;-;-;-;-;-;-;-;-;-;-;-;-;-;-
1514100874741;-;-;10.528992;-2.2204285;-3.0220032;-;-;-;-;-;-;-;-;-;-;-;-;-;-;-
1514100874762;-;-;15.397598;-1.3716888;-8.417328;-;-;-;-;-;-;-;-;-;-;-;-;-;-;-
1514100874781;-;-;27.671478;-1.7930603;3.7607727;-;-;-;-;-;-;-;-;-;-;-;-;-;-;-
1514100874801;-;-;24.896591;-2.3940125;-8.262909;-;-;-;-;-;-;-;-;-;-;-;-;-;-;-
1514100874821;-;-;19.314514;-1.1107178;-1.8763733;-;-;-;-;-;-;-;-;-;-;-;-;-;-;-
1514100874841;-;-;12.984253;-0.8317871;1.0254059;-;-;-;-;-;-;-;-;-;-;-;-;-;-;-
1514100874861;-;-;7.5278625;-1.3860474;0.9427948;-;-;-;-;-;-;-;-;-;-;-;-;-;-;-
1514100874881;-;-;4.01915;-2.182129;0.015045166;-;-;-;-;-;-;-;-;-;-;-;-;-;-;-
1514100874901;-;-;1.8440247;-2.1162872;-1.5292053;-;-;-;-;-;-;-;-;-;-;-;-;-;-;-
1514100874921;-;-;3.4804688;-1.0795898;-1.7207489;-;-;-;-;-;-;-;-;-;-;-;-;-;-;-
1514100874942;-;-;6.826355;0.82858276;-1.6956024;-;-;-;-;-;-;-;-;-;-;-;-;-;-;-
1514100874961;-;-;7.937271;1.3062286;-1.2909851;-;-;-;-;-;-;-;-;-;-;-;-;-;-;-
1514100874981;-;-;6.826355;-0.29190063;-1.0048828;-;-;-;-;-;-;-;-;-;-;-;-;-;-;-
1514100875001;-;-;6.2146454;-2.0336761;-1.5543518;-;-;-;-;-;-;-;-;-;-;-;-;-;-;-
1514100875022;-;-;5.7693176;-2.7543335;-2.0032654;-;-;-;-;-;-;-;-;-;-;-;-;-;-;-
1514100875042;-;-;5.534683;-2.3545074;-2.4330292;-;-;-;-;-;-;-;-;-;-;-;-;-;-;-
1514100875062;-;-;5.297653;-1.111908;-1.9757233;-;-;-;-;-;-;-;-;-;-;-;-;-;-;-
1514100875082;-;-;5.1671753;-0.8988342;-1.1581116;-;-;-;-;-;-;-;-;-;-;-;-;-;-;-
1514100875103;-;-;5.5071564;-1.9498901;-0.19683838;-;-;-;-;-;-;-;-;-;-;-;-;-;-;-
1514100875122;-;-;6.576172;-3.0093231;1.1594696;-;-;-;-;-;-;-;-;-;-;-;-;-;-;-
1514100875142;-;-;8.305969;-2.9434814;1.2205353;-;-;-;-;-;-;-;-;-;-;-;-;-;-;-
1514100875162;-;-;9.556946;-1.4530945;-0.051986694;-;-;-;-;-;-;-;-;-;-;-;-;-;-;-
1514100875182;-;-;9.199005;0.18933105;-2.7753906;-;-;-;-;-;-;-;-;-;-;-;-;-;-;-
1514100875203;-;-;8.589691;0.57958984;-5.0235443;-;-;-;-;-;-;-;-;-;-;-;-;-;-;-
1514100875223;-;-;7.8331146;0.46826172;-7.481201;-;-;-;-;-;-;-;-;-;-;-;-;-;-;-
1514100875243;-;-;7.3028107;2.2519379;-4.627304;-;-;-;-;-;-;-;-;-;-;-;-;-;-;-
1514100875264;-;-;8.630386;5.469742;-2.093048;-;-;-;-;-;-;-;-;-;-;-;-;-;-;-
1514100875284;-;-;11.862564;7.5359344;-3.5295715;-;-;-;-;-;-;-;-;-;-;-;-;-;-;-
1514100875304;-;-;15.625046;6.462143;-2.867569;-;-;-;-;-;-;-;-;-;-;-;-;-;-;-
1514100875325;-;-;23.50557;2.5200958;-0.9007416;-;-;-;-;-;-;-;-;-;-;-;-;-;-;-
1514100875344;-;-;26.910126;-4.8768005;-3.6995544;-;-;-;-;-;-;-;-;-;-;-;-;-;-;-
1514100875365;-;-;18.26825;-4.9007416;-1.4238739;-;-;-;-;-;-;-;-;-;-;-;-;-;-;-
1514100875385;-;-;9.340271;-1.4722443;-0.6613159;-;-;-;-;-;-;-;-;-;-;-;-;-;-;-
1514100875405;-;-;5.185135;0.35812378;-1.219162;-;-;-;-;-;-;-;-;-;-;-;-;-;-;-
1514100875426;-;-;2.133728;1.6845093;-2.2833862;-;-;-;-;-;-;-;-;-;-;-;-;-;-;-
1514100875445;-;-;0.3177185;1.9394989;-1.2203674;-;-;-;-;-;-;-;-;-;-;-;-;-;-;-
1514100875465;-;-;0.3069458;0.5484619;0.8506317;-;-;-;-;-;-;-;-;-;-;-;-;-;-;-
1514100875485;-;-;4.0849915;-0.9503021;0.6363373;-;-;-;-;-;-;-;-;-;-;-;-;-;-;-
1514100875505;-;-;7.0059204;-0.8748932;-0.8312988;-;-;-;-;-;-;-;-;-;-;-;-;-;-;-
1514100875525;-;-;6.4803925;0.06602478;-2.266632;-;-;-;-;-;-;-;-;-;-;-;-;-;-;-
1514100875546;-;-;5.2665405;0.72084045;-2.0954437;-;-;-;-;-;-;-;-;-;-;-;-;-;-;-
1514100875565;-;-;4.193939;0.96624756;-0.97135925;-;-;-;-;-;-;-;-;-;-;-;-;-;-;-
1514100875585;-;-;5.1887207;0.28390503;-0.11782837;-;-;-;-;-;-;-;-;-;-;-;-;-;-;-
1514100875606;-;-;7.928894;-0.021362305;1.0122375;-;-;-;-;-;-;-;-;-;-;-;-;-;-;-
1514100875627;-;-;9.166687;1.7527466;-0.21838379;-;-;-;-;-;-;-;-;-;-;-;-;-;-;-
1514100875647;-;-;9.401321;3.9015503;-3.70195;-;-;-;-;-;-;-;-;-;-;-;-;-;-;-
1514100875667;-;-;9.153519;4.269058;-4.673996;-;-;-;-;-;-;-;-;-;-;-;-;-;-;-
1514100875687;-;-;7.845093;1.5312805;-0.25190735;-;-;-;-;-;-;-;-;-;-;-;-;-;-;-
1514100875708;-;-;7.7134094;-0.3768921;0.27841187;-;-;-;-;-;-;-;-;-;-;-;-;-;-;-
1514100875728;-;-;8.699814;-0.87968445;-2.3528137;-;-;-;-;-;-;-;-;-;-;-;-;-;-;-
1514100875748;-;-;10.1171875;-1.6039276;-4.9062347;-;-;-;-;-;-;-;-;-;-;-;-;-;-;-
1514100875769;-;-;11.779968;-2.6430054;-6.6887207;-;-;-;-;-;-;-;-;-;-;-;-;-;-;-
1514100875789;-;-;13.637863;-2.1857147;-4.436966;-;-;-;-;-;-;-;-;-;-;-;-;-;-;-
1514100875809;-;-;16.838913;-1.1334686;-2.4665375;-;-;-;-;-;-;-;-;-;-;-;-;-;-;-
1514100875829;-;-;22.230652;-2.7040558;-5.412613;-;-;-;-;-;-;-;-;-;-;-;-;-;-;-
1514100875849;-;-;23.612106;-4.3476715;-5.6807556;-;-;-;-;-;-;-;-;-;-;-;-;-;-;-
1514100875870;-;-;19.14093;-2.6729279;-2.567093;-;-;-;-;-;-;-;-;-;-;-;-;-;-;-
1514100875890;-;-;11.514206;-2.1067047;-1.1868439;-;-;-;-;-;-;-;-;-;-;-;-;-;-;-
1514100875910;-;-;5.810013;-2.6717377;-0.7678528;-;-;-;-;-;-;-;-;-;-;-;-;-;-;-
1514100875931;-;-;1.6165771;-3.4319;-1.5016785;-;-;-;-;-;-;-;-;-;-;-;-;-;-;-
1514100875951;-;-;0.8779602;-2.7136383;-1.8224945;-;-;-;-;-;-;-;-;-;-;-;-;-;-;-
1514100875971;-;-;5.87825;-0.8305969;-1.0826874;-;-;-;-;-;-;-;-;-;-;-;-;-;-;-
1514100875991;-;-;6.977188;-0.7910919;-1.1868439;-;-;-;-;-;-;-;-;-;-;-;-;-;-;-
1514100876012;-;-;5.6855164;-1.6051178;-0.8720093;-;-;-;-;-;-;-;-;-;-;-;-;-;-;-
1514100876032;-;-;5.1432343;-1.9738312;-0.44703674;-;-;-;-;-;-;-;-;-;-;-;-;-;-;-
1514100876052;-;-;6.153595;-2.221634;-0.11543274;-;-;-;-;-;-;-;-;-;-;-;-;-;-;-
1514100876072;-;-;7.7888336;-2.8884125;-0.104660034;-;-;-;-;-;-;-;-;-;-;-;-;-;-;-
1514100876092;-;-;8.869812;-3.6473694;-1.2909851;-;-;-;-;-;-;-;-;-;-;-;-;-;-;-
1514100876113;-;-;9.807144;-4.0663605;-1.7865906;-;-;-;-;-;-;-;-;-;-;-;-;-;-;-
1514100876132;-;-;10.915649;-3.3121796;0.1479187;-;-;-;-;-;-;-;-;-;-;-;-;-;-;-
1514100876152;-;-;10.810303;-2.6573792;1.4826965;-;-;-;-;-;-;-;-;-;-;-;-;-;-;-
1514100876172;-;-;10.789963;-3.5815277;0.2616577;-;-;-;-;-;-;-;-;-;-;-;-;-;-;-
1514100876193;-;-;9.210983;-3.5168915;-3.377533;-;-;-;-;-;-;-;-;-;-;-;-;-;-;-
1514100876213;-;-;10.710953;-1.7224426;-12.6766205;-;-;-;-;-;-;-;-;-;-;-;-;-;-;-
1514100876233;-;-;14.230423;1.6545868;-10.527817;-;-;-;-;-;-;-;-;-;-;-;-;-;-;-
1514100876254;-;-;10.714539;2.6817017;-3.2266998;-;-;-;-;-;-;-;-;-;-;-;-;-;-;-
1514100876274;-;-;9.967545;1.2894745;-5.0056;-;-;-;-;-;-;-;-;-;-;-;-;-;-;-
1514100876294;-;-;11.582443;-1.1011353;-5.2964935;-;-;-;-;-;-;-;-;-;-;-;-;-;-;-
1514100876315;-;-;13.01297;-2.3497162;-4.796097;-;-;-;-;-;-;-;-;-;-;-;-;-;-;-
1514100876335;-;-;11.580048;-1.7703247;-4.5961914;-;-;-;-;-;-;-;-;-;-;-;-;-;-;-
1514100876355;-;-;8.284424;-0.6474457;-3.353592;-;-;-;-;-;-;-;-;-;-;-;-;-;-;-
1514100876376;-;-;6.6982727;-1.1131134;-2.357605;-;-;-;-;-;-;-;-;-;-;-;-;-;-;-
1514100876396;-;-;4.7733307;-1.8062286;-3.0148163;-;-;-;-;-;-;-;-;-;-;-;-;-;-;-
1514100876416;-;-;3.497223;-2.0684052;-3.9641113;-;-;-;-;-;-;-;-;-;-;-;-;-;-;-
1514100876437;-;-;3.5510864;-0.8748932;-4.5351257;-;-;-;-;-;-;-;-;-;-;-;-;-;-;-
1514100876457;-;-;4.5051727;1.0680084;-4.5494995;-;-;-;-;-;-;-;-;-;-;-;-;-;-;-
1514100876478;-;-;6.299637;3.4322815;-4.334015;-;-;-;-;-;-;-;-;-;-;-;-;-;-;-
1514100876498;-;-;9.516251;3.9290771;-4.3603516;-;-;-;-;-;-;-;-;-;-;-;-;-;-;-
1514100876518;-;-;11.316681;3.494522;-4.780533;-;-;-;-;-;-;-;-;-;-;-;-;-;-;-
1514100876538;-;-;9.483917;3.118637;-4.093399;-;-;-;-;-;-;-;-;-;-;-;-;-;-;-
1514100876559;-;-;6.807205;2.4003754;-2.603012;-;-;-;-;-;-;-;-;-;-;-;-;-;-;-
1514100876579;-;-;5.838745;1.5983276;-1.6752625;-;-;-;-;-;-;-;-;-;-;-;-;-;-;-
1514100876599;-;-;6.260132;0.53170776;-1.7063904;-;-;-;-;-;-;-;-;-;-;-;-;-;-;-
1514100876619;-;-;7.088516;0.055252075;-2.3288727;-;-;-;-;-;-;-;-;-;-;-;-;-;-;-
1514100876639;-;-;8.015076;0.53170776;-2.4019012;-;-;-;-;-;-;-;-;-;-;-;-;-;-;-
1514100876660;-;-;10.293167;2.0436401;-2.1624756;-;-;-;-;-;-;-;-;-;-;-;-;-;-;-
1514100876679;-;-;10.894104;3.1054688;-1.5603333;-;-;-;-;-;-;-;-;-;-;-;-;-;-;-
1514100876699;-;-;9.293579;3.1940613;-2.2283173;-;-;-;-;-;-;-;-;-;-;-;-;-;-;-
1514100876719;-;-;8.32872;2.3728485;-0.2399292;-;-;-;-;-;-;-;-;-;-;-;-;-;-;-
1514100876740;-;-;8.110855;1.6043091;0.95118713;-;-;-;-;-;-;-;-;-;-;-;-;-;-;-
1514100876760;-;-;8.513077;0.67056274;-0.22077942;-;-;-;-;-;-;-;-;-;-;-;-;-;-;-
1514100876780;-;-;10.296753;1.7060547;-4.496826;-;-;-;-;-;-;-;-;-;-;-;-;-;-;-
1514100876800;-;-;10.679825;1.5264893;-5.8471527;-;-;-;-;-;-;-;-;-;-;-;-;-;-;-
1514100876821;-;-;14.032913;-1.0221252;-5.34198;-;-;-;-;-;-;-;-;-;-;-;-;-;-;-
1514100876841;-;-;11.969101;-2.221634;-6.1428375;-;-;-;-;-;-;-;-;-;-;-;-;-;-;-
1514100876861;-;-;9.013458;-3.8197632;-5.3323975;-;-;-;-;-;-;-;-;-;-;-;-;-;-;-
1514100876881;-;-;6.9269104;-4.921097;-3.8815155;-;-;-;-;-;-;-;-;-;-;-;-;-;-;-
1514100876901;-;-;7.988739;-3.8424988;-4.8822937;-;-;-;-;-;-;-;-;-;-;-;-;-;-;-
1514100876922;-;-;9.397736;-1.8792572;-5.406616;-;-;-;-;-;-;-;-;-;-;-;-;-;-;-
1514100876942;-;-;10.022614;-0.29190063;-4.721878;-;-;-;-;-;-;-;-;-;-;-;-;-;-;-
1514100876962;-;-;9.649124;0.57958984;-4.8224335;-;-;-;-;-;-;-;-;-;-;-;-;-;-;-
1514100876983;-;-;8.376602;0.4909973;-4.730255;-;-;-;-;-;-;-;-;-;-;-;-;-;-;-
1514100877003;-;-;7.0370483;-0.53730774;-3.405075;-;-;-;-;-;-;-;-;-;-;-;-;-;-;-
1514100877023;-;-;6.3020325;-1.8660889;-2.6484985;-;-;-;-;-;-;-;-;-;-;-;-;-;-;-
1514100877044;-;-;6.038666;-2.6286469;-2.4378052;-;-;-;-;-;-;-;-;-;-;-;-;-;-;-
1514100877064;-;-;5.652008;-2.2467651;-2.2761993;-;-;-;-;-;-;-;-;-;-;-;-;-;-;-
1514100877084;-;-;5.6819305;-1.1933136;-2.3935242;-;-;-;-;-;-;-;-;-;-;-;-;-;-;-
1514100877104;-;-;6.6264496;-0.121917725;-2.5180206;-;-;-;-;-;-;-;-;-;-;-;-;-;-;-
1514100877125;-;-;7.9193115;0.43952942;-2.3695831;-;-;-;-;-;-;-;-;-;-;-;-;-;-;-
1514100877146;-;-;8.527435;0.6394501;-2.3252869;-;-;-;-;-;-;-;-;-;-;-;-;-;-;-
1514100877166;-;-;8.450821;1.101532;-2.1026306;-;-;-;-;-;-;-;-;-;-;-;-;-;-;-
1514100877186;-;-;8.705811;1.4414978;-1.8392639;-;-;-;-;-;-;-;-;-;-;-;-;-;-;-
1514100877206;-;-;9.717361;1.1326447;-1.8248901;-;-;-;-;-;-;-;-;-;-;-;-;-;-;-
1514100877227;-;-;10.545746;-0.1985321;-1.98172;-;-;-;-;-;-;-;-;-;-;-;-;-;-;-
1514100877247;-;-;10.4140625;-1.2076874;-0.89115906;-;-;-;-;-;-;-;-;-;-;-;-;-;-;-
1514100877267;-;-;10.121979;-1.4961853;-0.46858215;-;-;-;-;-;-;-;-;-;-;-;-;-;-;-
1514100877288;-;-;9.171478;-2.0289001;-3.8288422;-;-;-;-;-;-;-;-;-;-;-;-;-;-;-
1514100877308;-;-;9.954376;-3.577942;-7.63562;-;-;-;-;-;-;-;-;-;-;-;-;-;-;-
1514100877328;-;-;10.514633;-4.405136;-7.5254974;-;-;-;-;-;-;-;-;-;-;-;-;-;-;-
1514100877349;-;-;9.977127;-0.8246155;-4.1688232;-;-;-;-;-;-;-;-;-;-;-;-;-;-;-
1514100877369;-;-;9.531799;2.5811462;-3.717514;-;-;-;-;-;-;-;-;-;-;-;-;-;-;-
1514100877389;-;-;9.383362;3.0671692;-4.123337;-;-;-;-;-;-;-;-;-;-;-;-;-;-;-
1514100877409;-;-;9.735321;-0.4834442;-4.2143097;-;-;-;-;-;-;-;-;-;-;-;-;-;-;-
1514100877430;-;-;11.380127;-4.0424194;-3.1656494;-;-;-;-;-;-;-;-;-;-;-;-;-;-;-
1514100877450;-;-;11.570465;-3.5970917;-3.3248596;-;-;-;-;-;-;-;-;-;-;-;-;-;-;-
1514100877470;-;-;10.353012;-0.15184021;-3.2410736;-;-;-;-;-;-;-;-;-;-;-;-;-;-;-
1514100877491;-;-;8.38858;1.1398315;-3.0076294;-;-;-;-;-;-;-;-;-;-;-;-;-;-;-
1514100877510;-;-;6.189499;1.3182068;-2.4892883;-;-;-;-;-;-;-;-;-;-;-;-;-;-;-
1514100877530;-;-;4.763748;1.0811768;-2.1947937;-;-;-;-;-;-;-;-;-;-;-;-;-;-;-
1514100877551;-;-;4.4812317;1.027298;-2.045166;-;-;-;-;-;-;-;-;-;-;-;-;-;-;-
1514100877572;-;-;4.644043;1.1314545;-2.4988708;-;-;-;-;-;-;-;-;-;-;-;-;-;-;-
1514100877593;-;-;5.6939087;1.0955353;-2.3719635;-;-;-;-;-;-;-;-;-;-;-;-;-;-;-
1514100877613;-;-;8.353867;1.248764;-1.7494812;-;-;-;-;-;-;-;-;-;-;-;-;-;-;-
1514100877633;-;-;10.854599;1.611496;-1.9745331;-;-;-;-;-;-;-;-;-;-;-;-;-;-;-
1514100877653;-;-;11.05571;2.6014862;-2.6832123;-;-;-;-;-;-;-;-;-;-;-;-;-;-;-
1514100877674;-;-;7.945648;3.362854;-2.0487518;-;-;-;-;-;-;-;-;-;-;-;-;-;-;-
1514100877693;-;-;7.2621;2.6254272;-0.9450226;-;-;-;-;-;-;-;-;-;-;-;-;-;-;-
1514100877713;-;-;7.1376038;0.85372925;-1.4190826;-;-;-;-;-;-;-;-;-;-;-;-;-;-;-
1514100877733;-;-;7.7612915;0.4299469;-0.85165405;-;-;-;-;-;-;-;-;-;-;-;-;-;-;-
1514100877754;-;-;8.085709;0.96984863;-0.39076233;-;-;-;-;-;-;-;-;-;-;-;-;-;-;-
1514100877774;-;-;8.783615;1.1242676;-3.0207977;-;-;-;-;-;-;-;-;-;-;-;-;-;-;-
1514100877794;-;-;10.582855;1.1601868;-6.0841827;-;-;-;-;-;-;-;-;-;-;-;-;-;-;-
1514100877815;-;-;14.417175;0.44311523;-4.3160553;-;-;-;-;-;-;-;-;-;-;-;-;-;-;-
1514100877835;-;-;13.429565;-1.8086243;-4.3962708;-;-;-;-;-;-;-;-;-;-;-;-;-;-;-
1514100877855;-;-;9.279221;-3.8029938;-4.4537354;-;-;-;-;-;-;-;-;-;-;-;-;-;-;-
1514100877875;-;-;7.541031;-3.555191;-3.429016;-;-;-;-;-;-;-;-;-;-;-;-;-;-;-
1514100877896;-;-;9.542587;-2.2276154;-4.0874176;-;-;-;-;-;-;-;-;-;-;-;-;-;-;-
1514100877916;-;-;11.419632;0.15820313;-5.7585754;-;-;-;-;-;-;-;-;-;-;-;-;-;-;-
1514100877936;-;-;11.772781;2.8301392;-3.7366638;-;-;-;-;-;-;-;-;-;-;-;-;-;-;-
1514100877957;-;-;10.724121;2.9881592;-2.203186;-;-;-;-;-;-;-;-;-;-;-;-;-;-;-
1514100877977;-;-;9.226547;0.84654236;-2.2438812;-;-;-;-;-;-;-;-;-;-;-;-;-;-;-
1514100877997;-;-;7.1795044;-1.0568542;-1.8009491;-;-;-;-;-;-;-;-;-;-;-;-;-;-;-
1514100878018;-;-;5.4413147;-1.8660889;-1.5208282;-;-;-;-;-;-;-;-;-;-;-;-;-;-;-
1514100878038;-;-;3.656433;-1.7978516;-1.8165131;-;-;-;-;-;-;-;-;-;-;-;-;-;-;-
1514100878058;-;-;2.9848633;-0.90242004;-2.5742798;-;-;-;-;-;-;-;-;-;-;-;-;-;-;-
1514100878079;-;-;3.2865295;0.38087463;-2.3611908;-;-;-;-;-;-;-;-;-;-;-;-;-;-;-
1514100878099;-;-;4.5399017;1.3205872;-2.4186554;-;-;-;-;-;-;-;-;-;-;-;-;-;-;-
1514100878119;-;-;6.2720947;1.703659;-2.7837677;-;-;-;-;-;-;-;-;-;-;-;-;-;-;-
1514100878139;-;-;6.965225;1.7216187;-2.2414856;-;-;-;-;-;-;-;-;-;-;-;-;-;-;-
1514100878160;-;-;6.7138367;1.4414978;-0.96777344;-;-;-;-;-;-;-;-;-;-;-;-;-;-;-
1514100878180;-;-;5.2749176;0.31263733;-0.67567444;-;-;-;-;-;-;-;-;-;-;-;-;-;-;-
1514100878200;-;-;5.4676514;-2.1545868;-0.026855469;-;-;-;-;-;-;-;-;-;-;-;-;-;-;-
1514100878221;-;-;7.9779663;-3.6940613;0.7345123;-;-;-;-;-;-;-;-;-;-;-;-;-;-;-
1514100878240;-;-;9.048172;-3.6054688;-1.2239532;-;-;-;-;-;-;-;-;-;-;-;-;-;-;-
1514100878260;-;-;8.689041;-2.748352;-3.1620636;-;-;-;-;-;-;-;-;-;-;-;-;-;-;-
1514100878280;-;-;7.614044;-1.4195709;-2.6293488;-;-;-;-;-;-;-;-;-;-;-;-;-;-;-
1514100878301;-;-;7.6272125;0.28988647;-2.8699646;-;-;-;-;-;-;-;-;-;-;-;-;-;-;-
1514100878321;-;-;9.225342;1.3229828;-6.9257355;-;-;-;-;-;-;-;-;-;-;-;-;-;-;-
1514100878341;-;-;12.129517;2.4793854;-8.2066345;-;-;-;-;-;-;-;-;-;-;-;-;-;-;-
1514100878361;-;-;14.765533;4.1804657;-3.6253357;-;-;-;-;-;-;-;-;-;-;-;-;-;-;-
1514100878381;-;-;14.585968;4.454605;-3.2662048;-;-;-;-;-;-;-;-;-;-;-;-;-;-;-
1514100878401;-;-;15.651382;5.5116425;-4.457321;-;-;-;-;-;-;-;-;-;-;-;-;-;-;-
1514100878422;-;-;19.757446;4.114624;-4.369934;-;-;-;-;-;-;-;-;-;-;-;-;-;-;-
1514100878441;-;-;16.723984;-0.7910919;-3.0387573;-;-;-;-;-;-;-;-;-;-;-;-;-;-;-
1514100878461;-;-;11.904465;-2.3628845;-2.5060425;-;-;-;-;-;-;-;-;-;-;-;-;-;-;-
1514100878482;-;-;6.29126;-0.33499146;-3.2614136;-;-;-;-;-;-;-;-;-;-;-;-;-;-;-
1514100878502;-;-;3.4888458;1.6940918;-3.1967773;-;-;-;-;-;-;-;-;-;-;-;-;-;-;-
1514100878522;-;-;2.9740906;3.3963623;-2.4330292;-;-;-;-;-;-;-;-;-;-;-;-;-;-;-
1514100878542;-;-;3.9904327;3.4298859;-0.9330597;-;-;-;-;-;-;-;-;-;-;-;-;-;-;-
1514100878562;-;-;5.1564026;1.4438934;0.15510559;-;-;-;-;-;-;-;-;-;-;-;-;-;-;-
1514100878583;-;-;4.746994;-0.66778564;0.22813416;-;-;-;-;-;-;-;-;-;-;-;-;-;-;-
1514100878603;-;-;4.8152313;-1.7607422;-0.037628174;-;-;-;-;-;-;-;-;-;-;-;-;-;-;-
1514100878623;-;-;5.905792;-1.2902832;0.012649536;-;-;-;-;-;-;-;-;-;-;-;-;-;-;-
1514100878644;-;-;7.485962;0.3677063;-0.34048462;-;-;-;-;-;-;-;-;-;-;-;-;-;-;-
1514100878664;-;-;8.067749;0.9889984;-1.3939362;-;-;-;-;-;-;-;-;-;-;-;-;-;-;-
1514100878684;-;-;7.7361603;-0.054870605;-2.3193054;-;-;-;-;-;-;-;-;-;-;-;-;-;-;-
1514100878705;-;-;6.537857;-1.1238861;-0.88397217;-;-;-;-;-;-;-;-;-;-;-;-;-;-;-
1514100878725;-;-;6.367874;-0.035720825;-0.4925232;-;-;-;-;-;-;-;-;-;-;-;-;-;-;-
1514100878745;-;-;7.3662567;2.569168;-3.112976;-;-;-;-;-;-;-;-;-;-;-;-;-;-;-
1514100878765;-;-;7.463211;3.2335663;-4.083832;-;-;-;-;-;-;-;-;-;-;-;-;-;-;-
1514100878786;-;-;6.260132;1.8700562;-0.2111969;-;-;-;-;-;-;-;-;-;-;-;-;-;-;-
1514100878806;-;-;8.916504;2.0687866;-1.2323303;-;-;-;-;-;-;-;-;-;-;-;-;-;-;-
1514100878826;-;-;11.270004;2.734375;-8.662735;-;-;-;-;-;-;-;-;-;-;-;-;-;-;-
1514100878846;-;-;15.085159;0.45030212;-9.29361;-;-;-;-;-;-;-;-;-;-;-;-;-;-;-
1514100878867;-;-;14.184937;-2.221634;-3.6121674;-;-;-;-;-;-;-;-;-;-;-;-;-;-;-
1514100878887;-;-;14.178955;-5.0395966;-4.2645874;-;-;-;-;-;-;-;-;-;-;-;-;-;-;-
1514100878907;-;-;18.258667;-6.8424377;-0.23394775;-;-;-;-;-;-;-;-;-;-;-;-;-;-;-
1514100878928;-;-;20.656464;-5.3628235;-2.9166565;-;-;-;-;-;-;-;-;-;-;-;-;-;-;-
1514100878948;-;-;17.393173;-2.0265045;-2.0188293;-;-;-;-;-;-;-;-;-;-;-;-;-;-;-
1514100878968;-;-;10.643906;-0.1925354;-0.68525696;-;-;-;-;-;-;-;-;-;-;-;-;-;-;-
1514100878988;-;-;6.9736023;0.26115417;-0.64216614;-;-;-;-;-;-;-;-;-;-;-;-;-;-;-
1514100879009;-;-;4.122101;-0.33021545;-1.0755157;-;-;-;-;-;-;-;-;-;-;-;-;-;-;-
1514100879029;-;-;3.4445496;-0.9036255;-2.2905731;-;-;-;-;-;-;-;-;-;-;-;-;-;-;-
1514100879049;-;-;3.6468658;-1.1190948;-2.4342194;-;-;-;-;-;-;-;-;-;-;-;-;-;-;-
1514100879070;-;-;4.906204;-0.77552795;-2.1624756;-;-;-;-;-;-;-;-;-;-;-;-;-;-;-
1514100879090;-;-;6.477997;0.5987396;-1.6944122;-;-;-;-;-;-;-;-;-;-;-;-;-;-;-
1514100879111;-;-;5.8279724;1.4103699;-1.8979187;-;-;-;-;-;-;-;-;-;-;-;-;-;-;-
1514100879131;-;-;5.471237;0.43115234;-1.7734222;-;-;-;-;-;-;-;-;-;-;-;-;-;-;-
1514100879151;-;-;4.3292084;-1.7068787;-1.7482758;-;-;-;-;-;-;-;-;-;-;-;-;-;-;-
1514100879172;-;-;4.201111;-3.2044525;-0.44104004;-;-;-;-;-;-;-;-;-;-;-;-;-;-;-
1514100879191;-;-;4.945709;-3.0835419;-0.018478394;-;-;-;-;-;-;-;-;-;-;-;-;-;-;-
1514100879211;-;-;5.9297333;-2.324585;0.7907715;-;-;-;-;-;-;-;-;-;-;-;-;-;-;-
1514100879232;-;-;7.6020813;-1.735611;1.8382263;-;-;-;-;-;-;-;-;-;-;-;-;-;-;-
1514100879251;-;-;8.157532;-1.661377;1.4671326;-;-;-;-;-;-;-;-;-;-;-;-;-;-;-
1514100879271;-;-;7.6583405;-2.348526;-0.7989807;-;-;-;-;-;-;-;-;-;-;-;-;-;-;-
1514100879292;-;-;6.60968;-2.427536;-4.872711;-;-;-;-;-;-;-;-;-;-;-;-;-;-;-
1514100879311;-;-;8.146759;0.3317871;-11.1072235;-;-;-;-;-;-;-;-;-;-;-;-;-;-;-
1514100879331;-;-;13.387665;4.312149;-8.125244;-;-;-;-;-;-;-;-;-;-;-;-;-;-;-
1514100879351;-;-;17.054382;4.5108643;-2.4857025;-;-;-;-;-;-;-;-;-;-;-;-;-;-;-
1514100879372;-;-;15.930313;3.0755463;-4.1855774;-;-;-;-;-;-;-;-;-;-;-;-;-;-;-
1514100879392;-;-;16.583923;3.9434357;-6.3331757;-;-;-;-;-;-;-;-;-;-;-;-;-;-;-
1514100879412;-;-;19.162476;5.102234;-5.0558777;-;-;-;-;-;-;-;-;-;-;-;-;-;-;-
1514100879432;-;-;16.418732;1.4546661;-2.6125946;-;-;-;-;-;-;-;-;-;-;-;-;-;-;-
1514100879452;-;-;12.380905;-1.7032776;-2.3564148;-;-;-;-;-;-;-;-;-;-;-;-;-;-;-
1514100879472;-;-;9.066132;-2.356903;-2.012848;-;-;-;-;-;-;-;-;-;-;-;-;-;-;-
1514100879492;-;-;6.170349;-1.3166199;-2.1265717;-;-;-;-;-;-;-;-;-;-;-;-;-;-;-
1514100879513;-;-;4.4596863;0.60472107;-2.0427704;-;-;-;-;-;-;-;-;-;-;-;-;-;-;-
1514100879533;-;-;3.8802948;2.050827;-1.1186066;-;-;-;-;-;-;-;-;-;-;-;-;-;-;-
1514100879554;-;-;3.4014587;1.6473999;-0.08670044;-;-;-;-;-;-;-;-;-;-;-;-;-;-;-
1514100879574;-;-;3.9353638;-0.30387878;-0.6888428;-;-;-;-;-;-;-;-;-;-;-;-;-;-;-
1514100879594;-;-;4.4920044;-1.6158905;-1.2335358;-;-;-;-;-;-;-;-;-;-;-;-;-;-;-
1514100879615;-;-;4.7912903;-1.278305;-1.0240326;-;-;-;-;-;-;-;-;-;-;-;-;-;-;-
1514100879635;-;-;5.1121063;-0.1697998;-0.3943634;-;-;-;-;-;-;-;-;-;-;-;-;-;-;-
1514100879655;-;-;5.8746643;0.009765625;-0.35604858;-;-;-;-;-;-;-;-;-;-;-;-;-;-;-
1514100879676;-;-;6.090149;-0.8712921;-1.0204468;-;-;-;-;-;-;-;-;-;-;-;-;-;-;-
1514100879696;-;-;5.750168;-1.2244415;-1.3041534;-;-;-;-;-;-;-;-;-;-;-;-;-;-;-
1514100879716;-;-;6.0087433;1.0548401;-1.4418182;-;-;-;-;-;-;-;-;-;-;-;-;-;-;-
1514100879736;-;-;5.9584656;3.9685822;-2.0858612;-;-;-;-;-;-;-;-;-;-;-;-;-;-;-
1514100879757;-;-;5.996765;4.549179;-2.7945404;-;-;-;-;-;-;-;-;-;-;-;-;-;-;-
1514100879778;-;-;6.576172;2.9570313;-4.833206;-;-;-;-;-;-;-;-;-;-;-;-;-;-;-
1514100879799;-;-;5.589752;1.0656128;-7.840332;-;-;-;-;-;-;-;-;-;-;-;-;-;-;-
1514100879819;-;-;10.604416;-0.89404297;-8.435287;-;-;-;-;-;-;-;-;-;-;-;-;-;-;-
1514100879840;-;-;17.685257;-2.8058167;-6.425354;-;-;-;-;-;-;-;-;-;-;-;-;-;-;-
1514100879860;-;-;28.615982;-4.558365;-2.922638;-;-;-;-;-;-;-;-;-;-;-;-;-;-;-
1514100879881;-;-;27.438034;-7.6983643;-10.550568;-;-;-;-;-;-;-;-;-;-;-;-;-;-;-
1514100879901;-;-;20.503235;-5.530411;-5.0391083;-;-;-;-;-;-;-;-;-;-;-;-;-;-;-
1514100879921;-;-;12.81665;-0.957489;1.1463013;-;-;-;-;-;-;-;-;-;-;-;-;-;-;-
1514100879941;-;-;6.1033173;1.5971222;0.3143158;-;-;-;-;-;-;-;-;-;-;-;-;-;-;-
1514100879961;-;-;3.165619;2.086731;-1.3304901;-;-;-;-;-;-;-;-;-;-;-;-;-;-;-
1514100879982;-;-;-0.19343567;0.6717682;-1.634552;-;-;-;-;-;-;-;-;-;-;-;-;-;-;-
1514100880002;-;-;0.116607666;-2.3030243;-2.1169891;-;-;-;-;-;-;-;-;-;-;-;-;-;-;-
1514100880022;-;-;6.1883087;-2.3042297;-3.5894165;-;-;-;-;-;-;-;-;-;-;-;-;-;-;-
1514100880043;-;-;9.272034;-0.35653687;-3.7917328;-;-;-;-;-;-;-;-;-;-;-;-;-;-;-
1514100880063;-;-;7.940857;0.9099884;-2.9130554;-;-;-;-;-;-;-;-;-;-;-;-;-;-;-
1514100880083;-;-;5.0534515;0.98779297;-2.5994263;-;-;-;-;-;-;-;-;-;-;-;-;-;-;-
1514100880103;-;-;2.2689972;-0.012969971;-1.595047;-;-;-;-;-;-;-;-;-;-;-;-;-;-;-
1514100880123;-;-;1.4274292;-1.6470184;-0.6373749;-;-;-;-;-;-;-;-;-;-;-;-;-;-;-
1514100880144;-;-;3.2793427;-1.9427032;0.086868286;-;-;-;-;-;-;-;-;-;-;-;-;-;-;-
1514100880164;-;-;7.090912;-0.24162292;1.7831726;-;-;-;-;-;-;-;-;-;-;-;-;-;-;-
1514100880185;-;-;8.778824;-0.12550354;0.9009094;-;-;-;-;-;-;-;-;-;-;-;-;-;-;-
1514100880204;-;-;7.894165;-3.2080383;-0.53800964;-;-;-;-;-;-;-;-;-;-;-;-;-;-;-
1514100880224;-;-;6.4875793;-6.863983;-4.180786;-;-;-;-;-;-;-;-;-;-;-;-;-;-;-
1514100880244;-;-;9.136765;-5.514847;-9.29361;-;-;-;-;-;-;-;-;-;-;-;-;-;-;-
1514100880264;-;-;12.019379;1.4103699;-8.405365;-;-;-;-;-;-;-;-;-;-;-;-;-;-;-
1514100880285;-;-;17.423096;6.608185;-3.7426453;-;-;-;-;-;-;-;-;-;-;-;-;-;-;-
1514100880305;-;-;17.63858;7.1648407;-4.942154;-;-;-;-;-;-;-;-;-;-;-;-;-;-;-
1514100880325;-;-;19.148117;7.047531;-11.01384;-;-;-;-;-;-;-;-;-;-;-;-;-;-;-
1514100880345;-;-;22.24382;4.4533997;-4.6835785;-;-;-;-;-;-;-;-;-;-;-;-;-;-;-
1514100880366;-;-;15.710037;0.24919128;-3.803711;-;-;-;-;-;-;-;-;-;-;-;-;-;-;-
1514100880385;-;-;10.032196;-2.0731812;-2.1098022;-;-;-;-;-;-;-;-;-;-;-;-;-;-;-
1514100880405;-;-;6.770096;-2.1569824;-1.6836395;-;-;-;-;-;-;-;-;-;-;-;-;-;-;-
1514100880425;-;-;6.972412;-0.30986023;-0.7678528;-;-;-;-;-;-;-;-;-;-;-;-;-;-;-
1514100880446;-;-;6.9987335;1.1123047;-0.84088135;-;-;-;-;-;-;-;-;-;-;-;-;-;-;-
1514100880466;-;-;4.9385376;1.5935364;-1.6668854;-;-;-;-;-;-;-;-;-;-;-;-;-;-;-
1514100880486;-;-;2.1528778;1.4163666;-1.0360107;-;-;-;-;-;-;-;-;-;-;-;-;-;-;-
1514100880507;-;-;0.93782043;0.45988464;-0.46977234;-;-;-;-;-;-;-;-;-;-;-;-;-;-;-
1514100880526;-;-;3.0566864;-0.996994;-1.3400726;-;-;-;-;-;-;-;-;-;-;-;-;-;-;-
1514100880546;-;-;6.2744904;-1.6110992;-1.8596191;-;-;-;-;-;-;-;-;-;-;-;-;-;-;-
1514100880567;-;-;8.086899;-1.1897278;-1.0838928;-;-;-;-;-;-;-;-;-;-;-;-;-;-;-
1514100880587;-;-;7.7936096;-0.5253296;-1.3412628;-;-;-;-;-;-;-;-;-;-;-;-;-;-;-
1514100880607;-;-;5.5047607;-0.1410675;-2.1588898;-;-;-;-;-;-;-;-;-;-;-;-;-;-;-
1514100880627;-;-;4.0849915;0.5879669;-1.5806885;-;-;-;-;-;-;-;-;-;-;-;-;-;-;-
1514100880648;-;-;4.1472473;1.8676758;-1.085083;-;-;-;-;-;-;-;-;-;-;-;-;-;-;-
1514100880667;-;-;5.7681274;3.0300598;-1.1820526;-;-;-;-;-;-;-;-;-;-;-;-;-;-;-
1514100880687;-;-;7.3375244;2.9893494;-1.7806091;-;-;-;-;-;-;-;-;-;-;-;-;-;-;-
1514100880708;-;-;8.540604;2.5248718;-4.125717;-;-;-;-;-;-;-;-;-;-;-;-;-;-;-
1514100880728;-;-;7.3135834;1.4019928;-6.8467407;-;-;-;-;-;-;-;-;-;-;-;-;-;-;-
1514100880748;-;-;7.3183746;0.091171265;-6.630066;-;-;-;-;-;-;-;-;-;-;-;-;-;-;-
1514100880768;-;-;8.1479645;-1.0161438;-4.1388855;-;-;-;-;-;-;-;-;-;-;-;-;-;-;-
1514100880789;-;-;11.423233;-1.9259491;-3.8168793;-;-;-;-;-;-;-;-;-;-;-;-;-;-;-
1514100880809;-;-;22.884262;-2.3161926;-4.7901154;-;-;-;-;-;-;-;-;-;-;-;-;-;-;-
1514100880829;-;-;28.424454;-2.388031;-3.4349976;-;-;-;-;-;-;-;-;-;-;-;-;-;-;-
1514100880850;-;-;21.713501;-3.6749115;-5.288101;-;-;-;-;-;-;-;-;-;-;-;-;-;-;-
1514100880870;-;-;14.508148;-3.7263794;-1.2718353;-;-;-;-;-;-;-;-;-;-;-;-;-;-;-
1514100880890;-;-;7.9576263;-3.1445923;0.03779602;-;-;-;-;-;-;-;-;-;-;-;-;-;-;-
1514100880911;-;-;4.022751;-2.056427;0.050964355;-;-;-;-;-;-;-;-;-;-;-;-;-;-;-
1514100880931;-;-;1.5136261;-0.759964;-1.7207489;-;-;-;-;-;-;-;-;-;-;-;-;-;-;-
1514100880951;-;-;1.9050751;0.17736816;-4.11734;-;-;-;-;-;-;-;-;-;-;-;-;-;-;-
1514100880972;-;-;5.510742;1.6174774;-4.2454376;-;-;-;-;-;-;-;-;-;-;-;-;-;-;-
1514100880991;-;-;7.829529;3.0911102;-2.7143402;-;-;-;-;-;-;-;-;-;-;-;-;-;-;-
1514100881011;-;-;6.673126;2.7559204;-1.5938568;-;-;-;-;-;-;-;-;-;-;-;-;-;-;-
1514100881031;-;-;5.485611;0.95428467;-0.5416107;-;-;-;-;-;-;-;-;-;-;-;-;-;-;-
1514100881052;-;-;4.837967;-1.254364;-0.013687134;-;-;-;-;-;-;-;-;-;-;-;-;-;-;-
1514100881072;-;-;3.967682;-2.2012787;-1.4083099;-;-;-;-;-;-;-;-;-;-;-;-;-;-;-
1514100881092;-;-;4.4130096;-1.7188416;-1.2323303;-;-;-;-;-;-;-;-;-;-;-;-;-;-;-
1514100881113;-;-;5.686722;-1.0424805;0.6363373;-;-;-;-;-;-;-;-;-;-;-;-;-;-;-
1514100881133;-;-;6.1200714;-1.6913147;-0.78700256;-;-;-;-;-;-;-;-;-;-;-;-;-;-;-
1514100881153;-;-;5.4532776;-4.2124023;-4.7949066;-;-;-;-;-;-;-;-;-;-;-;-;-;-;-
1514100881174;-;-;4.093384;-1.838562;-8.017502;-;-;-;-;-;-;-;-;-;-;-;-;-;-;-
1514100881194;-;-;7.3770294;2.7642975;-6.7234344;-;-;-;-;-;-;-;-;-;-;-;-;-;-;-
1514100881215;-;-;16.35408;4.959778;-7.2609253;-;-;-;-;-;-;-;-;-;-;-;-;-;-;-
1514100881236;-;-;25.74295;3.5005188;-5.923767;-;-;-;-;-;-;-;-;-;-;-;-;-;-;-
1514100881257;-;-;24.49318;1.5743866;-9.426483;-;-;-;-;-;-;-;-;-;-;-;-;-;-;-
1514100881277;-;-;24.472824;0.99497986;-8.4592285;-;-;-;-;-;-;-;-;-;-;-;-;-;-;-
1514100881297;-;-;15.394012;0.9099884;-2.4593658;-;-;-;-;-;-;-;-;-;-;-;-;-;-;-
1514100881317;-;-;8.747711;0.15820313;-1.3592224;-;-;-;-;-;-;-;-;-;-;-;-;-;-;-
1514100881338;-;-;4.2082977;0.3509369;-1.4334412;-;-;-;-;-;-;-;-;-;-;-;-;-;-;-
1514100881358;-;-;2.3408203;1.4055939;-1.2957764;-;-;-;-;-;-;-;-;-;-;-;-;-;-;-
1514100881378;-;-;2.3480072;2.114273;-1.021637;-;-;-;-;-;-;-;-;-;-;-;-;-;-;-
1514100881399;-;-;1.6764374;1.4989624;-0.4817505;-;-;-;-;-;-;-;-;-;-;-;-;-;-;-
1514100881419;-;-;1.9733124;-0.9287567;0.66267395;-;-;-;-;-;-;-;-;-;-;-;-;-;-;-
1514100881439;-;-;4.058655;-2.4694214;-0.10586548;-;-;-;-;-;-;-;-;-;-;-;-;-;-;-
1514100881460;-;-;6.3068237;-2.2671204;-1.3807678;-;-;-;-;-;-;-;-;-;-;-;-;-;-;-
1514100881480;-;-;6.328369;-0.34457397;-2.0870667;-;-;-;-;-;-;-;-;-;-;-;-;-;-;-
1514100881500;-;-;7.0262756;0.9195709;-2.4414063;-;-;-;-;-;-;-;-;-;-;-;-;-;-;-
1514100881521;-;-;6.7796783;0.46347046;-2.7789917;-;-;-;-;-;-;-;-;-;-;-;-;-;-;-
1514100881541;-;-;6.3618774;-0.35176086;-3.4768982;-;-;-;-;-;-;-;-;-;-;-;-;-;-;-
1514100881561;-;-;6.482788;0.1905365;-3.725891;-;-;-;-;-;-;-;-;-;-;-;-;-;-;-
1514100881582;-;-;5.7441864;2.0939178;-1.0934601;-;-;-;-;-;-;-;-;-;-;-;-;-;-;-
1514100881602;-;-;6.402588;5.627762;-1.0144653;-;-;-;-;-;-;-;-;-;-;-;-;-;-;-
1514100881622;-;-;8.815933;5.2817993;-3.2805634;-;-;-;-;-;-;-;-;-;-;-;-;-;-;-
1514100881642;-;-;8.9392395;2.2268066;-2.828064;-;-;-;-;-;-;-;-;-;-;-;-;-;-;-
1514100881663;-;-;7.4057617;0.833374;-3.511612;-;-;-;-;-;-;-;-;-;-;-;-;-;-;-
1514100881683;-;-;5.5670013;0.47903442;-4.307678;-;-;-;-;-;-;-;-;-;-;-;-;-;-;-
1514100881704;-;-;6.3606873;-1.028122;-5.781311;-;-;-;-;-;-;-;-;-;-;-;-;-;-;-
1514100881724;-;-;11.411255;-4.2878265;-4.8212433;-;-;-;-;-;-;-;-;-;-;-;-;-;-;-
1514100881744;-;-;20.62294;-6.728714;-4.662018;-;-;-;-;-;-;-;-;-;-;-;-;-;-;-
1514100881764;-;-;28.043777;-5.519638;-3.8300323;-;-;-;-;-;-;-;-;-;-;-;-;-;-;-
1514100881784;-;-;24.307617;-3.2116241;-4.859543;-;-;-;-;-;-;-;-;-;-;-;-;-;-;-
1514100881805;-;-;16.995728;-1.4770355;-2.6927948;-;-;-;-;-;-;-;-;-;-;-;-;-;-;-
1514100881825;-;-;11.167053;-1.3980255;-1.2167664;-;-;-;-;-;-;-;-;-;-;-;-;-;-;-
1514100881845;-;-;6.770096;-0.21528625;-0.52723694;-;-;-;-;-;-;-;-;-;-;-;-;-;-;-
1514100881866;-;-;4.1628113;0.576004;-1.2658539;-;-;-;-;-;-;-;-;-;-;-;-;-;-;-
1514100881885;-;-;2.015213;0.5448761;-2.2402954;-;-;-;-;-;-;-;-;-;-;-;-;-;-;-
1514100881905;-;-;2.806488;0.769928;-2.4533691;-;-;-;-;-;-;-;-;-;-;-;-;-;-;-
1514100881926;-;-;4.707489;1.5935364;-2.2007904;-;-;-;-;-;-;-;-;-;-;-;-;-;-;-
1514100881946;-;-;5.2868805;1.7431641;-1.6992035;-;-;-;-;-;-;-;-;-;-;-;-;-;-;-
1514100881966;-;-;4.363922;-0.062057495;-0.98931885;-;-;-;-;-;-;-;-;-;-;-;-;-;-;-
1514100881986;-;-;4.2262573;-1.740387;-1.3879547;-;-;-;-;-;-;-;-;-;-;-;-;-;-;-
1514100882006;-;-;4.5937653;-2.5089264;-1.8727875;-;-;-;-;-;-;-;-;-;-;-;-;-;-;-
1514100882027;-;-;5.1157074;-2.182129;-1.2885895;-;-;-;-;-;-;-;-;-;-;-;-;-;-;-
1514100882047;-;-;5.8555145;-1.7284241;-0.6014557;-;-;-;-;-;-;-;-;-;-;-;-;-;-;-
1514100882067;-;-;6.2038727;-1.8636932;-0.43984985;-;-;-;-;-;-;-;-;-;-;-;-;-;-;-
1514100882087;-;-;7.4440613;-2.5723724;-0.48414612;-;-;-;-;-;-;-;-;-;-;-;-;-;-;-
1514100882108;-;-;9.374985;-4.219589;2.156662;-;-;-;-;-;-;-;-;-;-;-;-;-;-;-
1514100882127;-;-;11.129929;-4.819336;4.002594;-;-;-;-;-;-;-;-;-;-;-;-;-;-;-
1514100882147;-;-;11.699753;-5.1724854;2.0345612;-;-;-;-;-;-;-;-;-;-;-;-;-;-;-
1514100882167;-;-;8.672287;-2.1641693;-5.081009;-;-;-;-;-;-;-;-;-;-;-;-;-;-;-
1514100882188;-;-;6.477997;3.517273;-10.00708;-;-;-;-;-;-;-;-;-;-;-;-;-;-;-
1514100882208;-;-;9.726929;5.6373444;-6.8910217;-;-;-;-;-;-;-;-;-;-;-;-;-;-;-
1514100882228;-;-;13.119522;5.285385;-2.5659027;-;-;-;-;-;-;-;-;-;-;-;-;-;-;-
1514100882249;-;-;13.448715;1.0871582;-7.165161;-;-;-;-;-;-;-;-;-;-;-;-;-;-;-
1514100882269;-;-;18.68843;-0.79348755;-7.532669;-;-;-;-;-;-;-;-;-;-;-;-;-;-;-
1514100882288;-;-;25.168335;-0.26437378;-4.9050293;-;-;-;-;-;-;-;-;-;-;-;-;-;-;-
1514100882308;-;-;22.974045;1.8269653;-7.8786316;-;-;-;-;-;-;-;-;-;-;-;-;-;-;-
1514100882329;-;-;14.839752;1.6833191;-4.5854034;-;-;-;-;-;-;-;-;-;-;-;-;-;-;-
1514100882349;-;-;8.896149;0.80584717;-2.6568756;-;-;-;-;-;-;-;-;-;-;-;-;-;-;-
1514100882369;-;-;5.553833;0.73760986;-1.7949677;-;-;-;-;-;-;-;-;-;-;-;-;-;-;-
1514100882389;-;-;4.427368;1.3660889;-1.966156;-;-;-;-;-;-;-;-;-;-;-;-;-;-;-
1514100882410;-;-;2.5000305;0.8453522;-1.808136;-;-;-;-;-;-;-;-;-;-;-;-;-;-;-
1514100882429;-;-;0.90908813;-0.43196106;-0.06036377;-;-;-;-;-;-;-;-;-;-;-;-;-;-;-
1514100882449;-;-;3.3607483;-0.6318817;1.5066376;-;-;-;-;-;-;-;-;-;-;-;-;-;-;-
1514100882470;-;-;6.6024933;0.6897278;0.8434448;-;-;-;-;-;-;-;-;-;-;-;-;-;-;-
1514100882490;-;-;6.2900543;1.6881104;-1.1844482;-;-;-;-;-;-;-;-;-;-;-;-;-;-;-
1514100882510;-;-;5.8076324;1.6174774;-1.784195;-;-;-;-;-;-;-;-;-;-;-;-;-;-;-
1514100882530;-;-;6.513916;0.7040863;-1.8895416;-;-;-;-;-;-;-;-;-;-;-;-;-;-;-
1514100882550;-;-;10.094437;1.0380707;-3.729477;-;-;-;-;-;-;-;-;-;-;-;-;-;-;-
1514100882571;-;-;12.099594;3.4885406;-2.263031;-;-;-;-;-;-;-;-;-;-;-;-;-;-;-
1514100882591;-;-;9.748489;3.3065796;1.7197266;-;-;-;-;-;-;-;-;-;-;-;-;-;-;-
1514100882611;-;-;8.531036;1.085968;0.7321167;-;-;-;-;-;-;-;-;-;-;-;-;-;-;-
1514100882632;-;-;9.521027;-0.59117126;-4.0706635;-;-;-;-;-;-;-;-;-;-;-;-;-;-;-
1514100882653;-;-;11.024597;0.61550903;-8.346695;-;-;-;-;-;-;-;-;-;-;-;-;-;-;-
1514100882674;-;-;13.815033;-0.24162292;-7.1472015;-;-;-;-;-;-;-;-;-;-;-;-;-;-;-
1514100882694;-;-;11.368164;-4.968979;-6.1188965;-;-;-;-;-;-;-;-;-;-;-;-;-;-;-
1514100882714;-;-;9.962769;-8.349594;-7.2740936;-;-;-;-;-;-;-;-;-;-;-;-;-;-;-
1514100882734;-;-;11.01741;-5.1808624;-5.5538635;-;-;-;-;-;-;-;-;-;-;-;-;-;-;-
1514100882757;-;-;12.323441;-0.12310791;-6.42894;-;-;-;-;-;-;-;-;-;-;-;-;-;-;-
1514100882777;-;-;11.720108;1.5456543;-5.6436462;-;-;-;-;-;-;-;-;-;-;-;-;-;-;-
1514100882798;-;-;9.930435;0.98301697;-6.4600677;-;-;-;-;-;-;-;-;-;-;-;-;-;-;-
1514100882818;-;-;7.9660034;0.8297882;-6.1811523;-;-;-;-;-;-;-;-;-;-;-;-;-;-;-
1514100882839;-;-;7.02388;0.69810486;-3.9605255;-;-;-;-;-;-;-;-;-;-;-;-;-;-;-
1514100882859;-;-;5.3694916;0.06364441;-2.7107544;-;-;-;-;-;-;-;-;-;-;-;-;-;-;-
1514100882879;-;-;4.3148346;-1.0783997;-2.294159;-;-;-;-;-;-;-;-;-;-;-;-;-;-;-
1514100882900;-;-;2.9190216;-1.8768616;-2.2654266;-;-;-;-;-;-;-;-;-;-;-;-;-;-;-
1514100882920;-;-;2.3085022;-1.5979309;-2.7777863;-;-;-;-;-;-;-;-;-;-;-;-;-;-;-
1514100882940;-;-;4.4489136;-0.5253296;-1.6309662;-;-;-;-;-;-;-;-;-;-;-;-;-;-;-
1514100882960;-;-;5.999161;0.04208374;-1.729126;-;-;-;-;-;-;-;-;-;-;-;-;-;-;-
1514100882981;-;-;7.134018;0.23123169;-2.0092468;-;-;-;-;-;-;-;-;-;-;-;-;-;-;-
1514100883001;-;-;8.195847;-0.04649353;-1.7578583;-;-;-;-;-;-;-;-;-;-;-;-;-;-;-
1514100883021;-;-;9.461182;-0.7408142;-1.3340912;-;-;-;-;-;-;-;-;-;-;-;-;-;-;-
1514100883042;-;-;10.695389;-1.5955505;-1.7003937;-;-;-;-;-;-;-;-;-;-;-;-;-;-;-
1514100883062;-;-;11.999039;-2.1162872;-2.2953491;-;-;-;-;-;-;-;-;-;-;-;-;-;-;-
1514100883082;-;-;13.027344;-2.0863495;-2.0260162;-;-;-;-;-;-;-;-;-;-;-;-;-;-;-
1514100883102;-;-;12.251617;-1.8158112;-0.84446716;-;-;-;-;-;-;-;-;-;-;-;-;-;-;-
1514100883123;-;-;10.150711;-1.9450989;-1.0910797;-;-;-;-;-;-;-;-;-;-;-;-;-;-;-
1514100883142;-;-;7.216614;-3.0631866;-6.626465;-;-;-;-;-;-;-;-;-;-;-;-;-;-;-
1514100883162;-;-;7.463211;-4.198044;-12.550919;-;-;-;-;-;-;-;-;-;-;-;-;-;-;-
1514100883182;-;-;8.194641;-2.6442108;-7.6727295;-;-;-;-;-;-;-;-;-;-;-;-;-;-;-
1514100883203;-;-;9.273239;0.9889984;-3.8396149;-;-;-;-;-;-;-;-;-;-;-;-;-;-;-
1514100883223;-;-;10.791153;2.3596802;-4.571045;-;-;-;-;-;-;-;-;-;-;-;-;-;-;-
1514100883243;-;-;11.532166;0.4874115;-6.1200867;-;-;-;-;-;-;-;-;-;-;-;-;-;-;-
1514100883263;-;-;12.634689;-2.906372;-4.824829;-;-;-;-;-;-;-;-;-;-;-;-;-;-;-
1514100883284;-;-;14.138245;-4.6433563;-5.037918;-;-;-;-;-;-;-;-;-;-;-;-;-;-;-
1514100883304;-;-;11.546524;-2.5604095;-4.9217987;-;-;-;-;-;-;-;-;-;-;-;-;-;-;-
1514100883325;-;-;8.6818695;-0.3194275;-3.5487213;-;-;-;-;-;-;-;-;-;-;-;-;-;-;-
1514100883345;-;-;6.0027466;0.33418274;-3.2578278;-;-;-;-;-;-;-;-;-;-;-;-;-;-;-
1514100883365;-;-;4.47406;1.0261078;-3.2937317;-;-;-;-;-;-;-;-;-;-;-;-;-;-;-
1514100883386;-;-;3.7593842;1.9107666;-2.9429932;-;-;-;-;-;-;-;-;-;-;-;-;-;-;-
1514100883406;-;-;3.7486115;2.1070862;-2.6568756;-;-;-;-;-;-;-;-;-;-;-;-;-;-;-
1514100883426;-;-;4.690735;1.4822083;-2.412674;-;-;-;-;-;-;-;-;-;-;-;-;-;-;-
1514100883446;-;-;7.071762;0.6166992;-2.5599213;-;-;-;-;-;-;-;-;-;-;-;-;-;-;-
1514100883467;-;-;8.791992;0.33776855;-2.3085175;-;-;-;-;-;-;-;-;-;-;-;-;-;-;-
1514100883487;-;-;7.9863434;0.92674255;-1.0623474;-;-;-;-;-;-;-;-;-;-;-;-;-;-;-
1514100883507;-;-;6.8515015;1.9335022;-0.3620453;-;-;-;-;-;-;-;-;-;-;-;-;-;-;-
1514100883527;-;-;6.6707306;2.2890472;-1.1736755;-;-;-;-;-;-;-;-;-;-;-;-;-;-;-
1514100883548;-;-;7.511093;1.9454803;-1.9051056;-;-;-;-;-;-;-;-;-;-;-;-;-;-;-
1514100883568;-;-;7.8881836;1.6916962;-3.2279053;-;-;-;-;-;-;-;-;-;-;-;-;-;-;-
1514100883588;-;-;7.8091736;1.6737366;-5.0953827;-;-;-;-;-;-;-;-;-;-;-;-;-;-;-
1514100883608;-;-;7.177109;3.134201;-3.310501;-;-;-;-;-;-;-;-;-;-;-;-;-;-;-
1514100883629;-;-;10.335068;4.9693604;0.44839478;-;-;-;-;-;-;-;-;-;-;-;-;-;-;-
1514100883648;-;-;11.319077;4.561142;0.35621643;-;-;-;-;-;-;-;-;-;-;-;-;-;-;-
1514100883668;-;-;11.625534;3.4406586;-2.65448;-;-;-;-;-;-;-;-;-;-;-;-;-;-;-
1514100883688;-;-;11.344223;0.16299438;-6.528305;-;-;-;-;-;-;-;-;-;-;-;-;-;-;-
1514100883709;-;-;12.560471;-2.906372;-4.314865;-;-;-;-;-;-;-;-;-;-;-;-;-;-;-
1514100883728;-;-;14.709274;-3.7982025;-4.586609;-;-;-;-;-;-;-;-;-;-;-;-;-;-;-
1514100883748;-;-;10.829468;-2.9901733;-6.8383484;-;-;-;-;-;-;-;-;-;-;-;-;-;-;-
1514100883768;-;-;8.656723;-2.9997406;-5.583786;-;-;-;-;-;-;-;-;-;-;-;-;-;-;-
1514100883789;-;-;7.629608;-2.4011993;-5.081009;-;-;-;-;-;-;-;-;-;-;-;-;-;-;-
1514100883809;-;-;7.4991302;-1.2711334;-4.337616;-;-;-;-;-;-;-;-;-;-;-;-;-;-;-
1514100883829;-;-;10.005859;-0.5133667;-4.67041;-;-;-;-;-;-;-;-;-;-;-;-;-;-;-
1514100883850;-;-;12.819046;0.26235962;-4.314865;-;-;-;-;-;-;-;-;-;-;-;-;-;-;-
1514100883870;-;-;12.1809845;1.0153351;-4.799698;-;-;-;-;-;-;-;-;-;-;-;-;-;-;-
1514100883891;-;-;9.067337;0.8956299;-3.6504822;-;-;-;-;-;-;-;-;-;-;-;-;-;-;-
1514100883911;-;-;6.7018585;0.3222046;-2.7993317;-;-;-;-;-;-;-;-;-;-;-;-;-;-;-
1514100883932;-;-;4.557846;-0.9610748;-2.4306335;-;-;-;-;-;-;-;-;-;-;-;-;-;-;-
1514100883952;-;-;2.7633972;-2.6753235;-1.4346466;-;-;-;-;-;-;-;-;-;-;-;-;-;-;-
1514100883972;-;-;2.588623;-3.0572052;-1.1425476;-;-;-;-;-;-;-;-;-;-;-;-;-;-;-
1514100883993;-;-;4.67157;-2.04924;-1.3161316;-;-;-;-;-;-;-;-;-;-;-;-;-;-;-
1514100884013;-;-;6.2864685;-0.5959625;-1.6884308;-;-;-;-;-;-;-;-;-;-;-;-;-;-;-
1514100884033;-;-;6.422943;0.02053833;-1.8572235;-;-;-;-;-;-;-;-;-;-;-;-;-;-;-
1514100884053;-;-;5.4413147;0.0025787354;-1.5926514;-;-;-;-;-;-;-;-;-;-;-;-;-;-;-
1514100884074;-;-;5.572998;-0.04888916;-1.064743;-;-;-;-;-;-;-;-;-;-;-;-;-;-;-
1514100884095;-;-;6.639618;0.086380005;-0.8468628;-;-;-;-;-;-;-;-;-;-;-;-;-;-;-
1514100884115;-;-;9.133179;0.45388794;-1.4142914;-;-;-;-;-;-;-;-;-;-;-;-;-;-;-
1514100884136;-;-;12.045715;1.2224274;-2.5958252;-;-;-;-;-;-;-;-;-;-;-;-;-;-;-
1514100884156;-;-;13.461884;0.46826172;-3.065094;-;-;-;-;-;-;-;-;-;-;-;-;-;-;-
1514100884176;-;-;12.763977;-4.099884;0.37298584;-;-;-;-;-;-;-;-;-;-;-;-;-;-;-
1514100884196;-;-;12.318665;-7.6756134;1.6251526;-;-;-;-;-;-;-;-;-;-;-;-;-;-;-
1514100884217;-;-;12.568848;-6.866379;-1.4382324;-;-;-;-;-;-;-;-;-;-;-;-;-;-;-
1514100884237;-;-;11.335831;-2.5687866;-9.398956;-;-;-;-;-;-;-;-;-;-;-;-;-;-;-
1514100884257;-;-;10.751648;-0.6498413;-11.098831;-;-;-;-;-;-;-;-;-;-;-;-;-;-;-
1514100884278;-;-;9.5677185;2.3728485;-10.332687;-;-;-;-;-;-;-;-;-;-;-;-;-;-;-
1514100884298;-;-;7.394989;4.7490845;-3.528366;-;-;-;-;-;-;-;-;-;-;-;-;-;-;-
1514100884318;-;-;7.154358;2.3824158;-3.5391388;-;-;-;-;-;-;-;-;-;-;-;-;-;-;-
1514100884339;-;-;8.993118;-0.35534668;-7.335144;-;-;-;-;-;-;-;-;-;-;-;-;-;-;-
1514100884359;-;-;12.178604;-1.9726257;-8.211426;-;-;-;-;-;-;-;-;-;-;-;-;-;-;-
1514100884379;-;-;11.999039;0.62028503;-5.338394;-;-;-;-;-;-;-;-;-;-;-;-;-;-;-
1514100884400;-;-;10.247665;3.6010742;-3.168045;-;-;-;-;-;-;-;-;-;-;-;-;-;-;-
1514100884419;-;-;8.357452;2.797821;-2.207962;-;-;-;-;-;-;-;-;-;-;-;-;-;-;-
1514100884439;-;-;6.2936554;1.5145264;-2.0715027;-;-;-;-;-;-;-;-;-;-;-;-;-;-;-
1514100884460;-;-;5.312027;0.23602295;-1.6094208;-;-;-;-;-;-;-;-;-;-;-;-;-;-;-
1514100884481;-;-;4.5315094;-2.0923462;-0.2578888;-;-;-;-;-;-;-;-;-;-;-;-;-;-;-
1514100884500;-;-;4.489624;-3.0021362;-0.0029144287;-;-;-;-;-;-;-;-;-;-;-;-;-;-;-
1514100884520;-;-;5.296463;-1.3633118;0.17425537;-;-;-;-;-;-;-;-;-;-;-;-;-;-;-
1514100884541;-;-;6.1679535;0.112716675;0.7404938;-;-;-;-;-;-;-;-;-;-;-;-;-;-;-
1514100884561;-;-;6.9951477;0.07321167;-0.21838379;-;-;-;-;-;-;-;-;-;-;-;-;-;-;-
1514100884582;-;-;7.6619415;-0.6713867;-1.3269043;-;-;-;-;-;-;-;-;-;-;-;-;-;-;-
1514100884603;-;-;7.5829315;-1.3932343;-1.650116;-;-;-;-;-;-;-;-;-;-;-;-;-;-;-
1514100884623;-;-;5.782486;-1.1478271;-1.4681549;-;-;-;-;-;-;-;-;-;-;-;-;-;-;-
1514100884643;-;-;3.8958588;-0.08001709;-0.06755066;-;-;-;-;-;-;-;-;-;-;-;-;-;-;-
1514100884664;-;-;4.521942;1.1134949;-0.48414612;-;-;-;-;-;-;-;-;-;-;-;-;-;-;-
1514100884683;-;-;6.343933;1.3265839;-1.7614441;-;-;-;-;-;-;-;-;-;-;-;-;-;-;-
1514100884703;-;-;8.438858;1.2930603;-2.8448334;-;-;-;-;-;-;-;-;-;-;-;-;-;-;-
1514100884723;-;-;10.337448;2.0436401;-3.2901459;-;-;-;-;-;-;-;-;-;-;-;-;-;-;-
1514100884744;-;-;11.577652;2.7535248;-4.401062;-;-;-;-;-;-;-;-;-;-;-;-;-;-;-
1514100884764;-;-;10.2907715;2.1154633;-4.2562103;-;-;-;-;-;-;-;-;-;-;-;-;-;-;-
1514100884784;-;-;7.284851;0.42037964;-3.4278107;-;-;-;-;-;-;-;-;-;-;-;-;-;-;-
1514100884805;-;-;4.0419006;-1.5979309;-3.871933;-;-;-;-;-;-;-;-;-;-;-;-;-;-;-
1514100884825;-;-;4.9900055;-3.5887146;-5.247406;-;-;-;-;-;-;-;-;-;-;-;-;-;-;-
1514100884845;-;-;10.882141;-4.3033905;-6.3487396;-;-;-;-;-;-;-;-;-;-;-;-;-;-;-
1514100884865;-;-;18.17009;-1.6458282;-5.8411713;-;-;-;-;-;-;-;-;-;-;-;-;-;-;-
1514100884886;-;-;24.977997;-1.4087982;-3.096222;-;-;-;-;-;-;-;-;-;-;-;-;-;-;-
1514100884907;-;-;24.544647;-1.9798126;-5.6292877;-;-;-;-;-;-;-;-;-;-;-;-;-;-;-
1514100884928;-;-;18.754272;-1.9355164;-2.749054;-;-;-;-;-;-;-;-;-;-;-;-;-;-;-
1514100884948;-;-;11.977478;-2.4550629;-0.5404053;-;-;-;-;-;-;-;-;-;-;-;-;-;-;-
1514100884968;-;-;5.6268616;-1.0053711;-1.3759766;-;-;-;-;-;-;-;-;-;-;-;-;-;-;-
1514100884988;-;-;1.6716461;-0.121917725;-2.1529083;-;-;-;-;-;-;-;-;-;-;-;-;-;-;-
1514100885009;-;-;-0.57650757;-0.047698975;-1.9625702;-;-;-;-;-;-;-;-;-;-;-;-;-;-;-
1514100885029;-;-;0.68045044;0.026535034;-1.8584137;-;-;-;-;-;-;-;-;-;-;-;-;-;-;-
1514100885049;-;-;3.9952087;0.1043396;-1.5603333;-;-;-;-;-;-;-;-;-;-;-;-;-;-;-
1514100885070;-;-;6.4959564;-0.2272644;-1.0312195;-;-;-;-;-;-;-;-;-;-;-;-;-;-;-
