TimeStamp[ms];Prox[Cm];Lux[lux];AccX[m/s^2];AccY[m/s^2];AccZ[m/s^2];GyroX[rad/s];GyroY[rad/s];GyroZ[rad/s];MagnX[uT];MagnY[uT];MagnZ[uT];OrienYaw[degrees];OrienPitch[degrees];OrienRoll[degrees];Press[Pa];Temp[C°];Batt[%];Lat;Lng;Speed[m/s]
1514100963393;-;-;8.574127;-1.3621063;2.0034332;-;-;-;-;-;-;-;-;-;-;-;-;-;-;-
1514100963394;-;-;8.574127;-1.3621063;2.0034332;-;-;-;-;-;-;-;-;-;-;-;-;-;-;-
1514100963414;-;-;8.844666;-1.2052917;2.3422089;-;-;-;-;-;-;-;-;-;-;-;-;-;-;-
1514100963435;-;-;8.946426;-1.5057678;1.749649;-;-;-;-;-;-;-;-;-;-;-;-;-;-;-
1514100963455;-;-;8.915298;-1.4315338;1.0948334;-;-;-;-;-;-;-;-;-;-;-;-;-;-;-
1514100963475;-;-;9.056564;-1.2352142;1.0265961;-;-;-;-;-;-;-;-;-;-;-;-;-;-;-
1514100963496;-;-;9.215775;-0.82221985;-0.10824585;-;-;-;-;-;-;-;-;-;-;-;-;-;-;-
1514100963516;-;-;9.4133;-0.7228546;1.1486969;-;-;-;-;-;-;-;-;-;-;-;-;-;-;-
1514100963536;-;-;9.924454;-0.16381836;-0.14176941;-;-;-;-;-;-;-;-;-;-;-;-;-;-;-
1514100963557;-;-;9.777206;-0.7192688;-0.5344238;-;-;-;-;-;-;-;-;-;-;-;-;-;-;-
1514100963577;-;-;7.758896;-0.6127167;0.5489502;-;-;-;-;-;-;-;-;-;-;-;-;-;-;-
1514100963597;-;-;8.768051;-0.56962585;-1.2083893;-;-;-;-;-;-;-;-;-;-;-;-;-;-;-
1514100963618;-;-;8.809952;-0.47027588;-0.3620453;-;-;-;-;-;-;-;-;-;-;-;-;-;-;-
1514100963646;-;-;10.380554;0.06602478;-0.7295532;-;-;-;-;-;-;-;-;-;-;-;-;-;-;-
1514100963658;-;-;10.020218;-0.07522583;-0.8504486;-;-;-;-;-;-;-;-;-;-;-;-;-;-;-
1514100963678;-;-;9.262466;-0.2775421;-0.8061676;-;-;-;-;-;-;-;-;-;-;-;-;-;-;-
1514100963699;-;-;9.164291;-0.43196106;-0.70440674;-;-;-;-;-;-;-;-;-;-;-;-;-;-;-
1514100963719;-;-;9.165497;-0.52893066;-0.7630615;-;-;-;-;-;-;-;-;-;-;-;-;-;-;-
1514100963739;-;-;9.066132;-0.5600586;-0.64456177;-;-;-;-;-;-;-;-;-;-;-;-;-;-;-
1514100963760;-;-;9.033813;-0.720459;-0.61582947;-;-;-;-;-;-;-;-;-;-;-;-;-;-;-
1514100963780;-;-;9.169083;-0.88327026;-0.66490173;-;-;-;-;-;-;-;-;-;-;-;-;-;-;-
1514100963800;-;-;9.258865;-1.0269165;-0.9905243;-;-;-;-;-;-;-;-;-;-;-;-;-;-;-
1514100963821;-;-;9.148727;-0.93115234;-0.8887634;-;-;-;-;-;-;-;-;-;-;-;-;-;-;-
1514100963841;-;-;9.536591;-1.0508575;-0.69363403;-;-;-;-;-;-;-;-;-;-;-;-;-;-;-
1514100963861;-;-;9.410904;-0.80545044;-1.0072784;-;-;-;-;-;-;-;-;-;-;-;-;-;-;-
1514100963881;-;-;9.051773;-0.58639526;-1.9589691;-;-;-;-;-;-;-;-;-;-;-;-;-;-;-
1514100963902;-;-;8.908112;-0.5444946;-0.31774902;-;-;-;-;-;-;-;-;-;-;-;-;-;-;-
1514100963922;-;-;10.511032;-1.5380859;-1.4609833;-;-;-;-;-;-;-;-;-;-;-;-;-;-;-
1514100963942;-;-;8.174301;-0.8688965;-0.9510193;-;-;-;-;-;-;-;-;-;-;-;-;-;-;-
1514100963963;-;-;7.408142;0.13186646;-0.6900482;-;-;-;-;-;-;-;-;-;-;-;-;-;-;-
1514100963982;-;-;9.3498535;0.1905365;-1.0838928;-;-;-;-;-;-;-;-;-;-;-;-;-;-;-
1514100964002;-;-;9.181061;0.21208191;-1.2885895;-;-;-;-;-;-;-;-;-;-;-;-;-;-;-
1514100964023;-;-;8.158737;0.26715088;-1.3520355;-;-;-;-;-;-;-;-;-;-;-;-;-;-;-
1514100964044;-;-;7.229782;0.71725464;-1.3999176;-;-;-;-;-;-;-;-;-;-;-;-;-;-;-
1514100964065;-;-;9.935226;0.3712921;-2.9094696;-;-;-;-;-;-;-;-;-;-;-;-;-;-;-
1514100964084;-;-;10.378159;0.89442444;-1.8703918;-;-;-;-;-;-;-;-;-;-;-;-;-;-;-
1514100964104;-;-;9.209793;0.9423065;-2.302536;-;-;-;-;-;-;-;-;-;-;-;-;-;-;-
1514100964124;-;-;9.245697;0.8417511;-1.6082153;-;-;-;-;-;-;-;-;-;-;-;-;-;-;-
1514100964145;-;-;9.595245;0.6921234;-2.2199402;-;-;-;-;-;-;-;-;-;-;-;-;-;-;-
1514100964165;-;-;8.778824;-0.078811646;-2.4557648;-;-;-;-;-;-;-;-;-;-;-;-;-;-;-
1514100964185;-;-;8.632782;0.89323425;-0.67567444;-;-;-;-;-;-;-;-;-;-;-;-;-;-;-
1514100964206;-;-;10.769608;0.014556885;-2.9489746;-;-;-;-;-;-;-;-;-;-;-;-;-;-;-
1514100964225;-;-;10.44519;-0.14346313;-0.6613159;-;-;-;-;-;-;-;-;-;-;-;-;-;-;-
1514100964245;-;-;8.564545;0.7842865;-1.3544312;-;-;-;-;-;-;-;-;-;-;-;-;-;-;-
1514100964265;-;-;9.643143;0.46228027;-1.0168457;-;-;-;-;-;-;-;-;-;-;-;-;-;-;-
1514100964285;-;-;8.139572;1.8975983;-1.2024078;-;-;-;-;-;-;-;-;-;-;-;-;-;-;-
1514100964306;-;-;8.065353;0.6143036;-1.9853058;-;-;-;-;-;-;-;-;-;-;-;-;-;-;-
1514100964326;-;-;8.003113;0.86450195;-1.3424683;-;-;-;-;-;-;-;-;-;-;-;-;-;-;-
1514100964346;-;-;8.200638;-0.6641998;-1.1365662;-;-;-;-;-;-;-;-;-;-;-;-;-;-;-
1514100964366;-;-;8.197037;-0.42956543;-0.8205261;-;-;-;-;-;-;-;-;-;-;-;-;-;-;-
1514100964387;-;-;8.793198;0.48980713;0.103637695;-;-;-;-;-;-;-;-;-;-;-;-;-;-;-
1514100964407;-;-;8.994308;-0.5432892;-0.2507019;-;-;-;-;-;-;-;-;-;-;-;-;-;-;-
1514100964427;-;-;8.768051;0.024139404;-1.8141174;-;-;-;-;-;-;-;-;-;-;-;-;-;-;-
1514100964447;-;-;9.309143;-0.9957886;-0.69363403;-;-;-;-;-;-;-;-;-;-;-;-;-;-;-
1514100964468;-;-;8.751297;0.47065735;-1.6417389;-;-;-;-;-;-;-;-;-;-;-;-;-;-;-
1514100964487;-;-;10.506241;-0.0105896;-3.203949;-;-;-;-;-;-;-;-;-;-;-;-;-;-;-
1514100964507;-;-;10.495468;1.5983276;-4.0395355;-;-;-;-;-;-;-;-;-;-;-;-;-;-;-
1514100964527;-;-;11.163452;1.7132416;-4.9888306;-;-;-;-;-;-;-;-;-;-;-;-;-;-;-
1514100964548;-;-;10.792358;1.3565063;-5.7035065;-;-;-;-;-;-;-;-;-;-;-;-;-;-;-
1514100964568;-;-;10.12796;-0.8174286;-4.9972076;-;-;-;-;-;-;-;-;-;-;-;-;-;-;-
1514100964588;-;-;8.213791;-1.289093;-3.661255;-;-;-;-;-;-;-;-;-;-;-;-;-;-;-
1514100964609;-;-;6.941284;-0.18296814;-3.0435486;-;-;-;-;-;-;-;-;-;-;-;-;-;-;-
1514100964629;-;-;9.015854;-0.28831482;-3.3631744;-;-;-;-;-;-;-;-;-;-;-;-;-;-;-
1514100964649;-;-;9.1918335;-0.8102417;-3.6552582;-;-;-;-;-;-;-;-;-;-;-;-;-;-;-
1514100964669;-;-;9.699402;-2.8094025;-2.9741058;-;-;-;-;-;-;-;-;-;-;-;-;-;-;-
1514100964690;-;-;9.311539;-1.3752747;-1.9733429;-;-;-;-;-;-;-;-;-;-;-;-;-;-;-
1514100964710;-;-;9.935226;-5.768631;-2.1433258;-;-;-;-;-;-;-;-;-;-;-;-;-;-;-
1514100964730;-;-;6.1595764;-1.882843;-2.6508942;-;-;-;-;-;-;-;-;-;-;-;-;-;-;-
1514100964751;-;-;6.149994;-1.0999451;-4.1185455;-;-;-;-;-;-;-;-;-;-;-;-;-;-;-
1514100964771;-;-;5.442505;-2.2587433;-4.3603516;-;-;-;-;-;-;-;-;-;-;-;-;-;-;-
1514100964791;-;-;6.493561;-2.581955;-2.5359802;-;-;-;-;-;-;-;-;-;-;-;-;-;-;-
1514100964811;-;-;8.46759;-2.574768;-2.1134033;-;-;-;-;-;-;-;-;-;-;-;-;-;-;-
1514100964832;-;-;9.811935;-4.2758484;-3.8468018;-;-;-;-;-;-;-;-;-;-;-;-;-;-;-
1514100964852;-;-;9.619202;-8.422607;-0.6409607;-;-;-;-;-;-;-;-;-;-;-;-;-;-;-
1514100964872;-;-;6.0650024;4.3624268;-4.694351;-;-;-;-;-;-;-;-;-;-;-;-;-;-;-
1514100964892;-;-;6.506729;1.734787;-1.2838135;-;-;-;-;-;-;-;-;-;-;-;-;-;-;-
1514100964912;-;-;11.298721;-0.5600586;0.03060913;-;-;-;-;-;-;-;-;-;-;-;-;-;-;-
1514100964933;-;-;10.715744;-1.0640259;-3.5391388;-;-;-;-;-;-;-;-;-;-;-;-;-;-;-
1514100964953;-;-;12.899246;-3.799408;-2.0200195;-;-;-;-;-;-;-;-;-;-;-;-;-;-;-
1514100964973;-;-;10.5720825;-3.4498596;1.1666565;-;-;-;-;-;-;-;-;-;-;-;-;-;-;-
1514100964994;-;-;11.376541;-2.4371033;-3.0351715;-;-;-;-;-;-;-;-;-;-;-;-;-;-;-
1514100965014;-;-;10.757645;0.3892517;-1.2155762;-;-;-;-;-;-;-;-;-;-;-;-;-;-;-
1514100965034;-;-;15.227615;-2.088745;-3.7127228;-;-;-;-;-;-;-;-;-;-;-;-;-;-;-
1514100965054;-;-;15.095932;-1.2088776;-6.287689;-;-;-;-;-;-;-;-;-;-;-;-;-;-;-
1514100965075;-;-;13.258377;-2.3269653;-4.0790405;-;-;-;-;-;-;-;-;-;-;-;-;-;-;-
1514100965095;-;-;9.418076;-1.4267578;-2.6161804;-;-;-;-;-;-;-;-;-;-;-;-;-;-;-
1514100965115;-;-;6.522293;-1.2962646;-3.598999;-;-;-;-;-;-;-;-;-;-;-;-;-;-;-
1514100965136;-;-;5.600525;-2.214447;-2.278595;-;-;-;-;-;-;-;-;-;-;-;-;-;-;-
1514100965156;-;-;6.8371277;-1.8206024;-7.5422516;-;-;-;-;-;-;-;-;-;-;-;-;-;-;-
1514100965177;-;-;9.125992;0.51493835;-8.475983;-;-;-;-;-;-;-;-;-;-;-;-;-;-;-
1514100965197;-;-;8.836288;-2.3904114;-1.4286499;-;-;-;-;-;-;-;-;-;-;-;-;-;-;-
1514100965217;-;-;9.760452;-2.4263306;-3.2446594;-;-;-;-;-;-;-;-;-;-;-;-;-;-;-
1514100965238;-;-;11.108383;-3.735962;-1.9146729;-;-;-;-;-;-;-;-;-;-;-;-;-;-;-
1514100965259;-;-;9.677856;-3.3876038;-3.2219086;-;-;-;-;-;-;-;-;-;-;-;-;-;-;-
1514100965279;-;-;6.960434;-3.1601563;-2.4545746;-;-;-;-;-;-;-;-;-;-;-;-;-;-;-
1514100965299;-;-;4.81044;-1.7236328;-1.6513214;-;-;-;-;-;-;-;-;-;-;-;-;-;-;-
1514100965319;-;-;3.390686;0.65859985;-2.1385345;-;-;-;-;-;-;-;-;-;-;-;-;-;-;-
1514100965340;-;-;3.6073608;2.449463;-2.230713;-;-;-;-;-;-;-;-;-;-;-;-;-;-;-
1514100965359;-;-;5.4401093;2.5200958;-1.9386139;-;-;-;-;-;-;-;-;-;-;-;-;-;-;-
1514100965379;-;-;5.759735;2.3848114;-2.5766754;-;-;-;-;-;-;-;-;-;-;-;-;-;-;-
1514100965400;-;-;7.1328125;2.0077362;-2.646103;-;-;-;-;-;-;-;-;-;-;-;-;-;-;-
1514100965421;-;-;7.758896;1.7431641;-2.5682983;-;-;-;-;-;-;-;-;-;-;-;-;-;-;-
1514100965441;-;-;7.3854065;2.0412445;-3.018402;-;-;-;-;-;-;-;-;-;-;-;-;-;-;-
1514100965461;-;-;8.131195;1.7240143;-1.9996796;-;-;-;-;-;-;-;-;-;-;-;-;-;-;-
1514100965482;-;-;8.623199;1.3972015;-1.911087;-;-;-;-;-;-;-;-;-;-;-;-;-;-;-
1514100965502;-;-;9.067337;0.8992157;-1.911087;-;-;-;-;-;-;-;-;-;-;-;-;-;-;-
1514100965522;-;-;9.706589;0.848938;-1.6992035;-;-;-;-;-;-;-;-;-;-;-;-;-;-;-
1514100965543;-;-;10.787567;0.6968994;-1.7542725;-;-;-;-;-;-;-;-;-;-;-;-;-;-;-
1514100965562;-;-;11.638702;0.40960693;-2.412674;-;-;-;-;-;-;-;-;-;-;-;-;-;-;-
1514100965583;-;-;11.180222;0.47903442;-3.1189575;-;-;-;-;-;-;-;-;-;-;-;-;-;-;-
1514100965603;-;-;11.518997;1.5085449;-6.2326202;-;-;-;-;-;-;-;-;-;-;-;-;-;-;-
1514100965623;-;-;14.621872;2.7080383;-5.034317;-;-;-;-;-;-;-;-;-;-;-;-;-;-;-
1514100965644;-;-;10.490677;5.9868927;-9.633591;-;-;-;-;-;-;-;-;-;-;-;-;-;-;-
1514100965663;-;-;10.655884;2.9462585;-6.82518;-;-;-;-;-;-;-;-;-;-;-;-;-;-;-
1514100965683;-;-;7.8917847;1.580368;-5.191147;-;-;-;-;-;-;-;-;-;-;-;-;-;-;-
1514100965704;-;-;5.165985;-0.6067352;-4.938553;-;-;-;-;-;-;-;-;-;-;-;-;-;-;-
1514100965724;-;-;4.5865784;-3.5444183;-4.2023315;-;-;-;-;-;-;-;-;-;-;-;-;-;-;-
1514100965744;-;-;6.6659546;-3.9203186;-3.8707428;-;-;-;-;-;-;-;-;-;-;-;-;-;-;-
1514100965764;-;-;9.518631;-0.7312317;-4.081436;-;-;-;-;-;-;-;-;-;-;-;-;-;-;-
1514100965785;-;-;9.6072235;1.5683899;-3.302124;-;-;-;-;-;-;-;-;-;-;-;-;-;-;-
1514100965805;-;-;8.114441;1.719223;-3.8707428;-;-;-;-;-;-;-;-;-;-;-;-;-;-;-
1514100965825;-;-;6.691086;0.24320984;-3.3188782;-;-;-;-;-;-;-;-;-;-;-;-;-;-;-
1514100965845;-;-;5.406601;-1.131073;-2.3719635;-;-;-;-;-;-;-;-;-;-;-;-;-;-;-
1514100965866;-;-;3.881485;-2.4263306;-1.4741516;-;-;-;-;-;-;-;-;-;-;-;-;-;-;-
1514100965886;-;-;4.17717;-3.7467346;-1.2239532;-;-;-;-;-;-;-;-;-;-;-;-;-;-;-
1514100965907;-;-;5.264145;-4.1609344;-2.2905731;-;-;-;-;-;-;-;-;-;-;-;-;-;-;-
1514100965927;-;-;6.625244;-2.6549835;-3.891098;-;-;-;-;-;-;-;-;-;-;-;-;-;-;-
1514100965947;-;-;7.4320984;-0.72406006;-3.7426453;-;-;-;-;-;-;-;-;-;-;-;-;-;-;-
1514100965967;-;-;7.3710327;0.4000244;-3.5714722;-;-;-;-;-;-;-;-;-;-;-;-;-;-;-
1514100965988;-;-;7.61644;0.12109375;-3.2482452;-;-;-;-;-;-;-;-;-;-;-;-;-;-;-
1514100966008;-;-;8.783615;-1.2843018;-2.5814667;-;-;-;-;-;-;-;-;-;-;-;-;-;-;-
1514100966028;-;-;10.270416;-2.6717377;-1.9398193;-;-;-;-;-;-;-;-;-;-;-;-;-;-;-
1514100966048;-;-;12.2204895;-3.9921417;-3.0638885;-;-;-;-;-;-;-;-;-;-;-;-;-;-;-
1514100966069;-;-;13.915588;-3.601883;-3.3128967;-;-;-;-;-;-;-;-;-;-;-;-;-;-;-
1514100966088;-;-;14.538086;-2.4622498;-4.318451;-;-;-;-;-;-;-;-;-;-;-;-;-;-;-
1514100966108;-;-;12.995026;-2.0217133;-5.0750275;-;-;-;-;-;-;-;-;-;-;-;-;-;-;-
1514100966128;-;-;10.973114;-2.1450195;-7.8858185;-;-;-;-;-;-;-;-;-;-;-;-;-;-;-
1514100966148;-;-;8.675873;-3.1805115;-11.841034;-;-;-;-;-;-;-;-;-;-;-;-;-;-;-
1514100966169;-;-;8.718979;-4.0077057;-8.722595;-;-;-;-;-;-;-;-;-;-;-;-;-;-;-
1514100966189;-;-;11.028183;-2.0552368;-0.33210754;-;-;-;-;-;-;-;-;-;-;-;-;-;-;-
1514100966209;-;-;8.321533;-0.60913086;-6.196701;-;-;-;-;-;-;-;-;-;-;-;-;-;-;-
1514100966230;-;-;6.197876;-1.2160645;-8.732162;-;-;-;-;-;-;-;-;-;-;-;-;-;-;-
1514100966250;-;-;7.4213104;-0.9910126;-4.03714;-;-;-;-;-;-;-;-;-;-;-;-;-;-;-
1514100966270;-;-;7.564972;-0.9766388;-1.2909851;-;-;-;-;-;-;-;-;-;-;-;-;-;-;-
1514100966291;-;-;6.2709045;-1.1490326;-0.44943237;-;-;-;-;-;-;-;-;-;-;-;-;-;-;-
1514100966311;-;-;5.1731567;-1.0149536;-1.7494812;-;-;-;-;-;-;-;-;-;-;-;-;-;-;-
1514100966331;-;-;5.2940674;-0.82940674;-2.005661;-;-;-;-;-;-;-;-;-;-;-;-;-;-;-
1514100966352;-;-;5.3311768;-0.77194214;-3.0351715;-;-;-;-;-;-;-;-;-;-;-;-;-;-;-
1514100966372;-;-;5.06662;0.03012085;-3.203949;-;-;-;-;-;-;-;-;-;-;-;-;-;-;-
1514100966392;-;-;5.152817;1.8592834;-3.175232;-;-;-;-;-;-;-;-;-;-;-;-;-;-;-
1514100966413;-;-;5.502365;3.4298859;-3.519989;-;-;-;-;-;-;-;-;-;-;-;-;-;-;-
1514100966432;-;-;6.541443;3.5795288;-3.6600494;-;-;-;-;-;-;-;-;-;-;-;-;-;-;-
1514100966452;-;-;7.7517242;2.1860962;-3.919815;-;-;-;-;-;-;-;-;-;-;-;-;-;-;-
1514100966473;-;-;7.7996063;1.0536346;-4.1197357;-;-;-;-;-;-;-;-;-;-;-;-;-;-;-
1514100966493;-;-;7.964798;0.49699402;-3.4852753;-;-;-;-;-;-;-;-;-;-;-;-;-;-;-
1514100966513;-;-;7.9073334;0.55444336;-2.3923187;-;-;-;-;-;-;-;-;-;-;-;-;-;-;-
1514100966534;-;-;7.9312897;1.1290588;-1.7123718;-;-;-;-;-;-;-;-;-;-;-;-;-;-;-
1514100966554;-;-;8.104858;1.3924255;-1.5244293;-;-;-;-;-;-;-;-;-;-;-;-;-;-;-
1514100966574;-;-;9.584473;0.833374;-1.1066284;-;-;-;-;-;-;-;-;-;-;-;-;-;-;-
1514100966594;-;-;11.043747;0.44311523;-1.4597778;-;-;-;-;-;-;-;-;-;-;-;-;-;-;-
1514100966615;-;-;12.02417;0.7136688;-3.5068207;-;-;-;-;-;-;-;-;-;-;-;-;-;-;-
1514100966635;-;-;12.558075;1.7802734;-6.5175323;-;-;-;-;-;-;-;-;-;-;-;-;-;-;-
1514100966655;-;-;14.498581;3.328125;-6.2625427;-;-;-;-;-;-;-;-;-;-;-;-;-;-;-
1514100966675;-;-;13.2200775;4.241516;-7.6164703;-;-;-;-;-;-;-;-;-;-;-;-;-;-;-
1514100966696;-;-;10.947983;3.1318054;-8.311981;-;-;-;-;-;-;-;-;-;-;-;-;-;-;-
1514100966716;-;-;8.424484;2.232788;-5.0558777;-;-;-;-;-;-;-;-;-;-;-;-;-;-;-
1514100966736;-;-;5.62088;0.90400696;-4.0084076;-;-;-;-;-;-;-;-;-;-;-;-;-;-;-
1514100966756;-;-;4.9026184;-1.8529205;-3.4996338;-;-;-;-;-;-;-;-;-;-;-;-;-;-;-
1514100966777;-;-;6.070984;-2.9386902;-2.7107544;-;-;-;-;-;-;-;-;-;-;-;-;-;-;-
1514100966797;-;-;8.050995;-1.1885223;-3.3272552;-;-;-;-;-;-;-;-;-;-;-;-;-;-;-
1514100966817;-;-;8.910507;0.8237915;-2.9286194;-;-;-;-;-;-;-;-;-;-;-;-;-;-;-
1514100966837;-;-;8.286819;1.2894745;-3.199173;-;-;-;-;-;-;-;-;-;-;-;-;-;-;-
1514100966857;-;-;7.197464;0.4909973;-3.3212738;-;-;-;-;-;-;-;-;-;-;-;-;-;-;-
1514100966877;-;-;6.099716;-0.8605194;-3.322464;-;-;-;-;-;-;-;-;-;-;-;-;-;-;-
1514100966898;-;-;4.793686;-2.317398;-2.6413116;-;-;-;-;-;-;-;-;-;-;-;-;-;-;-
1514100966919;-;-;4.3220215;-3.179306;-2.5778656;-;-;-;-;-;-;-;-;-;-;-;-;-;-;-
1514100966939;-;-;5.403;-2.997345;-2.4354248;-;-;-;-;-;-;-;-;-;-;-;-;-;-;-
1514100966960;-;-;6.6372223;-2.0851593;-2.717926;-;-;-;-;-;-;-;-;-;-;-;-;-;-;-
1514100966980;-;-;6.348709;-1.4051971;-3.2853546;-;-;-;-;-;-;-;-;-;-;-;-;-;-;-
1514100967000;-;-;6.3618774;-1.4746399;-3.0028381;-;-;-;-;-;-;-;-;-;-;-;-;-;-;-
1514100967020;-;-;7.301605;-2.1569824;-2.6269531;-;-;-;-;-;-;-;-;-;-;-;-;-;-;-
1514100967041;-;-;8.600464;-2.6154785;-2.0248108;-;-;-;-;-;-;-;-;-;-;-;-;-;-;-
1514100967061;-;-;10.68103;-2.2407837;-1.8105316;-;-;-;-;-;-;-;-;-;-;-;-;-;-;-
1514100967081;-;-;13.239227;-1.7284241;-2.9633331;-;-;-;-;-;-;-;-;-;-;-;-;-;-;-
1514100967101;-;-;14.613495;-1.562027;-4.0993805;-;-;-;-;-;-;-;-;-;-;-;-;-;-;-
1514100967122;-;-;15.972214;-1.1957092;-4.5818176;-;-;-;-;-;-;-;-;-;-;-;-;-;-;-
1514100967142;-;-;14.5728;-0.8425598;-6.578583;-;-;-;-;-;-;-;-;-;-;-;-;-;-;-
1514100967162;-;-;12.708908;-2.0935364;-8.577744;-;-;-;-;-;-;-;-;-;-;-;-;-;-;-
1514100967182;-;-;10.502655;-4.424286;-7.331558;-;-;-;-;-;-;-;-;-;-;-;-;-;-;-
1514100967203;-;-;8.830307;-4.0914917;-2.6832123;-;-;-;-;-;-;-;-;-;-;-;-;-;-;-
1514100967223;-;-;6.601303;-1.3321838;-4.9457397;-;-;-;-;-;-;-;-;-;-;-;-;-;-;-
1514100967243;-;-;5.2306213;-1.0436859;-7.1627655;-;-;-;-;-;-;-;-;-;-;-;-;-;-;-
1514100967263;-;-;5.726227;-0.9610748;-5.3467712;-;-;-;-;-;-;-;-;-;-;-;-;-;-;-
1514100967284;-;-;7.3099823;-0.82341003;-3.3069;-;-;-;-;-;-;-;-;-;-;-;-;-;-;-
1514100967304;-;-;7.10408;-0.5097656;-1.9912872;-;-;-;-;-;-;-;-;-;-;-;-;-;-;-
1514100967325;-;-;6.4049835;-0.45111084;-2.4150696;-;-;-;-;-;-;-;-;-;-;-;-;-;-;-
1514100967345;-;-;6.375046;-0.34936523;-3.0842438;-;-;-;-;-;-;-;-;-;-;-;-;-;-;-
1514100967365;-;-;6.6060944;-0.31584167;-3.9473572;-;-;-;-;-;-;-;-;-;-;-;-;-;-;-
1514100967386;-;-;5.3180084;0.17376709;-4.1544495;-;-;-;-;-;-;-;-;-;-;-;-;-;-;-
1514100967405;-;-;4.33519;0.8992157;-3.646881;-;-;-;-;-;-;-;-;-;-;-;-;-;-;-
1514100967425;-;-;3.940155;2.0484314;-3.0686798;-;-;-;-;-;-;-;-;-;-;-;-;-;-;-
1514100967445;-;-;5.0462646;2.4015808;-2.879547;-;-;-;-;-;-;-;-;-;-;-;-;-;-;-
1514100967466;-;-;6.576172;2.0831451;-2.8783417;-;-;-;-;-;-;-;-;-;-;-;-;-;-;-
1514100967486;-;-;7.462021;1.7479553;-3.0459442;-;-;-;-;-;-;-;-;-;-;-;-;-;-;-
1514100967506;-;-;8.574127;1.3086243;-2.8771515;-;-;-;-;-;-;-;-;-;-;-;-;-;-;-
1514100967527;-;-;9.49231;1.6904907;-1.7889862;-;-;-;-;-;-;-;-;-;-;-;-;-;-;-
1514100967548;-;-;9.442017;2.019699;-1.9314423;-;-;-;-;-;-;-;-;-;-;-;-;-;-;-
1514100967569;-;-;10.269226;0.9099884;-2.5682983;-;-;-;-;-;-;-;-;-;-;-;-;-;-;-
1514100967589;-;-;12.032547;0.30665588;-3.0459442;-;-;-;-;-;-;-;-;-;-;-;-;-;-;-
1514100967609;-;-;12.488647;1.0943451;-2.7837677;-;-;-;-;-;-;-;-;-;-;-;-;-;-;-
1514100967629;-;-;10.714539;2.1394043;-1.5124512;-;-;-;-;-;-;-;-;-;-;-;-;-;-;-
1514100967650;-;-;9.242111;2.2435608;-4.4716797;-;-;-;-;-;-;-;-;-;-;-;-;-;-;-
1514100967670;-;-;7.193863;2.3225708;-10.742096;-;-;-;-;-;-;-;-;-;-;-;-;-;-;-
1514100967690;-;-;9.918472;2.706833;-8.7561035;-;-;-;-;-;-;-;-;-;-;-;-;-;-;-
1514100967711;-;-;13.616318;2.7619019;-8.710617;-;-;-;-;-;-;-;-;-;-;-;-;-;-;-
1514100967730;-;-;12.409637;2.402771;-8.241364;-;-;-;-;-;-;-;-;-;-;-;-;-;-;-
1514100967750;-;-;7.7924194;1.3517151;-8.250931;-;-;-;-;-;-;-;-;-;-;-;-;-;-;-
1514100967770;-;-;5.192322;-0.6354675;-5.1624146;-;-;-;-;-;-;-;-;-;-;-;-;-;-;-
1514100967791;-;-;4.166397;-2.4442902;-2.2187347;-;-;-;-;-;-;-;-;-;-;-;-;-;-;-
1514100967812;-;-;4.2633667;-1.743988;-1.1293793;-;-;-;-;-;-;-;-;-;-;-;-;-;-;-
1514100967832;-;-;5.1097107;0.7830963;-2.8651733;-;-;-;-;-;-;-;-;-;-;-;-;-;-;-
1514100967852;-;-;5.4485016;1.0213165;-2.7275085;-;-;-;-;-;-;-;-;-;-;-;-;-;-;-
1514100967873;-;-;5.765732;0.33537292;-2.4665375;-;-;-;-;-;-;-;-;-;-;-;-;-;-;-
1514100967892;-;-;5.119293;-0.7527771;-2.8508148;-;-;-;-;-;-;-;-;-;-;-;-;-;-;-
1514100967912;-;-;4.087387;-2.495758;-3.4469604;-;-;-;-;-;-;-;-;-;-;-;-;-;-;-
1514100967932;-;-;4.193939;-4.0316467;-3.1249542;-;-;-;-;-;-;-;-;-;-;-;-;-;-;-
1514100967952;-;-;6.1667633;-4.147766;-2.5694885;-;-;-;-;-;-;-;-;-;-;-;-;-;-;-
1514100967973;-;-;8.139572;-3.3385162;-3.0782623;-;-;-;-;-;-;-;-;-;-;-;-;-;-;-
1514100967994;-;-;9.272034;-2.913559;-3.9736938;-;-;-;-;-;-;-;-;-;-;-;-;-;-;-
1514100968013;-;-;10.355408;-3.242752;-4.738632;-;-;-;-;-;-;-;-;-;-;-;-;-;-;-
1514100968033;-;-;11.168243;-3.399582;-4.010803;-;-;-;-;-;-;-;-;-;-;-;-;-;-;-
1514100968053;-;-;10.964737;-2.471817;-3.607376;-;-;-;-;-;-;-;-;-;-;-;-;-;-;-
1514100968074;-;-;11.852982;-1.4662628;-3.3799286;-;-;-;-;-;-;-;-;-;-;-;-;-;-;-
1514100968094;-;-;14.1454315;-1.8349609;-3.519989;-;-;-;-;-;-;-;-;-;-;-;-;-;-;-
1514100968114;-;-;14.924744;-1.7284241;-5.516754;-;-;-;-;-;-;-;-;-;-;-;-;-;-;-
1514100968135;-;-;12.797501;-1.9630585;-7.2262115;-;-;-;-;-;-;-;-;-;-;-;-;-;-;-
1514100968155;-;-;10.459564;-2.4742126;-6.3008575;-;-;-;-;-;-;-;-;-;-;-;-;-;-;-
1514100968175;-;-;7.6032715;-3.2128296;-5.57901;-;-;-;-;-;-;-;-;-;-;-;-;-;-;-
1514100968195;-;-;6.1727448;-2.2491608;-5.5131683;-;-;-;-;-;-;-;-;-;-;-;-;-;-;-
1514100968215;-;-;6.5821533;-1.1645813;-5.8423615;-;-;-;-;-;-;-;-;-;-;-;-;-;-;-
1514100968235;-;-;7.114853;-1.31781;-7.4428864;-;-;-;-;-;-;-;-;-;-;-;-;-;-;-
1514100968256;-;-;8.144363;-1.5584412;-6.2182617;-;-;-;-;-;-;-;-;-;-;-;-;-;-;-
1514100968275;-;-;8.56694;-0.19374084;-3.2733917;-;-;-;-;-;-;-;-;-;-;-;-;-;-;-
1514100968295;-;-;7.621231;0.88246155;-1.495697;-;-;-;-;-;-;-;-;-;-;-;-;-;-;-
1514100968316;-;-;5.3108215;0.4359436;-2.4749146;-;-;-;-;-;-;-;-;-;-;-;-;-;-;-
1514100968335;-;-;4.3423767;0.08279419;-2.9118652;-;-;-;-;-;-;-;-;-;-;-;-;-;-;-
1514100968355;-;-;3.7138977;-0.033325195;-3.8384247;-;-;-;-;-;-;-;-;-;-;-;-;-;-;-
1514100968375;-;-;3.292511;0.0013885498;-4.361557;-;-;-;-;-;-;-;-;-;-;-;-;-;-;-
1514100968396;-;-;2.9549408;0.16778564;-3.9677124;-;-;-;-;-;-;-;-;-;-;-;-;-;-;-
1514100968415;-;-;3.8539581;0.3174286;-3.111786;-;-;-;-;-;-;-;-;-;-;-;-;-;-;-
1514100968435;-;-;6.3451233;0.5951538;-2.9046783;-;-;-;-;-;-;-;-;-;-;-;-;-;-;-
1514100968455;-;-;8.017471;1.2547607;-3.5068207;-;-;-;-;-;-;-;-;-;-;-;-;-;-;-
1514100968476;-;-;8.019867;2.1501923;-3.978485;-;-;-;-;-;-;-;-;-;-;-;-;-;-;-
1514100968497;-;-;8.959595;2.9725952;-3.832428;-;-;-;-;-;-;-;-;-;-;-;-;-;-;-
1514100968517;-;-;10.076492;3.2934113;-3.0303802;-;-;-;-;-;-;-;-;-;-;-;-;-;-;-
1514100968537;-;-;10.232117;2.7008514;-1.926651;-;-;-;-;-;-;-;-;-;-;-;-;-;-;-
1514100968557;-;-;10.635529;1.6102905;-1.8093262;-;-;-;-;-;-;-;-;-;-;-;-;-;-;-
1514100968577;-;-;11.797913;1.616272;-1.990097;-;-;-;-;-;-;-;-;-;-;-;-;-;-;-
1514100968598;-;-;12.226486;2.2387695;-2.2809906;-;-;-;-;-;-;-;-;-;-;-;-;-;-;-
1514100968618;-;-;10.842636;2.861267;-1.8105316;-;-;-;-;-;-;-;-;-;-;-;-;-;-;-
1514100968638;-;-;9.45639;2.1513824;-3.5583038;-;-;-;-;-;-;-;-;-;-;-;-;-;-;-
1514100968659;-;-;7.4955444;2.1681366;-10.101654;-;-;-;-;-;-;-;-;-;-;-;-;-;-;-
1514100968679;-;-;8.849457;3.0097046;-7.5290833;-;-;-;-;-;-;-;-;-;-;-;-;-;-;-
1514100968699;-;-;10.810303;2.2950287;-5.851944;-;-;-;-;-;-;-;-;-;-;-;-;-;-;-
1514100968720;-;-;11.777573;2.1190643;-7.2369843;-;-;-;-;-;-;-;-;-;-;-;-;-;-;-
1514100968740;-;-;8.705811;1.4582672;-8.015106;-;-;-;-;-;-;-;-;-;-;-;-;-;-;-
1514100968760;-;-;5.8806458;-1.1526184;-6.3044434;-;-;-;-;-;-;-;-;-;-;-;-;-;-;-
1514100968781;-;-;5.7681274;-3.594696;-2.0583344;-;-;-;-;-;-;-;-;-;-;-;-;-;-;-
1514100968801;-;-;5.1492157;-3.0943146;-1.0360107;-;-;-;-;-;-;-;-;-;-;-;-;-;-;-
1514100968821;-;-;6.983185;-0.054870605;-3.1225586;-;-;-;-;-;-;-;-;-;-;-;-;-;-;-
1514100968841;-;-;7.1675262;0.13067627;-3.1824036;-;-;-;-;-;-;-;-;-;-;-;-;-;-;-
1514100968861;-;-;5.9153595;-0.15184021;-3.120163;-;-;-;-;-;-;-;-;-;-;-;-;-;-;-
1514100968882;-;-;4.5267334;-0.5217438;-2.7598267;-;-;-;-;-;-;-;-;-;-;-;-;-;-;-
1514100968902;-;-;2.77417;-1.4889984;-3.472107;-;-;-;-;-;-;-;-;-;-;-;-;-;-;-
1514100968922;-;-;3.229065;-2.4658356;-3.2279053;-;-;-;-;-;-;-;-;-;-;-;-;-;-;-
1514100968942;-;-;5.4927826;-3.4019623;-1.8847504;-;-;-;-;-;-;-;-;-;-;-;-;-;-;-
1514100968963;-;-;7.612854;-3.069168;-2.1253662;-;-;-;-;-;-;-;-;-;-;-;-;-;-;-
1514100968983;-;-;8.796783;-2.645401;-3.0998077;-;-;-;-;-;-;-;-;-;-;-;-;-;-;-
1514100969003;-;-;9.330688;-2.9805908;-3.8587646;-;-;-;-;-;-;-;-;-;-;-;-;-;-;-
1514100969024;-;-;8.782425;-2.9997406;-3.6157532;-;-;-;-;-;-;-;-;-;-;-;-;-;-;-
1514100969044;-;-;7.6152496;-1.977417;-3.0279846;-;-;-;-;-;-;-;-;-;-;-;-;-;-;-
1514100969064;-;-;8.861435;-1.107132;-2.5443573;-;-;-;-;-;-;-;-;-;-;-;-;-;-;-
1514100969085;-;-;11.513016;-1.724823;-1.9206696;-;-;-;-;-;-;-;-;-;-;-;-;-;-;-
1514100969105;-;-;13.133881;-2.8716583;-2.8340454;-;-;-;-;-;-;-;-;-;-;-;-;-;-;-
1514100969126;-;-;15.755539;-3.203247;-2.9872742;-;-;-;-;-;-;-;-;-;-;-;-;-;-;-
1514100969146;-;-;17.170502;-2.1713562;-2.0631256;-;-;-;-;-;-;-;-;-;-;-;-;-;-;-
1514100969167;-;-;12.726868;-1.3692932;-4.199951;-;-;-;-;-;-;-;-;-;-;-;-;-;-;-
1514100969187;-;-;8.438858;-2.9291077;-12.324661;-;-;-;-;-;-;-;-;-;-;-;-;-;-;-
1514100969207;-;-;8.356247;-4.254303;-3.8288422;-;-;-;-;-;-;-;-;-;-;-;-;-;-;-
1514100969228;-;-;7.5948944;-3.613861;0.3035431;-;-;-;-;-;-;-;-;-;-;-;-;-;-;-
1514100969248;-;-;8.702209;-3.0727692;-8.292831;-;-;-;-;-;-;-;-;-;-;-;-;-;-;-
1514100969268;-;-;10.171051;-1.4470978;-9.086517;-;-;-;-;-;-;-;-;-;-;-;-;-;-;-
1514100969289;-;-;8.954803;0.16659546;-6.4708405;-;-;-;-;-;-;-;-;-;-;-;-;-;-;-
1514100969308;-;-;7.5434265;-0.4547119;-2.3468323;-;-;-;-;-;-;-;-;-;-;-;-;-;-;-
1514100969328;-;-;5.6579895;-1.5416718;-0.5787201;-;-;-;-;-;-;-;-;-;-;-;-;-;-;-
1514100969349;-;-;4.8463593;-1.4004211;-2.5611115;-;-;-;-;-;-;-;-;-;-;-;-;-;-;-
1514100969369;-;-;4.7769165;-0.13148499;-3.8527832;-;-;-;-;-;-;-;-;-;-;-;-;-;-;-
1514100969389;-;-;3.9437408;1.6689453;-4.53154;-;-;-;-;-;-;-;-;-;-;-;-;-;-;-
1514100969410;-;-;2.8567657;3.1509552;-3.9796753;-;-;-;-;-;-;-;-;-;-;-;-;-;-;-
1514100969430;-;-;3.2230835;4.25708;-4.492035;-;-;-;-;-;-;-;-;-;-;-;-;-;-;-
1514100969450;-;-;4.714676;3.991333;-5.367111;-;-;-;-;-;-;-;-;-;-;-;-;-;-;-
1514100969470;-;-;5.8674774;2.1154633;-5.6651917;-;-;-;-;-;-;-;-;-;-;-;-;-;-;-
1514100969490;-;-;6.825165;0.44432068;-4.263397;-;-;-;-;-;-;-;-;-;-;-;-;-;-;-
1514100969510;-;-;6.9424744;-0.68455505;-3.638504;-;-;-;-;-;-;-;-;-;-;-;-;-;-;-
1514100969530;-;-;6.29126;-1.4051971;-3.0279846;-;-;-;-;-;-;-;-;-;-;-;-;-;-;-
1514100969551;-;-;5.9069824;-1.8852386;-1.3508453;-;-;-;-;-;-;-;-;-;-;-;-;-;-;-
1514100969571;-;-;5.668762;-2.423935;-0.7020111;-;-;-;-;-;-;-;-;-;-;-;-;-;-;-
1514100969591;-;-;6.7413635;-1.8325653;-0.76545715;-;-;-;-;-;-;-;-;-;-;-;-;-;-;-
1514100969611;-;-;8.335907;-0.79707336;-1.3101501;-;-;-;-;-;-;-;-;-;-;-;-;-;-;-
1514100969632;-;-;9.663483;0.85731506;-1.9888916;-;-;-;-;-;-;-;-;-;-;-;-;-;-;-
1514100969652;-;-;10.195007;2.639801;-2.9118652;-;-;-;-;-;-;-;-;-;-;-;-;-;-;-
1514100969672;-;-;10.6666565;3.2706757;-2.4162598;-;-;-;-;-;-;-;-;-;-;-;-;-;-;-
1514100969693;-;-;10.891708;2.394394;-1.6321564;-;-;-;-;-;-;-;-;-;-;-;-;-;-;-
1514100969713;-;-;11.229294;0.9973755;-1.0671387;-;-;-;-;-;-;-;-;-;-;-;-;-;-;-
1514100969733;-;-;9.894531;-0.38407898;-3.4589386;-;-;-;-;-;-;-;-;-;-;-;-;-;-;-
1514100969753;-;-;8.891357;1.9191437;-8.95723;-;-;-;-;-;-;-;-;-;-;-;-;-;-;-
1514100969774;-;-;8.377808;4.9142914;-11.958359;-;-;-;-;-;-;-;-;-;-;-;-;-;-;-
1514100969794;-;-;9.519836;5.1848297;-5.1636047;-;-;-;-;-;-;-;-;-;-;-;-;-;-;-
1514100969814;-;-;8.9991;2.785843;-4.0957947;-;-;-;-;-;-;-;-;-;-;-;-;-;-;-
1514100969835;-;-;6.735382;-0.6929321;-7.883423;-;-;-;-;-;-;-;-;-;-;-;-;-;-;-
1514100969855;-;-;6.975998;-2.815384;-9.590485;-;-;-;-;-;-;-;-;-;-;-;-;-;-;-
1514100969875;-;-;9.738907;-1.4483032;-5.2581787;-;-;-;-;-;-;-;-;-;-;-;-;-;-;-
1514100969896;-;-;11.365768;1.6067047;-5.1815643;-;-;-;-;-;-;-;-;-;-;-;-;-;-;-
1514100969915;-;-;12.00502;2.3249664;-6.5618286;-;-;-;-;-;-;-;-;-;-;-;-;-;-;-
1514100969935;-;-;9.862213;2.6062775;-6.0075684;-;-;-;-;-;-;-;-;-;-;-;-;-;-;-
1514100969955;-;-;6.6108856;1.7335968;-6.849121;-;-;-;-;-;-;-;-;-;-;-;-;-;-;-
1514100969976;-;-;4.612915;-0.76475525;-6.5139465;-;-;-;-;-;-;-;-;-;-;-;-;-;-;-
1514100969996;-;-;3.687561;-3.455841;-4.401062;-;-;-;-;-;-;-;-;-;-;-;-;-;-;-
1514100970016;-;-;3.4684906;-4.618225;-3.417038;-;-;-;-;-;-;-;-;-;-;-;-;-;-;-
1514100970037;-;-;6.189499;-4.1525574;-3.8611603;-;-;-;-;-;-;-;-;-;-;-;-;-;-;-
1514100970057;-;-;7.8630524;-3.3696442;-3.4002838;-;-;-;-;-;-;-;-;-;-;-;-;-;-;-
1514100970078;-;-;6.5713806;-3.5168915;-3.0136108;-;-;-;-;-;-;-;-;-;-;-;-;-;-;-
1514100970097;-;-;5.671158;-3.6270294;-2.3743591;-;-;-;-;-;-;-;-;-;-;-;-;-;-;-
1514100970117;-;-;5.3335724;-3.0955048;-2.4868927;-;-;-;-;-;-;-;-;-;-;-;-;-;-;-
1514100970137;-;-;5.588562;-2.5568085;-2.1301575;-;-;-;-;-;-;-;-;-;-;-;-;-;-;-
1514100970158;-;-;7.3854065;-2.2731018;-2.2091675;-;-;-;-;-;-;-;-;-;-;-;-;-;-;-
1514100970178;-;-;10.427231;-2.2946472;-2.899887;-;-;-;-;-;-;-;-;-;-;-;-;-;-;-
1514100970199;-;-;12.942352;-3.0991058;-3.2997284;-;-;-;-;-;-;-;-;-;-;-;-;-;-;-
1514100970219;-;-;13.599548;-3.1302338;-3.2051544;-;-;-;-;-;-;-;-;-;-;-;-;-;-;-
1514100970239;-;-;11.307114;-2.4035797;-4.1628265;-;-;-;-;-;-;-;-;-;-;-;-;-;-;-
1514100970259;-;-;8.4687805;-2.2599335;-4.2322693;-;-;-;-;-;-;-;-;-;-;-;-;-;-;-
1514100970280;-;-;7.2201996;-0.91319275;-6.282898;-;-;-;-;-;-;-;-;-;-;-;-;-;-;-
1514100970300;-;-;8.730942;3.7124023;-10.179459;-;-;-;-;-;-;-;-;-;-;-;-;-;-;-
1514100970320;-;-;9.067337;7.233078;-8.836319;-;-;-;-;-;-;-;-;-;-;-;-;-;-;-
1514100970341;-;-;10.502655;5.530792;-4.361557;-;-;-;-;-;-;-;-;-;-;-;-;-;-;-
1514100970361;-;-;9.552155;1.5851593;-8.978775;-;-;-;-;-;-;-;-;-;-;-;-;-;-;-
1514100970381;-;-;10.36499;-1.107132;-10.08609;-;-;-;-;-;-;-;-;-;-;-;-;-;-;-
1514100970401;-;-;11.061707;-2.281479;-7.335144;-;-;-;-;-;-;-;-;-;-;-;-;-;-;-
1514100970422;-;-;10.989868;-2.6166687;-5.0786133;-;-;-;-;-;-;-;-;-;-;-;-;-;-;-
1514100970442;-;-;9.252884;-2.12706;-3.725891;-;-;-;-;-;-;-;-;-;-;-;-;-;-;-
1514100970461;-;-;7.693054;-0.8174286;-3.195572;-;-;-;-;-;-;-;-;-;-;-;-;-;-;-
1514100970481;-;-;5.370682;0.6382446;-2.0834656;-;-;-;-;-;-;-;-;-;-;-;-;-;-;-
1514100970502;-;-;4.4441223;1.1733551;-1.7015991;-;-;-;-;-;-;-;-;-;-;-;-;-;-;-
1514100970522;-;-;4.2310486;1.4331207;-1.5866699;-;-;-;-;-;-;-;-;-;-;-;-;-;-;-
1514100970542;-;-;4.5662384;1.2272186;-1.634552;-;-;-;-;-;-;-;-;-;-;-;-;-;-;-
1514100970563;-;-;6.086548;0.42636108;-1.4813232;-;-;-;-;-;-;-;-;-;-;-;-;-;-;-
1514100970583;-;-;8.515472;-0.07762146;-1.9015045;-;-;-;-;-;-;-;-;-;-;-;-;-;-;-
1514100970603;-;-;8.175491;0.16419983;-1.887146;-;-;-;-;-;-;-;-;-;-;-;-;-;-;-
1514100970624;-;-;7.475189;0.24559021;-1.1497345;-;-;-;-;-;-;-;-;-;-;-;-;-;-;-
1514100970644;-;-;6.750946;0.6454315;-0.054382324;-;-;-;-;-;-;-;-;-;-;-;-;-;-;-
1514100970664;-;-;7.1136627;1.3948212;0.08088684;-;-;-;-;-;-;-;-;-;-;-;-;-;-;-
1514100970684;-;-;8.780029;2.6996613;-0.4159088;-;-;-;-;-;-;-;-;-;-;-;-;-;-;-
1514100970705;-;-;12.878906;2.3489075;-0.5463867;-;-;-;-;-;-;-;-;-;-;-;-;-;-;-
1514100970727;-;-;15.3233795;2.3441162;-1.4933014;-;-;-;-;-;-;-;-;-;-;-;-;-;-;-
1514100970748;-;-;12.950729;3.747116;-3.1644592;-;-;-;-;-;-;-;-;-;-;-;-;-;-;-
1514100970768;-;-;16.977768;3.2060242;-6.681534;-;-;-;-;-;-;-;-;-;-;-;-;-;-;-
1514100970788;-;-;15.848907;5.454178;-7.3997955;-;-;-;-;-;-;-;-;-;-;-;-;-;-;-
1514100970808;-;-;10.015442;9.132874;-7.1627655;-;-;-;-;-;-;-;-;-;-;-;-;-;-;-
1514100970828;-;-;7.7541046;6.3232727;-7.745758;-;-;-;-;-;-;-;-;-;-;-;-;-;-;-
1514100970848;-;-;4.9074097;3.2563019;-7.6811066;-;-;-;-;-;-;-;-;-;-;-;-;-;-;-
1514100970868;-;-;5.775299;-1.0460815;-7.2381897;-;-;-;-;-;-;-;-;-;-;-;-;-;-;-
1514100970888;-;-;8.285629;-3.124237;-6.6851196;-;-;-;-;-;-;-;-;-;-;-;-;-;-;-
1514100970909;-;-;9.5677185;-1.4375305;-5.930954;-;-;-;-;-;-;-;-;-;-;-;-;-;-;-
1514100970928;-;-;10.611588;0.036102295;-5.1552277;-;-;-;-;-;-;-;-;-;-;-;-;-;-;-
1514100970948;-;-;9.295975;0.37487793;-4.9852448;-;-;-;-;-;-;-;-;-;-;-;-;-;-;-
1514100970968;-;-;7.9348755;0.3904419;-4.259796;-;-;-;-;-;-;-;-;-;-;-;-;-;-;-
1514100970989;-;-;6.209854;-0.1410675;-2.6844177;-;-;-;-;-;-;-;-;-;-;-;-;-;-;-
1514100971008;-;-;4.8080444;-1.0448761;-2.069107;-;-;-;-;-;-;-;-;-;-;-;-;-;-;-
1514100971028;-;-;3.1273193;-2.684906;-2.0283966;-;-;-;-;-;-;-;-;-;-;-;-;-;-;-
1514100971048;-;-;2.9920502;-3.3409119;-2.0511475;-;-;-;-;-;-;-;-;-;-;-;-;-;-;-
1514100971069;-;-;3.9425354;-2.7124329;-2.7933502;-;-;-;-;-;-;-;-;-;-;-;-;-;-;-
1514100971089;-;-;5.826782;-0.4152069;-2.4198608;-;-;-;-;-;-;-;-;-;-;-;-;-;-;-
1514100971109;-;-;7.095703;0.78907776;-2.9681244;-;-;-;-;-;-;-;-;-;-;-;-;-;-;-
1514100971129;-;-;6.0638123;-0.8665161;-4.2143097;-;-;-;-;-;-;-;-;-;-;-;-;-;-;-
1514100971149;-;-;6.2421722;-2.8680573;-4.7326508;-;-;-;-;-;-;-;-;-;-;-;-;-;-;-
1514100971170;-;-;8.255692;-3.1290283;-3.5259705;-;-;-;-;-;-;-;-;-;-;-;-;-;-;-
1514100971190;-;-;10.558914;-2.6023102;-4.662018;-;-;-;-;-;-;-;-;-;-;-;-;-;-;-
1514100971210;-;-;12.63829;-2.7698975;-5.3994446;-;-;-;-;-;-;-;-;-;-;-;-;-;-;-
1514100971230;-;-;15.611877;-2.2419739;-4.3878937;-;-;-;-;-;-;-;-;-;-;-;-;-;-;-
1514100971251;-;-;15.787857;-1.7391968;-4.8451843;-;-;-;-;-;-;-;-;-;-;-;-;-;-;-
1514100971271;-;-;13.815033;-3.3469086;-11.705765;-;-;-;-;-;-;-;-;-;-;-;-;-;-;-
1514100971291;-;-;13.490616;-5.3388824;-10.447617;-;-;-;-;-;-;-;-;-;-;-;-;-;-;-
1514100971312;-;-;12.786728;-6.598221;-3.0603027;-;-;-;-;-;-;-;-;-;-;-;-;-;-;-
1514100971333;-;-;8.368225;-3.4785767;-4.824829;-;-;-;-;-;-;-;-;-;-;-;-;-;-;-
1514100971353;-;-;4.9505005;-0.9143982;-8.874619;-;-;-;-;-;-;-;-;-;-;-;-;-;-;-
1514100971373;-;-;4.015564;1.1158905;-5.77652;-;-;-;-;-;-;-;-;-;-;-;-;-;-;-
1514100971394;-;-;3.6660156;1.8078156;-3.4469604;-;-;-;-;-;-;-;-;-;-;-;-;-;-;-
1514100971414;-;-;3.7857208;0.93273926;-0.966568;-;-;-;-;-;-;-;-;-;-;-;-;-;-;-
1514100971434;-;-;3.718689;0.9291382;-0.91270447;-;-;-;-;-;-;-;-;-;-;-;-;-;-;-
1514100971455;-;-;3.2218933;1.2655334;-2.1552887;-;-;-;-;-;-;-;-;-;-;-;-;-;-;-
1514100971475;-;-;3.7857208;0.79745483;-2.603012;-;-;-;-;-;-;-;-;-;-;-;-;-;-;-
1514100971495;-;-;3.7809296;-0.095581055;-2.6269531;-;-;-;-;-;-;-;-;-;-;-;-;-;-;-
1514100971515;-;-;3.9150085;0.062438965;-3.2518463;-;-;-;-;-;-;-;-;-;-;-;-;-;-;-
1514100971536;-;-;4.6296844;1.5588226;-4.160446;-;-;-;-;-;-;-;-;-;-;-;-;-;-;-
1514100971557;-;-;5.672348;2.8876038;-4.349579;-;-;-;-;-;-;-;-;-;-;-;-;-;-;-
1514100971577;-;-;7.001129;2.9594269;-4.9960175;-;-;-;-;-;-;-;-;-;-;-;-;-;-;-
1514100971597;-;-;8.540604;2.2854614;-5.978836;-;-;-;-;-;-;-;-;-;-;-;-;-;-;-
1514100971618;-;-;9.263657;2.5775452;-4.9002533;-;-;-;-;-;-;-;-;-;-;-;-;-;-;-
1514100971638;-;-;10.087265;3.1030731;-2.389923;-;-;-;-;-;-;-;-;-;-;-;-;-;-;-
1514100971658;-;-;7.9791718;3.3460846;-1.3173218;-;-;-;-;-;-;-;-;-;-;-;-;-;-;-
1514100971678;-;-;8.952408;1.9574585;-1.0743103;-;-;-;-;-;-;-;-;-;-;-;-;-;-;-
1514100971699;-;-;10.8965;1.4702301;-2.2857819;-;-;-;-;-;-;-;-;-;-;-;-;-;-;-
1514100971719;-;-;13.187759;1.9095612;-3.2578278;-;-;-;-;-;-;-;-;-;-;-;-;-;-;-
1514100971740;-;-;12.701736;2.864853;-3.2913513;-;-;-;-;-;-;-;-;-;-;-;-;-;-;-
1514100971760;-;-;10.050156;2.5583954;-5.3479614;-;-;-;-;-;-;-;-;-;-;-;-;-;-;-
1514100971780;-;-;9.45639;3.3664398;-7.232193;-;-;-;-;-;-;-;-;-;-;-;-;-;-;-
1514100971800;-;-;11.5082245;3.7962036;-5.8782806;-;-;-;-;-;-;-;-;-;-;-;-;-;-;-
1514100971820;-;-;10.111206;1.7671051;-8.612457;-;-;-;-;-;-;-;-;-;-;-;-;-;-;-
1514100971841;-;-;8.181473;0.8632965;-7.627243;-;-;-;-;-;-;-;-;-;-;-;-;-;-;-
1514100971861;-;-;6.904175;0.34495544;-6.5259094;-;-;-;-;-;-;-;-;-;-;-;-;-;-;-
1514100971881;-;-;6.8036194;-1.8888397;-5.3994446;-;-;-;-;-;-;-;-;-;-;-;-;-;-;-
1514100971901;-;-;7.0454254;-3.01651;-4.085022;-;-;-;-;-;-;-;-;-;-;-;-;-;-;-
1514100971922;-;-;8.102463;-2.183319;-3.1812134;-;-;-;-;-;-;-;-;-;-;-;-;-;-;-
1514100971942;-;-;7.894165;-0.54927063;-2.2067719;-;-;-;-;-;-;-;-;-;-;-;-;-;-;-
1514100971962;-;-;5.912964;0.026535034;-2.7071533;-;-;-;-;-;-;-;-;-;-;-;-;-;-;-
1514100971983;-;-;4.611725;-0.39245605;-2.7119446;-;-;-;-;-;-;-;-;-;-;-;-;-;-;-
1514100972002;-;-;3.648056;-1.4183655;-2.5096436;-;-;-;-;-;-;-;-;-;-;-;-;-;-;-
1514100972022;-;-;2.798111;-2.8896027;-2.772995;-;-;-;-;-;-;-;-;-;-;-;-;-;-;-
1514100972042;-;-;2.6999512;-3.5911102;-3.0830536;-;-;-;-;-;-;-;-;-;-;-;-;-;-;-
1514100972062;-;-;4.1448517;-3.744339;-2.962143;-;-;-;-;-;-;-;-;-;-;-;-;-;-;-
1514100972083;-;-;6.288864;-2.827362;-3.6217499;-;-;-;-;-;-;-;-;-;-;-;-;-;-;-
1514100972103;-;-;8.209015;-1.2172546;-4.0275574;-;-;-;-;-;-;-;-;-;-;-;-;-;-;-
1514100972123;-;-;9.527023;-0.31584167;-4.3244476;-;-;-;-;-;-;-;-;-;-;-;-;-;-;-
1514100972144;-;-;8.710602;-0.7408142;-5.049881;-;-;-;-;-;-;-;-;-;-;-;-;-;-;-
1514100972164;-;-;8.238937;-1.562027;-4.4070435;-;-;-;-;-;-;-;-;-;-;-;-;-;-;-
1514100972185;-;-;10.912064;-1.020935;-2.567093;-;-;-;-;-;-;-;-;-;-;-;-;-;-;-
1514100972205;-;-;13.154236;-1.3597107;-2.2414856;-;-;-;-;-;-;-;-;-;-;-;-;-;-;-
1514100972225;-;-;15.553223;-2.6813202;-3.2482452;-;-;-;-;-;-;-;-;-;-;-;-;-;-;-
1514100972245;-;-;17.467392;-2.9805908;-3.8887024;-;-;-;-;-;-;-;-;-;-;-;-;-;-;-
1514100972265;-;-;14.825394;-2.0384674;-6.9532776;-;-;-;-;-;-;-;-;-;-;-;-;-;-;-
1514100972285;-;-;11.067688;-2.9710083;-11.220947;-;-;-;-;-;-;-;-;-;-;-;-;-;-;-
1514100972305;-;-;8.934448;-5.6752625;-6.5582275;-;-;-;-;-;-;-;-;-;-;-;-;-;-;-
1514100972326;-;-;8.722565;-4.922287;-0.882782;-;-;-;-;-;-;-;-;-;-;-;-;-;-;-
1514100972346;-;-;7.2680817;-2.4335175;-8.034256;-;-;-;-;-;-;-;-;-;-;-;-;-;-;-
1514100972366;-;-;3.8168488;-0.759964;-11.644714;-;-;-;-;-;-;-;-;-;-;-;-;-;-;-
1514100972387;-;-;6.0877533;1.8820343;-5.484436;-;-;-;-;-;-;-;-;-;-;-;-;-;-;-
1514100972407;-;-;7.4045563;3.1282196;-2.3947144;-;-;-;-;-;-;-;-;-;-;-;-;-;-;-
1514100972427;-;-;6.2397766;1.2332001;-2.1971893;-;-;-;-;-;-;-;-;-;-;-;-;-;-;-
1514100972447;-;-;5.9069824;-1.8217926;-3.5211945;-;-;-;-;-;-;-;-;-;-;-;-;-;-;-
1514100972468;-;-;5.628067;-3.7982025;-4.0036163;-;-;-;-;-;-;-;-;-;-;-;-;-;-;-
1514100972488;-;-;5.237808;-4.1250153;-3.3547974;-;-;-;-;-;-;-;-;-;-;-;-;-;-;-
1514100972508;-;-;3.8240356;-2.183319;-2.4246368;-;-;-;-;-;-;-;-;-;-;-;-;-;-;-
1514100972529;-;-;2.6317139;0.51016235;-2.7861633;-;-;-;-;-;-;-;-;-;-;-;-;-;-;-
1514100972549;-;-;3.1021729;3.259903;-2.8472137;-;-;-;-;-;-;-;-;-;-;-;-;-;-;-
1514100972569;-;-;5.015152;3.8584442;-2.8879242;-;-;-;-;-;-;-;-;-;-;-;-;-;-;-
1514100972590;-;-;8.159927;2.7642975;-3.20755;-;-;-;-;-;-;-;-;-;-;-;-;-;-;-
1514100972610;-;-;9.507858;1.611496;-4.314865;-;-;-;-;-;-;-;-;-;-;-;-;-;-;-
1514100972630;-;-;9.343857;0.90519714;-4.4932404;-;-;-;-;-;-;-;-;-;-;-;-;-;-;-
1514100972651;-;-;9.412094;1.6019135;-2.8292694;-;-;-;-;-;-;-;-;-;-;-;-;-;-;-
1514100972671;-;-;9.509064;3.134201;-1.0372009;-;-;-;-;-;-;-;-;-;-;-;-;-;-;-
1514100972691;-;-;9.6072235;3.2539063;-1.3759766;-;-;-;-;-;-;-;-;-;-;-;-;-;-;-
1514100972711;-;-;11.309494;2.9342804;-2.65448;-;-;-;-;-;-;-;-;-;-;-;-;-;-;-
1514100972732;-;-;12.238449;2.5871277;-3.8707428;-;-;-;-;-;-;-;-;-;-;-;-;-;-;-
1514100972751;-;-;11.061707;2.244751;-3.7282867;-;-;-;-;-;-;-;-;-;-;-;-;-;-;-
1514100972772;-;-;9.8203125;1.616272;-6.0913696;-;-;-;-;-;-;-;-;-;-;-;-;-;-;-
1514100972792;-;-;11.744049;2.560791;-5.9884186;-;-;-;-;-;-;-;-;-;-;-;-;-;-;-
1514100972812;-;-;12.194153;3.470581;-6.1775513;-;-;-;-;-;-;-;-;-;-;-;-;-;-;-
1514100972832;-;-;11.572861;3.6812744;-7.1352386;-;-;-;-;-;-;-;-;-;-;-;-;-;-;-
1514100972852;-;-;8.294006;3.2814484;-7.9456787;-;-;-;-;-;-;-;-;-;-;-;-;-;-;-
1514100972873;-;-;5.825577;1.6629639;-6.342758;-;-;-;-;-;-;-;-;-;-;-;-;-;-;-
1514100972893;-;-;4.525528;-1.9295349;-4.527954;-;-;-;-;-;-;-;-;-;-;-;-;-;-;-
1514100972913;-;-;4.952896;-4.02446;-3.1895905;-;-;-;-;-;-;-;-;-;-;-;-;-;-;-
1514100972933;-;-;7.4644165;-2.5783691;-4.575836;-;-;-;-;-;-;-;-;-;-;-;-;-;-;-
1514100972954;-;-;8.32991;-0.09677124;-3.7498322;-;-;-;-;-;-;-;-;-;-;-;-;-;-;-
1514100972974;-;-;7.442871;1.6078949;-3.662445;-;-;-;-;-;-;-;-;-;-;-;-;-;-;-
1514100972994;-;-;5.4293365;1.2978516;-3.4457703;-;-;-;-;-;-;-;-;-;-;-;-;-;-;-
1514100973014;-;-;3.608551;-0.51815796;-2.7873688;-;-;-;-;-;-;-;-;-;-;-;-;-;-;-
1514100973034;-;-;2.5419312;-2.70047;-2.1888123;-;-;-;-;-;-;-;-;-;-;-;-;-;-;-
1514100973055;-;-;2.4569397;-4.4626007;-2.5766754;-;-;-;-;-;-;-;-;-;-;-;-;-;-;-
1514100973074;-;-;3.8826904;-5.2634583;-2.4330292;-;-;-;-;-;-;-;-;-;-;-;-;-;-;-
1514100973094;-;-;6.7533417;-4.144165;-2.3600006;-;-;-;-;-;-;-;-;-;-;-;-;-;-;-
1514100973115;-;-;8.613632;-1.4291534;-3.2721863;-;-;-;-;-;-;-;-;-;-;-;-;-;-;-
1514100973134;-;-;11.010223;1.3469238;-3.54393;-;-;-;-;-;-;-;-;-;-;-;-;-;-;-
1514100973154;-;-;7.3255463;1.5504303;-5.223465;-;-;-;-;-;-;-;-;-;-;-;-;-;-;-
1514100973174;-;-;5.69989;0.1438446;-4.1987457;-;-;-;-;-;-;-;-;-;-;-;-;-;-;-
1514100973195;-;-;9.372589;-1.0089569;-2.0463562;-;-;-;-;-;-;-;-;-;-;-;-;-;-;-
1514100973215;-;-;11.319077;-2.4418945;-1.1724701;-;-;-;-;-;-;-;-;-;-;-;-;-;-;-
1514100973235;-;-;12.224091;-4.095093;-2.294159;-;-;-;-;-;-;-;-;-;-;-;-;-;-;-
1514100973255;-;-;13.24881;-5.2993774;-3.3308563;-;-;-;-;-;-;-;-;-;-;-;-;-;-;-
1514100973275;-;-;14.0664215;-5.2048035;-3.2003632;-;-;-;-;-;-;-;-;-;-;-;-;-;-;-
1514100973296;-;-;12.160645;-3.8005981;-6.5223236;-;-;-;-;-;-;-;-;-;-;-;-;-;-;-
1514100973316;-;-;12.558075;-4.4015503;-10.098053;-;-;-;-;-;-;-;-;-;-;-;-;-;-;-
1514100973336;-;-;13.503784;-5.3484497;-0.8660126;-;-;-;-;-;-;-;-;-;-;-;-;-;-;-
1514100973357;-;-;11.199371;-2.5472412;-4.7003326;-;-;-;-;-;-;-;-;-;-;-;-;-;-;-
1514100973377;-;-;6.8993835;-2.2156372;-10.366211;-;-;-;-;-;-;-;-;-;-;-;-;-;-;-
1514100973397;-;-;4.2418213;-0.45231628;-11.541763;-;-;-;-;-;-;-;-;-;-;-;-;-;-;-
1514100973417;-;-;4.691925;2.1118774;-8.592102;-;-;-;-;-;-;-;-;-;-;-;-;-;-;-
1514100973437;-;-;6.6575623;2.8983765;-5.883072;-;-;-;-;-;-;-;-;-;-;-;-;-;-;-
1514100973458;-;-;8.546585;0.8525238;-4.0874176;-;-;-;-;-;-;-;-;-;-;-;-;-;-;-
1514100973478;-;-;9.892136;-0.4439392;-4.6955414;-;-;-;-;-;-;-;-;-;-;-;-;-;-;-
1514100973498;-;-;7.9779663;-1.4099884;-2.5287933;-;-;-;-;-;-;-;-;-;-;-;-;-;-;-
1514100973519;-;-;5.2234344;-2.9506683;-2.9489746;-;-;-;-;-;-;-;-;-;-;-;-;-;-;-
1514100973539;-;-;3.4756775;-2.9171448;-3.377533;-;-;-;-;-;-;-;-;-;-;-;-;-;-;-
1514100973560;-;-;2.0355682;-1.2364197;-2.9417877;-;-;-;-;-;-;-;-;-;-;-;-;-;-;-
1514100973580;-;-;1.7602234;0.9758301;-3.254242;-;-;-;-;-;-;-;-;-;-;-;-;-;-;-
1514100973600;-;-;3.457718;2.7367706;-3.978485;-;-;-;-;-;-;-;-;-;-;-;-;-;-;-
1514100973620;-;-;5.6927032;3.338913;-3.764206;-;-;-;-;-;-;-;-;-;-;-;-;-;-;-
1514100973641;-;-;7.7026367;2.2435608;-3.2183228;-;-;-;-;-;-;-;-;-;-;-;-;-;-;-
1514100973661;-;-;8.395752;0.8740692;-3.350006;-;-;-;-;-;-;-;-;-;-;-;-;-;-;-
1514100973681;-;-;7.2740784;0.13665771;-3.3524017;-;-;-;-;-;-;-;-;-;-;-;-;-;-;-
1514100973701;-;-;8.168304;0.9016113;-2.5216064;-;-;-;-;-;-;-;-;-;-;-;-;-;-;-
1514100973722;-;-;10.042969;2.2268066;-1.5782928;-;-;-;-;-;-;-;-;-;-;-;-;-;-;-
1514100973742;-;-;11.128738;2.3285522;-0.922287;-;-;-;-;-;-;-;-;-;-;-;-;-;-;-
1514100973762;-;-;11.588425;1.7072601;-1.4537964;-;-;-;-;-;-;-;-;-;-;-;-;-;-;-
1514100973782;-;-;12.908829;2.0939178;-2.709549;-;-;-;-;-;-;-;-;-;-;-;-;-;-;-
1514100973803;-;-;12.857346;2.912735;-3.3308563;-;-;-;-;-;-;-;-;-;-;-;-;-;-;-
1514100973823;-;-;10.845032;2.8564758;-3.3045197;-;-;-;-;-;-;-;-;-;-;-;-;-;-;-
1514100973843;-;-;11.122757;2.651764;-7.65477;-;-;-;-;-;-;-;-;-;-;-;-;-;-;-
1514100973864;-;-;12.763977;2.9151306;-5.851944;-;-;-;-;-;-;-;-;-;-;-;-;-;-;-
1514100973884;-;-;11.7668;3.1330109;-7.2884674;-;-;-;-;-;-;-;-;-;-;-;-;-;-;-
1514100973905;-;-;8.58371;2.3884125;-7.132843;-;-;-;-;-;-;-;-;-;-;-;-;-;-;-
1514100973925;-;-;5.988388;2.3979797;-6.389435;-;-;-;-;-;-;-;-;-;-;-;-;-;-;-
1514100973945;-;-;4.577011;-0.36013794;-5.3910522;-;-;-;-;-;-;-;-;-;-;-;-;-;-;-
1514100973965;-;-;4.2980804;-3.7970123;-4.160446;-;-;-;-;-;-;-;-;-;-;-;-;-;-;-
1514100973985;-;-;5.7717133;-4.400345;-3.6684265;-;-;-;-;-;-;-;-;-;-;-;-;-;-;-
1514100974006;-;-;8.558563;0.41558838;-3.3524017;-;-;-;-;-;-;-;-;-;-;-;-;-;-;-
1514100974025;-;-;7.8175507;2.2375793;-3.0064392;-;-;-;-;-;-;-;-;-;-;-;-;-;-;-
1514100974045;-;-;5.249771;2.3536987;-3.238678;-;-;-;-;-;-;-;-;-;-;-;-;-;-;-
1514100974065;-;-;3.5714417;0.40242004;-3.6313171;-;-;-;-;-;-;-;-;-;-;-;-;-;-;-
1514100974087;-;-;2.77417;-2.1186829;-3.1716309;-;-;-;-;-;-;-;-;-;-;-;-;-;-;-
1514100974107;-;-;2.869934;-4.2555084;-3.1860046;-;-;-;-;-;-;-;-;-;-;-;-;-;-;-
1514100974127;-;-;4.3651123;-5.463379;-3.4457703;-;-;-;-;-;-;-;-;-;-;-;-;-;-;-
1514100974148;-;-;7.2752686;-4.637375;-3.496048;-;-;-;-;-;-;-;-;-;-;-;-;-;-;-
1514100974167;-;-;8.971558;-2.277893;-3.346405;-;-;-;-;-;-;-;-;-;-;-;-;-;-;-
1514100974187;-;-;9.39534;-0.52293396;-2.840042;-;-;-;-;-;-;-;-;-;-;-;-;-;-;-
1514100974207;-;-;8.223373;-1.3597107;-3.6337128;-;-;-;-;-;-;-;-;-;-;-;-;-;-;-
1514100974228;-;-;8.365829;-2.2802887;-3.2362823;-;-;-;-;-;-;-;-;-;-;-;-;-;-;-
1514100974247;-;-;10.4487915;-2.554428;-1.2251434;-;-;-;-;-;-;-;-;-;-;-;-;-;-;-
1514100974267;-;-;12.079239;-2.1186829;-0.72117615;-;-;-;-;-;-;-;-;-;-;-;-;-;-;-
1514100974287;-;-;11.188599;-2.269516;-0.8504486;-;-;-;-;-;-;-;-;-;-;-;-;-;-;-
1514100974308;-;-;11.8050995;-3.3672485;-1.4442139;-;-;-;-;-;-;-;-;-;-;-;-;-;-;-
1514100974328;-;-;12.767563;-3.2212067;-4.11734;-;-;-;-;-;-;-;-;-;-;-;-;-;-;-
1514100974348;-;-;12.645462;-2.9446716;-5.9536896;-;-;-;-;-;-;-;-;-;-;-;-;-;-;-
1514100974369;-;-;12.61673;-2.660965;-8.678299;-;-;-;-;-;-;-;-;-;-;-;-;-;-;-
1514100974389;-;-;12.258804;-3.471405;-9.437256;-;-;-;-;-;-;-;-;-;-;-;-;-;-;-
1514100974409;-;-;10.370972;-2.447876;-5.0271454;-;-;-;-;-;-;-;-;-;-;-;-;-;-;-
1514100974429;-;-;8.3502655;-0.37210083;-6.069809;-;-;-;-;-;-;-;-;-;-;-;-;-;-;-
1514100974450;-;-;5.952469;-0.33140564;-8.915329;-;-;-;-;-;-;-;-;-;-;-;-;-;-;-
1514100974470;-;-;5.605316;-0.6115265;-7.7266083;-;-;-;-;-;-;-;-;-;-;-;-;-;-;-
1514100974490;-;-;7.319565;-1.2364197;-5.3132477;-;-;-;-;-;-;-;-;-;-;-;-;-;-;-
1514100974511;-;-;7.3854065;-1.8804474;-4.8020782;-;-;-;-;-;-;-;-;-;-;-;-;-;-;-
1514100974531;-;-;6.3427277;-1.6494141;-3.5738678;-;-;-;-;-;-;-;-;-;-;-;-;-;-;-
1514100974552;-;-;5.7968445;-1.5129395;-2.460556;-;-;-;-;-;-;-;-;-;-;-;-;-;-;-
1514100974572;-;-;5.279709;-1.3597107;-4.345993;-;-;-;-;-;-;-;-;-;-;-;-;-;-;-
1514100974591;-;-;4.715866;-0.625885;-4.811661;-;-;-;-;-;-;-;-;-;-;-;-;-;-;-
1514100974611;-;-;3.4469452;1.0033569;-4.2526093;-;-;-;-;-;-;-;-;-;-;-;-;-;-;-
1514100974631;-;-;2.3300476;3.6429749;-4.227478;-;-;-;-;-;-;-;-;-;-;-;-;-;-;-
1514100974652;-;-;3.7988892;4.5503693;-3.6839905;-;-;-;-;-;-;-;-;-;-;-;-;-;-;-
1514100974672;-;-;6.5641937;3.52565;-3.496048;-;-;-;-;-;-;-;-;-;-;-;-;-;-;-
1514100974692;-;-;9.582092;1.7395782;-3.666031;-;-;-;-;-;-;-;-;-;-;-;-;-;-;-
1514100974713;-;-;9.525818;0.57240295;-4.1460724;-;-;-;-;-;-;-;-;-;-;-;-;-;-;-
1514100974732;-;-;8.916504;0.30545044;-4.2334595;-;-;-;-;-;-;-;-;-;-;-;-;-;-;-
1514100974752;-;-;8.614822;0.6454315;-3.140503;-;-;-;-;-;-;-;-;-;-;-;-;-;-;-
1514100974773;-;-;8.373016;0.7232361;-2.2534637;-;-;-;-;-;-;-;-;-;-;-;-;-;-;-
1514100974793;-;-;8.351471;0.3282013;-1.4992828;-;-;-;-;-;-;-;-;-;-;-;-;-;-;-
1514100974813;-;-;8.64476;0.8022461;-1.6357574;-;-;-;-;-;-;-;-;-;-;-;-;-;-;-
1514100974833;-;-;9.680252;1.9849854;-2.389923;-;-;-;-;-;-;-;-;-;-;-;-;-;-;-
1514100974856;-;-;11.1167755;2.3010254;-3.0399475;-;-;-;-;-;-;-;-;-;-;-;-;-;-;-
1514100974874;-;-;12.161835;2.086731;-3.0124207;-;-;-;-;-;-;-;-;-;-;-;-;-;-;-
1514100974895;-;-;11.68779;2.0448456;-6.875458;-;-;-;-;-;-;-;-;-;-;-;-;-;-;-
1514100974915;-;-;11.270004;4.8245087;-7.286072;-;-;-;-;-;-;-;-;-;-;-;-;-;-;-
1514100974936;-;-;11.220917;6.932602;-3.8288422;-;-;-;-;-;-;-;-;-;-;-;-;-;-;-
1514100974956;-;-;10.321899;6.663254;-3.8132782;-;-;-;-;-;-;-;-;-;-;-;-;-;-;-
1514100974976;-;-;5.5382843;4.2858124;-7.8618774;-;-;-;-;-;-;-;-;-;-;-;-;-;-;-
1514100974997;-;-;3.782135;0.4012146;-9.254105;-;-;-;-;-;-;-;-;-;-;-;-;-;-;-
1514100975017;-;-;5.735794;-2.8381348;-6.09375;-;-;-;-;-;-;-;-;-;-;-;-;-;-;-
1514100975037;-;-;8.462799;-3.1984558;-2.7849731;-;-;-;-;-;-;-;-;-;-;-;-;-;-;-
1514100975058;-;-;10.046555;-2.988968;-3.606186;-;-;-;-;-;-;-;-;-;-;-;-;-;-;-
1514100975078;-;-;10.432022;-1.3848572;-5.7944794;-;-;-;-;-;-;-;-;-;-;-;-;-;-;-
1514100975098;-;-;8.984726;-0.12789917;-5.5347137;-;-;-;-;-;-;-;-;-;-;-;-;-;-;-
1514100975118;-;-;7.051407;0.0756073;-4.268173;-;-;-;-;-;-;-;-;-;-;-;-;-;-;-
1514100975138;-;-;4.568619;0.11631775;-4.226288;-;-;-;-;-;-;-;-;-;-;-;-;-;-;-
1514100975159;-;-;2.6700287;0.1510315;-4.1975555;-;-;-;-;-;-;-;-;-;-;-;-;-;-;-
1514100975179;-;-;2.782547;-0.2715454;-3.2279053;-;-;-;-;-;-;-;-;-;-;-;-;-;-;-
1514100975199;-;-;4.80925;-1.2064819;-2.8843231;-;-;-;-;-;-;-;-;-;-;-;-;-;-;-
1514100975220;-;-;7.0190887;-1.2220459;-4.3663483;-;-;-;-;-;-;-;-;-;-;-;-;-;-;-
1514100975240;-;-;6.3930054;-0.8581238;-4.2334595;-;-;-;-;-;-;-;-;-;-;-;-;-;-;-
1514100975261;-;-;5.3850555;-0.91200256;-3.4900665;-;-;-;-;-;-;-;-;-;-;-;-;-;-;-
1514100975281;-;-;4.7362213;-1.6470184;-2.3947144;-;-;-;-;-;-;-;-;-;-;-;-;-;-;-
1514100975301;-;-;5.5035553;-2.755539;-2.1110077;-;-;-;-;-;-;-;-;-;-;-;-;-;-;-
1514100975321;-;-;6.60968;-3.0979004;-2.0188293;-;-;-;-;-;-;-;-;-;-;-;-;-;-;-
1514100975342;-;-;7.778061;-2.3006287;-1.6632843;-;-;-;-;-;-;-;-;-;-;-;-;-;-;-
1514100975363;-;-;8.892548;-0.9503021;-1.6992035;-;-;-;-;-;-;-;-;-;-;-;-;-;-;-
1514100975382;-;-;9.373795;-0.08480835;-1.7351074;-;-;-;-;-;-;-;-;-;-;-;-;-;-;-
1514100975402;-;-;9.640747;-0.6582184;-1.0096741;-;-;-;-;-;-;-;-;-;-;-;-;-;-;-
1514100975422;-;-;9.965164;-1.2316284;-0.88038635;-;-;-;-;-;-;-;-;-;-;-;-;-;-;-
1514100975443;-;-;10.907272;-0.5923767;-1.1533203;-;-;-;-;-;-;-;-;-;-;-;-;-;-;-
1514100975463;-;-;9.768829;0.07321167;-2.100235;-;-;-;-;-;-;-;-;-;-;-;-;-;-;-
1514100975483;-;-;7.9157257;-2.1809235;-2.4390106;-;-;-;-;-;-;-;-;-;-;-;-;-;-;-
1514100975503;-;-;7.1208496;-3.9083405;-1.1904297;-;-;-;-;-;-;-;-;-;-;-;-;-;-;-
1514100975524;-;-;8.847061;-2.416748;-5.5526733;-;-;-;-;-;-;-;-;-;-;-;-;-;-;-
1514100975545;-;-;11.412445;0.34854126;-11.796753;-;-;-;-;-;-;-;-;-;-;-;-;-;-;-
1514100975565;-;-;14.884048;1.8616791;-10.788788;-;-;-;-;-;-;-;-;-;-;-;-;-;-;-
1514100975585;-;-;13.779114;4.089493;-6.7353973;-;-;-;-;-;-;-;-;-;-;-;-;-;-;-
1514100975605;-;-;7.743332;6.111389;-6.7593384;-;-;-;-;-;-;-;-;-;-;-;-;-;-;-
1514100975626;-;-;6.0338745;4.190048;-6.382263;-;-;-;-;-;-;-;-;-;-;-;-;-;-;-
1514100975646;-;-;6.126053;0.56521606;-5.9836273;-;-;-;-;-;-;-;-;-;-;-;-;-;-;-
1514100975667;-;-;7.174713;-1.6051178;-5.5658417;-;-;-;-;-;-;-;-;-;-;-;-;-;-;-
1514100975686;-;-;7.5242615;-1.4734344;-4.2873383;-;-;-;-;-;-;-;-;-;-;-;-;-;-;-
1514100975707;-;-;6.983185;0.22525024;-3.8898926;-;-;-;-;-;-;-;-;-;-;-;-;-;-;-
1514100975728;-;-;6.6815033;2.1418;-3.8420105;-;-;-;-;-;-;-;-;-;-;-;-;-;-;-
1514100975748;-;-;6.7569275;1.9203491;-3.5798492;-;-;-;-;-;-;-;-;-;-;-;-;-;-;-
1514100975768;-;-;7.1878815;0.793869;-3.0327759;-;-;-;-;-;-;-;-;-;-;-;-;-;-;-
1514100975788;-;-;7.02507;0.24440002;-2.39711;-;-;-;-;-;-;-;-;-;-;-;-;-;-;-
1514100975809;-;-;6.0973206;0.23960876;-1.9254456;-;-;-;-;-;-;-;-;-;-;-;-;-;-;-
1514100975828;-;-;6.1212616;0.67774963;-1.6992035;-;-;-;-;-;-;-;-;-;-;-;-;-;-;-
1514100975848;-;-;6.94487;1.2080688;-1.6656799;-;-;-;-;-;-;-;-;-;-;-;-;-;-;-
1514100975869;-;-;7.6966553;1.3421478;-1.0539703;-;-;-;-;-;-;-;-;-;-;-;-;-;-;-
1514100975889;-;-;8.428085;0.6071167;-0.25430298;-;-;-;-;-;-;-;-;-;-;-;-;-;-;-
1514100975909;-;-;9.324707;-0.2392273;-0.8612366;-;-;-;-;-;-;-;-;-;-;-;-;-;-;-
1514100975930;-;-;9.322311;-1.0329132;-1.3939362;-;-;-;-;-;-;-;-;-;-;-;-;-;-;-
1514100975950;-;-;10.8965;-2.2922516;-0.2111969;-;-;-;-;-;-;-;-;-;-;-;-;-;-;-
1514100975970;-;-;11.760803;-2.7651062;-1.1030426;-;-;-;-;-;-;-;-;-;-;-;-;-;-;-
1514100975991;-;-;10.71814;0.3317871;-4.7829285;-;-;-;-;-;-;-;-;-;-;-;-;-;-;-
1514100976012;-;-;8.320343;5.5679016;-8.42691;-;-;-;-;-;-;-;-;-;-;-;-;-;-;-
1514100976032;-;-;6.8371277;8.50798;-9.600067;-;-;-;-;-;-;-;-;-;-;-;-;-;-;-
1514100976052;-;-;6.594116;5.287781;-6.7437897;-;-;-;-;-;-;-;-;-;-;-;-;-;-;-
1514100976072;-;-;8.46759;-1.091568;-6.6851196;-;-;-;-;-;-;-;-;-;-;-;-;-;-;-
1514100976093;-;-;11.110779;-5.2443085;-8.750122;-;-;-;-;-;-;-;-;-;-;-;-;-;-;-
1514100976113;-;-;10.953964;-2.2922516;-7.2729034;-;-;-;-;-;-;-;-;-;-;-;-;-;-;-
1514100976133;-;-;10.059723;1.7599335;-5.9680634;-;-;-;-;-;-;-;-;-;-;-;-;-;-;-
1514100976153;-;-;10.1171875;1.8473206;-4.2729645;-;-;-;-;-;-;-;-;-;-;-;-;-;-;-
1514100976173;-;-;10.816299;0.0061798096;-5.037918;-;-;-;-;-;-;-;-;-;-;-;-;-;-;-
1514100976193;-;-;9.15831;-1.0724182;-5.385071;-;-;-;-;-;-;-;-;-;-;-;-;-;-;-
1514100976214;-;-;6.656372;-1.4291534;-4.459717;-;-;-;-;-;-;-;-;-;-;-;-;-;-;-
1514100976234;-;-;4.9660645;-1.9690399;-3.4421844;-;-;-;-;-;-;-;-;-;-;-;-;-;-;-
1514100976254;-;-;3.4768677;-2.0851593;-3.2027588;-;-;-;-;-;-;-;-;-;-;-;-;-;-;-
1514100976275;-;-;3.5510864;-1.3393707;-3.630127;-;-;-;-;-;-;-;-;-;-;-;-;-;-;-
1514100976294;-;-;5.3263855;-0.8210144;-3.2255096;-;-;-;-;-;-;-;-;-;-;-;-;-;-;-
1514100976314;-;-;8.1479645;-0.8593292;-3.6732178;-;-;-;-;-;-;-;-;-;-;-;-;-;-;-
1514100976334;-;-;8.876999;-1.2819061;-3.112976;-;-;-;-;-;-;-;-;-;-;-;-;-;-;-
1514100976355;-;-;8.164719;-1.570404;-3.0243835;-;-;-;-;-;-;-;-;-;-;-;-;-;-;-
1514100976375;-;-;7.2261963;-1.4099884;-2.562317;-;-;-;-;-;-;-;-;-;-;-;-;-;-;-
1514100976395;-;-;6.5737762;-1.3357697;-1.8500366;-;-;-;-;-;-;-;-;-;-;-;-;-;-;-
1514100976416;-;-;7.5865173;-1.5344849;-0.6768799;-;-;-;-;-;-;-;-;-;-;-;-;-;-;-
1514100976436;-;-;8.662704;-2.6992645;-3.5104065;-;-;-;-;-;-;-;-;-;-;-;-;-;-;-
1514100976456;-;-;9.979523;-4.6170197;-5.879471;-;-;-;-;-;-;-;-;-;-;-;-;-;-;-
1514100976476;-;-;9.330688;-4.664917;-3.2207184;-;-;-;-;-;-;-;-;-;-;-;-;-;-;-
1514100976497;-;-;9.692215;-2.5316772;-8.501129;-;-;-;-;-;-;-;-;-;-;-;-;-;-;-
1514100976517;-;-;11.643494;2.87323;-13.592392;-;-;-;-;-;-;-;-;-;-;-;-;-;-;-
1514100976537;-;-;13.126694;7.2833557;-7.6128845;-;-;-;-;-;-;-;-;-;-;-;-;-;-;-
1514100976558;-;-;11.320282;5.7019806;-2.5718842;-;-;-;-;-;-;-;-;-;-;-;-;-;-;-
1514100976577;-;-;9.603638;1.5923309;-5.3755035;-;-;-;-;-;-;-;-;-;-;-;-;-;-;-
1514100976597;-;-;8.924881;-1.5955505;-7.08136;-;-;-;-;-;-;-;-;-;-;-;-;-;-;-
1514100976617;-;-;9.499481;-3.1110687;-4.9565125;-;-;-;-;-;-;-;-;-;-;-;-;-;-;-
1514100976638;-;-;10.163879;-2.8489075;-2.8663788;-;-;-;-;-;-;-;-;-;-;-;-;-;-;-
1514100976657;-;-;10.131561;-0.7982788;-2.9920654;-;-;-;-;-;-;-;-;-;-;-;-;-;-;-
1514100976677;-;-;8.495117;1.3804474;-3.0112305;-;-;-;-;-;-;-;-;-;-;-;-;-;-;-
1514100976698;-;-;6.7617188;2.4650269;-1.9194641;-;-;-;-;-;-;-;-;-;-;-;-;-;-;-
1514100976718;-;-;5.5203247;2.749939;-1.4202728;-;-;-;-;-;-;-;-;-;-;-;-;-;-;-
1514100976738;-;-;5.3802643;1.4702301;-1.4621735;-;-;-;-;-;-;-;-;-;-;-;-;-;-;-
1514100976758;-;-;5.5789795;-0.20930481;-1.3975372;-;-;-;-;-;-;-;-;-;-;-;-;-;-;-
1514100976779;-;-;5.6101074;-0.7312317;-1.571106;-;-;-;-;-;-;-;-;-;-;-;-;-;-;-
1514100976799;-;-;5.8555145;-0.82221985;-1.7159576;-;-;-;-;-;-;-;-;-;-;-;-;-;-;-
1514100976820;-;-;6.240982;-0.085998535;-1.1760712;-;-;-;-;-;-;-;-;-;-;-;-;-;-;-
1514100976840;-;-;6.2816772;1.4163666;-0.41471863;-;-;-;-;-;-;-;-;-;-;-;-;-;-;-
1514100976860;-;-;7.700241;3.4981232;-0.10586548;-;-;-;-;-;-;-;-;-;-;-;-;-;-;-
1514100976881;-;-;10.052551;5.5080566;-1.7830048;-;-;-;-;-;-;-;-;-;-;-;-;-;-;-
1514100976901;-;-;13.680954;6.790146;-3.1931763;-;-;-;-;-;-;-;-;-;-;-;-;-;-;-
1514100976921;-;-;15.638214;6.23349;-2.5611115;-;-;-;-;-;-;-;-;-;-;-;-;-;-;-
1514100976941;-;-;15.476608;3.204834;-1.1329651;-;-;-;-;-;-;-;-;-;-;-;-;-;-;-
1514100976964;-;-;13.5564575;0.5161438;-7.1986847;-;-;-;-;-;-;-;-;-;-;-;-;-;-;-
1514100976984;-;-;12.663422;2.5572052;-6.9855957;-;-;-;-;-;-;-;-;-;-;-;-;-;-;-
1514100977004;-;-;8.595673;4.1242065;-4.843979;-;-;-;-;-;-;-;-;-;-;-;-;-;-;-
1514100977024;-;-;5.5203247;4.49411;-6.9616547;-;-;-;-;-;-;-;-;-;-;-;-;-;-;-
1514100977045;-;-;4.1915436;2.8265533;-8.689072;-;-;-;-;-;-;-;-;-;-;-;-;-;-;-
1514100977065;-;-;5.5406647;-0.94192505;-7.9253235;-;-;-;-;-;-;-;-;-;-;-;-;-;-;-
1514100977085;-;-;9.072113;-3.692871;-6.8814545;-;-;-;-;-;-;-;-;-;-;-;-;-;-;-
1514100977105;-;-;10.556519;-2.0755768;-5.219879;-;-;-;-;-;-;-;-;-;-;-;-;-;-;-
1514100977126;-;-;11.043747;0.50297546;-5.0762177;-;-;-;-;-;-;-;-;-;-;-;-;-;-;-
1514100977146;-;-;8.625595;1.7599335;-3.9629211;-;-;-;-;-;-;-;-;-;-;-;-;-;-;-
1514100977165;-;-;6.76651;1.501358;-3.6277313;-;-;-;-;-;-;-;-;-;-;-;-;-;-;-
1514100977185;-;-;4.817627;0.60113525;-2.6389313;-;-;-;-;-;-;-;-;-;-;-;-;-;-;-
1514100977205;-;-;2.5778503;-1.3776703;-1.6920166;-;-;-;-;-;-;-;-;-;-;-;-;-;-;-
1514100977226;-;-;0.9677429;-2.8860168;-1.5914612;-;-;-;-;-;-;-;-;-;-;-;-;-;-;-
1514100977246;-;-;1.2742004;-3.8568726;-1.1509247;-;-;-;-;-;-;-;-;-;-;-;-;-;-;-
1514100977266;-;-;4.0023956;-3.8029938;-1.2814178;-;-;-;-;-;-;-;-;-;-;-;-;-;-;-
1514100977286;-;-;7.4368744;-2.638214;-3.0878448;-;-;-;-;-;-;-;-;-;-;-;-;-;-;-
1514100977306;-;-;10.690598;-0.9036255;-3.6815948;-;-;-;-;-;-;-;-;-;-;-;-;-;-;-
1514100977326;-;-;10.805527;-0.8126373;-4.8104706;-;-;-;-;-;-;-;-;-;-;-;-;-;-;-
1514100977347;-;-;8.635178;-2.0528412;-5.432953;-;-;-;-;-;-;-;-;-;-;-;-;-;-;-
1514100977367;-;-;8.452026;-2.5556183;-4.0467224;-;-;-;-;-;-;-;-;-;-;-;-;-;-;-
1514100977387;-;-;10.777985;-2.293457;-3.0782623;-;-;-;-;-;-;-;-;-;-;-;-;-;-;-
1514100977407;-;-;11.359787;-3.266693;-3.919815;-;-;-;-;-;-;-;-;-;-;-;-;-;-;-
1514100977427;-;-;11.262817;-4.508087;-5.3647156;-;-;-;-;-;-;-;-;-;-;-;-;-;-;-
1514100977448;-;-;12.682571;-3.4929504;-5.151642;-;-;-;-;-;-;-;-;-;-;-;-;-;-;-
1514100977468;-;-;12.61554;-0.933548;-8.242554;-;-;-;-;-;-;-;-;-;-;-;-;-;-;-
1514100977488;-;-;12.421616;-0.6917267;-13.591202;-;-;-;-;-;-;-;-;-;-;-;-;-;-;-
1514100977508;-;-;14.509354;-4.1070557;-2.7346954;-;-;-;-;-;-;-;-;-;-;-;-;-;-;-
1514100977528;-;-;10.861786;-4.3871765;-5.5574493;-;-;-;-;-;-;-;-;-;-;-;-;-;-;-
1514100977549;-;-;6.8311462;-3.4965363;-9.765259;-;-;-;-;-;-;-;-;-;-;-;-;-;-;-
1514100977569;-;-;4.7015076;-1.3046417;-10.191437;-;-;-;-;-;-;-;-;-;-;-;-;-;-;-
1514100977589;-;-;5.5753937;2.0220947;-5.619705;-;-;-;-;-;-;-;-;-;-;-;-;-;-;-
1514100977609;-;-;6.3906097;1.5181122;-3.38591;-;-;-;-;-;-;-;-;-;-;-;-;-;-;-
1514100977630;-;-;5.370682;0.076812744;-2.7035675;-;-;-;-;-;-;-;-;-;-;-;-;-;-;-
1514100977650;-;-;5.015152;-0.660614;-1.7913818;-;-;-;-;-;-;-;-;-;-;-;-;-;-;-
1514100977670;-;-;4.5794067;-1.9857941;-2.7514496;-;-;-;-;-;-;-;-;-;-;-;-;-;-;-
1514100977691;-;-;3.8862762;-2.4993591;-3.3128967;-;-;-;-;-;-;-;-;-;-;-;-;-;-;-
1514100977711;-;-;3.4253998;-1.2974701;-3.5247803;-;-;-;-;-;-;-;-;-;-;-;-;-;-;-
1514100977731;-;-;2.8483887;1.0691986;-3.7163086;-;-;-;-;-;-;-;-;-;-;-;-;-;-;-
1514100977751;-;-;3.873108;3.007309;-3.6408997;-;-;-;-;-;-;-;-;-;-;-;-;-;-;-
1514100977772;-;-;6.2469635;4.090683;-3.7941284;-;-;-;-;-;-;-;-;-;-;-;-;-;-;-
1514100977792;-;-;8.278442;2.9785767;-4.172409;-;-;-;-;-;-;-;-;-;-;-;-;-;-;-
1514100977813;-;-;8.774048;1.2451782;-5.192337;-;-;-;-;-;-;-;-;-;-;-;-;-;-;-
1514100977833;-;-;9.123596;0.16419983;-5.1636047;-;-;-;-;-;-;-;-;-;-;-;-;-;-;-
1514100977853;-;-;9.6862335;0.7016907;-4.128113;-;-;-;-;-;-;-;-;-;-;-;-;-;-;-
1514100977873;-;-;10.315903;2.2591248;-3.4924622;-;-;-;-;-;-;-;-;-;-;-;-;-;-;-
1514100977894;-;-;11.03656;2.6098785;-2.840042;-;-;-;-;-;-;-;-;-;-;-;-;-;-;-
1514100977914;-;-;12.621521;1.6186676;-2.5192108;-;-;-;-;-;-;-;-;-;-;-;-;-;-;-
1514100977934;-;-;12.372528;1.3780518;-2.8292694;-;-;-;-;-;-;-;-;-;-;-;-;-;-;-
1514100977954;-;-;10.865372;1.0931396;-7.5530243;-;-;-;-;-;-;-;-;-;-;-;-;-;-;-
1514100977975;-;-;9.258865;1.5312805;-10.157913;-;-;-;-;-;-;-;-;-;-;-;-;-;-;-
1514100977995;-;-;7.901352;1.8509064;-7.5111237;-;-;-;-;-;-;-;-;-;-;-;-;-;-;-
1514100978015;-;-;9.228943;1.1362457;-5.8782806;-;-;-;-;-;-;-;-;-;-;-;-;-;-;-
1514100978036;-;-;7.3901978;0.14144897;-5.681961;-;-;-;-;-;-;-;-;-;-;-;-;-;-;-
1514100978057;-;-;6.3906097;0.010971069;-6.6444244;-;-;-;-;-;-;-;-;-;-;-;-;-;-;-
1514100978077;-;-;5.359909;-1.3477478;-5.033127;-;-;-;-;-;-;-;-;-;-;-;-;-;-;-
1514100978098;-;-;5.130066;-2.071991;-3.2937317;-;-;-;-;-;-;-;-;-;-;-;-;-;-;-
1514100978118;-;-;6.965225;-1.0484619;-2.9405975;-;-;-;-;-;-;-;-;-;-;-;-;-;-;-
1514100978138;-;-;7.032257;0.11152649;-3.741455;-;-;-;-;-;-;-;-;-;-;-;-;-;-;-
1514100978158;-;-;5.770523;0.014556885;-3.4984436;-;-;-;-;-;-;-;-;-;-;-;-;-;-;-
1514100978179;-;-;4.7841034;-0.98861694;-2.8687744;-;-;-;-;-;-;-;-;-;-;-;-;-;-;-
1514100978198;-;-;3.4469452;-2.5376587;-2.721527;-;-;-;-;-;-;-;-;-;-;-;-;-;-;-
1514100978218;-;-;2.8005066;-3.8664398;-2.938202;-;-;-;-;-;-;-;-;-;-;-;-;-;-;-
1514100978238;-;-;4.33519;-3.8137665;-2.4928741;-;-;-;-;-;-;-;-;-;-;-;-;-;-;-
1514100978259;-;-;7.264496;-2.558014;-2.7382813;-;-;-;-;-;-;-;-;-;-;-;-;-;-;-
1514100978278;-;-;9.756866;-0.8701019;-3.2841644;-;-;-;-;-;-;-;-;-;-;-;-;-;-;-
1514100978298;-;-;10.807922;-0.59477234;-4.571045;-;-;-;-;-;-;-;-;-;-;-;-;-;-;-
1514100978318;-;-;9.115219;-0.56962585;-4.9062347;-;-;-;-;-;-;-;-;-;-;-;-;-;-;-
1514100978339;-;-;9.2708435;-0.37091064;-3.7857513;-;-;-;-;-;-;-;-;-;-;-;-;-;-;-
1514100978359;-;-;9.295975;-1.7260284;-3.4673157;-;-;-;-;-;-;-;-;-;-;-;-;-;-;-
1514100978380;-;-;10.609192;-4.293808;-3.0938263;-;-;-;-;-;-;-;-;-;-;-;-;-;-;-
1514100978400;-;-;12.602371;-5.1724854;-2.7849731;-;-;-;-;-;-;-;-;-;-;-;-;-;-;-
1514100978421;-;-;14.702087;-2.7471619;-3.7342682;-;-;-;-;-;-;-;-;-;-;-;-;-;-;-
1514100978441;-;-;13.2799225;0.64183044;-8.626816;-;-;-;-;-;-;-;-;-;-;-;-;-;-;-
1514100978460;-;-;12.151062;-0.057266235;-13.308685;-;-;-;-;-;-;-;-;-;-;-;-;-;-;-
1514100978480;-;-;11.343018;-3.9191132;-0.92108154;-;-;-;-;-;-;-;-;-;-;-;-;-;-;-
1514100978501;-;-;7.945648;-4.503296;-3.1309357;-;-;-;-;-;-;-;-;-;-;-;-;-;-;-
1514100978520;-;-;6.3810425;-4.1022797;-9.202621;-;-;-;-;-;-;-;-;-;-;-;-;-;-;-
1514100978541;-;-;5.241394;-1.9786224;-9.714981;-;-;-;-;-;-;-;-;-;-;-;-;-;-;-
1514100978561;-;-;6.2984314;0.7842865;-7.507538;-;-;-;-;-;-;-;-;-;-;-;-;-;-;-
1514100978581;-;-;7.051407;1.6940918;-4.6404724;-;-;-;-;-;-;-;-;-;-;-;-;-;-;-
1514100978602;-;-;5.5035553;1.616272;-3.089035;-;-;-;-;-;-;-;-;-;-;-;-;-;-;-
1514100978622;-;-;5.486801;0.7028961;-2.3767548;-;-;-;-;-;-;-;-;-;-;-;-;-;-;-
1514100978642;-;-;6.747345;-1.388443;-1.9697418;-;-;-;-;-;-;-;-;-;-;-;-;-;-;-
1514100978662;-;-;6.8634644;-3.3097992;-3.9174347;-;-;-;-;-;-;-;-;-;-;-;-;-;-;-
1514100978682;-;-;4.8116302;-2.6047058;-4.301697;-;-;-;-;-;-;-;-;-;-;-;-;-;-;-
1514100978703;-;-;2.252243;-0.057266235;-3.3751373;-;-;-;-;-;-;-;-;-;-;-;-;-;-;-
