TimeStamp[ms];Prox[Cm];Lux[lux];AccX[m/s^2];AccY[m/s^2];AccZ[m/s^2];GyroX[rad/s];GyroY[rad/s];GyroZ[rad/s];MagnX[uT];MagnY[uT];MagnZ[uT];OrienYaw[degrees];OrienPitch[degrees];OrienRoll[degrees];Press[Pa];Temp[C°];Batt[%];Lat;Lng;Speed[m/s]
1514101003911;-;-;9.267242;-0.6474457;-0.35125732;-;-;-;-;-;-;-;-;-;-;-;-;-;-;-
1514101003912;-;-;9.146347;-0.6797638;-0.27824402;-;-;-;-;-;-;-;-;-;-;-;-;-;-;-
1514101003932;-;-;8.766861;-0.77433777;-0.0053100586;-;-;-;-;-;-;-;-;-;-;-;-;-;-;-
1514101003953;-;-;9.33548;-0.51216125;-0.20521545;-;-;-;-;-;-;-;-;-;-;-;-;-;-;-
1514101003973;-;-;9.2756195;-0.6438446;-0.22796631;-;-;-;-;-;-;-;-;-;-;-;-;-;-;-
1514101003993;-;-;9.261261;-0.37210083;-0.5428009;-;-;-;-;-;-;-;-;-;-;-;-;-;-;-
1514101004014;-;-;8.793198;-0.3876648;-0.709198;-;-;-;-;-;-;-;-;-;-;-;-;-;-;-
1514101004034;-;-;9.136765;-0.31344604;-0.7451172;-;-;-;-;-;-;-;-;-;-;-;-;-;-;-
1514101004054;-;-;9.048172;-0.08241272;-0.6768799;-;-;-;-;-;-;-;-;-;-;-;-;-;-;-
1514101004075;-;-;9.3103485;0.026535034;-0.669693;-;-;-;-;-;-;-;-;-;-;-;-;-;-;-
1514101004095;-;-;8.673492;-0.035720825;-0.7403259;-;-;-;-;-;-;-;-;-;-;-;-;-;-;-
1514101004115;-;-;9.09845;0.5855713;0.05215454;-;-;-;-;-;-;-;-;-;-;-;-;-;-;-
1514101004135;-;-;8.722565;1.1075134;0.12637329;-;-;-;-;-;-;-;-;-;-;-;-;-;-;-
1514101004163;-;-;8.150345;0.2515869;-5.681961;-;-;-;-;-;-;-;-;-;-;-;-;-;-;-
1514101004176;-;-;6.857483;-0.36013794;-2.8544006;-;-;-;-;-;-;-;-;-;-;-;-;-;-;-
1514101004196;-;-;10.574478;0.5257263;0.16229248;-;-;-;-;-;-;-;-;-;-;-;-;-;-;-
1514101004216;-;-;12.172607;1.0548401;-0.071136475;-;-;-;-;-;-;-;-;-;-;-;-;-;-;-
1514101004237;-;-;10.04895;1.1721497;-0.67448425;-;-;-;-;-;-;-;-;-;-;-;-;-;-;-
1514101004257;-;-;8.970367;1.6533813;-1.1257935;-;-;-;-;-;-;-;-;-;-;-;-;-;-;-
1514101004277;-;-;9.115219;1.2475739;0.08088684;-;-;-;-;-;-;-;-;-;-;-;-;-;-;-
1514101004298;-;-;8.095291;1.2308044;-0.78222656;-;-;-;-;-;-;-;-;-;-;-;-;-;-;-
1514101004318;-;-;8.124023;0.9602661;-0.16331482;-;-;-;-;-;-;-;-;-;-;-;-;-;-;-
1514101004337;-;-;8.224579;0.7579498;-0.36442566;-;-;-;-;-;-;-;-;-;-;-;-;-;-;-
1514101004358;-;-;8.4292755;0.541275;-0.44104004;-;-;-;-;-;-;-;-;-;-;-;-;-;-;-
1514101004378;-;-;8.599258;0.6107178;-0.5212555;-;-;-;-;-;-;-;-;-;-;-;-;-;-;-
1514101004398;-;-;8.759674;0.82618713;-0.6014557;-;-;-;-;-;-;-;-;-;-;-;-;-;-;-
1514101004418;-;-;9.165497;1.0009613;-0.46499634;-;-;-;-;-;-;-;-;-;-;-;-;-;-;-
1514101004439;-;-;9.328293;0.68852234;-0.4063263;-;-;-;-;-;-;-;-;-;-;-;-;-;-;-
1514101004459;-;-;9.659897;-0.033325195;-0.2758484;-;-;-;-;-;-;-;-;-;-;-;-;-;-;-
1514101004479;-;-;9.726929;-0.62828064;-0.09030151;-;-;-;-;-;-;-;-;-;-;-;-;-;-;-
1514101004500;-;-;9.592865;-0.59954834;0.14672852;-;-;-;-;-;-;-;-;-;-;-;-;-;-;-
1514101004520;-;-;9.129578;1.0428619;-2.3863373;-;-;-;-;-;-;-;-;-;-;-;-;-;-;-
1514101004540;-;-;8.575317;3.0911102;-4.753006;-;-;-;-;-;-;-;-;-;-;-;-;-;-;-
1514101004560;-;-;8.849457;4.1948395;-4.7973022;-;-;-;-;-;-;-;-;-;-;-;-;-;-;-
1514101004580;-;-;12.124725;4.568329;-0.90312195;-;-;-;-;-;-;-;-;-;-;-;-;-;-;-
1514101004600;-;-;12.02536;2.7236023;-3.3188782;-;-;-;-;-;-;-;-;-;-;-;-;-;-;-
1514101004620;-;-;8.96199;0.2420044;-5.4628906;-;-;-;-;-;-;-;-;-;-;-;-;-;-;-
1514101004641;-;-;7.8570557;-1.9271393;-5.227051;-;-;-;-;-;-;-;-;-;-;-;-;-;-;-
1514101004661;-;-;6.858673;-3.107483;-4.4321747;-;-;-;-;-;-;-;-;-;-;-;-;-;-;-
1514101004681;-;-;6.6934814;-2.0205078;-3.792923;-;-;-;-;-;-;-;-;-;-;-;-;-;-;-
1514101004702;-;-;7.541031;0.19770813;-4.6404724;-;-;-;-;-;-;-;-;-;-;-;-;-;-;-
1514101004722;-;-;9.352234;1.5300903;-5.065445;-;-;-;-;-;-;-;-;-;-;-;-;-;-;-
1514101004742;-;-;10.744476;1.3373566;-4.5662537;-;-;-;-;-;-;-;-;-;-;-;-;-;-;-
1514101004763;-;-;10.79715;-0.7551727;-4.0119934;-;-;-;-;-;-;-;-;-;-;-;-;-;-;-
1514101004783;-;-;10.376953;-2.613083;-3.425415;-;-;-;-;-;-;-;-;-;-;-;-;-;-;-
1514101004803;-;-;8.875793;-2.930313;-3.0531158;-;-;-;-;-;-;-;-;-;-;-;-;-;-;-
1514101004824;-;-;6.999939;-2.001358;-2.8891144;-;-;-;-;-;-;-;-;-;-;-;-;-;-;-
1514101004843;-;-;5.589752;-0.878479;-2.6664581;-;-;-;-;-;-;-;-;-;-;-;-;-;-;-
1514101004863;-;-;5.20549;-0.40203857;-2.6161804;-;-;-;-;-;-;-;-;-;-;-;-;-;-;-
1514101004884;-;-;6.403778;-0.636673;-3.033966;-;-;-;-;-;-;-;-;-;-;-;-;-;-;-
1514101004903;-;-;7.36026;-0.92277527;-3.0866394;-;-;-;-;-;-;-;-;-;-;-;-;-;-;-
1514101004923;-;-;7.384201;-1.0879669;-2.0918427;-;-;-;-;-;-;-;-;-;-;-;-;-;-;-
1514101004944;-;-;7.51828;-1.9043884;-1.4693604;-;-;-;-;-;-;-;-;-;-;-;-;-;-;-
1514101004964;-;-;8.174301;-2.7746887;-1.6884308;-;-;-;-;-;-;-;-;-;-;-;-;-;-;-
1514101004984;-;-;9.516251;-2.5831451;-1.784195;-;-;-;-;-;-;-;-;-;-;-;-;-;-;-
1514101005004;-;-;9.861008;-1.6482086;-1.4035187;-;-;-;-;-;-;-;-;-;-;-;-;-;-;-
1514101005025;-;-;9.487518;-1.2603607;-0.8097534;-;-;-;-;-;-;-;-;-;-;-;-;-;-;-
1514101005045;-;-;9.058945;-1.7966614;-1.1533203;-;-;-;-;-;-;-;-;-;-;-;-;-;-;-
1514101005065;-;-;9.364212;-2.4586487;-1.6441345;-;-;-;-;-;-;-;-;-;-;-;-;-;-;-
1514101005085;-;-;9.263657;-2.535263;-2.005661;-;-;-;-;-;-;-;-;-;-;-;-;-;-;-
1514101005106;-;-;8.520264;-2.8919983;-1.9374237;-;-;-;-;-;-;-;-;-;-;-;-;-;-;-
1514101005126;-;-;9.415695;-2.6346283;-1.1676941;-;-;-;-;-;-;-;-;-;-;-;-;-;-;-
1514101005146;-;-;10.513428;-1.2076874;-1.697998;-;-;-;-;-;-;-;-;-;-;-;-;-;-;-
1514101005166;-;-;10.315903;-0.32302856;-7.816391;-;-;-;-;-;-;-;-;-;-;-;-;-;-;-
1514101005186;-;-;9.128387;-0.27394104;-8.244949;-;-;-;-;-;-;-;-;-;-;-;-;-;-;-
1514101005206;-;-;8.612427;-1.1298676;-2.0475616;-;-;-;-;-;-;-;-;-;-;-;-;-;-;-
1514101005227;-;-;8.794388;-0.9191742;-4.499222;-;-;-;-;-;-;-;-;-;-;-;-;-;-;-
1514101005247;-;-;9.9831085;0.02772522;-6.48761;-;-;-;-;-;-;-;-;-;-;-;-;-;-;-
1514101005268;-;-;11.0425415;-0.22845459;-5.5706177;-;-;-;-;-;-;-;-;-;-;-;-;-;-;-
1514101005288;-;-;12.702927;-1.7344055;-5.899826;-;-;-;-;-;-;-;-;-;-;-;-;-;-;-
1514101005308;-;-;13.7444;-2.6442108;-4.871521;-;-;-;-;-;-;-;-;-;-;-;-;-;-;-
1514101005328;-;-;12.728073;-0.75398254;-5.10495;-;-;-;-;-;-;-;-;-;-;-;-;-;-;-
1514101005349;-;-;10.002274;2.3932037;-3.7378693;-;-;-;-;-;-;-;-;-;-;-;-;-;-;-
1514101005369;-;-;7.214218;3.9470367;-2.8544006;-;-;-;-;-;-;-;-;-;-;-;-;-;-;-
1514101005389;-;-;4.5985565;3.5747375;-1.9290466;-;-;-;-;-;-;-;-;-;-;-;-;-;-;-
1514101005410;-;-;3.375122;1.7276154;-1.5375977;-;-;-;-;-;-;-;-;-;-;-;-;-;-;-
1514101005430;-;-;3.450531;-0.13748169;-1.2514801;-;-;-;-;-;-;-;-;-;-;-;-;-;-;-
1514101005450;-;-;4.9780273;-1.1298676;-0.65652466;-;-;-;-;-;-;-;-;-;-;-;-;-;-;-
1514101005471;-;-;8.685455;-1.3106384;-0.11903381;-;-;-;-;-;-;-;-;-;-;-;-;-;-;-
1514101005491;-;-;8.880585;-0.5923767;-1.3568268;-;-;-;-;-;-;-;-;-;-;-;-;-;-;-
1514101005511;-;-;7.4368744;0.7340088;-1.4095001;-;-;-;-;-;-;-;-;-;-;-;-;-;-;-
1514101005532;-;-;7.414139;1.1661682;-0.23036194;-;-;-;-;-;-;-;-;-;-;-;-;-;-;-
1514101005552;-;-;8.163513;1.7575378;0.2700348;-;-;-;-;-;-;-;-;-;-;-;-;-;-;-
1514101005572;-;-;8.806366;2.363266;0.21496582;-;-;-;-;-;-;-;-;-;-;-;-;-;-;-
1514101005593;-;-;9.550964;2.232788;-0.49491882;-;-;-;-;-;-;-;-;-;-;-;-;-;-;-
1514101005612;-;-;9.937622;2.481781;0.03540039;-;-;-;-;-;-;-;-;-;-;-;-;-;-;-
1514101005633;-;-;11.741653;2.998932;0.3538208;-;-;-;-;-;-;-;-;-;-;-;-;-;-;-
1514101005653;-;-;13.860519;3.3305206;-0.040023804;-;-;-;-;-;-;-;-;-;-;-;-;-;-;-
1514101005673;-;-;13.157822;4.0021057;-5.2019196;-;-;-;-;-;-;-;-;-;-;-;-;-;-;-
1514101005694;-;-;13.82222;5.079483;-3.1967773;-;-;-;-;-;-;-;-;-;-;-;-;-;-;-
1514101005714;-;-;12.263596;4.868805;-3.4589386;-;-;-;-;-;-;-;-;-;-;-;-;-;-;-
1514101005734;-;-;10.725311;1.9646301;-5.0127716;-;-;-;-;-;-;-;-;-;-;-;-;-;-;-
1514101005755;-;-;7.414139;0.8788605;-5.8339844;-;-;-;-;-;-;-;-;-;-;-;-;-;-;-
1514101005775;-;-;6.084152;-0.39964294;-6.3762665;-;-;-;-;-;-;-;-;-;-;-;-;-;-;-
1514101005795;-;-;7.3973694;-2.5364685;-6.868286;-;-;-;-;-;-;-;-;-;-;-;-;-;-;-
1514101005815;-;-;9.408508;-2.5412598;-5.397049;-;-;-;-;-;-;-;-;-;-;-;-;-;-;-
1514101005836;-;-;11.7500305;0.036102295;-4.9086304;-;-;-;-;-;-;-;-;-;-;-;-;-;-;-
1514101005856;-;-;11.5525055;0.95428467;-4.210724;-;-;-;-;-;-;-;-;-;-;-;-;-;-;-
1514101005876;-;-;9.55336;0.6837311;-5.188751;-;-;-;-;-;-;-;-;-;-;-;-;-;-;-
1514101005897;-;-;7.569763;0.17376709;-4.076645;-;-;-;-;-;-;-;-;-;-;-;-;-;-;-
1514101005916;-;-;5.3802643;-0.86172485;-2.9262238;-;-;-;-;-;-;-;-;-;-;-;-;-;-;-
1514101005936;-;-;3.8671265;-2.4311218;-2.231903;-;-;-;-;-;-;-;-;-;-;-;-;-;-;-
1514101005957;-;-;3.2039337;-3.6042786;-1.871582;-;-;-;-;-;-;-;-;-;-;-;-;-;-;-
1514101005977;-;-;3.4457397;-4.0232697;-1.8763733;-;-;-;-;-;-;-;-;-;-;-;-;-;-;-
1514101005997;-;-;4.4967957;-3.4426727;-2.7442627;-;-;-;-;-;-;-;-;-;-;-;-;-;-;-
1514101006018;-;-;6.13443;-2.1653595;-3.135727;-;-;-;-;-;-;-;-;-;-;-;-;-;-;-
1514101006038;-;-;7.166336;-0.36253357;-2.8388367;-;-;-;-;-;-;-;-;-;-;-;-;-;-;-
1514101006058;-;-;6.9496613;0.44432068;-2.6724396;-;-;-;-;-;-;-;-;-;-;-;-;-;-;-
1514101006078;-;-;5.754959;-0.47146606;-3.1452942;-;-;-;-;-;-;-;-;-;-;-;-;-;-;-
1514101006099;-;-;6.4325104;-2.4861908;-3.4541473;-;-;-;-;-;-;-;-;-;-;-;-;-;-;-
1514101006119;-;-;9.046982;-4.2602844;-3.3823242;-;-;-;-;-;-;-;-;-;-;-;-;-;-;-
1514101006139;-;-;12.661026;-4.237549;-2.852005;-;-;-;-;-;-;-;-;-;-;-;-;-;-;-
1514101006159;-;-;14.146637;-3.4486542;-2.9669342;-;-;-;-;-;-;-;-;-;-;-;-;-;-;-
1514101006180;-;-;13.3302;-3.7934265;-3.583435;-;-;-;-;-;-;-;-;-;-;-;-;-;-;-
1514101006200;-;-;12.785522;-4.166916;-3.6684265;-;-;-;-;-;-;-;-;-;-;-;-;-;-;-
1514101006220;-;-;12.732849;-3.2834625;-3.2506409;-;-;-;-;-;-;-;-;-;-;-;-;-;-;-
1514101006240;-;-;11.447174;-3.7515259;-12.876526;-;-;-;-;-;-;-;-;-;-;-;-;-;-;-
1514101006261;-;-;10.992264;-4.910309;-11.416061;-;-;-;-;-;-;-;-;-;-;-;-;-;-;-
1514101006281;-;-;10.044159;-3.266693;-3.449356;-;-;-;-;-;-;-;-;-;-;-;-;-;-;-
1514101006301;-;-;6.4492645;-0.10395813;-7.3016357;-;-;-;-;-;-;-;-;-;-;-;-;-;-;-
1514101006321;-;-;5.152817;0.73760986;-8.971588;-;-;-;-;-;-;-;-;-;-;-;-;-;-;-
1514101006341;-;-;6.8371277;0.27671814;-5.7238464;-;-;-;-;-;-;-;-;-;-;-;-;-;-;-
1514101006362;-;-;7.145981;-0.46788025;-4.5459137;-;-;-;-;-;-;-;-;-;-;-;-;-;-;-
1514101006382;-;-;6.1799316;-1.0975494;-2.4019012;-;-;-;-;-;-;-;-;-;-;-;-;-;-;-
1514101006402;-;-;3.758194;-0.96707153;-1.8069458;-;-;-;-;-;-;-;-;-;-;-;-;-;-;-
1514101006422;-;-;2.9992218;-0.97784424;-1.9853058;-;-;-;-;-;-;-;-;-;-;-;-;-;-;-
1514101006443;-;-;3.3966675;-0.44992065;-2.444992;-;-;-;-;-;-;-;-;-;-;-;-;-;-;-
1514101006463;-;-;4.284912;0.74957275;-3.0626984;-;-;-;-;-;-;-;-;-;-;-;-;-;-;-
1514101006483;-;-;4.8367767;2.0280762;-3.4625244;-;-;-;-;-;-;-;-;-;-;-;-;-;-;-
1514101006504;-;-;5.2473755;2.8660583;-3.9473572;-;-;-;-;-;-;-;-;-;-;-;-;-;-;-
1514101006523;-;-;6.2900543;2.6804962;-4.164032;-;-;-;-;-;-;-;-;-;-;-;-;-;-;-
1514101006544;-;-;8.15155;0.9937897;-4.721878;-;-;-;-;-;-;-;-;-;-;-;-;-;-;-
1514101006564;-;-;9.480331;0.20729065;-4.468094;-;-;-;-;-;-;-;-;-;-;-;-;-;-;-
1514101006584;-;-;10.421249;0.80584717;-3.2757874;-;-;-;-;-;-;-;-;-;-;-;-;-;-;-
1514101006604;-;-;10.963547;1.6067047;-1.8248901;-;-;-;-;-;-;-;-;-;-;-;-;-;-;-
1514101006625;-;-;10.991074;2.998932;-1.7111664;-;-;-;-;-;-;-;-;-;-;-;-;-;-;-
1514101006645;-;-;11.620743;4.043991;-1.8500366;-;-;-;-;-;-;-;-;-;-;-;-;-;-;-
1514101006665;-;-;11.004242;3.5280457;-1.0144653;-;-;-;-;-;-;-;-;-;-;-;-;-;-;-
1514101006685;-;-;9.985504;2.1717377;-1.140152;-;-;-;-;-;-;-;-;-;-;-;-;-;-;-
1514101006706;-;-;9.365402;0.60113525;-10.542191;-;-;-;-;-;-;-;-;-;-;-;-;-;-;-
1514101006726;-;-;11.781158;0.84654236;-7.417755;-;-;-;-;-;-;-;-;-;-;-;-;-;-;-
1514101006746;-;-;14.011353;2.9618225;-8.587326;-;-;-;-;-;-;-;-;-;-;-;-;-;-;-
1514101006767;-;-;10.312317;1.4846039;-7.8115997;-;-;-;-;-;-;-;-;-;-;-;-;-;-;-
1514101006787;-;-;6.791641;1.9526672;-7.3997955;-;-;-;-;-;-;-;-;-;-;-;-;-;-;-
1514101006807;-;-;5.312027;-0.45111084;-7.093338;-;-;-;-;-;-;-;-;-;-;-;-;-;-;-
1514101006828;-;-;5.6735535;-3.1374054;-4.128113;-;-;-;-;-;-;-;-;-;-;-;-;-;-;-
1514101006848;-;-;5.9788055;-3.4965363;-2.8388367;-;-;-;-;-;-;-;-;-;-;-;-;-;-;-
1514101006868;-;-;6.727005;-1.4590759;-1.7267303;-;-;-;-;-;-;-;-;-;-;-;-;-;-;-
1514101006889;-;-;5.710663;-0.1410675;-2.0679016;-;-;-;-;-;-;-;-;-;-;-;-;-;-;-
1514101006908;-;-;4.093384;0.103149414;-2.4246368;-;-;-;-;-;-;-;-;-;-;-;-;-;-;-
1514101006928;-;-;1.8188782;-1.2807007;-1.7901764;-;-;-;-;-;-;-;-;-;-;-;-;-;-;-
1514101006948;-;-;1.3580017;-3.1015015;-1.9553833;-;-;-;-;-;-;-;-;-;-;-;-;-;-;-
1514101006969;-;-;1.6872101;-3.8772125;-2.9202423;-;-;-;-;-;-;-;-;-;-;-;-;-;-;-
1514101006989;-;-;3.6839752;-3.6725159;-4.0431213;-;-;-;-;-;-;-;-;-;-;-;-;-;-;-
1514101007009;-;-;6.9029694;-2.6884918;-5.5574493;-;-;-;-;-;-;-;-;-;-;-;-;-;-;-
1514101007029;-;-;8.975159;-1.0987396;-6.0123596;-;-;-;-;-;-;-;-;-;-;-;-;-;-;-
1514101007049;-;-;11.551315;0.6837311;-4.341202;-;-;-;-;-;-;-;-;-;-;-;-;-;-;-
1514101007070;-;-;11.131134;-0.19493103;-4.0036163;-;-;-;-;-;-;-;-;-;-;-;-;-;-;-
1514101007089;-;-;10.302734;-2.4442902;-3.70076;-;-;-;-;-;-;-;-;-;-;-;-;-;-;-
1514101007109;-;-;11.953537;-4.3824005;-0.16091919;-;-;-;-;-;-;-;-;-;-;-;-;-;-;-
1514101007130;-;-;12.244431;-6.313324;-0.37042236;-;-;-;-;-;-;-;-;-;-;-;-;-;-;-
1514101007150;-;-;14.187332;-6.1145935;-2.3276825;-;-;-;-;-;-;-;-;-;-;-;-;-;-;-
1514101007170;-;-;16.54921;-3.2523346;-3.3595734;-;-;-;-;-;-;-;-;-;-;-;-;-;-;-
1514101007191;-;-;13.746796;-0.9539032;-6.9796143;-;-;-;-;-;-;-;-;-;-;-;-;-;-;-
1514101007210;-;-;8.610046;-2.5723724;-14.01976;-;-;-;-;-;-;-;-;-;-;-;-;-;-;-
1514101007230;-;-;6.285263;-6.029602;-14.350159;-;-;-;-;-;-;-;-;-;-;-;-;-;-;-
1514101007251;-;-;9.559341;-5.6668854;-3.8611603;-;-;-;-;-;-;-;-;-;-;-;-;-;-;-
1514101007271;-;-;13.562439;-0.4487152;-2.2103577;-;-;-;-;-;-;-;-;-;-;-;-;-;-;-
1514101007291;-;-;8.942825;0.21087646;-9.9292755;-;-;-;-;-;-;-;-;-;-;-;-;-;-;-
1514101007312;-;-;5.414978;0.2013092;-6.0363007;-;-;-;-;-;-;-;-;-;-;-;-;-;-;-
1514101007332;-;-;3.82164;1.0344849;-1.1030426;-;-;-;-;-;-;-;-;-;-;-;-;-;-;-
1514101007352;-;-;1.1054077;0.4802246;-0.60983276;-;-;-;-;-;-;-;-;-;-;-;-;-;-;-
1514101007373;-;-;-0.47476196;-0.11831665;-1.8165131;-;-;-;-;-;-;-;-;-;-;-;-;-;-;-
1514101007393;-;-;0.051971436;-0.542099;-2.89151;-;-;-;-;-;-;-;-;-;-;-;-;-;-;-
1514101007413;-;-;3.1249237;-0.64624023;-3.575058;-;-;-;-;-;-;-;-;-;-;-;-;-;-;-
1514101007434;-;-;5.471237;0.31503296;-3.1189575;-;-;-;-;-;-;-;-;-;-;-;-;-;-;-
1514101007454;-;-;6.3020325;2.0879364;-3.54393;-;-;-;-;-;-;-;-;-;-;-;-;-;-;-
1514101007474;-;-;6.857483;3.2658844;-3.409851;-;-;-;-;-;-;-;-;-;-;-;-;-;-;-
1514101007495;-;-;8.219788;3.3221436;-3.2937317;-;-;-;-;-;-;-;-;-;-;-;-;-;-;-
1514101007515;-;-;9.196625;1.7695007;-5.3563385;-;-;-;-;-;-;-;-;-;-;-;-;-;-;-
1514101007535;-;-;10.151901;0.34854126;-6.4145813;-;-;-;-;-;-;-;-;-;-;-;-;-;-;-
1514101007556;-;-;11.424423;-0.20211792;-4.0790405;-;-;-;-;-;-;-;-;-;-;-;-;-;-;-
1514101007576;-;-;11.45195;0.48143005;-0.417099;-;-;-;-;-;-;-;-;-;-;-;-;-;-;-
1514101007596;-;-;10.191406;1.8461151;0.24369812;-;-;-;-;-;-;-;-;-;-;-;-;-;-;-
1514101007617;-;-;10.678635;2.770279;-0.5787201;-;-;-;-;-;-;-;-;-;-;-;-;-;-;-
1514101007637;-;-;11.716522;3.402359;-1.6716614;-;-;-;-;-;-;-;-;-;-;-;-;-;-;-
1514101007657;-;-;10.665466;2.7319794;-0.5727234;-;-;-;-;-;-;-;-;-;-;-;-;-;-;-
1514101007677;-;-;9.371399;0.8668976;-6.9927826;-;-;-;-;-;-;-;-;-;-;-;-;-;-;-
1514101007698;-;-;6.975998;1.9215393;-14.03772;-;-;-;-;-;-;-;-;-;-;-;-;-;-;-
1514101007718;-;-;8.450821;3.3879852;-9.49472;-;-;-;-;-;-;-;-;-;-;-;-;-;-;-
1514101007738;-;-;15.78067;2.268692;-5.2330475;-;-;-;-;-;-;-;-;-;-;-;-;-;-;-
1514101007759;-;-;9.063736;0.7112732;-8.443665;-;-;-;-;-;-;-;-;-;-;-;-;-;-;-
1514101007779;-;-;5.5406647;0.378479;-9.458801;-;-;-;-;-;-;-;-;-;-;-;-;-;-;-
1514101007799;-;-;3.6109467;-1.1741638;-5.535904;-;-;-;-;-;-;-;-;-;-;-;-;-;-;-
1514101007819;-;-;4.506378;-3.838913;-0.38598633;-;-;-;-;-;-;-;-;-;-;-;-;-;-;-
1514101007840;-;-;8.000717;-1.577591;-2.9585571;-;-;-;-;-;-;-;-;-;-;-;-;-;-;-
1514101007859;-;-;8.945221;-0.6067352;-3.3200684;-;-;-;-;-;-;-;-;-;-;-;-;-;-;-
1514101007879;-;-;6.975998;-0.6187134;-2.5754852;-;-;-;-;-;-;-;-;-;-;-;-;-;-;-
1514101007899;-;-;4.5470734;-1.1179047;-1.9230652;-;-;-;-;-;-;-;-;-;-;-;-;-;-;-
1514101007919;-;-;2.7526245;-2.4418945;-1.8045502;-;-;-;-;-;-;-;-;-;-;-;-;-;-;-
1514101007940;-;-;1.2730103;-4.0867157;-1.7063904;-;-;-;-;-;-;-;-;-;-;-;-;-;-;-
1514101007960;-;-;0.97972107;-4.9366455;-1.5615387;-;-;-;-;-;-;-;-;-;-;-;-;-;-;-
1514101007980;-;-;2.9944458;-4.3440857;-2.7478638;-;-;-;-;-;-;-;-;-;-;-;-;-;-;-
1514101008000;-;-;6.3774414;-3.463028;-4.969681;-;-;-;-;-;-;-;-;-;-;-;-;-;-;-
1514101008020;-;-;10.102829;-1.9355164;-4.6285095;-;-;-;-;-;-;-;-;-;-;-;-;-;-;-
1514101008040;-;-;13.828201;-1.7882843;-4.598572;-;-;-;-;-;-;-;-;-;-;-;-;-;-;-
1514101008061;-;-;12.763977;-2.22641;-5.503586;-;-;-;-;-;-;-;-;-;-;-;-;-;-;-
1514101008081;-;-;12.233658;-0.114730835;-5.143265;-;-;-;-;-;-;-;-;-;-;-;-;-;-;-
1514101008101;-;-;13.068039;-0.8162384;-3.54393;-;-;-;-;-;-;-;-;-;-;-;-;-;-;-
1514101008122;-;-;12.973465;-3.2475433;-2.6916046;-;-;-;-;-;-;-;-;-;-;-;-;-;-;-
1514101008143;-;-;14.019745;-4.3117676;-4.2957153;-;-;-;-;-;-;-;-;-;-;-;-;-;-;-
1514101008164;-;-;12.962692;-4.369232;-9.835892;-;-;-;-;-;-;-;-;-;-;-;-;-;-;-
1514101008183;-;-;10.509842;-4.9989014;-13.10997;-;-;-;-;-;-;-;-;-;-;-;-;-;-;-
1514101008203;-;-;10.075287;-5.4573975;2.0632935;-;-;-;-;-;-;-;-;-;-;-;-;-;-;-
1514101008223;-;-;9.799957;-3.4450684;-5.180374;-;-;-;-;-;-;-;-;-;-;-;-;-;-;-
1514101008244;-;-;7.8175507;-2.3425293;-10.701401;-;-;-;-;-;-;-;-;-;-;-;-;-;-;-
1514101008264;-;-;4.73143;-0.5313263;-9.74971;-;-;-;-;-;-;-;-;-;-;-;-;-;-;-
1514101008284;-;-;4.299286;1.303833;-6.2218475;-;-;-;-;-;-;-;-;-;-;-;-;-;-;-
1514101008305;-;-;5.0498657;1.9347076;-3.906662;-;-;-;-;-;-;-;-;-;-;-;-;-;-;-
1514101008325;-;-;4.6416473;2.6302185;-1.8392639;-;-;-;-;-;-;-;-;-;-;-;-;-;-;-
1514101008345;-;-;5.6496124;2.339325;-1.6393433;-;-;-;-;-;-;-;-;-;-;-;-;-;-;-
1514101008366;-;-;5.940506;0.115112305;-3.5798492;-;-;-;-;-;-;-;-;-;-;-;-;-;-;-
1514101008386;-;-;5.5430603;-0.109939575;-3.832428;-;-;-;-;-;-;-;-;-;-;-;-;-;-;-
1514101008406;-;-;4.5363007;0.074417114;-2.9908752;-;-;-;-;-;-;-;-;-;-;-;-;-;-;-
1514101008426;-;-;4.1640015;0.9028015;-3.1321259;-;-;-;-;-;-;-;-;-;-;-;-;-;-;-
1514101008447;-;-;5.916565;1.4558716;-2.4497833;-;-;-;-;-;-;-;-;-;-;-;-;-;-;-
1514101008468;-;-;7.138809;0.7447815;-3.3823242;-;-;-;-;-;-;-;-;-;-;-;-;-;-;-
1514101008488;-;-;7.363861;-0.38887024;-4.6057587;-;-;-;-;-;-;-;-;-;-;-;-;-;-;-
1514101008508;-;-;7.4057617;0.63345337;-3.3452148;-;-;-;-;-;-;-;-;-;-;-;-;-;-;-
1514101008529;-;-;7.094513;2.1549683;-1.8608093;-;-;-;-;-;-;-;-;-;-;-;-;-;-;-
1514101008549;-;-;6.920929;2.2268066;-1.0024872;-;-;-;-;-;-;-;-;-;-;-;-;-;-;-
1514101008569;-;-;7.762497;1.3361511;-0.18606567;-;-;-;-;-;-;-;-;-;-;-;-;-;-;-
1514101008590;-;-;8.934448;1.6342316;-0.3764038;-;-;-;-;-;-;-;-;-;-;-;-;-;-;-
1514101008610;-;-;10.746857;2.4566498;-1.3053589;-;-;-;-;-;-;-;-;-;-;-;-;-;-;-
1514101008630;-;-;12.224091;2.7020416;-2.1493073;-;-;-;-;-;-;-;-;-;-;-;-;-;-;-
1514101008650;-;-;10.494278;1.8389435;-1.9625702;-;-;-;-;-;-;-;-;-;-;-;-;-;-;-
1514101008670;-;-;9.049377;1.674942;-9.506699;-;-;-;-;-;-;-;-;-;-;-;-;-;-;-
1514101008691;-;-;14.235214;4.992096;-7.0239105;-;-;-;-;-;-;-;-;-;-;-;-;-;-;-
1514101008711;-;-;16.07756;6.956543;-5.839966;-;-;-;-;-;-;-;-;-;-;-;-;-;-;-
1514101008731;-;-;9.9591675;2.6206512;-7.441696;-;-;-;-;-;-;-;-;-;-;-;-;-;-;-
1514101008751;-;-;7.3662567;1.8820343;-6.7090607;-;-;-;-;-;-;-;-;-;-;-;-;-;-;-
1514101008772;-;-;4.6943207;-1.1777496;-5.3467712;-;-;-;-;-;-;-;-;-;-;-;-;-;-;-
1514101008793;-;-;5.2677307;-5.222763;-3.9258118;-;-;-;-;-;-;-;-;-;-;-;-;-;-;-
1514101008813;-;-;7.071762;-5.080307;-4.4226074;-;-;-;-;-;-;-;-;-;-;-;-;-;-;-
1514101008833;-;-;10.737289;-1.214859;-3.3966827;-;-;-;-;-;-;-;-;-;-;-;-;-;-;-
1514101008854;-;-;10.099228;1.2703094;-3.725891;-;-;-;-;-;-;-;-;-;-;-;-;-;-;-
1514101008874;-;-;7.2261963;2.725998;-4.4321747;-;-;-;-;-;-;-;-;-;-;-;-;-;-;-
1514101008894;-;-;4.1640015;1.6928864;-3.3823242;-;-;-;-;-;-;-;-;-;-;-;-;-;-;-
1514101008915;-;-;2.4832764;-0.92996216;-2.2175446;-;-;-;-;-;-;-;-;-;-;-;-;-;-;-
1514101008935;-;-;2.1121826;-3.1601563;-1.7985535;-;-;-;-;-;-;-;-;-;-;-;-;-;-;-
1514101008956;-;-;2.0822449;-4.1333923;-1.7961731;-;-;-;-;-;-;-;-;-;-;-;-;-;-;-
1514101008975;-;-;3.2865295;-3.9203186;-2.148117;-;-;-;-;-;-;-;-;-;-;-;-;-;-;-
1514101008995;-;-;6.005142;-2.4945679;-2.603012;-;-;-;-;-;-;-;-;-;-;-;-;-;-;-
1514101009015;-;-;8.016281;-1.0807953;-2.7670135;-;-;-;-;-;-;-;-;-;-;-;-;-;-;-
1514101009036;-;-;8.362244;-1.0269165;-3.310501;-;-;-;-;-;-;-;-;-;-;-;-;-;-;-
1514101009057;-;-;8.944031;-2.1102905;-3.974884;-;-;-;-;-;-;-;-;-;-;-;-;-;-;-
1514101009076;-;-;10.105225;-3.6557617;-1.6357574;-;-;-;-;-;-;-;-;-;-;-;-;-;-;-
1514101009097;-;-;12.837006;-4.286621;0.4388275;-;-;-;-;-;-;-;-;-;-;-;-;-;-;-
1514101009118;-;-;12.998611;-5.253891;-1.3460541;-;-;-;-;-;-;-;-;-;-;-;-;-;-;-
1514101009138;-;-;12.89447;-5.6118164;-3.1417084;-;-;-;-;-;-;-;-;-;-;-;-;-;-;-
1514101009158;-;-;13.206909;-3.713211;-4.2298737;-;-;-;-;-;-;-;-;-;-;-;-;-;-;-
1514101009178;-;-;10.995865;-1.3764801;-7.1304474;-;-;-;-;-;-;-;-;-;-;-;-;-;-;-
1514101009198;-;-;10.574478;-2.8309479;-10.460785;-;-;-;-;-;-;-;-;-;-;-;-;-;-;-
1514101009219;-;-;13.199722;-4.99411;-2.8496094;-;-;-;-;-;-;-;-;-;-;-;-;-;-;-
1514101009240;-;-;13.418793;-3.3265533;-3.7366638;-;-;-;-;-;-;-;-;-;-;-;-;-;-;-
1514101009260;-;-;8.958389;-2.0372772;-9.230164;-;-;-;-;-;-;-;-;-;-;-;-;-;-;-
1514101009280;-;-;6.5426483;-0.19613647;-9.35466;-;-;-;-;-;-;-;-;-;-;-;-;-;-;-
1514101009301;-;-;5.95607;2.0699768;-7.134033;-;-;-;-;-;-;-;-;-;-;-;-;-;-;-
1514101009321;-;-;5.327591;2.1166687;-4.496826;-;-;-;-;-;-;-;-;-;-;-;-;-;-;-
1514101009341;-;-;5.015152;-0.105148315;-4.4585114;-;-;-;-;-;-;-;-;-;-;-;-;-;-;-
1514101009362;-;-;6.5558167;-1.6158905;-3.2243042;-;-;-;-;-;-;-;-;-;-;-;-;-;-;-
1514101009382;-;-;7.699051;-2.8321533;-1.9494019;-;-;-;-;-;-;-;-;-;-;-;-;-;-;-
1514101009403;-;-;6.4564514;-3.4259033;-3.3571777;-;-;-;-;-;-;-;-;-;-;-;-;-;-;-
1514101009423;-;-;5.612503;-1.6242676;-2.860382;-;-;-;-;-;-;-;-;-;-;-;-;-;-;-
1514101009443;-;-;4.648834;0.58917236;-2.3528137;-;-;-;-;-;-;-;-;-;-;-;-;-;-;-
1514101009463;-;-;4.39624;2.3824158;-3.0950165;-;-;-;-;-;-;-;-;-;-;-;-;-;-;-
1514101009483;-;-;5.5382843;2.703247;-2.9896698;-;-;-;-;-;-;-;-;-;-;-;-;-;-;-
1514101009503;-;-;7.039444;1.4414978;-3.4266205;-;-;-;-;-;-;-;-;-;-;-;-;-;-;-
1514101009524;-;-;7.837906;0.2348175;-4.345993;-;-;-;-;-;-;-;-;-;-;-;-;-;-;-
1514101009544;-;-;6.898178;-0.107543945;-4.5650635;-;-;-;-;-;-;-;-;-;-;-;-;-;-;-
1514101009565;-;-;6.568985;0.7507782;-3.812088;-;-;-;-;-;-;-;-;-;-;-;-;-;-;-
1514101009585;-;-;7.4488525;1.9897766;-2.8544006;-;-;-;-;-;-;-;-;-;-;-;-;-;-;-
1514101009605;-;-;9.570114;2.5033264;-2.3288727;-;-;-;-;-;-;-;-;-;-;-;-;-;-;-
1514101009625;-;-;10.901291;1.9430847;-1.8524323;-;-;-;-;-;-;-;-;-;-;-;-;-;-;-
1514101009646;-;-;11.485474;2.160965;-1.8224945;-;-;-;-;-;-;-;-;-;-;-;-;-;-;-
1514101009667;-;-;11.586029;3.3652496;-1.8835602;-;-;-;-;-;-;-;-;-;-;-;-;-;-;-
1514101009687;-;-;11.360977;3.3568573;-1.2550812;-;-;-;-;-;-;-;-;-;-;-;-;-;-;-
1514101009707;-;-;10.250061;1.8317566;-0.063964844;-;-;-;-;-;-;-;-;-;-;-;-;-;-;-
1514101009727;-;-;8.469971;0.6945038;-1.219162;-;-;-;-;-;-;-;-;-;-;-;-;-;-;-
1514101009747;-;-;6.398987;1.1529999;-9.457611;-;-;-;-;-;-;-;-;-;-;-;-;-;-;-
1514101009768;-;-;8.126404;4.1708984;-6.6994934;-;-;-;-;-;-;-;-;-;-;-;-;-;-;-
1514101009788;-;-;12.710114;6.276596;-5.306061;-;-;-;-;-;-;-;-;-;-;-;-;-;-;-
1514101009808;-;-;11.11557;3.7554932;-6.7796936;-;-;-;-;-;-;-;-;-;-;-;-;-;-;-
1514101009829;-;-;7.3530884;1.4917755;-7.924118;-;-;-;-;-;-;-;-;-;-;-;-;-;-;-
1514101009849;-;-;6.7688904;-2.6801147;-5.10495;-;-;-;-;-;-;-;-;-;-;-;-;-;-;-
1514101009869;-;-;5.9189606;-4.6002655;-0.7103882;-;-;-;-;-;-;-;-;-;-;-;-;-;-;-
1514101009889;-;-;7.7217865;-2.261139;-3.4002838;-;-;-;-;-;-;-;-;-;-;-;-;-;-;-
1514101009909;-;-;10.223724;1.4103699;-3.575058;-;-;-;-;-;-;-;-;-;-;-;-;-;-;-
1514101009929;-;-;9.519836;3.549591;-3.3344421;-;-;-;-;-;-;-;-;-;-;-;-;-;-;-
1514101009950;-;-;6.5630035;3.7734528;-3.3188782;-;-;-;-;-;-;-;-;-;-;-;-;-;-;-
1514101009970;-;-;3.991623;1.5492401;-3.3607788;-;-;-;-;-;-;-;-;-;-;-;-;-;-;-
1514101009989;-;-;2.5946045;-1.5105438;-2.7275085;-;-;-;-;-;-;-;-;-;-;-;-;-;-;-
1514101010009;-;-;2.8448029;-4.0436096;-2.0822754;-;-;-;-;-;-;-;-;-;-;-;-;-;-;-
1514101010029;-;-;6.9472656;-4.978546;-2.8376465;-;-;-;-;-;-;-;-;-;-;-;-;-;-;-
1514101010049;-;-;8.64476;-3.0739594;-3.9641113;-;-;-;-;-;-;-;-;-;-;-;-;-;-;-
1514101010070;-;-;8.133591;-1.4483032;-4.2382507;-;-;-;-;-;-;-;-;-;-;-;-;-;-;-
1514101010090;-;-;7.778061;-0.54808044;-3.4972534;-;-;-;-;-;-;-;-;-;-;-;-;-;-;-
1514101010110;-;-;6.7257996;-0.083602905;-2.9130554;-;-;-;-;-;-;-;-;-;-;-;-;-;-;-
1514101010131;-;-;5.655594;-0.24401855;-1.8775635;-;-;-;-;-;-;-;-;-;-;-;-;-;-;-
1514101010151;-;-;6.205063;-1.2639465;-0.88038635;-;-;-;-;-;-;-;-;-;-;-;-;-;-;-
1514101010171;-;-;7.0574036;-2.2072601;-1.0132599;-;-;-;-;-;-;-;-;-;-;-;-;-;-;-
1514101010192;-;-;8.897339;-2.245575;-2.0667114;-;-;-;-;-;-;-;-;-;-;-;-;-;-;-
1514101010212;-;-;9.803543;-1.7894745;-2.211563;-;-;-;-;-;-;-;-;-;-;-;-;-;-;-
1514101010232;-;-;10.793549;-1.2136688;-1.4059143;-;-;-;-;-;-;-;-;-;-;-;-;-;-;-
1514101010253;-;-;10.952759;0.23362732;-1.9254456;-;-;-;-;-;-;-;-;-;-;-;-;-;-;-
1514101010273;-;-;10.536179;1.2451782;-1.8308868;-;-;-;-;-;-;-;-;-;-;-;-;-;-;-
1514101010293;-;-;9.009872;0.6107178;-2.350418;-;-;-;-;-;-;-;-;-;-;-;-;-;-;-
1514101010314;-;-;7.5362396;-1.2196503;-2.9669342;-;-;-;-;-;-;-;-;-;-;-;-;-;-;-
1514101010333;-;-;7.1866913;-1.7810974;-0.96777344;-;-;-;-;-;-;-;-;-;-;-;-;-;-;-
1514101010354;-;-;8.349075;-0.34217834;-3.3511963;-;-;-;-;-;-;-;-;-;-;-;-;-;-;-
1514101010374;-;-;12.285141;0.635849;-8.944061;-;-;-;-;-;-;-;-;-;-;-;-;-;-;-
1514101010394;-;-;13.496597;-0.44992065;-7.5195007;-;-;-;-;-;-;-;-;-;-;-;-;-;-;-
1514101010414;-;-;11.98587;-0.8174286;-6.1572113;-;-;-;-;-;-;-;-;-;-;-;-;-;-;-
1514101010435;-;-;9.014664;0.23362732;-5.097763;-;-;-;-;-;-;-;-;-;-;-;-;-;-;-
1514101010455;-;-;6.9939575;2.0615997;-5.2845154;-;-;-;-;-;-;-;-;-;-;-;-;-;-;-
1514101010475;-;-;6.5953217;2.4039764;-5.57901;-;-;-;-;-;-;-;-;-;-;-;-;-;-;-
1514101010496;-;-;7.1411896;0.8022461;-5.4030304;-;-;-;-;-;-;-;-;-;-;-;-;-;-;-
1514101010516;-;-;8.711792;-0.46188354;-4.2155;-;-;-;-;-;-;-;-;-;-;-;-;-;-;-
1514101010536;-;-;9.286407;-0.8413696;-3.9162292;-;-;-;-;-;-;-;-;-;-;-;-;-;-;-
1514101010557;-;-;8.989517;-0.24401855;-4.1221313;-;-;-;-;-;-;-;-;-;-;-;-;-;-;-
1514101010576;-;-;8.237747;0.033706665;-3.5259705;-;-;-;-;-;-;-;-;-;-;-;-;-;-;-
1514101010597;-;-;7.9504395;-0.15423584;-3.1213531;-;-;-;-;-;-;-;-;-;-;-;-;-;-;-
1514101010617;-;-;7.2070313;-0.25360107;-2.2007904;-;-;-;-;-;-;-;-;-;-;-;-;-;-;-
1514101010638;-;-;6.394211;-0.4044342;-1.5244293;-;-;-;-;-;-;-;-;-;-;-;-;-;-;-
1514101010658;-;-;5.6424255;-0.23443604;-1.3077545;-;-;-;-;-;-;-;-;-;-;-;-;-;-;-
1514101010678;-;-;5.0307007;0.46107483;-1.143753;-;-;-;-;-;-;-;-;-;-;-;-;-;-;-
1514101010698;-;-;5.391037;0.9351349;-1.1150208;-;-;-;-;-;-;-;-;-;-;-;-;-;-;-
1514101010719;-;-;6.5713806;1.0201263;-1.4633789;-;-;-;-;-;-;-;-;-;-;-;-;-;-;-
1514101010739;-;-;7.7337646;0.9004059;-1.7901764;-;-;-;-;-;-;-;-;-;-;-;-;-;-;-
1514101010759;-;-;8.782425;0.793869;-1.6956024;-;-;-;-;-;-;-;-;-;-;-;-;-;-;-
1514101010780;-;-;9.564133;0.71725464;-0.9917145;-;-;-;-;-;-;-;-;-;-;-;-;-;-;-
1514101010800;-;-;10.999451;0.3605194;-1.155716;-;-;-;-;-;-;-;-;-;-;-;-;-;-;-
1514101010820;-;-;13.057266;0.42277527;-1.535202;-;-;-;-;-;-;-;-;-;-;-;-;-;-;-
1514101010841;-;-;12.945938;1.0548401;-1.3664093;-;-;-;-;-;-;-;-;-;-;-;-;-;-;-
1514101010861;-;-;9.65152;3.1126556;-5.2761383;-;-;-;-;-;-;-;-;-;-;-;-;-;-;-
1514101010882;-;-;7.909729;5.327286;-9.211014;-;-;-;-;-;-;-;-;-;-;-;-;-;-;-
1514101010902;-;-;7.463211;5.177658;-9.517471;-;-;-;-;-;-;-;-;-;-;-;-;-;-;-
1514101010922;-;-;7.9983215;1.4008026;-3.2949371;-;-;-;-;-;-;-;-;-;-;-;-;-;-;-
1514101010943;-;-;9.29837;-3.2307892;-3.9677124;-;-;-;-;-;-;-;-;-;-;-;-;-;-;-
1514101010963;-;-;10.080078;-5.2059937;-8.060593;-;-;-;-;-;-;-;-;-;-;-;-;-;-;-
1514101010983;-;-;7.8881836;-2.945877;-8.722595;-;-;-;-;-;-;-;-;-;-;-;-;-;-;-
1514101011004;-;-;8.24852;2.239975;-6.0865784;-;-;-;-;-;-;-;-;-;-;-;-;-;-;-
1514101011023;-;-;8.9991;4.4282684;-5.0606537;-;-;-;-;-;-;-;-;-;-;-;-;-;-;-
1514101011043;-;-;12.032547;1.0488586;-5.7286377;-;-;-;-;-;-;-;-;-;-;-;-;-;-;-
1514101011063;-;-;9.814316;-0.51097107;-5.5311127;-;-;-;-;-;-;-;-;-;-;-;-;-;-;-
1514101011084;-;-;7.161545;-1.6182861;-4.7039185;-;-;-;-;-;-;-;-;-;-;-;-;-;-;-
1514101011104;-;-;5.2521667;-3.1254425;-3.7594147;-;-;-;-;-;-;-;-;-;-;-;-;-;-;-
1514101011125;-;-;3.7019196;-3.8508759;-3.2183228;-;-;-;-;-;-;-;-;-;-;-;-;-;-;-
1514101011145;-;-;3.399063;-3.2511292;-3.6133575;-;-;-;-;-;-;-;-;-;-;-;-;-;-;-
1514101011166;-;-;4.4572906;-2.1641693;-3.4792938;-;-;-;-;-;-;-;-;-;-;-;-;-;-;-
1514101011186;-;-;8.131195;-2.159378;-3.1081848;-;-;-;-;-;-;-;-;-;-;-;-;-;-;-
1514101011206;-;-;8.865021;-3.028473;-2.591034;-;-;-;-;-;-;-;-;-;-;-;-;-;-;-
1514101011227;-;-;9.234924;-3.3911896;-2.0379791;-;-;-;-;-;-;-;-;-;-;-;-;-;-;-
1514101011247;-;-;9.340271;-3.1924744;-2.0104523;-;-;-;-;-;-;-;-;-;-;-;-;-;-;-
1514101011267;-;-;9.228943;-2.7830658;-1.8596191;-;-;-;-;-;-;-;-;-;-;-;-;-;-;-
1514101011288;-;-;8.9392395;-2.2970428;-2.0152283;-;-;-;-;-;-;-;-;-;-;-;-;-;-;-
1514101011307;-;-;9.064941;-1.4327393;-1.6381531;-;-;-;-;-;-;-;-;-;-;-;-;-;-;-
1514101011328;-;-;9.122391;-1.6266632;-2.230713;-;-;-;-;-;-;-;-;-;-;-;-;-;-;-
1514101011347;-;-;9.127182;-3.1026917;-2.9597473;-;-;-;-;-;-;-;-;-;-;-;-;-;-;-
1514101011367;-;-;8.135986;-4.650543;-2.0942383;-;-;-;-;-;-;-;-;-;-;-;-;-;-;-
1514101011388;-;-;8.1479645;-4.516464;-0.44224548;-;-;-;-;-;-;-;-;-;-;-;-;-;-;-
1514101011408;-;-;9.689819;-2.0947418;-1.1126251;-;-;-;-;-;-;-;-;-;-;-;-;-;-;-
1514101011427;-;-;9.902908;-0.6689911;-5.83638;-;-;-;-;-;-;-;-;-;-;-;-;-;-;-
1514101011447;-;-;11.645889;2.8540802;-13.068069;-;-;-;-;-;-;-;-;-;-;-;-;-;-;-
1514101011467;-;-;11.244858;4.5240326;-7.1220703;-;-;-;-;-;-;-;-;-;-;-;-;-;-;-
1514101011488;-;-;9.324707;3.4598083;-5.583786;-;-;-;-;-;-;-;-;-;-;-;-;-;-;-
1514101011508;-;-;8.140778;0.5233307;-6.710266;-;-;-;-;-;-;-;-;-;-;-;-;-;-;-
1514101011528;-;-;9.23851;-2.4227448;-6.8982086;-;-;-;-;-;-;-;-;-;-;-;-;-;-;-
1514101011548;-;-;10.446396;-3.5300598;-5.958481;-;-;-;-;-;-;-;-;-;-;-;-;-;-;-
1514101011568;-;-;10.71814;-1.720047;-3.6684265;-;-;-;-;-;-;-;-;-;-;-;-;-;-;-
1514101011589;-;-;9.659897;1.0177307;-3.3164825;-;-;-;-;-;-;-;-;-;-;-;-;-;-;-
1514101011609;-;-;9.31633;1.7096558;-3.3033142;-;-;-;-;-;-;-;-;-;-;-;-;-;-;-
1514101011629;-;-;8.381393;0.9686432;-2.4797058;-;-;-;-;-;-;-;-;-;-;-;-;-;-;-
1514101011649;-;-;6.8239594;0.08279419;-1.6177979;-;-;-;-;-;-;-;-;-;-;-;-;-;-;-
1514101011670;-;-;4.766144;0.040893555;-1.3412628;-;-;-;-;-;-;-;-;-;-;-;-;-;-;-
1514101011691;-;-;3.3535767;0.33776855;-0.98931885;-;-;-;-;-;-;-;-;-;-;-;-;-;-;-
1514101011711;-;-;4.786499;0.7447815;-0.927063;-;-;-;-;-;-;-;-;-;-;-;-;-;-;-
1514101011732;-;-;7.6260223;0.93751526;-1.2155762;-;-;-;-;-;-;-;-;-;-;-;-;-;-;-
1514101011752;-;-;7.9791718;1.3768616;-1.6513214;-;-;-;-;-;-;-;-;-;-;-;-;-;-;-
1514101011772;-;-;8.402939;2.181305;-0.748703;-;-;-;-;-;-;-;-;-;-;-;-;-;-;-
1514101011792;-;-;8.911713;2.4386902;-0.36921692;-;-;-;-;-;-;-;-;-;-;-;-;-;-;-
1514101011812;-;-;9.675461;2.2028503;-0.946228;-;-;-;-;-;-;-;-;-;-;-;-;-;-;-
1514101011832;-;-;10.791153;2.5655823;-1.3951416;-;-;-;-;-;-;-;-;-;-;-;-;-;-;-
1514101011852;-;-;11.651871;3.295807;-0.6122284;-;-;-;-;-;-;-;-;-;-;-;-;-;-;-
1514101011872;-;-;12.10437;3.328125;-0.49371338;-;-;-;-;-;-;-;-;-;-;-;-;-;-;-
1514101011892;-;-;12.038528;2.651764;-4.2143097;-;-;-;-;-;-;-;-;-;-;-;-;-;-;-
1514101011913;-;-;12.625122;3.1820831;-3.6408997;-;-;-;-;-;-;-;-;-;-;-;-;-;-;-
1514101011933;-;-;15.076782;3.1916656;-5.6053467;-;-;-;-;-;-;-;-;-;-;-;-;-;-;-
1514101011953;-;-;11.061707;3.2503204;-6.7353973;-;-;-;-;-;-;-;-;-;-;-;-;-;-;-
1514101011973;-;-;7.02388;3.5136871;-8.259308;-;-;-;-;-;-;-;-;-;-;-;-;-;-;-
1514101011994;-;-;5.351532;1.3708649;-6.9772186;-;-;-;-;-;-;-;-;-;-;-;-;-;-;-
1514101012014;-;-;6.2709045;-1.6781464;-5.230652;-;-;-;-;-;-;-;-;-;-;-;-;-;-;-
1514101012034;-;-;9.092468;-2.3652802;-5.1348724;-;-;-;-;-;-;-;-;-;-;-;-;-;-;-
1514101012054;-;-;10.4487915;-0.3541565;-5.8267975;-;-;-;-;-;-;-;-;-;-;-;-;-;-;-
1514101012075;-;-;10.217743;0.9925842;-4.475281;-;-;-;-;-;-;-;-;-;-;-;-;-;-;-
1514101012094;-;-;8.835098;1.319397;-2.9884796;-;-;-;-;-;-;-;-;-;-;-;-;-;-;-
1514101012114;-;-;6.9700165;0.5305023;-3.0758667;-;-;-;-;-;-;-;-;-;-;-;-;-;-;-
1514101012134;-;-;5.3012543;-0.6294861;-2.6508942;-;-;-;-;-;-;-;-;-;-;-;-;-;-;-
1514101012155;-;-;4.3938446;-1.7691193;-2.1313477;-;-;-;-;-;-;-;-;-;-;-;-;-;-;-
1514101012175;-;-;4.1676025;-2.62146;-1.6465302;-;-;-;-;-;-;-;-;-;-;-;-;-;-;-
1514101012195;-;-;5.2150574;-3.0619965;-1.7195587;-;-;-;-;-;-;-;-;-;-;-;-;-;-;-
1514101012216;-;-;6.649185;-2.8800354;-1.7207489;-;-;-;-;-;-;-;-;-;-;-;-;-;-;-
1514101012236;-;-;7.1328125;-2.6729279;-2.270218;-;-;-;-;-;-;-;-;-;-;-;-;-;-;-
1514101012256;-;-;7.8331146;-2.811798;-3.709137;-;-;-;-;-;-;-;-;-;-;-;-;-;-;-
1514101012276;-;-;8.475967;-3.737152;-5.8627167;-;-;-;-;-;-;-;-;-;-;-;-;-;-;-
1514101012297;-;-;9.549759;-3.2128296;-4.5614624;-;-;-;-;-;-;-;-;-;-;-;-;-;-;-
1514101012317;-;-;10.599625;-1.0592499;-2.5826569;-;-;-;-;-;-;-;-;-;-;-;-;-;-;-
1514101012337;-;-;11.818268;-0.014175415;-3.6408997;-;-;-;-;-;-;-;-;-;-;-;-;-;-;-
1514101012358;-;-;10.829468;-1.0939636;-4.0347443;-;-;-;-;-;-;-;-;-;-;-;-;-;-;-
1514101012378;-;-;12.245636;-1.5476532;-3.3595734;-;-;-;-;-;-;-;-;-;-;-;-;-;-;-
1514101012398;-;-;13.502594;-1.7308197;-4.627304;-;-;-;-;-;-;-;-;-;-;-;-;-;-;-
1514101012419;-;-;11.268799;-3.1170654;-10.788788;-;-;-;-;-;-;-;-;-;-;-;-;-;-;-
1514101012439;-;-;9.402527;-4.8145447;-13.373322;-;-;-;-;-;-;-;-;-;-;-;-;-;-;-
1514101012460;-;-;8.356247;-5.274231;-4.028763;-;-;-;-;-;-;-;-;-;-;-;-;-;-;-
1514101012479;-;-;7.6739044;-2.269516;-5.0642548;-;-;-;-;-;-;-;-;-;-;-;-;-;-;-
1514101012499;-;-;6.3427277;-1.2447968;-10.866592;-;-;-;-;-;-;-;-;-;-;-;-;-;-;-
1514101012520;-;-;6.0805664;0.11392212;-6.6695557;-;-;-;-;-;-;-;-;-;-;-;-;-;-;-
1514101012540;-;-;7.0262756;1.7024689;-2.3707733;-;-;-;-;-;-;-;-;-;-;-;-;-;-;-
1514101012560;-;-;5.6974945;1.2631378;-1.0671387;-;-;-;-;-;-;-;-;-;-;-;-;-;-;-
1514101012581;-;-;3.569046;0.083984375;-1.2251434;-;-;-;-;-;-;-;-;-;-;-;-;-;-;-
1514101012601;-;-;3.253006;-1.7104645;-2.6089935;-;-;-;-;-;-;-;-;-;-;-;-;-;-;-
1514101012621;-;-;3.6743927;-2.8321533;-3.0267792;-;-;-;-;-;-;-;-;-;-;-;-;-;-;-
1514101012642;-;-;3.897049;-2.0336761;-2.6484985;-;-;-;-;-;-;-;-;-;-;-;-;-;-;-
1514101012662;-;-;4.896637;0.1905365;-2.6209717;-;-;-;-;-;-;-;-;-;-;-;-;-;-;-
1514101012682;-;-;7.00473;2.8433075;-3.741455;-;-;-;-;-;-;-;-;-;-;-;-;-;-;-
1514101012702;-;-;8.728546;3.5471954;-3.8683472;-;-;-;-;-;-;-;-;-;-;-;-;-;-;-
1514101012723;-;-;9.840652;2.746338;-4.718292;-;-;-;-;-;-;-;-;-;-;-;-;-;-;-
1514101012743;-;-;10.336258;1.5121307;-5.444931;-;-;-;-;-;-;-;-;-;-;-;-;-;-;-
1514101012763;-;-;9.468353;1.4427032;-4.809265;-;-;-;-;-;-;-;-;-;-;-;-;-;-;-
1514101012784;-;-;8.82193;1.674942;-2.333664;-;-;-;-;-;-;-;-;-;-;-;-;-;-;-
1514101012804;-;-;9.042191;1.3852386;-1.1521301;-;-;-;-;-;-;-;-;-;-;-;-;-;-;-
1514101012824;-;-;9.990295;1.7826691;-1.7566681;-;-;-;-;-;-;-;-;-;-;-;-;-;-;-
1514101012845;-;-;11.120361;2.0209045;-3.302124;-;-;-;-;-;-;-;-;-;-;-;-;-;-;-
1514101012865;-;-;11.19458;2.011322;-3.3320465;-;-;-;-;-;-;-;-;-;-;-;-;-;-;-
1514101012885;-;-;10.027405;1.0560303;-1.4645691;-;-;-;-;-;-;-;-;-;-;-;-;-;-;-
1514101012906;-;-;8.649536;0.25517273;-3.5642853;-;-;-;-;-;-;-;-;-;-;-;-;-;-;-
1514101012925;-;-;7.1914673;0.5747986;-10.1076355;-;-;-;-;-;-;-;-;-;-;-;-;-;-;-
1514101012945;-;-;8.866211;1.8102112;-8.085739;-;-;-;-;-;-;-;-;-;-;-;-;-;-;-
1514101012966;-;-;11.887695;2.0436401;-6.4708405;-;-;-;-;-;-;-;-;-;-;-;-;-;-;-
1514101012985;-;-;9.71257;0.5855713;-7.515915;-;-;-;-;-;-;-;-;-;-;-;-;-;-;-
1514101013005;-;-;6.992752;-0.32182312;-7.0681915;-;-;-;-;-;-;-;-;-;-;-;-;-;-;-
1514101013026;-;-;4.853531;-1.961853;-6.0518646;-;-;-;-;-;-;-;-;-;-;-;-;-;-;-
1514101013046;-;-;4.6548157;-3.558792;-3.528366;-;-;-;-;-;-;-;-;-;-;-;-;-;-;-
1514101013066;-;-;6.560608;-1.8373566;-2.326477;-;-;-;-;-;-;-;-;-;-;-;-;-;-;-
1514101013086;-;-;8.611237;-0.45111084;-4.0981903;-;-;-;-;-;-;-;-;-;-;-;-;-;-;-
1514101013107;-;-;8.701019;0.0025787354;-5.2928925;-;-;-;-;-;-;-;-;-;-;-;-;-;-;-
1514101013127;-;-;7.805588;0.2815094;-4.083832;-;-;-;-;-;-;-;-;-;-;-;-;-;-;-
1514101013148;-;-;6.457657;-0.3182373;-2.9753113;-;-;-;-;-;-;-;-;-;-;-;-;-;-;-
1514101013168;-;-;4.743408;-2.221634;-2.7299042;-;-;-;-;-;-;-;-;-;-;-;-;-;-;-
1514101013189;-;-;3.6073608;-3.9993286;-2.7933502;-;-;-;-;-;-;-;-;-;-;-;-;-;-;-
1514101013210;-;-;4.608124;-4.1070557;-2.231903;-;-;-;-;-;-;-;-;-;-;-;-;-;-;-
1514101013230;-;-;6.873047;-2.4993591;-2.3851318;-;-;-;-;-;-;-;-;-;-;-;-;-;-;-
1514101013250;-;-;8.808762;-0.7922821;-3.2015686;-;-;-;-;-;-;-;-;-;-;-;-;-;-;-
1514101013270;-;-;9.892136;-0.48703003;-3.9018707;-;-;-;-;-;-;-;-;-;-;-;-;-;-;-
1514101013290;-;-;9.090073;-1.1598053;-3.4601288;-;-;-;-;-;-;-;-;-;-;-;-;-;-;-
1514101013310;-;-;8.34668;-2.6274414;-2.749054;-;-;-;-;-;-;-;-;-;-;-;-;-;-;-
1514101013331;-;-;10.14592;-4.4494324;-2.7071533;-;-;-;-;-;-;-;-;-;-;-;-;-;-;-
1514101013351;-;-;12.188171;-5.375992;-2.6664581;-;-;-;-;-;-;-;-;-;-;-;-;-;-;-
1514101013371;-;-;14.201691;-4.0627747;-4.508789;-;-;-;-;-;-;-;-;-;-;-;-;-;-;-
1514101013391;-;-;13.336197;-3.2571259;-8.877014;-;-;-;-;-;-;-;-;-;-;-;-;-;-;-
1514101013412;-;-;14.299866;-3.2595215;-9.026657;-;-;-;-;-;-;-;-;-;-;-;-;-;-;-
1514101013432;-;-;12.001419;-5.0060883;-5.642456;-;-;-;-;-;-;-;-;-;-;-;-;-;-;-
1514101013452;-;-;8.843475;-4.1489563;-6.053055;-;-;-;-;-;-;-;-;-;-;-;-;-;-;-
1514101013473;-;-;7.304001;-2.3521118;-6.1823425;-;-;-;-;-;-;-;-;-;-;-;-;-;-;-
1514101013493;-;-;5.987198;-0.29788208;-6.907791;-;-;-;-;-;-;-;-;-;-;-;-;-;-;-
1514101013513;-;-;5.5275116;0.74957275;-5.461685;-;-;-;-;-;-;-;-;-;-;-;-;-;-;-
1514101013534;-;-;5.9393005;-0.3002777;-4.2490234;-;-;-;-;-;-;-;-;-;-;-;-;-;-;-
1514101013553;-;-;6.2266083;-0.86291504;-2.8053284;-;-;-;-;-;-;-;-;-;-;-;-;-;-;-
1514101013573;-;-;6.790451;-0.99938965;-3.0914307;-;-;-;-;-;-;-;-;-;-;-;-;-;-;-
1514101013593;-;-;7.5601807;-1.0568542;-2.8448334;-;-;-;-;-;-;-;-;-;-;-;-;-;-;-
1514101013614;-;-;7.684677;0.008575439;-3.3428192;-;-;-;-;-;-;-;-;-;-;-;-;-;-;-
1514101013633;-;-;5.8902283;1.0141296;-4.160446;-;-;-;-;-;-;-;-;-;-;-;-;-;-;-
1514101013653;-;-;4.220276;2.1465912;-4.0957947;-;-;-;-;-;-;-;-;-;-;-;-;-;-;-
1514101013674;-;-;3.797699;2.825348;-3.401474;-;-;-;-;-;-;-;-;-;-;-;-;-;-;-
1514101013694;-;-;4.592575;2.1980743;-2.8508148;-;-;-;-;-;-;-;-;-;-;-;-;-;-;-
1514101013714;-;-;5.8351593;0.338974;-3.243454;-;-;-;-;-;-;-;-;-;-;-;-;-;-;-
1514101013735;-;-;6.888611;-0.9443207;-3.8695374;-;-;-;-;-;-;-;-;-;-;-;-;-;-;-
1514101013755;-;-;7.446457;-0.7563782;-2.994461;-;-;-;-;-;-;-;-;-;-;-;-;-;-;-
1514101013775;-;-;6.7294006;1.932312;-2.0870667;-;-;-;-;-;-;-;-;-;-;-;-;-;-;-
1514101013795;-;-;6.807205;3.2610931;-2.1744537;-;-;-;-;-;-;-;-;-;-;-;-;-;-;-
1514101013815;-;-;10.059723;2.418335;-1.5639343;-;-;-;-;-;-;-;-;-;-;-;-;-;-;-
1514101013836;-;-;12.75679;2.2627106;-3.2997284;-;-;-;-;-;-;-;-;-;-;-;-;-;-;-
1514101013856;-;-;13.181763;2.9486542;-3.8144836;-;-;-;-;-;-;-;-;-;-;-;-;-;-;-
1514101013876;-;-;11.504623;3.2383423;-3.1141663;-;-;-;-;-;-;-;-;-;-;-;-;-;-;-
1514101013897;-;-;10.528992;2.2962341;-8.240158;-;-;-;-;-;-;-;-;-;-;-;-;-;-;-
1514101013916;-;-;9.783203;3.220398;-10.125595;-;-;-;-;-;-;-;-;-;-;-;-;-;-;-
1514101013936;-;-;11.544128;3.9314728;-7.579361;-;-;-;-;-;-;-;-;-;-;-;-;-;-;-
1514101013956;-;-;10.5278015;2.3225708;-6.737793;-;-;-;-;-;-;-;-;-;-;-;-;-;-;-
1514101013977;-;-;6.0326843;0.31263733;-9.390579;-;-;-;-;-;-;-;-;-;-;-;-;-;-;-
1514101013997;-;-;5.106125;-1.0580444;-7.769699;-;-;-;-;-;-;-;-;-;-;-;-;-;-;-
1514101014017;-;-;5.1037292;-4.0065002;-3.8946838;-;-;-;-;-;-;-;-;-;-;-;-;-;-;-
1514101014038;-;-;6.1440125;-5.2131805;-1.5579376;-;-;-;-;-;-;-;-;-;-;-;-;-;-;-
1514101014057;-;-;8.084518;-2.7064514;-2.5048523;-;-;-;-;-;-;-;-;-;-;-;-;-;-;-
1514101014077;-;-;7.177109;-0.19134521;-3.4469604;-;-;-;-;-;-;-;-;-;-;-;-;-;-;-
1514101014098;-;-;5.589752;1.2739105;-3.7354736;-;-;-;-;-;-;-;-;-;-;-;-;-;-;-
1514101014117;-;-;3.6911469;1.4462891;-3.3871155;-;-;-;-;-;-;-;-;-;-;-;-;-;-;-
1514101014137;-;-;3.3176575;-0.58758545;-2.5036469;-;-;-;-;-;-;-;-;-;-;-;-;-;-;-
1514101014158;-;-;3.351181;-3.2642975;-2.1660767;-;-;-;-;-;-;-;-;-;-;-;-;-;-;-
1514101014177;-;-;3.4888458;-5.195221;-2.8735504;-;-;-;-;-;-;-;-;-;-;-;-;-;-;-
1514101014198;-;-;5.295273;-5.1808624;-3.370346;-;-;-;-;-;-;-;-;-;-;-;-;-;-;-
1514101014218;-;-;9.330688;-2.4311218;-3.5128021;-;-;-;-;-;-;-;-;-;-;-;-;-;-;-
1514101014238;-;-;10.876144;-0.6498413;-3.9174347;-;-;-;-;-;-;-;-;-;-;-;-;-;-;-
1514101014258;-;-;9.811935;-0.700119;-4.9996033;-;-;-;-;-;-;-;-;-;-;-;-;-;-;-
1514101014279;-;-;7.9193115;-1.1238861;-4.9253845;-;-;-;-;-;-;-;-;-;-;-;-;-;-;-
1514101014299;-;-;8.460403;-0.783905;-4.68956;-;-;-;-;-;-;-;-;-;-;-;-;-;-;-
1514101014319;-;-;11.615952;-1.7296143;-3.4026794;-;-;-;-;-;-;-;-;-;-;-;-;-;-;-
1514101014340;-;-;13.459488;-3.6365967;-3.140503;-;-;-;-;-;-;-;-;-;-;-;-;-;-;-
1514101014359;-;-;14.957062;-4.1381836;-3.7366638;-;-;-;-;-;-;-;-;-;-;-;-;-;-;-
1514101014379;-;-;16.239166;-3.2212067;-3.1943817;-;-;-;-;-;-;-;-;-;-;-;-;-;-;-
1514101014400;-;-;14.043686;-1.9762268;-5.65921;-;-;-;-;-;-;-;-;-;-;-;-;-;-;-
1514101014420;-;-;10.238098;-3.3576813;-8.95723;-;-;-;-;-;-;-;-;-;-;-;-;-;-;-
1514101014440;-;-;7.1447906;-6.136154;-4.578232;-;-;-;-;-;-;-;-;-;-;-;-;-;-;-
1514101014461;-;-;4.7960815;-5.6345673;-2.6927948;-;-;-;-;-;-;-;-;-;-;-;-;-;-;-
1514101014481;-;-;5.675949;-3.7778625;-6.98201;-;-;-;-;-;-;-;-;-;-;-;-;-;-;-
1514101014501;-;-;6.7880554;-2.3856354;-10.903702;-;-;-;-;-;-;-;-;-;-;-;-;-;-;-
1514101014522;-;-;7.739746;0.39881897;-6.9305267;-;-;-;-;-;-;-;-;-;-;-;-;-;-;-
1514101014542;-;-;7.236969;2.9965363;-4.234665;-;-;-;-;-;-;-;-;-;-;-;-;-;-;-
1514101014562;-;-;5.363495;3.7135925;-2.5718842;-;-;-;-;-;-;-;-;-;-;-;-;-;-;-
1514101014582;-;-;4.762558;1.9275208;-1.863205;-;-;-;-;-;-;-;-;-;-;-;-;-;-;-
1514101014603;-;-;4.746994;-0.7420044;-2.8867188;-;-;-;-;-;-;-;-;-;-;-;-;-;-;-
1514101014623;-;-;5.7729034;-2.4023895;-3.9078522;-;-;-;-;-;-;-;-;-;-;-;-;-;-;-
1514101014644;-;-;4.995987;-2.6513824;-3.433792;-;-;-;-;-;-;-;-;-;-;-;-;-;-;-
1514101014664;-;-;4.746994;-1.4339294;-2.7227173;-;-;-;-;-;-;-;-;-;-;-;-;-;-;-
1514101014684;-;-;5.9548645;0.32699585;-2.5108337;-;-;-;-;-;-;-;-;-;-;-;-;-;-;-
1514101014704;-;-;8.280838;1.5983276;-3.4673157;-;-;-;-;-;-;-;-;-;-;-;-;-;-;-
1514101014725;-;-;8.165909;1.422348;-4.879898;-;-;-;-;-;-;-;-;-;-;-;-;-;-;-
1514101014745;-;-;7.722992;0.78907776;-4.341202;-;-;-;-;-;-;-;-;-;-;-;-;-;-;-
1514101014765;-;-;7.5350494;1.4846039;-3.389511;-;-;-;-;-;-;-;-;-;-;-;-;-;-;-
1514101014786;-;-;7.952835;2.2830658;-2.2738037;-;-;-;-;-;-;-;-;-;-;-;-;-;-;-
1514101014806;-;-;8.410126;2.552414;-1.2682495;-;-;-;-;-;-;-;-;-;-;-;-;-;-;-
1514101014826;-;-;9.325912;2.0041351;-1.5806885;-;-;-;-;-;-;-;-;-;-;-;-;-;-;-
1514101014847;-;-;10.690598;1.5887451;-2.547943;-;-;-;-;-;-;-;-;-;-;-;-;-;-;-
1514101014867;-;-;11.934387;1.6893005;-2.6413116;-;-;-;-;-;-;-;-;-;-;-;-;-;-;-
1514101014887;-;-;10.941986;2.6218414;-4.27417;-;-;-;-;-;-;-;-;-;-;-;-;-;-;-
1514101014907;-;-;9.448013;2.991745;-7.738571;-;-;-;-;-;-;-;-;-;-;-;-;-;-;-
1514101014928;-;-;10.512238;4.051178;-9.657532;-;-;-;-;-;-;-;-;-;-;-;-;-;-;-
1514101014948;-;-;11.653076;3.5268555;-9.698227;-;-;-;-;-;-;-;-;-;-;-;-;-;-;-
1514101014968;-;-;10.415268;2.0615997;-7.371063;-;-;-;-;-;-;-;-;-;-;-;-;-;-;-
1514101014988;-;-;7.6391907;1.2535553;-6.7904663;-;-;-;-;-;-;-;-;-;-;-;-;-;-;-
1514101015009;-;-;5.6783447;0.1438446;-6.540283;-;-;-;-;-;-;-;-;-;-;-;-;-;-;-
1514101015029;-;-;5.3886414;-2.377243;-4.8619385;-;-;-;-;-;-;-;-;-;-;-;-;-;-;-
1514101015049;-;-;5.0773926;-2.8860168;-3.9258118;-;-;-;-;-;-;-;-;-;-;-;-;-;-;-
1514101015069;-;-;7.197464;-0.56604004;-2.4306335;-;-;-;-;-;-;-;-;-;-;-;-;-;-;-
1514101015090;-;-;7.640381;1.1206818;-2.6054077;-;-;-;-;-;-;-;-;-;-;-;-;-;-;-
1514101015110;-;-;6.5737762;0.8453522;-3.1417084;-;-;-;-;-;-;-;-;-;-;-;-;-;-;-
1514101015130;-;-;6.1248627;-0.58399963;-2.151703;-;-;-;-;-;-;-;-;-;-;-;-;-;-;-
1514101015151;-;-;4.6727753;-2.372467;-2.014038;-;-;-;-;-;-;-;-;-;-;-;-;-;-;-
1514101015171;-;-;3.0531006;-3.8460999;-2.2366943;-;-;-;-;-;-;-;-;-;-;-;-;-;-;-
1514101015191;-;-;3.6827698;-3.9562225;-1.5627289;-;-;-;-;-;-;-;-;-;-;-;-;-;-;-
1514101015212;-;-;7.0454254;-2.3042297;-1.5435791;-;-;-;-;-;-;-;-;-;-;-;-;-;-;-
1514101015232;-;-;8.557373;-1.155014;-3.7857513;-;-;-;-;-;-;-;-;-;-;-;-;-;-;-
1514101015252;-;-;7.0849304;-2.2192383;-5.4102173;-;-;-;-;-;-;-;-;-;-;-;-;-;-;-
1514101015273;-;-;6.1954803;-3.6784973;-5.7920837;-;-;-;-;-;-;-;-;-;-;-;-;-;-;-
1514101015292;-;-;7.355484;-3.404358;-4.061081;-;-;-;-;-;-;-;-;-;-;-;-;-;-;-
1514101015312;-;-;9.6622925;-1.9905853;-2.9741058;-;-;-;-;-;-;-;-;-;-;-;-;-;-;-
1514101015333;-;-;10.763626;-0.82341003;-3.0112305;-;-;-;-;-;-;-;-;-;-;-;-;-;-;-
1514101015352;-;-;11.084442;-1.7906647;-3.2614136;-;-;-;-;-;-;-;-;-;-;-;-;-;-;-
1514101015372;-;-;12.28154;-3.3097992;-3.5954132;-;-;-;-;-;-;-;-;-;-;-;-;-;-;-
1514101015392;-;-;14.321411;-3.9873505;-3.0531158;-;-;-;-;-;-;-;-;-;-;-;-;-;-;-
1514101015413;-;-;13.775528;-3.7790527;-4.186783;-;-;-;-;-;-;-;-;-;-;-;-;-;-;-
1514101015432;-;-;12.099594;-3.7982025;-7.8702545;-;-;-;-;-;-;-;-;-;-;-;-;-;-;-
1514101015453;-;-;11.821854;-3.9047546;-9.595276;-;-;-;-;-;-;-;-;-;-;-;-;-;-;-
1514101015474;-;-;11.278381;-3.835312;-3.111786;-;-;-;-;-;-;-;-;-;-;-;-;-;-;-
1514101015494;-;-;8.375412;-3.1541748;-6.856308;-;-;-;-;-;-;-;-;-;-;-;-;-;-;-
1514101015514;-;-;6.0566254;-2.4418945;-9.980743;-;-;-;-;-;-;-;-;-;-;-;-;-;-;-
1514101015535;-;-;5.170761;-0.5827942;-6.413391;-;-;-;-;-;-;-;-;-;-;-;-;-;-;-
1514101015555;-;-;5.06662;1.2236328;-3.9928436;-;-;-;-;-;-;-;-;-;-;-;-;-;-;-
1514101015575;-;-;4.362732;0.85731506;-4.323242;-;-;-;-;-;-;-;-;-;-;-;-;-;-;-
1514101015596;-;-;4.442932;-1.0819855;-3.9497528;-;-;-;-;-;-;-;-;-;-;-;-;-;-;-
1514101015616;-;-;7.758896;-2.629837;-1.8033447;-;-;-;-;-;-;-;-;-;-;-;-;-;-;-
1514101015636;-;-;9.415695;-2.8285522;-2.16008;-;-;-;-;-;-;-;-;-;-;-;-;-;-;-
1514101015656;-;-;8.297592;-1.819397;-3.5032349;-;-;-;-;-;-;-;-;-;-;-;-;-;-;-
1514101015677;-;-;6.9544525;-0.119522095;-3.317688;-;-;-;-;-;-;-;-;-;-;-;-;-;-;-
1514101015697;-;-;7.08374;0.83695984;-3.0327759;-;-;-;-;-;-;-;-;-;-;-;-;-;-;-
1514101015717;-;-;7.873825;1.2727051;-3.919815;-;-;-;-;-;-;-;-;-;-;-;-;-;-;-
1514101015737;-;-;8.521454;2.5404358;-4.3962708;-;-;-;-;-;-;-;-;-;-;-;-;-;-;-
1514101015758;-;-;6.5354614;2.9019623;-4.9457397;-;-;-;-;-;-;-;-;-;-;-;-;-;-;-
1514101015777;-;-;4.556656;2.0041351;-3.9832764;-;-;-;-;-;-;-;-;-;-;-;-;-;-;-
1514101015797;-;-;3.1356964;1.5300903;-2.4557648;-;-;-;-;-;-;-;-;-;-;-;-;-;-;-
1514101015817;-;-;4.9971924;0.5640259;-0.4733734;-;-;-;-;-;-;-;-;-;-;-;-;-;-;-
1514101015838;-;-;6.276886;0.68852234;-0.04600525;-;-;-;-;-;-;-;-;-;-;-;-;-;-;-
1514101015858;-;-;6.975998;0.4658661;-0.6601105;-;-;-;-;-;-;-;-;-;-;-;-;-;-;-
1514101015878;-;-;7.748123;0.9387207;-1.6680756;-;-;-;-;-;-;-;-;-;-;-;-;-;-;-
1514101015898;-;-;8.528641;1.6390228;-2.9980621;-;-;-;-;-;-;-;-;-;-;-;-;-;-;-
1514101015918;-;-;9.33429;2.6362152;-3.7139282;-;-;-;-;-;-;-;-;-;-;-;-;-;-;-
1514101015939;-;-;10.648697;3.3640442;-4.3005066;-;-;-;-;-;-;-;-;-;-;-;-;-;-;-
1514101015958;-;-;12.497025;2.979782;-4.426193;-;-;-;-;-;-;-;-;-;-;-;-;-;-;-
1514101015978;-;-;13.679764;1.5229034;-4.912216;-;-;-;-;-;-;-;-;-;-;-;-;-;-;-
1514101015999;-;-;15.245575;0.14025879;-7.6847076;-;-;-;-;-;-;-;-;-;-;-;-;-;-;-
1514101016018;-;-;15.093536;1.6629639;-4.809265;-;-;-;-;-;-;-;-;-;-;-;-;-;-;-
1514101016038;-;-;11.957138;4.186447;-3.9293976;-;-;-;-;-;-;-;-;-;-;-;-;-;-;-
1514101016059;-;-;7.810379;4.2750397;-5.358734;-;-;-;-;-;-;-;-;-;-;-;-;-;-;-
1514101016079;-;-;5.276108;3.565155;-5.477249;-;-;-;-;-;-;-;-;-;-;-;-;-;-;-
1514101016099;-;-;4.3148346;0.4191742;-4.6692047;-;-;-;-;-;-;-;-;-;-;-;-;-;-;-
1514101016119;-;-;5.332382;-2.7256012;-2.899887;-;-;-;-;-;-;-;-;-;-;-;-;-;-;-
1514101016140;-;-;9.813126;-2.5891418;-4.0012207;-;-;-;-;-;-;-;-;-;-;-;-;-;-;-
1514101016160;-;-;11.562088;0.9016113;-6.6611786;-;-;-;-;-;-;-;-;-;-;-;-;-;-;-
1514101016180;-;-;10.003464;1.7635193;-2.8903198;-;-;-;-;-;-;-;-;-;-;-;-;-;-;-
1514101016200;-;-;7.3075867;1.8090057;-2.2905731;-;-;-;-;-;-;-;-;-;-;-;-;-;-;-
1514101016221;-;-;5.687912;0.9183655;-2.9513702;-;-;-;-;-;-;-;-;-;-;-;-;-;-;-
1514101016240;-;-;4.9265594;-0.26316833;-2.7550507;-;-;-;-;-;-;-;-;-;-;-;-;-;-;-
1514101016260;-;-;5.3060455;-1.3549194;-2.184021;-;-;-;-;-;-;-;-;-;-;-;-;-;-;-
1514101016280;-;-;6.1116943;-2.2036743;-1.4178772;-;-;-;-;-;-;-;-;-;-;-;-;-;-;-
1514101016301;-;-;6.8479004;-2.2982483;-2.0331879;-;-;-;-;-;-;-;-;-;-;-;-;-;-;-
1514101016320;-;-;6.9700165;-1.9714355;-3.3332367;-;-;-;-;-;-;-;-;-;-;-;-;-;-;-
1514101016340;-;-;5.8638916;-1.7822876;-3.9102478;-;-;-;-;-;-;-;-;-;-;-;-;-;-;-
1514101016360;-;-;4.8559265;-1.404007;-3.3344421;-;-;-;-;-;-;-;-;-;-;-;-;-;-;-
1514101016381;-;-;5.1013336;-0.9790344;-2.7382813;-;-;-;-;-;-;-;-;-;-;-;-;-;-;-
1514101016401;-;-;6.5198975;-0.85214233;-2.649704;-;-;-;-;-;-;-;-;-;-;-;-;-;-;-
1514101016421;-;-;7.2585144;-0.9754486;-2.491684;-;-;-;-;-;-;-;-;-;-;-;-;-;-;-
1514101016442;-;-;7.4847565;-1.1849365;-2.029602;-;-;-;-;-;-;-;-;-;-;-;-;-;-;-
1514101016462;-;-;7.9384613;-1.6003265;-1.2622528;-;-;-;-;-;-;-;-;-;-;-;-;-;-;-
1514101016482;-;-;8.4687805;-2.3006287;-0.9522095;-;-;-;-;-;-;-;-;-;-;-;-;-;-;-
1514101016503;-;-;8.629196;-2.6801147;-1.3664093;-;-;-;-;-;-;-;-;-;-;-;-;-;-;-
1514101016522;-;-;9.261261;-2.5065308;-1.8500366;-;-;-;-;-;-;-;-;-;-;-;-;-;-;-
1514101016542;-;-;10.167465;-1.6075134;-2.2809906;-;-;-;-;-;-;-;-;-;-;-;-;-;-;-
1514101016562;-;-;10.883331;-0.20211792;-1.5615387;-;-;-;-;-;-;-;-;-;-;-;-;-;-;-
1514101016583;-;-;9.753265;0.9854126;-1.5280151;-;-;-;-;-;-;-;-;-;-;-;-;-;-;-
1514101016602;-;-;7.5242615;-0.26914978;-3.6828003;-;-;-;-;-;-;-;-;-;-;-;-;-;-;-
1514101016622;-;-;6.043457;-2.0336761;-1.618988;-;-;-;-;-;-;-;-;-;-;-;-;-;-;-
1514101016643;-;-;8.7656555;-1.3022614;-1.7817993;-;-;-;-;-;-;-;-;-;-;-;-;-;-;-
1514101016663;-;-;11.777573;-0.16381836;-9.45282;-;-;-;-;-;-;-;-;-;-;-;-;-;-;-
1514101016682;-;-;14.819397;-0.06564331;-10.558945;-;-;-;-;-;-;-;-;-;-;-;-;-;-;-
1514101016702;-;-;15.251556;-0.31584167;-7.0442505;-;-;-;-;-;-;-;-;-;-;-;-;-;-;-
1514101016723;-;-;10.79834;1.101532;-5.987213;-;-;-;-;-;-;-;-;-;-;-;-;-;-;-
1514101016744;-;-;6.791641;2.5883179;-5.333603;-;-;-;-;-;-;-;-;-;-;-;-;-;-;-
1514101016764;-;-;5.860306;1.9059753;-6.1548157;-;-;-;-;-;-;-;-;-;-;-;-;-;-;-
1514101016784;-;-;5.394623;0.36291504;-5.811249;-;-;-;-;-;-;-;-;-;-;-;-;-;-;-
1514101016804;-;-;6.5390472;-0.26437378;-4.677582;-;-;-;-;-;-;-;-;-;-;-;-;-;-;-
1514101016824;-;-;7.8091736;-0.15184021;-3.661255;-;-;-;-;-;-;-;-;-;-;-;-;-;-;-
1514101016845;-;-;8.98233;-0.19013977;-4.184387;-;-;-;-;-;-;-;-;-;-;-;-;-;-;-
1514101016865;-;-;9.230133;0.40960693;-4.073044;-;-;-;-;-;-;-;-;-;-;-;-;-;-;-
1514101016885;-;-;8.837494;0.3892517;-3.645691;-;-;-;-;-;-;-;-;-;-;-;-;-;-;-
1514101016906;-;-;7.4165344;-0.24281311;-2.63414;-;-;-;-;-;-;-;-;-;-;-;-;-;-;-
1514101016926;-;-;6.1918945;-0.5157623;-1.8488312;-;-;-;-;-;-;-;-;-;-;-;-;-;-;-
1514101016947;-;-;5.569397;-0.11114502;-1.9182739;-;-;-;-;-;-;-;-;-;-;-;-;-;-;-
1514101016968;-;-;5.4724426;0.9483032;-1.4107056;-;-;-;-;-;-;-;-;-;-;-;-;-;-;-
1514101016988;-;-;5.9907837;2.0089264;-0.9402313;-;-;-;-;-;-;-;-;-;-;-;-;-;-;-
1514101017008;-;-;6.956848;1.8269653;-1.0443878;-;-;-;-;-;-;-;-;-;-;-;-;-;-;-
1514101017029;-;-;8.599258;1.0979309;-1.0288239;-;-;-;-;-;-;-;-;-;-;-;-;-;-;-
1514101017049;-;-;9.954376;-0.31584167;-0.7199707;-;-;-;-;-;-;-;-;-;-;-;-;-;-;-
1514101017069;-;-;9.717361;-1.3190155;-0.5056915;-;-;-;-;-;-;-;-;-;-;-;-;-;-;-
1514101017089;-;-;8.897339;-1.743988;-1.2622528;-;-;-;-;-;-;-;-;-;-;-;-;-;-;-
1514101017110;-;-;8.1719055;-1.577591;-2.7598267;-;-;-;-;-;-;-;-;-;-;-;-;-;-;-
1514101017130;-;-;8.7764435;-0.40802002;-1.9781189;-;-;-;-;-;-;-;-;-;-;-;-;-;-;-
1514101017150;-;-;11.356186;2.260315;-1.3017578;-;-;-;-;-;-;-;-;-;-;-;-;-;-;-
1514101017171;-;-;12.481461;4.8831635;-6.3714905;-;-;-;-;-;-;-;-;-;-;-;-;-;-;-
1514101017191;-;-;9.598846;7.161255;-13.113556;-;-;-;-;-;-;-;-;-;-;-;-;-;-;-
1514101017211;-;-;6.517502;2.7236023;-6.8335724;-;-;-;-;-;-;-;-;-;-;-;-;-;-;-
1514101017231;-;-;6.561798;-3.1625519;-5.2138824;-;-;-;-;-;-;-;-;-;-;-;-;-;-;-
1514101017252;-;-;9.14035;-4.274658;-7.9253235;-;-;-;-;-;-;-;-;-;-;-;-;-;-;-
1514101017271;-;-;9.878967;-1.6087189;-6.4911957;-;-;-;-;-;-;-;-;-;-;-;-;-;-;-
1514101017291;-;-;9.133179;1.9670258;-5.6436462;-;-;-;-;-;-;-;-;-;-;-;-;-;-;-
1514101017312;-;-;9.658707;3.0611725;-4.982849;-;-;-;-;-;-;-;-;-;-;-;-;-;-;-
1514101017332;-;-;10.356613;1.3576965;-4.508789;-;-;-;-;-;-;-;-;-;-;-;-;-;-;-
1514101017353;-;-;10.14711;-0.3469696;-5.9333496;-;-;-;-;-;-;-;-;-;-;-;-;-;-;-
1514101017372;-;-;7.969589;-1.5273132;-5.441345;-;-;-;-;-;-;-;-;-;-;-;-;-;-;-
1514101017392;-;-;5.2856903;-2.3401337;-4.365143;-;-;-;-;-;-;-;-;-;-;-;-;-;-;-
1514101017412;-;-;3.9185944;-2.8919983;-4.2933197;-;-;-;-;-;-;-;-;-;-;-;-;-;-;-
1514101017432;-;-;4.446518;-2.581955;-4.6596375;-;-;-;-;-;-;-;-;-;-;-;-;-;-;-
1514101017453;-;-;7.154358;-1.8565063;-3.6923676;-;-;-;-;-;-;-;-;-;-;-;-;-;-;-
1514101017473;-;-;9.020645;-2.080368;-3.3152924;-;-;-;-;-;-;-;-;-;-;-;-;-;-;-
1514101017493;-;-;8.727356;-3.1050873;-3.2015686;-;-;-;-;-;-;-;-;-;-;-;-;-;-;-
1514101017513;-;-;7.861847;-3.3792267;-2.2366943;-;-;-;-;-;-;-;-;-;-;-;-;-;-;-
1514101017533;-;-;7.0190887;-2.590332;-2.230713;-;-;-;-;-;-;-;-;-;-;-;-;-;-;-
1514101017554;-;-;7.2106323;-1.7631378;-2.5024567;-;-;-;-;-;-;-;-;-;-;-;-;-;-;-
1514101017573;-;-;7.904953;-1.6374359;-2.4090881;-;-;-;-;-;-;-;-;-;-;-;-;-;-;-
1514101017593;-;-;9.094864;-1.617096;-2.6389313;-;-;-;-;-;-;-;-;-;-;-;-;-;-;-
1514101017613;-;-;10.081268;-2.071991;-2.4186554;-;-;-;-;-;-;-;-;-;-;-;-;-;-;-
1514101017633;-;-;10.677429;-3.0081177;-2.6269531;-;-;-;-;-;-;-;-;-;-;-;-;-;-;-
1514101017654;-;-;9.306747;-3.8664398;-2.9082794;-;-;-;-;-;-;-;-;-;-;-;-;-;-;-
1514101017674;-;-;7.5877075;-3.7491302;-1.9062958;-;-;-;-;-;-;-;-;-;-;-;-;-;-;-
1514101017694;-;-;8.382584;-2.1893005;-5.4700623;-;-;-;-;-;-;-;-;-;-;-;-;-;-;-
1514101017715;-;-;10.895309;2.1441956;-9.984329;-;-;-;-;-;-;-;-;-;-;-;-;-;-;-
1514101017735;-;-;11.297531;3.9769592;-8.375427;-;-;-;-;-;-;-;-;-;-;-;-;-;-;-
1514101017755;-;-;9.468353;2.7295837;-4.246628;-;-;-;-;-;-;-;-;-;-;-;-;-;-;-
1514101017776;-;-;8.0138855;0.42396545;-6.4468994;-;-;-;-;-;-;-;-;-;-;-;-;-;-;-
1514101017796;-;-;7.9193115;-1.0580444;-8.337128;-;-;-;-;-;-;-;-;-;-;-;-;-;-;-
1514101017816;-;-;8.970367;-1.5739899;-5.288101;-;-;-;-;-;-;-;-;-;-;-;-;-;-;-
1514101017836;-;-;10.509842;-1.3704834;-3.8444061;-;-;-;-;-;-;-;-;-;-;-;-;-;-;-
1514101017856;-;-;11.157471;-1.2005005;-3.3440094;-;-;-;-;-;-;-;-;-;-;-;-;-;-;-
1514101017877;-;-;11.684189;-0.8760834;-2.895111;-;-;-;-;-;-;-;-;-;-;-;-;-;-;-
1514101017897;-;-;11.1766205;-0.0045928955;-2.6161804;-;-;-;-;-;-;-;-;-;-;-;-;-;-;-
1514101017917;-;-;9.027832;0.76394653;-2.4138641;-;-;-;-;-;-;-;-;-;-;-;-;-;-;-
1514101017937;-;-;6.5677795;1.4199524;-1.9206696;-;-;-;-;-;-;-;-;-;-;-;-;-;-;-
1514101017957;-;-;4.769745;1.6881104;-1.5639343;-;-;-;-;-;-;-;-;-;-;-;-;-;-;-
1514101017977;-;-;4.062256;1.2224274;-1.2909851;-;-;-;-;-;-;-;-;-;-;-;-;-;-;-
1514101017997;-;-;5.533493;0.35932922;-1.4262543;-;-;-;-;-;-;-;-;-;-;-;-;-;-;-
1514101018018;-;-;6.163162;0.39164734;-1.9278412;-;-;-;-;-;-;-;-;-;-;-;-;-;-;-
1514101018038;-;-;6.245758;1.2918701;-1.926651;-;-;-;-;-;-;-;-;-;-;-;-;-;-;-
1514101018058;-;-;6.596512;2.409958;-1.0443878;-;-;-;-;-;-;-;-;-;-;-;-;-;-;-
1514101018079;-;-;8.219788;2.8313293;-0.6122284;-;-;-;-;-;-;-;-;-;-;-;-;-;-;-
1514101018098;-;-;10.708557;3.0527954;-1.2251434;-;-;-;-;-;-;-;-;-;-;-;-;-;-;-
1514101018118;-;-;12.476669;3.9458313;-2.014038;-;-;-;-;-;-;-;-;-;-;-;-;-;-;-
1514101018139;-;-;12.805878;4.861618;-1.8189087;-;-;-;-;-;-;-;-;-;-;-;-;-;-;-
1514101018158;-;-;10.818695;4.925064;-1.4059143;-;-;-;-;-;-;-;-;-;-;-;-;-;-;-
1514101018178;-;-;10.497864;2.5823364;-4.6799774;-;-;-;-;-;-;-;-;-;-;-;-;-;-;-
1514101018199;-;-;13.950302;4.0021057;-4.4633026;-;-;-;-;-;-;-;-;-;-;-;-;-;-;-
1514101018218;-;-;14.146637;2.450653;-6.7318115;-;-;-;-;-;-;-;-;-;-;-;-;-;-;-
1514101018238;-;-;8.90094;2.3070068;-8.520279;-;-;-;-;-;-;-;-;-;-;-;-;-;-;-
1514101018258;-;-;5.853119;2.469818;-7.7996216;-;-;-;-;-;-;-;-;-;-;-;-;-;-;-
1514101018279;-;-;4.106552;-0.64505005;-6.978409;-;-;-;-;-;-;-;-;-;-;-;-;-;-;-
1514101018299;-;-;6.746155;-3.266693;-6.42894;-;-;-;-;-;-;-;-;-;-;-;-;-;-;-
1514101018319;-;-;9.529419;-1.7092743;-6.7090607;-;-;-;-;-;-;-;-;-;-;-;-;-;-;-
1514101018341;-;-;11.611176;1.837738;-6.147629;-;-;-;-;-;-;-;-;-;-;-;-;-;-;-
1514101018361;-;-;9.922058;3.2790527;-4.7577972;-;-;-;-;-;-;-;-;-;-;-;-;-;-;-
1514101018382;-;-;8.299988;2.4853668;-3.2446594;-;-;-;-;-;-;-;-;-;-;-;-;-;-;-
1514101018402;-;-;6.51033;0.18214417;-2.6353302;-;-;-;-;-;-;-;-;-;-;-;-;-;-;-
1514101018422;-;-;4.754181;-2.0791779;-2.4653473;-;-;-;-;-;-;-;-;-;-;-;-;-;-;-
1514101018443;-;-;3.7414246;-3.8281403;-1.7039948;-;-;-;-;-;-;-;-;-;-;-;-;-;-;-
1514101018463;-;-;3.6037598;-4.585907;-1.3580322;-;-;-;-;-;-;-;-;-;-;-;-;-;-;-
1514101018483;-;-;5.004364;-4.3548584;-2.0750885;-;-;-;-;-;-;-;-;-;-;-;-;-;-;-
1514101018504;-;-;7.0382385;-2.4263306;-2.1110077;-;-;-;-;-;-;-;-;-;-;-;-;-;-;-
1514101018524;-;-;7.7732697;-0.80307007;-2.642517;-;-;-;-;-;-;-;-;-;-;-;-;-;-;-
1514101018544;-;-;5.7932587;-1.1478271;-3.559494;-;-;-;-;-;-;-;-;-;-;-;-;-;-;-
1514101018564;-;-;5.0726013;-2.432312;-3.9126434;-;-;-;-;-;-;-;-;-;-;-;-;-;-;-
1514101018585;-;-;7.197464;-3.744339;-4.1616364;-;-;-;-;-;-;-;-;-;-;-;-;-;-;-
1514101018605;-;-;9.917267;-3.7850342;-3.6408997;-;-;-;-;-;-;-;-;-;-;-;-;-;-;-
1514101018626;-;-;12.04332;-2.949463;-2.764618;-;-;-;-;-;-;-;-;-;-;-;-;-;-;-
1514101018646;-;-;12.239655;-3.1026917;-4.228668;-;-;-;-;-;-;-;-;-;-;-;-;-;-;-
1514101018666;-;-;12.997406;-3.4259033;-4.970871;-;-;-;-;-;-;-;-;-;-;-;-;-;-;-
1514101018687;-;-;14.052063;-2.2683105;-5.397049;-;-;-;-;-;-;-;-;-;-;-;-;-;-;-
1514101018707;-;-;14.109528;-1.2280273;-5.828003;-;-;-;-;-;-;-;-;-;-;-;-;-;-;-
1514101018727;-;-;14.642227;-1.9031982;-10.232132;-;-;-;-;-;-;-;-;-;-;-;-;-;-;-
1514101018747;-;-;13.72525;-4.9761505;-7.199875;-;-;-;-;-;-;-;-;-;-;-;-;-;-;-
1514101018768;-;-;7.0693665;-4.4075317;-5.52034;-;-;-;-;-;-;-;-;-;-;-;-;-;-;-
1514101018788;-;-;4.5363007;-3.052414;-7.6380157;-;-;-;-;-;-;-;-;-;-;-;-;-;-;-
1514101018808;-;-;5.023529;-1.9211578;-8.204239;-;-;-;-;-;-;-;-;-;-;-;-;-;-;-
1514101018829;-;-;5.2509766;0.107925415;-5.398239;-;-;-;-;-;-;-;-;-;-;-;-;-;-;-
1514101018849;-;-;5.533493;0.99858093;-3.456543;-;-;-;-;-;-;-;-;-;-;-;-;-;-;-
1514101018869;-;-;5.2126617;0.08758545;-2.0032654;-;-;-;-;-;-;-;-;-;-;-;-;-;-;-
1514101018889;-;-;4.3363953;-0.76594543;-3.2063446;-;-;-;-;-;-;-;-;-;-;-;-;-;-;-
1514101018909;-;-;4.9385376;-1.4183655;-3.2099457;-;-;-;-;-;-;-;-;-;-;-;-;-;-;-
1514101018930;-;-;5.9620514;-1.2627563;-3.3344421;-;-;-;-;-;-;-;-;-;-;-;-;-;-;-
1514101018950;-;-;5.7142487;0.4874115;-3.5379486;-;-;-;-;-;-;-;-;-;-;-;-;-;-;-
1514101018970;-;-;4.858322;2.5392456;-3.7067413;-;-;-;-;-;-;-;-;-;-;-;-;-;-;-
1514101018991;-;-;5.138443;3.7016296;-3.433792;-;-;-;-;-;-;-;-;-;-;-;-;-;-;-
1514101019010;-;-;6.2864685;3.1294098;-3.0938263;-;-;-;-;-;-;-;-;-;-;-;-;-;-;-
1514101019030;-;-;7.9205017;0.83218384;-4.0742493;-;-;-;-;-;-;-;-;-;-;-;-;-;-;-
1514101019050;-;-;8.021072;-0.3697052;-4.9613037;-;-;-;-;-;-;-;-;-;-;-;-;-;-;-
1514101019071;-;-;7.6655273;-0.023742676;-4.1113586;-;-;-;-;-;-;-;-;-;-;-;-;-;-;-
1514101019091;-;-;8.334702;1.1003265;-2.6748352;-;-;-;-;-;-;-;-;-;-;-;-;-;-;-
1514101019111;-;-;9.054169;1.9849854;-1.6764526;-;-;-;-;-;-;-;-;-;-;-;-;-;-;-
1514101019131;-;-;9.628769;3.141388;-2.1696625;-;-;-;-;-;-;-;-;-;-;-;-;-;-;-
1514101019152;-;-;10.476318;3.299408;-3.176422;-;-;-;-;-;-;-;-;-;-;-;-;-;-;-
1514101019172;-;-;9.896927;2.244751;-3.654068;-;-;-;-;-;-;-;-;-;-;-;-;-;-;-
1514101019192;-;-;10.415268;0.43832397;-8.432892;-;-;-;-;-;-;-;-;-;-;-;-;-;-;-
1514101019212;-;-;11.551315;1.9825897;-12.085251;-;-;-;-;-;-;-;-;-;-;-;-;-;-;-
