TimeStamp[ms];Prox[Cm];Lux[lux];AccX[m/s^2];AccY[m/s^2];AccZ[m/s^2];GyroX[rad/s];GyroY[rad/s];GyroZ[rad/s];MagnX[uT];MagnY[uT];MagnZ[uT];OrienYaw[degrees];OrienPitch[degrees];OrienRoll[degrees];Press[Pa];Temp[C°];Batt[%];Lat;Lng;Speed[m/s]
1514105908136;-;-;9.1523285;-2.4706268;0.9020996;-;-;-;-;-;-;-;-;-;-;-;-;-;-;-
1514105908137;-;-;9.1523285;-2.4706268;0.9020996;-;-;-;-;-;-;-;-;-;-;-;-;-;-;-
1514105908148;-;-;8.622009;-2.0767822;0.77041626;-;-;-;-;-;-;-;-;-;-;-;-;-;-;-
1514105908168;-;-;9.003891;-1.8960114;0.92962646;-;-;-;-;-;-;-;-;-;-;-;-;-;-;-
1514105908190;-;-;9.149933;-1.5261078;0.9451904;-;-;-;-;-;-;-;-;-;-;-;-;-;-;-
1514105908210;-;-;9.774811;-2.1653595;0.57289124;-;-;-;-;-;-;-;-;-;-;-;-;-;-;-
1514105908230;-;-;9.295975;-2.1366272;0.072509766;-;-;-;-;-;-;-;-;-;-;-;-;-;-;-
1514105908251;-;-;9.056564;-1.9798126;0.88414;-;-;-;-;-;-;-;-;-;-;-;-;-;-;-
1514105908271;-;-;8.862625;-1.9391174;0.5226135;-;-;-;-;-;-;-;-;-;-;-;-;-;-;-
1514105908292;-;-;9.169083;-1.7894745;0.49269104;-;-;-;-;-;-;-;-;-;-;-;-;-;-;-
1514105908312;-;-;9.181061;-1.9295349;0.23651123;-;-;-;-;-;-;-;-;-;-;-;-;-;-;-
1514105908332;-;-;9.102051;-2.0815735;0.19221497;-;-;-;-;-;-;-;-;-;-;-;-;-;-;-
1514105908353;-;-;9.041;-2.1258545;0.4328308;-;-;-;-;-;-;-;-;-;-;-;-;-;-;-
1514105908387;-;-;9.193024;-2.016922;0.35144043;-;-;-;-;-;-;-;-;-;-;-;-;-;-;-
1514105908392;-;-;9.147537;-1.9355164;0.3538208;-;-;-;-;-;-;-;-;-;-;-;-;-;-;-
1514105908413;-;-;9.193024;-1.7176514;0.3610077;-;-;-;-;-;-;-;-;-;-;-;-;-;-;-
1514105908433;-;-;9.367798;-1.9438934;-0.042419434;-;-;-;-;-;-;-;-;-;-;-;-;-;-;-
1514105908453;-;-;9.133179;-1.8337708;0.49627686;-;-;-;-;-;-;-;-;-;-;-;-;-;-;-
1514105908473;-;-;8.965576;-1.9235535;0.52381897;-;-;-;-;-;-;-;-;-;-;-;-;-;-;-
1514105908494;-;-;9.268448;-2.1150818;0.8518219;-;-;-;-;-;-;-;-;-;-;-;-;-;-;-
1514105908514;-;-;8.641159;-1.8445435;0.8230896;-;-;-;-;-;-;-;-;-;-;-;-;-;-;-
1514105908535;-;-;8.0138855;-1.8684845;-0.01008606;-;-;-;-;-;-;-;-;-;-;-;-;-;-;-
1514105908555;-;-;9.592865;-2.1964874;0.18025208;-;-;-;-;-;-;-;-;-;-;-;-;-;-;-
1514105908575;-;-;9.638351;-2.0851593;0.2736206;-;-;-;-;-;-;-;-;-;-;-;-;-;-;-
1514105908595;-;-;9.245697;-2.4730225;1.1870117;-;-;-;-;-;-;-;-;-;-;-;-;-;-;-
1514105908616;-;-;9.3893585;-2.2395782;1.5976105;-;-;-;-;-;-;-;-;-;-;-;-;-;-;-
1514105908636;-;-;8.718979;-2.3269653;1.5760651;-;-;-;-;-;-;-;-;-;-;-;-;-;-;-
1514105908655;-;-;8.703415;-1.5428772;0.95835876;-;-;-;-;-;-;-;-;-;-;-;-;-;-;-
1514105908675;-;-;9.510254;-1.9450989;0.45558167;-;-;-;-;-;-;-;-;-;-;-;-;-;-;-
1514105908696;-;-;8.466385;-1.9043884;0.66148376;-;-;-;-;-;-;-;-;-;-;-;-;-;-;-
1514105908716;-;-;8.422089;-1.8852386;0.9320221;-;-;-;-;-;-;-;-;-;-;-;-;-;-;-
1514105908737;-;-;9.845444;-2.174942;0.42565918;-;-;-;-;-;-;-;-;-;-;-;-;-;-;-
1514105908757;-;-;11.298721;-3.282257;-0.7283478;-;-;-;-;-;-;-;-;-;-;-;-;-;-;-
1514105908777;-;-;10.487091;-2.54245;1.8190765;-;-;-;-;-;-;-;-;-;-;-;-;-;-;-
1514105908798;-;-;7.317169;-1.1609955;-0.17408752;-;-;-;-;-;-;-;-;-;-;-;-;-;-;-
1514105908818;-;-;7.5398254;-0.7527771;-2.3193054;-;-;-;-;-;-;-;-;-;-;-;-;-;-;-
1514105908838;-;-;8.501099;-2.684906;-0.5236511;-;-;-;-;-;-;-;-;-;-;-;-;-;-;-
1514105908859;-;-;6.308014;-1.483017;1.6957703;-;-;-;-;-;-;-;-;-;-;-;-;-;-;-
1514105908880;-;-;7.2860413;-0.36132813;3.5572662;-;-;-;-;-;-;-;-;-;-;-;-;-;-;-
1514105908901;-;-;12.293518;-3.1206512;2.3422089;-;-;-;-;-;-;-;-;-;-;-;-;-;-;-
1514105908921;-;-;15.251556;-4.6708984;-1.3664093;-;-;-;-;-;-;-;-;-;-;-;-;-;-;-
1514105908942;-;-;8.553772;-3.0200958;-12.819077;-;-;-;-;-;-;-;-;-;-;-;-;-;-;-
1514105908962;-;-;7.454834;-2.3676758;4.4479065;-;-;-;-;-;-;-;-;-;-;-;-;-;-;-
1514105908982;-;-;10.22493;-2.3353577;7.247925;-;-;-;-;-;-;-;-;-;-;-;-;-;-;-
1514105909003;-;-;10.591248;-2.4011993;-0.3584442;-;-;-;-;-;-;-;-;-;-;-;-;-;-;-
1514105909023;-;-;8.616028;-2.4442902;-3.0662842;-;-;-;-;-;-;-;-;-;-;-;-;-;-;-
1514105909043;-;-;8.03064;-4.3871765;-8.724991;-;-;-;-;-;-;-;-;-;-;-;-;-;-;-
1514105909066;-;-;10.00705;-2.1091003;2.4738922;-;-;-;-;-;-;-;-;-;-;-;-;-;-;-
1514105909086;-;-;9.291183;-1.0903625;1.5305786;-;-;-;-;-;-;-;-;-;-;-;-;-;-;-
1514105909106;-;-;11.210144;-2.2359924;2.070465;-;-;-;-;-;-;-;-;-;-;-;-;-;-;-
1514105909126;-;-;8.10965;-1.8134155;-0.5104828;-;-;-;-;-;-;-;-;-;-;-;-;-;-;-
1514105909146;-;-;7.1328125;-2.0624084;2.6343079;-;-;-;-;-;-;-;-;-;-;-;-;-;-;-
1514105909167;-;-;7.8091736;-2.009735;2.1075745;-;-;-;-;-;-;-;-;-;-;-;-;-;-;-
1514105909188;-;-;8.130005;-1.8445435;0.8697815;-;-;-;-;-;-;-;-;-;-;-;-;-;-;-
1514105909208;-;-;8.970367;-1.858902;0.64711;-;-;-;-;-;-;-;-;-;-;-;-;-;-;-
1514105909228;-;-;9.289993;-2.174942;-0.2686615;-;-;-;-;-;-;-;-;-;-;-;-;-;-;-
1514105909248;-;-;9.422867;-1.9343262;-0.23394775;-;-;-;-;-;-;-;-;-;-;-;-;-;-;-
1514105909269;-;-;11.098816;-2.9997406;2.7001495;-;-;-;-;-;-;-;-;-;-;-;-;-;-;-
1514105909288;-;-;9.0733185;-1.2998657;0.87934875;-;-;-;-;-;-;-;-;-;-;-;-;-;-;-
1514105909308;-;-;8.308365;-0.9622803;-0.07473755;-;-;-;-;-;-;-;-;-;-;-;-;-;-;-
1514105909329;-;-;9.458786;-0.5061798;-0.0053100586;-;-;-;-;-;-;-;-;-;-;-;-;-;-;-
1514105909348;-;-;9.240906;-0.51216125;0.8374634;-;-;-;-;-;-;-;-;-;-;-;-;-;-;-
1514105909368;-;-;8.460403;-0.12789917;1.1091919;-;-;-;-;-;-;-;-;-;-;-;-;-;-;-
1514105909389;-;-;10.5720825;-1.9187622;3.5225525;-;-;-;-;-;-;-;-;-;-;-;-;-;-;-
1514105909408;-;-;9.89093;2.8480988;14.940506;-;-;-;-;-;-;-;-;-;-;-;-;-;-;-
1514105909429;-;-;2.9848633;-8.627319;-39.205566;-;-;-;-;-;-;-;-;-;-;-;-;-;-;-
1514105909450;-;-;9.931641;-6.4892883;2.2703857;-;-;-;-;-;-;-;-;-;-;-;-;-;-;-
1514105909471;-;-;13.466675;6.15448;-12.21933;-;-;-;-;-;-;-;-;-;-;-;-;-;-;-
1514105909492;-;-;8.8997345;0.90400696;2.3649597;-;-;-;-;-;-;-;-;-;-;-;-;-;-;-
1514105909512;-;-;10.181839;3.11026;0.6459198;-;-;-;-;-;-;-;-;-;-;-;-;-;-;-
1514105909532;-;-;8.478363;1.7527466;0.28559875;-;-;-;-;-;-;-;-;-;-;-;-;-;-;-
1514105909552;-;-;9.513855;1.8221741;-1.9302368;-;-;-;-;-;-;-;-;-;-;-;-;-;-;-
1514105909572;-;-;9.922058;0.21208191;-0.93066406;-;-;-;-;-;-;-;-;-;-;-;-;-;-;-
1514105909593;-;-;10.142334;-0.22366333;1.45755;-;-;-;-;-;-;-;-;-;-;-;-;-;-;-
1514105909613;-;-;10.649902;-0.54689026;0.602829;-;-;-;-;-;-;-;-;-;-;-;-;-;-;-
1514105909633;-;-;10.021423;1.7491608;1.2444763;-;-;-;-;-;-;-;-;-;-;-;-;-;-;-
1514105909654;-;-;7.8750153;2.0089264;-0.88397217;-;-;-;-;-;-;-;-;-;-;-;-;-;-;-
1514105909673;-;-;6.110489;1.6617737;0.52500916;-;-;-;-;-;-;-;-;-;-;-;-;-;-;-
1514105909693;-;-;7.493149;2.018509;0.43043518;-;-;-;-;-;-;-;-;-;-;-;-;-;-;-
1514105909713;-;-;9.020645;0.5783844;0.25805664;-;-;-;-;-;-;-;-;-;-;-;-;-;-;-
1514105909734;-;-;9.082901;-0.7958832;-0.025650024;-;-;-;-;-;-;-;-;-;-;-;-;-;-;-
1514105909753;-;-;10.050156;1.8616791;0.22215271;-;-;-;-;-;-;-;-;-;-;-;-;-;-;-
1514105909773;-;-;10.270416;0.2348175;0.75006104;-;-;-;-;-;-;-;-;-;-;-;-;-;-;-
1514105909793;-;-;9.230133;0.11631775;-1.3987274;-;-;-;-;-;-;-;-;-;-;-;-;-;-;-
1514105909814;-;-;7.411743;2.528473;0.53578186;-;-;-;-;-;-;-;-;-;-;-;-;-;-;-
1514105909834;-;-;10.692993;-0.41400146;0.6758423;-;-;-;-;-;-;-;-;-;-;-;-;-;-;-
1514105909854;-;-;9.811935;-1.1358643;0.44480896;-;-;-;-;-;-;-;-;-;-;-;-;-;-;-
1514105909875;-;-;9.041;-1.1083221;-0.063964844;-;-;-;-;-;-;-;-;-;-;-;-;-;-;-
1514105909895;-;-;8.966782;-0.7851105;0.93562317;-;-;-;-;-;-;-;-;-;-;-;-;-;-;-
1514105909915;-;-;8.987122;0.5269165;1.7987213;-;-;-;-;-;-;-;-;-;-;-;-;-;-;-
1514105909936;-;-;9.232529;-0.68814087;-0.9797363;-;-;-;-;-;-;-;-;-;-;-;-;-;-;-
1514105909956;-;-;8.572922;0.43234253;0.3490448;-;-;-;-;-;-;-;-;-;-;-;-;-;-;-
1514105909976;-;-;8.887772;1.5971222;0.21496582;-;-;-;-;-;-;-;-;-;-;-;-;-;-;-
1514105909996;-;-;8.750107;1.5264893;-0.07952881;-;-;-;-;-;-;-;-;-;-;-;-;-;-;-
1514105910017;-;-;10.185425;-1.3968201;-0.5727234;-;-;-;-;-;-;-;-;-;-;-;-;-;-;-
1514105910038;-;-;8.009094;-0.79348755;-1.516037;-;-;-;-;-;-;-;-;-;-;-;-;-;-;-
1514105910057;-;-;9.762848;-2.1138916;-2.7263184;-;-;-;-;-;-;-;-;-;-;-;-;-;-;-
1514105910078;-;-;9.653915;-2.8800354;-0.44703674;-;-;-;-;-;-;-;-;-;-;-;-;-;-;-
1514105910098;-;-;8.314362;-3.1924744;-2.7442627;-;-;-;-;-;-;-;-;-;-;-;-;-;-;-
1514105910118;-;-;7.8355103;-2.0193176;-1.3783722;-;-;-;-;-;-;-;-;-;-;-;-;-;-;-
1514105910138;-;-;8.872208;-1.4770355;-1.5926514;-;-;-;-;-;-;-;-;-;-;-;-;-;-;-
1514105910159;-;-;8.977554;-0.49061584;-1.7913818;-;-;-;-;-;-;-;-;-;-;-;-;-;-;-
1514105910179;-;-;8.392166;0.675354;-2.005661;-;-;-;-;-;-;-;-;-;-;-;-;-;-;-
1514105910199;-;-;8.689041;1.7814789;-2.1433258;-;-;-;-;-;-;-;-;-;-;-;-;-;-;-
1514105910220;-;-;8.337097;2.5105133;-1.7470856;-;-;-;-;-;-;-;-;-;-;-;-;-;-;-
1514105910240;-;-;9.254074;2.670929;-2.630539;-;-;-;-;-;-;-;-;-;-;-;-;-;-;-
1514105910260;-;-;10.218948;0.64901733;-2.6329346;-;-;-;-;-;-;-;-;-;-;-;-;-;-;-
1514105910280;-;-;8.715378;-0.5780029;-2.3372498;-;-;-;-;-;-;-;-;-;-;-;-;-;-;-
1514105910301;-;-;8.015076;-0.60913086;-1.9075012;-;-;-;-;-;-;-;-;-;-;-;-;-;-;-
1514105910321;-;-;8.18985;-0.15423584;-1.689621;-;-;-;-;-;-;-;-;-;-;-;-;-;-;-
1514105910341;-;-;8.669891;0.5736084;-1.8105316;-;-;-;-;-;-;-;-;-;-;-;-;-;-;-
1514105910362;-;-;9.0733185;0.91596985;-1.9972839;-;-;-;-;-;-;-;-;-;-;-;-;-;-;-
1514105910383;-;-;9.199005;1.0117493;-2.2366943;-;-;-;-;-;-;-;-;-;-;-;-;-;-;-
1514105910402;-;-;9.826294;0.8237915;-2.5407562;-;-;-;-;-;-;-;-;-;-;-;-;-;-;-
1514105910422;-;-;9.906494;0.6669769;-2.55513;-;-;-;-;-;-;-;-;-;-;-;-;-;-;-
1514105910443;-;-;9.574905;0.7400055;-2.3827515;-;-;-;-;-;-;-;-;-;-;-;-;-;-;-
1514105910462;-;-;8.736938;0.73880005;-2.563507;-;-;-;-;-;-;-;-;-;-;-;-;-;-;-
1514105910482;-;-;9.067337;0.69929504;-2.697586;-;-;-;-;-;-;-;-;-;-;-;-;-;-;-
1514105910503;-;-;8.418503;0.68133545;-2.5874481;-;-;-;-;-;-;-;-;-;-;-;-;-;-;-
1514105910523;-;-;7.9384613;0.71006775;-2.4940796;-;-;-;-;-;-;-;-;-;-;-;-;-;-;-
1514105910543;-;-;7.5278625;0.91477966;-2.8125;-;-;-;-;-;-;-;-;-;-;-;-;-;-;-
1514105910563;-;-;7.7445374;1.1374359;-3.2458496;-;-;-;-;-;-;-;-;-;-;-;-;-;-;-
1514105910584;-;-;7.1878815;1.2391968;-3.2602234;-;-;-;-;-;-;-;-;-;-;-;-;-;-;-
1514105910604;-;-;6.8323517;1.0895538;-2.9178467;-;-;-;-;-;-;-;-;-;-;-;-;-;-;-
1514105910624;-;-;6.600113;1.0931396;-3.3152924;-;-;-;-;-;-;-;-;-;-;-;-;-;-;-
1514105910645;-;-;6.810791;1.0261078;-4.1544495;-;-;-;-;-;-;-;-;-;-;-;-;-;-;-
1514105910665;-;-;6.557007;0.9997711;-4.425003;-;-;-;-;-;-;-;-;-;-;-;-;-;-;-
1514105910685;-;-;5.7226257;1.1949005;-4.2777557;-;-;-;-;-;-;-;-;-;-;-;-;-;-;-
1514105910706;-;-;5.2545624;1.1529999;-3.7043457;-;-;-;-;-;-;-;-;-;-;-;-;-;-;-
1514105910726;-;-;4.6787567;1.1960907;-3.8468018;-;-;-;-;-;-;-;-;-;-;-;-;-;-;-
1514105910747;-;-;4.3303986;0.9566803;-3.7306824;-;-;-;-;-;-;-;-;-;-;-;-;-;-;-
1514105910767;-;-;3.5403137;1.0895538;-3.2255096;-;-;-;-;-;-;-;-;-;-;-;-;-;-;-
1514105910787;-;-;3.3415985;1.7515564;-1.8189087;-;-;-;-;-;-;-;-;-;-;-;-;-;-;-
1514105910808;-;-;3.8563538;1.4893799;-0.7283478;-;-;-;-;-;-;-;-;-;-;-;-;-;-;-
1514105910828;-;-;4.277725;0.15701294;-1.2119751;-;-;-;-;-;-;-;-;-;-;-;-;-;-;-
1514105910848;-;-;5.1635895;-0.9766388;-2.2522583;-;-;-;-;-;-;-;-;-;-;-;-;-;-;-
1514105910869;-;-;5.596939;-1.2675323;-5.1983337;-;-;-;-;-;-;-;-;-;-;-;-;-;-;-
1514105910888;-;-;6.9628296;-0.9622803;-8.058197;-;-;-;-;-;-;-;-;-;-;-;-;-;-;-
1514105910909;-;-;9.094864;0.31622314;-9.061371;-;-;-;-;-;-;-;-;-;-;-;-;-;-;-
1514105910929;-;-;7.3650513;2.881607;-7.9564514;-;-;-;-;-;-;-;-;-;-;-;-;-;-;-
1514105910949;-;-;7.9863434;2.7535248;-7.649994;-;-;-;-;-;-;-;-;-;-;-;-;-;-;-
1514105910970;-;-;8.669891;0.9578705;-6.8359528;-;-;-;-;-;-;-;-;-;-;-;-;-;-;-
1514105910990;-;-;8.459198;1.2236328;-7.4584503;-;-;-;-;-;-;-;-;-;-;-;-;-;-;-
1514105911010;-;-;8.282028;2.4650269;-8.607666;-;-;-;-;-;-;-;-;-;-;-;-;-;-;-
1514105911030;-;-;7.6427765;3.024063;-8.912933;-;-;-;-;-;-;-;-;-;-;-;-;-;-;-
1514105911051;-;-;8.480759;1.6928864;-9.584503;-;-;-;-;-;-;-;-;-;-;-;-;-;-;-
1514105911071;-;-;8.896149;1.611496;-10.178268;-;-;-;-;-;-;-;-;-;-;-;-;-;-;-
1514105911091;-;-;8.382584;1.4450989;-8.320358;-;-;-;-;-;-;-;-;-;-;-;-;-;-;-
1514105911112;-;-;8.546585;1.0488586;-6.3439484;-;-;-;-;-;-;-;-;-;-;-;-;-;-;-
1514105911132;-;-;10.093246;0.6549988;-5.285721;-;-;-;-;-;-;-;-;-;-;-;-;-;-;-
1514105911152;-;-;13.3302;0.50416565;-5.9836273;-;-;-;-;-;-;-;-;-;-;-;-;-;-;-
1514105911172;-;-;15.863266;1.0081482;-6.378662;-;-;-;-;-;-;-;-;-;-;-;-;-;-;-
1514105911193;-;-;16.282257;1.571991;-9.329529;-;-;-;-;-;-;-;-;-;-;-;-;-;-;-
1514105911213;-;-;14.230423;1.7120514;-10.426071;-;-;-;-;-;-;-;-;-;-;-;-;-;-;-
1514105911234;-;-;14.380066;2.0651855;-9.013489;-;-;-;-;-;-;-;-;-;-;-;-;-;-;-
1514105911253;-;-;11.298721;2.3345337;-6.25177;-;-;-;-;-;-;-;-;-;-;-;-;-;-;-
1514105911273;-;-;8.043808;1.0799713;-3.0076294;-;-;-;-;-;-;-;-;-;-;-;-;-;-;-
1514105911294;-;-;4.4201813;0.3569336;0.3789673;-;-;-;-;-;-;-;-;-;-;-;-;-;-;-
1514105911314;-;-;3.177597;-0.4559021;1.8861237;-;-;-;-;-;-;-;-;-;-;-;-;-;-;-
1514105911334;-;-;1.9254303;-1.0616302;3.1957397;-;-;-;-;-;-;-;-;-;-;-;-;-;-;-
1514105911355;-;-;4.587784;-0.95269775;1.8298492;-;-;-;-;-;-;-;-;-;-;-;-;-;-;-
1514105911375;-;-;8.234146;-0.17936707;-0.9151001;-;-;-;-;-;-;-;-;-;-;-;-;-;-;-
1514105911395;-;-;11.772781;0.16299438;-3.4469604;-;-;-;-;-;-;-;-;-;-;-;-;-;-;-
1514105911415;-;-;12.455124;0.78907776;-4.4226074;-;-;-;-;-;-;-;-;-;-;-;-;-;-;-
1514105911435;-;-;11.386108;1.169754;-4.2717743;-;-;-;-;-;-;-;-;-;-;-;-;-;-;-
1514105911455;-;-;10.677429;1.1039124;-2.5898438;-;-;-;-;-;-;-;-;-;-;-;-;-;-;-
1514105911476;-;-;9.977127;0.80703735;-1.0372009;-;-;-;-;-;-;-;-;-;-;-;-;-;-;-
1514105911497;-;-;9.147537;0.45388794;-0.3955536;-;-;-;-;-;-;-;-;-;-;-;-;-;-;-
1514105911517;-;-;8.220978;-0.39964294;-0.024459839;-;-;-;-;-;-;-;-;-;-;-;-;-;-;-
1514105911537;-;-;8.048599;-0.7671509;0.29637146;-;-;-;-;-;-;-;-;-;-;-;-;-;-;-
1514105911558;-;-;8.0533905;-0.5612488;0.4579773;-;-;-;-;-;-;-;-;-;-;-;-;-;-;-
1514105911578;-;-;8.4292755;-0.042907715;0.176651;-;-;-;-;-;-;-;-;-;-;-;-;-;-;-
1514105911598;-;-;8.873398;0.3964386;-0.47216797;-;-;-;-;-;-;-;-;-;-;-;-;-;-;-
1514105911619;-;-;8.997894;0.40481567;-0.8947449;-;-;-;-;-;-;-;-;-;-;-;-;-;-;-
1514105911639;-;-;8.940445;0.26834106;-0.7235565;-;-;-;-;-;-;-;-;-;-;-;-;-;-;-
1514105911659;-;-;9.151123;0.0049743652;-0.42907715;-;-;-;-;-;-;-;-;-;-;-;-;-;-;-
1514105911679;-;-;9.67186;-0.5720215;-0.63856506;-;-;-;-;-;-;-;-;-;-;-;-;-;-;-
1514105911700;-;-;9.740097;-0.59117126;-1.1353607;-;-;-;-;-;-;-;-;-;-;-;-;-;-;-
1514105911721;-;-;9.524628;-0.24281311;-1.1461334;-;-;-;-;-;-;-;-;-;-;-;-;-;-;-
1514105911740;-;-;9.319916;0.064834595;-0.98931885;-;-;-;-;-;-;-;-;-;-;-;-;-;-;-
1514105911761;-;-;9.537796;-0.1482544;-0.6014557;-;-;-;-;-;-;-;-;-;-;-;-;-;-;-
1514105911781;-;-;9.798767;-0.43196106;-0.50090027;-;-;-;-;-;-;-;-;-;-;-;-;-;-;-
1514105911801;-;-;9.88974;-0.32661438;-0.3045807;-;-;-;-;-;-;-;-;-;-;-;-;-;-;-
1514105911821;-;-;9.63356;0.057647705;0.065322876;-;-;-;-;-;-;-;-;-;-;-;-;-;-;-
1514105911841;-;-;9.388153;0.21687317;0.074905396;-;-;-;-;-;-;-;-;-;-;-;-;-;-;-
1514105911862;-;-;9.21817;0.10913086;-0.39315796;-;-;-;-;-;-;-;-;-;-;-;-;-;-;-
1514105911882;-;-;9.299576;0.26594543;-0.8253174;-;-;-;-;-;-;-;-;-;-;-;-;-;-;-
1514105911902;-;-;9.147537;0.5089569;-1.3065491;-;-;-;-;-;-;-;-;-;-;-;-;-;-;-
1514105911923;-;-;9.002686;0.48501587;-1.9122772;-;-;-;-;-;-;-;-;-;-;-;-;-;-;-
1514105911943;-;-;9.048172;0.24559021;-2.4234467;-;-;-;-;-;-;-;-;-;-;-;-;-;-;-
1514105911963;-;-;9.345062;-0.069244385;-2.7562408;-;-;-;-;-;-;-;-;-;-;-;-;-;-;-
1514105911984;-;-;9.724533;-0.026138306;-2.8711548;-;-;-;-;-;-;-;-;-;-;-;-;-;-;-
1514105912004;-;-;10.056137;0.52093506;-2.4821014;-;-;-;-;-;-;-;-;-;-;-;-;-;-;-
1514105912024;-;-;9.404907;1.0320892;-2.1062164;-;-;-;-;-;-;-;-;-;-;-;-;-;-;-
1514105912045;-;-;9.280411;1.121872;-1.9398193;-;-;-;-;-;-;-;-;-;-;-;-;-;-;-
1514105912065;-;-;9.114014;0.87527466;-1.7506714;-;-;-;-;-;-;-;-;-;-;-;-;-;-;-
1514105912085;-;-;8.5849;0.94351196;-1.4238739;-;-;-;-;-;-;-;-;-;-;-;-;-;-;-
1514105912106;-;-;8.716583;0.9351349;-1.3125305;-;-;-;-;-;-;-;-;-;-;-;-;-;-;-
1514105912126;-;-;8.837494;0.9530792;-1.2850037;-;-;-;-;-;-;-;-;-;-;-;-;-;-;-
1514105912146;-;-;8.764465;1.1829224;-1.2598572;-;-;-;-;-;-;-;-;-;-;-;-;-;-;-
1514105912167;-;-;9.183456;0.91596985;-1.2730255;-;-;-;-;-;-;-;-;-;-;-;-;-;-;-
1514105912187;-;-;9.225342;0.4909973;-1.4597778;-;-;-;-;-;-;-;-;-;-;-;-;-;-;-
1514105912207;-;-;9.06015;0.31503296;-1.5040741;-;-;-;-;-;-;-;-;-;-;-;-;-;-;-
1514105912227;-;-;8.916504;0.60472107;-1.416687;-;-;-;-;-;-;-;-;-;-;-;-;-;-;-
1514105912247;-;-;9.009872;0.9064026;-1.1102295;-;-;-;-;-;-;-;-;-;-;-;-;-;-;-
1514105912268;-;-;9.159515;0.85731506;-1.4789276;-;-;-;-;-;-;-;-;-;-;-;-;-;-;-
1514105912288;-;-;9.300766;0.36291504;-1.7159576;-;-;-;-;-;-;-;-;-;-;-;-;-;-;-
1514105912308;-;-;9.288788;0.18933105;-2.041565;-;-;-;-;-;-;-;-;-;-;-;-;-;-;-
1514105912329;-;-;9.257675;0.6573944;-2.0164337;-;-;-;-;-;-;-;-;-;-;-;-;-;-;-
1514105912349;-;-;8.789597;0.512558;-2.16008;-;-;-;-;-;-;-;-;-;-;-;-;-;-;-
1514105912369;-;-;8.6818695;-0.39126587;-1.9338379;-;-;-;-;-;-;-;-;-;-;-;-;-;-;-
1514105912390;-;-;8.738129;-1.0017853;-2.1672668;-;-;-;-;-;-;-;-;-;-;-;-;-;-;-
1514105912410;-;-;9.529419;-0.77552795;-1.8979187;-;-;-;-;-;-;-;-;-;-;-;-;-;-;-
1514105912430;-;-;9.481522;-0.15184021;-1.9062958;-;-;-;-;-;-;-;-;-;-;-;-;-;-;-
1514105912451;-;-;9.79277;0.124694824;-1.618988;-;-;-;-;-;-;-;-;-;-;-;-;-;-;-
1514105912471;-;-;9.813126;0.18334961;-1.3292999;-;-;-;-;-;-;-;-;-;-;-;-;-;-;-
1514105912492;-;-;9.299576;-0.050079346;-0.95700073;-;-;-;-;-;-;-;-;-;-;-;-;-;-;-
1514105912511;-;-;9.041;-0.37210083;-0.3009796;-;-;-;-;-;-;-;-;-;-;-;-;-;-;-
1514105912532;-;-;8.480759;-0.12669373;-0.4350586;-;-;-;-;-;-;-;-;-;-;-;-;-;-;-
1514105912552;-;-;8.703415;0.32580566;-0.5823059;-;-;-;-;-;-;-;-;-;-;-;-;-;-;-
1514105912572;-;-;8.710602;0.53289795;-0.64216614;-;-;-;-;-;-;-;-;-;-;-;-;-;-;-
1514105912593;-;-;8.940445;0.41079712;-0.84088135;-;-;-;-;-;-;-;-;-;-;-;-;-;-;-
1514105912613;-;-;9.227737;0.5269165;-1.1820526;-;-;-;-;-;-;-;-;-;-;-;-;-;-;-
1514105912634;-;-;9.679047;0.36531067;-1.0419922;-;-;-;-;-;-;-;-;-;-;-;-;-;-;-
1514105912654;-;-;9.704193;0.2132721;-0.97016907;-;-;-;-;-;-;-;-;-;-;-;-;-;-;-
1514105912674;-;-;9.643143;0.02293396;-1.1018524;-;-;-;-;-;-;-;-;-;-;-;-;-;-;-
1514105912694;-;-;9.702988;-0.102752686;-0.59547424;-;-;-;-;-;-;-;-;-;-;-;-;-;-;-
1514105912715;-;-;9.7017975;-0.30986023;-0.38478088;-;-;-;-;-;-;-;-;-;-;-;-;-;-;-
1514105912735;-;-;9.530609;-0.21647644;-0.07952881;-;-;-;-;-;-;-;-;-;-;-;-;-;-;-
1514105912755;-;-;9.359421;-0.23564148;-0.09030151;-;-;-;-;-;-;-;-;-;-;-;-;-;-;-
1514105912776;-;-;9.082901;0.036102295;0.0856781;-;-;-;-;-;-;-;-;-;-;-;-;-;-;-
1514105912796;-;-;8.880585;0.25517273;0.074905396;-;-;-;-;-;-;-;-;-;-;-;-;-;-;-
1514105912816;-;-;8.812347;0.22883606;0.5190277;-;-;-;-;-;-;-;-;-;-;-;-;-;-;-
1514105912837;-;-;8.802765;0.35572815;0.8218994;-;-;-;-;-;-;-;-;-;-;-;-;-;-;-
1514105912858;-;-;8.777634;0.50416565;1.0289917;-;-;-;-;-;-;-;-;-;-;-;-;-;-;-
1514105912879;-;-;9.021835;0.59036255;1.191803;-;-;-;-;-;-;-;-;-;-;-;-;-;-;-
1514105912899;-;-;8.911713;0.41079712;1.2025757;-;-;-;-;-;-;-;-;-;-;-;-;-;-;-
1514105912919;-;-;9.278015;0.28390503;1.3198853;-;-;-;-;-;-;-;-;-;-;-;-;-;-;-
1514105912939;-;-;9.346252;0.03730774;1.2971497;-;-;-;-;-;-;-;-;-;-;-;-;-;-;-
1514105912960;-;-;9.319916;0.03491211;1.2504578;-;-;-;-;-;-;-;-;-;-;-;-;-;-;-
1514105912980;-;-;9.348648;0.008575439;1.512619;-;-;-;-;-;-;-;-;-;-;-;-;-;-;-
1514105913000;-;-;8.630386;0.18693542;1.0673065;-;-;-;-;-;-;-;-;-;-;-;-;-;-;-
1514105913021;-;-;8.732147;0.24919128;1.1499023;-;-;-;-;-;-;-;-;-;-;-;-;-;-;-
1514105913041;-;-;8.619614;0.22525024;0.9092865;-;-;-;-;-;-;-;-;-;-;-;-;-;-;-
1514105913061;-;-;8.837494;-0.22845459;1.0852509;-;-;-;-;-;-;-;-;-;-;-;-;-;-;-
1514105913082;-;-;9.189438;-0.4666748;0.8506317;-;-;-;-;-;-;-;-;-;-;-;-;-;-;-
1514105913102;-;-;9.165497;-0.03930664;0.5860596;-;-;-;-;-;-;-;-;-;-;-;-;-;-;-
1514105913122;-;-;9.155914;0.35453796;0.54177856;-;-;-;-;-;-;-;-;-;-;-;-;-;-;-
1514105913142;-;-;8.942825;0.55085754;0.15989685;-;-;-;-;-;-;-;-;-;-;-;-;-;-;-
1514105913163;-;-;9.55455;0.46347046;0.28559875;-;-;-;-;-;-;-;-;-;-;-;-;-;-;-
1514105913183;-;-;9.461182;0.68852234;0.13835144;-;-;-;-;-;-;-;-;-;-;-;-;-;-;-
1514105913204;-;-;9.519836;0.7986603;0.24369812;-;-;-;-;-;-;-;-;-;-;-;-;-;-;-
1514105913224;-;-;9.507858;0.6968994;0.22573853;-;-;-;-;-;-;-;-;-;-;-;-;-;-;-
1514105913244;-;-;9.555756;0.52212524;0.31072998;-;-;-;-;-;-;-;-;-;-;-;-;-;-;-
1514105913265;-;-;9.455185;0.45030212;0.3143158;-;-;-;-;-;-;-;-;-;-;-;-;-;-;-
1514105913285;-;-;9.17627;0.38804626;0.4807129;-;-;-;-;-;-;-;-;-;-;-;-;-;-;-
1514105913305;-;-;9.048172;0.4586792;0.72732544;-;-;-;-;-;-;-;-;-;-;-;-;-;-;-
1514105913325;-;-;9.033813;0.51135254;0.99546814;-;-;-;-;-;-;-;-;-;-;-;-;-;-;-
1514105913346;-;-;8.995499;0.5484619;1.1546936;-;-;-;-;-;-;-;-;-;-;-;-;-;-;-
1514105913367;-;-;9.029022;0.5664215;1.1391296;-;-;-;-;-;-;-;-;-;-;-;-;-;-;-
1514105913387;-;-;9.13916;0.52093506;1.1056061;-;-;-;-;-;-;-;-;-;-;-;-;-;-;-
1514105913407;-;-;9.200211;0.45269775;1.1714478;-;-;-;-;-;-;-;-;-;-;-;-;-;-;-
1514105913428;-;-;9.169083;0.48262024;1.1846161;-;-;-;-;-;-;-;-;-;-;-;-;-;-;-
1514105913448;-;-;9.166687;0.59155273;1.2588348;-;-;-;-;-;-;-;-;-;-;-;-;-;-;-
1514105913468;-;-;9.109222;0.7076721;1.3689728;-;-;-;-;-;-;-;-;-;-;-;-;-;-;-
1514105913489;-;-;9.084091;0.79745483;1.3749542;-;-;-;-;-;-;-;-;-;-;-;-;-;-;-
1514105913508;-;-;9.148727;0.8202057;1.349823;-;-;-;-;-;-;-;-;-;-;-;-;-;-;-
1514105913529;-;-;9.091278;0.8118286;1.2037659;-;-;-;-;-;-;-;-;-;-;-;-;-;-;-
1514105913550;-;-;9.06015;0.7819061;1.0984192;-;-;-;-;-;-;-;-;-;-;-;-;-;-;-
1514105913570;-;-;9.054169;0.79267883;1.0170288;-;-;-;-;-;-;-;-;-;-;-;-;-;-;-
1514105913591;-;-;9.003891;0.9291382;0.98469543;-;-;-;-;-;-;-;-;-;-;-;-;-;-;-
1514105913610;-;-;8.884171;1.0787811;0.9116821;-;-;-;-;-;-;-;-;-;-;-;-;-;-;-
1514105913631;-;-;8.957199;1.0871582;0.8518219;-;-;-;-;-;-;-;-;-;-;-;-;-;-;-
1514105913651;-;-;9.033813;1.1134949;0.73809814;-;-;-;-;-;-;-;-;-;-;-;-;-;-;-
1514105913671;-;-;9.15831;1.0751953;0.666275;-;-;-;-;-;-;-;-;-;-;-;-;-;-;-
1514105913691;-;-;9.203796;0.9710388;0.50227356;-;-;-;-;-;-;-;-;-;-;-;-;-;-;-
1514105913711;-;-;9.264847;0.9758301;0.4040985;-;-;-;-;-;-;-;-;-;-;-;-;-;-;-
1514105913732;-;-;9.313934;1.0045624;0.3598175;-;-;-;-;-;-;-;-;-;-;-;-;-;-;-
1514105913752;-;-;9.23851;1.0165253;0.28678894;-;-;-;-;-;-;-;-;-;-;-;-;-;-;-
1514105913772;-;-;9.14035;0.9638519;0.17306519;-;-;-;-;-;-;-;-;-;-;-;-;-;-;-
1514105913792;-;-;9.062546;0.9710388;0.07369995;-;-;-;-;-;-;-;-;-;-;-;-;-;-;-
1514105913813;-;-;9.011063;1.051239;0.053359985;-;-;-;-;-;-;-;-;-;-;-;-;-;-;-
1514105913833;-;-;8.933258;1.2547607;-0.03642273;-;-;-;-;-;-;-;-;-;-;-;-;-;-;-
1514105913853;-;-;8.868607;1.3864288;-0.063964844;-;-;-;-;-;-;-;-;-;-;-;-;-;-;-
1514105913874;-;-;8.845871;1.4786072;-0.03163147;-;-;-;-;-;-;-;-;-;-;-;-;-;-;-
1514105913894;-;-;9.031418;1.5312805;-0.025650024;-;-;-;-;-;-;-;-;-;-;-;-;-;-;-
1514105913914;-;-;9.230133;1.556427;-0.24232483;-;-;-;-;-;-;-;-;-;-;-;-;-;-;-
1514105913934;-;-;9.391739;1.3876343;-0.45420837;-;-;-;-;-;-;-;-;-;-;-;-;-;-;-
1514105913955;-;-;9.307953;1.1506042;-0.63497925;-;-;-;-;-;-;-;-;-;-;-;-;-;-;-
1514105913975;-;-;9.264847;0.95188904;-0.55836487;-;-;-;-;-;-;-;-;-;-;-;-;-;-;-
1514105913995;-;-;9.206192;0.9399109;-0.50450134;-;-;-;-;-;-;-;-;-;-;-;-;-;-;-
1514105914016;-;-;9.128387;1.0440674;-0.6289978;-;-;-;-;-;-;-;-;-;-;-;-;-;-;-
1514105914036;-;-;9.025436;1.200882;-0.74272156;-;-;-;-;-;-;-;-;-;-;-;-;-;-;-
1514105914056;-;-;8.953613;1.3493195;-0.86361694;-;-;-;-;-;-;-;-;-;-;-;-;-;-;-
1514105914077;-;-;8.989517;1.4786072;-0.9629822;-;-;-;-;-;-;-;-;-;-;-;-;-;-;-
1514105914097;-;-;9.048172;1.556427;-1.0575562;-;-;-;-;-;-;-;-;-;-;-;-;-;-;-
1514105914117;-;-;9.178665;1.5839539;-1.2287445;-;-;-;-;-;-;-;-;-;-;-;-;-;-;-
1514105914138;-;-;9.272034;1.655777;-1.3424683;-;-;-;-;-;-;-;-;-;-;-;-;-;-;-
1514105914158;-;-;9.328293;1.698883;-1.4358368;-;-;-;-;-;-;-;-;-;-;-;-;-;-;-
1514105914179;-;-;9.2708435;1.6904907;-1.456192;-;-;-;-;-;-;-;-;-;-;-;-;-;-;-
1514105914199;-;-;9.116409;1.7060547;-1.456192;-;-;-;-;-;-;-;-;-;-;-;-;-;-;-
1514105914219;-;-;9.102051;1.6473999;-1.4358368;-;-;-;-;-;-;-;-;-;-;-;-;-;-;-
1514105914240;-;-;9.096069;1.5528259;-1.4071045;-;-;-;-;-;-;-;-;-;-;-;-;-;-;-
1514105914259;-;-;9.163101;1.5205078;-1.4789276;-;-;-;-;-;-;-;-;-;-;-;-;-;-;-
1514105914279;-;-;9.170288;1.5432587;-1.3939362;-;-;-;-;-;-;-;-;-;-;-;-;-;-;-
1514105914300;-;-;9.197815;1.6916962;-1.2179718;-;-;-;-;-;-;-;-;-;-;-;-;-;-;-
1514105914320;-;-;9.104446;1.7826691;-1.021637;-;-;-;-;-;-;-;-;-;-;-;-;-;-;-
1514105914340;-;-;8.82193;1.6940918;-0.85523987;-;-;-;-;-;-;-;-;-;-;-;-;-;-;-
1514105914361;-;-;8.545395;1.5516357;-0.84806824;-;-;-;-;-;-;-;-;-;-;-;-;-;-;-
1514105914381;-;-;8.458008;1.4175568;-1.0814972;-;-;-;-;-;-;-;-;-;-;-;-;-;-;-
1514105914401;-;-;8.838684;1.5252991;-1.2000122;-;-;-;-;-;-;-;-;-;-;-;-;-;-;-
1514105914421;-;-;9.197815;1.6473999;-1.234726;-;-;-;-;-;-;-;-;-;-;-;-;-;-;-
1514105914442;-;-;9.491104;1.7132416;-1.322113;-;-;-;-;-;-;-;-;-;-;-;-;-;-;-
1514105914463;-;-;9.740097;1.7180328;-1.3197174;-;-;-;-;-;-;-;-;-;-;-;-;-;-;-
1514105914482;-;-;9.719757;1.6486053;-1.2131805;-;-;-;-;-;-;-;-;-;-;-;-;-;-;-
1514105914503;-;-;9.360626;1.5887451;-0.8576355;-;-;-;-;-;-;-;-;-;-;-;-;-;-;-
1514105914523;-;-;8.905716;1.5288849;-0.614624;-;-;-;-;-;-;-;-;-;-;-;-;-;-;-
1514105914543;-;-;8.295197;1.4474792;-0.5834961;-;-;-;-;-;-;-;-;-;-;-;-;-;-;-
1514105914564;-;-;8.220978;1.4151611;-0.8348999;-;-;-;-;-;-;-;-;-;-;-;-;-;-;-
1514105914584;-;-;8.498703;1.413971;-0.7690582;-;-;-;-;-;-;-;-;-;-;-;-;-;-;-
1514105914604;-;-;9.074509;1.4486847;-0.8767853;-;-;-;-;-;-;-;-;-;-;-;-;-;-;-
1514105914624;-;-;9.458786;1.5217133;-1.0922699;-;-;-;-;-;-;-;-;-;-;-;-;-;-;-
1514105914645;-;-;9.699402;1.5217133;-1.219162;-;-;-;-;-;-;-;-;-;-;-;-;-;-;-
1514105914665;-;-;9.63475;1.5420532;-1.1162109;-;-;-;-;-;-;-;-;-;-;-;-;-;-;-
1514105914685;-;-;9.330688;1.4427032;-0.96058655;-;-;-;-;-;-;-;-;-;-;-;-;-;-;-
1514105914706;-;-;9.032608;1.3924255;-0.7295532;-;-;-;-;-;-;-;-;-;-;-;-;-;-;-
1514105914726;-;-;8.794388;1.3110199;-0.5140686;-;-;-;-;-;-;-;-;-;-;-;-;-;-;-
1514105914746;-;-;8.690247;1.3457336;-0.377594;-;-;-;-;-;-;-;-;-;-;-;-;-;-;-
1514105914766;-;-;8.662704;1.3995972;-0.3955536;-;-;-;-;-;-;-;-;-;-;-;-;-;-;-
1514105914787;-;-;8.728546;1.461853;-0.551178;-;-;-;-;-;-;-;-;-;-;-;-;-;-;-
1514105914807;-;-;8.975159;1.5444489;-0.7475128;-;-;-;-;-;-;-;-;-;-;-;-;-;-;-
1514105914827;-;-;9.194229;1.5707855;-0.8360901;-;-;-;-;-;-;-;-;-;-;-;-;-;-;-
1514105914848;-;-;9.31633;1.556427;-0.9115143;-;-;-;-;-;-;-;-;-;-;-;-;-;-;-
1514105914868;-;-;9.327103;1.5037537;-0.961792;-;-;-;-;-;-;-;-;-;-;-;-;-;-;-
1514105914888;-;-;9.206192;1.4510803;-0.9474182;-;-;-;-;-;-;-;-;-;-;-;-;-;-;-
1514105914909;-;-;9.044586;1.374466;-0.8600311;-;-;-;-;-;-;-;-;-;-;-;-;-;-;-
1514105914929;-;-;8.911713;1.3553162;-0.78700256;-;-;-;-;-;-;-;-;-;-;-;-;-;-;-
1514105914949;-;-;8.963181;1.2751007;-0.75468445;-;-;-;-;-;-;-;-;-;-;-;-;-;-;-
1514105914969;-;-;9.062546;1.2822876;-0.72476196;-;-;-;-;-;-;-;-;-;-;-;-;-;-;-
1514105914990;-;-;9.110428;1.3373566;-0.7415161;-;-;-;-;-;-;-;-;-;-;-;-;-;-;-
1514105915011;-;-;9.130783;1.4127655;-0.7475128;-;-;-;-;-;-;-;-;-;-;-;-;-;-;-
1514105915031;-;-;9.0733185;1.5300903;-0.6613159;-;-;-;-;-;-;-;-;-;-;-;-;-;-;-
1514105915051;-;-;9.080505;1.492981;-0.57632446;-;-;-;-;-;-;-;-;-;-;-;-;-;-;-
1514105915072;-;-;9.056564;1.453476;-0.417099;-;-;-;-;-;-;-;-;-;-;-;-;-;-;-
1514105915092;-;-;9.090073;1.4151611;-0.43745422;-;-;-;-;-;-;-;-;-;-;-;-;-;-;-
1514105915112;-;-;9.082901;1.3936157;-0.44224548;-;-;-;-;-;-;-;-;-;-;-;-;-;-;-
1514105915133;-;-;9.091278;1.4175568;-0.45541382;-;-;-;-;-;-;-;-;-;-;-;-;-;-;-
1514105915154;-;-;9.110428;1.3936157;-0.44104004;-;-;-;-;-;-;-;-;-;-;-;-;-;-;-
1514105915174;-;-;9.153519;1.3361511;-0.535614;-;-;-;-;-;-;-;-;-;-;-;-;-;-;-
1514105915194;-;-;9.143951;1.2846832;-0.58470154;-;-;-;-;-;-;-;-;-;-;-;-;-;-;-
1514105915215;-;-;9.020645;1.2846832;-0.5104828;-;-;-;-;-;-;-;-;-;-;-;-;-;-;-
1514105915234;-;-;9.110428;1.2834778;-0.5619507;-;-;-;-;-;-;-;-;-;-;-;-;-;-;-
1514105915254;-;-;9.068527;1.3648834;-0.5942688;-;-;-;-;-;-;-;-;-;-;-;-;-;-;-
1514105915274;-;-;9.043396;1.3804474;-0.6577301;-;-;-;-;-;-;-;-;-;-;-;-;-;-;-
1514105915295;-;-;9.043396;1.3553162;-0.6337738;-;-;-;-;-;-;-;-;-;-;-;-;-;-;-
1514105915315;-;-;9.124786;1.2942505;-0.6253967;-;-;-;-;-;-;-;-;-;-;-;-;-;-;-
1514105915336;-;-;9.170288;1.2930603;-0.6038513;-;-;-;-;-;-;-;-;-;-;-;-;-;-;-
1514105915356;-;-;9.154724;1.3792572;-0.6289978;-;-;-;-;-;-;-;-;-;-;-;-;-;-;-
1514105915376;-;-;9.14035;1.3373566;-0.6289978;-;-;-;-;-;-;-;-;-;-;-;-;-;-;-
1514105915396;-;-;9.088882;1.3565063;-0.7115936;-;-;-;-;-;-;-;-;-;-;-;-;-;-;-
1514105915417;-;-;9.064941;1.3529205;-0.6732788;-;-;-;-;-;-;-;-;-;-;-;-;-;-;-
1514105915437;-;-;9.087677;1.3229828;-0.6589203;-;-;-;-;-;-;-;-;-;-;-;-;-;-;-
1514105915457;-;-;9.128387;1.382843;-0.6373749;-;-;-;-;-;-;-;-;-;-;-;-;-;-;-
1514105915478;-;-;9.135559;1.358902;-0.6325836;-;-;-;-;-;-;-;-;-;-;-;-;-;-;-
1514105915498;-;-;9.082901;1.3708649;-0.6397705;-;-;-;-;-;-;-;-;-;-;-;-;-;-;-
1514105915518;-;-;9.090073;1.3816528;-0.6194153;-;-;-;-;-;-;-;-;-;-;-;-;-;-;-
1514105915539;-;-;9.075714;1.3720703;-0.6014557;-;-;-;-;-;-;-;-;-;-;-;-;-;-;-
1514105915558;-;-;9.091278;1.3349609;-0.614624;-;-;-;-;-;-;-;-;-;-;-;-;-;-;-
1514105915578;-;-;9.102051;1.3505249;-0.60505676;-;-;-;-;-;-;-;-;-;-;-;-;-;-;-
1514105915598;-;-;9.072113;1.367279;-0.51646423;-;-;-;-;-;-;-;-;-;-;-;-;-;-;-
1514105915619;-;-;9.064941;1.3864288;-0.46858215;-;-;-;-;-;-;-;-;-;-;-;-;-;-;-
1514105915639;-;-;9.091278;1.3481293;-0.51646423;-;-;-;-;-;-;-;-;-;-;-;-;-;-;-
1514105915659;-;-;9.080505;1.3313751;-0.57751465;-;-;-;-;-;-;-;-;-;-;-;-;-;-;-
1514105915680;-;-;9.069733;1.3553162;-0.54519653;-;-;-;-;-;-;-;-;-;-;-;-;-;-;-
1514105915700;-;-;9.054169;1.3720703;-0.5128784;-;-;-;-;-;-;-;-;-;-;-;-;-;-;-
1514105915720;-;-;9.069733;1.3648834;-0.5571594;-;-;-;-;-;-;-;-;-;-;-;-;-;-;-
1514105915740;-;-;9.092468;1.3349609;-0.590683;-;-;-;-;-;-;-;-;-;-;-;-;-;-;-
1514105915760;-;-;9.084091;1.3122101;-0.6122284;-;-;-;-;-;-;-;-;-;-;-;-;-;-;-
1514105915781;-;-;9.109222;1.3110199;-0.58828735;-;-;-;-;-;-;-;-;-;-;-;-;-;-;-
1514105915801;-;-;9.084091;1.2595367;-0.66490173;-;-;-;-;-;-;-;-;-;-;-;-;-;-;-
1514105915822;-;-;9.143951;1.3002472;-0.6685028;-;-;-;-;-;-;-;-;-;-;-;-;-;-;-
1514105915841;-;-;9.084091;1.2128601;-0.71398926;-;-;-;-;-;-;-;-;-;-;-;-;-;-;-
1514105915861;-;-;9.129578;1.1913147;-0.81333923;-;-;-;-;-;-;-;-;-;-;-;-;-;-;-
1514105915882;-;-;9.233734;1.2056732;-0.7917938;-;-;-;-;-;-;-;-;-;-;-;-;-;-;-
1514105915902;-;-;9.240906;1.2535553;-0.83369446;-;-;-;-;-;-;-;-;-;-;-;-;-;-;-
1514105915922;-;-;9.094864;1.279892;-0.7558899;-;-;-;-;-;-;-;-;-;-;-;-;-;-;-
1514105915942;-;-;9.106842;1.2595367;-0.69363403;-;-;-;-;-;-;-;-;-;-;-;-;-;-;-
1514105915963;-;-;9.064941;1.3768616;-0.7702484;-;-;-;-;-;-;-;-;-;-;-;-;-;-;-
1514105915983;-;-;9.005081;1.4247437;-0.68525696;-;-;-;-;-;-;-;-;-;-;-;-;-;-;-
1514105916003;-;-;9.003891;1.398407;-0.6505432;-;-;-;-;-;-;-;-;-;-;-;-;-;-;-
1514105916024;-;-;9.092468;1.3146057;-0.590683;-;-;-;-;-;-;-;-;-;-;-;-;-;-;-
1514105916045;-;-;9.102051;1.2583466;-0.61701965;-;-;-;-;-;-;-;-;-;-;-;-;-;-;-
1514105916065;-;-;9.114014;1.3241882;-0.49731445;-;-;-;-;-;-;-;-;-;-;-;-;-;-;-
1514105916085;-;-;9.082901;1.4091797;-0.51527405;-;-;-;-;-;-;-;-;-;-;-;-;-;-;-
1514105916106;-;-;8.92128;1.3888245;-0.72595215;-;-;-;-;-;-;-;-;-;-;-;-;-;-;-
1514105916125;-;-;8.83989;1.0943451;-1.0168457;-;-;-;-;-;-;-;-;-;-;-;-;-;-;-
1514105916145;-;-;8.68306;0.85731506;-0.8540497;-;-;-;-;-;-;-;-;-;-;-;-;-;-;-
1514105916166;-;-;8.657928;0.9363251;-0.6194153;-;-;-;-;-;-;-;-;-;-;-;-;-;-;-
1514105916186;-;-;9.041;1.1123047;-0.7846222;-;-;-;-;-;-;-;-;-;-;-;-;-;-;-
1514105916206;-;-;9.444412;1.3756561;-1.1054382;-;-;-;-;-;-;-;-;-;-;-;-;-;-;-
1514105916227;-;-;9.444412;1.4283295;-1.5363922;-;-;-;-;-;-;-;-;-;-;-;-;-;-;-
1514105916247;-;-;9.200211;1.358902;-1.8691864;-;-;-;-;-;-;-;-;-;-;-;-;-;-;-
1514105916267;-;-;9.054169;1.4450989;-1.2873993;-;-;-;-;-;-;-;-;-;-;-;-;-;-;-
1514105916287;-;-;9.035004;1.4319305;-0.7582855;-;-;-;-;-;-;-;-;-;-;-;-;-;-;-
1514105916307;-;-;9.546173;1.4127655;-0.2973938;-;-;-;-;-;-;-;-;-;-;-;-;-;-;-
1514105916327;-;-;9.0577545;1.5097351;-0.788208;-;-;-;-;-;-;-;-;-;-;-;-;-;-;-
1514105916348;-;-;8.7764435;1.3840332;-0.9725647;-;-;-;-;-;-;-;-;-;-;-;-;-;-;-
1514105916368;-;-;8.578918;1.145813;-0.6792755;-;-;-;-;-;-;-;-;-;-;-;-;-;-;-
1514105916388;-;-;8.197037;1.3792572;-0.8384857;-;-;-;-;-;-;-;-;-;-;-;-;-;-;-
1514105916409;-;-;8.083313;2.102295;-1.4394226;-;-;-;-;-;-;-;-;-;-;-;-;-;-;-
1514105916429;-;-;8.550186;2.5224762;-1.8260956;-;-;-;-;-;-;-;-;-;-;-;-;-;-;-
1514105916449;-;-;9.284012;2.4362946;-1.5328064;-;-;-;-;-;-;-;-;-;-;-;-;-;-;-
1514105916470;-;-;9.658707;1.8975983;-1.8284912;-;-;-;-;-;-;-;-;-;-;-;-;-;-;-
1514105916490;-;-;9.931641;1.5624084;-1.9170685;-;-;-;-;-;-;-;-;-;-;-;-;-;-;-
1514105916510;-;-;9.857422;1.5312805;-2.0726929;-;-;-;-;-;-;-;-;-;-;-;-;-;-;-
1514105916530;-;-;8.892548;1.6569824;-2.5263977;-;-;-;-;-;-;-;-;-;-;-;-;-;-;-
1514105916551;-;-;8.325134;2.2315826;-2.757431;-;-;-;-;-;-;-;-;-;-;-;-;-;-;-
1514105916571;-;-;8.1527405;2.3297424;-2.2067719;-;-;-;-;-;-;-;-;-;-;-;-;-;-;-
1514105916592;-;-;8.492722;1.798233;-1.8751678;-;-;-;-;-;-;-;-;-;-;-;-;-;-;-
1514105916612;-;-;8.456802;1.5839539;-1.3939362;-;-;-;-;-;-;-;-;-;-;-;-;-;-;-
1514105916632;-;-;9.123596;1.288269;-0.93066406;-;-;-;-;-;-;-;-;-;-;-;-;-;-;-
1514105916652;-;-;8.905716;0.8525238;-1.021637;-;-;-;-;-;-;-;-;-;-;-;-;-;-;-
1514105916673;-;-;8.791992;0.512558;-0.47216797;-;-;-;-;-;-;-;-;-;-;-;-;-;-;-
1514105916693;-;-;9.440826;0.24320984;-0.79299927;-;-;-;-;-;-;-;-;-;-;-;-;-;-;-
1514105916713;-;-;10.00705;0.6131134;-0.88038635;-;-;-;-;-;-;-;-;-;-;-;-;-;-;-
1514105916733;-;-;9.977127;0.89323425;-1.0683289;-;-;-;-;-;-;-;-;-;-;-;-;-;-;-
1514105916754;-;-;9.825104;1.3888245;-1.7997589;-;-;-;-;-;-;-;-;-;-;-;-;-;-;-
1514105916775;-;-;9.355835;1.6497955;-1.9936829;-;-;-;-;-;-;-;-;-;-;-;-;-;-;-
1514105916795;-;-;8.935654;1.719223;-2.076294;-;-;-;-;-;-;-;-;-;-;-;-;-;-;-
1514105916816;-;-;8.667496;1.6378326;-2.3037415;-;-;-;-;-;-;-;-;-;-;-;-;-;-;-
1514105916836;-;-;8.732147;1.5504303;-2.508438;-;-;-;-;-;-;-;-;-;-;-;-;-;-;-
1514105916856;-;-;8.6028595;1.4043884;-2.428238;-;-;-;-;-;-;-;-;-;-;-;-;-;-;-
1514105916876;-;-;8.516663;0.58078;-1.5758972;-;-;-;-;-;-;-;-;-;-;-;-;-;-;-
1514105916896;-;-;8.697433;0.21687317;-0.966568;-;-;-;-;-;-;-;-;-;-;-;-;-;-;-
1514105916917;-;-;8.969162;-0.1697998;-0.70440674;-;-;-;-;-;-;-;-;-;-;-;-;-;-;-
1514105916937;-;-;9.552155;-0.3074646;-0.966568;-;-;-;-;-;-;-;-;-;-;-;-;-;-;-
1514105916957;-;-;9.825104;-0.4487152;-1.456192;-;-;-;-;-;-;-;-;-;-;-;-;-;-;-
1514105916977;-;-;10.004654;-0.47865295;-1.7195587;-;-;-;-;-;-;-;-;-;-;-;-;-;-;-
1514105916998;-;-;9.781998;0.007369995;-1.7363129;-;-;-;-;-;-;-;-;-;-;-;-;-;-;-
1514105917019;-;-;9.43364;0.5556488;-1.6046295;-;-;-;-;-;-;-;-;-;-;-;-;-;-;-
1514105917039;-;-;8.880585;1.0955353;-1.7111664;-;-;-;-;-;-;-;-;-;-;-;-;-;-;-
1514105917059;-;-;8.784821;1.3888245;-1.7075806;-;-;-;-;-;-;-;-;-;-;-;-;-;-;-
1514105917079;-;-;8.745316;1.576767;-1.7243347;-;-;-;-;-;-;-;-;-;-;-;-;-;-;-
1514105917100;-;-;8.714188;1.6234589;-1.7267303;-;-;-;-;-;-;-;-;-;-;-;-;-;-;-
1514105917120;-;-;8.672287;1.8401337;-1.4765472;-;-;-;-;-;-;-;-;-;-;-;-;-;-;-
1514105917140;-;-;8.666306;1.8664703;-1.3699951;-;-;-;-;-;-;-;-;-;-;-;-;-;-;-
1514105917160;-;-;8.835098;1.8150024;-1.3029633;-;-;-;-;-;-;-;-;-;-;-;-;-;-;-
1514105917181;-;-;9.052963;1.5217133;-1.1892395;-;-;-;-;-;-;-;-;-;-;-;-;-;-;-
1514105917201;-;-;9.305557;1.2691193;-1.0802917;-;-;-;-;-;-;-;-;-;-;-;-;-;-;-
1514105917221;-;-;9.273239;1.2320099;-1.0719147;-;-;-;-;-;-;-;-;-;-;-;-;-;-;-
1514105917242;-;-;9.142746;1.2260284;-1.025238;-;-;-;-;-;-;-;-;-;-;-;-;-;-;-
1514105917263;-;-;8.987122;1.2176361;-1.0240326;-;-;-;-;-;-;-;-;-;-;-;-;-;-;-
1514105917283;-;-;8.844666;1.1637726;-0.9749603;-;-;-;-;-;-;-;-;-;-;-;-;-;-;-
1514105917303;-;-;8.790802;1.2164459;-0.9330597;-;-;-;-;-;-;-;-;-;-;-;-;-;-;-
1514105917323;-;-;8.922485;1.358902;-0.9941101;-;-;-;-;-;-;-;-;-;-;-;-;-;-;-
1514105917343;-;-;8.966782;1.4163666;-0.9510193;-;-;-;-;-;-;-;-;-;-;-;-;-;-;-
1514105917363;-;-;8.945221;1.3972015;-0.9246826;-;-;-;-;-;-;-;-;-;-;-;-;-;-;-
1514105917384;-;-;8.892548;1.3158112;-0.9689636;-;-;-;-;-;-;-;-;-;-;-;-;-;-;-
1514105917404;-;-;8.917694;1.3170013;-1.0599518;-;-;-;-;-;-;-;-;-;-;-;-;-;-;-
1514105917425;-;-;9.021835;1.3265839;-1.0551605;-;-;-;-;-;-;-;-;-;-;-;-;-;-;-
1514105917445;-;-;9.085281;1.4079895;-0.9438324;-;-;-;-;-;-;-;-;-;-;-;-;-;-;-
1514105917466;-;-;9.184647;1.374466;-1.0120697;-;-;-;-;-;-;-;-;-;-;-;-;-;-;-
1514105917485;-;-;9.072113;1.3792572;-1.1030426;-;-;-;-;-;-;-;-;-;-;-;-;-;-;-
1514105917506;-;-;8.946426;1.3816528;-1.1221924;-;-;-;-;-;-;-;-;-;-;-;-;-;-;-
1514105917526;-;-;8.784821;1.3864288;-1.0922699;-;-;-;-;-;-;-;-;-;-;-;-;-;-;-
1514105917546;-;-;8.851852;1.4008026;-0.9833374;-;-;-;-;-;-;-;-;-;-;-;-;-;-;-
1514105917567;-;-;9.036209;1.3936157;-1.0467834;-;-;-;-;-;-;-;-;-;-;-;-;-;-;-
1514105917586;-;-;9.135559;1.4414978;-1.3053589;-;-;-;-;-;-;-;-;-;-;-;-;-;-;-
1514105917607;-;-;9.131973;1.4558716;-1.4657593;-;-;-;-;-;-;-;-;-;-;-;-;-;-;-
1514105917627;-;-;9.006287;1.4678345;-1.4753418;-;-;-;-;-;-;-;-;-;-;-;-;-;-;-
1514105917648;-;-;8.849457;1.5157166;-1.3484497;-;-;-;-;-;-;-;-;-;-;-;-;-;-;-
1514105917668;-;-;8.769257;1.5791626;-1.3664093;-;-;-;-;-;-;-;-;-;-;-;-;-;-;-
1514105917688;-;-;8.791992;1.5444489;-1.5196381;-;-;-;-;-;-;-;-;-;-;-;-;-;-;-
1514105917708;-;-;8.837494;1.4857941;-1.8009491;-;-;-;-;-;-;-;-;-;-;-;-;-;-;-
1514105917729;-;-;8.788406;1.4857941;-2.1110077;-;-;-;-;-;-;-;-;-;-;-;-;-;-;-
1514105917749;-;-;8.775238;1.406784;-2.1900177;-;-;-;-;-;-;-;-;-;-;-;-;-;-;-
1514105917770;-;-;8.795593;1.3445435;-2.2139587;-;-;-;-;-;-;-;-;-;-;-;-;-;-;-
1514105917790;-;-;8.879379;1.2595367;-2.1828308;-;-;-;-;-;-;-;-;-;-;-;-;-;-;-
1514105917810;-;-;8.818329;1.2691193;-2.2163544;-;-;-;-;-;-;-;-;-;-;-;-;-;-;-
1514105917830;-;-;8.835098;1.2727051;-2.2809906;-;-;-;-;-;-;-;-;-;-;-;-;-;-;-
1514105917851;-;-;8.896149;1.2631378;-2.3193054;-;-;-;-;-;-;-;-;-;-;-;-;-;-;-
1514105917871;-;-;9.042191;1.145813;-2.7023773;-;-;-;-;-;-;-;-;-;-;-;-;-;-;-
1514105917891;-;-;9.066132;1.1027222;-2.9429932;-;-;-;-;-;-;-;-;-;-;-;-;-;-;-
1514105917911;-;-;9.07811;1.085968;-3.0375519;-;-;-;-;-;-;-;-;-;-;-;-;-;-;-
1514105917932;-;-;9.103241;1.1314545;-3.1093903;-;-;-;-;-;-;-;-;-;-;-;-;-;-;-
1514105917952;-;-;8.993118;1.164978;-3.120163;-;-;-;-;-;-;-;-;-;-;-;-;-;-;-
1514105917972;-;-;8.873398;1.2104645;-2.9477692;-;-;-;-;-;-;-;-;-;-;-;-;-;-;-
1514105917992;-;-;8.74292;1.248764;-2.7107544;-;-;-;-;-;-;-;-;-;-;-;-;-;-;-
1514105918013;-;-;8.717773;1.264328;-2.6987762;-;-;-;-;-;-;-;-;-;-;-;-;-;-;-
1514105918033;-;-;8.735733;1.2463684;-2.6473083;-;-;-;-;-;-;-;-;-;-;-;-;-;-;-
1514105918053;-;-;8.8051605;1.2511597;-2.6197662;-;-;-;-;-;-;-;-;-;-;-;-;-;-;-
1514105918074;-;-;8.799179;1.2236328;-2.6676483;-;-;-;-;-;-;-;-;-;-;-;-;-;-;-
1514105918094;-;-;8.794388;1.2379913;-2.6389313;-;-;-;-;-;-;-;-;-;-;-;-;-;-;-
1514105918114;-;-;8.736938;1.2499695;-2.6724396;-;-;-;-;-;-;-;-;-;-;-;-;-;-;-
1514105918135;-;-;8.732147;1.2463684;-2.6401215;-;-;-;-;-;-;-;-;-;-;-;-;-;-;-
1514105918155;-;-;8.865021;1.1841278;-2.63414;-;-;-;-;-;-;-;-;-;-;-;-;-;-;-
1514105918175;-;-;8.927277;1.1314545;-2.717926;-;-;-;-;-;-;-;-;-;-;-;-;-;-;-
1514105918195;-;-;8.953613;1.0033569;-2.8053284;-;-;-;-;-;-;-;-;-;-;-;-;-;-;-
1514105918216;-;-;8.911713;0.9578705;-2.7598267;-;-;-;-;-;-;-;-;-;-;-;-;-;-;-
1514105918236;-;-;8.847061;0.9494934;-2.7825775;-;-;-;-;-;-;-;-;-;-;-;-;-;-;-
1514105918256;-;-;8.849457;0.9710388;-2.73349;-;-;-;-;-;-;-;-;-;-;-;-;-;-;-
1514105918277;-;-;8.768051;1.0153351;-2.6508942;-;-;-;-;-;-;-;-;-;-;-;-;-;-;-
1514105918297;-;-;8.718979;1.0991364;-2.5766754;-;-;-;-;-;-;-;-;-;-;-;-;-;-;-
1514105918318;-;-;8.7213745;1.1206818;-2.500061;-;-;-;-;-;-;-;-;-;-;-;-;-;-;-
1514105918338;-;-;8.770447;1.1901093;-2.468933;-;-;-;-;-;-;-;-;-;-;-;-;-;-;-
1514105918358;-;-;8.8602295;1.2379913;-2.4545746;-;-;-;-;-;-;-;-;-;-;-;-;-;-;-
1514105918378;-;-;8.951218;1.2451782;-2.4246368;-;-;-;-;-;-;-;-;-;-;-;-;-;-;-
1514105918399;-;-;8.9787445;1.2463684;-2.412674;-;-;-;-;-;-;-;-;-;-;-;-;-;-;-
1514105918418;-;-;8.90213;1.2391968;-2.4066925;-;-;-;-;-;-;-;-;-;-;-;-;-;-;-
1514105918438;-;-;8.790802;1.2535553;-2.3372498;-;-;-;-;-;-;-;-;-;-;-;-;-;-;-
1514105918459;-;-;8.746506;1.2858734;-2.3049316;-;-;-;-;-;-;-;-;-;-;-;-;-;-;-
1514105918480;-;-;8.768051;1.2607422;-2.2582397;-;-;-;-;-;-;-;-;-;-;-;-;-;-;-
1514105918500;-;-;8.802765;1.2368011;-2.3216858;-;-;-;-;-;-;-;-;-;-;-;-;-;-;-
1514105918520;-;-;8.819534;1.2164459;-2.2893677;-;-;-;-;-;-;-;-;-;-;-;-;-;-;-
1514105918540;-;-;8.844666;1.2200317;-2.271408;-;-;-;-;-;-;-;-;-;-;-;-;-;-;-
1514105918561;-;-;8.929672;1.2368011;-2.4222565;-;-;-;-;-;-;-;-;-;-;-;-;-;-;-
1514105918580;-;-;8.92128;1.2822876;-2.4593658;-;-;-;-;-;-;-;-;-;-;-;-;-;-;-
1514105918600;-;-;8.856644;1.2774963;-2.3300781;-;-;-;-;-;-;-;-;-;-;-;-;-;-;-
1514105918621;-;-;8.795593;1.2978516;-2.2570496;-;-;-;-;-;-;-;-;-;-;-;-;-;-;-
1514105918641;-;-;8.790802;1.2906647;-2.2761993;-;-;-;-;-;-;-;-;-;-;-;-;-;-;-
1514105918661;-;-;8.782425;1.2511597;-2.2570496;-;-;-;-;-;-;-;-;-;-;-;-;-;-;-
1514105918682;-;-;8.795593;1.2834778;-2.2761993;-;-;-;-;-;-;-;-;-;-;-;-;-;-;-
1514105918702;-;-;8.799179;1.2858734;-2.2761993;-;-;-;-;-;-;-;-;-;-;-;-;-;-;-
1514105918722;-;-;8.8051605;1.2619324;-2.251068;-;-;-;-;-;-;-;-;-;-;-;-;-;-;-
1514105918742;-;-;8.82193;1.264328;-2.2582397;-;-;-;-;-;-;-;-;-;-;-;-;-;-;-
1514105918763;-;-;8.879379;1.2763062;-2.2761993;-;-;-;-;-;-;-;-;-;-;-;-;-;-;-
1514105918783;-;-;8.926071;1.3241882;-2.3480225;-;-;-;-;-;-;-;-;-;-;-;-;-;-;-
1514105918803;-;-;8.928467;1.3146057;-2.3145142;-;-;-;-;-;-;-;-;-;-;-;-;-;-;-
1514105918823;-;-;8.871002;1.3158112;-2.3324738;-;-;-;-;-;-;-;-;-;-;-;-;-;-;-
1514105918844;-;-;8.838684;1.2870789;-2.2953491;-;-;-;-;-;-;-;-;-;-;-;-;-;-;-
1514105918864;-;-;8.847061;1.3445435;-2.3468323;-;-;-;-;-;-;-;-;-;-;-;-;-;-;-
1514105918884;-;-;8.813553;1.3289795;-2.333664;-;-;-;-;-;-;-;-;-;-;-;-;-;-;-
1514105918905;-;-;8.809952;1.3612976;-2.3444366;-;-;-;-;-;-;-;-;-;-;-;-;-;-;-
1514105918925;-;-;8.82193;1.3289795;-2.3169098;-;-;-;-;-;-;-;-;-;-;-;-;-;-;-
1514105918945;-;-;8.848267;1.3086243;-2.2881775;-;-;-;-;-;-;-;-;-;-;-;-;-;-;-
1514105918966;-;-;8.897339;1.2810822;-2.3145142;-;-;-;-;-;-;-;-;-;-;-;-;-;-;-
1514105918986;-;-;8.891357;1.2739105;-2.2881775;-;-;-;-;-;-;-;-;-;-;-;-;-;-;-
1514105919006;-;-;8.92009;1.2858734;-2.2594452;-;-;-;-;-;-;-;-;-;-;-;-;-;-;-
1514105919026;-;-;8.851852;1.3146057;-2.2462769;-;-;-;-;-;-;-;-;-;-;-;-;-;-;-
1514105919047;-;-;8.838684;1.327774;-2.2355042;-;-;-;-;-;-;-;-;-;-;-;-;-;-;-
1514105919067;-;-;8.844666;1.3146057;-2.2378998;-;-;-;-;-;-;-;-;-;-;-;-;-;-;-
1514105919087;-;-;8.856644;1.3253784;-2.2462769;-;-;-;-;-;-;-;-;-;-;-;-;-;-;-
1514105919108;-;-;8.82193;1.3289795;-2.2678223;-;-;-;-;-;-;-;-;-;-;-;-;-;-;-
1514105919127;-;-;8.813553;1.3361511;-2.2977448;-;-;-;-;-;-;-;-;-;-;-;-;-;-;-
1514105919147;-;-;8.878189;1.3098145;-2.2833862;-;-;-;-;-;-;-;-;-;-;-;-;-;-;-
1514105919168;-;-;8.908112;1.2822876;-2.2534637;-;-;-;-;-;-;-;-;-;-;-;-;-;-;-
1514105919188;-;-;8.836288;1.2774963;-2.266632;-;-;-;-;-;-;-;-;-;-;-;-;-;-;-
1514105919208;-;-;8.806366;1.2966461;-2.203186;-;-;-;-;-;-;-;-;-;-;-;-;-;-;-
1514105919229;-;-;8.88298;1.3397522;-2.2833862;-;-;-;-;-;-;-;-;-;-;-;-;-;-;-
1514105919249;-;-;8.896149;1.3720703;-2.3875275;-;-;-;-;-;-;-;-;-;-;-;-;-;-;-
1514105919269;-;-;8.873398;1.3385468;-2.3288727;-;-;-;-;-;-;-;-;-;-;-;-;-;-;-
1514105919289;-;-;8.872208;1.264328;-2.2774048;-;-;-;-;-;-;-;-;-;-;-;-;-;-;-
1514105919310;-;-;8.865021;1.2499695;-2.2905731;-;-;-;-;-;-;-;-;-;-;-;-;-;-;-
1514105919330;-;-;8.850662;1.2906647;-2.2929688;-;-;-;-;-;-;-;-;-;-;-;-;-;-;-
1514105919350;-;-;8.8207245;1.3349609;-2.2582397;-;-;-;-;-;-;-;-;-;-;-;-;-;-;-
1514105919371;-;-;8.769257;1.3421478;-2.2833862;-;-;-;-;-;-;-;-;-;-;-;-;-;-;-
1514105919391;-;-;8.801575;1.3146057;-2.263031;-;-;-;-;-;-;-;-;-;-;-;-;-;-;-
1514105919411;-;-;8.830307;1.3361511;-2.251068;-;-;-;-;-;-;-;-;-;-;-;-;-;-;-
1514105919432;-;-;8.90094;1.3337555;-2.2678223;-;-;-;-;-;-;-;-;-;-;-;-;-;-;-
1514105919452;-;-;8.92128;1.319397;-2.2798004;-;-;-;-;-;-;-;-;-;-;-;-;-;-;-
1514105919472;-;-;8.884171;1.3289795;-2.3121185;-;-;-;-;-;-;-;-;-;-;-;-;-;-;-
1514105919492;-;-;8.861435;1.327774;-2.2774048;-;-;-;-;-;-;-;-;-;-;-;-;-;-;-
1514105919513;-;-;8.819534;1.3241882;-2.2750092;-;-;-;-;-;-;-;-;-;-;-;-;-;-;-
1514105919533;-;-;8.815933;1.3170013;-2.230713;-;-;-;-;-;-;-;-;-;-;-;-;-;-;-
1514105919553;-;-;8.836288;1.3385468;-2.2414856;-;-;-;-;-;-;-;-;-;-;-;-;-;-;-
1514105919575;-;-;8.843475;1.3205872;-2.2594452;-;-;-;-;-;-;-;-;-;-;-;-;-;-;-
1514105919594;-;-;8.833893;1.3253784;-2.2833862;-;-;-;-;-;-;-;-;-;-;-;-;-;-;-
1514105919614;-;-;8.863831;1.3708649;-2.3049316;-;-;-;-;-;-;-;-;-;-;-;-;-;-;-
1514105919635;-;-;8.863831;1.3313751;-2.3228912;-;-;-;-;-;-;-;-;-;-;-;-;-;-;-
1514105919655;-;-;8.865021;1.319397;-2.2678223;-;-;-;-;-;-;-;-;-;-;-;-;-;-;-
1514105919675;-;-;8.84227;1.2894745;-2.2594452;-;-;-;-;-;-;-;-;-;-;-;-;-;-;-
1514105919696;-;-;8.832703;1.2691193;-2.242691;-;-;-;-;-;-;-;-;-;-;-;-;-;-;-
1514105919716;-;-;8.867416;1.2691193;-2.2558594;-;-;-;-;-;-;-;-;-;-;-;-;-;-;-
1514105919736;-;-;8.855438;1.2547607;-2.2342987;-;-;-;-;-;-;-;-;-;-;-;-;-;-;-
1514105919756;-;-;8.862625;1.2679291;-2.2259216;-;-;-;-;-;-;-;-;-;-;-;-;-;-;-
1514105919777;-;-;8.867416;1.2667236;-2.1828308;-;-;-;-;-;-;-;-;-;-;-;-;-;-;-
1514105919797;-;-;8.894943;1.3265839;-2.211563;-;-;-;-;-;-;-;-;-;-;-;-;-;-;-
1514105919817;-;-;8.878189;1.3349609;-2.2199402;-;-;-;-;-;-;-;-;-;-;-;-;-;-;-
1514105919838;-;-;8.88298;1.3756561;-2.2881775;-;-;-;-;-;-;-;-;-;-;-;-;-;-;-
1514105919858;-;-;8.838684;1.3445435;-2.207962;-;-;-;-;-;-;-;-;-;-;-;-;-;-;-
1514105919878;-;-;8.851852;1.3349609;-2.1959991;-;-;-;-;-;-;-;-;-;-;-;-;-;-;-
1514105919898;-;-;8.922485;1.3361511;-2.1864166;-;-;-;-;-;-;-;-;-;-;-;-;-;-;-
1514105919919;-;-;8.8602295;1.319397;-2.2019806;-;-;-;-;-;-;-;-;-;-;-;-;-;-;-
1514105919939;-;-;8.830307;1.3289795;-2.1744537;-;-;-;-;-;-;-;-;-;-;-;-;-;-;-
1514105919959;-;-;8.918884;1.3229828;-2.278595;-;-;-;-;-;-;-;-;-;-;-;-;-;-;-
1514105919980;-;-;8.869812;1.3660889;-2.333664;-;-;-;-;-;-;-;-;-;-;-;-;-;-;-
1514105920000;-;-;8.83989;1.3421478;-2.2642365;-;-;-;-;-;-;-;-;-;-;-;-;-;-;-
1514105920021;-;-;8.838684;1.3002472;-2.227127;-;-;-;-;-;-;-;-;-;-;-;-;-;-;-
1514105920041;-;-;8.879379;1.2894745;-2.2355042;-;-;-;-;-;-;-;-;-;-;-;-;-;-;-
1514105920062;-;-;8.906921;1.3469238;-2.242691;-;-;-;-;-;-;-;-;-;-;-;-;-;-;-
1514105920082;-;-;8.854248;1.3864288;-2.2283173;-;-;-;-;-;-;-;-;-;-;-;-;-;-;-
1514105920102;-;-;8.830307;1.3840332;-2.2259216;-;-;-;-;-;-;-;-;-;-;-;-;-;-;-
1514105920123;-;-;8.849457;1.367279;-2.230713;-;-;-;-;-;-;-;-;-;-;-;-;-;-;-
1514105920143;-;-;8.849457;1.3146057;-2.23909;-;-;-;-;-;-;-;-;-;-;-;-;-;-;-
1514105920163;-;-;8.890167;1.3565063;-2.2199402;-;-;-;-;-;-;-;-;-;-;-;-;-;-;-
1514105920184;-;-;8.905716;1.3158112;-2.2857819;-;-;-;-;-;-;-;-;-;-;-;-;-;-;-
1514105920204;-;-;8.887772;1.3205872;-2.2738037;-;-;-;-;-;-;-;-;-;-;-;-;-;-;-
1514105920224;-;-;8.847061;1.2930603;-2.2558594;-;-;-;-;-;-;-;-;-;-;-;-;-;-;-
1514105920245;-;-;8.836288;1.3014374;-2.2534637;-;-;-;-;-;-;-;-;-;-;-;-;-;-;-
1514105920265;-;-;8.859039;1.3481293;-2.2007904;-;-;-;-;-;-;-;-;-;-;-;-;-;-;-
1514105920285;-;-;8.855438;1.3361511;-2.2091675;-;-;-;-;-;-;-;-;-;-;-;-;-;-;-
1514105920305;-;-;8.866211;1.3253784;-2.2199402;-;-;-;-;-;-;-;-;-;-;-;-;-;-;-
1514105920326;-;-;8.873398;1.3636932;-2.187622;-;-;-;-;-;-;-;-;-;-;-;-;-;-;-
1514105920346;-;-;8.874603;1.3529205;-2.207962;-;-;-;-;-;-;-;-;-;-;-;-;-;-;-
1514105920366;-;-;8.880585;1.3565063;-2.199585;-;-;-;-;-;-;-;-;-;-;-;-;-;-;-
1514105920386;-;-;8.891357;1.3541107;-2.1864166;-;-;-;-;-;-;-;-;-;-;-;-;-;-;-
1514105920407;-;-;8.848267;1.3253784;-2.1971893;-;-;-;-;-;-;-;-;-;-;-;-;-;-;-
1514105920427;-;-;8.845871;1.358902;-2.1959991;-;-;-;-;-;-;-;-;-;-;-;-;-;-;-
1514105920448;-;-;8.848267;1.3636932;-2.2223358;-;-;-;-;-;-;-;-;-;-;-;-;-;-;-
1514105920468;-;-;8.871002;1.3349609;-2.2199402;-;-;-;-;-;-;-;-;-;-;-;-;-;-;-
1514105920488;-;-;8.869812;1.3529205;-2.2486725;-;-;-;-;-;-;-;-;-;-;-;-;-;-;-
1514105920509;-;-;8.862625;1.3732605;-2.2283173;-;-;-;-;-;-;-;-;-;-;-;-;-;-;-
1514105920529;-;-;8.893753;1.3565063;-2.230713;-;-;-;-;-;-;-;-;-;-;-;-;-;-;-
1514105920549;-;-;8.874603;1.3900299;-2.2211304;-;-;-;-;-;-;-;-;-;-;-;-;-;-;-
1514105920569;-;-;8.832703;1.3541107;-2.2558594;-;-;-;-;-;-;-;-;-;-;-;-;-;-;-
1514105920589;-;-;8.872208;1.3373566;-2.2007904;-;-;-;-;-;-;-;-;-;-;-;-;-;-;-
1514105920610;-;-;8.896149;1.3361511;-2.1971893;-;-;-;-;-;-;-;-;-;-;-;-;-;-;-
1514105920630;-;-;8.856644;1.3684845;-2.2067719;-;-;-;-;-;-;-;-;-;-;-;-;-;-;-
1514105920650;-;-;8.819534;1.3158112;-2.172058;-;-;-;-;-;-;-;-;-;-;-;-;-;-;-
1514105920671;-;-;8.871002;1.3493195;-2.2402954;-;-;-;-;-;-;-;-;-;-;-;-;-;-;-
1514105920691;-;-;8.863831;1.4127655;-2.3360596;-;-;-;-;-;-;-;-;-;-;-;-;-;-;-
1514105920711;-;-;8.855438;1.3756561;-2.2259216;-;-;-;-;-;-;-;-;-;-;-;-;-;-;-
1514105920731;-;-;8.83989;1.3445435;-2.1852264;-;-;-;-;-;-;-;-;-;-;-;-;-;-;-
1514105920752;-;-;8.862625;1.2966461;-2.179245;-;-;-;-;-;-;-;-;-;-;-;-;-;-;-
1514105920772;-;-;8.922485;1.3553162;-2.2199402;-;-;-;-;-;-;-;-;-;-;-;-;-;-;-
1514105920792;-;-;8.855438;1.4008026;-2.211563;-;-;-;-;-;-;-;-;-;-;-;-;-;-;-
1514105920813;-;-;8.806366;1.3948212;-2.1959991;-;-;-;-;-;-;-;-;-;-;-;-;-;-;-
1514105920834;-;-;8.836288;1.4115753;-2.1744537;-;-;-;-;-;-;-;-;-;-;-;-;-;-;-
1514105920854;-;-;8.873398;1.3864288;-2.2007904;-;-;-;-;-;-;-;-;-;-;-;-;-;-;-
1514105920874;-;-;8.894943;1.3253784;-2.2342987;-;-;-;-;-;-;-;-;-;-;-;-;-;-;-
1514105920895;-;-;8.897339;1.3517151;-2.2402954;-;-;-;-;-;-;-;-;-;-;-;-;-;-;-
1514105920916;-;-;8.875793;1.3684845;-2.2726135;-;-;-;-;-;-;-;-;-;-;-;-;-;-;-
1514105920936;-;-;8.84108;1.3708649;-2.1888123;-;-;-;-;-;-;-;-;-;-;-;-;-;-;-
1514105920956;-;-;8.84227;1.3517151;-2.215149;-;-;-;-;-;-;-;-;-;-;-;-;-;-;-
1514105920976;-;-;8.867416;1.3636932;-2.23909;-;-;-;-;-;-;-;-;-;-;-;-;-;-;-
1514105920997;-;-;8.8997345;1.3421478;-2.2199402;-;-;-;-;-;-;-;-;-;-;-;-;-;-;-
1514105921017;-;-;8.90213;1.3780518;-2.227127;-;-;-;-;-;-;-;-;-;-;-;-;-;-;-
1514105921037;-;-;8.897339;1.4091797;-2.2582397;-;-;-;-;-;-;-;-;-;-;-;-;-;-;-
1514105921058;-;-;8.903336;1.3912201;-2.263031;-;-;-;-;-;-;-;-;-;-;-;-;-;-;-
1514105921078;-;-;8.929672;1.3636932;-2.2199402;-;-;-;-;-;-;-;-;-;-;-;-;-;-;-
1514105921098;-;-;8.950012;1.2834778;-2.211563;-;-;-;-;-;-;-;-;-;-;-;-;-;-;-
1514105921119;-;-;8.911713;1.2894745;-2.16008;-;-;-;-;-;-;-;-;-;-;-;-;-;-;-
1514105921139;-;-;8.869812;1.2918701;-2.1744537;-;-;-;-;-;-;-;-;-;-;-;-;-;-;-
1514105921159;-;-;8.836288;1.3373566;-2.124176;-;-;-;-;-;-;-;-;-;-;-;-;-;-;-
1514105921179;-;-;8.794388;1.3864288;-2.069107;-;-;-;-;-;-;-;-;-;-;-;-;-;-;-
1514105921200;-;-;8.802765;1.3600922;-2.0894623;-;-;-;-;-;-;-;-;-;-;-;-;-;-;-
1514105921220;-;-;8.8051605;1.3481293;-2.1540985;-;-;-;-;-;-;-;-;-;-;-;-;-;-;-
1514105921241;-;-;8.856644;1.3265839;-2.148117;-;-;-;-;-;-;-;-;-;-;-;-;-;-;-
1514105921260;-;-;8.862625;1.3816528;-2.1313477;-;-;-;-;-;-;-;-;-;-;-;-;-;-;-
1514105921280;-;-;8.878189;1.374466;-2.1349487;-;-;-;-;-;-;-;-;-;-;-;-;-;-;-
1514105921300;-;-;8.924881;1.4019928;-2.151703;-;-;-;-;-;-;-;-;-;-;-;-;-;-;-
1514105921321;-;-;8.969162;1.4008026;-2.2163544;-;-;-;-;-;-;-;-;-;-;-;-;-;-;-
1514105921340;-;-;8.988327;1.4570618;-2.2127533;-;-;-;-;-;-;-;-;-;-;-;-;-;-;-
1514105921360;-;-;8.90094;1.4558716;-2.13974;-;-;-;-;-;-;-;-;-;-;-;-;-;-;-
1514105921380;-;-;8.888962;1.437912;-2.0403748;-;-;-;-;-;-;-;-;-;-;-;-;-;-;-
1514105921401;-;-;8.910507;1.437912;-2.2007904;-;-;-;-;-;-;-;-;-;-;-;-;-;-;-
1514105921421;-;-;8.886566;1.5073395;-2.2606354;-;-;-;-;-;-;-;-;-;-;-;-;-;-;-
1514105921441;-;-;8.891357;1.4965668;-2.2199402;-;-;-;-;-;-;-;-;-;-;-;-;-;-;-
1514105921462;-;-;8.833893;1.5193176;-2.1493073;-;-;-;-;-;-;-;-;-;-;-;-;-;-;-
1514105921482;-;-;8.832703;1.5073395;-2.1457214;-;-;-;-;-;-;-;-;-;-;-;-;-;-;-
1514105921502;-;-;8.837494;1.5312805;-2.1313477;-;-;-;-;-;-;-;-;-;-;-;-;-;-;-
1514105921522;-;-;8.887772;1.6222687;-2.1301575;-;-;-;-;-;-;-;-;-;-;-;-;-;-;-
1514105921543;-;-;8.854248;1.6845093;-2.1121979;-;-;-;-;-;-;-;-;-;-;-;-;-;-;-
1514105921563;-;-;8.84227;1.719223;-2.1588898;-;-;-;-;-;-;-;-;-;-;-;-;-;-;-
1514105921583;-;-;8.814743;1.6653595;-2.1253662;-;-;-;-;-;-;-;-;-;-;-;-;-;-;-
1514105921604;-;-;8.780029;1.6378326;-2.084671;-;-;-;-;-;-;-;-;-;-;-;-;-;-;-
1514105921624;-;-;8.829102;1.5635986;-2.014038;-;-;-;-;-;-;-;-;-;-;-;-;-;-;-
1514105921644;-;-;8.844666;1.5276947;-2.0032654;-;-;-;-;-;-;-;-;-;-;-;-;-;-;-
1514105921664;-;-;8.82193;1.5145264;-1.9434052;-;-;-;-;-;-;-;-;-;-;-;-;-;-;-
1514105921685;-;-;8.824326;1.4798126;-1.8811646;-;-;-;-;-;-;-;-;-;-;-;-;-;-;-
1514105921705;-;-;8.869812;1.4403076;-1.8883362;-;-;-;-;-;-;-;-;-;-;-;-;-;-;-
1514105921725;-;-;9.091278;1.3852386;-1.7554626;-;-;-;-;-;-;-;-;-;-;-;-;-;-;-
1514105921745;-;-;9.035004;1.4666443;-1.8069458;-;-;-;-;-;-;-;-;-;-;-;-;-;-;-
1514105921765;-;-;9.06134;1.4175568;-1.7806091;-;-;-;-;-;-;-;-;-;-;-;-;-;-;-
1514105921786;-;-;9.067337;1.3912201;-1.753067;-;-;-;-;-;-;-;-;-;-;-;-;-;-;-
1514105921806;-;-;8.9787445;1.3325653;-1.8141174;-;-;-;-;-;-;-;-;-;-;-;-;-;-;-
1514105921826;-;-;8.953613;1.398407;-1.8524323;-;-;-;-;-;-;-;-;-;-;-;-;-;-;-
1514105921847;-;-;8.951218;1.4055939;-1.9338379;-;-;-;-;-;-;-;-;-;-;-;-;-;-;-
1514105921867;-;-;8.7608795;1.5504303;-2.012848;-;-;-;-;-;-;-;-;-;-;-;-;-;-;-
1514105921887;-;-;8.783615;1.580368;-1.8907318;-;-;-;-;-;-;-;-;-;-;-;-;-;-;-
1514105921907;-;-;8.778824;1.6497955;-1.8787689;-;-;-;-;-;-;-;-;-;-;-;-;-;-;-
1514105921928;-;-;8.853058;1.6833191;-1.9015045;-;-;-;-;-;-;-;-;-;-;-;-;-;-;-
1514105921948;-;-;8.944031;1.6497955;-1.9625702;-;-;-;-;-;-;-;-;-;-;-;-;-;-;-
1514105921969;-;-;9.005081;1.6976776;-2.0619202;-;-;-;-;-;-;-;-;-;-;-;-;-;-;-
1514105921989;-;-;8.928467;1.6940918;-2.0918427;-;-;-;-;-;-;-;-;-;-;-;-;-;-;-
1514105922009;-;-;8.856644;1.7371826;-1.950592;-;-;-;-;-;-;-;-;-;-;-;-;-;-;-
1514105922029;-;-;8.771652;1.7120514;-1.7566681;-;-;-;-;-;-;-;-;-;-;-;-;-;-;-
1514105922050;-;-;8.74411;1.7371826;-1.6417389;-;-;-;-;-;-;-;-;-;-;-;-;-;-;-
1514105922070;-;-;8.758484;1.7156372;-1.6094208;-;-;-;-;-;-;-;-;-;-;-;-;-;-;-
1514105922090;-;-;8.815933;1.7467651;-1.5890656;-;-;-;-;-;-;-;-;-;-;-;-;-;-;-
1514105922110;-;-;8.947617;1.8054199;-1.7363129;-;-;-;-;-;-;-;-;-;-;-;-;-;-;-
1514105922130;-;-;8.926071;1.8030243;-1.7207489;-;-;-;-;-;-;-;-;-;-;-;-;-;-;-
1514105922151;-;-;8.924881;1.7276154;-1.6405487;-;-;-;-;-;-;-;-;-;-;-;-;-;-;-
1514105922171;-;-;9.0793;1.6462097;-1.590271;-;-;-;-;-;-;-;-;-;-;-;-;-;-;-
1514105922191;-;-;8.922485;1.611496;-1.6596985;-;-;-;-;-;-;-;-;-;-;-;-;-;-;-
1514105922212;-;-;8.887772;1.5839539;-1.658493;-;-;-;-;-;-;-;-;-;-;-;-;-;-;-
1514105922232;-;-;8.867416;1.6294403;-1.697998;-;-;-;-;-;-;-;-;-;-;-;-;-;-;-
1514105922252;-;-;8.872208;1.6581726;-1.7734222;-;-;-;-;-;-;-;-;-;-;-;-;-;-;-
1514105922272;-;-;8.875793;1.710846;-1.847641;-;-;-;-;-;-;-;-;-;-;-;-;-;-;-
1514105922293;-;-;8.885376;1.734787;-1.8967285;-;-;-;-;-;-;-;-;-;-;-;-;-;-;-
1514105922313;-;-;8.891357;1.7180328;-1.926651;-;-;-;-;-;-;-;-;-;-;-;-;-;-;-
1514105922333;-;-;8.904526;1.7096558;-1.9374237;-;-;-;-;-;-;-;-;-;-;-;-;-;-;-
1514105922354;-;-;8.891357;1.679718;-1.8835602;-;-;-;-;-;-;-;-;-;-;-;-;-;-;-
1514105922374;-;-;8.862625;1.7120514;-1.9194641;-;-;-;-;-;-;-;-;-;-;-;-;-;-;-
1514105922394;-;-;8.880585;1.7048645;-1.9865112;-;-;-;-;-;-;-;-;-;-;-;-;-;-;-
1514105922415;-;-;8.861435;1.7359924;-1.9015045;-;-;-;-;-;-;-;-;-;-;-;-;-;-;-
1514105922435;-;-;8.897339;1.7599335;-1.8344727;-;-;-;-;-;-;-;-;-;-;-;-;-;-;-
1514105922455;-;-;8.879379;1.7802734;-1.7554626;-;-;-;-;-;-;-;-;-;-;-;-;-;-;-
1514105922476;-;-;8.84227;1.7515564;-1.7315216;-;-;-;-;-;-;-;-;-;-;-;-;-;-;-
1514105922495;-;-;8.888962;1.714447;-1.7063904;-;-;-;-;-;-;-;-;-;-;-;-;-;-;-
1514105922515;-;-;8.893753;1.7216187;-1.7075806;-;-;-;-;-;-;-;-;-;-;-;-;-;-;-
1514105922535;-;-;8.88298;1.651001;-1.7171631;-;-;-;-;-;-;-;-;-;-;-;-;-;-;-
1514105922556;-;-;8.887772;1.619873;-1.6836395;-;-;-;-;-;-;-;-;-;-;-;-;-;-;-
1514105922576;-;-;8.926071;1.5875549;-1.6968079;-;-;-;-;-;-;-;-;-;-;-;-;-;-;-
1514105922596;-;-;8.947617;1.5456543;-1.693222;-;-;-;-;-;-;-;-;-;-;-;-;-;-;-
1514105922616;-;-;8.952408;1.5516357;-1.7183533;-;-;-;-;-;-;-;-;-;-;-;-;-;-;-
1514105922637;-;-;8.964386;1.556427;-1.6968079;-;-;-;-;-;-;-;-;-;-;-;-;-;-;-
1514105922658;-;-;8.946426;1.5540314;-1.7123718;-;-;-;-;-;-;-;-;-;-;-;-;-;-;-
1514105922678;-;-;8.942825;1.5360718;-1.7518768;-;-;-;-;-;-;-;-;-;-;-;-;-;-;-
1514105922698;-;-;8.915298;1.5528259;-1.689621;-;-;-;-;-;-;-;-;-;-;-;-;-;-;-
1514105922718;-;-;8.966782;1.5648041;-1.6824341;-;-;-;-;-;-;-;-;-;-;-;-;-;-;-
1514105922738;-;-;8.918884;1.600708;-1.6668854;-;-;-;-;-;-;-;-;-;-;-;-;-;-;-
1514105922759;-;-;8.912903;1.5659943;-1.6357574;-;-;-;-;-;-;-;-;-;-;-;-;-;-;-
1514105922779;-;-;8.926071;1.5360718;-1.629776;-;-;-;-;-;-;-;-;-;-;-;-;-;-;-
1514105922799;-;-;8.973953;1.5947266;-1.6992035;-;-;-;-;-;-;-;-;-;-;-;-;-;-;-
1514105922820;-;-;8.916504;1.5983276;-1.7231445;-;-;-;-;-;-;-;-;-;-;-;-;-;-;-
1514105922840;-;-;8.930862;1.5827637;-1.6573029;-;-;-;-;-;-;-;-;-;-;-;-;-;-;-
1514105922860;-;-;8.951218;1.5420532;-1.6166077;-;-;-;-;-;-;-;-;-;-;-;-;-;-;-
1514105922881;-;-;8.967972;1.5588226;-1.6273804;-;-;-;-;-;-;-;-;-;-;-;-;-;-;-
1514105922901;-;-;8.930862;1.5983276;-1.6177979;-;-;-;-;-;-;-;-;-;-;-;-;-;-;-
1514105922921;-;-;8.906921;1.651001;-1.5962524;-;-;-;-;-;-;-;-;-;-;-;-;-;-;-
1514105922941;-;-;8.891357;1.6689453;-1.610611;-;-;-;-;-;-;-;-;-;-;-;-;-;-;-
1514105922962;-;-;8.862625;1.6605682;-1.614212;-;-;-;-;-;-;-;-;-;-;-;-;-;-;-
1514105922981;-;-;8.915298;1.6462097;-1.5782928;-;-;-;-;-;-;-;-;-;-;-;-;-;-;-
1514105923001;-;-;8.953613;1.6318359;-1.6213837;-;-;-;-;-;-;-;-;-;-;-;-;-;-;-
1514105923021;-;-;8.965576;1.6258545;-1.610611;-;-;-;-;-;-;-;-;-;-;-;-;-;-;-
1514105923041;-;-;8.947617;1.616272;-1.6201935;-;-;-;-;-;-;-;-;-;-;-;-;-;-;-
1514105923062;-;-;8.909317;1.6318359;-1.618988;-;-;-;-;-;-;-;-;-;-;-;-;-;-;-
1514105923082;-;-;8.894943;1.6210632;-1.6034393;-;-;-;-;-;-;-;-;-;-;-;-;-;-;-
1514105923102;-;-;8.898544;1.6282501;-1.6453247;-;-;-;-;-;-;-;-;-;-;-;-;-;-;-
1514105923122;-;-;8.950012;1.5923309;-1.6513214;-;-;-;-;-;-;-;-;-;-;-;-;-;-;-
1514105923143;-;-;8.924881;1.6091003;-1.6704712;-;-;-;-;-;-;-;-;-;-;-;-;-;-;-
1514105923163;-;-;8.945221;1.5863495;-1.6429291;-;-;-;-;-;-;-;-;-;-;-;-;-;-;-
1514105923183;-;-;8.935654;1.5851593;-1.6860352;-;-;-;-;-;-;-;-;-;-;-;-;-;-;-
1514105923204;-;-;8.923676;1.5887451;-1.653717;-;-;-;-;-;-;-;-;-;-;-;-;-;-;-
1514105923224;-;-;8.971558;1.571991;-1.6668854;-;-;-;-;-;-;-;-;-;-;-;-;-;-;-
1514105923244;-;-;8.941635;1.6126862;-1.6596985;-;-;-;-;-;-;-;-;-;-;-;-;-;-;-
1514105923264;-;-;8.941635;1.6246643;-1.6620941;-;-;-;-;-;-;-;-;-;-;-;-;-;-;-
1514105923285;-;-;8.934448;1.600708;-1.6560974;-;-;-;-;-;-;-;-;-;-;-;-;-;-;-
1514105923305;-;-;8.940445;1.5755768;-1.6644897;-;-;-;-;-;-;-;-;-;-;-;-;-;-;-
1514105923325;-;-;8.941635;1.6067047;-1.658493;-;-;-;-;-;-;-;-;-;-;-;-;-;-;-
1514105923346;-;-;8.947617;1.6067047;-1.634552;-;-;-;-;-;-;-;-;-;-;-;-;-;-;-
1514105923365;-;-;8.8997345;1.6078949;-1.5938568;-;-;-;-;-;-;-;-;-;-;-;-;-;-;-
1514105923386;-;-;8.927277;1.616272;-1.6022339;-;-;-;-;-;-;-;-;-;-;-;-;-;-;-
1514105923406;-;-;8.9392395;1.5995178;-1.5890656;-;-;-;-;-;-;-;-;-;-;-;-;-;-;-
1514105923427;-;-;8.9392395;1.6210632;-1.614212;-;-;-;-;-;-;-;-;-;-;-;-;-;-;-
1514105923447;-;-;8.873398;1.6067047;-1.579483;-;-;-;-;-;-;-;-;-;-;-;-;-;-;-
1514105923467;-;-;8.977554;1.5863495;-1.6046295;-;-;-;-;-;-;-;-;-;-;-;-;-;-;-
1514105923487;-;-;8.988327;1.6533813;-1.6812439;-;-;-;-;-;-;-;-;-;-;-;-;-;-;-
1514105923507;-;-;8.905716;1.6677551;-1.6968079;-;-;-;-;-;-;-;-;-;-;-;-;-;-;-
1514105923528;-;-;8.936844;1.6043091;-1.6417389;-;-;-;-;-;-;-;-;-;-;-;-;-;-;-
1514105923548;-;-;8.953613;1.5276947;-1.6429291;-;-;-;-;-;-;-;-;-;-;-;-;-;-;-
1514105923568;-;-;8.983536;1.540863;-1.6704712;-;-;-;-;-;-;-;-;-;-;-;-;-;-;-
1514105923589;-;-;8.926071;1.635437;-1.6465302;-;-;-;-;-;-;-;-;-;-;-;-;-;-;-
1514105923609;-;-;8.908112;1.6342316;-1.6082153;-;-;-;-;-;-;-;-;-;-;-;-;-;-;-
