TimeStamp[ms];Prox[Cm];Lux[lux];AccX[m/s^2];AccY[m/s^2];AccZ[m/s^2];GyroX[rad/s];GyroY[rad/s];GyroZ[rad/s];MagnX[uT];MagnY[uT];MagnZ[uT];OrienYaw[degrees];OrienPitch[degrees];OrienRoll[degrees];Press[Pa];Temp[C°];Batt[%];Lat;Lng;Speed[m/s]
1514106150135;-;-;8.984726;0.48860168;0.2233429;-;-;-;-;-;-;-;-;-;-;-;-;-;-;-
1514106150136;-;-;8.984726;0.48860168;0.2233429;-;-;-;-;-;-;-;-;-;-;-;-;-;-;-
1514106150155;-;-;9.024231;0.33537292;-0.111846924;-;-;-;-;-;-;-;-;-;-;-;-;-;-;-
1514106150176;-;-;8.955994;0.16299438;-0.17289734;-;-;-;-;-;-;-;-;-;-;-;-;-;-;-
1514106150196;-;-;9.448013;-0.289505;0.0856781;-;-;-;-;-;-;-;-;-;-;-;-;-;-;-
1514106150216;-;-;9.530609;-0.17338562;0.11920166;-;-;-;-;-;-;-;-;-;-;-;-;-;-;-
1514106150236;-;-;9.312744;0.13067627;-0.11903381;-;-;-;-;-;-;-;-;-;-;-;-;-;-;-
1514106150257;-;-;9.491104;0.069625854;-0.10586548;-;-;-;-;-;-;-;-;-;-;-;-;-;-;-
1514106150278;-;-;9.301956;0.23602295;-0.24711609;-;-;-;-;-;-;-;-;-;-;-;-;-;-;-
1514106150298;-;-;9.014664;0.17497253;-0.15733337;-;-;-;-;-;-;-;-;-;-;-;-;-;-;-
1514106150319;-;-;8.854248;0.1043396;-0.15733337;-;-;-;-;-;-;-;-;-;-;-;-;-;-;-
1514106150338;-;-;9.130783;-0.00340271;-0.18008423;-;-;-;-;-;-;-;-;-;-;-;-;-;-;-
1514106150358;-;-;9.0577545;0.52212524;0.10961914;-;-;-;-;-;-;-;-;-;-;-;-;-;-;-
1514106150389;-;-;9.445618;0.021743774;-0.74391174;-;-;-;-;-;-;-;-;-;-;-;-;-;-;-
1514106150398;-;-;9.093674;0.076812744;-0.6732788;-;-;-;-;-;-;-;-;-;-;-;-;-;-;-
1514106150419;-;-;9.647919;-0.11352539;-0.63856506;-;-;-;-;-;-;-;-;-;-;-;-;-;-;-
1514106150439;-;-;9.658707;-0.29429626;-0.22198486;-;-;-;-;-;-;-;-;-;-;-;-;-;-;-
1514106150459;-;-;9.3546295;-0.44154358;-0.45780945;-;-;-;-;-;-;-;-;-;-;-;-;-;-;-
1514106150480;-;-;8.72377;0.27192688;0.21376038;-;-;-;-;-;-;-;-;-;-;-;-;-;-;-
1514106150500;-;-;8.753693;0.2515869;0.3705902;-;-;-;-;-;-;-;-;-;-;-;-;-;-;-
1514106150520;-;-;8.420898;-0.069244385;-0.11424255;-;-;-;-;-;-;-;-;-;-;-;-;-;-;-
1514106150540;-;-;8.448425;-0.5827942;-0.087905884;-;-;-;-;-;-;-;-;-;-;-;-;-;-;-
1514106150561;-;-;10.283585;-1.151413;0.37657166;-;-;-;-;-;-;-;-;-;-;-;-;-;-;-
1514106150581;-;-;7.7014465;-0.16261292;0.6782379;-;-;-;-;-;-;-;-;-;-;-;-;-;-;-
1514106150601;-;-;9.080505;-0.18057251;-0.15493774;-;-;-;-;-;-;-;-;-;-;-;-;-;-;-
1514106150621;-;-;9.868195;-3.3097992;1.8118896;-;-;-;-;-;-;-;-;-;-;-;-;-;-;-
1514106150642;-;-;11.861359;0.062438965;-0.82173157;-;-;-;-;-;-;-;-;-;-;-;-;-;-;-
1514106150662;-;-;9.980713;-1.0400848;0.5369873;-;-;-;-;-;-;-;-;-;-;-;-;-;-;-
1514106150683;-;-;9.380966;-1.1813507;0.61958313;-;-;-;-;-;-;-;-;-;-;-;-;-;-;-
1514106150703;-;-;11.004242;-0.78990173;0.860199;-;-;-;-;-;-;-;-;-;-;-;-;-;-;-
1514106150723;-;-;4.362732;2.394394;-10.3207245;-;-;-;-;-;-;-;-;-;-;-;-;-;-;-
1514106150743;-;-;8.854248;0.3569336;0.97273254;-;-;-;-;-;-;-;-;-;-;-;-;-;-;-
1514106150764;-;-;7.3028107;-0.36732483;-1.7111664;-;-;-;-;-;-;-;-;-;-;-;-;-;-;-
1514106150784;-;-;11.235275;-0.8210144;1.3330536;-;-;-;-;-;-;-;-;-;-;-;-;-;-;-
1514106150805;-;-;9.991501;-1.1179047;0.45439148;-;-;-;-;-;-;-;-;-;-;-;-;-;-;-
1514106150825;-;-;8.964386;0.081588745;-1.377182;-;-;-;-;-;-;-;-;-;-;-;-;-;-;-
1514106150845;-;-;9.353439;-0.9084015;-0.8348999;-;-;-;-;-;-;-;-;-;-;-;-;-;-;-
1514106150865;-;-;9.264847;0.5556488;-0.80856323;-;-;-;-;-;-;-;-;-;-;-;-;-;-;-
1514106150886;-;-;9.032608;-0.07043457;-0.2866211;-;-;-;-;-;-;-;-;-;-;-;-;-;-;-
1514106150906;-;-;9.130783;-0.41160583;-0.4051361;-;-;-;-;-;-;-;-;-;-;-;-;-;-;-
1514106150926;-;-;8.756088;0.67774963;-0.5631561;-;-;-;-;-;-;-;-;-;-;-;-;-;-;-
1514106150946;-;-;9.778412;-4.57872;0.01864624;-;-;-;-;-;-;-;-;-;-;-;-;-;-;-
1514106150967;-;-;8.605255;-0.3649292;-1.1461334;-;-;-;-;-;-;-;-;-;-;-;-;-;-;-
1514106150987;-;-;9.100845;-0.39964294;-1.4118958;-;-;-;-;-;-;-;-;-;-;-;-;-;-;-
1514106151007;-;-;9.797562;-0.59716797;-0.93904114;-;-;-;-;-;-;-;-;-;-;-;-;-;-;-
1514106151028;-;-;9.517441;-0.49061584;-0.92108154;-;-;-;-;-;-;-;-;-;-;-;-;-;-;-
1514106151048;-;-;8.976349;0.46347046;-0.0914917;-;-;-;-;-;-;-;-;-;-;-;-;-;-;-
1514106151068;-;-;9.705383;0.036102295;-0.97735596;-;-;-;-;-;-;-;-;-;-;-;-;-;-;-
1514106151089;-;-;9.199005;-0.5612488;-2.4725342;-;-;-;-;-;-;-;-;-;-;-;-;-;-;-
1514106151108;-;-;8.261688;0.47782898;-1.6333618;-;-;-;-;-;-;-;-;-;-;-;-;-;-;-
1514106151129;-;-;8.438858;0.54248047;-1.7027893;-;-;-;-;-;-;-;-;-;-;-;-;-;-;-
1514106151148;-;-;7.7098236;-0.6977234;-2.3444366;-;-;-;-;-;-;-;-;-;-;-;-;-;-;-
1514106151168;-;-;6.8131866;0.13426208;-1.2179718;-;-;-;-;-;-;-;-;-;-;-;-;-;-;-
1514106151189;-;-;7.940857;0.872879;-1.2143707;-;-;-;-;-;-;-;-;-;-;-;-;-;-;-
1514106151209;-;-;8.398148;-0.1410675;-1.9733429;-;-;-;-;-;-;-;-;-;-;-;-;-;-;-
1514106151229;-;-;8.3107605;-1.4937897;0.9320221;-;-;-;-;-;-;-;-;-;-;-;-;-;-;-
1514106151249;-;-;6.968811;-2.70047;5.579178;-;-;-;-;-;-;-;-;-;-;-;-;-;-;-
1514106151270;-;-;6.11409;-0.5756073;-19.665283;-;-;-;-;-;-;-;-;-;-;-;-;-;-;-
1514106151290;-;-;5.790863;0.675354;-10.26326;-;-;-;-;-;-;-;-;-;-;-;-;-;-;-
1514106151310;-;-;7.719391;0.44432068;-6.58696;-;-;-;-;-;-;-;-;-;-;-;-;-;-;-
1514106151331;-;-;9.361816;0.57240295;-2.0391846;-;-;-;-;-;-;-;-;-;-;-;-;-;-;-
1514106151351;-;-;4.276535;-0.109939575;-7.1615753;-;-;-;-;-;-;-;-;-;-;-;-;-;-;-
1514106151371;-;-;7.995926;0.17497253;-3.1488953;-;-;-;-;-;-;-;-;-;-;-;-;-;-;-
1514106151391;-;-;7.5589905;-0.1817627;-2.1947937;-;-;-;-;-;-;-;-;-;-;-;-;-;-;-
1514106151412;-;-;5.781296;-0.45829773;-2.6784363;-;-;-;-;-;-;-;-;-;-;-;-;-;-;-
1514106151432;-;-;6.237381;-0.23564148;-3.4972534;-;-;-;-;-;-;-;-;-;-;-;-;-;-;-
1514106151452;-;-;6.6551666;-1.4566803;-2.0319977;-;-;-;-;-;-;-;-;-;-;-;-;-;-;-
1514106151473;-;-;8.079727;-1.6709595;-2.8017273;-;-;-;-;-;-;-;-;-;-;-;-;-;-;-
1514106151492;-;-;6.2864685;-2.262329;-5.745407;-;-;-;-;-;-;-;-;-;-;-;-;-;-;-
1514106151512;-;-;6.7724915;-1.2711334;-3.1476898;-;-;-;-;-;-;-;-;-;-;-;-;-;-;-
1514106151532;-;-;6.388214;-1.1322632;-3.3152924;-;-;-;-;-;-;-;-;-;-;-;-;-;-;-
1514106151553;-;-;5.5155334;-2.0815735;-2.9166565;-;-;-;-;-;-;-;-;-;-;-;-;-;-;-
1514106151573;-;-;7.3052063;-1.843338;-3.8611603;-;-;-;-;-;-;-;-;-;-;-;-;-;-;-
1514106151593;-;-;6.122467;-1.4794312;-5.4233856;-;-;-;-;-;-;-;-;-;-;-;-;-;-;-
1514106151614;-;-;7.580536;-1.0029755;-4.4872437;-;-;-;-;-;-;-;-;-;-;-;-;-;-;-
1514106151633;-;-;8.30957;-0.39604187;-4.6237183;-;-;-;-;-;-;-;-;-;-;-;-;-;-;-
1514106151653;-;-;8.343079;-0.4846344;-4.6129456;-;-;-;-;-;-;-;-;-;-;-;-;-;-;-
1514106151674;-;-;7.9755707;0.031311035;-5.3958435;-;-;-;-;-;-;-;-;-;-;-;-;-;-;-
1514106151694;-;-;7.858261;-0.10395813;-5.211487;-;-;-;-;-;-;-;-;-;-;-;-;-;-;-
1514106151714;-;-;7.7648926;-0.4954071;-6.290085;-;-;-;-;-;-;-;-;-;-;-;-;-;-;-
1514106151734;-;-;7.869034;-0.8018646;-6.622879;-;-;-;-;-;-;-;-;-;-;-;-;-;-;-
1514106151755;-;-;7.8965607;-0.76834106;-6.0793915;-;-;-;-;-;-;-;-;-;-;-;-;-;-;-
1514106151775;-;-;7.154358;-0.28352356;-6.3511353;-;-;-;-;-;-;-;-;-;-;-;-;-;-;-
1514106151795;-;-;7.125641;-0.00340271;-6.066223;-;-;-;-;-;-;-;-;-;-;-;-;-;-;-
1514106151815;-;-;7.9779663;-0.100372314;-4.697937;-;-;-;-;-;-;-;-;-;-;-;-;-;-;-
1514106151836;-;-;7.2657013;0.5233307;-6.8144073;-;-;-;-;-;-;-;-;-;-;-;-;-;-;-
1514106151856;-;-;7.846283;-0.34576416;-7.599716;-;-;-;-;-;-;-;-;-;-;-;-;-;-;-
1514106151876;-;-;7.533844;-1.2136688;-6.0602417;-;-;-;-;-;-;-;-;-;-;-;-;-;-;-
1514106151896;-;-;7.3734283;-1.1981049;-5.9046173;-;-;-;-;-;-;-;-;-;-;-;-;-;-;-
1514106151917;-;-;7.379425;-0.67855835;-6.0123596;-;-;-;-;-;-;-;-;-;-;-;-;-;-;-
1514106151937;-;-;7.292038;-0.15782166;-6.303253;-;-;-;-;-;-;-;-;-;-;-;-;-;-;-
1514106151957;-;-;7.296814;-0.19732666;-6.463669;-;-;-;-;-;-;-;-;-;-;-;-;-;-;-
1514106151978;-;-;7.508713;-0.6246948;-4.563858;-;-;-;-;-;-;-;-;-;-;-;-;-;-;-
1514106151998;-;-;7.700241;-0.21887207;-4.548294;-;-;-;-;-;-;-;-;-;-;-;-;-;-;-
1514106152018;-;-;8.759674;0.33299255;-5.306061;-;-;-;-;-;-;-;-;-;-;-;-;-;-;-
1514106152038;-;-;11.890091;0.47782898;-5.8028564;-;-;-;-;-;-;-;-;-;-;-;-;-;-;-
1514106152059;-;-;16.369644;1.1901093;-6.630066;-;-;-;-;-;-;-;-;-;-;-;-;-;-;-
1514106152079;-;-;18.720749;1.5085449;-9.033844;-;-;-;-;-;-;-;-;-;-;-;-;-;-;-
1514106152099;-;-;18.335281;1.9706268;-10.429657;-;-;-;-;-;-;-;-;-;-;-;-;-;-;-
1514106152120;-;-;15.760315;0.17736816;-7.7505493;-;-;-;-;-;-;-;-;-;-;-;-;-;-;-
1514106152140;-;-;11.741653;-0.6869507;-4.2933197;-;-;-;-;-;-;-;-;-;-;-;-;-;-;-
1514106152160;-;-;7.861847;-1.5476532;-0.7582855;-;-;-;-;-;-;-;-;-;-;-;-;-;-;-
1514106152181;-;-;4.196335;-2.119873;2.8114777;-;-;-;-;-;-;-;-;-;-;-;-;-;-;-
1514106152201;-;-;2.20076;-1.8505249;2.2464447;-;-;-;-;-;-;-;-;-;-;-;-;-;-;-
1514106152221;-;-;1.8871155;-1.7607422;2.433197;-;-;-;-;-;-;-;-;-;-;-;-;-;-;-
1514106152242;-;-;3.8383942;-0.98861694;2.0094147;-;-;-;-;-;-;-;-;-;-;-;-;-;-;-
1514106152262;-;-;6.4887695;0.02772522;-0.41830444;-;-;-;-;-;-;-;-;-;-;-;-;-;-;-
1514106152282;-;-;10.1961975;1.2344055;-3.70076;-;-;-;-;-;-;-;-;-;-;-;-;-;-;-
1514106152302;-;-;11.742859;2.0568085;-4.7087097;-;-;-;-;-;-;-;-;-;-;-;-;-;-;-
1514106152323;-;-;12.125931;1.3337555;-5.109741;-;-;-;-;-;-;-;-;-;-;-;-;-;-;-
1514106152342;-;-;12.67778;0.9686432;-3.733078;-;-;-;-;-;-;-;-;-;-;-;-;-;-;-
1514106152362;-;-;12.669403;0.68852234;-1.7075806;-;-;-;-;-;-;-;-;-;-;-;-;-;-;-
1514106152382;-;-;11.244858;0.33657837;0.10003662;-;-;-;-;-;-;-;-;-;-;-;-;-;-;-
1514106152403;-;-;8.884171;-0.033325195;1.1905975;-;-;-;-;-;-;-;-;-;-;-;-;-;-;-
1514106152423;-;-;6.4013824;0.07321167;0.93681335;-;-;-;-;-;-;-;-;-;-;-;-;-;-;-
1514106152443;-;-;4.711075;0.38206482;1.0780792;-;-;-;-;-;-;-;-;-;-;-;-;-;-;-
1514106152464;-;-;5.758545;0.76634216;1.1570892;-;-;-;-;-;-;-;-;-;-;-;-;-;-;-
1514106152484;-;-;8.399353;0.8118286;-0.19444275;-;-;-;-;-;-;-;-;-;-;-;-;-;-;-
1514106152504;-;-;8.958389;0.6346588;-1.2598572;-;-;-;-;-;-;-;-;-;-;-;-;-;-;-
1514106152525;-;-;8.970367;0.028915405;-1.3256989;-;-;-;-;-;-;-;-;-;-;-;-;-;-;-
1514106152545;-;-;9.035004;-0.17459106;-1.5687103;-;-;-;-;-;-;-;-;-;-;-;-;-;-;-
1514106152565;-;-;9.299576;0.63105774;-1.6525116;-;-;-;-;-;-;-;-;-;-;-;-;-;-;-
1514106152586;-;-;10.501465;0.5089569;-1.3053589;-;-;-;-;-;-;-;-;-;-;-;-;-;-;-
1514106152606;-;-;10.932419;-0.076416016;-1.6728668;-;-;-;-;-;-;-;-;-;-;-;-;-;-;-
1514106152626;-;-;10.594833;-0.44752502;-1.7506714;-;-;-;-;-;-;-;-;-;-;-;-;-;-;-
1514106152646;-;-;10.208176;-0.119522095;-0.7558899;-;-;-;-;-;-;-;-;-;-;-;-;-;-;-
1514106152667;-;-;9.483917;0.36889648;-0.104660034;-;-;-;-;-;-;-;-;-;-;-;-;-;-;-
1514106152687;-;-;8.5633545;1.0201263;0.046173096;-;-;-;-;-;-;-;-;-;-;-;-;-;-;-
1514106152707;-;-;7.968399;1.2379913;0.015045166;-;-;-;-;-;-;-;-;-;-;-;-;-;-;-
1514106152727;-;-;8.0533905;0.8297882;-0.32731628;-;-;-;-;-;-;-;-;-;-;-;-;-;-;-
1514106152748;-;-;8.614822;0.14144897;-0.7127838;-;-;-;-;-;-;-;-;-;-;-;-;-;-;-
1514106152767;-;-;9.274429;-0.22605896;-1.1688843;-;-;-;-;-;-;-;-;-;-;-;-;-;-;-
1514106152788;-;-;9.71376;-0.04888916;-1.7817993;-;-;-;-;-;-;-;-;-;-;-;-;-;-;-
1514106152809;-;-;10.089661;0.5460663;-2.231903;-;-;-;-;-;-;-;-;-;-;-;-;-;-;-
1514106152829;-;-;10.215347;0.6945038;-2.1349487;-;-;-;-;-;-;-;-;-;-;-;-;-;-;-
1514106152849;-;-;9.997482;0.5640259;-2.0092468;-;-;-;-;-;-;-;-;-;-;-;-;-;-;-
1514106152869;-;-;9.497086;0.2922821;-1.9122772;-;-;-;-;-;-;-;-;-;-;-;-;-;-;-
1514106152890;-;-;9.043396;0.34735107;-1.8524323;-;-;-;-;-;-;-;-;-;-;-;-;-;-;-
1514106152910;-;-;8.769257;0.7591553;-1.6728668;-;-;-;-;-;-;-;-;-;-;-;-;-;-;-
1514106152930;-;-;8.923676;0.7950592;-1.258667;-;-;-;-;-;-;-;-;-;-;-;-;-;-;-
1514106152950;-;-;8.84108;0.9399109;-1.6225891;-;-;-;-;-;-;-;-;-;-;-;-;-;-;-
1514106152971;-;-;9.418076;0.76634216;-1.1868439;-;-;-;-;-;-;-;-;-;-;-;-;-;-;-
1514106152991;-;-;9.164291;0.675354;-1.3460541;-;-;-;-;-;-;-;-;-;-;-;-;-;-;-
1514106153011;-;-;9.175064;0.55085754;-1.5016785;-;-;-;-;-;-;-;-;-;-;-;-;-;-;-
1514106153031;-;-;8.906921;0.68733215;-1.4944916;-;-;-;-;-;-;-;-;-;-;-;-;-;-;-
1514106153052;-;-;8.727356;0.8297882;-1.337677;-;-;-;-;-;-;-;-;-;-;-;-;-;-;-
1514106153072;-;-;8.74411;0.8166199;-1.1664886;-;-;-;-;-;-;-;-;-;-;-;-;-;-;-
1514106153092;-;-;9.024231;0.8776703;-1.2957764;-;-;-;-;-;-;-;-;-;-;-;-;-;-;-
1514106153113;-;-;9.226547;0.50416565;-1.495697;-;-;-;-;-;-;-;-;-;-;-;-;-;-;-
1514106153133;-;-;9.577301;0.47065735;-1.6513214;-;-;-;-;-;-;-;-;-;-;-;-;-;-;-
1514106153153;-;-;9.329498;0.59155273;-1.5531616;-;-;-;-;-;-;-;-;-;-;-;-;-;-;-
1514106153173;-;-;8.927277;0.6681671;-1.5830841;-;-;-;-;-;-;-;-;-;-;-;-;-;-;-
1514106153194;-;-;8.7213745;0.5700073;-1.447815;-;-;-;-;-;-;-;-;-;-;-;-;-;-;-
1514106153215;-;-;8.398148;0.44911194;-1.6166077;-;-;-;-;-;-;-;-;-;-;-;-;-;-;-
1514106153235;-;-;8.431671;0.14503479;-1.4382324;-;-;-;-;-;-;-;-;-;-;-;-;-;-;-
1514106153255;-;-;8.479553;-0.1817627;-1.693222;-;-;-;-;-;-;-;-;-;-;-;-;-;-;-
1514106153276;-;-;8.730942;-0.39006042;-1.4537964;-;-;-;-;-;-;-;-;-;-;-;-;-;-;-
1514106153296;-;-;9.469559;-0.2212677;-1.7195587;-;-;-;-;-;-;-;-;-;-;-;-;-;-;-
1514106153316;-;-;9.232529;0.12348938;-1.8943329;-;-;-;-;-;-;-;-;-;-;-;-;-;-;-
1514106153336;-;-;9.341461;-0.088394165;-1.6130066;-;-;-;-;-;-;-;-;-;-;-;-;-;-;-
1514106153356;-;-;9.55336;-0.52653503;-1.5184326;-;-;-;-;-;-;-;-;-;-;-;-;-;-;-
1514106153377;-;-;9.596451;-0.56962585;-1.392746;-;-;-;-;-;-;-;-;-;-;-;-;-;-;-
1514106153397;-;-;9.25528;0.09954834;-1.3256989;-;-;-;-;-;-;-;-;-;-;-;-;-;-;-
1514106153417;-;-;8.748901;0.6059265;-0.77145386;-;-;-;-;-;-;-;-;-;-;-;-;-;-;-
1514106153437;-;-;8.692642;0.43832397;-0.44943237;-;-;-;-;-;-;-;-;-;-;-;-;-;-;-
1514106153458;-;-;9.106842;0.079193115;-0.50927734;-;-;-;-;-;-;-;-;-;-;-;-;-;-;-
1514106153478;-;-;9.288788;0.08279419;-0.7163849;-;-;-;-;-;-;-;-;-;-;-;-;-;-;-
1514106153498;-;-;9.145142;0.25875854;-0.8372803;-;-;-;-;-;-;-;-;-;-;-;-;-;-;-
1514106153518;-;-;9.245697;0.27192688;-0.91030884;-;-;-;-;-;-;-;-;-;-;-;-;-;-;-
1514106153539;-;-;9.322311;0.23362732;-0.93066406;-;-;-;-;-;-;-;-;-;-;-;-;-;-;-
1514106153559;-;-;9.274429;0.16659546;-0.7965851;-;-;-;-;-;-;-;-;-;-;-;-;-;-;-
1514106153580;-;-;9.115219;0.13186646;-0.70440674;-;-;-;-;-;-;-;-;-;-;-;-;-;-;-
1514106153600;-;-;9.052963;0.16419983;-0.70680237;-;-;-;-;-;-;-;-;-;-;-;-;-;-;-
1514106153620;-;-;9.163101;0.32341003;-0.8325043;-;-;-;-;-;-;-;-;-;-;-;-;-;-;-
1514106153641;-;-;9.373795;0.5676117;-0.84446716;-;-;-;-;-;-;-;-;-;-;-;-;-;-;-
1514106153660;-;-;9.440826;0.57958984;-0.78700256;-;-;-;-;-;-;-;-;-;-;-;-;-;-;-
1514106153680;-;-;9.29837;0.38327026;-0.65293884;-;-;-;-;-;-;-;-;-;-;-;-;-;-;-
1514106153700;-;-;9.432449;0.15701294;-0.35006714;-;-;-;-;-;-;-;-;-;-;-;-;-;-;-
1514106153720;-;-;9.226547;-0.3146515;-0.5068817;-;-;-;-;-;-;-;-;-;-;-;-;-;-;-
1514106153741;-;-;8.945221;-0.68814087;-0.748703;-;-;-;-;-;-;-;-;-;-;-;-;-;-;-
1514106153761;-;-;9.011063;-0.5097656;-0.7127838;-;-;-;-;-;-;-;-;-;-;-;-;-;-;-
1514106153782;-;-;9.0577545;0.031311035;-0.8456726;-;-;-;-;-;-;-;-;-;-;-;-;-;-;-
1514106153802;-;-;9.426468;0.32341003;-1.0767059;-;-;-;-;-;-;-;-;-;-;-;-;-;-;-
1514106153822;-;-;9.570114;0.13786316;-1.3999176;-;-;-;-;-;-;-;-;-;-;-;-;-;-;-
1514106153841;-;-;9.416885;-0.463089;-1.7458801;-;-;-;-;-;-;-;-;-;-;-;-;-;-;-
1514106153861;-;-;9.404907;-0.6941223;-1.2514801;-;-;-;-;-;-;-;-;-;-;-;-;-;-;-
1514106153881;-;-;9.373795;-0.13748169;-1.0599518;-;-;-;-;-;-;-;-;-;-;-;-;-;-;-
1514106153902;-;-;8.774048;0.59155273;-1.124588;-;-;-;-;-;-;-;-;-;-;-;-;-;-;-
1514106153921;-;-;8.605255;0.88246155;-1.0168457;-;-;-;-;-;-;-;-;-;-;-;-;-;-;-
1514106153941;-;-;8.648346;1.0883636;-0.9402313;-;-;-;-;-;-;-;-;-;-;-;-;-;-;-
1514106153962;-;-;8.697433;1.185318;-1.0072784;-;-;-;-;-;-;-;-;-;-;-;-;-;-;-
1514106153982;-;-;8.966782;1.1051178;-1.1353607;-;-;-;-;-;-;-;-;-;-;-;-;-;-;-
1514106154002;-;-;9.234924;0.7651367;-1.2275391;-;-;-;-;-;-;-;-;-;-;-;-;-;-;-
1514106154022;-;-;9.443222;0.5664215;-1.2155762;-;-;-;-;-;-;-;-;-;-;-;-;-;-;-
1514106154043;-;-;9.391739;0.6957092;-1.1700745;-;-;-;-;-;-;-;-;-;-;-;-;-;-;-
1514106154063;-;-;9.269638;0.8273926;-1.1688843;-;-;-;-;-;-;-;-;-;-;-;-;-;-;-
1514106154084;-;-;9.108032;1.0177307;-1.2263489;-;-;-;-;-;-;-;-;-;-;-;-;-;-;-
1514106154103;-;-;8.854248;1.3205872;-1.1700745;-;-;-;-;-;-;-;-;-;-;-;-;-;-;-
1514106154124;-;-;8.885376;1.1817322;-1.1078339;-;-;-;-;-;-;-;-;-;-;-;-;-;-;-
1514106154144;-;-;9.014664;1.070404;-1.3712006;-;-;-;-;-;-;-;-;-;-;-;-;-;-;-
1514106154164;-;-;9.129578;0.9818115;-1.6333618;-;-;-;-;-;-;-;-;-;-;-;-;-;-;-
1514106154185;-;-;9.136765;1.0560303;-1.7506714;-;-;-;-;-;-;-;-;-;-;-;-;-;-;-
1514106154205;-;-;9.124786;1.1541901;-1.6620941;-;-;-;-;-;-;-;-;-;-;-;-;-;-;-
1514106154226;-;-;9.100845;1.161377;-1.4382324;-;-;-;-;-;-;-;-;-;-;-;-;-;-;-
1514106154245;-;-;9.075714;1.161377;-1.3735962;-;-;-;-;-;-;-;-;-;-;-;-;-;-;-
1514106154266;-;-;9.049377;1.0141296;-1.4118958;-;-;-;-;-;-;-;-;-;-;-;-;-;-;-
1514106154286;-;-;9.042191;1.0189209;-1.4944916;-;-;-;-;-;-;-;-;-;-;-;-;-;-;-
1514106154306;-;-;9.049377;1.1506042;-1.4849243;-;-;-;-;-;-;-;-;-;-;-;-;-;-;-
1514106154327;-;-;8.98233;1.3205872;-1.610611;-;-;-;-;-;-;-;-;-;-;-;-;-;-;-
1514106154346;-;-;8.918884;1.4019928;-1.7039948;-;-;-;-;-;-;-;-;-;-;-;-;-;-;-
1514106154366;-;-;8.873398;1.3457336;-1.7327118;-;-;-;-;-;-;-;-;-;-;-;-;-;-;-
1514106154386;-;-;8.903336;1.3182068;-1.7542725;-;-;-;-;-;-;-;-;-;-;-;-;-;-;-
1514106154407;-;-;8.985931;1.3385468;-1.6776581;-;-;-;-;-;-;-;-;-;-;-;-;-;-;-
1514106154427;-;-;8.960785;1.3529205;-1.6692657;-;-;-;-;-;-;-;-;-;-;-;-;-;-;-
1514106154447;-;-;9.094864;1.2368011;-1.713562;-;-;-;-;-;-;-;-;-;-;-;-;-;-;-
1514106154467;-;-;8.942825;1.1661682;-1.5459747;-;-;-;-;-;-;-;-;-;-;-;-;-;-;-
1514106154488;-;-;8.812347;1.2056732;-1.3364716;-;-;-;-;-;-;-;-;-;-;-;-;-;-;-
1514106154508;-;-;8.890167;1.2044678;-1.2083893;-;-;-;-;-;-;-;-;-;-;-;-;-;-;-
1514106154528;-;-;8.936844;1.0943451;-1.3185272;-;-;-;-;-;-;-;-;-;-;-;-;-;-;-
1514106154549;-;-;8.996704;1.0548401;-1.2957764;-;-;-;-;-;-;-;-;-;-;-;-;-;-;-
1514106154569;-;-;8.994308;1.0380707;-1.3292999;-;-;-;-;-;-;-;-;-;-;-;-;-;-;-
1514106154589;-;-;8.838684;1.1278534;-1.4370422;-;-;-;-;-;-;-;-;-;-;-;-;-;-;-
1514106154609;-;-;8.752487;1.2200317;-1.4897003;-;-;-;-;-;-;-;-;-;-;-;-;-;-;-
1514106154630;-;-;8.825516;1.2104645;-1.4897003;-;-;-;-;-;-;-;-;-;-;-;-;-;-;-
1514106154650;-;-;9.005081;0.98420715;-1.432251;-;-;-;-;-;-;-;-;-;-;-;-;-;-;-
1514106154670;-;-;9.12001;0.7878876;-1.5328064;-;-;-;-;-;-;-;-;-;-;-;-;-;-;-
1514106154691;-;-;9.260071;0.7184448;-1.6477203;-;-;-;-;-;-;-;-;-;-;-;-;-;-;-
1514106154711;-;-;9.254074;0.74957275;-1.7147675;-;-;-;-;-;-;-;-;-;-;-;-;-;-;-
1514106154731;-;-;9.134369;0.79745483;-1.6800537;-;-;-;-;-;-;-;-;-;-;-;-;-;-;-
1514106154751;-;-;9.029022;0.8213959;-1.697998;-;-;-;-;-;-;-;-;-;-;-;-;-;-;-
1514106154771;-;-;9.070923;0.8345642;-1.7243347;-;-;-;-;-;-;-;-;-;-;-;-;-;-;-
1514106154792;-;-;9.030228;0.83218384;-1.6956024;-;-;-;-;-;-;-;-;-;-;-;-;-;-;-
1514106154812;-;-;9.062546;0.88604736;-1.6273804;-;-;-;-;-;-;-;-;-;-;-;-;-;-;-
1514106154832;-;-;9.252884;0.92555237;-1.6920166;-;-;-;-;-;-;-;-;-;-;-;-;-;-;-
1514106154853;-;-;9.137955;1.006958;-1.7470856;-;-;-;-;-;-;-;-;-;-;-;-;-;-;-
1514106154873;-;-;9.027832;1.0572357;-1.9517822;-;-;-;-;-;-;-;-;-;-;-;-;-;-;-
1514106154893;-;-;9.037399;1.121872;-1.9194641;-;-;-;-;-;-;-;-;-;-;-;-;-;-;-
1514106154914;-;-;8.831497;1.0500488;-2.0391846;-;-;-;-;-;-;-;-;-;-;-;-;-;-;-
1514106154933;-;-;8.74411;0.90400696;-2.0439606;-;-;-;-;-;-;-;-;-;-;-;-;-;-;-
1514106154953;-;-;9.038605;0.7807007;-1.8500366;-;-;-;-;-;-;-;-;-;-;-;-;-;-;-
1514106154974;-;-;8.997894;0.6921234;-1.8883362;-;-;-;-;-;-;-;-;-;-;-;-;-;-;-
1514106154993;-;-;8.927277;0.62628174;-1.8129272;-;-;-;-;-;-;-;-;-;-;-;-;-;-;-
1514106155013;-;-;9.23851;0.6549988;-1.629776;-;-;-;-;-;-;-;-;-;-;-;-;-;-;-
1514106155033;-;-;8.826721;0.5556488;-1.8224945;-;-;-;-;-;-;-;-;-;-;-;-;-;-;-
1514106155054;-;-;8.940445;0.47305298;-1.9278412;-;-;-;-;-;-;-;-;-;-;-;-;-;-;-
1514106155074;-;-;9.205002;0.98779297;-1.5339966;-;-;-;-;-;-;-;-;-;-;-;-;-;-;-
1514106155094;-;-;8.993118;0.71965027;-1.9565735;-;-;-;-;-;-;-;-;-;-;-;-;-;-;-
1514106155114;-;-;8.659119;0.5376892;-1.9254456;-;-;-;-;-;-;-;-;-;-;-;-;-;-;-
1514106155135;-;-;9.3498535;0.8609009;-1.5339966;-;-;-;-;-;-;-;-;-;-;-;-;-;-;-
1514106155154;-;-;9.017059;0.71006775;-1.9529877;-;-;-;-;-;-;-;-;-;-;-;-;-;-;-
1514106155174;-;-;8.955994;0.512558;-2.1181793;-;-;-;-;-;-;-;-;-;-;-;-;-;-;-
1514106155195;-;-;8.906921;0.2803192;-2.076294;-;-;-;-;-;-;-;-;-;-;-;-;-;-;-
1514106155214;-;-;9.074509;0.13067627;-2.1696625;-;-;-;-;-;-;-;-;-;-;-;-;-;-;-
1514106155234;-;-;9.06015;0.064834595;-2.1421204;-;-;-;-;-;-;-;-;-;-;-;-;-;-;-
1514106155255;-;-;9.049377;0.03730774;-1.9829102;-;-;-;-;-;-;-;-;-;-;-;-;-;-;-
1514106155275;-;-;8.9991;0.107925415;-1.90271;-;-;-;-;-;-;-;-;-;-;-;-;-;-;-
1514106155295;-;-;8.993118;0.2420044;-1.9805145;-;-;-;-;-;-;-;-;-;-;-;-;-;-;-
1514106155315;-;-;9.0577545;0.4299469;-1.9912872;-;-;-;-;-;-;-;-;-;-;-;-;-;-;-
1514106155336;-;-;9.15712;0.5783844;-1.9996796;-;-;-;-;-;-;-;-;-;-;-;-;-;-;-
1514106155356;-;-;9.130783;0.72683716;-2.029602;-;-;-;-;-;-;-;-;-;-;-;-;-;-;-
1514106155376;-;-;9.072113;0.8668976;-1.9649506;-;-;-;-;-;-;-;-;-;-;-;-;-;-;-
1514106155396;-;-;9.035004;0.8453522;-2.0319977;-;-;-;-;-;-;-;-;-;-;-;-;-;-;-
1514106155417;-;-;8.940445;0.8046417;-1.9062958;-;-;-;-;-;-;-;-;-;-;-;-;-;-;-
1514106155437;-;-;8.914108;0.769928;-1.7518768;-;-;-;-;-;-;-;-;-;-;-;-;-;-;-
1514106155457;-;-;8.90094;0.6717682;-1.7434998;-;-;-;-;-;-;-;-;-;-;-;-;-;-;-
1514106155478;-;-;8.8997345;0.60113525;-1.8057404;-;-;-;-;-;-;-;-;-;-;-;-;-;-;-
1514106155498;-;-;8.936844;0.56044006;-1.8141174;-;-;-;-;-;-;-;-;-;-;-;-;-;-;-
1514106155519;-;-;9.006287;0.5747986;-1.9015045;-;-;-;-;-;-;-;-;-;-;-;-;-;-;-
1514106155540;-;-;9.105637;0.5783844;-1.9314423;-;-;-;-;-;-;-;-;-;-;-;-;-;-;-
1514106155560;-;-;9.148727;0.52093506;-1.9517822;-;-;-;-;-;-;-;-;-;-;-;-;-;-;-
1514106155580;-;-;9.146347;0.54966736;-2.00206;-;-;-;-;-;-;-;-;-;-;-;-;-;-;-
1514106155601;-;-;9.0733185;0.6071167;-2.0559387;-;-;-;-;-;-;-;-;-;-;-;-;-;-;-
1514106155621;-;-;8.910507;0.6035309;-2.0786743;-;-;-;-;-;-;-;-;-;-;-;-;-;-;-
1514106155642;-;-;8.88298;0.5736084;-2.0822754;-;-;-;-;-;-;-;-;-;-;-;-;-;-;-
1514106155662;-;-;8.88298;0.51374817;-2.0894623;-;-;-;-;-;-;-;-;-;-;-;-;-;-;-
1514106155682;-;-;8.862625;0.4981842;-2.0834656;-;-;-;-;-;-;-;-;-;-;-;-;-;-;-
1514106155703;-;-;8.958389;0.4586792;-2.0152283;-;-;-;-;-;-;-;-;-;-;-;-;-;-;-
1514106155723;-;-;9.023041;0.51493835;-2.1169891;-;-;-;-;-;-;-;-;-;-;-;-;-;-;-
1514106155743;-;-;8.985931;0.5700073;-2.13974;-;-;-;-;-;-;-;-;-;-;-;-;-;-;-
1514106155764;-;-;9.005081;0.64901733;-2.029602;-;-;-;-;-;-;-;-;-;-;-;-;-;-;-
1514106155784;-;-;9.064941;0.61909485;-1.9637604;-;-;-;-;-;-;-;-;-;-;-;-;-;-;-
1514106155804;-;-;9.037399;0.5783844;-1.9015045;-;-;-;-;-;-;-;-;-;-;-;-;-;-;-
1514106155825;-;-;9.020645;0.5376892;-1.8572235;-;-;-;-;-;-;-;-;-;-;-;-;-;-;-
1514106155845;-;-;8.995499;0.5771942;-1.8284912;-;-;-;-;-;-;-;-;-;-;-;-;-;-;-
1514106155865;-;-;8.993118;0.6035309;-1.8308868;-;-;-;-;-;-;-;-;-;-;-;-;-;-;-
1514106155885;-;-;8.996704;0.54248047;-1.863205;-;-;-;-;-;-;-;-;-;-;-;-;-;-;-
1514106155906;-;-;9.025436;0.53289795;-1.9086914;-;-;-;-;-;-;-;-;-;-;-;-;-;-;-
1514106155926;-;-;8.934448;0.5197296;-1.9278412;-;-;-;-;-;-;-;-;-;-;-;-;-;-;-
1514106155946;-;-;8.977554;0.47543335;-1.9314423;-;-;-;-;-;-;-;-;-;-;-;-;-;-;-
1514106155967;-;-;8.977554;0.45988464;-2.012848;-;-;-;-;-;-;-;-;-;-;-;-;-;-;-
1514106155987;-;-;9.007477;0.47543335;-1.9960785;-;-;-;-;-;-;-;-;-;-;-;-;-;-;-
1514106156007;-;-;8.997894;0.457489;-2.00206;-;-;-;-;-;-;-;-;-;-;-;-;-;-;-
1514106156028;-;-;9.06134;0.42515564;-1.9721375;-;-;-;-;-;-;-;-;-;-;-;-;-;-;-
1514106156048;-;-;9.109222;0.46705627;-1.9721375;-;-;-;-;-;-;-;-;-;-;-;-;-;-;-
1514106156068;-;-;9.058945;0.5281067;-1.8643951;-;-;-;-;-;-;-;-;-;-;-;-;-;-;-
1514106156088;-;-;9.032608;0.61190796;-1.8260956;-;-;-;-;-;-;-;-;-;-;-;-;-;-;-
1514106156109;-;-;9.042191;0.68852234;-1.9446106;-;-;-;-;-;-;-;-;-;-;-;-;-;-;-
1514106156129;-;-;8.988327;0.73521423;-2.2211304;-;-;-;-;-;-;-;-;-;-;-;-;-;-;-
1514106156149;-;-;8.912903;0.63345337;-2.4342194;-;-;-;-;-;-;-;-;-;-;-;-;-;-;-
1514106156170;-;-;8.817139;0.47424316;-2.444992;-;-;-;-;-;-;-;-;-;-;-;-;-;-;-
1514106156190;-;-;8.960785;0.3102417;-2.2342987;-;-;-;-;-;-;-;-;-;-;-;-;-;-;-
1514106156210;-;-;8.965576;0.21447754;-2.0547333;-;-;-;-;-;-;-;-;-;-;-;-;-;-;-
1514106156231;-;-;8.983536;0.18574524;-1.7830048;-;-;-;-;-;-;-;-;-;-;-;-;-;-;-
1514106156251;-;-;9.110428;0.1618042;-1.5567474;-;-;-;-;-;-;-;-;-;-;-;-;-;-;-
1514106156271;-;-;9.23851;0.16659546;-1.5172424;-;-;-;-;-;-;-;-;-;-;-;-;-;-;-
1514106156292;-;-;9.2756195;0.33776855;-1.6489258;-;-;-;-;-;-;-;-;-;-;-;-;-;-;-
1514106156312;-;-;9.064941;0.5783844;-1.7339172;-;-;-;-;-;-;-;-;-;-;-;-;-;-;-
1514106156332;-;-;9.096069;0.8417511;-1.6357574;-;-;-;-;-;-;-;-;-;-;-;-;-;-;-
1514106156352;-;-;9.021835;0.8704834;-1.4980927;-;-;-;-;-;-;-;-;-;-;-;-;-;-;-
1514106156372;-;-;8.969162;0.73760986;-1.4238739;-;-;-;-;-;-;-;-;-;-;-;-;-;-;-
1514106156393;-;-;8.936844;0.66218567;-1.4214783;-;-;-;-;-;-;-;-;-;-;-;-;-;-;-
1514106156412;-;-;8.905716;0.67655945;-1.4753418;-;-;-;-;-;-;-;-;-;-;-;-;-;-;-
1514106156432;-;-;9.024231;0.65979004;-1.516037;-;-;-;-;-;-;-;-;-;-;-;-;-;-;-
1514106156452;-;-;9.133179;0.58917236;-1.535202;-;-;-;-;-;-;-;-;-;-;-;-;-;-;-
1514106156473;-;-;9.175064;0.59754944;-1.48732;-;-;-;-;-;-;-;-;-;-;-;-;-;-;-
1514106156493;-;-;9.052963;0.6502228;-1.452591;-;-;-;-;-;-;-;-;-;-;-;-;-;-;-
1514106156513;-;-;8.988327;0.7424011;-1.4753418;-;-;-;-;-;-;-;-;-;-;-;-;-;-;-
1514106156533;-;-;9.032608;0.7687378;-1.5256195;-;-;-;-;-;-;-;-;-;-;-;-;-;-;-
1514106156553;-;-;9.160706;0.6945038;-1.7015991;-;-;-;-;-;-;-;-;-;-;-;-;-;-;-
1514106156574;-;-;9.151123;0.6933136;-1.8859406;-;-;-;-;-;-;-;-;-;-;-;-;-;-;-
1514106156593;-;-;9.149933;0.72683716;-1.9194641;-;-;-;-;-;-;-;-;-;-;-;-;-;-;-
1514106156613;-;-;9.067337;0.83935547;-1.7159576;-;-;-;-;-;-;-;-;-;-;-;-;-;-;-
1514106156633;-;-;9.003891;0.76034546;-1.4669647;-;-;-;-;-;-;-;-;-;-;-;-;-;-;-
1514106156654;-;-;8.940445;0.5736084;-1.3568268;-;-;-;-;-;-;-;-;-;-;-;-;-;-;-
1514106156673;-;-;8.835098;0.30426025;-1.3520355;-;-;-;-;-;-;-;-;-;-;-;-;-;-;-
1514106156693;-;-;8.976349;-0.0045928955;-1.3197174;-;-;-;-;-;-;-;-;-;-;-;-;-;-;-
1514106156713;-;-;9.15831;-0.112335205;-1.377182;-;-;-;-;-;-;-;-;-;-;-;-;-;-;-
1514106156734;-;-;9.195419;0.009765625;-1.4118958;-;-;-;-;-;-;-;-;-;-;-;-;-;-;-
1514106156754;-;-;9.181061;0.22525024;-1.3568268;-;-;-;-;-;-;-;-;-;-;-;-;-;-;-
1514106156774;-;-;9.115219;0.4287567;-1.2814178;-;-;-;-;-;-;-;-;-;-;-;-;-;-;-
1514106156795;-;-;9.15831;0.5676117;-1.3675995;-;-;-;-;-;-;-;-;-;-;-;-;-;-;-
1514106156815;-;-;9.23851;0.6825409;-1.5363922;-;-;-;-;-;-;-;-;-;-;-;-;-;-;-
1514106156835;-;-;9.214569;0.80822754;-1.689621;-;-;-;-;-;-;-;-;-;-;-;-;-;-;-
1514106156856;-;-;9.108032;0.7435913;-1.6692657;-;-;-;-;-;-;-;-;-;-;-;-;-;-;-
1514106156876;-;-;8.918884;0.5843811;-1.6920166;-;-;-;-;-;-;-;-;-;-;-;-;-;-;-
1514106156896;-;-;8.818329;0.5065613;-1.629776;-;-;-;-;-;-;-;-;-;-;-;-;-;-;-
1514106156916;-;-;8.802765;0.5269165;-1.6393433;-;-;-;-;-;-;-;-;-;-;-;-;-;-;-
1514106156936;-;-;8.904526;0.65141296;-1.6656799;-;-;-;-;-;-;-;-;-;-;-;-;-;-;-
1514106156957;-;-;9.116409;0.7723236;-1.6680756;-;-;-;-;-;-;-;-;-;-;-;-;-;-;-
1514106156977;-;-;9.267242;0.9207611;-1.4681549;-;-;-;-;-;-;-;-;-;-;-;-;-;-;-
1514106156997;-;-;9.324707;1.0189209;-1.416687;-;-;-;-;-;-;-;-;-;-;-;-;-;-;-
1514106157018;-;-;9.234924;0.93273926;-1.3975372;-;-;-;-;-;-;-;-;-;-;-;-;-;-;-
1514106157038;-;-;9.090073;0.6238861;-1.1892395;-;-;-;-;-;-;-;-;-;-;-;-;-;-;-
1514106157058;-;-;9.025436;0.4012146;-1.2861938;-;-;-;-;-;-;-;-;-;-;-;-;-;-;-
1514106157079;-;-;8.835098;0.8417511;-1.5124512;-;-;-;-;-;-;-;-;-;-;-;-;-;-;-
1514106157099;-;-;8.7764435;0.8621063;-1.3508453;-;-;-;-;-;-;-;-;-;-;-;-;-;-;-
1514106157119;-;-;8.915298;0.8441467;-1.4226685;-;-;-;-;-;-;-;-;-;-;-;-;-;-;-
1514106157139;-;-;9.159515;0.9207611;-1.4537964;-;-;-;-;-;-;-;-;-;-;-;-;-;-;-
1514106157160;-;-;9.187042;1.0883636;-1.6393433;-;-;-;-;-;-;-;-;-;-;-;-;-;-;-
1514106157180;-;-;9.216965;1.0332947;-1.4382324;-;-;-;-;-;-;-;-;-;-;-;-;-;-;-
1514106157200;-;-;9.242111;0.76634216;-1.1473389;-;-;-;-;-;-;-;-;-;-;-;-;-;-;-
1514106157220;-;-;9.250488;0.69091797;-1.1341705;-;-;-;-;-;-;-;-;-;-;-;-;-;-;-
1514106157241;-;-;9.1523285;0.83576965;-1.148529;-;-;-;-;-;-;-;-;-;-;-;-;-;-;-
1514106157261;-;-;9.080505;0.7244415;-1.1629028;-;-;-;-;-;-;-;-;-;-;-;-;-;-;-
1514106157281;-;-;8.926071;0.59036255;-1.1832428;-;-;-;-;-;-;-;-;-;-;-;-;-;-;-
1514106157302;-;-;8.83989;0.37608337;-1.1593018;-;-;-;-;-;-;-;-;-;-;-;-;-;-;-
1514106157322;-;-;8.916504;0.26115417;-1.1748657;-;-;-;-;-;-;-;-;-;-;-;-;-;-;-
1514106157342;-;-;9.134369;0.34854126;-1.2550812;-;-;-;-;-;-;-;-;-;-;-;-;-;-;-
1514106157363;-;-;9.233734;0.4874115;-1.456192;-;-;-;-;-;-;-;-;-;-;-;-;-;-;-
1514106157383;-;-;9.210983;0.6861267;-1.5220337;-;-;-;-;-;-;-;-;-;-;-;-;-;-;-
1514106157403;-;-;9.085281;0.81422424;-1.416687;-;-;-;-;-;-;-;-;-;-;-;-;-;-;-
1514106157424;-;-;9.019455;0.8632965;-1.3963318;-;-;-;-;-;-;-;-;-;-;-;-;-;-;-
1514106157443;-;-;9.036209;0.95547485;-1.3604279;-;-;-;-;-;-;-;-;-;-;-;-;-;-;-
1514106157463;-;-;8.995499;1.0691986;-1.3412628;-;-;-;-;-;-;-;-;-;-;-;-;-;-;-
1514106157484;-;-;9.042191;1.0332947;-1.219162;-;-;-;-;-;-;-;-;-;-;-;-;-;-;-
1514106157503;-;-;9.105637;0.9243469;-1.2227478;-;-;-;-;-;-;-;-;-;-;-;-;-;-;-
1514106157523;-;-;9.142746;0.81781006;-1.0814972;-;-;-;-;-;-;-;-;-;-;-;-;-;-;-
1514106157543;-;-;9.155914;0.68133545;-0.98812866;-;-;-;-;-;-;-;-;-;-;-;-;-;-;-
1514106157564;-;-;9.181061;0.675354;-0.927063;-;-;-;-;-;-;-;-;-;-;-;-;-;-;-
1514106157584;-;-;9.136765;0.67774963;-0.9953003;-;-;-;-;-;-;-;-;-;-;-;-;-;-;-
1514106157604;-;-;9.148727;0.7028961;-1.0036774;-;-;-;-;-;-;-;-;-;-;-;-;-;-;-
1514106157625;-;-;9.088882;0.7579498;-1.0886841;-;-;-;-;-;-;-;-;-;-;-;-;-;-;-
1514106157645;-;-;9.017059;0.89801025;-1.1138153;-;-;-;-;-;-;-;-;-;-;-;-;-;-;-
1514106157665;-;-;8.985931;1.0021667;-1.1186066;-;-;-;-;-;-;-;-;-;-;-;-;-;-;-
1514106157685;-;-;9.023041;1.030899;-1.0671387;-;-;-;-;-;-;-;-;-;-;-;-;-;-;-
1514106157706;-;-;9.087677;1.022522;-1.0826874;-;-;-;-;-;-;-;-;-;-;-;-;-;-;-
1514106157726;-;-;9.114014;0.96984863;-1.1940308;-;-;-;-;-;-;-;-;-;-;-;-;-;-;-
1514106157746;-;-;9.154724;0.9183655;-1.2119751;-;-;-;-;-;-;-;-;-;-;-;-;-;-;-
1514106157767;-;-;9.103241;0.85491943;-1.2119751;-;-;-;-;-;-;-;-;-;-;-;-;-;-;-
1514106157787;-;-;9.069733;0.77830505;-1.2119751;-;-;-;-;-;-;-;-;-;-;-;-;-;-;-
1514106157807;-;-;9.069733;0.78549194;-1.1736755;-;-;-;-;-;-;-;-;-;-;-;-;-;-;-
1514106157827;-;-;9.069733;0.7842865;-1.2000122;-;-;-;-;-;-;-;-;-;-;-;-;-;-;-
1514106157848;-;-;9.087677;0.77711487;-1.179657;-;-;-;-;-;-;-;-;-;-;-;-;-;-;-
1514106157868;-;-;9.135559;0.7902832;-1.1676941;-;-;-;-;-;-;-;-;-;-;-;-;-;-;-
1514106157888;-;-;9.1918335;0.769928;-1.2287445;-;-;-;-;-;-;-;-;-;-;-;-;-;-;-
1514106157909;-;-;9.154724;0.8046417;-1.1892395;-;-;-;-;-;-;-;-;-;-;-;-;-;-;-
1514106157928;-;-;9.134369;0.7136688;-1.1509247;-;-;-;-;-;-;-;-;-;-;-;-;-;-;-
1514106157948;-;-;9.102051;0.64782715;-1.1808624;-;-;-;-;-;-;-;-;-;-;-;-;-;-;-
1514106157968;-;-;9.066132;0.6454315;-1.1162109;-;-;-;-;-;-;-;-;-;-;-;-;-;-;-
1514106157989;-;-;9.090073;0.6274719;-1.1497345;-;-;-;-;-;-;-;-;-;-;-;-;-;-;-
1514106158008;-;-;9.159515;0.6346588;-1.1078339;-;-;-;-;-;-;-;-;-;-;-;-;-;-;-
1514106158028;-;-;9.15831;0.6945038;-1.1221924;-;-;-;-;-;-;-;-;-;-;-;-;-;-;-
1514106158049;-;-;9.087677;0.77471924;-1.0994568;-;-;-;-;-;-;-;-;-;-;-;-;-;-;-
1514106158068;-;-;9.085281;0.7424011;-1.0659332;-;-;-;-;-;-;-;-;-;-;-;-;-;-;-
1514106158088;-;-;9.134369;0.71006775;-1.0228424;-;-;-;-;-;-;-;-;-;-;-;-;-;-;-
1514106158109;-;-;9.154724;0.6945038;-0.99890137;-;-;-;-;-;-;-;-;-;-;-;-;-;-;-
1514106158129;-;-;9.134369;0.79267883;-1.0276337;-;-;-;-;-;-;-;-;-;-;-;-;-;-;-
1514106158149;-;-;9.115219;0.7986603;-1.0156555;-;-;-;-;-;-;-;-;-;-;-;-;-;-;-
1514106158169;-;-;9.080505;0.7914734;-1.0144653;-;-;-;-;-;-;-;-;-;-;-;-;-;-;-
1514106158190;-;-;9.072113;0.74598694;-1.0240326;-;-;-;-;-;-;-;-;-;-;-;-;-;-;-
1514106158210;-;-;9.085281;0.7795105;-0.99890137;-;-;-;-;-;-;-;-;-;-;-;-;-;-;-
1514106158230;-;-;9.096069;0.7986603;-0.98213196;-;-;-;-;-;-;-;-;-;-;-;-;-;-;-
1514106158250;-;-;9.146347;0.8226013;-0.98573303;-;-;-;-;-;-;-;-;-;-;-;-;-;-;-
1514106158271;-;-;9.094864;0.89323425;-0.97016907;-;-;-;-;-;-;-;-;-;-;-;-;-;-;-
1514106158290;-;-;9.070923;0.8501282;-1.0372009;-;-;-;-;-;-;-;-;-;-;-;-;-;-;-
1514106158310;-;-;9.091278;0.8381653;-1.0419922;-;-;-;-;-;-;-;-;-;-;-;-;-;-;-
1514106158331;-;-;9.125992;0.809433;-1.0743103;-;-;-;-;-;-;-;-;-;-;-;-;-;-;-
1514106158351;-;-;9.15831;0.8501282;-1.1114197;-;-;-;-;-;-;-;-;-;-;-;-;-;-;-
1514106158371;-;-;9.14035;0.83935547;-1.0898743;-;-;-;-;-;-;-;-;-;-;-;-;-;-;-
1514106158392;-;-;9.091278;0.8202057;-1.0874786;-;-;-;-;-;-;-;-;-;-;-;-;-;-;-
1514106158411;-;-;9.086487;0.8309784;-1.1030426;-;-;-;-;-;-;-;-;-;-;-;-;-;-;-
1514106158431;-;-;9.103241;0.8166199;-1.0946655;-;-;-;-;-;-;-;-;-;-;-;-;-;-;-
1514106158452;-;-;9.092468;0.84295654;-1.0527649;-;-;-;-;-;-;-;-;-;-;-;-;-;-;-
1514106158472;-;-;9.105637;0.88365173;-1.1162109;-;-;-;-;-;-;-;-;-;-;-;-;-;-;-
1514106158492;-;-;9.1128235;0.888443;-1.0575562;-;-;-;-;-;-;-;-;-;-;-;-;-;-;-
1514106158512;-;-;9.111618;0.8621063;-1.064743;-;-;-;-;-;-;-;-;-;-;-;-;-;-;-
1514106158533;-;-;9.110428;0.85372925;-1.0922699;-;-;-;-;-;-;-;-;-;-;-;-;-;-;-
1514106158553;-;-;9.090073;0.83218384;-1.0659332;-;-;-;-;-;-;-;-;-;-;-;-;-;-;-
1514106158573;-;-;9.068527;0.81422424;-1.0491791;-;-;-;-;-;-;-;-;-;-;-;-;-;-;-
1514106158594;-;-;9.094864;0.8297882;-1.0479736;-;-;-;-;-;-;-;-;-;-;-;-;-;-;-
1514106158614;-;-;9.086487;0.8920288;-1.1593018;-;-;-;-;-;-;-;-;-;-;-;-;-;-;-
1514106158634;-;-;9.054169;0.8788605;-1.0707245;-;-;-;-;-;-;-;-;-;-;-;-;-;-;-
1514106158655;-;-;9.087677;0.8716736;-1.0683289;-;-;-;-;-;-;-;-;-;-;-;-;-;-;-
1514106158675;-;-;9.154724;0.8381653;-1.0910797;-;-;-;-;-;-;-;-;-;-;-;-;-;-;-
1514106158695;-;-;9.114014;0.8609009;-1.0384064;-;-;-;-;-;-;-;-;-;-;-;-;-;-;-
1514106158715;-;-;9.054169;0.8812561;-1.0779114;-;-;-;-;-;-;-;-;-;-;-;-;-;-;-
1514106158736;-;-;9.082901;0.9004059;-1.1545258;-;-;-;-;-;-;-;-;-;-;-;-;-;-;-
1514106158756;-;-;9.049377;0.8668976;-1.1856384;-;-;-;-;-;-;-;-;-;-;-;-;-;-;-
1514106158776;-;-;9.062546;0.89323425;-1.1210022;-;-;-;-;-;-;-;-;-;-;-;-;-;-;-
1514106158797;-;-;9.130783;0.8920288;-1.1221924;-;-;-;-;-;-;-;-;-;-;-;-;-;-;-
1514106158817;-;-;9.141556;0.88365173;-1.1449432;-;-;-;-;-;-;-;-;-;-;-;-;-;-;-
1514106158837;-;-;9.129578;0.8621063;-1.1892395;-;-;-;-;-;-;-;-;-;-;-;-;-;-;-
1514106158857;-;-;9.108032;0.8345642;-1.1856384;-;-;-;-;-;-;-;-;-;-;-;-;-;-;-
1514106158878;-;-;9.080505;0.8621063;-1.195221;-;-;-;-;-;-;-;-;-;-;-;-;-;-;-
1514106158898;-;-;9.051773;0.8621063;-1.1940308;-;-;-;-;-;-;-;-;-;-;-;-;-;-;-
1514106158918;-;-;9.036209;0.8525238;-1.2143707;-;-;-;-;-;-;-;-;-;-;-;-;-;-;-
1514106158939;-;-;9.064941;0.84654236;-1.1892395;-;-;-;-;-;-;-;-;-;-;-;-;-;-;-
1514106158959;-;-;9.121201;0.87527466;-1.1868439;-;-;-;-;-;-;-;-;-;-;-;-;-;-;-
1514106158979;-;-;9.102051;0.83935547;-1.1545258;-;-;-;-;-;-;-;-;-;-;-;-;-;-;-
1514106159000;-;-;9.115219;0.83576965;-1.1688843;-;-;-;-;-;-;-;-;-;-;-;-;-;-;-
1514106159020;-;-;9.090073;0.8704834;-1.1760712;-;-;-;-;-;-;-;-;-;-;-;-;-;-;-
1514106159040;-;-;9.088882;0.8668976;-1.1676941;-;-;-;-;-;-;-;-;-;-;-;-;-;-;-
1514106159060;-;-;9.104446;0.88604736;-1.1629028;-;-;-;-;-;-;-;-;-;-;-;-;-;-;-
1514106159081;-;-;9.106842;0.8621063;-1.1856384;-;-;-;-;-;-;-;-;-;-;-;-;-;-;-
1514106159101;-;-;9.135559;0.8513336;-1.1976166;-;-;-;-;-;-;-;-;-;-;-;-;-;-;-
1514106159121;-;-;9.086487;0.833374;-1.243103;-;-;-;-;-;-;-;-;-;-;-;-;-;-;-
1514106159142;-;-;9.0793;0.83935547;-1.148529;-;-;-;-;-;-;-;-;-;-;-;-;-;-;-
1514106159161;-;-;9.070923;0.8609009;-1.164093;-;-;-;-;-;-;-;-;-;-;-;-;-;-;-
1514106159181;-;-;9.127182;0.8776703;-1.1736755;-;-;-;-;-;-;-;-;-;-;-;-;-;-;-
1514106159201;-;-;9.080505;0.872879;-1.2407074;-;-;-;-;-;-;-;-;-;-;-;-;-;-;-
1514106159222;-;-;9.088882;0.8561249;-1.1521301;-;-;-;-;-;-;-;-;-;-;-;-;-;-;-
1514106159241;-;-;9.104446;0.8309784;-1.164093;-;-;-;-;-;-;-;-;-;-;-;-;-;-;-
1514106159261;-;-;9.091278;0.84773254;-1.1317749;-;-;-;-;-;-;-;-;-;-;-;-;-;-;-
1514106159281;-;-;9.0793;0.8501282;-1.1569061;-;-;-;-;-;-;-;-;-;-;-;-;-;-;-
1514106159302;-;-;9.080505;0.8848419;-1.1605072;-;-;-;-;-;-;-;-;-;-;-;-;-;-;-
1514106159321;-;-;9.067337;0.8992157;-1.1808624;-;-;-;-;-;-;-;-;-;-;-;-;-;-;-
1514106159341;-;-;9.06134;0.88365173;-1.1545258;-;-;-;-;-;-;-;-;-;-;-;-;-;-;-
1514106159361;-;-;9.07811;0.8513336;-1.1772614;-;-;-;-;-;-;-;-;-;-;-;-;-;-;-
1514106159382;-;-;9.128387;0.8118286;-1.1712799;-;-;-;-;-;-;-;-;-;-;-;-;-;-;-
1514106159402;-;-;9.133179;0.87527466;-1.1856384;-;-;-;-;-;-;-;-;-;-;-;-;-;-;-
1514106159423;-;-;9.096069;0.8956299;-1.1940308;-;-;-;-;-;-;-;-;-;-;-;-;-;-;-
1514106159443;-;-;9.076904;0.9064026;-1.1928253;-;-;-;-;-;-;-;-;-;-;-;-;-;-;-
1514106159462;-;-;9.072113;0.87646484;-1.155716;-;-;-;-;-;-;-;-;-;-;-;-;-;-;-
1514106159482;-;-;9.082901;0.8704834;-1.1808624;-;-;-;-;-;-;-;-;-;-;-;-;-;-;-
1514106159502;-;-;9.074509;0.8345642;-1.1760712;-;-;-;-;-;-;-;-;-;-;-;-;-;-;-
1514106159523;-;-;9.1128235;0.8585205;-1.1521301;-;-;-;-;-;-;-;-;-;-;-;-;-;-;-
1514106159543;-;-;9.086487;0.848938;-1.1545258;-;-;-;-;-;-;-;-;-;-;-;-;-;-;-
1514106159563;-;-;9.090073;0.85491943;-1.1616974;-;-;-;-;-;-;-;-;-;-;-;-;-;-;-
1514106159584;-;-;9.0733185;0.8704834;-1.1605072;-;-;-;-;-;-;-;-;-;-;-;-;-;-;-
1514106159604;-;-;9.0793;0.8501282;-1.1293793;-;-;-;-;-;-;-;-;-;-;-;-;-;-;-
1514106159624;-;-;9.090073;0.8597107;-1.1425476;-;-;-;-;-;-;-;-;-;-;-;-;-;-;-
1514106159645;-;-;9.067337;0.888443;-1.1425476;-;-;-;-;-;-;-;-;-;-;-;-;-;-;-
1514106159665;-;-;9.09845;0.872879;-1.1210022;-;-;-;-;-;-;-;-;-;-;-;-;-;-;-
1514106159685;-;-;9.105637;0.833374;-1.2048035;-;-;-;-;-;-;-;-;-;-;-;-;-;-;-
1514106159705;-;-;9.082901;0.84773254;-1.1892395;-;-;-;-;-;-;-;-;-;-;-;-;-;-;-
1514106159726;-;-;9.036209;0.88604736;-1.1748657;-;-;-;-;-;-;-;-;-;-;-;-;-;-;-
1514106159746;-;-;9.080505;0.8585205;-1.1461334;-;-;-;-;-;-;-;-;-;-;-;-;-;-;-
1514106159766;-;-;9.179855;0.86569214;-1.2335358;-;-;-;-;-;-;-;-;-;-;-;-;-;-;-
1514106159787;-;-;9.063736;0.9171753;-1.2873993;-;-;-;-;-;-;-;-;-;-;-;-;-;-;-
1514106159808;-;-;9.0733185;0.81781006;-1.1736755;-;-;-;-;-;-;-;-;-;-;-;-;-;-;-
1514106159828;-;-;9.080505;0.8118286;-1.1593018;-;-;-;-;-;-;-;-;-;-;-;-;-;-;-
1514106159848;-;-;9.094864;0.80345154;-1.2299347;-;-;-;-;-;-;-;-;-;-;-;-;-;-;-
1514106159869;-;-;9.099655;0.8501282;-1.1868439;-;-;-;-;-;-;-;-;-;-;-;-;-;-;-
1514106159889;-;-;9.080505;0.8896332;-1.1736755;-;-;-;-;-;-;-;-;-;-;-;-;-;-;-
1514106159909;-;-;9.039795;0.9004059;-1.2012024;-;-;-;-;-;-;-;-;-;-;-;-;-;-;-
1514106159930;-;-;9.021835;0.8692932;-1.2048035;-;-;-;-;-;-;-;-;-;-;-;-;-;-;-
1514106159950;-;-;9.069733;0.8800659;-1.1844482;-;-;-;-;-;-;-;-;-;-;-;-;-;-;-
1514106159970;-;-;9.114014;0.8441467;-1.203598;-;-;-;-;-;-;-;-;-;-;-;-;-;-;-
1514106159991;-;-;9.106842;0.8812561;-1.2419128;-;-;-;-;-;-;-;-;-;-;-;-;-;-;-
1514106160011;-;-;9.091278;0.91596985;-1.1928253;-;-;-;-;-;-;-;-;-;-;-;-;-;-;-
1514106160031;-;-;9.104446;0.9135742;-1.2550812;-;-;-;-;-;-;-;-;-;-;-;-;-;-;-
1514106160052;-;-;9.084091;0.8632965;-1.2730255;-;-;-;-;-;-;-;-;-;-;-;-;-;-;-
1514106160072;-;-;9.130783;0.84654236;-1.219162;-;-;-;-;-;-;-;-;-;-;-;-;-;-;-
1514106160092;-;-;9.105637;0.87646484;-1.1700745;-;-;-;-;-;-;-;-;-;-;-;-;-;-;-
1514106160112;-;-;9.067337;0.92315674;-1.1533203;-;-;-;-;-;-;-;-;-;-;-;-;-;-;-
1514106160133;-;-;9.041;0.9243469;-1.1449432;-;-;-;-;-;-;-;-;-;-;-;-;-;-;-
1514106160153;-;-;9.066132;0.9099884;-1.1736755;-;-;-;-;-;-;-;-;-;-;-;-;-;-;-
1514106160173;-;-;9.122391;0.888443;-1.1652985;-;-;-;-;-;-;-;-;-;-;-;-;-;-;-
1514106160194;-;-;9.102051;0.8609009;-1.1545258;-;-;-;-;-;-;-;-;-;-;-;-;-;-;-
1514106160214;-;-;9.106842;0.88723755;-1.2215576;-;-;-;-;-;-;-;-;-;-;-;-;-;-;-
1514106160234;-;-;9.093674;0.88723755;-1.2143707;-;-;-;-;-;-;-;-;-;-;-;-;-;-;-
1514106160255;-;-;9.067337;0.86450195;-1.2299347;-;-;-;-;-;-;-;-;-;-;-;-;-;-;-
1514106160274;-;-;9.07811;0.8525238;-1.2203674;-;-;-;-;-;-;-;-;-;-;-;-;-;-;-
1514106160294;-;-;9.09845;0.8668976;-1.2107849;-;-;-;-;-;-;-;-;-;-;-;-;-;-;-
1514106160315;-;-;9.086487;0.8381653;-1.1832428;-;-;-;-;-;-;-;-;-;-;-;-;-;-;-
1514106160335;-;-;9.110428;0.8597107;-1.1473389;-;-;-;-;-;-;-;-;-;-;-;-;-;-;-
1514106160355;-;-;9.142746;0.88604736;-1.1473389;-;-;-;-;-;-;-;-;-;-;-;-;-;-;-
1514106160375;-;-;9.063736;0.9291382;-1.2048035;-;-;-;-;-;-;-;-;-;-;-;-;-;-;-
1514106160395;-;-;9.043396;0.8848419;-1.1700745;-;-;-;-;-;-;-;-;-;-;-;-;-;-;-
1514106160415;-;-;9.037399;0.84295654;-1.1461334;-;-;-;-;-;-;-;-;-;-;-;-;-;-;-
1514106160436;-;-;9.092468;0.7830963;-1.1593018;-;-;-;-;-;-;-;-;-;-;-;-;-;-;-
1514106160456;-;-;9.110428;0.8297882;-1.1868439;-;-;-;-;-;-;-;-;-;-;-;-;-;-;-
1514106160476;-;-;9.117615;0.8609009;-1.1760712;-;-;-;-;-;-;-;-;-;-;-;-;-;-;-
1514106160496;-;-;9.076904;0.9016113;-1.1569061;-;-;-;-;-;-;-;-;-;-;-;-;-;-;-
1514106160517;-;-;9.0733185;0.91596985;-1.1150208;-;-;-;-;-;-;-;-;-;-;-;-;-;-;-
1514106160536;-;-;9.044586;0.89442444;-1.1413574;-;-;-;-;-;-;-;-;-;-;-;-;-;-;-
1514106160556;-;-;9.085281;0.8848419;-1.1269836;-;-;-;-;-;-;-;-;-;-;-;-;-;-;-
1514106160576;-;-;9.108032;0.9004059;-1.1138153;-;-;-;-;-;-;-;-;-;-;-;-;-;-;-
1514106160597;-;-;9.106842;0.9016113;-1.1186066;-;-;-;-;-;-;-;-;-;-;-;-;-;-;-
1514106160617;-;-;9.091278;0.8956299;-1.1509247;-;-;-;-;-;-;-;-;-;-;-;-;-;-;-
1514106160637;-;-;9.063736;0.8992157;-1.0922699;-;-;-;-;-;-;-;-;-;-;-;-;-;-;-
1514106160657;-;-;9.06134;0.848938;-1.1413574;-;-;-;-;-;-;-;-;-;-;-;-;-;-;-
1514106160677;-;-;9.081696;0.8704834;-1.1473389;-;-;-;-;-;-;-;-;-;-;-;-;-;-;-
1514106160698;-;-;9.0972595;0.8956299;-1.1365662;-;-;-;-;-;-;-;-;-;-;-;-;-;-;-
1514106160718;-;-;9.133179;0.8920288;-1.1616974;-;-;-;-;-;-;-;-;-;-;-;-;-;-;-
1514106160738;-;-;9.127182;0.88246155;-1.1832428;-;-;-;-;-;-;-;-;-;-;-;-;-;-;-
1514106160758;-;-;9.103241;0.88365173;-1.2048035;-;-;-;-;-;-;-;-;-;-;-;-;-;-;-
1514106160779;-;-;9.081696;0.8716736;-1.2107849;-;-;-;-;-;-;-;-;-;-;-;-;-;-;-
1514106160799;-;-;9.088882;0.87527466;-1.1916351;-;-;-;-;-;-;-;-;-;-;-;-;-;-;-
1514106160819;-;-;9.081696;0.89323425;-1.2143707;-;-;-;-;-;-;-;-;-;-;-;-;-;-;-
1514106160840;-;-;9.080505;0.89682007;-1.2371216;-;-;-;-;-;-;-;-;-;-;-;-;-;-;-
1514106160860;-;-;9.096069;0.8920288;-1.2119751;-;-;-;-;-;-;-;-;-;-;-;-;-;-;-
1514106160880;-;-;9.0972595;0.88723755;-1.2239532;-;-;-;-;-;-;-;-;-;-;-;-;-;-;-
1514106160900;-;-;9.086487;0.8632965;-1.2155762;-;-;-;-;-;-;-;-;-;-;-;-;-;-;-
1514106160921;-;-;9.081696;0.87527466;-1.1964111;-;-;-;-;-;-;-;-;-;-;-;-;-;-;-
1514106160941;-;-;9.074509;0.8513336;-1.1221924;-;-;-;-;-;-;-;-;-;-;-;-;-;-;-
1514106160962;-;-;9.149933;0.85731506;-1.1688843;-;-;-;-;-;-;-;-;-;-;-;-;-;-;-
1514106160982;-;-;9.07811;0.8956299;-1.243103;-;-;-;-;-;-;-;-;-;-;-;-;-;-;-
1514106161002;-;-;9.087677;0.8609009;-1.1724701;-;-;-;-;-;-;-;-;-;-;-;-;-;-;-
1514106161022;-;-;9.086487;0.8130188;-1.143753;-;-;-;-;-;-;-;-;-;-;-;-;-;-;-
1514106161043;-;-;9.118805;0.7651367;-1.1066284;-;-;-;-;-;-;-;-;-;-;-;-;-;-;-
1514106161063;-;-;9.099655;0.82499695;-1.1425476;-;-;-;-;-;-;-;-;-;-;-;-;-;-;-
1514106161083;-;-;9.054169;0.9111786;-1.140152;-;-;-;-;-;-;-;-;-;-;-;-;-;-;-
1514106161104;-;-;9.06134;0.92196655;-1.1425476;-;-;-;-;-;-;-;-;-;-;-;-;-;-;-
1514106161124;-;-;9.063736;0.9016113;-1.0994568;-;-;-;-;-;-;-;-;-;-;-;-;-;-;-
1514106161144;-;-;9.064941;0.89323425;-1.1186066;-;-;-;-;-;-;-;-;-;-;-;-;-;-;-
1514106161164;-;-;9.129578;0.8704834;-1.1365662;-;-;-;-;-;-;-;-;-;-;-;-;-;-;-
1514106161184;-;-;9.145142;0.8513336;-1.1593018;-;-;-;-;-;-;-;-;-;-;-;-;-;-;-
1514106161205;-;-;9.165497;0.89682007;-1.1509247;-;-;-;-;-;-;-;-;-;-;-;-;-;-;-
1514106161225;-;-;9.06015;0.9028015;-1.1114197;-;-;-;-;-;-;-;-;-;-;-;-;-;-;-
1514106161245;-;-;9.026627;0.88365173;-1.1533203;-;-;-;-;-;-;-;-;-;-;-;-;-;-;-
1514106161266;-;-;9.068527;0.9135742;-1.1664886;-;-;-;-;-;-;-;-;-;-;-;-;-;-;-
1514106161286;-;-;9.100845;0.88723755;-1.1210022;-;-;-;-;-;-;-;-;-;-;-;-;-;-;-
1514106161306;-;-;9.096069;0.88604736;-1.155716;-;-;-;-;-;-;-;-;-;-;-;-;-;-;-
1514106161327;-;-;9.091278;0.9064026;-1.1102295;-;-;-;-;-;-;-;-;-;-;-;-;-;-;-
1514106161347;-;-;9.091278;0.9016113;-1.0982513;-;-;-;-;-;-;-;-;-;-;-;-;-;-;-
1514106161367;-;-;9.093674;0.89323425;-1.1150208;-;-;-;-;-;-;-;-;-;-;-;-;-;-;-
1514106161387;-;-;9.087677;0.89682007;-1.0934601;-;-;-;-;-;-;-;-;-;-;-;-;-;-;-
1514106161408;-;-;9.1128235;0.91238403;-1.0898743;-;-;-;-;-;-;-;-;-;-;-;-;-;-;-
1514106161428;-;-;9.088882;0.9099884;-1.1126251;-;-;-;-;-;-;-;-;-;-;-;-;-;-;-
1514106161448;-;-;9.072113;0.92674255;-1.1808624;-;-;-;-;-;-;-;-;-;-;-;-;-;-;-
1514106161469;-;-;9.07811;0.8848419;-1.1329651;-;-;-;-;-;-;-;-;-;-;-;-;-;-;-
1514106161490;-;-;9.081696;0.8896332;-1.1688843;-;-;-;-;-;-;-;-;-;-;-;-;-;-;-
1514106161511;-;-;9.129578;0.9099884;-1.1449432;-;-;-;-;-;-;-;-;-;-;-;-;-;-;-
1514106161531;-;-;9.09845;0.88604736;-1.1293793;-;-;-;-;-;-;-;-;-;-;-;-;-;-;-
1514106161551;-;-;9.058945;0.90519714;-1.0779114;-;-;-;-;-;-;-;-;-;-;-;-;-;-;-
1514106161572;-;-;9.116409;0.9016113;-1.0623474;-;-;-;-;-;-;-;-;-;-;-;-;-;-;-
1514106161591;-;-;9.094864;0.9363251;-1.1102295;-;-;-;-;-;-;-;-;-;-;-;-;-;-;-
1514106161611;-;-;9.092468;0.90400696;-1.085083;-;-;-;-;-;-;-;-;-;-;-;-;-;-;-
1514106161631;-;-;9.092468;0.8668976;-1.0551605;-;-;-;-;-;-;-;-;-;-;-;-;-;-;-
1514106161651;-;-;9.075714;0.82618713;-1.0826874;-;-;-;-;-;-;-;-;-;-;-;-;-;-;-
1514106161671;-;-;9.074509;0.8417511;-1.006073;-;-;-;-;-;-;-;-;-;-;-;-;-;-;-
1514106161692;-;-;9.0733185;0.9351349;-1.0479736;-;-;-;-;-;-;-;-;-;-;-;-;-;-;-
1514106161712;-;-;9.055359;0.92196655;-1.0814972;-;-;-;-;-;-;-;-;-;-;-;-;-;-;-
1514106161732;-;-;9.0577545;0.9207611;-1.0360107;-;-;-;-;-;-;-;-;-;-;-;-;-;-;-
1514106161753;-;-;9.12001;0.8609009;-1.0372009;-;-;-;-;-;-;-;-;-;-;-;-;-;-;-
1514106161772;-;-;9.125992;0.8585205;-1.0312195;-;-;-;-;-;-;-;-;-;-;-;-;-;-;-
1514106161792;-;-;9.155914;0.8237915;-1.0683289;-;-;-;-;-;-;-;-;-;-;-;-;-;-;-
1514106161813;-;-;9.123596;0.8704834;-1.0707245;-;-;-;-;-;-;-;-;-;-;-;-;-;-;-
1514106161833;-;-;9.054169;0.8992157;-1.0168457;-;-;-;-;-;-;-;-;-;-;-;-;-;-;-
1514106161853;-;-;9.046982;0.88246155;-1.0539703;-;-;-;-;-;-;-;-;-;-;-;-;-;-;-
1514106161874;-;-;9.06015;0.8848419;-1.0515747;-;-;-;-;-;-;-;-;-;-;-;-;-;-;-
1514106161893;-;-;9.096069;0.8704834;-1.025238;-;-;-;-;-;-;-;-;-;-;-;-;-;-;-
1514106161913;-;-;9.125992;0.8273926;-1.0180511;-;-;-;-;-;-;-;-;-;-;-;-;-;-;-
1514106161934;-;-;9.130783;0.8668976;-1.021637;-;-;-;-;-;-;-;-;-;-;-;-;-;-;-
1514106161954;-;-;9.082901;0.9075928;-1.0288239;-;-;-;-;-;-;-;-;-;-;-;-;-;-;-
1514106161974;-;-;9.07811;0.888443;-1.0228424;-;-;-;-;-;-;-;-;-;-;-;-;-;-;-
1514106161995;-;-;9.123596;0.8800659;-1.0264282;-;-;-;-;-;-;-;-;-;-;-;-;-;-;-
1514106162015;-;-;9.0793;0.89442444;-1.0479736;-;-;-;-;-;-;-;-;-;-;-;-;-;-;-
1514106162035;-;-;9.117615;0.9064026;-1.0599518;-;-;-;-;-;-;-;-;-;-;-;-;-;-;-
1514106162056;-;-;9.131973;0.9004059;-1.1114197;-;-;-;-;-;-;-;-;-;-;-;-;-;-;-
1514106162076;-;-;9.13916;0.90400696;-1.0994568;-;-;-;-;-;-;-;-;-;-;-;-;-;-;-
1514106162096;-;-;9.12001;0.92674255;-1.0707245;-;-;-;-;-;-;-;-;-;-;-;-;-;-;-
1514106162116;-;-;9.093674;0.90519714;-1.030014;-;-;-;-;-;-;-;-;-;-;-;-;-;-;-
1514106162137;-;-;9.122391;0.9075928;-1.0707245;-;-;-;-;-;-;-;-;-;-;-;-;-;-;-
1514106162156;-;-;9.094864;0.9195709;-1.0958557;-;-;-;-;-;-;-;-;-;-;-;-;-;-;-
1514106162176;-;-;9.076904;0.8920288;-1.100647;-;-;-;-;-;-;-;-;-;-;-;-;-;-;-
1514106162197;-;-;9.080505;0.8609009;-1.0503693;-;-;-;-;-;-;-;-;-;-;-;-;-;-;-
1514106162216;-;-;9.13916;0.92315674;-1.0276337;-;-;-;-;-;-;-;-;-;-;-;-;-;-;-
1514106162236;-;-;9.118805;0.96624756;-1.1569061;-;-;-;-;-;-;-;-;-;-;-;-;-;-;-
1514106162257;-;-;9.115219;0.9303436;-1.104248;-;-;-;-;-;-;-;-;-;-;-;-;-;-;-
1514106162276;-;-;9.093674;0.87646484;-1.0958557;-;-;-;-;-;-;-;-;-;-;-;-;-;-;-
1514106162296;-;-;9.106842;0.8561249;-1.0491791;-;-;-;-;-;-;-;-;-;-;-;-;-;-;-
1514106162317;-;-;9.109222;0.8800659;-1.0360107;-;-;-;-;-;-;-;-;-;-;-;-;-;-;-
1514106162337;-;-;9.100845;0.9004059;-1.0623474;-;-;-;-;-;-;-;-;-;-;-;-;-;-;-
1514106162357;-;-;9.072113;0.9614563;-1.0791016;-;-;-;-;-;-;-;-;-;-;-;-;-;-;-
1514106162377;-;-;9.049377;0.91596985;-1.0372009;-;-;-;-;-;-;-;-;-;-;-;-;-;-;-
1514106162398;-;-;9.064941;0.8956299;-1.0539703;-;-;-;-;-;-;-;-;-;-;-;-;-;-;-
1514106162418;-;-;9.07811;0.89442444;-1.0934601;-;-;-;-;-;-;-;-;-;-;-;-;-;-;-
1514106162438;-;-;9.128387;0.888443;-1.0922699;-;-;-;-;-;-;-;-;-;-;-;-;-;-;-
1514106162459;-;-;9.12001;0.89442444;-1.1030426;-;-;-;-;-;-;-;-;-;-;-;-;-;-;-
1514106162479;-;-;9.0793;0.8896332;-1.104248;-;-;-;-;-;-;-;-;-;-;-;-;-;-;-
1514106162499;-;-;9.070923;0.88604736;-1.100647;-;-;-;-;-;-;-;-;-;-;-;-;-;-;-
1514106162519;-;-;9.068527;0.8908386;-1.0683289;-;-;-;-;-;-;-;-;-;-;-;-;-;-;-
1514106162540;-;-;9.075714;0.9004059;-1.1162109;-;-;-;-;-;-;-;-;-;-;-;-;-;-;-
1514106162560;-;-;9.121201;0.90400696;-1.0755157;-;-;-;-;-;-;-;-;-;-;-;-;-;-;-
1514106162581;-;-;9.105637;0.9064026;-1.1126251;-;-;-;-;-;-;-;-;-;-;-;-;-;-;-
1514106162601;-;-;9.117615;0.9004059;-1.1186066;-;-;-;-;-;-;-;-;-;-;-;-;-;-;-
1514106162621;-;-;9.104446;0.9075928;-1.1150208;-;-;-;-;-;-;-;-;-;-;-;-;-;-;-
1514106162641;-;-;9.033813;0.8812561;-1.1269836;-;-;-;-;-;-;-;-;-;-;-;-;-;-;-
1514106162662;-;-;9.043396;0.8621063;-1.1233978;-;-;-;-;-;-;-;-;-;-;-;-;-;-;-
1514106162681;-;-;9.092468;0.9111786;-1.1329651;-;-;-;-;-;-;-;-;-;-;-;-;-;-;-
1514106162702;-;-;9.075714;0.89682007;-1.1377563;-;-;-;-;-;-;-;-;-;-;-;-;-;-;-
1514106162722;-;-;9.100845;0.927948;-1.1868439;-;-;-;-;-;-;-;-;-;-;-;-;-;-;-
1514106162742;-;-;9.092468;0.9004059;-1.1569061;-;-;-;-;-;-;-;-;-;-;-;-;-;-;-
1514106162762;-;-;9.091278;0.95547485;-1.1449432;-;-;-;-;-;-;-;-;-;-;-;-;-;-;-
1514106162783;-;-;9.088882;0.89801025;-1.1317749;-;-;-;-;-;-;-;-;-;-;-;-;-;-;-
1514106162802;-;-;9.092468;0.9171753;-1.1616974;-;-;-;-;-;-;-;-;-;-;-;-;-;-;-
1514106162823;-;-;9.056564;0.8908386;-1.0958557;-;-;-;-;-;-;-;-;-;-;-;-;-;-;-
1514106162843;-;-;9.032608;0.8896332;-1.0910797;-;-;-;-;-;-;-;-;-;-;-;-;-;-;-
1514106162863;-;-;9.014664;0.9303436;-1.1712799;-;-;-;-;-;-;-;-;-;-;-;-;-;-;-
1514106162883;-;-;8.983536;0.98062134;-1.2383118;-;-;-;-;-;-;-;-;-;-;-;-;-;-;-
1514106162904;-;-;9.019455;0.9602661;-1.140152;-;-;-;-;-;-;-;-;-;-;-;-;-;-;-
1514106162924;-;-;9.039795;0.8692932;-1.0551605;-;-;-;-;-;-;-;-;-;-;-;-;-;-;-
1514106162944;-;-;9.045776;0.80584717;-1.0970612;-;-;-;-;-;-;-;-;-;-;-;-;-;-;-
1514106162965;-;-;9.102051;0.81062317;-1.1844482;-;-;-;-;-;-;-;-;-;-;-;-;-;-;-
1514106162985;-;-;9.196625;0.8237915;-1.1988068;-;-;-;-;-;-;-;-;-;-;-;-;-;-;-
1514106163005;-;-;9.193024;0.83695984;-1.337677;-;-;-;-;-;-;-;-;-;-;-;-;-;-;-
1514106163026;-;-;9.222961;0.793869;-1.4262543;-;-;-;-;-;-;-;-;-;-;-;-;-;-;-
1514106163046;-;-;9.145142;0.78549194;-1.3364716;-;-;-;-;-;-;-;-;-;-;-;-;-;-;-
1514106163066;-;-;9.169083;0.8022461;-1.1569061;-;-;-;-;-;-;-;-;-;-;-;-;-;-;-
1514106163086;-;-;9.148727;0.9614563;-1.0384064;-;-;-;-;-;-;-;-;-;-;-;-;-;-;-
1514106163107;-;-;9.054169;1.101532;-0.98812866;-;-;-;-;-;-;-;-;-;-;-;-;-;-;-
1514106163127;-;-;9.046982;1.1936951;-1.0024872;-;-;-;-;-;-;-;-;-;-;-;-;-;-;-
1514106163147;-;-;9.054169;1.1482086;-1.0946655;-;-;-;-;-;-;-;-;-;-;-;-;-;-;-
1514106163168;-;-;9.0793;1.0320892;-1.143753;-;-;-;-;-;-;-;-;-;-;-;-;-;-;-
1514106163188;-;-;9.092468;0.91596985;-1.1425476;-;-;-;-;-;-;-;-;-;-;-;-;-;-;-
1514106163208;-;-;9.075714;0.83218384;-1.1724701;-;-;-;-;-;-;-;-;-;-;-;-;-;-;-
1514106163228;-;-;9.066132;0.7807007;-1.1233978;-;-;-;-;-;-;-;-;-;-;-;-;-;-;-
1514106163249;-;-;9.069733;0.7507782;-1.1197968;-;-;-;-;-;-;-;-;-;-;-;-;-;-;-
1514106163269;-;-;9.124786;0.6945038;-1.1832428;-;-;-;-;-;-;-;-;-;-;-;-;-;-;-
1514106163289;-;-;9.175064;0.6633911;-1.2478943;-;-;-;-;-;-;-;-;-;-;-;-;-;-;-
1514106163310;-;-;9.185837;0.6286621;-1.3735962;-;-;-;-;-;-;-;-;-;-;-;-;-;-;-
1514106163330;-;-;9.215775;0.6394501;-1.4083099;-;-;-;-;-;-;-;-;-;-;-;-;-;-;-
1514106163350;-;-;9.200211;0.6442261;-1.3783722;-;-;-;-;-;-;-;-;-;-;-;-;-;-;-
1514106163370;-;-;9.172684;0.62028503;-1.4083099;-;-;-;-;-;-;-;-;-;-;-;-;-;-;-
1514106163390;-;-;9.117615;0.68014526;-1.2909851;-;-;-;-;-;-;-;-;-;-;-;-;-;-;-
1514106163411;-;-;9.230133;0.80345154;-1.143753;-;-;-;-;-;-;-;-;-;-;-;-;-;-;-
1514106163431;-;-;9.323517;0.95188904;-1.0036774;-;-;-;-;-;-;-;-;-;-;-;-;-;-;-
1514106163451;-;-;9.1128235;1.0285034;-0.89234924;-;-;-;-;-;-;-;-;-;-;-;-;-;-;-
1514106163472;-;-;8.923676;1.090744;-0.73672485;-;-;-;-;-;-;-;-;-;-;-;-;-;-;-
1514106163492;-;-;8.929672;1.209259;-0.7115936;-;-;-;-;-;-;-;-;-;-;-;-;-;-;-
1514106163512;-;-;8.989517;1.1087036;-1.0240326;-;-;-;-;-;-;-;-;-;-;-;-;-;-;-
1514106163533;-;-;9.005081;0.9997711;-1.1449432;-;-;-;-;-;-;-;-;-;-;-;-;-;-;-
1514106163553;-;-;9.081696;0.81781006;-1.0743103;-;-;-;-;-;-;-;-;-;-;-;-;-;-;-
1514106163572;-;-;9.117615;0.7112732;-1.0683289;-;-;-;-;-;-;-;-;-;-;-;-;-;-;-
1514106163592;-;-;8.917694;0.6059265;-1.0096741;-;-;-;-;-;-;-;-;-;-;-;-;-;-;-
1514106163613;-;-;8.909317;0.4981842;-0.97735596;-;-;-;-;-;-;-;-;-;-;-;-;-;-;-
1514106163633;-;-;9.025436;0.4514923;-1.1126251;-;-;-;-;-;-;-;-;-;-;-;-;-;-;-
1514106163653;-;-;9.248093;0.46228027;-1.1928253;-;-;-;-;-;-;-;-;-;-;-;-;-;-;-
1514106163674;-;-;9.371399;0.5053711;-1.2754211;-;-;-;-;-;-;-;-;-;-;-;-;-;-;-
1514106163694;-;-;9.403717;0.54367065;-1.3029633;-;-;-;-;-;-;-;-;-;-;-;-;-;-;-
1514106163714;-;-;9.3498535;0.6430359;-1.3412628;-;-;-;-;-;-;-;-;-;-;-;-;-;-;-
1514106163735;-;-;9.213379;0.872879;-1.195221;-;-;-;-;-;-;-;-;-;-;-;-;-;-;-
1514106163755;-;-;8.942825;1.1589813;-1.0360107;-;-;-;-;-;-;-;-;-;-;-;-;-;-;-
1514106163776;-;-;8.782425;1.2451782;-0.9797363;-;-;-;-;-;-;-;-;-;-;-;-;-;-;-
1514106163796;-;-;8.802765;1.1829224;-0.9294586;-;-;-;-;-;-;-;-;-;-;-;-;-;-;-
1514106163816;-;-;8.9392395;1.1518097;-0.8767853;-;-;-;-;-;-;-;-;-;-;-;-;-;-;-
1514106163836;-;-;9.124786;1.1577911;-0.9522095;-;-;-;-;-;-;-;-;-;-;-;-;-;-;-
1514106163857;-;-;9.222961;1.2320099;-0.99890137;-;-;-;-;-;-;-;-;-;-;-;-;-;-;-
1514106163877;-;-;9.230133;1.2990417;-0.92108154;-;-;-;-;-;-;-;-;-;-;-;-;-;-;-
1514106163897;-;-;9.189438;1.3002472;-0.7858124;-;-;-;-;-;-;-;-;-;-;-;-;-;-;-
1514106163917;-;-;9.087677;1.2308044;-0.82650757;-;-;-;-;-;-;-;-;-;-;-;-;-;-;-
1514106163938;-;-;9.003891;1.1158905;-0.9581909;-;-;-;-;-;-;-;-;-;-;-;-;-;-;-
1514106163958;-;-;8.929672;1.0787811;-1.0144653;-;-;-;-;-;-;-;-;-;-;-;-;-;-;-
1514106163978;-;-;8.957199;1.0763855;-0.98573303;-;-;-;-;-;-;-;-;-;-;-;-;-;-;-
1514106163999;-;-;8.951218;1.1470184;-1.0443878;-;-;-;-;-;-;-;-;-;-;-;-;-;-;-
1514106164019;-;-;9.009872;1.2080688;-1.1197968;-;-;-;-;-;-;-;-;-;-;-;-;-;-;-
1514106164039;-;-;9.074509;1.1589813;-1.1772614;-;-;-;-;-;-;-;-;-;-;-;-;-;-;-
1514106164060;-;-;9.096069;1.0416718;-1.243103;-;-;-;-;-;-;-;-;-;-;-;-;-;-;-
1514106164080;-;-;9.085281;1.0177307;-1.2143707;-;-;-;-;-;-;-;-;-;-;-;-;-;-;-
1514106164101;-;-;9.09845;1.0009613;-1.1569061;-;-;-;-;-;-;-;-;-;-;-;-;-;-;-
1514106164121;-;-;9.085281;1.0500488;-1.2646484;-;-;-;-;-;-;-;-;-;-;-;-;-;-;-
1514106164141;-;-;9.067337;1.0189209;-1.2251434;-;-;-;-;-;-;-;-;-;-;-;-;-;-;-
1514106164162;-;-;9.130783;0.8776703;-1.1832428;-;-;-;-;-;-;-;-;-;-;-;-;-;-;-
1514106164182;-;-;9.183456;0.7866821;-1.1832428;-;-;-;-;-;-;-;-;-;-;-;-;-;-;-
1514106164202;-;-;9.172684;0.7519684;-1.203598;-;-;-;-;-;-;-;-;-;-;-;-;-;-;-
1514106164222;-;-;9.146347;0.8585205;-1.1162109;-;-;-;-;-;-;-;-;-;-;-;-;-;-;-
1514106164243;-;-;9.090073;0.9207611;-1.0120697;-;-;-;-;-;-;-;-;-;-;-;-;-;-;-
1514106164263;-;-;9.058945;0.9578705;-0.9162903;-;-;-;-;-;-;-;-;-;-;-;-;-;-;-
1514106164283;-;-;9.06134;0.98301697;-0.9079132;-;-;-;-;-;-;-;-;-;-;-;-;-;-;-
1514106164304;-;-;9.020645;0.9889984;-0.8791809;-;-;-;-;-;-;-;-;-;-;-;-;-;-;-
1514106164324;-;-;9.090073;0.94351196;-0.8564453;-;-;-;-;-;-;-;-;-;-;-;-;-;-;-
1514106164344;-;-;9.142746;0.96624756;-0.89834595;-;-;-;-;-;-;-;-;-;-;-;-;-;-;-
1514106164365;-;-;9.122391;0.96266174;-0.95700073;-;-;-;-;-;-;-;-;-;-;-;-;-;-;-
1514106164385;-;-;9.054169;0.93273926;-0.946228;-;-;-;-;-;-;-;-;-;-;-;-;-;-;-
1514106164405;-;-;9.075714;0.95428467;-0.94981384;-;-;-;-;-;-;-;-;-;-;-;-;-;-;-
1514106164425;-;-;9.115219;0.95547485;-0.94262695;-;-;-;-;-;-;-;-;-;-;-;-;-;-;-
1514106164445;-;-;9.104446;0.9566803;-1.0276337;-;-;-;-;-;-;-;-;-;-;-;-;-;-;-
1514106164465;-;-;9.115219;1.0105438;-1.006073;-;-;-;-;-;-;-;-;-;-;-;-;-;-;-
1514106164486;-;-;9.106842;1.0536346;-1.0132599;-;-;-;-;-;-;-;-;-;-;-;-;-;-;-
1514106164506;-;-;9.103241;1.0428619;-1.0743103;-;-;-;-;-;-;-;-;-;-;-;-;-;-;-
1514106164527;-;-;9.088882;1.0428619;-0.9941101;-;-;-;-;-;-;-;-;-;-;-;-;-;-;-
1514106164547;-;-;9.087677;1.0320892;-1.0527649;-;-;-;-;-;-;-;-;-;-;-;-;-;-;-
1514106164567;-;-;9.090073;1.0368805;-1.064743;-;-;-;-;-;-;-;-;-;-;-;-;-;-;-
1514106164587;-;-;9.07811;0.99497986;-1.0874786;-;-;-;-;-;-;-;-;-;-;-;-;-;-;-
1514106164608;-;-;9.06134;1.0033569;-1.0515747;-;-;-;-;-;-;-;-;-;-;-;-;-;-;-
1514106164628;-;-;9.105637;1.0177307;-1.0204468;-;-;-;-;-;-;-;-;-;-;-;-;-;-;-
1514106164649;-;-;9.108032;1.0368805;-1.0575562;-;-;-;-;-;-;-;-;-;-;-;-;-;-;-
1514106164669;-;-;9.088882;0.9997711;-1.0539703;-;-;-;-;-;-;-;-;-;-;-;-;-;-;-
1514106164689;-;-;9.056564;1.027298;-1.0264282;-;-;-;-;-;-;-;-;-;-;-;-;-;-;-
1514106164709;-;-;9.06134;1.0847626;-0.9629822;-;-;-;-;-;-;-;-;-;-;-;-;-;-;-
1514106164730;-;-;9.094864;1.1110992;-1.025238;-;-;-;-;-;-;-;-;-;-;-;-;-;-;-
1514106164750;-;-;9.062546;1.0775757;-1.0431824;-;-;-;-;-;-;-;-;-;-;-;-;-;-;-
1514106164770;-;-;9.090073;1.027298;-0.9653778;-;-;-;-;-;-;-;-;-;-;-;-;-;-;-
1514106164791;-;-;9.0972595;0.94111633;-0.9737549;-;-;-;-;-;-;-;-;-;-;-;-;-;-;-
1514106164811;-;-;9.090073;0.9291382;-0.9689636;-;-;-;-;-;-;-;-;-;-;-;-;-;-;-
1514106164831;-;-;9.058945;1.0021667;-0.97854614;-;-;-;-;-;-;-;-;-;-;-;-;-;-;-
1514106164852;-;-;9.030228;1.0715942;-0.9557953;-;-;-;-;-;-;-;-;-;-;-;-;-;-;-
1514106164871;-;-;9.041;1.0979309;-0.93904114;-;-;-;-;-;-;-;-;-;-;-;-;-;-;-
1514106164892;-;-;9.091278;1.0955353;-0.93904114;-;-;-;-;-;-;-;-;-;-;-;-;-;-;-
1514106164912;-;-;9.087677;1.046463;-0.9330597;-;-;-;-;-;-;-;-;-;-;-;-;-;-;-
1514106164932;-;-;9.149933;0.9961853;-0.9689636;-;-;-;-;-;-;-;-;-;-;-;-;-;-;-
1514106164952;-;-;9.1523285;1.022522;-0.9629822;-;-;-;-;-;-;-;-;-;-;-;-;-;-;-
1514106164973;-;-;9.069733;1.0596313;-0.966568;-;-;-;-;-;-;-;-;-;-;-;-;-;-;-
1514106164993;-;-;9.014664;1.085968;-1.0036774;-;-;-;-;-;-;-;-;-;-;-;-;-;-;-
1514106165013;-;-;9.064941;1.0656128;-0.9151001;-;-;-;-;-;-;-;-;-;-;-;-;-;-;-
1514106165033;-;-;9.092468;1.0452576;-0.9151001;-;-;-;-;-;-;-;-;-;-;-;-;-;-;-
1514106165054;-;-;9.084091;1.0524445;-0.9797363;-;-;-;-;-;-;-;-;-;-;-;-;-;-;-
1514106165074;-;-;9.086487;1.0775757;-1.100647;-;-;-;-;-;-;-;-;-;-;-;-;-;-;-
1514106165094;-;-;9.074509;1.0871582;-1.0874786;-;-;-;-;-;-;-;-;-;-;-;-;-;-;-
1514106165115;-;-;9.070923;1.121872;-0.98573303;-;-;-;-;-;-;-;-;-;-;-;-;-;-;-
1514106165135;-;-;9.050568;1.0931396;-1.001297;-;-;-;-;-;-;-;-;-;-;-;-;-;-;-
1514106165155;-;-;9.066132;1.1230774;-1.0372009;-;-;-;-;-;-;-;-;-;-;-;-;-;-;-
1514106165176;-;-;9.105637;1.1601868;-1.1748657;-;-;-;-;-;-;-;-;-;-;-;-;-;-;-
1514106165196;-;-;9.045776;1.106308;-1.2323303;-;-;-;-;-;-;-;-;-;-;-;-;-;-;-
1514106165216;-;-;9.068527;1.0296936;-1.0755157;-;-;-;-;-;-;-;-;-;-;-;-;-;-;-
1514106165237;-;-;9.1523285;1.0727997;-1.0360107;-;-;-;-;-;-;-;-;-;-;-;-;-;-;-
1514106165257;-;-;9.12001;1.2080688;-0.98213196;-;-;-;-;-;-;-;-;-;-;-;-;-;-;-
1514106165277;-;-;9.151123;1.082367;-0.9689636;-;-;-;-;-;-;-;-;-;-;-;-;-;-;-
1514106165298;-;-;9.153519;1.0261078;-0.9354553;-;-;-;-;-;-;-;-;-;-;-;-;-;-;-
1514106165318;-;-;9.183456;1.0871582;-0.97854614;-;-;-;-;-;-;-;-;-;-;-;-;-;-;-
1514106165338;-;-;9.063736;1.161377;-0.9797363;-;-;-;-;-;-;-;-;-;-;-;-;-;-;-
1514106165358;-;-;8.971558;1.0751953;-0.8001709;-;-;-;-;-;-;-;-;-;-;-;-;-;-;-
1514106165379;-;-;8.984726;1.0392761;-0.78700256;-;-;-;-;-;-;-;-;-;-;-;-;-;-;-
1514106165399;-;-;9.054169;1.0021667;-0.8372803;-;-;-;-;-;-;-;-;-;-;-;-;-;-;-
1514106165419;-;-;9.104446;0.888443;-0.8073578;-;-;-;-;-;-;-;-;-;-;-;-;-;-;-
1514106165440;-;-;9.136765;0.8453522;-0.79299927;-;-;-;-;-;-;-;-;-;-;-;-;-;-;-
1514106165460;-;-;9.133179;0.93751526;-0.81095886;-;-;-;-;-;-;-;-;-;-;-;-;-;-;-
1514106165480;-;-;9.088882;1.0045624;-0.867218;-;-;-;-;-;-;-;-;-;-;-;-;-;-;-
1514106165501;-;-;9.088882;1.0045624;-0.7008209;-;-;-;-;-;-;-;-;-;-;-;-;-;-;-
1514106165521;-;-;9.0793;0.88365173;-0.6888428;-;-;-;-;-;-;-;-;-;-;-;-;-;-;-
