TimeStamp[ms];Prox[Cm];Lux[lux];AccX[m/s^2];AccY[m/s^2];AccZ[m/s^2];GyroX[rad/s];GyroY[rad/s];GyroZ[rad/s];MagnX[uT];MagnY[uT];MagnZ[uT];OrienYaw[degrees];OrienPitch[degrees];OrienRoll[degrees];Press[Pa];Temp[C°];Batt[%];Lat;Lng;Speed[m/s]
1514106843638;-;-;8.60405;-2.0384674;2.6079712;-;-;-;-;-;-;-;-;-;-;-;-;-;-;-
1514106843639;-;-;8.521454;-2.1091003;2.60318;-;-;-;-;-;-;-;-;-;-;-;-;-;-;-
1514106843652;-;-;8.319138;-2.2192383;2.5768433;-;-;-;-;-;-;-;-;-;-;-;-;-;-;-
1514106843672;-;-;8.416107;-2.2647247;2.4738922;-;-;-;-;-;-;-;-;-;-;-;-;-;-;-
1514106843692;-;-;8.608841;-2.1126862;2.5038147;-;-;-;-;-;-;-;-;-;-;-;-;-;-;-
1514106843713;-;-;8.38858;-1.9798126;2.5648804;-;-;-;-;-;-;-;-;-;-;-;-;-;-;-
1514106843733;-;-;8.485535;-1.9833984;2.5289612;-;-;-;-;-;-;-;-;-;-;-;-;-;-;-
1514106843753;-;-;8.590881;-1.9307251;2.4870605;-;-;-;-;-;-;-;-;-;-;-;-;-;-;-
1514106843775;-;-;9.099655;-1.6769409;2.002243;-;-;-;-;-;-;-;-;-;-;-;-;-;-;-
1514106843794;-;-;9.001495;-1.4602661;2.0249786;-;-;-;-;-;-;-;-;-;-;-;-;-;-;-
1514106843814;-;-;8.869812;-1.617096;1.7532349;-;-;-;-;-;-;-;-;-;-;-;-;-;-;-
1514106843834;-;-;8.697433;-1.9175568;1.7328949;-;-;-;-;-;-;-;-;-;-;-;-;-;-;-
1514106843855;-;-;8.608841;-2.1474;1.6239471;-;-;-;-;-;-;-;-;-;-;-;-;-;-;-
1514106843875;-;-;8.358643;-2.151001;1.5545197;-;-;-;-;-;-;-;-;-;-;-;-;-;-;-
1514106843895;-;-;8.237747;-2.2922516;1.488678;-;-;-;-;-;-;-;-;-;-;-;-;-;-;-
1514106843915;-;-;8.060562;-2.1952972;1.3067169;-;-;-;-;-;-;-;-;-;-;-;-;-;-;-
1514106843935;-;-;8.097687;-2.3377533;0.89372253;-;-;-;-;-;-;-;-;-;-;-;-;-;-;-
1514106843956;-;-;7.75531;-2.0671997;0.41607666;-;-;-;-;-;-;-;-;-;-;-;-;-;-;-
1514106843976;-;-;9.134369;-1.0592499;0.78118896;-;-;-;-;-;-;-;-;-;-;-;-;-;-;-
1514106843997;-;-;10.736084;-0.8317871;0.2053833;-;-;-;-;-;-;-;-;-;-;-;-;-;-;-
1514106844017;-;-;11.298721;-0.9395294;-0.18725586;-;-;-;-;-;-;-;-;-;-;-;-;-;-;-
1514106844037;-;-;9.467163;-1.3202057;-0.50808716;-;-;-;-;-;-;-;-;-;-;-;-;-;-;-
1514106844057;-;-;9.142746;-1.5404816;-0.29260254;-;-;-;-;-;-;-;-;-;-;-;-;-;-;-
1514106844078;-;-;9.129578;-1.5536499;-0.29978943;-;-;-;-;-;-;-;-;-;-;-;-;-;-;-
1514106844098;-;-;9.066132;-1.5093536;-0.45062256;-;-;-;-;-;-;-;-;-;-;-;-;-;-;-
1514106844118;-;-;8.983536;-1.4889984;-0.57632446;-;-;-;-;-;-;-;-;-;-;-;-;-;-;-
1514106844139;-;-;8.8997345;-1.5991364;-0.88038635;-;-;-;-;-;-;-;-;-;-;-;-;-;-;-
1514106844159;-;-;8.830307;-1.6949005;-0.9438324;-;-;-;-;-;-;-;-;-;-;-;-;-;-;-
1514106844179;-;-;8.924881;-1.8792572;-0.87319946;-;-;-;-;-;-;-;-;-;-;-;-;-;-;-
1514106844200;-;-;9.173874;-2.2886658;-0.8001709;-;-;-;-;-;-;-;-;-;-;-;-;-;-;-
1514106844219;-;-;9.199005;-2.629837;-1.3556366;-;-;-;-;-;-;-;-;-;-;-;-;-;-;-
1514106844239;-;-;8.627991;-1.7858887;-2.0224152;-;-;-;-;-;-;-;-;-;-;-;-;-;-;-
1514106844259;-;-;9.483917;-1.0245209;-1.713562;-;-;-;-;-;-;-;-;-;-;-;-;-;-;-
1514106844280;-;-;9.503082;0.021743774;-1.6201935;-;-;-;-;-;-;-;-;-;-;-;-;-;-;-
1514106844300;-;-;8.847061;0.57121277;-1.1150208;-;-;-;-;-;-;-;-;-;-;-;-;-;-;-
1514106844320;-;-;8.48674;0.46347046;-1.4837189;-;-;-;-;-;-;-;-;-;-;-;-;-;-;-
1514106844341;-;-;8.632782;0.083984375;-1.7830048;-;-;-;-;-;-;-;-;-;-;-;-;-;-;-
1514106844361;-;-;8.112045;-0.3577423;-2.547943;-;-;-;-;-;-;-;-;-;-;-;-;-;-;-
1514106844382;-;-;8.702209;-0.75756836;-1.6022339;-;-;-;-;-;-;-;-;-;-;-;-;-;-;-
1514106844401;-;-;9.216965;-1.0113525;-0.961792;-;-;-;-;-;-;-;-;-;-;-;-;-;-;-
1514106844421;-;-;11.261612;-1.6242676;-2.1936035;-;-;-;-;-;-;-;-;-;-;-;-;-;-;-
1514106844441;-;-;12.087616;-1.696106;-3.2159271;-;-;-;-;-;-;-;-;-;-;-;-;-;-;-
1514106844462;-;-;11.199371;-1.2926788;-1.2371216;-;-;-;-;-;-;-;-;-;-;-;-;-;-;-
1514106844481;-;-;9.036209;0.27552795;-1.3316956;-;-;-;-;-;-;-;-;-;-;-;-;-;-;-
1514106844501;-;-;8.157532;2.3105927;0.060531616;-;-;-;-;-;-;-;-;-;-;-;-;-;-;-
1514106844521;-;-;7.4368744;-1.2998657;-2.9501648;-;-;-;-;-;-;-;-;-;-;-;-;-;-;-
1514106844541;-;-;6.6815033;-1.5344849;-3.7270966;-;-;-;-;-;-;-;-;-;-;-;-;-;-;-
1514106844562;-;-;10.30513;0.35453796;-1.7566681;-;-;-;-;-;-;-;-;-;-;-;-;-;-;-
1514106844582;-;-;10.685806;1.2906647;-0.7307434;-;-;-;-;-;-;-;-;-;-;-;-;-;-;-
1514106844603;-;-;9.925659;0.41079712;-1.3125305;-;-;-;-;-;-;-;-;-;-;-;-;-;-;-
1514106844622;-;-;8.838684;0.014556885;-1.7901764;-;-;-;-;-;-;-;-;-;-;-;-;-;-;-
1514106844642;-;-;7.4416656;0.61909485;-1.531601;-;-;-;-;-;-;-;-;-;-;-;-;-;-;-
1514106844662;-;-;8.854248;-0.41760254;-2.4378052;-;-;-;-;-;-;-;-;-;-;-;-;-;-;-
1514106844683;-;-;8.818329;-0.94192505;-1.8643951;-;-;-;-;-;-;-;-;-;-;-;-;-;-;-
1514106844703;-;-;8.633987;-0.3254242;-1.3256989;-;-;-;-;-;-;-;-;-;-;-;-;-;-;-
1514106844724;-;-;9.038605;1.0656128;-1.203598;-;-;-;-;-;-;-;-;-;-;-;-;-;-;-
1514106844744;-;-;9.698196;0.51374817;-1.0096741;-;-;-;-;-;-;-;-;-;-;-;-;-;-;-
1514106844764;-;-;9.590469;0.6274719;-2.0547333;-;-;-;-;-;-;-;-;-;-;-;-;-;-;-
1514106844785;-;-;9.767639;0.060043335;-2.8148956;-;-;-;-;-;-;-;-;-;-;-;-;-;-;-
1514106844805;-;-;8.323929;0.6681671;-2.610199;-;-;-;-;-;-;-;-;-;-;-;-;-;-;-
1514106844825;-;-;8.399353;0.6143036;-1.9793243;-;-;-;-;-;-;-;-;-;-;-;-;-;-;-
1514106844845;-;-;8.401749;0.5245209;-1.8332825;-;-;-;-;-;-;-;-;-;-;-;-;-;-;-
1514106844865;-;-;8.843475;-0.078811646;-1.9494019;-;-;-;-;-;-;-;-;-;-;-;-;-;-;-
1514106844886;-;-;8.419693;0.26594543;-1.9996796;-;-;-;-;-;-;-;-;-;-;-;-;-;-;-
1514106844906;-;-;9.115219;0.91596985;-0.77622986;-;-;-;-;-;-;-;-;-;-;-;-;-;-;-
1514106844927;-;-;7.948044;1.161377;-1.6728668;-;-;-;-;-;-;-;-;-;-;-;-;-;-;-
1514106844947;-;-;7.679886;1.5671997;-1.492096;-;-;-;-;-;-;-;-;-;-;-;-;-;-;-
1514106844967;-;-;8.736938;0.81781006;-2.076294;-;-;-;-;-;-;-;-;-;-;-;-;-;-;-
1514106844987;-;-;9.926849;0.2192688;-1.0144653;-;-;-;-;-;-;-;-;-;-;-;-;-;-;-
1514106845008;-;-;8.531036;0.14624023;-2.5359802;-;-;-;-;-;-;-;-;-;-;-;-;-;-;-
1514106845028;-;-;8.42569;-0.2679596;-2.0595245;-;-;-;-;-;-;-;-;-;-;-;-;-;-;-
1514106845048;-;-;8.696228;-0.20092773;-1.9673462;-;-;-;-;-;-;-;-;-;-;-;-;-;-;-
1514106845069;-;-;9.981918;0.1905365;-1.9853058;-;-;-;-;-;-;-;-;-;-;-;-;-;-;-
1514106845089;-;-;9.166687;0.21566772;-1.5100555;-;-;-;-;-;-;-;-;-;-;-;-;-;-;-
1514106845110;-;-;10.341049;0.86569214;-1.3951416;-;-;-;-;-;-;-;-;-;-;-;-;-;-;-
1514106845129;-;-;7.99234;0.23960876;-2.606598;-;-;-;-;-;-;-;-;-;-;-;-;-;-;-
1514106845149;-;-;8.996704;-0.1482544;-3.3643646;-;-;-;-;-;-;-;-;-;-;-;-;-;-;-
1514106845169;-;-;8.141968;-0.52653503;-2.1505127;-;-;-;-;-;-;-;-;-;-;-;-;-;-;-
1514106845190;-;-;9.23851;0.16299438;-1.7458801;-;-;-;-;-;-;-;-;-;-;-;-;-;-;-
1514106845210;-;-;8.989517;0.15222168;-2.278595;-;-;-;-;-;-;-;-;-;-;-;-;-;-;-
1514106845230;-;-;8.669891;0.23362732;-2.6473083;-;-;-;-;-;-;-;-;-;-;-;-;-;-;-
1514106845250;-;-;8.204224;0.6729584;-2.452179;-;-;-;-;-;-;-;-;-;-;-;-;-;-;-
1514106845271;-;-;8.424484;0.92555237;-1.8596191;-;-;-;-;-;-;-;-;-;-;-;-;-;-;-
1514106845291;-;-;9.091278;1.0715942;-2.0032654;-;-;-;-;-;-;-;-;-;-;-;-;-;-;-
1514106845311;-;-;9.341461;0.9937897;-2.71315;-;-;-;-;-;-;-;-;-;-;-;-;-;-;-
1514106845331;-;-;10.120773;0.15940857;-2.3719635;-;-;-;-;-;-;-;-;-;-;-;-;-;-;-
1514106845352;-;-;10.110001;-0.052474976;-2.06073;-;-;-;-;-;-;-;-;-;-;-;-;-;-;-
1514106845372;-;-;10.020218;0.19770813;-2.5144196;-;-;-;-;-;-;-;-;-;-;-;-;-;-;-
1514106845392;-;-;9.600037;0.79267883;-2.6137848;-;-;-;-;-;-;-;-;-;-;-;-;-;-;-
1514106845412;-;-;8.987122;1.4163666;-2.2055817;-;-;-;-;-;-;-;-;-;-;-;-;-;-;-
1514106845433;-;-;7.9504395;1.5276947;-2.136139;-;-;-;-;-;-;-;-;-;-;-;-;-;-;-
1514106845453;-;-;7.4440613;1.0332947;-2.0104523;-;-;-;-;-;-;-;-;-;-;-;-;-;-;-
1514106845474;-;-;7.6822815;0.13546753;-1.9039001;-;-;-;-;-;-;-;-;-;-;-;-;-;-;-
1514106845495;-;-;8.587296;-0.3768921;-1.9577789;-;-;-;-;-;-;-;-;-;-;-;-;-;-;-
1514106845515;-;-;9.117615;-0.014175415;-1.942215;-;-;-;-;-;-;-;-;-;-;-;-;-;-;-
1514106845535;-;-;9.260071;0.18095398;-1.571106;-;-;-;-;-;-;-;-;-;-;-;-;-;-;-
1514106845556;-;-;9.621582;0.37487793;-2.2570496;-;-;-;-;-;-;-;-;-;-;-;-;-;-;-
1514106845577;-;-;10.106415;0.9111786;-3.6720276;-;-;-;-;-;-;-;-;-;-;-;-;-;-;-
1514106845596;-;-;10.426041;1.3217926;-3.935379;-;-;-;-;-;-;-;-;-;-;-;-;-;-;-
1514106845616;-;-;10.008255;0.6178894;-3.056717;-;-;-;-;-;-;-;-;-;-;-;-;-;-;-
1514106845636;-;-;8.50589;-0.43196106;-2.3935242;-;-;-;-;-;-;-;-;-;-;-;-;-;-;-
1514106845657;-;-;7.34111;-0.6079407;-2.5611115;-;-;-;-;-;-;-;-;-;-;-;-;-;-;-
1514106845677;-;-;6.7617188;-0.02734375;-2.8532104;-;-;-;-;-;-;-;-;-;-;-;-;-;-;-
1514106845697;-;-;6.9556427;1.0153351;-2.8388367;-;-;-;-;-;-;-;-;-;-;-;-;-;-;-
1514106845718;-;-;8.9787445;1.2511597;-2.5575256;-;-;-;-;-;-;-;-;-;-;-;-;-;-;-
1514106845738;-;-;10.064514;1.0656128;-2.460556;-;-;-;-;-;-;-;-;-;-;-;-;-;-;-
1514106845758;-;-;9.887344;0.9351349;-2.3516235;-;-;-;-;-;-;-;-;-;-;-;-;-;-;-
1514106845779;-;-;9.245697;0.9016113;-2.6784363;-;-;-;-;-;-;-;-;-;-;-;-;-;-;-
1514106845798;-;-;8.948822;0.88365173;-2.9729156;-;-;-;-;-;-;-;-;-;-;-;-;-;-;-
1514106845818;-;-;8.898544;0.9303436;-2.8304596;-;-;-;-;-;-;-;-;-;-;-;-;-;-;-
1514106845838;-;-;9.066132;0.76634216;-2.3204956;-;-;-;-;-;-;-;-;-;-;-;-;-;-;-
1514106845859;-;-;8.950012;0.91596985;-2.0990295;-;-;-;-;-;-;-;-;-;-;-;-;-;-;-
1514106845878;-;-;8.632782;1.0608215;-2.076294;-;-;-;-;-;-;-;-;-;-;-;-;-;-;-
1514106845898;-;-;8.72496;0.62628174;-2.2247314;-;-;-;-;-;-;-;-;-;-;-;-;-;-;-
1514106845918;-;-;9.041;-0.069244385;-2.1947937;-;-;-;-;-;-;-;-;-;-;-;-;-;-;-
1514106845938;-;-;9.035004;-0.5672302;-2.1038208;-;-;-;-;-;-;-;-;-;-;-;-;-;-;-
1514106845959;-;-;8.9392395;-0.6139221;-1.9853058;-;-;-;-;-;-;-;-;-;-;-;-;-;-;-
1514106845980;-;-;8.783615;-0.40682983;-1.7183533;-;-;-;-;-;-;-;-;-;-;-;-;-;-;-
1514106845999;-;-;8.527435;-0.1985321;-1.571106;-;-;-;-;-;-;-;-;-;-;-;-;-;-;-
1514106846019;-;-;8.495117;-0.1410675;-1.6034393;-;-;-;-;-;-;-;-;-;-;-;-;-;-;-
1514106846040;-;-;8.745316;-0.32781982;-1.8165131;-;-;-;-;-;-;-;-;-;-;-;-;-;-;-
1514106846060;-;-;9.288788;-0.61631775;-1.9877014;-;-;-;-;-;-;-;-;-;-;-;-;-;-;-
1514106846080;-;-;9.477936;-0.75756836;-1.9494019;-;-;-;-;-;-;-;-;-;-;-;-;-;-;-
1514106846100;-;-;9.80954;-0.82341003;-2.6054077;-;-;-;-;-;-;-;-;-;-;-;-;-;-;-
1514106846121;-;-;9.264847;-0.16740417;-2.2247314;-;-;-;-;-;-;-;-;-;-;-;-;-;-;-
1514106846141;-;-;8.115631;0.086380005;-2.0822754;-;-;-;-;-;-;-;-;-;-;-;-;-;-;-
1514106846161;-;-;7.8474884;-0.10635376;-2.3923187;-;-;-;-;-;-;-;-;-;-;-;-;-;-;-
1514106846182;-;-;8.918884;-0.090789795;-2.601822;-;-;-;-;-;-;-;-;-;-;-;-;-;-;-
1514106846202;-;-;8.944031;0.2515869;-2.5994263;-;-;-;-;-;-;-;-;-;-;-;-;-;-;-
1514106846222;-;-;8.656723;0.35453796;-2.4952698;-;-;-;-;-;-;-;-;-;-;-;-;-;-;-
1514106846243;-;-;8.843475;0.23123169;-2.6808167;-;-;-;-;-;-;-;-;-;-;-;-;-;-;-
1514106846263;-;-;9.130783;0.22285461;-2.8304596;-;-;-;-;-;-;-;-;-;-;-;-;-;-;-
1514106846284;-;-;9.424072;0.1953125;-2.6628723;-;-;-;-;-;-;-;-;-;-;-;-;-;-;-
1514106846304;-;-;9.39534;0.14263916;-2.4066925;-;-;-;-;-;-;-;-;-;-;-;-;-;-;-
1514106846325;-;-;9.213379;-0.08480835;-2.4102783;-;-;-;-;-;-;-;-;-;-;-;-;-;-;-
1514106846345;-;-;8.847061;-0.27275085;-2.4030914;-;-;-;-;-;-;-;-;-;-;-;-;-;-;-
1514106846365;-;-;8.824326;-0.28831482;-2.230713;-;-;-;-;-;-;-;-;-;-;-;-;-;-;-
1514106846385;-;-;8.799179;-0.04888916;-2.179245;-;-;-;-;-;-;-;-;-;-;-;-;-;-;-
1514106846406;-;-;8.627991;0.13905334;-2.3384552;-;-;-;-;-;-;-;-;-;-;-;-;-;-;-
1514106846426;-;-;8.677078;0.21687317;-2.4461975;-;-;-;-;-;-;-;-;-;-;-;-;-;-;-
1514106846446;-;-;8.774048;0.20370483;-2.4665375;-;-;-;-;-;-;-;-;-;-;-;-;-;-;-
1514106846467;-;-;8.863831;0.14503479;-2.4593658;-;-;-;-;-;-;-;-;-;-;-;-;-;-;-
1514106846487;-;-;8.801575;0.22644043;-2.4186554;-;-;-;-;-;-;-;-;-;-;-;-;-;-;-
1514106846507;-;-;8.775238;0.3509369;-2.3588104;-;-;-;-;-;-;-;-;-;-;-;-;-;-;-
1514106846527;-;-;8.945221;0.2886963;-2.4198608;-;-;-;-;-;-;-;-;-;-;-;-;-;-;-
1514106846548;-;-;9.031418;0.19412231;-2.4222565;-;-;-;-;-;-;-;-;-;-;-;-;-;-;-
1514106846568;-;-;9.080505;0.064834595;-2.3611908;-;-;-;-;-;-;-;-;-;-;-;-;-;-;-
1514106846588;-;-;9.032608;-0.00340271;-2.3384552;-;-;-;-;-;-;-;-;-;-;-;-;-;-;-
1514106846609;-;-;8.997894;-0.08720398;-2.3216858;-;-;-;-;-;-;-;-;-;-;-;-;-;-;-
1514106846629;-;-;8.898544;-0.14704895;-2.3911285;-;-;-;-;-;-;-;-;-;-;-;-;-;-;-
1514106846649;-;-;8.897339;-0.105148315;-2.4246368;-;-;-;-;-;-;-;-;-;-;-;-;-;-;-
1514106846670;-;-;8.951218;0.014556885;-2.4976654;-;-;-;-;-;-;-;-;-;-;-;-;-;-;-
1514106846689;-;-;8.82312;0.06602478;-2.5263977;-;-;-;-;-;-;-;-;-;-;-;-;-;-;-
1514106846709;-;-;8.967972;0.093566895;-2.4857025;-;-;-;-;-;-;-;-;-;-;-;-;-;-;-
1514106846729;-;-;8.996704;0.060043335;-2.4940796;-;-;-;-;-;-;-;-;-;-;-;-;-;-;-
1514106846750;-;-;9.026627;-0.009384155;-2.4976654;-;-;-;-;-;-;-;-;-;-;-;-;-;-;-
1514106846769;-;-;8.936844;-0.069244385;-2.3049316;-;-;-;-;-;-;-;-;-;-;-;-;-;-;-
1514106846789;-;-;8.910507;-0.059661865;-2.3384552;-;-;-;-;-;-;-;-;-;-;-;-;-;-;-
1514106846810;-;-;8.929672;-0.074035645;-2.251068;-;-;-;-;-;-;-;-;-;-;-;-;-;-;-
1514106846829;-;-;8.88298;-0.09437561;-2.230713;-;-;-;-;-;-;-;-;-;-;-;-;-;-;-
1514106846849;-;-;8.795593;-0.083602905;-2.2402954;-;-;-;-;-;-;-;-;-;-;-;-;-;-;-
1514106846870;-;-;8.92128;-0.08480835;-2.2618408;-;-;-;-;-;-;-;-;-;-;-;-;-;-;-
1514106846889;-;-;9.054169;-0.08480835;-2.3540192;-;-;-;-;-;-;-;-;-;-;-;-;-;-;-
1514106846909;-;-;8.862625;0.03012085;-2.3432465;-;-;-;-;-;-;-;-;-;-;-;-;-;-;-
1514106846930;-;-;8.975159;0.05645752;-2.3157043;-;-;-;-;-;-;-;-;-;-;-;-;-;-;-
1514106846950;-;-;9.0577545;0.15820313;-2.3635864;-;-;-;-;-;-;-;-;-;-;-;-;-;-;-
1514106846970;-;-;8.994308;0.13426208;-2.3288727;-;-;-;-;-;-;-;-;-;-;-;-;-;-;-
1514106846990;-;-;8.888962;0.08279419;-2.2127533;-;-;-;-;-;-;-;-;-;-;-;-;-;-;-
1514106847011;-;-;8.941635;0.007369995;-2.2342987;-;-;-;-;-;-;-;-;-;-;-;-;-;-;-
1514106847031;-;-;8.8997345;-0.119522095;-2.263031;-;-;-;-;-;-;-;-;-;-;-;-;-;-;-
1514106847051;-;-;8.830307;-0.19134521;-2.3396454;-;-;-;-;-;-;-;-;-;-;-;-;-;-;-
1514106847072;-;-;8.874603;-0.20451355;-2.2378998;-;-;-;-;-;-;-;-;-;-;-;-;-;-;-
1514106847092;-;-;8.917694;-0.18296814;-2.2103577;-;-;-;-;-;-;-;-;-;-;-;-;-;-;-
1514106847112;-;-;8.953613;-0.11352539;-2.2498627;-;-;-;-;-;-;-;-;-;-;-;-;-;-;-
1514106847132;-;-;9.013458;-0.12550354;-2.373169;-;-;-;-;-;-;-;-;-;-;-;-;-;-;-
1514106847153;-;-;9.036209;-0.083602905;-2.421051;-;-;-;-;-;-;-;-;-;-;-;-;-;-;-
1514106847173;-;-;9.023041;-0.06324768;-2.3767548;-;-;-;-;-;-;-;-;-;-;-;-;-;-;-
1514106847193;-;-;8.967972;-0.03213501;-2.3408508;-;-;-;-;-;-;-;-;-;-;-;-;-;-;-
1514106847214;-;-;8.878189;1.9836426E-4;-2.4138641;-;-;-;-;-;-;-;-;-;-;-;-;-;-;-
1514106847234;-;-;8.890167;0.0025787354;-2.4042969;-;-;-;-;-;-;-;-;-;-;-;-;-;-;-
1514106847254;-;-;8.909317;0.0181427;-2.3851318;-;-;-;-;-;-;-;-;-;-;-;-;-;-;-
1514106847274;-;-;8.876999;0.052871704;-2.4892883;-;-;-;-;-;-;-;-;-;-;-;-;-;-;-
1514106847295;-;-;8.847061;0.06124878;-2.4342194;-;-;-;-;-;-;-;-;-;-;-;-;-;-;-
1514106847315;-;-;8.916504;-0.0105896;-2.5742798;-;-;-;-;-;-;-;-;-;-;-;-;-;-;-
1514106847335;-;-;8.904526;-0.052474976;-2.4988708;-;-;-;-;-;-;-;-;-;-;-;-;-;-;-
1514106847355;-;-;8.911713;-0.09437561;-2.4904785;-;-;-;-;-;-;-;-;-;-;-;-;-;-;-
1514106847376;-;-;8.92009;-0.11592102;-2.405487;-;-;-;-;-;-;-;-;-;-;-;-;-;-;-
1514106847396;-;-;8.8997345;-0.10874939;-2.452179;-;-;-;-;-;-;-;-;-;-;-;-;-;-;-
1514106847416;-;-;8.958389;-0.14465332;-2.4198608;-;-;-;-;-;-;-;-;-;-;-;-;-;-;-
1514106847437;-;-;8.960785;-0.13148499;-2.467743;-;-;-;-;-;-;-;-;-;-;-;-;-;-;-
1514106847457;-;-;8.952408;-0.15663147;-2.4928741;-;-;-;-;-;-;-;-;-;-;-;-;-;-;-
1514106847477;-;-;9.012268;-0.1482544;-2.4773102;-;-;-;-;-;-;-;-;-;-;-;-;-;-;-
1514106847498;-;-;8.871002;-0.121917725;-2.5204163;-;-;-;-;-;-;-;-;-;-;-;-;-;-;-
1514106847518;-;-;8.90094;-0.12310791;-2.4857025;-;-;-;-;-;-;-;-;-;-;-;-;-;-;-
1514106847538;-;-;8.873398;-0.14944458;-2.4461975;-;-;-;-;-;-;-;-;-;-;-;-;-;-;-
1514106847559;-;-;8.893753;-0.1410675;-2.5359802;-;-;-;-;-;-;-;-;-;-;-;-;-;-;-
1514106847579;-;-;8.697433;-0.16142273;-2.4198608;-;-;-;-;-;-;-;-;-;-;-;-;-;-;-
1514106847599;-;-;8.844666;-0.18057251;-2.4545746;-;-;-;-;-;-;-;-;-;-;-;-;-;-;-
1514106847620;-;-;8.874603;-0.17219543;-2.5778656;-;-;-;-;-;-;-;-;-;-;-;-;-;-;-
1514106847640;-;-;8.843475;-0.100372314;-2.6125946;-;-;-;-;-;-;-;-;-;-;-;-;-;-;-
1514106847660;-;-;8.890167;-0.1015625;-2.5611115;-;-;-;-;-;-;-;-;-;-;-;-;-;-;-
1514106847680;-;-;8.806366;-0.102752686;-2.6473083;-;-;-;-;-;-;-;-;-;-;-;-;-;-;-
1514106847701;-;-;8.857834;-0.062057495;-2.5838623;-;-;-;-;-;-;-;-;-;-;-;-;-;-;-
1514106847721;-;-;8.843475;-0.0728302;-2.5838623;-;-;-;-;-;-;-;-;-;-;-;-;-;-;-
1514106847741;-;-;8.830307;-0.076416016;-2.5814667;-;-;-;-;-;-;-;-;-;-;-;-;-;-;-
1514106847762;-;-;8.809952;-0.107543945;-2.5682983;-;-;-;-;-;-;-;-;-;-;-;-;-;-;-
1514106847782;-;-;8.859039;-0.119522095;-2.610199;-;-;-;-;-;-;-;-;-;-;-;-;-;-;-
1514106847802;-;-;8.935654;-0.19493103;-2.5814667;-;-;-;-;-;-;-;-;-;-;-;-;-;-;-
1514106847822;-;-;8.955994;-0.21409607;-2.527588;-;-;-;-;-;-;-;-;-;-;-;-;-;-;-
1514106847843;-;-;8.871002;-0.19134521;-2.515625;-;-;-;-;-;-;-;-;-;-;-;-;-;-;-
1514106847864;-;-;8.83989;-0.1925354;-2.5132294;-;-;-;-;-;-;-;-;-;-;-;-;-;-;-
1514106847884;-;-;8.824326;-0.14704895;-2.5204163;-;-;-;-;-;-;-;-;-;-;-;-;-;-;-
1514106847904;-;-;8.843475;-0.13269043;-2.579071;-;-;-;-;-;-;-;-;-;-;-;-;-;-;-
1514106847924;-;-;8.880585;-0.12550354;-2.562317;-;-;-;-;-;-;-;-;-;-;-;-;-;-;-
1514106847945;-;-;8.896149;-0.07762146;-2.5958252;-;-;-;-;-;-;-;-;-;-;-;-;-;-;-
1514106847965;-;-;8.90094;-0.064453125;-2.5730896;-;-;-;-;-;-;-;-;-;-;-;-;-;-;-
1514106847985;-;-;8.867416;-0.033325195;-2.625763;-;-;-;-;-;-;-;-;-;-;-;-;-;-;-
1514106848005;-;-;8.894943;-0.102752686;-2.601822;-;-;-;-;-;-;-;-;-;-;-;-;-;-;-
1514106848026;-;-;8.845871;-0.08720398;-2.594635;-;-;-;-;-;-;-;-;-;-;-;-;-;-;-
1514106848046;-;-;8.855438;-0.076416016;-2.5850525;-;-;-;-;-;-;-;-;-;-;-;-;-;-;-
1514106848066;-;-;8.854248;-0.05607605;-2.5407562;-;-;-;-;-;-;-;-;-;-;-;-;-;-;-
1514106848087;-;-;8.868607;-0.064453125;-2.5144196;-;-;-;-;-;-;-;-;-;-;-;-;-;-;-
1514106848106;-;-;8.874603;-0.00340271;-2.5371704;-;-;-;-;-;-;-;-;-;-;-;-;-;-;-
1514106848126;-;-;8.869812;-0.02494812;-2.5263977;-;-;-;-;-;-;-;-;-;-;-;-;-;-;-
1514106848146;-;-;8.874603;0.05406189;-2.5970306;-;-;-;-;-;-;-;-;-;-;-;-;-;-;-
1514106848166;-;-;8.885376;-0.00819397;-2.5802612;-;-;-;-;-;-;-;-;-;-;-;-;-;-;-
1514106848187;-;-;8.853058;-0.00340271;-2.5742798;-;-;-;-;-;-;-;-;-;-;-;-;-;-;-
1514106848207;-;-;8.862625;-0.02015686;-2.546753;-;-;-;-;-;-;-;-;-;-;-;-;-;-;-
1514106848227;-;-;8.88298;-0.023742676;-2.5575256;-;-;-;-;-;-;-;-;-;-;-;-;-;-;-
1514106848248;-;-;8.878189;-0.02973938;-2.524002;-;-;-;-;-;-;-;-;-;-;-;-;-;-;-
1514106848268;-;-;8.880585;-0.05368042;-2.5024567;-;-;-;-;-;-;-;-;-;-;-;-;-;-;-
1514106848288;-;-;8.884171;-0.066848755;-2.5323792;-;-;-;-;-;-;-;-;-;-;-;-;-;-;-
1514106848309;-;-;8.888962;-0.04649353;-2.5299835;-;-;-;-;-;-;-;-;-;-;-;-;-;-;-
1514106848328;-;-;8.946426;-0.016571045;-2.5263977;-;-;-;-;-;-;-;-;-;-;-;-;-;-;-
1514106848348;-;-;8.92128;0.0049743652;-2.507248;-;-;-;-;-;-;-;-;-;-;-;-;-;-;-
1514106848368;-;-;8.808762;0.012161255;-2.507248;-;-;-;-;-;-;-;-;-;-;-;-;-;-;-
1514106848388;-;-;8.790802;0.013366699;-2.5132294;-;-;-;-;-;-;-;-;-;-;-;-;-;-;-
1514106848409;-;-;8.811157;0.048080444;-2.4940796;-;-;-;-;-;-;-;-;-;-;-;-;-;-;-
1514106848430;-;-;8.863831;0.031311035;-2.5036469;-;-;-;-;-;-;-;-;-;-;-;-;-;-;-
1514106848451;-;-;8.909317;0.03970337;-2.500061;-;-;-;-;-;-;-;-;-;-;-;-;-;-;-
1514106848471;-;-;8.892548;0.01574707;-2.5036469;-;-;-;-;-;-;-;-;-;-;-;-;-;-;-
1514106848491;-;-;8.90094;0.02532959;-2.5527344;-;-;-;-;-;-;-;-;-;-;-;-;-;-;-
1514106848512;-;-;8.884171;0.048080444;-2.5539246;-;-;-;-;-;-;-;-;-;-;-;-;-;-;-
1514106848531;-;-;8.875793;0.043289185;-2.4821014;-;-;-;-;-;-;-;-;-;-;-;-;-;-;-
1514106848551;-;-;8.872208;0.01574707;-2.4713287;-;-;-;-;-;-;-;-;-;-;-;-;-;-;-
1514106848572;-;-;8.865021;0.0013885498;-2.4533691;-;-;-;-;-;-;-;-;-;-;-;-;-;-;-
1514106848592;-;-;8.886566;-0.045303345;-2.4461975;-;-;-;-;-;-;-;-;-;-;-;-;-;-;-
1514106848612;-;-;8.904526;-0.06324768;-2.3995056;-;-;-;-;-;-;-;-;-;-;-;-;-;-;-
1514106848633;-;-;8.928467;-0.06564331;-2.3755646;-;-;-;-;-;-;-;-;-;-;-;-;-;-;-
1514106848653;-;-;8.947617;-0.050079346;-2.3755646;-;-;-;-;-;-;-;-;-;-;-;-;-;-;-
1514106848673;-;-;8.897339;0.012161255;-2.4665375;-;-;-;-;-;-;-;-;-;-;-;-;-;-;-
1514106848693;-;-;8.911713;0.06364441;-2.428238;-;-;-;-;-;-;-;-;-;-;-;-;-;-;-
1514106848714;-;-;8.90094;0.06364441;-2.4258423;-;-;-;-;-;-;-;-;-;-;-;-;-;-;-
1514106848734;-;-;8.871002;0.07321167;-2.4258423;-;-;-;-;-;-;-;-;-;-;-;-;-;-;-
1514106848755;-;-;8.908112;0.04927063;-2.4330292;-;-;-;-;-;-;-;-;-;-;-;-;-;-;-
1514106848775;-;-;8.911713;0.03730774;-2.4581604;-;-;-;-;-;-;-;-;-;-;-;-;-;-;-
1514106848795;-;-;8.954803;-0.009384155;-2.4509735;-;-;-;-;-;-;-;-;-;-;-;-;-;-;-
1514106848815;-;-;8.881775;-0.03930664;-2.4593658;-;-;-;-;-;-;-;-;-;-;-;-;-;-;-
1514106848836;-;-;8.893753;-0.02734375;-2.3959198;-;-;-;-;-;-;-;-;-;-;-;-;-;-;-
1514106848855;-;-;8.948822;-0.0045928955;-2.381546;-;-;-;-;-;-;-;-;-;-;-;-;-;-;-
1514106848875;-;-;8.945221;-0.0010070801;-2.4737244;-;-;-;-;-;-;-;-;-;-;-;-;-;-;-
1514106848896;-;-;8.952408;-0.03930664;-2.5371704;-;-;-;-;-;-;-;-;-;-;-;-;-;-;-
1514106848916;-;-;8.888962;-0.05128479;-2.4964752;-;-;-;-;-;-;-;-;-;-;-;-;-;-;-
1514106848936;-;-;8.849457;0.0037841797;-2.4258423;-;-;-;-;-;-;-;-;-;-;-;-;-;-;-
1514106848956;-;-;8.861435;0.021743774;-2.3959198;-;-;-;-;-;-;-;-;-;-;-;-;-;-;-
1514106848976;-;-;8.82193;0.010971069;-2.4378052;-;-;-;-;-;-;-;-;-;-;-;-;-;-;-
1514106848996;-;-;8.82312;0.028915405;-2.4952698;-;-;-;-;-;-;-;-;-;-;-;-;-;-;-
1514106849017;-;-;8.879379;-0.014175415;-2.4785156;-;-;-;-;-;-;-;-;-;-;-;-;-;-;-
1514106849037;-;-;8.90213;0.0049743652;-2.4581604;-;-;-;-;-;-;-;-;-;-;-;-;-;-;-
1514106849057;-;-;8.897339;1.9836426E-4;-2.4006958;-;-;-;-;-;-;-;-;-;-;-;-;-;-;-
1514106849078;-;-;8.942825;-0.014175415;-2.3995056;-;-;-;-;-;-;-;-;-;-;-;-;-;-;-
1514106849098;-;-;8.906921;-0.040512085;-2.3755646;-;-;-;-;-;-;-;-;-;-;-;-;-;-;-
1514106849118;-;-;8.897339;-0.069244385;-2.4030914;-;-;-;-;-;-;-;-;-;-;-;-;-;-;-
1514106849139;-;-;8.911713;-0.08720398;-2.444992;-;-;-;-;-;-;-;-;-;-;-;-;-;-;-
1514106849159;-;-;8.927277;-0.071640015;-2.3851318;-;-;-;-;-;-;-;-;-;-;-;-;-;-;-
1514106849179;-;-;8.910507;-0.04170227;-2.3923187;-;-;-;-;-;-;-;-;-;-;-;-;-;-;-
1514106849200;-;-;8.92009;-0.016571045;-2.373169;-;-;-;-;-;-;-;-;-;-;-;-;-;-;-
1514106849221;-;-;8.884171;0.02053833;-2.3947144;-;-;-;-;-;-;-;-;-;-;-;-;-;-;-
1514106849240;-;-;8.90213;-0.012969971;-2.421051;-;-;-;-;-;-;-;-;-;-;-;-;-;-;-
1514106849260;-;-;8.938049;0.02532959;-2.4246368;-;-;-;-;-;-;-;-;-;-;-;-;-;-;-
1514106849281;-;-;8.966782;0.013366699;-2.4330292;-;-;-;-;-;-;-;-;-;-;-;-;-;-;-
1514106849301;-;-;8.952408;-0.02494812;-2.4222565;-;-;-;-;-;-;-;-;-;-;-;-;-;-;-
1514106849321;-;-;8.880585;-0.045303345;-2.428238;-;-;-;-;-;-;-;-;-;-;-;-;-;-;-
1514106849341;-;-;8.904526;-0.0021972656;-2.4114685;-;-;-;-;-;-;-;-;-;-;-;-;-;-;-
1514106849361;-;-;8.917694;-0.00340271;-2.3839417;-;-;-;-;-;-;-;-;-;-;-;-;-;-;-
1514106849382;-;-;8.910507;-0.015365601;-2.3552094;-;-;-;-;-;-;-;-;-;-;-;-;-;-;-
1514106849402;-;-;8.888962;0.013366699;-2.3827515;-;-;-;-;-;-;-;-;-;-;-;-;-;-;-
1514106849422;-;-;8.866211;0.03730774;-2.3755646;-;-;-;-;-;-;-;-;-;-;-;-;-;-;-
1514106849442;-;-;8.861435;0.04927063;-2.3935242;-;-;-;-;-;-;-;-;-;-;-;-;-;-;-
1514106849464;-;-;8.885376;0.055252075;-2.4138641;-;-;-;-;-;-;-;-;-;-;-;-;-;-;-
1514106849483;-;-;8.946426;0.03970337;-2.4042969;-;-;-;-;-;-;-;-;-;-;-;-;-;-;-
1514106849503;-;-;8.948822;0.019348145;-2.388733;-;-;-;-;-;-;-;-;-;-;-;-;-;-;-
1514106849523;-;-;8.912903;0.040893555;-2.3564148;-;-;-;-;-;-;-;-;-;-;-;-;-;-;-
1514106849544;-;-;8.872208;0.05406189;-2.4138641;-;-;-;-;-;-;-;-;-;-;-;-;-;-;-
1514106849563;-;-;8.869812;0.009765625;-2.4402008;-;-;-;-;-;-;-;-;-;-;-;-;-;-;-
1514106849583;-;-;8.891357;-0.026138306;-2.3875275;-;-;-;-;-;-;-;-;-;-;-;-;-;-;-
1514106849604;-;-;8.932053;0.024139404;-2.278595;-;-;-;-;-;-;-;-;-;-;-;-;-;-;-
1514106849624;-;-;8.97995;0.06124878;-2.309723;-;-;-;-;-;-;-;-;-;-;-;-;-;-;-
1514106849644;-;-;8.932053;0.11631775;-2.3528137;-;-;-;-;-;-;-;-;-;-;-;-;-;-;-
1514106849664;-;-;8.909317;0.05645752;-2.388733;-;-;-;-;-;-;-;-;-;-;-;-;-;-;-
1514106849685;-;-;8.879379;-0.0021972656;-2.326477;-;-;-;-;-;-;-;-;-;-;-;-;-;-;-
1514106849706;-;-;8.867416;0.02532959;-2.3169098;-;-;-;-;-;-;-;-;-;-;-;-;-;-;-
1514106849726;-;-;8.903336;-0.035720825;-2.3396454;-;-;-;-;-;-;-;-;-;-;-;-;-;-;-
1514106849746;-;-;8.938049;-0.00579834;-2.2929688;-;-;-;-;-;-;-;-;-;-;-;-;-;-;-
1514106849766;-;-;8.928467;0.007369995;-2.3312683;-;-;-;-;-;-;-;-;-;-;-;-;-;-;-
1514106849787;-;-;8.935654;0.04927063;-2.4138641;-;-;-;-;-;-;-;-;-;-;-;-;-;-;-
1514106849807;-;-;8.890167;0.1043396;-2.39711;-;-;-;-;-;-;-;-;-;-;-;-;-;-;-
1514106849827;-;-;8.890167;0.086380005;-2.3540192;-;-;-;-;-;-;-;-;-;-;-;-;-;-;-
1514106849848;-;-;8.923676;0.14025879;-2.3611908;-;-;-;-;-;-;-;-;-;-;-;-;-;-;-
1514106849868;-;-;8.926071;0.08279419;-2.3204956;-;-;-;-;-;-;-;-;-;-;-;-;-;-;-
1514106849889;-;-;8.957199;0.05645752;-2.294159;-;-;-;-;-;-;-;-;-;-;-;-;-;-;-
1514106849909;-;-;8.953613;0.03730774;-2.2558594;-;-;-;-;-;-;-;-;-;-;-;-;-;-;-
1514106849929;-;-;8.971558;0.026535034;-2.2259216;-;-;-;-;-;-;-;-;-;-;-;-;-;-;-
1514106849949;-;-;8.945221;0.06364441;-2.223526;-;-;-;-;-;-;-;-;-;-;-;-;-;-;-
1514106849970;-;-;8.911713;0.072021484;-2.2486725;-;-;-;-;-;-;-;-;-;-;-;-;-;-;-
1514106849990;-;-;8.914108;0.093566895;-2.310913;-;-;-;-;-;-;-;-;-;-;-;-;-;-;-
1514106850010;-;-;8.904526;0.105529785;-2.302536;-;-;-;-;-;-;-;-;-;-;-;-;-;-;-
1514106850031;-;-;8.929672;0.11152649;-2.3300781;-;-;-;-;-;-;-;-;-;-;-;-;-;-;-
1514106850051;-;-;8.945221;0.10913086;-2.3300781;-;-;-;-;-;-;-;-;-;-;-;-;-;-;-
1514106850071;-;-;8.96199;0.074417114;-2.3300781;-;-;-;-;-;-;-;-;-;-;-;-;-;-;-
1514106850092;-;-;8.947617;0.088775635;-2.333664;-;-;-;-;-;-;-;-;-;-;-;-;-;-;-
1514106850112;-;-;8.930862;0.060043335;-2.2905731;-;-;-;-;-;-;-;-;-;-;-;-;-;-;-
1514106850132;-;-;8.940445;0.045684814;-2.2929688;-;-;-;-;-;-;-;-;-;-;-;-;-;-;-
1514106850153;-;-;8.916504;0.100753784;-2.294159;-;-;-;-;-;-;-;-;-;-;-;-;-;-;-
1514106850173;-;-;8.924881;0.069625854;-2.2366943;-;-;-;-;-;-;-;-;-;-;-;-;-;-;-
1514106850193;-;-;8.917694;0.021743774;-2.2019806;-;-;-;-;-;-;-;-;-;-;-;-;-;-;-
1514106850213;-;-;8.948822;0.06364441;-2.2211304;-;-;-;-;-;-;-;-;-;-;-;-;-;-;-
1514106850234;-;-;8.927277;0.103149414;-2.3169098;-;-;-;-;-;-;-;-;-;-;-;-;-;-;-
1514106850254;-;-;8.950012;0.10194397;-2.3252869;-;-;-;-;-;-;-;-;-;-;-;-;-;-;-
1514106850274;-;-;8.945221;0.10194397;-2.2929688;-;-;-;-;-;-;-;-;-;-;-;-;-;-;-
1514106850295;-;-;8.941635;0.08518982;-2.2342987;-;-;-;-;-;-;-;-;-;-;-;-;-;-;-
1514106850315;-;-;8.948822;0.076812744;-2.278595;-;-;-;-;-;-;-;-;-;-;-;-;-;-;-
1514106850335;-;-;8.944031;0.103149414;-2.2929688;-;-;-;-;-;-;-;-;-;-;-;-;-;-;-
1514106850356;-;-;8.933258;0.05406189;-2.2905731;-;-;-;-;-;-;-;-;-;-;-;-;-;-;-
1514106850376;-;-;8.941635;0.02532959;-2.278595;-;-;-;-;-;-;-;-;-;-;-;-;-;-;-
1514106850397;-;-;8.938049;0.02053833;-2.23909;-;-;-;-;-;-;-;-;-;-;-;-;-;-;-
1514106850416;-;-;8.932053;0.013366699;-2.2582397;-;-;-;-;-;-;-;-;-;-;-;-;-;-;-
1514106850436;-;-;8.975159;0.0013885498;-2.2750092;-;-;-;-;-;-;-;-;-;-;-;-;-;-;-
1514106850457;-;-;8.932053;0.016952515;-2.2917633;-;-;-;-;-;-;-;-;-;-;-;-;-;-;-
1514106850477;-;-;8.96199;0.019348145;-2.2845764;-;-;-;-;-;-;-;-;-;-;-;-;-;-;-
1514106850497;-;-;8.932053;0.040893555;-2.286972;-;-;-;-;-;-;-;-;-;-;-;-;-;-;-
1514106850517;-;-;8.938049;0.055252075;-2.2534637;-;-;-;-;-;-;-;-;-;-;-;-;-;-;-
1514106850537;-;-;8.976349;0.04927063;-2.2905731;-;-;-;-;-;-;-;-;-;-;-;-;-;-;-
1514106850558;-;-;9.066132;0.048080444;-2.3288727;-;-;-;-;-;-;-;-;-;-;-;-;-;-;-
1514106850578;-;-;8.953613;0.062438965;-2.254654;-;-;-;-;-;-;-;-;-;-;-;-;-;-;-
1514106850598;-;-;8.9392395;0.060043335;-2.2211304;-;-;-;-;-;-;-;-;-;-;-;-;-;-;-
1514106850618;-;-;8.930862;0.08518982;-2.2295227;-;-;-;-;-;-;-;-;-;-;-;-;-;-;-
1514106850639;-;-;8.969162;0.13186646;-2.3372498;-;-;-;-;-;-;-;-;-;-;-;-;-;-;-
1514106850659;-;-;8.915298;0.050476074;-2.2809906;-;-;-;-;-;-;-;-;-;-;-;-;-;-;-
1514106850679;-;-;8.881775;0.069625854;-2.1864166;-;-;-;-;-;-;-;-;-;-;-;-;-;-;-
1514106850700;-;-;9.023041;0.055252075;-2.2809906;-;-;-;-;-;-;-;-;-;-;-;-;-;-;-
1514106850720;-;-;8.813553;0.13067627;-2.2558594;-;-;-;-;-;-;-;-;-;-;-;-;-;-;-
1514106850740;-;-;8.88298;0.15820313;-2.2750092;-;-;-;-;-;-;-;-;-;-;-;-;-;-;-
1514106850760;-;-;8.908112;0.13665771;-2.3169098;-;-;-;-;-;-;-;-;-;-;-;-;-;-;-
1514106850781;-;-;9.148727;0.088775635;-2.3384552;-;-;-;-;-;-;-;-;-;-;-;-;-;-;-
1514106850801;-;-;8.849457;0.11152649;-2.2977448;-;-;-;-;-;-;-;-;-;-;-;-;-;-;-
1514106850821;-;-;8.897339;0.086380005;-2.3181;-;-;-;-;-;-;-;-;-;-;-;-;-;-;-
1514106850842;-;-;9.044586;0.07800293;-2.3049316;-;-;-;-;-;-;-;-;-;-;-;-;-;-;-
1514106850862;-;-;8.849457;0.045684814;-2.2450714;-;-;-;-;-;-;-;-;-;-;-;-;-;-;-
1514106850882;-;-;8.885376;0.05645752;-2.2342987;-;-;-;-;-;-;-;-;-;-;-;-;-;-;-
1514106850902;-;-;8.932053;0.008575439;-2.2522583;-;-;-;-;-;-;-;-;-;-;-;-;-;-;-
1514106850923;-;-;8.910507;-0.0069885254;-2.2953491;-;-;-;-;-;-;-;-;-;-;-;-;-;-;-
1514106850943;-;-;8.934448;0.007369995;-2.3372498;-;-;-;-;-;-;-;-;-;-;-;-;-;-;-
1514106850963;-;-;8.950012;0.072021484;-2.2857819;-;-;-;-;-;-;-;-;-;-;-;-;-;-;-
1514106850983;-;-;8.929672;0.088775635;-2.2642365;-;-;-;-;-;-;-;-;-;-;-;-;-;-;-
1514106851003;-;-;8.917694;0.091171265;-2.2594452;-;-;-;-;-;-;-;-;-;-;-;-;-;-;-
1514106851024;-;-;8.911713;0.103149414;-2.2809906;-;-;-;-;-;-;-;-;-;-;-;-;-;-;-
1514106851044;-;-;8.88298;0.122299194;-2.2953491;-;-;-;-;-;-;-;-;-;-;-;-;-;-;-
1514106851064;-;-;8.911713;0.12948608;-2.3384552;-;-;-;-;-;-;-;-;-;-;-;-;-;-;-
1514106851085;-;-;8.970367;0.11152649;-2.3145142;-;-;-;-;-;-;-;-;-;-;-;-;-;-;-
1514106851104;-;-;8.965576;0.050476074;-2.2247314;-;-;-;-;-;-;-;-;-;-;-;-;-;-;-
1514106851124;-;-;8.945221;0.009765625;-2.2091675;-;-;-;-;-;-;-;-;-;-;-;-;-;-;-
1514106851144;-;-;8.950012;0.012161255;-2.2175446;-;-;-;-;-;-;-;-;-;-;-;-;-;-;-
1514106851165;-;-;8.926071;0.057647705;-2.2857819;-;-;-;-;-;-;-;-;-;-;-;-;-;-;-
1514106851186;-;-;8.951218;0.086380005;-2.2845764;-;-;-;-;-;-;-;-;-;-;-;-;-;-;-
1514106851207;-;-;8.941635;0.07321167;-2.2103577;-;-;-;-;-;-;-;-;-;-;-;-;-;-;-
1514106851227;-;-;8.970367;0.050476074;-2.2414856;-;-;-;-;-;-;-;-;-;-;-;-;-;-;-
1514106851248;-;-;8.973953;0.046875;-2.3276825;-;-;-;-;-;-;-;-;-;-;-;-;-;-;-
1514106851268;-;-;8.975159;0.067230225;-2.3300781;-;-;-;-;-;-;-;-;-;-;-;-;-;-;-
1514106851288;-;-;8.92009;0.06842041;-2.3181;-;-;-;-;-;-;-;-;-;-;-;-;-;-;-
1514106851309;-;-;8.936844;0.057647705;-2.2678223;-;-;-;-;-;-;-;-;-;-;-;-;-;-;-
1514106851329;-;-;8.904526;0.03730774;-2.23909;-;-;-;-;-;-;-;-;-;-;-;-;-;-;-
1514106851349;-;-;8.914108;0.055252075;-2.2761993;-;-;-;-;-;-;-;-;-;-;-;-;-;-;-
1514106851370;-;-;8.932053;0.03970337;-2.270218;-;-;-;-;-;-;-;-;-;-;-;-;-;-;-
1514106851389;-;-;8.934448;0.038497925;-2.242691;-;-;-;-;-;-;-;-;-;-;-;-;-;-;-
1514106851409;-;-;8.959595;0.05645752;-2.2582397;-;-;-;-;-;-;-;-;-;-;-;-;-;-;-
1514106851429;-;-;8.952408;0.09954834;-2.2342987;-;-;-;-;-;-;-;-;-;-;-;-;-;-;-
1514106851450;-;-;8.951218;0.05645752;-2.203186;-;-;-;-;-;-;-;-;-;-;-;-;-;-;-
1514106851470;-;-;8.98233;0.05166626;-2.242691;-;-;-;-;-;-;-;-;-;-;-;-;-;-;-
1514106851490;-;-;8.938049;0.014556885;-2.2522583;-;-;-;-;-;-;-;-;-;-;-;-;-;-;-
1514106851511;-;-;8.936844;0.0049743652;-2.282196;-;-;-;-;-;-;-;-;-;-;-;-;-;-;-
1514106851531;-;-;8.923676;0.0037841797;-2.2893677;-;-;-;-;-;-;-;-;-;-;-;-;-;-;-
1514106851551;-;-;8.959595;-0.011779785;-2.2283173;-;-;-;-;-;-;-;-;-;-;-;-;-;-;-
1514106851572;-;-;8.951218;-0.03691101;-2.1732483;-;-;-;-;-;-;-;-;-;-;-;-;-;-;-
1514106851592;-;-;8.960785;0.0025787354;-2.2103577;-;-;-;-;-;-;-;-;-;-;-;-;-;-;-
1514106851612;-;-;8.946426;-0.012969971;-2.2582397;-;-;-;-;-;-;-;-;-;-;-;-;-;-;-
1514106851633;-;-;8.910507;0.024139404;-2.294159;-;-;-;-;-;-;-;-;-;-;-;-;-;-;-
1514106851653;-;-;8.940445;0.02772522;-2.2534637;-;-;-;-;-;-;-;-;-;-;-;-;-;-;-
1514106851673;-;-;8.942825;0.007369995;-2.2402954;-;-;-;-;-;-;-;-;-;-;-;-;-;-;-
1514106851694;-;-;9.038605;0.009765625;-2.203186;-;-;-;-;-;-;-;-;-;-;-;-;-;-;-
1514106851714;-;-;8.832703;0.026535034;-2.203186;-;-;-;-;-;-;-;-;-;-;-;-;-;-;-
1514106851734;-;-;8.914108;-0.03213501;-2.2414856;-;-;-;-;-;-;-;-;-;-;-;-;-;-;-
1514106851754;-;-;8.922485;-0.03691101;-2.251068;-;-;-;-;-;-;-;-;-;-;-;-;-;-;-
1514106851775;-;-;9.038605;-0.015365601;-2.2295227;-;-;-;-;-;-;-;-;-;-;-;-;-;-;-
1514106851795;-;-;8.872208;-0.038116455;-2.151703;-;-;-;-;-;-;-;-;-;-;-;-;-;-;-
1514106851815;-;-;8.954803;-0.04888916;-2.1469116;-;-;-;-;-;-;-;-;-;-;-;-;-;-;-
1514106851836;-;-;8.955994;-0.03453064;-2.187622;-;-;-;-;-;-;-;-;-;-;-;-;-;-;-
1514106851856;-;-;8.953613;-0.04649353;-2.179245;-;-;-;-;-;-;-;-;-;-;-;-;-;-;-
1514106851877;-;-;8.970367;-0.016571045;-2.2055817;-;-;-;-;-;-;-;-;-;-;-;-;-;-;-
1514106851897;-;-;8.930862;0.009765625;-2.215149;-;-;-;-;-;-;-;-;-;-;-;-;-;-;-
1514106851916;-;-;8.953613;-0.023742676;-2.1888123;-;-;-;-;-;-;-;-;-;-;-;-;-;-;-
1514106851936;-;-;8.976349;0.043289185;-2.2007904;-;-;-;-;-;-;-;-;-;-;-;-;-;-;-
1514106851957;-;-;8.916504;-0.009384155;-2.1804352;-;-;-;-;-;-;-;-;-;-;-;-;-;-;-
1514106851977;-;-;8.98233;-0.0045928955;-2.2067719;-;-;-;-;-;-;-;-;-;-;-;-;-;-;-
1514106851997;-;-;8.88298;0.02053833;-2.215149;-;-;-;-;-;-;-;-;-;-;-;-;-;-;-
1514106852018;-;-;8.942825;0.021743774;-2.175644;-;-;-;-;-;-;-;-;-;-;-;-;-;-;-
1514106852038;-;-;8.959595;0.02293396;-2.1588898;-;-;-;-;-;-;-;-;-;-;-;-;-;-;-
1514106852058;-;-;8.97995;-0.01776123;-2.172058;-;-;-;-;-;-;-;-;-;-;-;-;-;-;-
1514106852079;-;-;8.976349;-0.028533936;-2.1744537;-;-;-;-;-;-;-;-;-;-;-;-;-;-;-
1514106852099;-;-;8.938049;-0.021362305;-2.1409302;-;-;-;-;-;-;-;-;-;-;-;-;-;-;-
1514106852119;-;-;8.923676;-0.00579834;-2.2295227;-;-;-;-;-;-;-;-;-;-;-;-;-;-;-
1514106852139;-;-;8.92009;0.028915405;-2.203186;-;-;-;-;-;-;-;-;-;-;-;-;-;-;-
1514106852160;-;-;8.951218;0.02053833;-2.1804352;-;-;-;-;-;-;-;-;-;-;-;-;-;-;-
1514106852180;-;-;8.933258;-0.0010070801;-2.191208;-;-;-;-;-;-;-;-;-;-;-;-;-;-;-
1514106852200;-;-;8.955994;0.05645752;-2.136139;-;-;-;-;-;-;-;-;-;-;-;-;-;-;-
1514106852220;-;-;8.946426;0.07321167;-2.1313477;-;-;-;-;-;-;-;-;-;-;-;-;-;-;-
1514106852241;-;-;8.983536;0.093566895;-2.1552887;-;-;-;-;-;-;-;-;-;-;-;-;-;-;-
1514106852261;-;-;9.006287;0.07081604;-2.1971893;-;-;-;-;-;-;-;-;-;-;-;-;-;-;-
1514106852281;-;-;8.963181;0.031311035;-2.1217804;-;-;-;-;-;-;-;-;-;-;-;-;-;-;-
1514106852301;-;-;8.963181;0.07800293;-2.136139;-;-;-;-;-;-;-;-;-;-;-;-;-;-;-
1514106852322;-;-;8.935654;0.06124878;-2.1529083;-;-;-;-;-;-;-;-;-;-;-;-;-;-;-
1514106852342;-;-;8.92128;0.04927063;-2.172058;-;-;-;-;-;-;-;-;-;-;-;-;-;-;-
1514106852364;-;-;8.995499;0.03730774;-2.1552887;-;-;-;-;-;-;-;-;-;-;-;-;-;-;-
1514106852383;-;-;8.990723;0.012161255;-2.1313477;-;-;-;-;-;-;-;-;-;-;-;-;-;-;-
1514106852403;-;-;9.001495;-0.047698975;-2.1253662;-;-;-;-;-;-;-;-;-;-;-;-;-;-;-
1514106852423;-;-;9.003891;-0.06803894;-2.1433258;-;-;-;-;-;-;-;-;-;-;-;-;-;-;-
1514106852444;-;-;8.960785;-0.12071228;-2.1110077;-;-;-;-;-;-;-;-;-;-;-;-;-;-;-
1514106852464;-;-;8.984726;-0.04170227;-2.1098022;-;-;-;-;-;-;-;-;-;-;-;-;-;-;-
1514106852484;-;-;8.941635;0.050476074;-2.0559387;-;-;-;-;-;-;-;-;-;-;-;-;-;-;-
1514106852505;-;-;8.894943;0.12709045;-2.0702972;-;-;-;-;-;-;-;-;-;-;-;-;-;-;-
1514106852525;-;-;8.987122;0.14982605;-2.0331879;-;-;-;-;-;-;-;-;-;-;-;-;-;-;-
1514106852545;-;-;9.038605;0.14503479;-2.1337433;-;-;-;-;-;-;-;-;-;-;-;-;-;-;-
1514106852565;-;-;9.036209;0.16778564;-2.136139;-;-;-;-;-;-;-;-;-;-;-;-;-;-;-
1514106852586;-;-;8.98233;0.1725769;-2.1529083;-;-;-;-;-;-;-;-;-;-;-;-;-;-;-
1514106852606;-;-;8.885376;0.1905365;-2.1193848;-;-;-;-;-;-;-;-;-;-;-;-;-;-;-
1514106852626;-;-;8.922485;0.17018127;-2.0738983;-;-;-;-;-;-;-;-;-;-;-;-;-;-;-
1514106852647;-;-;8.940445;0.14863586;-2.0978394;-;-;-;-;-;-;-;-;-;-;-;-;-;-;-
1514106852667;-;-;8.965576;0.088775635;-2.1134033;-;-;-;-;-;-;-;-;-;-;-;-;-;-;-
1514106852688;-;-;9.032608;0.081588745;-2.13974;-;-;-;-;-;-;-;-;-;-;-;-;-;-;-
1514106852708;-;-;9.017059;0.052871704;-2.1026306;-;-;-;-;-;-;-;-;-;-;-;-;-;-;-
1514106852729;-;-;9.105637;0.014556885;-2.1576843;-;-;-;-;-;-;-;-;-;-;-;-;-;-;-
1514106852749;-;-;9.075714;1.9836426E-4;-2.1696625;-;-;-;-;-;-;-;-;-;-;-;-;-;-;-
1514106852769;-;-;9.041;0.03491211;-2.1385345;-;-;-;-;-;-;-;-;-;-;-;-;-;-;-
1514106852789;-;-;9.024231;0.019348145;-2.0463562;-;-;-;-;-;-;-;-;-;-;-;-;-;-;-
1514106852810;-;-;8.988327;-0.011779785;-2.014038;-;-;-;-;-;-;-;-;-;-;-;-;-;-;-
1514106852830;-;-;8.927277;-0.05368042;-2.0104523;-;-;-;-;-;-;-;-;-;-;-;-;-;-;-
1514106852850;-;-;8.906921;-0.03930664;-2.021225;-;-;-;-;-;-;-;-;-;-;-;-;-;-;-
1514106852871;-;-;8.891357;0.03251648;-2.0248108;-;-;-;-;-;-;-;-;-;-;-;-;-;-;-
1514106852891;-;-;8.888962;0.13905334;-1.9888916;-;-;-;-;-;-;-;-;-;-;-;-;-;-;-
1514106852911;-;-;8.910507;0.17137146;-2.0583344;-;-;-;-;-;-;-;-;-;-;-;-;-;-;-
1514106852932;-;-;8.977554;0.1845398;-2.0631256;-;-;-;-;-;-;-;-;-;-;-;-;-;-;-
1514106852951;-;-;8.989517;0.20249939;-2.0906525;-;-;-;-;-;-;-;-;-;-;-;-;-;-;-
1514106852971;-;-;9.030228;0.14863586;-2.0463562;-;-;-;-;-;-;-;-;-;-;-;-;-;-;-
1514106852991;-;-;9.015854;0.110321045;-1.990097;-;-;-;-;-;-;-;-;-;-;-;-;-;-;-
1514106853012;-;-;9.00029;0.05885315;-2.06073;-;-;-;-;-;-;-;-;-;-;-;-;-;-;-
1514106853032;-;-;8.976349;0.04208374;-2.2019806;-;-;-;-;-;-;-;-;-;-;-;-;-;-;-
1514106853053;-;-;8.9991;0.03970337;-2.1564941;-;-;-;-;-;-;-;-;-;-;-;-;-;-;-
1514106853073;-;-;8.977554;0.09954834;-2.1708527;-;-;-;-;-;-;-;-;-;-;-;-;-;-;-
1514106853093;-;-;8.929672;0.079193115;-2.1062164;-;-;-;-;-;-;-;-;-;-;-;-;-;-;-
1514106853113;-;-;8.933258;0.043289185;-2.1253662;-;-;-;-;-;-;-;-;-;-;-;-;-;-;-
1514106853134;-;-;8.966782;0.110321045;-2.1552887;-;-;-;-;-;-;-;-;-;-;-;-;-;-;-
1514106853153;-;-;8.946426;0.08758545;-2.1959991;-;-;-;-;-;-;-;-;-;-;-;-;-;-;-
1514106853173;-;-;8.96199;0.13905334;-2.247467;-;-;-;-;-;-;-;-;-;-;-;-;-;-;-
1514106853194;-;-;8.9392395;0.1510315;-2.1828308;-;-;-;-;-;-;-;-;-;-;-;-;-;-;-
1514106853213;-;-;8.915298;0.119903564;-2.227127;-;-;-;-;-;-;-;-;-;-;-;-;-;-;-
1514106853233;-;-;8.958389;0.095962524;-2.207962;-;-;-;-;-;-;-;-;-;-;-;-;-;-;-
1514106853254;-;-;8.975159;0.20249939;-2.3995056;-;-;-;-;-;-;-;-;-;-;-;-;-;-;-
1514106853273;-;-;8.933258;0.12709045;-2.3121185;-;-;-;-;-;-;-;-;-;-;-;-;-;-;-
1514106853293;-;-;8.936844;0.16059875;-2.2211304;-;-;-;-;-;-;-;-;-;-;-;-;-;-;-
1514106853314;-;-;8.910507;0.21806335;-2.2726135;-;-;-;-;-;-;-;-;-;-;-;-;-;-;-
1514106853334;-;-;8.92009;0.13067627;-2.242691;-;-;-;-;-;-;-;-;-;-;-;-;-;-;-
1514106853354;-;-;8.944031;0.122299194;-2.1816254;-;-;-;-;-;-;-;-;-;-;-;-;-;-;-
1514106853374;-;-;8.92128;0.115112305;-2.2067719;-;-;-;-;-;-;-;-;-;-;-;-;-;-;-
1514106853395;-;-;8.934448;0.13905334;-2.2342987;-;-;-;-;-;-;-;-;-;-;-;-;-;-;-
1514106853415;-;-;8.929672;0.12828064;-2.251068;-;-;-;-;-;-;-;-;-;-;-;-;-;-;-
1514106853435;-;-;8.950012;0.09475708;-2.163681;-;-;-;-;-;-;-;-;-;-;-;-;-;-;-
1514106853456;-;-;8.923676;0.10673523;-2.2247314;-;-;-;-;-;-;-;-;-;-;-;-;-;-;-
1514106853476;-;-;8.955994;0.11152649;-2.3145142;-;-;-;-;-;-;-;-;-;-;-;-;-;-;-
1514106853496;-;-;8.97995;0.069625854;-2.3133087;-;-;-;-;-;-;-;-;-;-;-;-;-;-;-
1514106853516;-;-;8.970367;0.107925415;-2.3013458;-;-;-;-;-;-;-;-;-;-;-;-;-;-;-
1514106853537;-;-;8.954803;0.124694824;-2.2522583;-;-;-;-;-;-;-;-;-;-;-;-;-;-;-
1514106853557;-;-;8.891357;0.11869812;-2.2534637;-;-;-;-;-;-;-;-;-;-;-;-;-;-;-
1514106853577;-;-;8.871002;0.14863586;-2.223526;-;-;-;-;-;-;-;-;-;-;-;-;-;-;-
1514106853598;-;-;8.922485;0.16897583;-2.1959991;-;-;-;-;-;-;-;-;-;-;-;-;-;-;-
1514106853618;-;-;8.929672;0.14624023;-2.2187347;-;-;-;-;-;-;-;-;-;-;-;-;-;-;-
1514106853638;-;-;8.9787445;0.11631775;-2.2139587;-;-;-;-;-;-;-;-;-;-;-;-;-;-;-
1514106853659;-;-;8.970367;0.08998108;-2.1828308;-;-;-;-;-;-;-;-;-;-;-;-;-;-;-
1514106853679;-;-;8.964386;0.088775635;-2.175644;-;-;-;-;-;-;-;-;-;-;-;-;-;-;-
1514106853699;-;-;8.959595;0.074417114;-2.1947937;-;-;-;-;-;-;-;-;-;-;-;-;-;-;-
1514106853720;-;-;8.929672;0.08039856;-2.2342987;-;-;-;-;-;-;-;-;-;-;-;-;-;-;-
1514106853740;-;-;8.955994;0.086380005;-2.2618408;-;-;-;-;-;-;-;-;-;-;-;-;-;-;-
1514106853760;-;-;9.007477;0.08998108;-2.263031;-;-;-;-;-;-;-;-;-;-;-;-;-;-;-
1514106853780;-;-;9.001495;0.086380005;-2.1900177;-;-;-;-;-;-;-;-;-;-;-;-;-;-;-
1514106853800;-;-;8.959595;0.093566895;-2.163681;-;-;-;-;-;-;-;-;-;-;-;-;-;-;-
1514106853821;-;-;8.915298;0.0756073;-2.1816254;-;-;-;-;-;-;-;-;-;-;-;-;-;-;-
1514106853841;-;-;8.911713;0.107925415;-2.191208;-;-;-;-;-;-;-;-;-;-;-;-;-;-;-
1514106853861;-;-;8.9392395;0.1043396;-2.1624756;-;-;-;-;-;-;-;-;-;-;-;-;-;-;-
1514106853881;-;-;8.946426;0.13067627;-2.13974;-;-;-;-;-;-;-;-;-;-;-;-;-;-;-
1514106853902;-;-;8.955994;0.10673523;-2.1672668;-;-;-;-;-;-;-;-;-;-;-;-;-;-;-
1514106853923;-;-;8.977554;0.091171265;-2.1648712;-;-;-;-;-;-;-;-;-;-;-;-;-;-;-
1514106853944;-;-;8.977554;0.09954834;-2.2127533;-;-;-;-;-;-;-;-;-;-;-;-;-;-;-
1514106853965;-;-;8.950012;0.083984375;-2.1744537;-;-;-;-;-;-;-;-;-;-;-;-;-;-;-
1514106853985;-;-;8.972763;0.07800293;-2.16008;-;-;-;-;-;-;-;-;-;-;-;-;-;-;-
1514106854006;-;-;8.987122;0.048080444;-2.1732483;-;-;-;-;-;-;-;-;-;-;-;-;-;-;-
1514106854027;-;-;8.973953;0.062438965;-2.1744537;-;-;-;-;-;-;-;-;-;-;-;-;-;-;-
1514106854047;-;-;8.958389;0.03251648;-2.1780396;-;-;-;-;-;-;-;-;-;-;-;-;-;-;-
1514106854067;-;-;8.935654;0.09715271;-2.2007904;-;-;-;-;-;-;-;-;-;-;-;-;-;-;-
1514106854088;-;-;8.922485;0.09954834;-2.1672668;-;-;-;-;-;-;-;-;-;-;-;-;-;-;-
1514106854108;-;-;8.950012;0.115112305;-2.1959991;-;-;-;-;-;-;-;-;-;-;-;-;-;-;-
1514106854128;-;-;8.948822;0.11152649;-2.184021;-;-;-;-;-;-;-;-;-;-;-;-;-;-;-
1514106854149;-;-;8.935654;0.13786316;-2.1744537;-;-;-;-;-;-;-;-;-;-;-;-;-;-;-
1514106854170;-;-;8.915298;0.12828064;-2.1780396;-;-;-;-;-;-;-;-;-;-;-;-;-;-;-
1514106854190;-;-;8.92009;0.10913086;-2.2103577;-;-;-;-;-;-;-;-;-;-;-;-;-;-;-
1514106854211;-;-;8.958389;0.1510315;-2.1900177;-;-;-;-;-;-;-;-;-;-;-;-;-;-;-
1514106854230;-;-;8.972763;0.13426208;-2.1337433;-;-;-;-;-;-;-;-;-;-;-;-;-;-;-
1514106854250;-;-;8.959595;0.12588501;-2.1947937;-;-;-;-;-;-;-;-;-;-;-;-;-;-;-
1514106854270;-;-;8.947617;0.15820313;-2.1900177;-;-;-;-;-;-;-;-;-;-;-;-;-;-;-
1514106854291;-;-;8.936844;0.18334961;-2.1732483;-;-;-;-;-;-;-;-;-;-;-;-;-;-;-
1514106854311;-;-;8.930862;0.119903564;-2.1696625;-;-;-;-;-;-;-;-;-;-;-;-;-;-;-
1514106854331;-;-;8.98233;0.16419983;-2.1804352;-;-;-;-;-;-;-;-;-;-;-;-;-;-;-
1514106854352;-;-;8.973953;0.12588501;-2.1768494;-;-;-;-;-;-;-;-;-;-;-;-;-;-;-
1514106854372;-;-;8.911713;0.09715271;-2.128952;-;-;-;-;-;-;-;-;-;-;-;-;-;-;-
1514106854392;-;-;8.963181;0.14025879;-2.1421204;-;-;-;-;-;-;-;-;-;-;-;-;-;-;-
1514106854413;-;-;8.954803;0.093566895;-2.1732483;-;-;-;-;-;-;-;-;-;-;-;-;-;-;-
1514106854433;-;-;8.950012;0.107925415;-2.2211304;-;-;-;-;-;-;-;-;-;-;-;-;-;-;-
1514106854453;-;-;8.9392395;0.12709045;-2.1672668;-;-;-;-;-;-;-;-;-;-;-;-;-;-;-
1514106854474;-;-;8.976349;0.12709045;-2.1732483;-;-;-;-;-;-;-;-;-;-;-;-;-;-;-
1514106854495;-;-;8.946426;0.24919128;-2.13974;-;-;-;-;-;-;-;-;-;-;-;-;-;-;-
1514106854515;-;-;8.90213;0.2815094;-2.1816254;-;-;-;-;-;-;-;-;-;-;-;-;-;-;-
1514106854535;-;-;8.894943;0.2850952;-2.199585;-;-;-;-;-;-;-;-;-;-;-;-;-;-;-
1514106854554;-;-;8.897339;0.3210144;-2.16008;-;-;-;-;-;-;-;-;-;-;-;-;-;-;-
1514106854574;-;-;8.971558;0.2240448;-2.1660767;-;-;-;-;-;-;-;-;-;-;-;-;-;-;-
1514106854594;-;-;9.039795;0.1953125;-2.2007904;-;-;-;-;-;-;-;-;-;-;-;-;-;-;-
1514106854615;-;-;9.023041;0.122299194;-2.1564941;-;-;-;-;-;-;-;-;-;-;-;-;-;-;-
1514106854634;-;-;9.033813;0.13905334;-2.1421204;-;-;-;-;-;-;-;-;-;-;-;-;-;-;-
1514106854654;-;-;9.008667;0.09475708;-2.0954437;-;-;-;-;-;-;-;-;-;-;-;-;-;-;-
1514106854674;-;-;9.017059;0.098358154;-2.0990295;-;-;-;-;-;-;-;-;-;-;-;-;-;-;-
1514106854695;-;-;8.984726;0.21447754;-2.0906525;-;-;-;-;-;-;-;-;-;-;-;-;-;-;-
1514106854716;-;-;8.878189;0.24440002;-2.0667114;-;-;-;-;-;-;-;-;-;-;-;-;-;-;-
1514106854737;-;-;8.806366;0.1953125;-1.8967285;-;-;-;-;-;-;-;-;-;-;-;-;-;-;-
1514106854757;-;-;8.933258;0.074417114;-1.9158783;-;-;-;-;-;-;-;-;-;-;-;-;-;-;-
1514106854777;-;-;9.067337;0.052871704;-2.0044556;-;-;-;-;-;-;-;-;-;-;-;-;-;-;-
1514106854798;-;-;9.142746;0.1725769;-2.1181793;-;-;-;-;-;-;-;-;-;-;-;-;-;-;-
1514106854818;-;-;9.06015;0.338974;-2.1038208;-;-;-;-;-;-;-;-;-;-;-;-;-;-;-
1514106854838;-;-;8.967972;0.4119873;-2.0487518;-;-;-;-;-;-;-;-;-;-;-;-;-;-;-
1514106854858;-;-;8.903336;0.34854126;-1.9888916;-;-;-;-;-;-;-;-;-;-;-;-;-;-;-
1514106854879;-;-;8.990723;0.17616272;-1.9350281;-;-;-;-;-;-;-;-;-;-;-;-;-;-;-
1514106854899;-;-;9.153519;0.02532959;-1.9158783;-;-;-;-;-;-;-;-;-;-;-;-;-;-;-
1514106854919;-;-;9.103241;-0.01776123;-1.9781189;-;-;-;-;-;-;-;-;-;-;-;-;-;-;-
1514106854940;-;-;9.024231;0.0013885498;-1.9541779;-;-;-;-;-;-;-;-;-;-;-;-;-;-;-
1514106854960;-;-;8.891357;0.052871704;-1.9924927;-;-;-;-;-;-;-;-;-;-;-;-;-;-;-
1514106854980;-;-;8.880585;0.1953125;-1.9733429;-;-;-;-;-;-;-;-;-;-;-;-;-;-;-
1514106855001;-;-;8.866211;0.2420044;-1.9649506;-;-;-;-;-;-;-;-;-;-;-;-;-;-;-
1514106855021;-;-;8.933258;0.2695465;-1.9278412;-;-;-;-;-;-;-;-;-;-;-;-;-;-;-
1514106855041;-;-;9.003891;0.16897583;-1.9625702;-;-;-;-;-;-;-;-;-;-;-;-;-;-;-
1514106855061;-;-;9.023041;0.10673523;-1.9745331;-;-;-;-;-;-;-;-;-;-;-;-;-;-;-
1514106855082;-;-;9.037399;0.06124878;-2.0319977;-;-;-;-;-;-;-;-;-;-;-;-;-;-;-
1514106855102;-;-;8.90213;0.076812744;-2.168457;-;-;-;-;-;-;-;-;-;-;-;-;-;-;-
1514106855122;-;-;8.904526;0.1438446;-2.1421204;-;-;-;-;-;-;-;-;-;-;-;-;-;-;-
1514106855143;-;-;8.92009;0.22285461;-2.1181793;-;-;-;-;-;-;-;-;-;-;-;-;-;-;-
1514106855162;-;-;8.996704;0.21447754;-2.076294;-;-;-;-;-;-;-;-;-;-;-;-;-;-;-
1514106855182;-;-;9.030228;0.23602295;-2.0679016;-;-;-;-;-;-;-;-;-;-;-;-;-;-;-
1514106855203;-;-;9.043396;0.14025879;-2.0750885;-;-;-;-;-;-;-;-;-;-;-;-;-;-;-
1514106855222;-;-;9.037399;0.08518982;-2.0499573;-;-;-;-;-;-;-;-;-;-;-;-;-;-;-
1514106855242;-;-;8.989517;0.04927063;-2.0355835;-;-;-;-;-;-;-;-;-;-;-;-;-;-;-
1514106855263;-;-;8.929672;0.048080444;-1.9960785;-;-;-;-;-;-;-;-;-;-;-;-;-;-;-
1514106855283;-;-;8.871002;0.033706665;-2.0224152;-;-;-;-;-;-;-;-;-;-;-;-;-;-;-
1514106855303;-;-;8.90213;0.04208374;-1.9446106;-;-;-;-;-;-;-;-;-;-;-;-;-;-;-
1514106855323;-;-;8.950012;0.076812744;-2.041565;-;-;-;-;-;-;-;-;-;-;-;-;-;-;-
1514106855344;-;-;8.98114;0.07321167;-2.0906525;-;-;-;-;-;-;-;-;-;-;-;-;-;-;-
1514106855363;-;-;8.997894;0.081588745;-2.096634;-;-;-;-;-;-;-;-;-;-;-;-;-;-;-
1514106855383;-;-;8.98114;0.100753784;-2.1385345;-;-;-;-;-;-;-;-;-;-;-;-;-;-;-
1514106855404;-;-;8.9991;0.08039856;-2.076294;-;-;-;-;-;-;-;-;-;-;-;-;-;-;-
1514106855423;-;-;8.96199;0.04927063;-2.0906525;-;-;-;-;-;-;-;-;-;-;-;-;-;-;-
1514106855443;-;-;8.945221;0.07321167;-2.0774841;-;-;-;-;-;-;-;-;-;-;-;-;-;-;-
1514106855464;-;-;8.971558;0.050476074;-2.0822754;-;-;-;-;-;-;-;-;-;-;-;-;-;-;-
1514106855483;-;-;9.012268;0.06364441;-2.1229706;-;-;-;-;-;-;-;-;-;-;-;-;-;-;-
1514106855503;-;-;9.013458;0.04447937;-2.1277618;-;-;-;-;-;-;-;-;-;-;-;-;-;-;-
1514106855523;-;-;9.006287;0.05406189;-2.1385345;-;-;-;-;-;-;-;-;-;-;-;-;-;-;-
1514106855544;-;-;9.00029;0.04208374;-2.105011;-;-;-;-;-;-;-;-;-;-;-;-;-;-;-
1514106855564;-;-;8.955994;0.09715271;-2.096634;-;-;-;-;-;-;-;-;-;-;-;-;-;-;-
1514106855584;-;-;8.945221;0.033706665;-2.0523376;-;-;-;-;-;-;-;-;-;-;-;-;-;-;-
1514106855604;-;-;8.914108;0.086380005;-2.0008698;-;-;-;-;-;-;-;-;-;-;-;-;-;-;-
1514106855624;-;-;8.952408;0.1043396;-2.0116425;-;-;-;-;-;-;-;-;-;-;-;-;-;-;-
1514106855644;-;-;8.944031;0.12948608;-2.0331879;-;-;-;-;-;-;-;-;-;-;-;-;-;-;-
1514106855665;-;-;8.957199;0.14503479;-2.0750885;-;-;-;-;-;-;-;-;-;-;-;-;-;-;-
1514106855686;-;-;8.950012;0.16299438;-2.1169891;-;-;-;-;-;-;-;-;-;-;-;-;-;-;-
1514106855706;-;-;8.995499;0.14025879;-2.1660767;-;-;-;-;-;-;-;-;-;-;-;-;-;-;-
1514106855726;-;-;9.00029;0.15701294;-2.207962;-;-;-;-;-;-;-;-;-;-;-;-;-;-;-
1514106855747;-;-;8.976349;0.14503479;-2.2342987;-;-;-;-;-;-;-;-;-;-;-;-;-;-;-
1514106855767;-;-;8.9392395;0.112716675;-2.1349487;-;-;-;-;-;-;-;-;-;-;-;-;-;-;-
1514106855787;-;-;8.926071;0.1043396;-2.1026306;-;-;-;-;-;-;-;-;-;-;-;-;-;-;-
1514106855808;-;-;8.909317;0.112716675;-2.16008;-;-;-;-;-;-;-;-;-;-;-;-;-;-;-
1514106855828;-;-;8.959595;0.12109375;-2.1852264;-;-;-;-;-;-;-;-;-;-;-;-;-;-;-
1514106855848;-;-;8.991913;0.14263916;-2.1564941;-;-;-;-;-;-;-;-;-;-;-;-;-;-;-
1514106855869;-;-;9.00029;0.18574524;-2.1624756;-;-;-;-;-;-;-;-;-;-;-;-;-;-;-
1514106855889;-;-;8.991913;0.19770813;-2.184021;-;-;-;-;-;-;-;-;-;-;-;-;-;-;-
1514106855909;-;-;8.973953;0.20610046;-2.2833862;-;-;-;-;-;-;-;-;-;-;-;-;-;-;-
1514106855929;-;-;8.987122;0.18693542;-2.3001404;-;-;-;-;-;-;-;-;-;-;-;-;-;-;-
1514106855950;-;-;8.985931;0.14144897;-2.2223358;-;-;-;-;-;-;-;-;-;-;-;-;-;-;-
1514106855970;-;-;9.007477;0.15701294;-2.1564941;-;-;-;-;-;-;-;-;-;-;-;-;-;-;-
1514106855990;-;-;8.960785;0.19770813;-2.1385345;-;-;-;-;-;-;-;-;-;-;-;-;-;-;-
1514106856011;-;-;8.879379;0.17018127;-2.132553;-;-;-;-;-;-;-;-;-;-;-;-;-;-;-
1514106856030;-;-;8.872208;0.15461731;-2.175644;-;-;-;-;-;-;-;-;-;-;-;-;-;-;-
1514106856050;-;-;8.856644;0.093566895;-2.2414856;-;-;-;-;-;-;-;-;-;-;-;-;-;-;-
1514106856070;-;-;8.881775;0.15701294;-2.2690277;-;-;-;-;-;-;-;-;-;-;-;-;-;-;-
1514106856091;-;-;8.916504;0.19412231;-2.2414856;-;-;-;-;-;-;-;-;-;-;-;-;-;-;-
1514106856111;-;-;8.924881;0.17018127;-2.207962;-;-;-;-;-;-;-;-;-;-;-;-;-;-;-
1514106856131;-;-;8.951218;0.1510315;-2.1864166;-;-;-;-;-;-;-;-;-;-;-;-;-;-;-
1514106856152;-;-;8.970367;0.17497253;-2.2295227;-;-;-;-;-;-;-;-;-;-;-;-;-;-;-
1514106856171;-;-;8.926071;0.1618042;-2.2247314;-;-;-;-;-;-;-;-;-;-;-;-;-;-;-
1514106856191;-;-;8.940445;0.17616272;-2.215149;-;-;-;-;-;-;-;-;-;-;-;-;-;-;-
1514106856211;-;-;8.922485;0.1905365;-2.2342987;-;-;-;-;-;-;-;-;-;-;-;-;-;-;-
1514106856232;-;-;8.950012;0.15222168;-2.2211304;-;-;-;-;-;-;-;-;-;-;-;-;-;-;-
1514106856252;-;-;8.969162;0.13665771;-2.2163544;-;-;-;-;-;-;-;-;-;-;-;-;-;-;-
1514106856272;-;-;8.975159;0.110321045;-2.2378998;-;-;-;-;-;-;-;-;-;-;-;-;-;-;-
1514106856293;-;-;8.964386;0.124694824;-2.2163544;-;-;-;-;-;-;-;-;-;-;-;-;-;-;-
1514106856313;-;-;8.944031;0.1558075;-2.1959991;-;-;-;-;-;-;-;-;-;-;-;-;-;-;-
1514106856333;-;-;8.938049;0.14263916;-2.215149;-;-;-;-;-;-;-;-;-;-;-;-;-;-;-
1514106856354;-;-;8.929672;0.14263916;-2.1672668;-;-;-;-;-;-;-;-;-;-;-;-;-;-;-
1514106856374;-;-;8.927277;0.16299438;-2.2187347;-;-;-;-;-;-;-;-;-;-;-;-;-;-;-
1514106856394;-;-;8.926071;0.1510315;-2.2055817;-;-;-;-;-;-;-;-;-;-;-;-;-;-;-
1514106856415;-;-;8.92128;0.14503479;-2.2283173;-;-;-;-;-;-;-;-;-;-;-;-;-;-;-
1514106856435;-;-;8.973953;0.13905334;-2.2366943;-;-;-;-;-;-;-;-;-;-;-;-;-;-;-
1514106856455;-;-;8.983536;0.14624023;-2.2450714;-;-;-;-;-;-;-;-;-;-;-;-;-;-;-
1514106856475;-;-;8.959595;0.15342712;-2.2043762;-;-;-;-;-;-;-;-;-;-;-;-;-;-;-
1514106856496;-;-;8.92009;0.18814087;-2.1888123;-;-;-;-;-;-;-;-;-;-;-;-;-;-;-
1514106856516;-;-;8.891357;0.17376709;-2.263031;-;-;-;-;-;-;-;-;-;-;-;-;-;-;-
1514106856536;-;-;8.8602295;0.19891357;-2.3468323;-;-;-;-;-;-;-;-;-;-;-;-;-;-;-
1514106856557;-;-;8.88298;0.20968628;-2.3240814;-;-;-;-;-;-;-;-;-;-;-;-;-;-;-
1514106856577;-;-;8.855438;0.22164917;-2.2965546;-;-;-;-;-;-;-;-;-;-;-;-;-;-;-
1514106856597;-;-;8.881775;0.2192688;-2.294159;-;-;-;-;-;-;-;-;-;-;-;-;-;-;-
1514106856617;-;-;8.863831;0.22045898;-2.3516235;-;-;-;-;-;-;-;-;-;-;-;-;-;-;-
1514106856638;-;-;8.855438;0.23242188;-2.3360596;-;-;-;-;-;-;-;-;-;-;-;-;-;-;-
1514106856657;-;-;8.946426;0.20729065;-2.3276825;-;-;-;-;-;-;-;-;-;-;-;-;-;-;-
1514106856677;-;-;9.005081;0.1953125;-2.326477;-;-;-;-;-;-;-;-;-;-;-;-;-;-;-
1514106856697;-;-;9.045776;0.17497253;-2.349228;-;-;-;-;-;-;-;-;-;-;-;-;-;-;-
1514106856718;-;-;9.025436;0.18814087;-2.3360596;-;-;-;-;-;-;-;-;-;-;-;-;-;-;-
1514106856737;-;-;8.977554;0.21687317;-2.2750092;-;-;-;-;-;-;-;-;-;-;-;-;-;-;-
1514106856757;-;-;8.886566;0.20249939;-2.251068;-;-;-;-;-;-;-;-;-;-;-;-;-;-;-
1514106856778;-;-;8.886566;0.14982605;-2.2199402;-;-;-;-;-;-;-;-;-;-;-;-;-;-;-
1514106856798;-;-;8.927277;0.093566895;-2.215149;-;-;-;-;-;-;-;-;-;-;-;-;-;-;-
1514106856818;-;-;8.955994;0.062438965;-2.2594452;-;-;-;-;-;-;-;-;-;-;-;-;-;-;-
1514106856838;-;-;8.92128;0.093566895;-2.1888123;-;-;-;-;-;-;-;-;-;-;-;-;-;-;-
1514106856859;-;-;8.861435;0.15222168;-2.1900177;-;-;-;-;-;-;-;-;-;-;-;-;-;-;-
1514106856879;-;-;8.874603;0.19770813;-2.2402954;-;-;-;-;-;-;-;-;-;-;-;-;-;-;-
1514106856899;-;-;8.871002;0.22045898;-2.2738037;-;-;-;-;-;-;-;-;-;-;-;-;-;-;-
1514106856920;-;-;8.948822;0.14503479;-2.2989502;-;-;-;-;-;-;-;-;-;-;-;-;-;-;-
1514106856940;-;-;9.003891;0.16059875;-2.2929688;-;-;-;-;-;-;-;-;-;-;-;-;-;-;-
1514106856961;-;-;8.98233;0.14263916;-2.3073273;-;-;-;-;-;-;-;-;-;-;-;-;-;-;-
1514106856980;-;-;8.914108;0.1797638;-2.2929688;-;-;-;-;-;-;-;-;-;-;-;-;-;-;-
1514106857001;-;-;8.903336;0.18334961;-2.251068;-;-;-;-;-;-;-;-;-;-;-;-;-;-;-
1514106857020;-;-;8.910507;0.16778564;-2.2450714;-;-;-;-;-;-;-;-;-;-;-;-;-;-;-
1514106857040;-;-;8.92128;0.1725769;-2.2977448;-;-;-;-;-;-;-;-;-;-;-;-;-;-;-
1514106857060;-;-;8.944031;0.20249939;-2.2690277;-;-;-;-;-;-;-;-;-;-;-;-;-;-;-
1514106857081;-;-;8.940445;0.1845398;-2.2750092;-;-;-;-;-;-;-;-;-;-;-;-;-;-;-
1514106857100;-;-;8.952408;0.18574524;-2.2929688;-;-;-;-;-;-;-;-;-;-;-;-;-;-;-
1514106857120;-;-;8.932053;0.14263916;-2.2642365;-;-;-;-;-;-;-;-;-;-;-;-;-;-;-
1514106857141;-;-;8.959595;0.1905365;-2.2798004;-;-;-;-;-;-;-;-;-;-;-;-;-;-;-
1514106857160;-;-;8.933258;0.1797638;-2.266632;-;-;-;-;-;-;-;-;-;-;-;-;-;-;-
1514106857180;-;-;8.936844;0.18214417;-2.223526;-;-;-;-;-;-;-;-;-;-;-;-;-;-;-
1514106857201;-;-;8.946426;0.1725769;-2.211563;-;-;-;-;-;-;-;-;-;-;-;-;-;-;-
1514106857221;-;-;8.912903;0.16659546;-2.286972;-;-;-;-;-;-;-;-;-;-;-;-;-;-;-
1514106857241;-;-;8.887772;0.16778564;-2.2845764;-;-;-;-;-;-;-;-;-;-;-;-;-;-;-
1514106857262;-;-;8.92128;0.1953125;-2.2594452;-;-;-;-;-;-;-;-;-;-;-;-;-;-;-
1514106857282;-;-;8.908112;0.19891357;-2.230713;-;-;-;-;-;-;-;-;-;-;-;-;-;-;-
1514106857302;-;-;8.926071;0.21087646;-2.2378998;-;-;-;-;-;-;-;-;-;-;-;-;-;-;-
1514106857323;-;-;8.927277;0.21566772;-2.2498627;-;-;-;-;-;-;-;-;-;-;-;-;-;-;-
1514106857343;-;-;8.941635;0.15820313;-2.242691;-;-;-;-;-;-;-;-;-;-;-;-;-;-;-
1514106857363;-;-;8.950012;0.16419983;-2.2690277;-;-;-;-;-;-;-;-;-;-;-;-;-;-;-
1514106857384;-;-;8.964386;0.20010376;-2.2881775;-;-;-;-;-;-;-;-;-;-;-;-;-;-;-
1514106857404;-;-;8.98114;0.16778564;-2.2342987;-;-;-;-;-;-;-;-;-;-;-;-;-;-;-
1514106857424;-;-;8.941635;0.16059875;-2.231903;-;-;-;-;-;-;-;-;-;-;-;-;-;-;-
1514106857444;-;-;8.918884;0.17018127;-2.2259216;-;-;-;-;-;-;-;-;-;-;-;-;-;-;-
1514106857465;-;-;8.92128;0.1510315;-2.2558594;-;-;-;-;-;-;-;-;-;-;-;-;-;-;-
1514106857485;-;-;8.9392395;0.17018127;-2.2606354;-;-;-;-;-;-;-;-;-;-;-;-;-;-;-
1514106857505;-;-;8.942825;0.1905365;-2.23909;-;-;-;-;-;-;-;-;-;-;-;-;-;-;-
1514106857526;-;-;8.952408;0.17736816;-2.2211304;-;-;-;-;-;-;-;-;-;-;-;-;-;-;-
1514106857546;-;-;8.944031;0.19651794;-2.2558594;-;-;-;-;-;-;-;-;-;-;-;-;-;-;-
1514106857566;-;-;8.918884;0.18814087;-2.263031;-;-;-;-;-;-;-;-;-;-;-;-;-;-;-
1514106857586;-;-;8.924881;0.17855835;-2.2402954;-;-;-;-;-;-;-;-;-;-;-;-;-;-;-
1514106857607;-;-;8.914108;0.17736816;-2.2055817;-;-;-;-;-;-;-;-;-;-;-;-;-;-;-
1514106857627;-;-;8.928467;0.15820313;-2.2175446;-;-;-;-;-;-;-;-;-;-;-;-;-;-;-
1514106857647;-;-;8.922485;0.1558075;-2.215149;-;-;-;-;-;-;-;-;-;-;-;-;-;-;-
1514106857667;-;-;8.954803;0.17018127;-2.187622;-;-;-;-;-;-;-;-;-;-;-;-;-;-;-
1514106857688;-;-;8.941635;0.20010376;-2.2462769;-;-;-;-;-;-;-;-;-;-;-;-;-;-;-
1514106857707;-;-;8.945221;0.16299438;-2.2366943;-;-;-;-;-;-;-;-;-;-;-;-;-;-;-
1514106857727;-;-;8.932053;0.14144897;-2.2187347;-;-;-;-;-;-;-;-;-;-;-;-;-;-;-
1514106857748;-;-;8.929672;0.20610046;-2.2127533;-;-;-;-;-;-;-;-;-;-;-;-;-;-;-
1514106857767;-;-;8.92009;0.20249939;-2.1780396;-;-;-;-;-;-;-;-;-;-;-;-;-;-;-
1514106857787;-;-;8.940445;0.21087646;-2.1624756;-;-;-;-;-;-;-;-;-;-;-;-;-;-;-
1514106857807;-;-;8.9392395;0.18095398;-2.1744537;-;-;-;-;-;-;-;-;-;-;-;-;-;-;-
1514106857828;-;-;8.953613;0.19651794;-2.175644;-;-;-;-;-;-;-;-;-;-;-;-;-;-;-
1514106857848;-;-;8.936844;0.19293213;-2.1936035;-;-;-;-;-;-;-;-;-;-;-;-;-;-;-
1514106857868;-;-;8.976349;0.15222168;-2.2594452;-;-;-;-;-;-;-;-;-;-;-;-;-;-;-
1514106857889;-;-;8.977554;0.17018127;-2.2378998;-;-;-;-;-;-;-;-;-;-;-;-;-;-;-
1514106857909;-;-;8.967972;0.1558075;-2.230713;-;-;-;-;-;-;-;-;-;-;-;-;-;-;-
1514106857930;-;-;8.942825;0.12709045;-2.1672668;-;-;-;-;-;-;-;-;-;-;-;-;-;-;-
1514106857949;-;-;8.918884;0.11631775;-2.1732483;-;-;-;-;-;-;-;-;-;-;-;-;-;-;-
1514106857970;-;-;8.927277;0.103149414;-2.231903;-;-;-;-;-;-;-;-;-;-;-;-;-;-;-
1514106857990;-;-;8.923676;0.09715271;-2.2331085;-;-;-;-;-;-;-;-;-;-;-;-;-;-;-
1514106858010;-;-;8.952408;0.119903564;-2.175644;-;-;-;-;-;-;-;-;-;-;-;-;-;-;-
1514106858030;-;-;8.950012;0.17855835;-2.1828308;-;-;-;-;-;-;-;-;-;-;-;-;-;-;-
1514106858051;-;-;8.967972;0.20010376;-2.1900177;-;-;-;-;-;-;-;-;-;-;-;-;-;-;-
1514106858071;-;-;8.977554;0.18334961;-2.2331085;-;-;-;-;-;-;-;-;-;-;-;-;-;-;-
1514106858091;-;-;8.952408;0.15222168;-2.2247314;-;-;-;-;-;-;-;-;-;-;-;-;-;-;-
1514106858112;-;-;8.918884;0.1510315;-2.211563;-;-;-;-;-;-;-;-;-;-;-;-;-;-;-
1514106858132;-;-;8.928467;0.15820313;-2.2522583;-;-;-;-;-;-;-;-;-;-;-;-;-;-;-
1514106858152;-;-;8.930862;0.15820313;-2.2127533;-;-;-;-;-;-;-;-;-;-;-;-;-;-;-
1514106858173;-;-;8.948822;0.09236145;-2.2295227;-;-;-;-;-;-;-;-;-;-;-;-;-;-;-
1514106858193;-;-;8.9392395;0.13426208;-2.211563;-;-;-;-;-;-;-;-;-;-;-;-;-;-;-
1514106858213;-;-;8.927277;0.10913086;-2.2438812;-;-;-;-;-;-;-;-;-;-;-;-;-;-;-
1514106858233;-;-;8.934448;0.13546753;-2.2355042;-;-;-;-;-;-;-;-;-;-;-;-;-;-;-
1514106858254;-;-;8.908112;0.1618042;-2.2534637;-;-;-;-;-;-;-;-;-;-;-;-;-;-;-
1514106858274;-;-;8.934448;0.1797638;-2.2606354;-;-;-;-;-;-;-;-;-;-;-;-;-;-;-
1514106858295;-;-;8.927277;0.20610046;-2.2690277;-;-;-;-;-;-;-;-;-;-;-;-;-;-;-
1514106858315;-;-;8.906921;0.19293213;-2.2857819;-;-;-;-;-;-;-;-;-;-;-;-;-;-;-
1514106858335;-;-;8.953613;0.17736816;-2.326477;-;-;-;-;-;-;-;-;-;-;-;-;-;-;-
1514106858355;-;-;8.923676;0.1845398;-2.3408508;-;-;-;-;-;-;-;-;-;-;-;-;-;-;-
1514106858376;-;-;8.926071;0.16299438;-2.350418;-;-;-;-;-;-;-;-;-;-;-;-;-;-;-
1514106858396;-;-;8.936844;0.16778564;-2.3360596;-;-;-;-;-;-;-;-;-;-;-;-;-;-;-
1514106858416;-;-;8.963181;0.17855835;-2.2905731;-;-;-;-;-;-;-;-;-;-;-;-;-;-;-
1514106858437;-;-;8.92128;0.17137146;-2.3252869;-;-;-;-;-;-;-;-;-;-;-;-;-;-;-
1514106858457;-;-;8.909317;0.21806335;-2.3372498;-;-;-;-;-;-;-;-;-;-;-;-;-;-;-
1514106858477;-;-;8.8997345;0.20610046;-2.3360596;-;-;-;-;-;-;-;-;-;-;-;-;-;-;-
1514106858497;-;-;8.890167;0.16419983;-2.3300781;-;-;-;-;-;-;-;-;-;-;-;-;-;-;-
1514106858518;-;-;8.881775;0.1953125;-2.247467;-;-;-;-;-;-;-;-;-;-;-;-;-;-;-
1514106858538;-;-;8.851852;0.17616272;-2.3516235;-;-;-;-;-;-;-;-;-;-;-;-;-;-;-
1514106858558;-;-;8.904526;0.19770813;-2.326477;-;-;-;-;-;-;-;-;-;-;-;-;-;-;-
1514106858579;-;-;8.875793;0.19770813;-2.3121185;-;-;-;-;-;-;-;-;-;-;-;-;-;-;-
1514106858599;-;-;8.928467;0.19172668;-2.342041;-;-;-;-;-;-;-;-;-;-;-;-;-;-;-
1514106858619;-;-;8.940445;0.2348175;-2.3683777;-;-;-;-;-;-;-;-;-;-;-;-;-;-;-
1514106858640;-;-;8.942825;0.21806335;-2.3671875;-;-;-;-;-;-;-;-;-;-;-;-;-;-;-
1514106858660;-;-;8.867416;0.20489502;-2.2761993;-;-;-;-;-;-;-;-;-;-;-;-;-;-;-
1514106858680;-;-;8.878189;0.20249939;-2.2642365;-;-;-;-;-;-;-;-;-;-;-;-;-;-;-
1514106858701;-;-;8.88298;0.1845398;-2.2857819;-;-;-;-;-;-;-;-;-;-;-;-;-;-;-
1514106858721;-;-;8.908112;0.21447754;-2.4030914;-;-;-;-;-;-;-;-;-;-;-;-;-;-;-
1514106858741;-;-;8.898544;0.2300415;-2.3959198;-;-;-;-;-;-;-;-;-;-;-;-;-;-;-
1514106858762;-;-;8.927277;0.24320984;-2.294159;-;-;-;-;-;-;-;-;-;-;-;-;-;-;-
1514106858782;-;-;8.923676;0.21447754;-2.2761993;-;-;-;-;-;-;-;-;-;-;-;-;-;-;-
1514106858802;-;-;8.918884;0.20729065;-2.3193054;-;-;-;-;-;-;-;-;-;-;-;-;-;-;-
1514106858822;-;-;8.856644;0.2240448;-2.4222565;-;-;-;-;-;-;-;-;-;-;-;-;-;-;-
1514106858843;-;-;8.843475;0.2515869;-2.3767548;-;-;-;-;-;-;-;-;-;-;-;-;-;-;-
1514106858862;-;-;8.893753;0.21806335;-2.460556;-;-;-;-;-;-;-;-;-;-;-;-;-;-;-
1514106858882;-;-;8.90213;0.23960876;-2.4425964;-;-;-;-;-;-;-;-;-;-;-;-;-;-;-
