TimeStamp[ms];Prox[Cm];Lux[lux];AccX[m/s^2];AccY[m/s^2];AccZ[m/s^2];GyroX[rad/s];GyroY[rad/s];GyroZ[rad/s];MagnX[uT];MagnY[uT];MagnZ[uT];OrienYaw[degrees];OrienPitch[degrees];OrienRoll[degrees];Press[Pa];Temp[C°];Batt[%];Lat;Lng;Speed[m/s]
1514106479765;-;-;9.003891;-2.3365479;1.3055267;-;-;-;-;-;-;-;-;-;-;-;-;-;-;-
1514106479765;-;-;9.030228;-2.3592987;1.354599;-;-;-;-;-;-;-;-;-;-;-;-;-;-;-
1514106479783;-;-;8.368225;-2.4383087;1.1798248;-;-;-;-;-;-;-;-;-;-;-;-;-;-;-
1514106479803;-;-;8.371811;-2.7974396;1.1846161;-;-;-;-;-;-;-;-;-;-;-;-;-;-;-
1514106479823;-;-;8.679474;-2.416748;0.9882965;-;-;-;-;-;-;-;-;-;-;-;-;-;-;-
1514106479844;-;-;8.770447;-2.432312;0.49508667;-;-;-;-;-;-;-;-;-;-;-;-;-;-;-
1514106479864;-;-;8.061768;-2.2647247;0.4795227;-;-;-;-;-;-;-;-;-;-;-;-;-;-;-
1514106479884;-;-;8.620819;-1.6278687;-0.9151001;-;-;-;-;-;-;-;-;-;-;-;-;-;-;-
1514106479905;-;-;9.966354;-0.1985321;0.3023529;-;-;-;-;-;-;-;-;-;-;-;-;-;-;-
1514106479925;-;-;11.151489;-0.22845459;-0.17050171;-;-;-;-;-;-;-;-;-;-;-;-;-;-;-
1514106479945;-;-;9.1918335;-1.2112732;-0.8372803;-;-;-;-;-;-;-;-;-;-;-;-;-;-;-
1514106479966;-;-;8.866211;-1.2866974;-0.6625061;-;-;-;-;-;-;-;-;-;-;-;-;-;-;-
1514106479986;-;-;9.043396;-1.4698486;-0.58470154;-;-;-;-;-;-;-;-;-;-;-;-;-;-;-
1514106480014;-;-;9.133179;-1.6003265;-0.46618652;-;-;-;-;-;-;-;-;-;-;-;-;-;-;-
1514106480027;-;-;8.918884;-1.6996918;-0.5056915;-;-;-;-;-;-;-;-;-;-;-;-;-;-;-
1514106480047;-;-;8.898544;-1.9546814;-0.66729736;-;-;-;-;-;-;-;-;-;-;-;-;-;-;-
1514106480068;-;-;9.014664;-2.143814;-0.76426697;-;-;-;-;-;-;-;-;-;-;-;-;-;-;-
1514106480088;-;-;9.127182;-2.238388;-0.5212555;-;-;-;-;-;-;-;-;-;-;-;-;-;-;-
1514106480108;-;-;9.479141;-2.487381;-0.34048462;-;-;-;-;-;-;-;-;-;-;-;-;-;-;-
1514106480128;-;-;8.887772;-2.4694214;-0.57632446;-;-;-;-;-;-;-;-;-;-;-;-;-;-;-
1514106480149;-;-;8.076126;-2.0456543;-0.57632446;-;-;-;-;-;-;-;-;-;-;-;-;-;-;-
1514106480170;-;-;9.392944;-2.0947418;-0.24711609;-;-;-;-;-;-;-;-;-;-;-;-;-;-;-
1514106480190;-;-;9.141556;-2.2204285;-0.16931152;-;-;-;-;-;-;-;-;-;-;-;-;-;-;-
1514106480210;-;-;9.39534;-2.3461304;-0.33450317;-;-;-;-;-;-;-;-;-;-;-;-;-;-;-
1514106480231;-;-;9.07811;-2.573578;-0.10824585;-;-;-;-;-;-;-;-;-;-;-;-;-;-;-
1514106480251;-;-;10.110001;-3.012909;-0.26986694;-;-;-;-;-;-;-;-;-;-;-;-;-;-;-
1514106480271;-;-;8.414917;-2.8620758;-1.2634583;-;-;-;-;-;-;-;-;-;-;-;-;-;-;-
1514106480292;-;-;8.545395;-2.731598;-2.2091675;-;-;-;-;-;-;-;-;-;-;-;-;-;-;-
1514106480312;-;-;10.302734;-1.9283447;-0.37879944;-;-;-;-;-;-;-;-;-;-;-;-;-;-;-
1514106480332;-;-;9.002686;-1.4231567;-0.6732788;-;-;-;-;-;-;-;-;-;-;-;-;-;-;-
1514106480353;-;-;8.544205;-1.309433;-1.531601;-;-;-;-;-;-;-;-;-;-;-;-;-;-;-
1514106480372;-;-;9.048172;-1.2136688;-2.2247314;-;-;-;-;-;-;-;-;-;-;-;-;-;-;-
1514106480392;-;-;10.092056;-0.83299255;-1.7949677;-;-;-;-;-;-;-;-;-;-;-;-;-;-;-
1514106480412;-;-;10.496674;-0.5277252;-1.689621;-;-;-;-;-;-;-;-;-;-;-;-;-;-;-
1514106480433;-;-;7.976776;0.9578705;0.096450806;-;-;-;-;-;-;-;-;-;-;-;-;-;-;-
1514106480453;-;-;10.730103;1.0560303;-3.504425;-;-;-;-;-;-;-;-;-;-;-;-;-;-;-
1514106480473;-;-;6.7257996;0.299469;-1.480133;-;-;-;-;-;-;-;-;-;-;-;-;-;-;-
1514106480494;-;-;5.3335724;-1.404007;-1.8512268;-;-;-;-;-;-;-;-;-;-;-;-;-;-;-
1514106480514;-;-;9.361816;-0.70610046;0.5776825;-;-;-;-;-;-;-;-;-;-;-;-;-;-;-
1514106480534;-;-;8.722565;-1.6985016;-4.912216;-;-;-;-;-;-;-;-;-;-;-;-;-;-;-
1514106480555;-;-;10.211761;-1.4925995;-2.7562408;-;-;-;-;-;-;-;-;-;-;-;-;-;-;-
1514106480575;-;-;10.441605;-1.254364;-1.4777374;-;-;-;-;-;-;-;-;-;-;-;-;-;-;-
1514106480595;-;-;7.387802;0.36889648;-1.7734222;-;-;-;-;-;-;-;-;-;-;-;-;-;-;-
1514106480616;-;-;8.972763;-0.03453064;-1.1461334;-;-;-;-;-;-;-;-;-;-;-;-;-;-;-
1514106480635;-;-;8.672287;-1.4902039;-1.713562;-;-;-;-;-;-;-;-;-;-;-;-;-;-;-
1514106480655;-;-;9.084091;0.19172668;-3.377533;-;-;-;-;-;-;-;-;-;-;-;-;-;-;-
1514106480675;-;-;7.748123;2.8780212;-2.5455475;-;-;-;-;-;-;-;-;-;-;-;-;-;-;-
1514106480696;-;-;9.586868;2.1944733;-0.97854614;-;-;-;-;-;-;-;-;-;-;-;-;-;-;-
1514106480716;-;-;8.18985;1.5600128;-0.57032776;-;-;-;-;-;-;-;-;-;-;-;-;-;-;-
1514106480737;-;-;9.220566;0.9997711;-1.5052643;-;-;-;-;-;-;-;-;-;-;-;-;-;-;-
1514106480757;-;-;13.933548;-1.5488586;-5.6520233;-;-;-;-;-;-;-;-;-;-;-;-;-;-;-
1514106480777;-;-;8.164719;-0.34576416;-3.6911774;-;-;-;-;-;-;-;-;-;-;-;-;-;-;-
1514106480797;-;-;6.2481537;2.646988;-0.84088135;-;-;-;-;-;-;-;-;-;-;-;-;-;-;-
1514106480817;-;-;10.567291;-0.6246948;-2.1038208;-;-;-;-;-;-;-;-;-;-;-;-;-;-;-
1514106480838;-;-;9.774811;-1.5452728;-2.883133;-;-;-;-;-;-;-;-;-;-;-;-;-;-;-
1514106480858;-;-;8.667496;-0.43554688;-1.8105316;-;-;-;-;-;-;-;-;-;-;-;-;-;-;-
1514106480878;-;-;9.729324;-0.75398254;-2.0319977;-;-;-;-;-;-;-;-;-;-;-;-;-;-;-
1514106480898;-;-;9.523422;-0.29309082;-2.084671;-;-;-;-;-;-;-;-;-;-;-;-;-;-;-
1514106480919;-;-;9.007477;-0.074035645;-2.1971893;-;-;-;-;-;-;-;-;-;-;-;-;-;-;-
1514106480939;-;-;8.74411;-0.210495;-2.0942383;-;-;-;-;-;-;-;-;-;-;-;-;-;-;-
1514106480959;-;-;8.674683;-0.18057251;-1.9062958;-;-;-;-;-;-;-;-;-;-;-;-;-;-;-
1514106480979;-;-;8.813553;-0.30986023;-1.9673462;-;-;-;-;-;-;-;-;-;-;-;-;-;-;-
1514106481000;-;-;8.944031;-0.27275085;-2.0894623;-;-;-;-;-;-;-;-;-;-;-;-;-;-;-
1514106481020;-;-;8.807556;-0.1817627;-2.2055817;-;-;-;-;-;-;-;-;-;-;-;-;-;-;-
1514106481040;-;-;8.672287;-0.11352539;-2.2486725;-;-;-;-;-;-;-;-;-;-;-;-;-;-;-
1514106481061;-;-;8.400543;0.07321167;-2.389923;-;-;-;-;-;-;-;-;-;-;-;-;-;-;-
1514106481081;-;-;8.031845;0.42277527;-2.5694885;-;-;-;-;-;-;-;-;-;-;-;-;-;-;-
1514106481101;-;-;7.636795;1.1051178;-2.7861633;-;-;-;-;-;-;-;-;-;-;-;-;-;-;-
1514106481122;-;-;7.3063965;2.0795593;-3.0423431;-;-;-;-;-;-;-;-;-;-;-;-;-;-;-
1514106481142;-;-;8.009094;2.9642181;-2.9082794;-;-;-;-;-;-;-;-;-;-;-;-;-;-;-
1514106481162;-;-;10.101624;2.363266;-3.4361877;-;-;-;-;-;-;-;-;-;-;-;-;-;-;-
1514106481183;-;-;11.507019;1.0057526;-2.39711;-;-;-;-;-;-;-;-;-;-;-;-;-;-;-
1514106481203;-;-;11.080856;-1.333374;-2.0200195;-;-;-;-;-;-;-;-;-;-;-;-;-;-;-
1514106481223;-;-;9.912491;-3.6880798;-1.9625702;-;-;-;-;-;-;-;-;-;-;-;-;-;-;-
1514106481244;-;-;9.518631;-5.511261;-3.120163;-;-;-;-;-;-;-;-;-;-;-;-;-;-;-
1514106481264;-;-;10.253662;-2.7627106;-3.1297302;-;-;-;-;-;-;-;-;-;-;-;-;-;-;-
1514106481284;-;-;8.855438;2.1070862;-1.0048828;-;-;-;-;-;-;-;-;-;-;-;-;-;-;-
1514106481305;-;-;8.544205;3.5986786;-1.0264282;-;-;-;-;-;-;-;-;-;-;-;-;-;-;-
1514106481325;-;-;7.3291473;1.9550629;-2.5443573;-;-;-;-;-;-;-;-;-;-;-;-;-;-;-
1514106481345;-;-;7.228592;-0.82940674;-2.1014252;-;-;-;-;-;-;-;-;-;-;-;-;-;-;-
1514106481366;-;-;7.0980988;-1.2998657;-2.2283173;-;-;-;-;-;-;-;-;-;-;-;-;-;-;-
1514106481386;-;-;8.394562;-0.7958832;-2.7694092;-;-;-;-;-;-;-;-;-;-;-;-;-;-;-
1514106481406;-;-;9.813126;0.7244415;-3.3547974;-;-;-;-;-;-;-;-;-;-;-;-;-;-;-
1514106481427;-;-;10.121979;1.8844299;-3.4230194;-;-;-;-;-;-;-;-;-;-;-;-;-;-;-
1514106481447;-;-;9.716156;2.145401;-2.5455475;-;-;-;-;-;-;-;-;-;-;-;-;-;-;-
1514106481467;-;-;9.313934;1.616272;-2.1612854;-;-;-;-;-;-;-;-;-;-;-;-;-;-;-
1514106481487;-;-;9.352234;0.86808777;-1.871582;-;-;-;-;-;-;-;-;-;-;-;-;-;-;-
1514106481508;-;-;9.206192;-0.4044342;-1.5184326;-;-;-;-;-;-;-;-;-;-;-;-;-;-;-
1514106481528;-;-;9.049377;-1.2364197;-1.4035187;-;-;-;-;-;-;-;-;-;-;-;-;-;-;-
1514106481548;-;-;9.206192;-1.3872528;-1.5627289;-;-;-;-;-;-;-;-;-;-;-;-;-;-;-
1514106481569;-;-;9.021835;-1.1274719;-1.7171631;-;-;-;-;-;-;-;-;-;-;-;-;-;-;-
1514106481589;-;-;8.853058;-0.5349121;-1.6860352;-;-;-;-;-;-;-;-;-;-;-;-;-;-;-
1514106481609;-;-;8.362244;-0.052474976;-1.5854797;-;-;-;-;-;-;-;-;-;-;-;-;-;-;-
1514106481630;-;-;8.483139;-0.1530304;-1.9685516;-;-;-;-;-;-;-;-;-;-;-;-;-;-;-
1514106481650;-;-;8.934448;-0.581604;-2.0559387;-;-;-;-;-;-;-;-;-;-;-;-;-;-;-
1514106481670;-;-;9.17627;-1.1837463;-1.9374237;-;-;-;-;-;-;-;-;-;-;-;-;-;-;-
1514106481691;-;-;9.17746;-1.546463;-1.9075012;-;-;-;-;-;-;-;-;-;-;-;-;-;-;-
1514106481711;-;-;9.064941;-1.4662628;-1.8069458;-;-;-;-;-;-;-;-;-;-;-;-;-;-;-
1514106481731;-;-;8.818329;-1.0293121;-1.792572;-;-;-;-;-;-;-;-;-;-;-;-;-;-;-
1514106481751;-;-;8.638763;-0.31584167;-2.0786743;-;-;-;-;-;-;-;-;-;-;-;-;-;-;-
1514106481772;-;-;8.778824;0.105529785;-2.3755646;-;-;-;-;-;-;-;-;-;-;-;-;-;-;-
1514106481791;-;-;8.868607;0.19651794;-2.649704;-;-;-;-;-;-;-;-;-;-;-;-;-;-;-
1514106481811;-;-;8.884171;0.08279419;-2.8113098;-;-;-;-;-;-;-;-;-;-;-;-;-;-;-
1514106481831;-;-;8.838684;-0.04170227;-2.8843231;-;-;-;-;-;-;-;-;-;-;-;-;-;-;-
1514106481852;-;-;8.7417145;-0.21647644;-3.080658;-;-;-;-;-;-;-;-;-;-;-;-;-;-;-
1514106481872;-;-;8.811157;-0.3086548;-3.0088348;-;-;-;-;-;-;-;-;-;-;-;-;-;-;-
1514106481892;-;-;8.948822;-0.32781982;-2.7993317;-;-;-;-;-;-;-;-;-;-;-;-;-;-;-
1514106481913;-;-;9.06015;-0.39126587;-2.6413116;-;-;-;-;-;-;-;-;-;-;-;-;-;-;-
1514106481933;-;-;9.031418;-0.463089;-2.3743591;-;-;-;-;-;-;-;-;-;-;-;-;-;-;-
1514106481953;-;-;9.12001;-0.63786316;-2.5012512;-;-;-;-;-;-;-;-;-;-;-;-;-;-;-
1514106481974;-;-;8.590881;-0.3936615;-3.2566223;-;-;-;-;-;-;-;-;-;-;-;-;-;-;-
1514106481994;-;-;8.150345;0.59155273;-3.3954926;-;-;-;-;-;-;-;-;-;-;-;-;-;-;-
1514106482014;-;-;8.035431;1.3624878;-2.8867188;-;-;-;-;-;-;-;-;-;-;-;-;-;-;-
1514106482035;-;-;8.958389;1.1889191;-2.6784363;-;-;-;-;-;-;-;-;-;-;-;-;-;-;-
1514106482055;-;-;9.798767;0.51016235;-2.725113;-;-;-;-;-;-;-;-;-;-;-;-;-;-;-
1514106482075;-;-;9.981918;-0.07043457;-2.6173706;-;-;-;-;-;-;-;-;-;-;-;-;-;-;-
1514106482096;-;-;9.835876;-0.49061584;-2.389923;-;-;-;-;-;-;-;-;-;-;-;-;-;-;-
1514106482116;-;-;9.453995;-0.90122986;-1.9972839;-;-;-;-;-;-;-;-;-;-;-;-;-;-;-
1514106482136;-;-;9.105637;-0.9658661;-1.8392639;-;-;-;-;-;-;-;-;-;-;-;-;-;-;-
1514106482157;-;-;8.853058;-0.5959625;-2.172058;-;-;-;-;-;-;-;-;-;-;-;-;-;-;-
1514106482177;-;-;8.490326;-0.03930664;-2.452179;-;-;-;-;-;-;-;-;-;-;-;-;-;-;-
1514106482197;-;-;8.322739;0.31143188;-2.5168152;-;-;-;-;-;-;-;-;-;-;-;-;-;-;-
1514106482218;-;-;8.304779;0.22644043;-2.5838623;-;-;-;-;-;-;-;-;-;-;-;-;-;-;-
1514106482238;-;-;8.489136;-0.112335205;-2.6221619;-;-;-;-;-;-;-;-;-;-;-;-;-;-;-
1514106482258;-;-;8.560959;-0.4559021;-2.7861633;-;-;-;-;-;-;-;-;-;-;-;-;-;-;-
1514106482278;-;-;9.06134;-0.5756073;-2.8328552;-;-;-;-;-;-;-;-;-;-;-;-;-;-;-
1514106482299;-;-;9.193024;-0.50738525;-2.8472137;-;-;-;-;-;-;-;-;-;-;-;-;-;-;-
1514106482318;-;-;9.068527;-0.52293396;-2.7837677;-;-;-;-;-;-;-;-;-;-;-;-;-;-;-
1514106482338;-;-;8.853058;-0.4738617;-2.852005;-;-;-;-;-;-;-;-;-;-;-;-;-;-;-
1514106482358;-;-;8.654327;-0.3146515;-2.8137054;-;-;-;-;-;-;-;-;-;-;-;-;-;-;-
1514106482379;-;-;8.672287;0.019348145;-2.8855286;-;-;-;-;-;-;-;-;-;-;-;-;-;-;-
1514106482399;-;-;8.687851;0.2850952;-2.9824982;-;-;-;-;-;-;-;-;-;-;-;-;-;-;-
1514106482419;-;-;8.855438;0.45030212;-3.0279846;-;-;-;-;-;-;-;-;-;-;-;-;-;-;-
1514106482439;-;-;8.904526;0.49339294;-2.9573517;-;-;-;-;-;-;-;-;-;-;-;-;-;-;-
1514106482460;-;-;8.935654;0.43473816;-2.8496094;-;-;-;-;-;-;-;-;-;-;-;-;-;-;-
1514106482480;-;-;9.024231;0.338974;-2.7358856;-;-;-;-;-;-;-;-;-;-;-;-;-;-;-
1514106482500;-;-;8.993118;0.24798584;-2.6568756;-;-;-;-;-;-;-;-;-;-;-;-;-;-;-
1514106482521;-;-;8.903336;0.20489502;-2.5419617;-;-;-;-;-;-;-;-;-;-;-;-;-;-;-
1514106482541;-;-;8.794388;0.10673523;-2.4509735;-;-;-;-;-;-;-;-;-;-;-;-;-;-;-
1514106482561;-;-;8.778824;0.107925415;-2.3516235;-;-;-;-;-;-;-;-;-;-;-;-;-;-;-
1514106482582;-;-;8.769257;0.1330719;-2.3408508;-;-;-;-;-;-;-;-;-;-;-;-;-;-;-
1514106482602;-;-;8.7812195;0.081588745;-2.4414063;-;-;-;-;-;-;-;-;-;-;-;-;-;-;-
1514106482623;-;-;8.866211;0.083984375;-2.4749146;-;-;-;-;-;-;-;-;-;-;-;-;-;-;-
1514106482643;-;-;8.932053;0.036102295;-2.547943;-;-;-;-;-;-;-;-;-;-;-;-;-;-;-
1514106482663;-;-;8.888962;-0.07043457;-2.4066925;-;-;-;-;-;-;-;-;-;-;-;-;-;-;-
1514106482683;-;-;8.845871;-0.12669373;-2.3480225;-;-;-;-;-;-;-;-;-;-;-;-;-;-;-
1514106482704;-;-;8.853058;-0.19972229;-2.2833862;-;-;-;-;-;-;-;-;-;-;-;-;-;-;-
1514106482724;-;-;8.92128;-0.15782166;-2.3312683;-;-;-;-;-;-;-;-;-;-;-;-;-;-;-
1514106482744;-;-;8.929672;-0.11114502;-2.342041;-;-;-;-;-;-;-;-;-;-;-;-;-;-;-
1514106482765;-;-;8.942825;-0.0105896;-2.3695831;-;-;-;-;-;-;-;-;-;-;-;-;-;-;-
1514106482785;-;-;8.9392395;0.072021484;-2.3983002;-;-;-;-;-;-;-;-;-;-;-;-;-;-;-
1514106482805;-;-;8.897339;0.13067627;-2.4892883;-;-;-;-;-;-;-;-;-;-;-;-;-;-;-
1514106482826;-;-;8.867416;0.12948608;-2.5024567;-;-;-;-;-;-;-;-;-;-;-;-;-;-;-
1514106482847;-;-;8.855438;0.13786316;-2.5036469;-;-;-;-;-;-;-;-;-;-;-;-;-;-;-
1514106482868;-;-;8.875793;0.1043396;-2.467743;-;-;-;-;-;-;-;-;-;-;-;-;-;-;-
1514106482888;-;-;8.881775;0.08758545;-2.4892883;-;-;-;-;-;-;-;-;-;-;-;-;-;-;-
1514106482908;-;-;8.865021;0.07321167;-2.4593658;-;-;-;-;-;-;-;-;-;-;-;-;-;-;-
1514106482928;-;-;8.8602295;0.06842041;-2.5252075;-;-;-;-;-;-;-;-;-;-;-;-;-;-;-
1514106482949;-;-;8.928467;0.008575439;-2.562317;-;-;-;-;-;-;-;-;-;-;-;-;-;-;-
1514106482970;-;-;8.953613;0.045684814;-2.5850525;-;-;-;-;-;-;-;-;-;-;-;-;-;-;-
1514106482990;-;-;8.914108;0.04447937;-2.5503387;-;-;-;-;-;-;-;-;-;-;-;-;-;-;-
1514106483010;-;-;8.898544;0.057647705;-2.5419617;-;-;-;-;-;-;-;-;-;-;-;-;-;-;-
1514106483031;-;-;8.84227;0.04447937;-2.5431519;-;-;-;-;-;-;-;-;-;-;-;-;-;-;-
1514106483051;-;-;8.848267;0.04447937;-2.4797058;-;-;-;-;-;-;-;-;-;-;-;-;-;-;-
1514106483071;-;-;8.853058;0.07800293;-2.467743;-;-;-;-;-;-;-;-;-;-;-;-;-;-;-
1514106483091;-;-;8.890167;0.069625854;-2.507248;-;-;-;-;-;-;-;-;-;-;-;-;-;-;-
1514106483112;-;-;8.897339;1.9836426E-4;-2.491684;-;-;-;-;-;-;-;-;-;-;-;-;-;-;-
1514106483132;-;-;8.928467;-0.03691101;-2.5048523;-;-;-;-;-;-;-;-;-;-;-;-;-;-;-
1514106483153;-;-;8.855438;-0.021362305;-2.4485931;-;-;-;-;-;-;-;-;-;-;-;-;-;-;-
1514106483173;-;-;8.92009;-0.02973938;-2.4078827;-;-;-;-;-;-;-;-;-;-;-;-;-;-;-
1514106483193;-;-;8.893753;0.055252075;-2.3923187;-;-;-;-;-;-;-;-;-;-;-;-;-;-;-
1514106483213;-;-;8.90213;0.062438965;-2.5263977;-;-;-;-;-;-;-;-;-;-;-;-;-;-;-
1514106483234;-;-;8.926071;0.08039856;-2.5694885;-;-;-;-;-;-;-;-;-;-;-;-;-;-;-
1514106483254;-;-;8.934448;0.05166626;-2.508438;-;-;-;-;-;-;-;-;-;-;-;-;-;-;-
1514106483274;-;-;8.932053;0.043289185;-2.4019012;-;-;-;-;-;-;-;-;-;-;-;-;-;-;-
1514106483294;-;-;8.910507;0.074417114;-2.4006958;-;-;-;-;-;-;-;-;-;-;-;-;-;-;-
1514106483315;-;-;8.894943;0.09236145;-2.4390106;-;-;-;-;-;-;-;-;-;-;-;-;-;-;-
1514106483335;-;-;8.873398;0.079193115;-2.452179;-;-;-;-;-;-;-;-;-;-;-;-;-;-;-
1514106483356;-;-;8.912903;0.03970337;-2.4533691;-;-;-;-;-;-;-;-;-;-;-;-;-;-;-
1514106483377;-;-;8.92009;0.064834595;-2.429428;-;-;-;-;-;-;-;-;-;-;-;-;-;-;-
1514106483397;-;-;8.917694;0.045684814;-2.4473877;-;-;-;-;-;-;-;-;-;-;-;-;-;-;-
1514106483417;-;-;8.896149;0.055252075;-2.4725342;-;-;-;-;-;-;-;-;-;-;-;-;-;-;-
1514106483438;-;-;8.894943;0.055252075;-2.4485931;-;-;-;-;-;-;-;-;-;-;-;-;-;-;-
1514106483458;-;-;8.8997345;0.012161255;-2.4414063;-;-;-;-;-;-;-;-;-;-;-;-;-;-;-
1514106483479;-;-;8.878189;-0.011779785;-2.3923187;-;-;-;-;-;-;-;-;-;-;-;-;-;-;-
1514106483499;-;-;8.910507;-0.02734375;-2.3947144;-;-;-;-;-;-;-;-;-;-;-;-;-;-;-
1514106483519;-;-;8.908112;0.02772522;-2.4006958;-;-;-;-;-;-;-;-;-;-;-;-;-;-;-
1514106483539;-;-;8.932053;0.019348145;-2.428238;-;-;-;-;-;-;-;-;-;-;-;-;-;-;-
1514106483560;-;-;8.909317;0.03491211;-2.4665375;-;-;-;-;-;-;-;-;-;-;-;-;-;-;-
1514106483580;-;-;8.90094;0.03251648;-2.4557648;-;-;-;-;-;-;-;-;-;-;-;-;-;-;-
1514106483600;-;-;8.924881;0.02053833;-2.5168152;-;-;-;-;-;-;-;-;-;-;-;-;-;-;-
1514106483621;-;-;8.88298;-0.0045928955;-2.4713287;-;-;-;-;-;-;-;-;-;-;-;-;-;-;-
1514106483641;-;-;8.862625;-0.05607605;-2.4557648;-;-;-;-;-;-;-;-;-;-;-;-;-;-;-
1514106483661;-;-;8.914108;-0.095581055;-2.4509735;-;-;-;-;-;-;-;-;-;-;-;-;-;-;-
1514106483681;-;-;8.891357;-0.09197998;-2.4509735;-;-;-;-;-;-;-;-;-;-;-;-;-;-;-
1514106483702;-;-;8.92009;-0.05847168;-2.4198608;-;-;-;-;-;-;-;-;-;-;-;-;-;-;-
1514106483722;-;-;8.922485;-0.026138306;-2.4030914;-;-;-;-;-;-;-;-;-;-;-;-;-;-;-
1514106483743;-;-;8.934448;-0.018966675;-2.3983002;-;-;-;-;-;-;-;-;-;-;-;-;-;-;-
1514106483763;-;-;8.922485;0.008575439;-2.4186554;-;-;-;-;-;-;-;-;-;-;-;-;-;-;-
1514106483783;-;-;8.926071;0.007369995;-2.4150696;-;-;-;-;-;-;-;-;-;-;-;-;-;-;-
1514106483804;-;-;8.857834;-0.0021972656;-2.365982;-;-;-;-;-;-;-;-;-;-;-;-;-;-;-
1514106483825;-;-;8.904526;0.055252075;-2.3803558;-;-;-;-;-;-;-;-;-;-;-;-;-;-;-
1514106483845;-;-;8.875793;0.04447937;-2.4090881;-;-;-;-;-;-;-;-;-;-;-;-;-;-;-
1514106483865;-;-;8.885376;0.06124878;-2.5407562;-;-;-;-;-;-;-;-;-;-;-;-;-;-;-
1514106483886;-;-;8.923676;0.02772522;-2.491684;-;-;-;-;-;-;-;-;-;-;-;-;-;-;-
1514106483905;-;-;8.940445;0.01574707;-2.4138641;-;-;-;-;-;-;-;-;-;-;-;-;-;-;-
1514106483925;-;-;8.915298;0.024139404;-2.4019012;-;-;-;-;-;-;-;-;-;-;-;-;-;-;-
1514106483946;-;-;8.924881;0.01574707;-2.3923187;-;-;-;-;-;-;-;-;-;-;-;-;-;-;-
1514106483966;-;-;8.912903;-0.0021972656;-2.4306335;-;-;-;-;-;-;-;-;-;-;-;-;-;-;-
1514106483986;-;-;8.8997345;-0.02973938;-2.444992;-;-;-;-;-;-;-;-;-;-;-;-;-;-;-
1514106484007;-;-;8.933258;0.0049743652;-2.4198608;-;-;-;-;-;-;-;-;-;-;-;-;-;-;-
1514106484027;-;-;8.935654;-0.014175415;-2.4497833;-;-;-;-;-;-;-;-;-;-;-;-;-;-;-
1514106484049;-;-;8.935654;0.014556885;-2.4354248;-;-;-;-;-;-;-;-;-;-;-;-;-;-;-
1514106484069;-;-;8.884171;-0.0021972656;-2.3695831;-;-;-;-;-;-;-;-;-;-;-;-;-;-;-
1514106484089;-;-;8.869812;0.010971069;-2.381546;-;-;-;-;-;-;-;-;-;-;-;-;-;-;-
1514106484109;-;-;8.90213;0.0037841797;-2.3588104;-;-;-;-;-;-;-;-;-;-;-;-;-;-;-
1514106484130;-;-;8.90094;-0.02015686;-2.3396454;-;-;-;-;-;-;-;-;-;-;-;-;-;-;-
1514106484150;-;-;8.9392395;0.024139404;-2.3611908;-;-;-;-;-;-;-;-;-;-;-;-;-;-;-
1514106484170;-;-;8.911713;0.05166626;-2.3588104;-;-;-;-;-;-;-;-;-;-;-;-;-;-;-
1514106484191;-;-;8.927277;0.0756073;-2.4102783;-;-;-;-;-;-;-;-;-;-;-;-;-;-;-
1514106484210;-;-;8.944031;0.055252075;-2.4653473;-;-;-;-;-;-;-;-;-;-;-;-;-;-;-
1514106484230;-;-;8.909317;0.0756073;-2.4234467;-;-;-;-;-;-;-;-;-;-;-;-;-;-;-
1514106484251;-;-;8.928467;0.03730774;-2.3695831;-;-;-;-;-;-;-;-;-;-;-;-;-;-;-
1514106484270;-;-;8.942825;0.060043335;-2.365982;-;-;-;-;-;-;-;-;-;-;-;-;-;-;-
1514106484290;-;-;8.918884;0.064834595;-2.3791504;-;-;-;-;-;-;-;-;-;-;-;-;-;-;-
1514106484310;-;-;8.916504;0.08039856;-2.3611908;-;-;-;-;-;-;-;-;-;-;-;-;-;-;-
1514106484331;-;-;8.915298;0.050476074;-2.3635864;-;-;-;-;-;-;-;-;-;-;-;-;-;-;-
1514106484351;-;-;8.928467;0.012161255;-2.3252869;-;-;-;-;-;-;-;-;-;-;-;-;-;-;-
1514106484371;-;-;8.934448;-0.009384155;-2.263031;-;-;-;-;-;-;-;-;-;-;-;-;-;-;-
1514106484392;-;-;8.930862;-0.06086731;-2.2247314;-;-;-;-;-;-;-;-;-;-;-;-;-;-;-
1514106484412;-;-;8.948822;-0.052474976;-2.207962;-;-;-;-;-;-;-;-;-;-;-;-;-;-;-
1514106484432;-;-;8.976349;-0.009384155;-2.242691;-;-;-;-;-;-;-;-;-;-;-;-;-;-;-
1514106484453;-;-;8.964386;-0.0045928955;-2.2953491;-;-;-;-;-;-;-;-;-;-;-;-;-;-;-
1514106484473;-;-;8.947617;-0.009384155;-2.227127;-;-;-;-;-;-;-;-;-;-;-;-;-;-;-
1514106484493;-;-;8.806366;0.0049743652;-2.0738983;-;-;-;-;-;-;-;-;-;-;-;-;-;-;-
1514106484513;-;-;8.936844;0.095962524;-2.3348541;-;-;-;-;-;-;-;-;-;-;-;-;-;-;-
1514106484534;-;-;8.904526;0.081588745;-2.3300781;-;-;-;-;-;-;-;-;-;-;-;-;-;-;-
1514106484554;-;-;8.922485;0.10194397;-2.349228;-;-;-;-;-;-;-;-;-;-;-;-;-;-;-
1514106484574;-;-;8.908112;0.06842041;-2.3204956;-;-;-;-;-;-;-;-;-;-;-;-;-;-;-
1514106484594;-;-;8.927277;0.026535034;-2.3288727;-;-;-;-;-;-;-;-;-;-;-;-;-;-;-
1514106484615;-;-;8.973953;0.062438965;-2.2881775;-;-;-;-;-;-;-;-;-;-;-;-;-;-;-
1514106484635;-;-;8.950012;0.052871704;-2.3157043;-;-;-;-;-;-;-;-;-;-;-;-;-;-;-
1514106484655;-;-;8.923676;-0.01776123;-2.3216858;-;-;-;-;-;-;-;-;-;-;-;-;-;-;-
1514106484675;-;-;8.951218;-0.00579834;-2.2893677;-;-;-;-;-;-;-;-;-;-;-;-;-;-;-
1514106484696;-;-;8.912903;-0.02015686;-2.3037415;-;-;-;-;-;-;-;-;-;-;-;-;-;-;-
1514106484716;-;-;8.960785;-0.0010070801;-2.2929688;-;-;-;-;-;-;-;-;-;-;-;-;-;-;-
1514106484736;-;-;8.930862;0.007369995;-2.2486725;-;-;-;-;-;-;-;-;-;-;-;-;-;-;-
1514106484757;-;-;8.944031;0.033706665;-2.2402954;-;-;-;-;-;-;-;-;-;-;-;-;-;-;-
1514106484777;-;-;8.951218;0.06602478;-2.2486725;-;-;-;-;-;-;-;-;-;-;-;-;-;-;-
1514106484797;-;-;8.909317;0.02293396;-2.223526;-;-;-;-;-;-;-;-;-;-;-;-;-;-;-
1514106484818;-;-;8.944031;0.02293396;-2.2091675;-;-;-;-;-;-;-;-;-;-;-;-;-;-;-
1514106484838;-;-;8.948822;0.031311035;-2.1816254;-;-;-;-;-;-;-;-;-;-;-;-;-;-;-
1514106484858;-;-;8.954803;0.038497925;-2.163681;-;-;-;-;-;-;-;-;-;-;-;-;-;-;-
1514106484878;-;-;8.948822;0.0037841797;-2.227127;-;-;-;-;-;-;-;-;-;-;-;-;-;-;-
1514106484899;-;-;8.972763;0.014556885;-2.2043762;-;-;-;-;-;-;-;-;-;-;-;-;-;-;-
1514106484919;-;-;8.96199;0.03970337;-2.2091675;-;-;-;-;-;-;-;-;-;-;-;-;-;-;-
1514106484939;-;-;8.957199;0.052871704;-2.2139587;-;-;-;-;-;-;-;-;-;-;-;-;-;-;-
1514106484960;-;-;8.929672;0.04447937;-2.2055817;-;-;-;-;-;-;-;-;-;-;-;-;-;-;-
1514106484980;-;-;8.92009;0.048080444;-2.1864166;-;-;-;-;-;-;-;-;-;-;-;-;-;-;-
1514106485000;-;-;8.951218;0.03012085;-2.2402954;-;-;-;-;-;-;-;-;-;-;-;-;-;-;-
1514106485021;-;-;8.950012;0.057647705;-2.2259216;-;-;-;-;-;-;-;-;-;-;-;-;-;-;-
1514106485041;-;-;8.983536;0.0013885498;-2.2043762;-;-;-;-;-;-;-;-;-;-;-;-;-;-;-
1514106485061;-;-;8.947617;-0.0021972656;-2.1648712;-;-;-;-;-;-;-;-;-;-;-;-;-;-;-
1514106485082;-;-;8.944031;0.013366699;-2.1576843;-;-;-;-;-;-;-;-;-;-;-;-;-;-;-
1514106485102;-;-;8.944031;0.052871704;-2.1971893;-;-;-;-;-;-;-;-;-;-;-;-;-;-;-
1514106485122;-;-;8.955994;0.052871704;-2.2019806;-;-;-;-;-;-;-;-;-;-;-;-;-;-;-
1514106485143;-;-;8.945221;0.06364441;-2.1864166;-;-;-;-;-;-;-;-;-;-;-;-;-;-;-
1514106485163;-;-;8.906921;0.04208374;-2.2019806;-;-;-;-;-;-;-;-;-;-;-;-;-;-;-
1514106485183;-;-;8.90094;0.040893555;-2.179245;-;-;-;-;-;-;-;-;-;-;-;-;-;-;-
1514106485204;-;-;8.893753;0.03730774;-2.1134033;-;-;-;-;-;-;-;-;-;-;-;-;-;-;-
1514106485224;-;-;8.912903;0.026535034;-2.1732483;-;-;-;-;-;-;-;-;-;-;-;-;-;-;-
1514106485244;-;-;8.9991;-0.0105896;-2.2761993;-;-;-;-;-;-;-;-;-;-;-;-;-;-;-
1514106485264;-;-;9.00029;-0.033325195;-2.3408508;-;-;-;-;-;-;-;-;-;-;-;-;-;-;-
1514106485285;-;-;9.007477;-0.03213501;-2.2331085;-;-;-;-;-;-;-;-;-;-;-;-;-;-;-
1514106485306;-;-;8.898544;-0.095581055;-2.1540985;-;-;-;-;-;-;-;-;-;-;-;-;-;-;-
1514106485327;-;-;8.855438;-0.13388062;-2.1804352;-;-;-;-;-;-;-;-;-;-;-;-;-;-;-
1514106485346;-;-;8.848267;-0.16261292;-2.211563;-;-;-;-;-;-;-;-;-;-;-;-;-;-;-
1514106485367;-;-;8.878189;-0.03930664;-2.187622;-;-;-;-;-;-;-;-;-;-;-;-;-;-;-
1514106485387;-;-;8.885376;0.06602478;-2.2091675;-;-;-;-;-;-;-;-;-;-;-;-;-;-;-
1514106485407;-;-;8.893753;0.1953125;-2.2055817;-;-;-;-;-;-;-;-;-;-;-;-;-;-;-
1514106485428;-;-;8.8997345;0.2348175;-2.254654;-;-;-;-;-;-;-;-;-;-;-;-;-;-;-
1514106485447;-;-;8.866211;0.2635498;-2.4198608;-;-;-;-;-;-;-;-;-;-;-;-;-;-;-
1514106485467;-;-;8.854248;0.27313232;-2.4390106;-;-;-;-;-;-;-;-;-;-;-;-;-;-;-
1514106485487;-;-;8.759674;0.34016418;-2.2726135;-;-;-;-;-;-;-;-;-;-;-;-;-;-;-
1514106485508;-;-;8.783615;0.30426025;-2.2953491;-;-;-;-;-;-;-;-;-;-;-;-;-;-;-
1514106485528;-;-;8.915298;0.22644043;-2.4330292;-;-;-;-;-;-;-;-;-;-;-;-;-;-;-
1514106485548;-;-;9.063736;0.19770813;-2.5371704;-;-;-;-;-;-;-;-;-;-;-;-;-;-;-
1514106485569;-;-;9.122391;0.2527771;-2.586258;-;-;-;-;-;-;-;-;-;-;-;-;-;-;-
1514106485588;-;-;9.002686;0.38206482;-2.524002;-;-;-;-;-;-;-;-;-;-;-;-;-;-;-
1514106485609;-;-;8.872208;0.37487793;-2.4150696;-;-;-;-;-;-;-;-;-;-;-;-;-;-;-
1514106485629;-;-;8.829102;0.27552795;-2.266632;-;-;-;-;-;-;-;-;-;-;-;-;-;-;-
1514106485649;-;-;8.891357;0.08758545;-2.1457214;-;-;-;-;-;-;-;-;-;-;-;-;-;-;-
1514106485670;-;-;9.026627;0.03730774;-2.2175446;-;-;-;-;-;-;-;-;-;-;-;-;-;-;-
1514106485689;-;-;9.020645;-0.057266235;-2.3300781;-;-;-;-;-;-;-;-;-;-;-;-;-;-;-
1514106485709;-;-;9.086487;-0.054870605;-2.2043762;-;-;-;-;-;-;-;-;-;-;-;-;-;-;-
1514106485729;-;-;9.130783;-0.081207275;-2.1457214;-;-;-;-;-;-;-;-;-;-;-;-;-;-;-
1514106485750;-;-;9.005081;-0.12789917;-2.184021;-;-;-;-;-;-;-;-;-;-;-;-;-;-;-
1514106485770;-;-;8.92009;-0.12071228;-2.2019806;-;-;-;-;-;-;-;-;-;-;-;-;-;-;-
1514106485790;-;-;8.849457;-0.13388062;-2.1169891;-;-;-;-;-;-;-;-;-;-;-;-;-;-;-
1514106485811;-;-;8.76207;-0.09677124;-2.1026306;-;-;-;-;-;-;-;-;-;-;-;-;-;-;-
1514106485831;-;-;8.778824;-0.06086731;-2.0547333;-;-;-;-;-;-;-;-;-;-;-;-;-;-;-
1514106485851;-;-;8.786011;-0.02734375;-2.144516;-;-;-;-;-;-;-;-;-;-;-;-;-;-;-
1514106485871;-;-;8.772842;-0.107543945;-2.3719635;-;-;-;-;-;-;-;-;-;-;-;-;-;-;-
1514106485891;-;-;8.757278;-0.25837708;-2.3372498;-;-;-;-;-;-;-;-;-;-;-;-;-;-;-
1514106485912;-;-;8.787216;-0.4451294;-2.2187347;-;-;-;-;-;-;-;-;-;-;-;-;-;-;-
1514106485932;-;-;8.817139;-0.57681274;-2.266632;-;-;-;-;-;-;-;-;-;-;-;-;-;-;-
1514106485952;-;-;8.830307;-0.7228546;-2.373169;-;-;-;-;-;-;-;-;-;-;-;-;-;-;-
1514106485972;-;-;8.74292;-0.7671509;-2.5180206;-;-;-;-;-;-;-;-;-;-;-;-;-;-;-
1514106485993;-;-;8.717773;-0.6402588;-2.6592712;-;-;-;-;-;-;-;-;-;-;-;-;-;-;-
1514106486013;-;-;8.685455;-0.5313263;-2.7119446;-;-;-;-;-;-;-;-;-;-;-;-;-;-;-
1514106486033;-;-;8.772842;-0.4666748;-2.7538452;-;-;-;-;-;-;-;-;-;-;-;-;-;-;-
1514106486053;-;-;8.90213;-0.5744171;-2.9501648;-;-;-;-;-;-;-;-;-;-;-;-;-;-;-
1514106486074;-;-;8.84108;-0.69532776;-3.1153717;-;-;-;-;-;-;-;-;-;-;-;-;-;-;-
1514106486094;-;-;8.74292;-0.72406006;-3.2446594;-;-;-;-;-;-;-;-;-;-;-;-;-;-;-
1514106486114;-;-;8.714188;-0.5792084;-3.3631744;-;-;-;-;-;-;-;-;-;-;-;-;-;-;-
1514106486135;-;-;8.630386;-0.48703003;-3.3356323;-;-;-;-;-;-;-;-;-;-;-;-;-;-;-
1514106486155;-;-;8.619614;-0.42237854;-3.4062653;-;-;-;-;-;-;-;-;-;-;-;-;-;-;-
1514106486176;-;-;8.537018;-0.46907043;-3.5391388;-;-;-;-;-;-;-;-;-;-;-;-;-;-;-
1514106486196;-;-;8.501099;-0.44033813;-3.8623657;-;-;-;-;-;-;-;-;-;-;-;-;-;-;-
1514106486216;-;-;8.383789;-0.35653687;-4.155655;-;-;-;-;-;-;-;-;-;-;-;-;-;-;-
1514106486236;-;-;8.3502655;-0.1985321;-4.191559;-;-;-;-;-;-;-;-;-;-;-;-;-;-;-
1514106486256;-;-;8.384979;-0.16021729;-4.2095184;-;-;-;-;-;-;-;-;-;-;-;-;-;-;-
1514106486277;-;-;8.472366;-0.2775421;-4.052704;-;-;-;-;-;-;-;-;-;-;-;-;-;-;-
1514106486297;-;-;8.620819;-0.42358398;-3.9497528;-;-;-;-;-;-;-;-;-;-;-;-;-;-;-
1514106486317;-;-;8.643555;-0.52893066;-3.8887024;-;-;-;-;-;-;-;-;-;-;-;-;-;-;-
1514106486337;-;-;8.772842;-0.6330719;-3.6648407;-;-;-;-;-;-;-;-;-;-;-;-;-;-;-
1514106486358;-;-;8.596878;-0.64863586;-3.7115326;-;-;-;-;-;-;-;-;-;-;-;-;-;-;-
1514106486378;-;-;8.568146;-0.7276459;-3.7067413;-;-;-;-;-;-;-;-;-;-;-;-;-;-;-
1514106486398;-;-;8.472366;-0.76475525;-3.685196;-;-;-;-;-;-;-;-;-;-;-;-;-;-;-
1514106486418;-;-;8.496307;-0.64505005;-3.7067413;-;-;-;-;-;-;-;-;-;-;-;-;-;-;-
1514106486439;-;-;8.56575;-0.5384979;-3.8432007;-;-;-;-;-;-;-;-;-;-;-;-;-;-;-
1514106486460;-;-;8.474762;-0.43914795;-3.9844666;-;-;-;-;-;-;-;-;-;-;-;-;-;-;-
1514106486481;-;-;8.52504;-0.4954071;-4.100586;-;-;-;-;-;-;-;-;-;-;-;-;-;-;-
1514106486501;-;-;8.380188;-0.5504761;-4.086212;-;-;-;-;-;-;-;-;-;-;-;-;-;-;-
1514106486521;-;-;8.381393;-0.6318817;-4.006012;-;-;-;-;-;-;-;-;-;-;-;-;-;-;-
1514106486541;-;-;8.454422;-0.64624023;-3.9796753;-;-;-;-;-;-;-;-;-;-;-;-;-;-;-
1514106486561;-;-;8.520264;-0.5313263;-4.0000305;-;-;-;-;-;-;-;-;-;-;-;-;-;-;-
1514106486582;-;-;8.498703;-0.5456848;-4.0359344;-;-;-;-;-;-;-;-;-;-;-;-;-;-;-
1514106486602;-;-;8.412521;-0.581604;-3.9916534;-;-;-;-;-;-;-;-;-;-;-;-;-;-;-
1514106486622;-;-;8.383789;-0.5923767;-4.0000305;-;-;-;-;-;-;-;-;-;-;-;-;-;-;-
1514106486643;-;-;8.404144;-0.6007538;-3.906662;-;-;-;-;-;-;-;-;-;-;-;-;-;-;-
1514106486663;-;-;8.399353;-0.4834442;-3.8432007;-;-;-;-;-;-;-;-;-;-;-;-;-;-;-
1514106486683;-;-;8.44603;-0.40322876;-3.70076;-;-;-;-;-;-;-;-;-;-;-;-;-;-;-
1514106486704;-;-;8.471176;-0.3876648;-3.6684265;-;-;-;-;-;-;-;-;-;-;-;-;-;-;-
1514106486724;-;-;8.481949;-0.40802002;-3.709137;-;-;-;-;-;-;-;-;-;-;-;-;-;-;-
1514106486744;-;-;8.499908;-0.3589325;-3.729477;-;-;-;-;-;-;-;-;-;-;-;-;-;-;-
1514106486765;-;-;8.483139;-0.41041565;-3.6875916;-;-;-;-;-;-;-;-;-;-;-;-;-;-;-
1514106486785;-;-;8.42688;-0.4666748;-3.6277313;-;-;-;-;-;-;-;-;-;-;-;-;-;-;-
1514106486805;-;-;8.453217;-0.54808044;-3.5295715;-;-;-;-;-;-;-;-;-;-;-;-;-;-;-
1514106486826;-;-;8.492722;-0.5277252;-3.5738678;-;-;-;-;-;-;-;-;-;-;-;-;-;-;-
1514106486846;-;-;8.503494;-0.49780273;-3.6672363;-;-;-;-;-;-;-;-;-;-;-;-;-;-;-
1514106486866;-;-;8.522644;-0.542099;-3.6564636;-;-;-;-;-;-;-;-;-;-;-;-;-;-;-
1514106486887;-;-;8.507095;-0.58039856;-3.6552582;-;-;-;-;-;-;-;-;-;-;-;-;-;-;-
1514106486906;-;-;8.492722;-0.5851898;-3.6636505;-;-;-;-;-;-;-;-;-;-;-;-;-;-;-
1514106486926;-;-;8.503494;-0.5923767;-3.6971588;-;-;-;-;-;-;-;-;-;-;-;-;-;-;-
1514106486947;-;-;8.516663;-0.5612488;-3.6911774;-;-;-;-;-;-;-;-;-;-;-;-;-;-;-
1514106486967;-;-;8.501099;-0.5851898;-3.7031403;-;-;-;-;-;-;-;-;-;-;-;-;-;-;-
1514106486987;-;-;8.5047;-0.59954834;-3.6875916;-;-;-;-;-;-;-;-;-;-;-;-;-;-;-
1514106487008;-;-;8.503494;-0.58399963;-3.6947632;-;-;-;-;-;-;-;-;-;-;-;-;-;-;-
1514106487027;-;-;8.5082855;-0.58399963;-3.686386;-;-;-;-;-;-;-;-;-;-;-;-;-;-;-
1514106487047;-;-;8.460403;-0.5349121;-3.6995544;-;-;-;-;-;-;-;-;-;-;-;-;-;-;-
1514106487067;-;-;8.460403;-0.47865295;-3.607376;-;-;-;-;-;-;-;-;-;-;-;-;-;-;-
1514106487088;-;-;8.513077;-0.44752502;-3.5858307;-;-;-;-;-;-;-;-;-;-;-;-;-;-;-
1514106487108;-;-;8.541809;-0.42477417;-3.5846405;-;-;-;-;-;-;-;-;-;-;-;-;-;-;-
1514106487128;-;-;8.532227;-0.37928772;-3.6504822;-;-;-;-;-;-;-;-;-;-;-;-;-;-;-
1514106487149;-;-;8.4843445;-0.4152069;-3.646881;-;-;-;-;-;-;-;-;-;-;-;-;-;-;-
1514106487169;-;-;8.493927;-0.41041565;-3.5918121;-;-;-;-;-;-;-;-;-;-;-;-;-;-;-
1514106487189;-;-;8.481949;-0.4834442;-3.6744232;-;-;-;-;-;-;-;-;-;-;-;-;-;-;-
1514106487210;-;-;8.5238495;-0.45231628;-3.6672363;-;-;-;-;-;-;-;-;-;-;-;-;-;-;-
1514106487230;-;-;8.447235;-0.4918213;-3.6121674;-;-;-;-;-;-;-;-;-;-;-;-;-;-;-
1514106487250;-;-;8.5082855;-0.51216125;-3.5642853;-;-;-;-;-;-;-;-;-;-;-;-;-;-;-
1514106487270;-;-;8.58371;-0.56962585;-3.5331573;-;-;-;-;-;-;-;-;-;-;-;-;-;-;-
1514106487291;-;-;8.556168;-0.53730774;-3.5702667;-;-;-;-;-;-;-;-;-;-;-;-;-;-;-
1514106487311;-;-;8.491531;-0.43675232;-3.5918121;-;-;-;-;-;-;-;-;-;-;-;-;-;-;-
1514106487331;-;-;8.4687805;-0.40322876;-3.5630798;-;-;-;-;-;-;-;-;-;-;-;-;-;-;-
1514106487352;-;-;8.509476;-0.4152069;-3.5463257;-;-;-;-;-;-;-;-;-;-;-;-;-;-;-
1514106487372;-;-;8.541809;-0.3984375;-3.5810394;-;-;-;-;-;-;-;-;-;-;-;-;-;-;-
1514106487392;-;-;8.495117;-0.36013794;-3.6887817;-;-;-;-;-;-;-;-;-;-;-;-;-;-;-
1514106487412;-;-;8.48674;-0.36732483;-3.6911774;-;-;-;-;-;-;-;-;-;-;-;-;-;-;-
1514106487433;-;-;8.477158;-0.41999817;-3.7163086;-;-;-;-;-;-;-;-;-;-;-;-;-;-;-
1514106487453;-;-;8.516663;-0.48703003;-3.70076;-;-;-;-;-;-;-;-;-;-;-;-;-;-;-
1514106487473;-;-;8.539413;-0.4774475;-3.7079315;-;-;-;-;-;-;-;-;-;-;-;-;-;-;-
1514106487493;-;-;8.528641;-0.41041565;-3.7031403;-;-;-;-;-;-;-;-;-;-;-;-;-;-;-
1514106487514;-;-;8.516663;-0.3589325;-3.678009;-;-;-;-;-;-;-;-;-;-;-;-;-;-;-
1514106487534;-;-;8.5082855;-0.45829773;-3.6313171;-;-;-;-;-;-;-;-;-;-;-;-;-;-;-
1514106487554;-;-;8.520264;-0.51934814;-3.6025848;-;-;-;-;-;-;-;-;-;-;-;-;-;-;-
1514106487574;-;-;8.498703;-0.47265625;-3.6361084;-;-;-;-;-;-;-;-;-;-;-;-;-;-;-
1514106487595;-;-;8.56694;-0.42237854;-3.705536;-;-;-;-;-;-;-;-;-;-;-;-;-;-;-
1514106487615;-;-;8.553772;-0.40322876;-3.788147;-;-;-;-;-;-;-;-;-;-;-;-;-;-;-
1514106487635;-;-;8.599258;-0.44752502;-3.796524;-;-;-;-;-;-;-;-;-;-;-;-;-;-;-
1514106487656;-;-;8.601654;-0.45111084;-3.7821503;-;-;-;-;-;-;-;-;-;-;-;-;-;-;-
1514106487676;-;-;8.595673;-0.47984314;-3.7318726;-;-;-;-;-;-;-;-;-;-;-;-;-;-;-
1514106487697;-;-;8.633987;-0.4559021;-3.6708221;-;-;-;-;-;-;-;-;-;-;-;-;-;-;-
1514106487717;-;-;8.668701;-0.4259796;-3.6576538;-;-;-;-;-;-;-;-;-;-;-;-;-;-;-
1514106487737;-;-;8.662704;-0.38407898;-3.614563;-;-;-;-;-;-;-;-;-;-;-;-;-;-;-
1514106487757;-;-;8.685455;-0.3864746;-3.5702667;-;-;-;-;-;-;-;-;-;-;-;-;-;-;-
1514106487778;-;-;8.712982;-0.37330627;-3.528366;-;-;-;-;-;-;-;-;-;-;-;-;-;-;-
1514106487798;-;-;8.655533;-0.4559021;-3.528366;-;-;-;-;-;-;-;-;-;-;-;-;-;-;-
1514106487818;-;-;8.608841;-0.5253296;-3.5714722;-;-;-;-;-;-;-;-;-;-;-;-;-;-;-
1514106487839;-;-;8.622009;-0.5540619;-3.5870209;-;-;-;-;-;-;-;-;-;-;-;-;-;-;-
1514106487859;-;-;8.656723;-0.56962585;-3.5690765;-;-;-;-;-;-;-;-;-;-;-;-;-;-;-
1514106487879;-;-;8.6818695;-0.5672302;-3.5164032;-;-;-;-;-;-;-;-;-;-;-;-;-;-;-
1514106487899;-;-;8.702209;-0.51097107;-3.3883057;-;-;-;-;-;-;-;-;-;-;-;-;-;-;-
1514106487920;-;-;8.698624;-0.5744171;-3.3428192;-;-;-;-;-;-;-;-;-;-;-;-;-;-;-
1514106487939;-;-;8.711792;-0.59835815;-3.2686005;-;-;-;-;-;-;-;-;-;-;-;-;-;-;-
1514106487959;-;-;8.705811;-0.5672302;-3.1884003;-;-;-;-;-;-;-;-;-;-;-;-;-;-;-
1514106487980;-;-;8.703415;-0.44992065;-3.0279846;-;-;-;-;-;-;-;-;-;-;-;-;-;-;-
1514106488000;-;-;8.753693;-0.43914795;-2.8974915;-;-;-;-;-;-;-;-;-;-;-;-;-;-;-
1514106488020;-;-;8.886566;-0.3649292;-2.907074;-;-;-;-;-;-;-;-;-;-;-;-;-;-;-
1514106488041;-;-;8.8051605;-0.2787323;-2.9034882;-;-;-;-;-;-;-;-;-;-;-;-;-;-;-
1514106488061;-;-;8.707001;-0.21289063;-2.9130554;-;-;-;-;-;-;-;-;-;-;-;-;-;-;-
1514106488081;-;-;8.590881;-0.21170044;-2.8735504;-;-;-;-;-;-;-;-;-;-;-;-;-;-;-
1514106488101;-;-;8.685455;-0.21409607;-2.9417877;-;-;-;-;-;-;-;-;-;-;-;-;-;-;-
1514106488122;-;-;8.824326;-0.18057251;-3.025589;-;-;-;-;-;-;-;-;-;-;-;-;-;-;-
1514106488142;-;-;8.98114;-0.13867188;-3.080658;-;-;-;-;-;-;-;-;-;-;-;-;-;-;-
1514106488162;-;-;8.92009;-0.21170044;-2.9992523;-;-;-;-;-;-;-;-;-;-;-;-;-;-;-
1514106488182;-;-;8.788406;-0.32421875;-2.8699646;-;-;-;-;-;-;-;-;-;-;-;-;-;-;-
1514106488202;-;-;8.716583;-0.4439392;-2.6880035;-;-;-;-;-;-;-;-;-;-;-;-;-;-;-
1514106488222;-;-;8.814743;-0.6151123;-2.55513;-;-;-;-;-;-;-;-;-;-;-;-;-;-;-
1514106488243;-;-;8.922485;-0.6582184;-2.4342194;-;-;-;-;-;-;-;-;-;-;-;-;-;-;-
1514106488263;-;-;8.950012;-0.5097656;-2.3851318;-;-;-;-;-;-;-;-;-;-;-;-;-;-;-
1514106488283;-;-;8.938049;-0.35176086;-2.3827515;-;-;-;-;-;-;-;-;-;-;-;-;-;-;-
1514106488303;-;-;8.808762;-0.27514648;-2.4258423;-;-;-;-;-;-;-;-;-;-;-;-;-;-;-
1514106488324;-;-;8.84108;-0.29908752;-2.3181;-;-;-;-;-;-;-;-;-;-;-;-;-;-;-
1514106488344;-;-;8.861435;-0.3002777;-2.1732483;-;-;-;-;-;-;-;-;-;-;-;-;-;-;-
1514106488364;-;-;8.818329;-0.34098816;-2.0164337;-;-;-;-;-;-;-;-;-;-;-;-;-;-;-
1514106488385;-;-;8.908112;-0.46069336;-1.8931274;-;-;-;-;-;-;-;-;-;-;-;-;-;-;-
1514106488405;-;-;9.014664;-0.43196106;-1.7315216;-;-;-;-;-;-;-;-;-;-;-;-;-;-;-
1514106488425;-;-;9.050568;-0.36732483;-1.618988;-;-;-;-;-;-;-;-;-;-;-;-;-;-;-
1514106488446;-;-;9.0733185;-0.26914978;-1.6489258;-;-;-;-;-;-;-;-;-;-;-;-;-;-;-
1514106488466;-;-;9.1128235;-0.042907715;-1.7339172;-;-;-;-;-;-;-;-;-;-;-;-;-;-;-
1514106488486;-;-;9.154724;0.20489502;-1.9170685;-;-;-;-;-;-;-;-;-;-;-;-;-;-;-
1514106488507;-;-;9.130783;0.42277527;-2.0188293;-;-;-;-;-;-;-;-;-;-;-;-;-;-;-
1514106488527;-;-;9.125992;0.45509338;-2.0116425;-;-;-;-;-;-;-;-;-;-;-;-;-;-;-
1514106488547;-;-;9.017059;0.46347046;-2.057129;-;-;-;-;-;-;-;-;-;-;-;-;-;-;-
1514106488568;-;-;8.872208;0.29588318;-1.9960785;-;-;-;-;-;-;-;-;-;-;-;-;-;-;-
1514106488588;-;-;8.957199;-0.22366333;-1.7877808;-;-;-;-;-;-;-;-;-;-;-;-;-;-;-
1514106488608;-;-;8.953613;-0.5672302;-1.535202;-;-;-;-;-;-;-;-;-;-;-;-;-;-;-
1514106488628;-;-;9.076904;-0.74320984;-1.3005676;-;-;-;-;-;-;-;-;-;-;-;-;-;-;-
1514106488649;-;-;9.220566;-0.67497253;-1.2670441;-;-;-;-;-;-;-;-;-;-;-;-;-;-;-
1514106488669;-;-;9.183456;-0.56962585;-1.3903503;-;-;-;-;-;-;-;-;-;-;-;-;-;-;-
1514106488689;-;-;9.129578;-0.4918213;-1.4621735;-;-;-;-;-;-;-;-;-;-;-;-;-;-;-
1514106488710;-;-;9.017059;-0.49780273;-1.4490051;-;-;-;-;-;-;-;-;-;-;-;-;-;-;-
1514106488730;-;-;9.037399;-0.52893066;-1.3580322;-;-;-;-;-;-;-;-;-;-;-;-;-;-;-
1514106488750;-;-;8.966782;-0.44992065;-1.274231;-;-;-;-;-;-;-;-;-;-;-;-;-;-;-
1514106488770;-;-;8.96199;-0.50019836;-1.195221;-;-;-;-;-;-;-;-;-;-;-;-;-;-;-
1514106488791;-;-;9.001495;-0.54689026;-1.155716;-;-;-;-;-;-;-;-;-;-;-;-;-;-;-
1514106488811;-;-;9.013458;-0.5600586;-1.0886841;-;-;-;-;-;-;-;-;-;-;-;-;-;-;-
1514106488831;-;-;9.025436;-0.56962585;-1.0743103;-;-;-;-;-;-;-;-;-;-;-;-;-;-;-
1514106488852;-;-;9.062546;-0.53970337;-1.0743103;-;-;-;-;-;-;-;-;-;-;-;-;-;-;-
1514106488872;-;-;9.147537;-0.4163971;-1.1533203;-;-;-;-;-;-;-;-;-;-;-;-;-;-;-
1514106488893;-;-;9.104446;-0.38887024;-1.1233978;-;-;-;-;-;-;-;-;-;-;-;-;-;-;-
1514106488913;-;-;9.12001;-0.29309082;-1.1772614;-;-;-;-;-;-;-;-;-;-;-;-;-;-;-
1514106488933;-;-;9.032608;-0.1769867;-1.1186066;-;-;-;-;-;-;-;-;-;-;-;-;-;-;-
1514106488953;-;-;8.987122;-0.04888916;-1.1473389;-;-;-;-;-;-;-;-;-;-;-;-;-;-;-
1514106488973;-;-;8.868607;0.04447937;-1.2502899;-;-;-;-;-;-;-;-;-;-;-;-;-;-;-
1514106488994;-;-;8.875793;0.21806335;-1.3017578;-;-;-;-;-;-;-;-;-;-;-;-;-;-;-
1514106489014;-;-;8.910507;0.40242004;-1.3556366;-;-;-;-;-;-;-;-;-;-;-;-;-;-;-
1514106489034;-;-;9.006287;0.5664215;-1.5699158;-;-;-;-;-;-;-;-;-;-;-;-;-;-;-
1514106489055;-;-;9.050568;0.6849365;-1.7746124;-;-;-;-;-;-;-;-;-;-;-;-;-;-;-
1514106489075;-;-;9.042191;0.6526184;-1.8224945;-;-;-;-;-;-;-;-;-;-;-;-;-;-;-
1514106489096;-;-;9.055359;0.50416565;-1.6656799;-;-;-;-;-;-;-;-;-;-;-;-;-;-;-
1514106489116;-;-;9.092468;0.25875854;-1.5639343;-;-;-;-;-;-;-;-;-;-;-;-;-;-;-
1514106489136;-;-;9.118805;0.060043335;-1.5387878;-;-;-;-;-;-;-;-;-;-;-;-;-;-;-
1514106489157;-;-;9.118805;-0.06564331;-1.5040741;-;-;-;-;-;-;-;-;-;-;-;-;-;-;-
1514106489177;-;-;9.163101;-0.19134521;-1.480133;-;-;-;-;-;-;-;-;-;-;-;-;-;-;-
1514106489197;-;-;9.15831;-0.24401855;-1.5256195;-;-;-;-;-;-;-;-;-;-;-;-;-;-;-
1514106489217;-;-;9.146347;-0.16740417;-1.6070251;-;-;-;-;-;-;-;-;-;-;-;-;-;-;-
1514106489237;-;-;9.123596;0.086380005;-1.7470856;-;-;-;-;-;-;-;-;-;-;-;-;-;-;-
1514106489258;-;-;9.118805;0.36531067;-1.8105316;-;-;-;-;-;-;-;-;-;-;-;-;-;-;-
1514106489278;-;-;9.135559;0.37727356;-1.7387085;-;-;-;-;-;-;-;-;-;-;-;-;-;-;-
1514106489298;-;-;9.137955;0.38685608;-1.7387085;-;-;-;-;-;-;-;-;-;-;-;-;-;-;-
1514106489319;-;-;9.104446;0.2707367;-1.6644897;-;-;-;-;-;-;-;-;-;-;-;-;-;-;-
1514106489339;-;-;9.023041;0.34495544;-1.5723114;-;-;-;-;-;-;-;-;-;-;-;-;-;-;-
1514106489359;-;-;8.969162;0.2850952;-1.5220337;-;-;-;-;-;-;-;-;-;-;-;-;-;-;-
1514106489380;-;-;9.013458;0.19651794;-1.5423737;-;-;-;-;-;-;-;-;-;-;-;-;-;-;-
1514106489400;-;-;9.021835;0.13067627;-1.4693604;-;-;-;-;-;-;-;-;-;-;-;-;-;-;-
1514106489420;-;-;8.988327;0.18334961;-1.5531616;-;-;-;-;-;-;-;-;-;-;-;-;-;-;-
1514106489440;-;-;8.966782;0.25637817;-1.6070251;-;-;-;-;-;-;-;-;-;-;-;-;-;-;-
1514106489461;-;-;8.989517;0.3605194;-1.6668854;-;-;-;-;-;-;-;-;-;-;-;-;-;-;-
1514106489481;-;-;9.027832;0.30665588;-1.7279358;-;-;-;-;-;-;-;-;-;-;-;-;-;-;-
1514106489502;-;-;9.045776;0.23960876;-1.7147675;-;-;-;-;-;-;-;-;-;-;-;-;-;-;-
1514106489522;-;-;9.058945;0.16419983;-1.6632843;-;-;-;-;-;-;-;-;-;-;-;-;-;-;-
1514106489542;-;-;9.030228;0.117507935;-1.7099762;-;-;-;-;-;-;-;-;-;-;-;-;-;-;-
1514106489563;-;-;9.054169;0.01574707;-1.7578583;-;-;-;-;-;-;-;-;-;-;-;-;-;-;-
1514106489582;-;-;9.06134;-0.0021972656;-1.7853851;-;-;-;-;-;-;-;-;-;-;-;-;-;-;-
1514106489602;-;-;9.07811;-0.06803894;-1.8177185;-;-;-;-;-;-;-;-;-;-;-;-;-;-;-
1514106489623;-;-;9.082901;-0.052474976;-1.9015045;-;-;-;-;-;-;-;-;-;-;-;-;-;-;-
1514106489642;-;-;9.096069;-0.0440979;-1.9338379;-;-;-;-;-;-;-;-;-;-;-;-;-;-;-
1514106489663;-;-;9.127182;0.0013885498;-1.9936829;-;-;-;-;-;-;-;-;-;-;-;-;-;-;-
1514106489683;-;-;9.064941;0.02293396;-1.9841156;-;-;-;-;-;-;-;-;-;-;-;-;-;-;-
1514106489704;-;-;9.036209;0.112716675;-2.005661;-;-;-;-;-;-;-;-;-;-;-;-;-;-;-
1514106489724;-;-;9.020645;0.10673523;-2.0260162;-;-;-;-;-;-;-;-;-;-;-;-;-;-;-
1514106489744;-;-;8.972763;0.12709045;-2.0032654;-;-;-;-;-;-;-;-;-;-;-;-;-;-;-
1514106489764;-;-;8.950012;0.105529785;-1.9278412;-;-;-;-;-;-;-;-;-;-;-;-;-;-;-
1514106489785;-;-;8.991913;-0.018966675;-1.8679962;-;-;-;-;-;-;-;-;-;-;-;-;-;-;-
1514106489805;-;-;9.041;-0.07043457;-1.8691864;-;-;-;-;-;-;-;-;-;-;-;-;-;-;-
1514106489825;-;-;9.032608;-0.069244385;-1.9039001;-;-;-;-;-;-;-;-;-;-;-;-;-;-;-
1514106489846;-;-;9.043396;-0.083602905;-1.9086914;-;-;-;-;-;-;-;-;-;-;-;-;-;-;-
1514106489866;-;-;9.064941;-0.13986206;-1.9158783;-;-;-;-;-;-;-;-;-;-;-;-;-;-;-
1514106489887;-;-;9.070923;-0.19493103;-1.8105316;-;-;-;-;-;-;-;-;-;-;-;-;-;-;-
1514106489907;-;-;9.064941;-0.18057251;-1.7830048;-;-;-;-;-;-;-;-;-;-;-;-;-;-;-
1514106489928;-;-;9.043396;-0.124313354;-1.7494812;-;-;-;-;-;-;-;-;-;-;-;-;-;-;-
1514106489948;-;-;8.989517;-0.078811646;-1.8440552;-;-;-;-;-;-;-;-;-;-;-;-;-;-;-
1514106489968;-;-;9.035004;-0.066848755;-1.8141174;-;-;-;-;-;-;-;-;-;-;-;-;-;-;-
1514106489989;-;-;9.0733185;-0.06564331;-1.8919373;-;-;-;-;-;-;-;-;-;-;-;-;-;-;-
1514106490009;-;-;9.092468;-0.121917725;-1.942215;-;-;-;-;-;-;-;-;-;-;-;-;-;-;-
1514106490029;-;-;9.125992;-0.13148499;-2.0152283;-;-;-;-;-;-;-;-;-;-;-;-;-;-;-
1514106490049;-;-;9.182251;-0.117126465;-2.0918427;-;-;-;-;-;-;-;-;-;-;-;-;-;-;-
1514106490070;-;-;9.181061;-0.11352539;-2.1026306;-;-;-;-;-;-;-;-;-;-;-;-;-;-;-
1514106490090;-;-;9.207397;-0.105148315;-2.021225;-;-;-;-;-;-;-;-;-;-;-;-;-;-;-
1514106490111;-;-;9.131973;-0.057266235;-1.9565735;-;-;-;-;-;-;-;-;-;-;-;-;-;-;-
1514106490131;-;-;9.084091;0.081588745;-1.7913818;-;-;-;-;-;-;-;-;-;-;-;-;-;-;-
1514106490151;-;-;8.924881;0.24559021;-1.595047;-;-;-;-;-;-;-;-;-;-;-;-;-;-;-
1514106490172;-;-;8.923676;0.30665588;-1.5675201;-;-;-;-;-;-;-;-;-;-;-;-;-;-;-
1514106490192;-;-;8.891357;0.2850952;-1.6333618;-;-;-;-;-;-;-;-;-;-;-;-;-;-;-
1514106490212;-;-;8.797989;0.1558075;-1.777008;-;-;-;-;-;-;-;-;-;-;-;-;-;-;-
1514106490232;-;-;8.942825;0.06842041;-1.9254456;-;-;-;-;-;-;-;-;-;-;-;-;-;-;-
1514106490253;-;-;9.13916;0.012161255;-1.9972839;-;-;-;-;-;-;-;-;-;-;-;-;-;-;-
1514106490273;-;-;9.205002;0.040893555;-1.871582;-;-;-;-;-;-;-;-;-;-;-;-;-;-;-
1514106490293;-;-;9.2708435;0.27792358;-1.6154022;-;-;-;-;-;-;-;-;-;-;-;-;-;-;-
1514106490314;-;-;9.084091;0.4119873;-1.6034393;-;-;-;-;-;-;-;-;-;-;-;-;-;-;-
1514106490334;-;-;8.9991;0.50057983;-1.8296814;-;-;-;-;-;-;-;-;-;-;-;-;-;-;-
1514106490355;-;-;8.904526;0.3030548;-1.9481964;-;-;-;-;-;-;-;-;-;-;-;-;-;-;-
1514106490374;-;-;8.92009;0.30426025;-1.9362335;-;-;-;-;-;-;-;-;-;-;-;-;-;-;-
1514106490395;-;-;8.851852;0.53289795;-1.8811646;-;-;-;-;-;-;-;-;-;-;-;-;-;-;-
1514106490415;-;-;8.812347;0.7842865;-1.7470856;-;-;-;-;-;-;-;-;-;-;-;-;-;-;-
1514106490435;-;-;8.911713;0.833374;-1.8380585;-;-;-;-;-;-;-;-;-;-;-;-;-;-;-
1514106490456;-;-;9.094864;0.59394836;-1.9673462;-;-;-;-;-;-;-;-;-;-;-;-;-;-;-
1514106490476;-;-;9.23613;0.2922821;-1.8907318;-;-;-;-;-;-;-;-;-;-;-;-;-;-;-
1514106490496;-;-;9.233734;-0.030929565;-1.7482758;-;-;-;-;-;-;-;-;-;-;-;-;-;-;-
1514106490517;-;-;9.21817;-0.19013977;-1.5244293;-;-;-;-;-;-;-;-;-;-;-;-;-;-;-
1514106490537;-;-;9.1523285;-0.15423584;-1.5399933;-;-;-;-;-;-;-;-;-;-;-;-;-;-;-
1514106490557;-;-;8.948822;-0.021362305;-1.5627289;-;-;-;-;-;-;-;-;-;-;-;-;-;-;-
1514106490577;-;-;8.831497;0.1725769;-1.7063904;-;-;-;-;-;-;-;-;-;-;-;-;-;-;-
1514106490598;-;-;8.847061;0.3102417;-1.9374237;-;-;-;-;-;-;-;-;-;-;-;-;-;-;-
1514106490618;-;-;8.946426;0.39762878;-1.9637604;-;-;-;-;-;-;-;-;-;-;-;-;-;-;-
1514106490638;-;-;9.048172;0.52212524;-1.8608093;-;-;-;-;-;-;-;-;-;-;-;-;-;-;-
1514106490659;-;-;9.026627;0.6442261;-1.8272858;-;-;-;-;-;-;-;-;-;-;-;-;-;-;-
1514106490679;-;-;8.969162;0.7220459;-1.9278412;-;-;-;-;-;-;-;-;-;-;-;-;-;-;-
1514106490699;-;-;8.927277;0.6107178;-1.9805145;-;-;-;-;-;-;-;-;-;-;-;-;-;-;-
1514106490720;-;-;8.934448;0.49220276;-1.9912872;-;-;-;-;-;-;-;-;-;-;-;-;-;-;-
1514106490739;-;-;8.985931;0.30065918;-1.8548279;-;-;-;-;-;-;-;-;-;-;-;-;-;-;-
1514106490759;-;-;9.084091;0.23602295;-1.7937775;-;-;-;-;-;-;-;-;-;-;-;-;-;-;-
1514106490779;-;-;9.041;0.17018127;-1.8153229;-;-;-;-;-;-;-;-;-;-;-;-;-;-;-
1514106490800;-;-;8.996704;0.14503479;-1.8608093;-;-;-;-;-;-;-;-;-;-;-;-;-;-;-
1514106490821;-;-;9.045776;0.0756073;-1.8093262;-;-;-;-;-;-;-;-;-;-;-;-;-;-;-
1514106490840;-;-;9.054169;0.1510315;-1.8656006;-;-;-;-;-;-;-;-;-;-;-;-;-;-;-
1514106490861;-;-;9.043396;0.26475525;-1.8895416;-;-;-;-;-;-;-;-;-;-;-;-;-;-;-
1514106490881;-;-;8.903336;0.33059692;-1.8787689;-;-;-;-;-;-;-;-;-;-;-;-;-;-;-
1514106490901;-;-;8.855438;0.21806335;-1.9494019;-;-;-;-;-;-;-;-;-;-;-;-;-;-;-
1514106490921;-;-;8.938049;0.18214417;-1.8667908;-;-;-;-;-;-;-;-;-;-;-;-;-;-;-
1514106490941;-;-;8.914108;0.299469;-1.8955231;-;-;-;-;-;-;-;-;-;-;-;-;-;-;-
1514106490962;-;-;8.932053;0.39164734;-1.9434052;-;-;-;-;-;-;-;-;-;-;-;-;-;-;-
1514106490981;-;-;8.944031;0.5245209;-1.8428497;-;-;-;-;-;-;-;-;-;-;-;-;-;-;-
1514106491001;-;-;8.732147;0.34735107;-1.5998383;-;-;-;-;-;-;-;-;-;-;-;-;-;-;-
1514106491022;-;-;8.570541;-0.18655396;-1.2873993;-;-;-;-;-;-;-;-;-;-;-;-;-;-;-
1514106491042;-;-;8.782425;-0.45350647;-1.1856384;-;-;-;-;-;-;-;-;-;-;-;-;-;-;-
1514106491063;-;-;9.319916;-0.19613647;-1.8069458;-;-;-;-;-;-;-;-;-;-;-;-;-;-;-
1514106491083;-;-;9.674255;0.59036255;-2.527588;-;-;-;-;-;-;-;-;-;-;-;-;-;-;-
1514106491103;-;-;9.566528;0.848938;-1.9458008;-;-;-;-;-;-;-;-;-;-;-;-;-;-;-
1514106491124;-;-;9.222961;0.62986755;-1.6812439;-;-;-;-;-;-;-;-;-;-;-;-;-;-;-
1514106491144;-;-;8.777634;0.34136963;-1.8284912;-;-;-;-;-;-;-;-;-;-;-;-;-;-;-
1514106491164;-;-;8.413712;0.11152649;-1.8416595;-;-;-;-;-;-;-;-;-;-;-;-;-;-;-
1514106491185;-;-;8.373016;-0.0021972656;-1.9673462;-;-;-;-;-;-;-;-;-;-;-;-;-;-;-
1514106491205;-;-;8.838684;-0.119522095;-1.9039001;-;-;-;-;-;-;-;-;-;-;-;-;-;-;-
1514106491225;-;-;9.190628;-0.20930481;-1.8177185;-;-;-;-;-;-;-;-;-;-;-;-;-;-;-
1514106491246;-;-;9.164291;-0.06564331;-1.7758179;-;-;-;-;-;-;-;-;-;-;-;-;-;-;-
1514106491266;-;-;9.178665;0.1510315;-1.9314423;-;-;-;-;-;-;-;-;-;-;-;-;-;-;-
1514106491286;-;-;9.109222;0.4000244;-2.1026306;-;-;-;-;-;-;-;-;-;-;-;-;-;-;-
1514106491307;-;-;9.147537;0.51016235;-2.2283173;-;-;-;-;-;-;-;-;-;-;-;-;-;-;-
1514106491327;-;-;9.160706;0.48382568;-2.254654;-;-;-;-;-;-;-;-;-;-;-;-;-;-;-
1514106491347;-;-;9.017059;0.43952942;-2.2438812;-;-;-;-;-;-;-;-;-;-;-;-;-;-;-
1514106491368;-;-;8.923676;0.32699585;-2.4533691;-;-;-;-;-;-;-;-;-;-;-;-;-;-;-
1514106491389;-;-;8.924881;0.1953125;-3.0279846;-;-;-;-;-;-;-;-;-;-;-;-;-;-;-
1514106491410;-;-;8.878189;0.2300415;-2.9597473;-;-;-;-;-;-;-;-;-;-;-;-;-;-;-
1514106491431;-;-;8.783615;0.35812378;-2.3480225;-;-;-;-;-;-;-;-;-;-;-;-;-;-;-
1514106491451;-;-;8.722565;0.3569336;-2.0870667;-;-;-;-;-;-;-;-;-;-;-;-;-;-;-
1514106491471;-;-;8.777634;0.29348755;-2.1696625;-;-;-;-;-;-;-;-;-;-;-;-;-;-;-
1514106491492;-;-;8.891357;0.19651794;-2.3863373;-;-;-;-;-;-;-;-;-;-;-;-;-;-;-
1514106491512;-;-;9.051773;0.08279419;-2.4569702;-;-;-;-;-;-;-;-;-;-;-;-;-;-;-
1514106491532;-;-;9.068527;0.06364441;-2.4629517;-;-;-;-;-;-;-;-;-;-;-;-;-;-;-
1514106491552;-;-;9.011063;0.038497925;-2.3444366;-;-;-;-;-;-;-;-;-;-;-;-;-;-;-
1514106491573;-;-;8.917694;-0.02255249;-2.187622;-;-;-;-;-;-;-;-;-;-;-;-;-;-;-
1514106491593;-;-;8.90094;-0.028533936;-2.1780396;-;-;-;-;-;-;-;-;-;-;-;-;-;-;-
1514106491613;-;-;8.845871;-0.016571045;-2.2378998;-;-;-;-;-;-;-;-;-;-;-;-;-;-;-
1514106491633;-;-;8.833893;0.103149414;-2.1900177;-;-;-;-;-;-;-;-;-;-;-;-;-;-;-
1514106491654;-;-;8.881775;0.117507935;-2.1529083;-;-;-;-;-;-;-;-;-;-;-;-;-;-;-
1514106491673;-;-;9.032608;0.24320984;-2.1038208;-;-;-;-;-;-;-;-;-;-;-;-;-;-;-
1514106491694;-;-;9.017059;0.2850952;-2.0918427;-;-;-;-;-;-;-;-;-;-;-;-;-;-;-
1514106491713;-;-;8.98233;0.26235962;-2.1145935;-;-;-;-;-;-;-;-;-;-;-;-;-;-;-
1514106491733;-;-;8.932053;0.22525024;-2.08107;-;-;-;-;-;-;-;-;-;-;-;-;-;-;-
1514106491753;-;-;8.934448;0.2527771;-2.076294;-;-;-;-;-;-;-;-;-;-;-;-;-;-;-
1514106491774;-;-;8.9392395;0.1905365;-2.1014252;-;-;-;-;-;-;-;-;-;-;-;-;-;-;-
1514106491794;-;-;8.988327;0.21208191;-2.0547333;-;-;-;-;-;-;-;-;-;-;-;-;-;-;-
1514106491814;-;-;9.036209;0.20489502;-2.144516;-;-;-;-;-;-;-;-;-;-;-;-;-;-;-
1514106491835;-;-;8.9991;0.23242188;-2.2127533;-;-;-;-;-;-;-;-;-;-;-;-;-;-;-
1514106491855;-;-;8.994308;0.2850952;-2.199585;-;-;-;-;-;-;-;-;-;-;-;-;-;-;-
1514106491875;-;-;8.953613;0.3138275;-2.2163544;-;-;-;-;-;-;-;-;-;-;-;-;-;-;-
1514106491896;-;-;8.950012;0.30065918;-2.1505127;-;-;-;-;-;-;-;-;-;-;-;-;-;-;-
1514106491916;-;-;8.988327;0.24679565;-2.199585;-;-;-;-;-;-;-;-;-;-;-;-;-;-;-
1514106491936;-;-;8.995499;0.30426025;-2.254654;-;-;-;-;-;-;-;-;-;-;-;-;-;-;-
1514106491956;-;-;8.9392395;0.32341003;-2.271408;-;-;-;-;-;-;-;-;-;-;-;-;-;-;-
1514106491977;-;-;8.918884;0.35214233;-2.2774048;-;-;-;-;-;-;-;-;-;-;-;-;-;-;-
1514106491996;-;-;8.894943;0.36531067;-2.2893677;-;-;-;-;-;-;-;-;-;-;-;-;-;-;-
1514106492016;-;-;8.936844;0.28749084;-2.2594452;-;-;-;-;-;-;-;-;-;-;-;-;-;-;-
1514106492036;-;-;8.963181;0.23242188;-2.254654;-;-;-;-;-;-;-;-;-;-;-;-;-;-;-
1514106492057;-;-;8.936844;0.26715088;-2.2774048;-;-;-;-;-;-;-;-;-;-;-;-;-;-;-
1514106492077;-;-;8.918884;0.25038147;-2.254654;-;-;-;-;-;-;-;-;-;-;-;-;-;-;-
1514106492097;-;-;8.955994;0.20010376;-2.2809906;-;-;-;-;-;-;-;-;-;-;-;-;-;-;-
1514106492117;-;-;8.983536;0.16778564;-2.309723;-;-;-;-;-;-;-;-;-;-;-;-;-;-;-
1514106492138;-;-;8.928467;0.09236145;-2.2570496;-;-;-;-;-;-;-;-;-;-;-;-;-;-;-
1514106492158;-;-;8.940445;0.0756073;-2.251068;-;-;-;-;-;-;-;-;-;-;-;-;-;-;-
1514106492178;-;-;8.926071;0.052871704;-2.2690277;-;-;-;-;-;-;-;-;-;-;-;-;-;-;-
1514106492198;-;-;8.908112;0.09954834;-2.3013458;-;-;-;-;-;-;-;-;-;-;-;-;-;-;-
1514106492218;-;-;8.903336;0.119903564;-2.2414856;-;-;-;-;-;-;-;-;-;-;-;-;-;-;-
1514106492239;-;-;8.973953;0.12709045;-2.2498627;-;-;-;-;-;-;-;-;-;-;-;-;-;-;-
1514106492259;-;-;8.967972;0.13426208;-2.2606354;-;-;-;-;-;-;-;-;-;-;-;-;-;-;-
1514106492279;-;-;8.953613;0.14144897;-2.2582397;-;-;-;-;-;-;-;-;-;-;-;-;-;-;-
1514106492299;-;-;8.911713;0.20249939;-2.2067719;-;-;-;-;-;-;-;-;-;-;-;-;-;-;-
1514106492320;-;-;8.888962;0.2635498;-2.211563;-;-;-;-;-;-;-;-;-;-;-;-;-;-;-
1514106492339;-;-;8.90213;0.23960876;-2.247467;-;-;-;-;-;-;-;-;-;-;-;-;-;-;-
1514106492359;-;-;8.896149;0.23242188;-2.207962;-;-;-;-;-;-;-;-;-;-;-;-;-;-;-
1514106492379;-;-;8.957199;0.24559021;-2.1852264;-;-;-;-;-;-;-;-;-;-;-;-;-;-;-
1514106492400;-;-;8.970367;0.24320984;-2.2127533;-;-;-;-;-;-;-;-;-;-;-;-;-;-;-
1514106492420;-;-;8.964386;0.27313232;-2.2019806;-;-;-;-;-;-;-;-;-;-;-;-;-;-;-
1514106492439;-;-;8.932053;0.3030548;-2.172058;-;-;-;-;-;-;-;-;-;-;-;-;-;-;-
1514106492459;-;-;8.928467;0.27192688;-2.1804352;-;-;-;-;-;-;-;-;-;-;-;-;-;-;-
1514106492480;-;-;8.9392395;0.27671814;-2.231903;-;-;-;-;-;-;-;-;-;-;-;-;-;-;-
1514106492499;-;-;8.971558;0.2635498;-2.1804352;-;-;-;-;-;-;-;-;-;-;-;-;-;-;-
1514106492519;-;-;8.96199;0.21447754;-2.1924133;-;-;-;-;-;-;-;-;-;-;-;-;-;-;-
1514106492539;-;-;8.958389;0.22883606;-2.211563;-;-;-;-;-;-;-;-;-;-;-;-;-;-;-
1514106492560;-;-;8.938049;0.23602295;-2.1983948;-;-;-;-;-;-;-;-;-;-;-;-;-;-;-
1514106492580;-;-;8.953613;0.19412231;-2.2091675;-;-;-;-;-;-;-;-;-;-;-;-;-;-;-
1514106492600;-;-;8.944031;0.21687317;-2.191208;-;-;-;-;-;-;-;-;-;-;-;-;-;-;-
1514106492621;-;-;8.960785;0.2420044;-2.1971893;-;-;-;-;-;-;-;-;-;-;-;-;-;-;-
1514106492640;-;-;8.938049;0.22164917;-2.2654266;-;-;-;-;-;-;-;-;-;-;-;-;-;-;-
1514106492661;-;-;8.930862;0.21566772;-2.1983948;-;-;-;-;-;-;-;-;-;-;-;-;-;-;-
1514106492681;-;-;8.970367;0.21566772;-2.2331085;-;-;-;-;-;-;-;-;-;-;-;-;-;-;-
1514106492701;-;-;8.975159;0.19172668;-2.2414856;-;-;-;-;-;-;-;-;-;-;-;-;-;-;-
1514106492722;-;-;8.976349;0.12588501;-2.175644;-;-;-;-;-;-;-;-;-;-;-;-;-;-;-
1514106492741;-;-;8.945221;0.16299438;-2.1457214;-;-;-;-;-;-;-;-;-;-;-;-;-;-;-
1514106492761;-;-;8.952408;0.19172668;-2.1624756;-;-;-;-;-;-;-;-;-;-;-;-;-;-;-
1514106492781;-;-;8.965576;0.1905365;-2.1900177;-;-;-;-;-;-;-;-;-;-;-;-;-;-;-
1514106492802;-;-;8.906921;0.1725769;-2.2414856;-;-;-;-;-;-;-;-;-;-;-;-;-;-;-
1514106492822;-;-;8.915298;0.17376709;-2.2498627;-;-;-;-;-;-;-;-;-;-;-;-;-;-;-
1514106492842;-;-;8.994308;0.2013092;-2.1983948;-;-;-;-;-;-;-;-;-;-;-;-;-;-;-
1514106492863;-;-;8.996704;0.24440002;-2.2091675;-;-;-;-;-;-;-;-;-;-;-;-;-;-;-
1514106492883;-;-;8.918884;0.21566772;-2.203186;-;-;-;-;-;-;-;-;-;-;-;-;-;-;-
1514106492903;-;-;8.92128;0.17376709;-2.2247314;-;-;-;-;-;-;-;-;-;-;-;-;-;-;-
1514106492923;-;-;8.946426;0.18334961;-2.2259216;-;-;-;-;-;-;-;-;-;-;-;-;-;-;-
1514106492944;-;-;8.959595;0.17497253;-2.175644;-;-;-;-;-;-;-;-;-;-;-;-;-;-;-
1514106492964;-;-;8.985931;0.1845398;-2.2331085;-;-;-;-;-;-;-;-;-;-;-;-;-;-;-
1514106492984;-;-;8.955994;0.18574524;-2.227127;-;-;-;-;-;-;-;-;-;-;-;-;-;-;-
1514106493004;-;-;8.922485;0.23602295;-2.2067719;-;-;-;-;-;-;-;-;-;-;-;-;-;-;-
1514106493025;-;-;8.927277;0.22045898;-2.1888123;-;-;-;-;-;-;-;-;-;-;-;-;-;-;-
1514106493045;-;-;8.916504;0.19172668;-2.1804352;-;-;-;-;-;-;-;-;-;-;-;-;-;-;-
1514106493065;-;-;8.932053;0.13186646;-2.1816254;-;-;-;-;-;-;-;-;-;-;-;-;-;-;-
1514106493085;-;-;8.965576;0.16299438;-2.223526;-;-;-;-;-;-;-;-;-;-;-;-;-;-;-
1514106493105;-;-;8.972763;0.16299438;-2.1983948;-;-;-;-;-;-;-;-;-;-;-;-;-;-;-
1514106493126;-;-;8.955994;0.14982605;-2.1959991;-;-;-;-;-;-;-;-;-;-;-;-;-;-;-
1514106493146;-;-;8.970367;0.13786316;-2.211563;-;-;-;-;-;-;-;-;-;-;-;-;-;-;-
1514106493166;-;-;8.954803;0.1618042;-2.175644;-;-;-;-;-;-;-;-;-;-;-;-;-;-;-
1514106493187;-;-;8.973953;0.112716675;-2.148117;-;-;-;-;-;-;-;-;-;-;-;-;-;-;-
1514106493207;-;-;8.987122;0.17137146;-2.163681;-;-;-;-;-;-;-;-;-;-;-;-;-;-;-
1514106493227;-;-;8.952408;0.16299438;-2.187622;-;-;-;-;-;-;-;-;-;-;-;-;-;-;-
1514106493248;-;-;8.966782;0.18095398;-2.1552887;-;-;-;-;-;-;-;-;-;-;-;-;-;-;-
1514106493268;-;-;8.944031;0.1905365;-2.1816254;-;-;-;-;-;-;-;-;-;-;-;-;-;-;-
1514106493288;-;-;8.946426;0.17497253;-2.1648712;-;-;-;-;-;-;-;-;-;-;-;-;-;-;-
1514106493309;-;-;8.938049;0.16419983;-2.1936035;-;-;-;-;-;-;-;-;-;-;-;-;-;-;-
1514106493328;-;-;8.938049;0.15940857;-2.1936035;-;-;-;-;-;-;-;-;-;-;-;-;-;-;-
1514106493348;-;-;8.917694;0.14144897;-2.1624756;-;-;-;-;-;-;-;-;-;-;-;-;-;-;-
1514106493368;-;-;8.9392395;0.15461731;-2.1469116;-;-;-;-;-;-;-;-;-;-;-;-;-;-;-
1514106493389;-;-;8.946426;0.15222168;-2.1505127;-;-;-;-;-;-;-;-;-;-;-;-;-;-;-
1514106493409;-;-;8.944031;0.19412231;-2.1660767;-;-;-;-;-;-;-;-;-;-;-;-;-;-;-
1514106493429;-;-;8.923676;0.17616272;-2.1780396;-;-;-;-;-;-;-;-;-;-;-;-;-;-;-
1514106493450;-;-;8.946426;0.1725769;-2.1768494;-;-;-;-;-;-;-;-;-;-;-;-;-;-;-
1514106493470;-;-;8.969162;0.18095398;-2.2007904;-;-;-;-;-;-;-;-;-;-;-;-;-;-;-
1514106493490;-;-;8.990723;0.17018127;-2.1816254;-;-;-;-;-;-;-;-;-;-;-;-;-;-;-
1514106493511;-;-;8.965576;0.20610046;-2.2043762;-;-;-;-;-;-;-;-;-;-;-;-;-;-;-
1514106493531;-;-;8.929672;0.17736816;-2.1936035;-;-;-;-;-;-;-;-;-;-;-;-;-;-;-
1514106493551;-;-;8.945221;0.15461731;-2.2067719;-;-;-;-;-;-;-;-;-;-;-;-;-;-;-
1514106493571;-;-;8.965576;0.15342712;-2.2187347;-;-;-;-;-;-;-;-;-;-;-;-;-;-;-
1514106493592;-;-;8.985931;0.09475708;-2.215149;-;-;-;-;-;-;-;-;-;-;-;-;-;-;-
1514106493612;-;-;8.9787445;0.10913086;-2.2127533;-;-;-;-;-;-;-;-;-;-;-;-;-;-;-
1514106493632;-;-;8.923676;0.12948608;-2.247467;-;-;-;-;-;-;-;-;-;-;-;-;-;-;-
1514106493653;-;-;8.940445;0.11869812;-2.251068;-;-;-;-;-;-;-;-;-;-;-;-;-;-;-
1514106493673;-;-;8.938049;0.15222168;-2.1947937;-;-;-;-;-;-;-;-;-;-;-;-;-;-;-
1514106493693;-;-;8.934448;0.107925415;-2.271408;-;-;-;-;-;-;-;-;-;-;-;-;-;-;-
1514106493713;-;-;8.960785;0.117507935;-2.2366943;-;-;-;-;-;-;-;-;-;-;-;-;-;-;-
1514106493733;-;-;8.960785;0.13665771;-2.2127533;-;-;-;-;-;-;-;-;-;-;-;-;-;-;-
1514106493753;-;-;8.950012;0.07081604;-2.254654;-;-;-;-;-;-;-;-;-;-;-;-;-;-;-
1514106493774;-;-;8.923676;0.10673523;-2.282196;-;-;-;-;-;-;-;-;-;-;-;-;-;-;-
1514106493794;-;-;8.953613;0.093566895;-2.2642365;-;-;-;-;-;-;-;-;-;-;-;-;-;-;-
1514106493814;-;-;8.952408;0.107925415;-2.1924133;-;-;-;-;-;-;-;-;-;-;-;-;-;-;-
1514106493835;-;-;8.922485;0.115112305;-2.23909;-;-;-;-;-;-;-;-;-;-;-;-;-;-;-
1514106493855;-;-;8.960785;0.103149414;-2.1804352;-;-;-;-;-;-;-;-;-;-;-;-;-;-;-
1514106493875;-;-;8.96199;0.08279419;-2.199585;-;-;-;-;-;-;-;-;-;-;-;-;-;-;-
1514106493895;-;-;8.953613;0.098358154;-2.1672668;-;-;-;-;-;-;-;-;-;-;-;-;-;-;-
1514106493916;-;-;8.950012;0.06602478;-2.2043762;-;-;-;-;-;-;-;-;-;-;-;-;-;-;-
1514106493936;-;-;8.972763;0.08279419;-2.1768494;-;-;-;-;-;-;-;-;-;-;-;-;-;-;-
1514106493956;-;-;8.975159;0.076812744;-2.1804352;-;-;-;-;-;-;-;-;-;-;-;-;-;-;-
1514106493977;-;-;8.98114;0.0756073;-2.2127533;-;-;-;-;-;-;-;-;-;-;-;-;-;-;-
1514106493996;-;-;8.971558;0.07321167;-2.2055817;-;-;-;-;-;-;-;-;-;-;-;-;-;-;-
1514106494016;-;-;8.948822;0.07800293;-2.2043762;-;-;-;-;-;-;-;-;-;-;-;-;-;-;-
1514106494036;-;-;8.953613;0.055252075;-2.2247314;-;-;-;-;-;-;-;-;-;-;-;-;-;-;-
1514106494057;-;-;8.905716;0.06842041;-2.1648712;-;-;-;-;-;-;-;-;-;-;-;-;-;-;-
1514106494076;-;-;8.941635;0.05406189;-2.1828308;-;-;-;-;-;-;-;-;-;-;-;-;-;-;-
1514106494096;-;-;8.92128;0.05645752;-2.2163544;-;-;-;-;-;-;-;-;-;-;-;-;-;-;-
1514106494117;-;-;8.946426;0.036102295;-2.2295227;-;-;-;-;-;-;-;-;-;-;-;-;-;-;-
1514106494137;-;-;8.929672;0.069625854;-2.2283173;-;-;-;-;-;-;-;-;-;-;-;-;-;-;-
1514106494157;-;-;8.948822;0.08039856;-2.2295227;-;-;-;-;-;-;-;-;-;-;-;-;-;-;-
1514106494178;-;-;8.985931;0.03012085;-2.2414856;-;-;-;-;-;-;-;-;-;-;-;-;-;-;-
1514106494197;-;-;8.946426;0.06124878;-2.2127533;-;-;-;-;-;-;-;-;-;-;-;-;-;-;-
1514106494217;-;-;8.912903;0.050476074;-2.2606354;-;-;-;-;-;-;-;-;-;-;-;-;-;-;-
1514106494238;-;-;8.912903;0.05885315;-2.2366943;-;-;-;-;-;-;-;-;-;-;-;-;-;-;-
1514106494257;-;-;8.954803;0.05885315;-2.2690277;-;-;-;-;-;-;-;-;-;-;-;-;-;-;-
1514106494277;-;-;8.957199;0.057647705;-2.2738037;-;-;-;-;-;-;-;-;-;-;-;-;-;-;-
1514106494297;-;-;8.985931;0.0037841797;-2.230713;-;-;-;-;-;-;-;-;-;-;-;-;-;-;-
1514106494318;-;-;9.012268;0.0025787354;-2.231903;-;-;-;-;-;-;-;-;-;-;-;-;-;-;-
1514106494338;-;-;9.017059;0.01574707;-2.2342987;-;-;-;-;-;-;-;-;-;-;-;-;-;-;-
1514106494358;-;-;8.924881;0.076812744;-2.2127533;-;-;-;-;-;-;-;-;-;-;-;-;-;-;-
1514106494379;-;-;8.887772;0.093566895;-2.2295227;-;-;-;-;-;-;-;-;-;-;-;-;-;-;-
1514106494399;-;-;8.90213;0.08518982;-2.203186;-;-;-;-;-;-;-;-;-;-;-;-;-;-;-
1514106494419;-;-;8.92009;0.12709045;-2.266632;-;-;-;-;-;-;-;-;-;-;-;-;-;-;-
1514106494440;-;-;8.953613;0.103149414;-2.1983948;-;-;-;-;-;-;-;-;-;-;-;-;-;-;-
1514106494460;-;-;8.9392395;0.045684814;-2.1947937;-;-;-;-;-;-;-;-;-;-;-;-;-;-;-
1514106494480;-;-;8.926071;0.014556885;-2.168457;-;-;-;-;-;-;-;-;-;-;-;-;-;-;-
1514106494501;-;-;8.923676;0.010971069;-2.2127533;-;-;-;-;-;-;-;-;-;-;-;-;-;-;-
1514106494521;-;-;8.960785;0.045684814;-2.2055817;-;-;-;-;-;-;-;-;-;-;-;-;-;-;-
1514106494541;-;-;8.935654;0.02532959;-2.203186;-;-;-;-;-;-;-;-;-;-;-;-;-;-;-
1514106494561;-;-;8.930862;0.046875;-2.2199402;-;-;-;-;-;-;-;-;-;-;-;-;-;-;-
1514106494582;-;-;8.988327;0.008575439;-2.2366943;-;-;-;-;-;-;-;-;-;-;-;-;-;-;-
1514106494602;-;-;8.960785;0.040893555;-2.1936035;-;-;-;-;-;-;-;-;-;-;-;-;-;-;-
1514106494622;-;-;8.993118;0.05406189;-2.2127533;-;-;-;-;-;-;-;-;-;-;-;-;-;-;-
1514106494642;-;-;8.950012;0.026535034;-2.168457;-;-;-;-;-;-;-;-;-;-;-;-;-;-;-
1514106494663;-;-;8.9787445;0.033706665;-2.1660767;-;-;-;-;-;-;-;-;-;-;-;-;-;-;-
1514106494683;-;-;8.938049;-0.009384155;-2.1852264;-;-;-;-;-;-;-;-;-;-;-;-;-;-;-
1514106494703;-;-;8.966782;0.013366699;-2.1947937;-;-;-;-;-;-;-;-;-;-;-;-;-;-;-
1514106494724;-;-;8.960785;0.045684814;-2.1493073;-;-;-;-;-;-;-;-;-;-;-;-;-;-;-
1514106494744;-;-;8.966782;0.03730774;-2.1816254;-;-;-;-;-;-;-;-;-;-;-;-;-;-;-
1514106494764;-;-;8.941635;0.076812744;-2.179245;-;-;-;-;-;-;-;-;-;-;-;-;-;-;-
1514106494785;-;-;8.92128;0.028915405;-2.1648712;-;-;-;-;-;-;-;-;-;-;-;-;-;-;-
1514106494804;-;-;8.938049;0.028915405;-2.1852264;-;-;-;-;-;-;-;-;-;-;-;-;-;-;-
1514106494824;-;-;8.958389;0.03970337;-2.2486725;-;-;-;-;-;-;-;-;-;-;-;-;-;-;-
1514106494844;-;-;8.910507;0.021743774;-2.282196;-;-;-;-;-;-;-;-;-;-;-;-;-;-;-
1514106494865;-;-;8.934448;0.04927063;-2.2414856;-;-;-;-;-;-;-;-;-;-;-;-;-;-;-
1514106494885;-;-;8.959595;0.081588745;-2.251068;-;-;-;-;-;-;-;-;-;-;-;-;-;-;-
1514106494905;-;-;8.98114;0.10194397;-2.2534637;-;-;-;-;-;-;-;-;-;-;-;-;-;-;-
1514106494925;-;-;8.945221;0.050476074;-2.282196;-;-;-;-;-;-;-;-;-;-;-;-;-;-;-
1514106494946;-;-;8.903336;0.055252075;-2.294159;-;-;-;-;-;-;-;-;-;-;-;-;-;-;-
1514106494966;-;-;8.922485;0.03730774;-2.3133087;-;-;-;-;-;-;-;-;-;-;-;-;-;-;-
1514106494987;-;-;8.938049;0.031311035;-2.2570496;-;-;-;-;-;-;-;-;-;-;-;-;-;-;-
1514106495006;-;-;8.92128;0.009765625;-2.294159;-;-;-;-;-;-;-;-;-;-;-;-;-;-;-
1514106495026;-;-;8.941635;0.0049743652;-2.2774048;-;-;-;-;-;-;-;-;-;-;-;-;-;-;-
