TimeStamp[ms];Prox[Cm];Lux[lux];AccX[m/s^2];AccY[m/s^2];AccZ[m/s^2];GyroX[rad/s];GyroY[rad/s];GyroZ[rad/s];MagnX[uT];MagnY[uT];MagnZ[uT];OrienYaw[degrees];OrienPitch[degrees];OrienRoll[degrees];Press[Pa];Temp[C°];Batt[%];Lat;Lng;Speed[m/s]
1514107722092;-;-;8.162323;-1.020935;2.5660706;-;-;-;-;-;-;-;-;-;-;-;-;-;-;-
1514107722091;-;-;8.162323;-1.020935;2.5660706;-;-;-;-;-;-;-;-;-;-;-;-;-;-;-
1514107722104;-;-;8.259293;-1.3908386;2.6067657;-;-;-;-;-;-;-;-;-;-;-;-;-;-;-
1514107722124;-;-;8.790802;-1.2160645;2.0321655;-;-;-;-;-;-;-;-;-;-;-;-;-;-;-
1514107722143;-;-;8.522644;-0.64863586;1.0325775;-;-;-;-;-;-;-;-;-;-;-;-;-;-;-
1514107722163;-;-;8.772842;-1.4075928;2.706131;-;-;-;-;-;-;-;-;-;-;-;-;-;-;-
1514107722183;-;-;9.525818;-1.1179047;1.9244232;-;-;-;-;-;-;-;-;-;-;-;-;-;-;-
1514107722204;-;-;8.716583;-1.0053711;0.57289124;-;-;-;-;-;-;-;-;-;-;-;-;-;-;-
1514107722225;-;-;9.827484;-0.19493103;0.029418945;-;-;-;-;-;-;-;-;-;-;-;-;-;-;-
1514107722245;-;-;10.828262;-0.066848755;0.5286102;-;-;-;-;-;-;-;-;-;-;-;-;-;-;-
1514107722266;-;-;9.602432;0.5053711;-0.9438324;-;-;-;-;-;-;-;-;-;-;-;-;-;-;-
1514107722286;-;-;7.319565;0.46466064;-0.71398926;-;-;-;-;-;-;-;-;-;-;-;-;-;-;-
1514107722306;-;-;9.242111;0.27192688;-1.6692657;-;-;-;-;-;-;-;-;-;-;-;-;-;-;-
1514107722341;-;-;9.403717;0.769928;-0.55477905;-;-;-;-;-;-;-;-;-;-;-;-;-;-;-
1514107722347;-;-;9.619202;0.80703735;-0.3764038;-;-;-;-;-;-;-;-;-;-;-;-;-;-;-
1514107722368;-;-;9.597641;0.6526184;-0.6014557;-;-;-;-;-;-;-;-;-;-;-;-;-;-;-
1514107722388;-;-;9.868195;0.4191742;-1.0180511;-;-;-;-;-;-;-;-;-;-;-;-;-;-;-
1514107722408;-;-;10.242889;-0.0728302;-2.1301575;-;-;-;-;-;-;-;-;-;-;-;-;-;-;-
1514107722429;-;-;10.309921;0.17736816;1.7544403;-;-;-;-;-;-;-;-;-;-;-;-;-;-;-
1514107722449;-;-;7.7361603;1.6091003;1.7544403;-;-;-;-;-;-;-;-;-;-;-;-;-;-;-
1514107722469;-;-;8.40773;1.2200317;-0.6720886;-;-;-;-;-;-;-;-;-;-;-;-;-;-;-
1514107722489;-;-;8.929672;0.31861877;-0.6732788;-;-;-;-;-;-;-;-;-;-;-;-;-;-;-
1514107722510;-;-;7.549408;0.7232361;-2.1193848;-;-;-;-;-;-;-;-;-;-;-;-;-;-;-
1514107722530;-;-;9.382172;-0.16142273;-0.58828735;-;-;-;-;-;-;-;-;-;-;-;-;-;-;-
1514107722550;-;-;9.382172;1.0895538;0.23890686;-;-;-;-;-;-;-;-;-;-;-;-;-;-;-
1514107722571;-;-;9.742493;1.753952;0.11201477;-;-;-;-;-;-;-;-;-;-;-;-;-;-;-
1514107722591;-;-;8.637573;1.6318359;0.24609375;-;-;-;-;-;-;-;-;-;-;-;-;-;-;-
1514107722611;-;-;9.280411;1.5264893;-1.3939362;-;-;-;-;-;-;-;-;-;-;-;-;-;-;-
1514107722632;-;-;9.427658;0.105529785;-0.8612366;-;-;-;-;-;-;-;-;-;-;-;-;-;-;-
1514107722651;-;-;9.257675;0.12709045;0.22932434;-;-;-;-;-;-;-;-;-;-;-;-;-;-;-
1514107722672;-;-;8.557373;0.7256317;0.5154419;-;-;-;-;-;-;-;-;-;-;-;-;-;-;-
1514107722692;-;-;8.214996;0.9207611;0.10003662;-;-;-;-;-;-;-;-;-;-;-;-;-;-;-
1514107722712;-;-;8.654327;0.848938;-0.43626404;-;-;-;-;-;-;-;-;-;-;-;-;-;-;-
1514107722733;-;-;8.786011;1.3385468;0.011459351;-;-;-;-;-;-;-;-;-;-;-;-;-;-;-
1514107722753;-;-;8.829102;1.532486;-0.102264404;-;-;-;-;-;-;-;-;-;-;-;-;-;-;-
1514107722773;-;-;8.620819;2.3405304;0.5573273;-;-;-;-;-;-;-;-;-;-;-;-;-;-;-
1514107722793;-;-;9.072113;2.3489075;-0.36442566;-;-;-;-;-;-;-;-;-;-;-;-;-;-;-
1514107722814;-;-;9.516251;2.5955048;-1.4897003;-;-;-;-;-;-;-;-;-;-;-;-;-;-;-
1514107722834;-;-;8.971558;3.2191925;-3.408661;-;-;-;-;-;-;-;-;-;-;-;-;-;-;-
1514107722854;-;-;11.704544;3.0037231;-4.9996033;-;-;-;-;-;-;-;-;-;-;-;-;-;-;-
1514107722875;-;-;14.1203;1.9825897;-7.1388245;-;-;-;-;-;-;-;-;-;-;-;-;-;-;-
1514107722895;-;-;12.491043;-1.2328186;-4.4477386;-;-;-;-;-;-;-;-;-;-;-;-;-;-;-
1514107722915;-;-;7.497925;-2.5711823;-4.4501343;-;-;-;-;-;-;-;-;-;-;-;-;-;-;-
1514107722936;-;-;6.378647;-3.2319794;-3.1393127;-;-;-;-;-;-;-;-;-;-;-;-;-;-;-
1514107722956;-;-;6.323578;-2.6118774;-1.6692657;-;-;-;-;-;-;-;-;-;-;-;-;-;-;-
1514107722976;-;-;8.338303;-1.1059265;-3.04953;-;-;-;-;-;-;-;-;-;-;-;-;-;-;-
1514107722997;-;-;10.214157;-0.069244385;-3.2123413;-;-;-;-;-;-;-;-;-;-;-;-;-;-;-
1514107723017;-;-;10.991074;0.8010559;-2.7909546;-;-;-;-;-;-;-;-;-;-;-;-;-;-;-
1514107723037;-;-;10.6271515;0.77471924;-3.056717;-;-;-;-;-;-;-;-;-;-;-;-;-;-;-
1514107723058;-;-;10.309921;-0.27035522;-2.8244781;-;-;-;-;-;-;-;-;-;-;-;-;-;-;-
1514107723078;-;-;9.451599;-1.696106;-2.2690277;-;-;-;-;-;-;-;-;-;-;-;-;-;-;-
1514107723098;-;-;8.135986;-2.4418945;-2.2055817;-;-;-;-;-;-;-;-;-;-;-;-;-;-;-
1514107723118;-;-;6.853897;-2.0684052;-2.0667114;-;-;-;-;-;-;-;-;-;-;-;-;-;-;-
1514107723138;-;-;6.209854;-1.1681824;-1.9314423;-;-;-;-;-;-;-;-;-;-;-;-;-;-;-
1514107723158;-;-;5.5861664;-0.18415833;-1.7015991;-;-;-;-;-;-;-;-;-;-;-;-;-;-;-
1514107723179;-;-;6.0650024;0.541275;-1.7590485;-;-;-;-;-;-;-;-;-;-;-;-;-;-;-
1514107723199;-;-;7.3303375;0.046875;-1.5459747;-;-;-;-;-;-;-;-;-;-;-;-;-;-;-
1514107723219;-;-;8.624405;-0.6474457;-1.6357574;-;-;-;-;-;-;-;-;-;-;-;-;-;-;-
1514107723240;-;-;9.500687;-0.5672302;-1.7853851;-;-;-;-;-;-;-;-;-;-;-;-;-;-;-
1514107723260;-;-;9.955582;-0.49899292;-1.3963318;-;-;-;-;-;-;-;-;-;-;-;-;-;-;-
1514107723280;-;-;10.002274;-0.92277527;-1.5603333;-;-;-;-;-;-;-;-;-;-;-;-;-;-;-
1514107723300;-;-;9.993881;-1.2364197;-1.337677;-;-;-;-;-;-;-;-;-;-;-;-;-;-;-
1514107723321;-;-;9.163101;-0.41879272;-0.7917938;-;-;-;-;-;-;-;-;-;-;-;-;-;-;-
1514107723341;-;-;8.025848;0.1905365;-0.54519653;-;-;-;-;-;-;-;-;-;-;-;-;-;-;-
1514107723361;-;-;7.9600067;-0.34217834;-0.3835907;-;-;-;-;-;-;-;-;-;-;-;-;-;-;-
1514107723382;-;-;9.401321;-0.6103363;0.15870667;-;-;-;-;-;-;-;-;-;-;-;-;-;-;-
1514107723402;-;-;10.648697;-0.05607605;0.23770142;-;-;-;-;-;-;-;-;-;-;-;-;-;-;-
1514107723423;-;-;10.552933;0.6681671;-2.2857819;-;-;-;-;-;-;-;-;-;-;-;-;-;-;-
1514107723443;-;-;10.234512;-0.03691101;-6.3200073;-;-;-;-;-;-;-;-;-;-;-;-;-;-;-
1514107723463;-;-;10.033386;-1.5237122;-5.6125183;-;-;-;-;-;-;-;-;-;-;-;-;-;-;-
1514107723483;-;-;9.45639;-1.0616302;-4.7314606;-;-;-;-;-;-;-;-;-;-;-;-;-;-;-
1514107723504;-;-;8.456802;-0.06324768;-3.1428986;-;-;-;-;-;-;-;-;-;-;-;-;-;-;-
1514107723525;-;-;8.119232;0.714859;-3.5487213;-;-;-;-;-;-;-;-;-;-;-;-;-;-;-
1514107723544;-;-;9.027832;0.107925415;-3.5092163;-;-;-;-;-;-;-;-;-;-;-;-;-;-;-
1514107723565;-;-;10.989868;-0.7958832;-2.8448334;-;-;-;-;-;-;-;-;-;-;-;-;-;-;-
1514107723586;-;-;12.148666;-1.5967407;-1.6776581;-;-;-;-;-;-;-;-;-;-;-;-;-;-;-
1514107723606;-;-;12.368942;-0.53012085;-1.6836395;-;-;-;-;-;-;-;-;-;-;-;-;-;-;-
1514107723626;-;-;10.518219;0.7507782;-2.4749146;-;-;-;-;-;-;-;-;-;-;-;-;-;-;-
1514107723647;-;-;8.270065;0.7627411;-2.4737244;-;-;-;-;-;-;-;-;-;-;-;-;-;-;-
1514107723667;-;-;5.844742;0.40361023;-1.7219391;-;-;-;-;-;-;-;-;-;-;-;-;-;-;-
1514107723687;-;-;4.347168;0.024139404;-0.8253174;-;-;-;-;-;-;-;-;-;-;-;-;-;-;-
1514107723708;-;-;3.4158173;-0.4259796;-0.39915466;-;-;-;-;-;-;-;-;-;-;-;-;-;-;-
1514107723727;-;-;4.0023956;-0.9610748;-0.44822693;-;-;-;-;-;-;-;-;-;-;-;-;-;-;-
1514107723747;-;-;7.1208496;-0.30625916;-0.77983093;-;-;-;-;-;-;-;-;-;-;-;-;-;-;-
1514107723767;-;-;8.058182;0.043289185;-1.1186066;-;-;-;-;-;-;-;-;-;-;-;-;-;-;-
1514107723788;-;-;8.066559;-0.08001709;-1.1293793;-;-;-;-;-;-;-;-;-;-;-;-;-;-;-
1514107723808;-;-;7.003525;-0.73602295;-1.1988068;-;-;-;-;-;-;-;-;-;-;-;-;-;-;-
1514107723828;-;-;6.536667;-0.89404297;-0.67448425;-;-;-;-;-;-;-;-;-;-;-;-;-;-;-
1514107723848;-;-;6.712631;-0.40083313;-0.5284424;-;-;-;-;-;-;-;-;-;-;-;-;-;-;-
1514107723868;-;-;6.331955;0.05406189;-0.867218;-;-;-;-;-;-;-;-;-;-;-;-;-;-;-
1514107723889;-;-;5.8914185;0.70887756;-0.7702484;-;-;-;-;-;-;-;-;-;-;-;-;-;-;-
1514107723909;-;-;6.6060944;2.0065308;-0.9186859;-;-;-;-;-;-;-;-;-;-;-;-;-;-;-
1514107723929;-;-;7.6188354;2.4171448;-2.5838623;-;-;-;-;-;-;-;-;-;-;-;-;-;-;-
1514107723949;-;-;8.580109;1.1158905;-4.1424866;-;-;-;-;-;-;-;-;-;-;-;-;-;-;-
1514107723970;-;-;9.161896;-0.7551727;-2.115799;-;-;-;-;-;-;-;-;-;-;-;-;-;-;-
1514107723990;-;-;9.869385;-0.32063293;-0.31176758;-;-;-;-;-;-;-;-;-;-;-;-;-;-;-
1514107724010;-;-;9.694611;1.0751953;-1.7889862;-;-;-;-;-;-;-;-;-;-;-;-;-;-;-
1514107724031;-;-;7.621231;0.9075928;-4.7266693;-;-;-;-;-;-;-;-;-;-;-;-;-;-;-
1514107724050;-;-;6.37027;-0.45111084;-5.3599396;-;-;-;-;-;-;-;-;-;-;-;-;-;-;-
1514107724071;-;-;7.423706;-2.0289001;-3.6768036;-;-;-;-;-;-;-;-;-;-;-;-;-;-;-
1514107724091;-;-;9.996277;-3.028473;-3.5307617;-;-;-;-;-;-;-;-;-;-;-;-;-;-;-
1514107724111;-;-;13.624695;-2.2946472;-3.346405;-;-;-;-;-;-;-;-;-;-;-;-;-;-;-
1514107724131;-;-;17.041214;-0.9682617;-3.7821503;-;-;-;-;-;-;-;-;-;-;-;-;-;-;-
1514107724152;-;-;21.281357;-2.1916962;-4.4513397;-;-;-;-;-;-;-;-;-;-;-;-;-;-;-
1514107724172;-;-;21.366348;-2.3102112;-3.717514;-;-;-;-;-;-;-;-;-;-;-;-;-;-;-
1514107724192;-;-;18.086288;-1.067627;-0.84806824;-;-;-;-;-;-;-;-;-;-;-;-;-;-;-
1514107724212;-;-;9.685028;-0.19972229;-0.9043274;-;-;-;-;-;-;-;-;-;-;-;-;-;-;-
1514107724233;-;-;5.3503265;-0.8174286;-0.9522095;-;-;-;-;-;-;-;-;-;-;-;-;-;-;-
1514107724253;-;-;1.2155457;-1.8648987;-1.2443085;-;-;-;-;-;-;-;-;-;-;-;-;-;-;-
1514107724273;-;-;-0.8135376;-2.6489868;-0.80496216;-;-;-;-;-;-;-;-;-;-;-;-;-;-;-
1514107724293;-;-;1.386734;-2.0109406;-1.3460541;-;-;-;-;-;-;-;-;-;-;-;-;-;-;-
1514107724314;-;-;5.6340485;-0.72406006;-2.673645;-;-;-;-;-;-;-;-;-;-;-;-;-;-;-
1514107724334;-;-;7.5206757;0.1905365;-2.7849731;-;-;-;-;-;-;-;-;-;-;-;-;-;-;-
1514107724354;-;-;6.4013824;0.031311035;-2.488083;-;-;-;-;-;-;-;-;-;-;-;-;-;-;-
1514107724375;-;-;6.173935;0.040893555;-1.887146;-;-;-;-;-;-;-;-;-;-;-;-;-;-;-
1514107724395;-;-;6.9747925;0.0037841797;-1.2526855;-;-;-;-;-;-;-;-;-;-;-;-;-;-;-
1514107724415;-;-;7.5996857;-0.4954071;-0.5212555;-;-;-;-;-;-;-;-;-;-;-;-;-;-;-
1514107724436;-;-;7.8438873;-1.175354;0.12757874;-;-;-;-;-;-;-;-;-;-;-;-;-;-;-
1514107724456;-;-;8.531036;-2.3461304;0.33467102;-;-;-;-;-;-;-;-;-;-;-;-;-;-;-
1514107724477;-;-;8.790802;-3.2140198;0.64711;-;-;-;-;-;-;-;-;-;-;-;-;-;-;-
1514107724497;-;-;8.143173;-3.0428314;-0.5691376;-;-;-;-;-;-;-;-;-;-;-;-;-;-;-
1514107724517;-;-;8.126404;-1.9031982;-1.8727875;-;-;-;-;-;-;-;-;-;-;-;-;-;-;-
1514107724537;-;-;9.21936;0.2013092;-1.4681549;-;-;-;-;-;-;-;-;-;-;-;-;-;-;-
1514107724557;-;-;9.942413;0.6549988;-2.310913;-;-;-;-;-;-;-;-;-;-;-;-;-;-;-
1514107724578;-;-;8.815933;-0.33499146;-4.4297943;-;-;-;-;-;-;-;-;-;-;-;-;-;-;-
1514107724599;-;-;8.320343;0.13546753;-5.982422;-;-;-;-;-;-;-;-;-;-;-;-;-;-;-
1514107724619;-;-;10.961151;1.5205078;-4.7003326;-;-;-;-;-;-;-;-;-;-;-;-;-;-;-
1514107724639;-;-;12.95192;4.4282684;-2.2761993;-;-;-;-;-;-;-;-;-;-;-;-;-;-;-
1514107724660;-;-;14.390839;2.9330902;-3.0028381;-;-;-;-;-;-;-;-;-;-;-;-;-;-;-
1514107724679;-;-;15.184509;1.9299164;-1.8069458;-;-;-;-;-;-;-;-;-;-;-;-;-;-;-
1514107724700;-;-;15.900391;4.1206055;-4.5459137;-;-;-;-;-;-;-;-;-;-;-;-;-;-;-
1514107724720;-;-;15.901581;2.5512085;-5.0606537;-;-;-;-;-;-;-;-;-;-;-;-;-;-;-
1514107724740;-;-;12.663422;0.1905365;-3.0519257;-;-;-;-;-;-;-;-;-;-;-;-;-;-;-
1514107724761;-;-;9.184647;-0.5205536;-1.6956024;-;-;-;-;-;-;-;-;-;-;-;-;-;-;-
1514107724781;-;-;6.6024933;-0.112335205;-1.6381531;-;-;-;-;-;-;-;-;-;-;-;-;-;-;-
1514107724801;-;-;4.269348;0.8441467;-1.4597778;-;-;-;-;-;-;-;-;-;-;-;-;-;-;-
1514107724822;-;-;1.5914307;0.48143005;-0.6996155;-;-;-;-;-;-;-;-;-;-;-;-;-;-;-
1514107724842;-;-;0.9102936;-0.37091064;-0.18127441;-;-;-;-;-;-;-;-;-;-;-;-;-;-;-
1514107724862;-;-;2.109787;-0.680954;0.03060913;-;-;-;-;-;-;-;-;-;-;-;-;-;-;-
1514107724882;-;-;5.063034;0.09475708;-0.29260254;-;-;-;-;-;-;-;-;-;-;-;-;-;-;-
1514107724903;-;-;5.4365234;1.1877136;-0.36802673;-;-;-;-;-;-;-;-;-;-;-;-;-;-;-
1514107724923;-;-;6.1715393;2.0699768;-0.48294067;-;-;-;-;-;-;-;-;-;-;-;-;-;-;-
1514107724943;-;-;8.088104;1.7407837;-1.4035187;-;-;-;-;-;-;-;-;-;-;-;-;-;-;-
1514107724964;-;-;11.145493;-0.105148315;-2.0631256;-;-;-;-;-;-;-;-;-;-;-;-;-;-;-
1514107724984;-;-;10.667862;-1.1274719;-1.2598572;-;-;-;-;-;-;-;-;-;-;-;-;-;-;-
1514107725004;-;-;9.145142;0.14144897;-0.109451294;-;-;-;-;-;-;-;-;-;-;-;-;-;-;-
1514107725024;-;-;7.620041;1.9215393;-1.0120697;-;-;-;-;-;-;-;-;-;-;-;-;-;-;-
1514107725045;-;-;6.6815033;2.7535248;-2.278595;-;-;-;-;-;-;-;-;-;-;-;-;-;-;-
1514107725065;-;-;6.1799316;1.4438934;-2.0954437;-;-;-;-;-;-;-;-;-;-;-;-;-;-;-
1514107725085;-;-;5.8279724;0.29707336;-2.7694092;-;-;-;-;-;-;-;-;-;-;-;-;-;-;-
1514107725106;-;-;5.7453766;-0.5313263;-4.538727;-;-;-;-;-;-;-;-;-;-;-;-;-;-;-
1514107725126;-;-;7.406952;-0.92277527;-3.3069;-;-;-;-;-;-;-;-;-;-;-;-;-;-;-
1514107725146;-;-;12.9435425;-3.0416412;-4.2562103;-;-;-;-;-;-;-;-;-;-;-;-;-;-;-
1514107725167;-;-;19.033203;-2.6154785;-3.527176;-;-;-;-;-;-;-;-;-;-;-;-;-;-;-
1514107725187;-;-;20.861176;-0.7958832;-2.5814667;-;-;-;-;-;-;-;-;-;-;-;-;-;-;-
1514107725208;-;-;21.108963;-2.210846;-4.657242;-;-;-;-;-;-;-;-;-;-;-;-;-;-;-
1514107725228;-;-;20.84201;-4.1369934;-3.6025848;-;-;-;-;-;-;-;-;-;-;-;-;-;-;-
1514107725249;-;-;16.416336;-2.2731018;-1.8643951;-;-;-;-;-;-;-;-;-;-;-;-;-;-;-
1514107725269;-;-;7.1519775;-0.01776123;-1.4286499;-;-;-;-;-;-;-;-;-;-;-;-;-;-;-
1514107725289;-;-;4.0371094;0.31143188;-1.0120697;-;-;-;-;-;-;-;-;-;-;-;-;-;-;-
1514107725310;-;-;0.32969666;-0.28831482;-0.6720886;-;-;-;-;-;-;-;-;-;-;-;-;-;-;-
1514107725330;-;-;-1.1463318;-1.4303436;0.36340332;-;-;-;-;-;-;-;-;-;-;-;-;-;-;-
1514107725350;-;-;3.5881958;-1.6230774;0.30593872;-;-;-;-;-;-;-;-;-;-;-;-;-;-;-
1514107725371;-;-;4.893036;-0.2799225;-1.7746124;-;-;-;-;-;-;-;-;-;-;-;-;-;-;-
1514107725390;-;-;4.7050934;0.18574524;-3.381134;-;-;-;-;-;-;-;-;-;-;-;-;-;-;-
1514107725410;-;-;4.581787;0.05885315;-2.816101;-;-;-;-;-;-;-;-;-;-;-;-;-;-;-
1514107725430;-;-;4.482437;-0.071640015;-2.2139587;-;-;-;-;-;-;-;-;-;-;-;-;-;-;-
1514107725451;-;-;7.228592;0.2192688;-1.1138153;-;-;-;-;-;-;-;-;-;-;-;-;-;-;-
1514107725471;-;-;11.151489;0.73521423;-0.9186859;-;-;-;-;-;-;-;-;-;-;-;-;-;-;-
1514107725491;-;-;12.066071;-0.51097107;-1.3436584;-;-;-;-;-;-;-;-;-;-;-;-;-;-;-
1514107725511;-;-;9.856216;-3.558792;-0.748703;-;-;-;-;-;-;-;-;-;-;-;-;-;-;-
1514107725532;-;-;7.645172;-4.429077;1.0325775;-;-;-;-;-;-;-;-;-;-;-;-;-;-;-
1514107725552;-;-;6.3451233;-3.392395;0.8135071;-;-;-;-;-;-;-;-;-;-;-;-;-;-;-
1514107725572;-;-;5.438919;-0.5253296;-3.7378693;-;-;-;-;-;-;-;-;-;-;-;-;-;-;-
1514107725593;-;-;7.782837;1.8604889;-5.6316833;-;-;-;-;-;-;-;-;-;-;-;-;-;-;-
1514107725613;-;-;12.368942;3.4849548;-1.5675201;-;-;-;-;-;-;-;-;-;-;-;-;-;-;-
1514107725633;-;-;15.866867;5.5104523;-1.243103;-;-;-;-;-;-;-;-;-;-;-;-;-;-;-
1514107725654;-;-;21.001236;6.3651733;-4.5901947;-;-;-;-;-;-;-;-;-;-;-;-;-;-;-
1514107725674;-;-;26.197845;3.0300598;-4.9397583;-;-;-;-;-;-;-;-;-;-;-;-;-;-;-
1514107725694;-;-;22.681961;-1.4399261;-4.2298737;-;-;-;-;-;-;-;-;-;-;-;-;-;-;-
1514107725715;-;-;11.993042;-1.8217926;-2.124176;-;-;-;-;-;-;-;-;-;-;-;-;-;-;-
1514107725735;-;-;6.0374756;-1.3142242;-1.8739777;-;-;-;-;-;-;-;-;-;-;-;-;-;-;-
1514107725756;-;-;2.2618103;-1.0688171;-1.7889862;-;-;-;-;-;-;-;-;-;-;-;-;-;-;-
1514107725776;-;-;-1.1044312;0.25398254;-1.337677;-;-;-;-;-;-;-;-;-;-;-;-;-;-;-
1514107725796;-;-;-1.5557404;1.6881104;-0.8755951;-;-;-;-;-;-;-;-;-;-;-;-;-;-;-
1514107725816;-;-;2.7155151;1.7838745;-0.09269714;-;-;-;-;-;-;-;-;-;-;-;-;-;-;-
1514107725837;-;-;5.696289;0.888443;0.17066956;-;-;-;-;-;-;-;-;-;-;-;-;-;-;-
1514107725857;-;-;6.616867;0.5843811;-0.026855469;-;-;-;-;-;-;-;-;-;-;-;-;-;-;-
1514107725877;-;-;6.3331604;0.59155273;-0.2351532;-;-;-;-;-;-;-;-;-;-;-;-;-;-;-
1514107725897;-;-;6.554611;0.46228027;-0.71517944;-;-;-;-;-;-;-;-;-;-;-;-;-;-;-
1514107725918;-;-;7.9707794;-0.02734375;-1.0958557;-;-;-;-;-;-;-;-;-;-;-;-;-;-;-
1514107725937;-;-;9.267242;-0.77911377;-1.4992828;-;-;-;-;-;-;-;-;-;-;-;-;-;-;-
1514107725957;-;-;10.321899;-1.2112732;-1.6812439;-;-;-;-;-;-;-;-;-;-;-;-;-;-;-
1514107725978;-;-;10.393723;0.2707367;-0.8169403;-;-;-;-;-;-;-;-;-;-;-;-;-;-;-
1514107725998;-;-;8.569336;2.9378815;-0.7630615;-;-;-;-;-;-;-;-;-;-;-;-;-;-;-
1514107726018;-;-;7.080139;3.587906;-2.326477;-;-;-;-;-;-;-;-;-;-;-;-;-;-;-
1514107726038;-;-;5.806427;2.7044373;-4.9325714;-;-;-;-;-;-;-;-;-;-;-;-;-;-;-
1514107726059;-;-;4.3459625;0.73521423;-6.068619;-;-;-;-;-;-;-;-;-;-;-;-;-;-;-
1514107726079;-;-;4.051483;-2.519699;-4.033554;-;-;-;-;-;-;-;-;-;-;-;-;-;-;-
1514107726099;-;-;4.9277496;-4.415909;0.15870667;-;-;-;-;-;-;-;-;-;-;-;-;-;-;-
1514107726120;-;-;11.169434;-3.7060394;-3.1381226;-;-;-;-;-;-;-;-;-;-;-;-;-;-;-
1514107726140;-;-;16.264297;-1.6673737;-5.3288116;-;-;-;-;-;-;-;-;-;-;-;-;-;-;-
1514107726160;-;-;21.86554;2.5045319;-4.8535614;-;-;-;-;-;-;-;-;-;-;-;-;-;-;-
1514107726180;-;-;22.9525;1.7575378;-4.8368073;-;-;-;-;-;-;-;-;-;-;-;-;-;-;-
1514107726201;-;-;18.258667;-2.7567291;-2.8735504;-;-;-;-;-;-;-;-;-;-;-;-;-;-;-
1514107726221;-;-;10.4140625;-5.712372;-0.2111969;-;-;-;-;-;-;-;-;-;-;-;-;-;-;-
1514107726241;-;-;5.455673;-5.787796;0.0138549805;-;-;-;-;-;-;-;-;-;-;-;-;-;-;-
1514107726262;-;-;3.0183868;-3.3935852;1.2037659;-;-;-;-;-;-;-;-;-;-;-;-;-;-;-
1514107726282;-;-;0.1477356;-0.6294861;0.2808075;-;-;-;-;-;-;-;-;-;-;-;-;-;-;-
1514107726303;-;-;-0.23414612;0.4119873;-1.2048035;-;-;-;-;-;-;-;-;-;-;-;-;-;-;-
1514107726323;-;-;5.686722;1.5863495;-1.8260956;-;-;-;-;-;-;-;-;-;-;-;-;-;-;-
1514107726343;-;-;8.458008;2.4255219;-1.9960785;-;-;-;-;-;-;-;-;-;-;-;-;-;-;-
1514107726364;-;-;10.707367;0.6143036;-2.9106598;-;-;-;-;-;-;-;-;-;-;-;-;-;-;-
1514107726384;-;-;11.378937;-1.4614716;-2.8867188;-;-;-;-;-;-;-;-;-;-;-;-;-;-;-
1514107726404;-;-;9.594055;-2.2731018;-0.81333923;-;-;-;-;-;-;-;-;-;-;-;-;-;-;-
1514107726425;-;-;8.320343;-2.5244904;-0.669693;-;-;-;-;-;-;-;-;-;-;-;-;-;-;-
1514107726445;-;-;7.6667175;-3.1721191;-2.1816254;-;-;-;-;-;-;-;-;-;-;-;-;-;-;-
1514107726465;-;-;4.6236877;-2.7567291;-6.0051727;-;-;-;-;-;-;-;-;-;-;-;-;-;-;-
1514107726485;-;-;7.1639404;0.5197296;-3.7342682;-;-;-;-;-;-;-;-;-;-;-;-;-;-;-
1514107726506;-;-;8.146759;4.130188;-0.6373749;-;-;-;-;-;-;-;-;-;-;-;-;-;-;-
1514107726525;-;-;11.034164;5.1477203;-1.4897003;-;-;-;-;-;-;-;-;-;-;-;-;-;-;-
1514107726545;-;-;14.506958;2.165741;-3.5331573;-;-;-;-;-;-;-;-;-;-;-;-;-;-;-
1514107726566;-;-;18.689621;1.0847626;-4.1460724;-;-;-;-;-;-;-;-;-;-;-;-;-;-;-
1514107726586;-;-;25.784851;-0.34098816;-5.461685;-;-;-;-;-;-;-;-;-;-;-;-;-;-;-
1514107726606;-;-;18.507675;-2.432312;-2.3552094;-;-;-;-;-;-;-;-;-;-;-;-;-;-;-
1514107726627;-;-;9.304352;-2.0289001;-0.15135193;-;-;-;-;-;-;-;-;-;-;-;-;-;-;-
1514107726647;-;-;3.8743134;-1.5584412;-1.1904297;-;-;-;-;-;-;-;-;-;-;-;-;-;-;-
1514107726667;-;-;-0.31793213;0.38804626;-0.9581909;-;-;-;-;-;-;-;-;-;-;-;-;-;-;-
1514107726687;-;-;-0.9356384;2.4686127;1.20018;-;-;-;-;-;-;-;-;-;-;-;-;-;-;-
1514107726707;-;-;4.0742188;3.3149567;0.9499817;-;-;-;-;-;-;-;-;-;-;-;-;-;-;-
1514107726728;-;-;7.469208;1.4331207;-0.3620453;-;-;-;-;-;-;-;-;-;-;-;-;-;-;-
1514107726748;-;-;9.673065;-0.368515;-0.55836487;-;-;-;-;-;-;-;-;-;-;-;-;-;-;-
1514107726768;-;-;10.7456665;-1.6494141;-1.5483704;-;-;-;-;-;-;-;-;-;-;-;-;-;-;-
1514107726788;-;-;9.301956;-2.3377533;-2.7586365;-;-;-;-;-;-;-;-;-;-;-;-;-;-;-
1514107726809;-;-;9.169083;-1.8996124;-2.717926;-;-;-;-;-;-;-;-;-;-;-;-;-;-;-
1514107726829;-;-;8.914108;-0.55526733;-2.4222565;-;-;-;-;-;-;-;-;-;-;-;-;-;-;-
1514107726849;-;-;7.585327;2.0998993;-1.7075806;-;-;-;-;-;-;-;-;-;-;-;-;-;-;-
1514107726869;-;-;6.2038727;3.510086;-1.5986481;-;-;-;-;-;-;-;-;-;-;-;-;-;-;-
1514107726890;-;-;4.9349365;3.0875092;-2.0044556;-;-;-;-;-;-;-;-;-;-;-;-;-;-;-
1514107726910;-;-;3.4792633;1.8305664;-2.8424377;-;-;-;-;-;-;-;-;-;-;-;-;-;-;-
1514107726930;-;-;2.0379486;1.006958;-4.3005066;-;-;-;-;-;-;-;-;-;-;-;-;-;-;-
1514107726950;-;-;3.7282562;-0.8497467;-5.2893066;-;-;-;-;-;-;-;-;-;-;-;-;-;-;-
1514107726971;-;-;6.858673;-1.6302643;-5.1851654;-;-;-;-;-;-;-;-;-;-;-;-;-;-;-
1514107726991;-;-;11.125153;-1.9558716;-5.200714;-;-;-;-;-;-;-;-;-;-;-;-;-;-;-
1514107727011;-;-;16.324158;-0.94192505;-3.111786;-;-;-;-;-;-;-;-;-;-;-;-;-;-;-
1514107727032;-;-;21.349579;-1.1729736;-3.5128021;-;-;-;-;-;-;-;-;-;-;-;-;-;-;-
1514107727052;-;-;23.958069;-3.1733246;-4.586609;-;-;-;-;-;-;-;-;-;-;-;-;-;-;-
1514107727072;-;-;23.826385;-3.1924744;-2.764618;-;-;-;-;-;-;-;-;-;-;-;-;-;-;-
1514107727093;-;-;16.161346;-3.364853;-2.3695831;-;-;-;-;-;-;-;-;-;-;-;-;-;-;-
1514107727113;-;-;6.759323;-1.9642487;-1.1138153;-;-;-;-;-;-;-;-;-;-;-;-;-;-;-
1514107727133;-;-;2.4401855;-1.3309784;-0.6625061;-;-;-;-;-;-;-;-;-;-;-;-;-;-;-
1514107727154;-;-;-2.9671173;-0.67497253;0.58247375;-;-;-;-;-;-;-;-;-;-;-;-;-;-;-
1514107727174;-;-;-1.5605316;-0.5145569;0.8314667;-;-;-;-;-;-;-;-;-;-;-;-;-;-;-
1514107727194;-;-;5.2617493;-0.26556396;-0.7606659;-;-;-;-;-;-;-;-;-;-;-;-;-;-;-
1514107727215;-;-;7.1675262;0.17376709;-2.6353302;-;-;-;-;-;-;-;-;-;-;-;-;-;-;-
1514107727235;-;-;8.025848;-0.033325195;-2.2247314;-;-;-;-;-;-;-;-;-;-;-;-;-;-;-
1514107727256;-;-;8.175491;-0.4882202;-1.4980927;-;-;-;-;-;-;-;-;-;-;-;-;-;-;-
1514107727276;-;-;8.537018;-1.3022614;-0.84207153;-;-;-;-;-;-;-;-;-;-;-;-;-;-;-
1514107727296;-;-;10.831863;-1.4973755;-0.3943634;-;-;-;-;-;-;-;-;-;-;-;-;-;-;-
1514107727316;-;-;9.80954;-2.4203491;-1.5292053;-;-;-;-;-;-;-;-;-;-;-;-;-;-;-
1514107727337;-;-;4.821213;-4.1657257;-2.6796265;-;-;-;-;-;-;-;-;-;-;-;-;-;-;-
1514107727357;-;-;1.738678;-4.0496063;-4.6045685;-;-;-;-;-;-;-;-;-;-;-;-;-;-;-
1514107727377;-;-;3.5582733;-1.1669769;-3.7223053;-;-;-;-;-;-;-;-;-;-;-;-;-;-;-
1514107727397;-;-;9.470749;4.983719;-1.5663147;-;-;-;-;-;-;-;-;-;-;-;-;-;-;-
1514107727418;-;-;15.985382;8.044708;-2.8927155;-;-;-;-;-;-;-;-;-;-;-;-;-;-;-
1514107727438;-;-;18.955383;5.2937775;-5.3599396;-;-;-;-;-;-;-;-;-;-;-;-;-;-;-
1514107727458;-;-;23.261353;-0.7515869;-3.9916534;-;-;-;-;-;-;-;-;-;-;-;-;-;-;-
1514107727479;-;-;23.26854;-4.8923645;-4.9457397;-;-;-;-;-;-;-;-;-;-;-;-;-;-;-
1514107727499;-;-;11.005432;-0.7108917;-0.6625061;-;-;-;-;-;-;-;-;-;-;-;-;-;-;-
1514107727519;-;-;5.7681274;0.76753235;0.42565918;-;-;-;-;-;-;-;-;-;-;-;-;-;-;-
1514107727539;-;-;1.3639832;0.48980713;0.17066956;-;-;-;-;-;-;-;-;-;-;-;-;-;-;-
1514107727560;-;-;-1.0948639;-0.368515;0.760849;-;-;-;-;-;-;-;-;-;-;-;-;-;-;-
1514107727580;-;-;-1.4060974;-0.40322876;2.7683868;-;-;-;-;-;-;-;-;-;-;-;-;-;-;-
1514107727601;-;-;4.5937653;0.076812744;2.1770172;-;-;-;-;-;-;-;-;-;-;-;-;-;-;-
1514107727621;-;-;8.122818;-0.8353882;-0.2111969;-;-;-;-;-;-;-;-;-;-;-;-;-;-;-
1514107727641;-;-;11.043747;-0.39604187;-1.6166077;-;-;-;-;-;-;-;-;-;-;-;-;-;-;-
1514107727661;-;-;12.099594;2.0077362;-1.3448639;-;-;-;-;-;-;-;-;-;-;-;-;-;-;-
1514107727682;-;-;9.4887085;0.53170776;-2.3396454;-;-;-;-;-;-;-;-;-;-;-;-;-;-;-
1514107727702;-;-;9.529419;-2.1881104;-2.776596;-;-;-;-;-;-;-;-;-;-;-;-;-;-;-
1514107727723;-;-;9.747284;-2.2743073;-1.7722168;-;-;-;-;-;-;-;-;-;-;-;-;-;-;-
1514107727743;-;-;7.541031;-0.18655396;0.54296875;-;-;-;-;-;-;-;-;-;-;-;-;-;-;-
1514107727763;-;-;3.960495;1.5612183;-0.8456726;-;-;-;-;-;-;-;-;-;-;-;-;-;-;-
1514107727783;-;-;1.0060577;1.4678345;-6.614502;-;-;-;-;-;-;-;-;-;-;-;-;-;-;-
1514107727804;-;-;3.4313812;-1.0616302;-5.350357;-;-;-;-;-;-;-;-;-;-;-;-;-;-;-
1514107727824;-;-;9.483917;-3.447464;-10.162704;-;-;-;-;-;-;-;-;-;-;-;-;-;-;-
1514107727844;-;-;22.259384;-3.6689148;-11.114395;-;-;-;-;-;-;-;-;-;-;-;-;-;-;-
1514107727864;-;-;33.24518;-3.1900787;-7.3519135;-;-;-;-;-;-;-;-;-;-;-;-;-;-;-
1514107727885;-;-;31.47586;-1.2519684;-0.95339966;-;-;-;-;-;-;-;-;-;-;-;-;-;-;-
1514107727904;-;-;20.229095;-0.38168335;-3.310501;-;-;-;-;-;-;-;-;-;-;-;-;-;-;-
1514107727924;-;-;7.882202;-1.2962646;0.49508667;-;-;-;-;-;-;-;-;-;-;-;-;-;-;-
1514107727945;-;-;2.0367584;-2.166565;-1.8033447;-;-;-;-;-;-;-;-;-;-;-;-;-;-;-
1514107727965;-;-;-0.45799255;-2.2072601;-1.1605072;-;-;-;-;-;-;-;-;-;-;-;-;-;-;-
1514107727985;-;-;-1.5868683;-1.5644226;-0.77983093;-;-;-;-;-;-;-;-;-;-;-;-;-;-;-
1514107728006;-;-;3.8934631;-1.0664215;-1.3699951;-;-;-;-;-;-;-;-;-;-;-;-;-;-;-
1514107728025;-;-;5.6651764;-0.17817688;-2.1936035;-;-;-;-;-;-;-;-;-;-;-;-;-;-;-
1514107728045;-;-;4.196335;0.5305023;-2.1026306;-;-;-;-;-;-;-;-;-;-;-;-;-;-;-
1514107728065;-;-;4.7026978;0.48143005;-0.417099;-;-;-;-;-;-;-;-;-;-;-;-;-;-;-
1514107728086;-;-;5.358719;-0.8138428;-1.6860352;-;-;-;-;-;-;-;-;-;-;-;-;-;-;-
1514107728106;-;-;8.086899;-1.8720703;-2.4964752;-;-;-;-;-;-;-;-;-;-;-;-;-;-;-
1514107728127;-;-;12.948334;-3.0105133;-0.57392883;-;-;-;-;-;-;-;-;-;-;-;-;-;-;-
1514107728147;-;-;17.391968;-3.76828;2.7671814;-;-;-;-;-;-;-;-;-;-;-;-;-;-;-
1514107728167;-;-;14.7104645;-3.5037231;1.9902649;-;-;-;-;-;-;-;-;-;-;-;-;-;-;-
1514107728188;-;-;10.184219;-5.4274597;-7.508728;-;-;-;-;-;-;-;-;-;-;-;-;-;-;-
1514107728208;-;-;11.826645;-3.8053894;-6.789276;-;-;-;-;-;-;-;-;-;-;-;-;-;-;-
1514107728228;-;-;10.963547;0.3892517;-5.567032;-;-;-;-;-;-;-;-;-;-;-;-;-;-;-
1514107728249;-;-;9.281616;3.5675507;-4.5842133;-;-;-;-;-;-;-;-;-;-;-;-;-;-;-
1514107728269;-;-;7.9791718;3.220398;-4.6296997;-;-;-;-;-;-;-;-;-;-;-;-;-;-;-
1514107728289;-;-;9.31752;-0.4954071;-4.8535614;-;-;-;-;-;-;-;-;-;-;-;-;-;-;-
1514107728310;-;-;12.506607;-4.5727386;-3.9569397;-;-;-;-;-;-;-;-;-;-;-;-;-;-;-
1514107728331;-;-;14.011353;-5.5878754;-1.8787689;-;-;-;-;-;-;-;-;-;-;-;-;-;-;-
1514107728351;-;-;11.435196;-2.692093;-3.3835144;-;-;-;-;-;-;-;-;-;-;-;-;-;-;-
1514107728371;-;-;9.086487;-1.3621063;-3.487671;-;-;-;-;-;-;-;-;-;-;-;-;-;-;-
1514107728392;-;-;5.844742;-0.38526917;-3.6420898;-;-;-;-;-;-;-;-;-;-;-;-;-;-;-
1514107728412;-;-;2.7957153;0.7292328;-4.1197357;-;-;-;-;-;-;-;-;-;-;-;-;-;-;-
1514107728432;-;-;1.3663788;1.679718;-3.685196;-;-;-;-;-;-;-;-;-;-;-;-;-;-;-
1514107728453;-;-;2.0475311;1.9706268;-3.5642853;-;-;-;-;-;-;-;-;-;-;-;-;-;-;-
1514107728473;-;-;6.6108856;1.8868256;-2.4988708;-;-;-;-;-;-;-;-;-;-;-;-;-;-;-
1514107728493;-;-;10.592438;1.5971222;-1.926651;-;-;-;-;-;-;-;-;-;-;-;-;-;-;-
1514107728514;-;-;8.983536;1.3421478;-2.223526;-;-;-;-;-;-;-;-;-;-;-;-;-;-;-
1514107728534;-;-;5.947693;0.31263733;-2.7753906;-;-;-;-;-;-;-;-;-;-;-;-;-;-;-
1514107728554;-;-;4.9181824;-0.7216644;-2.0487518;-;-;-;-;-;-;-;-;-;-;-;-;-;-;-
1514107728574;-;-;7.485962;-0.1590271;-1.614212;-;-;-;-;-;-;-;-;-;-;-;-;-;-;-
1514107728595;-;-;9.422867;0.9207611;-2.0116425;-;-;-;-;-;-;-;-;-;-;-;-;-;-;-
1514107728615;-;-;9.71257;1.5492401;-1.8284912;-;-;-;-;-;-;-;-;-;-;-;-;-;-;-
1514107728635;-;-;9.491104;1.3170013;-5.7944794;-;-;-;-;-;-;-;-;-;-;-;-;-;-;-
1514107728656;-;-;10.149506;-3.950241;-9.60965;-;-;-;-;-;-;-;-;-;-;-;-;-;-;-
1514107728676;-;-;14.726028;-8.615341;-1.6788483;-;-;-;-;-;-;-;-;-;-;-;-;-;-;-
1514107728697;-;-;18.90152;-8.496826;-4.665619;-;-;-;-;-;-;-;-;-;-;-;-;-;-;-
1514107728717;-;-;15.723206;-4.0268555;-6.2254333;-;-;-;-;-;-;-;-;-;-;-;-;-;-;-
1514107728737;-;-;11.972702;-0.29548645;-5.453308;-;-;-;-;-;-;-;-;-;-;-;-;-;-;-
1514107728757;-;-;8.661514;0.9087982;-3.6241455;-;-;-;-;-;-;-;-;-;-;-;-;-;-;-
1514107728778;-;-;5.0498657;1.0943451;-3.654068;-;-;-;-;-;-;-;-;-;-;-;-;-;-;-
1514107728797;-;-;5.071411;-0.4547119;-2.4533691;-;-;-;-;-;-;-;-;-;-;-;-;-;-;-
1514107728817;-;-;5.981201;-2.1952972;-2.4258423;-;-;-;-;-;-;-;-;-;-;-;-;-;-;-
1514107728837;-;-;4.6500244;-2.2790833;-2.8843231;-;-;-;-;-;-;-;-;-;-;-;-;-;-;-
1514107728858;-;-;4.0814056;-1.9594574;-2.0343933;-;-;-;-;-;-;-;-;-;-;-;-;-;-;-
1514107728878;-;-;4.81044;-1.3848572;-1.9924927;-;-;-;-;-;-;-;-;-;-;-;-;-;-;-
1514107728898;-;-;4.541092;-1.1095276;-2.6389313;-;-;-;-;-;-;-;-;-;-;-;-;-;-;-
1514107728919;-;-;6.3858185;0.02772522;-2.875946;-;-;-;-;-;-;-;-;-;-;-;-;-;-;-
1514107728939;-;-;8.278442;1.492981;-2.4114685;-;-;-;-;-;-;-;-;-;-;-;-;-;-;-
1514107728959;-;-;9.9040985;1.8556976;-1.6058197;-;-;-;-;-;-;-;-;-;-;-;-;-;-;-
1514107728980;-;-;12.409637;1.0763855;-0.13697815;-;-;-;-;-;-;-;-;-;-;-;-;-;-;-
1514107729000;-;-;13.454712;-1.577591;1.081665;-;-;-;-;-;-;-;-;-;-;-;-;-;-;-
1514107729020;-;-;11.8050995;-5.531616;1.1870117;-;-;-;-;-;-;-;-;-;-;-;-;-;-;-
1514107729040;-;-;9.410904;-5.0515747;-1.0419922;-;-;-;-;-;-;-;-;-;-;-;-;-;-;-
1514107729061;-;-;6.8479004;-3.6773071;-8.586121;-;-;-;-;-;-;-;-;-;-;-;-;-;-;-
1514107729081;-;-;8.526245;-3.58992;-11.372971;-;-;-;-;-;-;-;-;-;-;-;-;-;-;-
1514107729101;-;-;9.953186;1.185318;-8.329941;-;-;-;-;-;-;-;-;-;-;-;-;-;-;-
1514107729121;-;-;10.269226;5.7953644;-2.310913;-;-;-;-;-;-;-;-;-;-;-;-;-;-;-
1514107729142;-;-;9.094864;6.6620636;-3.4361877;-;-;-;-;-;-;-;-;-;-;-;-;-;-;-
1514107729162;-;-;10.964737;0.57240295;-8.599289;-;-;-;-;-;-;-;-;-;-;-;-;-;-;-
1514107729182;-;-;15.818985;-4.3153534;-2.7861633;-;-;-;-;-;-;-;-;-;-;-;-;-;-;-
1514107729202;-;-;13.7300415;-2.6789246;-0.33929443;-;-;-;-;-;-;-;-;-;-;-;-;-;-;-
1514107729223;-;-;8.299988;-0.7192688;-1.2670441;-;-;-;-;-;-;-;-;-;-;-;-;-;-;-
1514107729242;-;-;5.873459;-0.18655396;-1.2897949;-;-;-;-;-;-;-;-;-;-;-;-;-;-;-
1514107729262;-;-;1.7195282;0.7256317;-0.71398926;-;-;-;-;-;-;-;-;-;-;-;-;-;-;-
1514107729283;-;-;-0.5453949;0.5879669;-0.008895874;-;-;-;-;-;-;-;-;-;-;-;-;-;-;-
1514107729302;-;-;-0.5202484;0.117507935;0.3418579;-;-;-;-;-;-;-;-;-;-;-;-;-;-;-
1514107729322;-;-;1.6261597;-0.057266235;0.98709106;-;-;-;-;-;-;-;-;-;-;-;-;-;-;-
1514107729343;-;-;4.7050934;-0.40083313;1.4288177;-;-;-;-;-;-;-;-;-;-;-;-;-;-;-
1514107729362;-;-;8.459198;-0.85453796;1.1139832;-;-;-;-;-;-;-;-;-;-;-;-;-;-;-
1514107729382;-;-;9.9783325;-1.254364;-0.107055664;-;-;-;-;-;-;-;-;-;-;-;-;-;-;-
1514107729403;-;-;10.940796;-2.1653595;-0.6253967;-;-;-;-;-;-;-;-;-;-;-;-;-;-;-
1514107729422;-;-;11.546524;-2.3078156;-1.3963318;-;-;-;-;-;-;-;-;-;-;-;-;-;-;-
1514107729442;-;-;10.218948;-0.4738617;-2.780182;-;-;-;-;-;-;-;-;-;-;-;-;-;-;-
1514107729462;-;-;6.4253235;2.0005493;-2.3300781;-;-;-;-;-;-;-;-;-;-;-;-;-;-;-
1514107729483;-;-;4.201111;1.9754028;-2.603012;-;-;-;-;-;-;-;-;-;-;-;-;-;-;-
1514107729503;-;-;1.8943024;1.3158112;-3.183609;-;-;-;-;-;-;-;-;-;-;-;-;-;-;-
1514107729523;-;-;0.0388031;0.52093506;-3.5080261;-;-;-;-;-;-;-;-;-;-;-;-;-;-;-
1514107729544;-;-;0.05316162;-0.92037964;-5.349167;-;-;-;-;-;-;-;-;-;-;-;-;-;-;-
1514107729564;-;-;1.165268;-3.792221;-6.1272736;-;-;-;-;-;-;-;-;-;-;-;-;-;-;-
1514107729584;-;-;9.682648;-4.5200653;-9.15834;-;-;-;-;-;-;-;-;-;-;-;-;-;-;-
1514107729605;-;-;20.2303;-1.388443;-6.710266;-;-;-;-;-;-;-;-;-;-;-;-;-;-;-
1514107729624;-;-;24.63324;5.2470856;-1.0719147;-;-;-;-;-;-;-;-;-;-;-;-;-;-;-
1514107729644;-;-;24.362686;3.1629333;0.21855164;-;-;-;-;-;-;-;-;-;-;-;-;-;-;-
1514107729665;-;-;16.412735;-2.5400543;-1.9386139;-;-;-;-;-;-;-;-;-;-;-;-;-;-;-
1514107729685;-;-;10.894104;-5.72554;-0.10586548;-;-;-;-;-;-;-;-;-;-;-;-;-;-;-
1514107729705;-;-;6.762909;-5.391556;3.2831268;-;-;-;-;-;-;-;-;-;-;-;-;-;-;-
1514107729726;-;-;2.5419312;-3.7670898;0.7979584;-;-;-;-;-;-;-;-;-;-;-;-;-;-;-
1514107729745;-;-;4.4357452;-4.2758484;-2.9034882;-;-;-;-;-;-;-;-;-;-;-;-;-;-;-
1514107729766;-;-;12.300705;-1.0388947;-2.946579;-;-;-;-;-;-;-;-;-;-;-;-;-;-;-
1514107729786;-;-;14.125076;2.0556183;-5.5071716;-;-;-;-;-;-;-;-;-;-;-;-;-;-;-
1514107729806;-;-;11.6662445;3.2096252;-5.9524994;-;-;-;-;-;-;-;-;-;-;-;-;-;-;-
1514107729827;-;-;6.5737762;1.8999939;-3.4780884;-;-;-;-;-;-;-;-;-;-;-;-;-;-;-
1514107729847;-;-;0.63494873;1.5671997;0.8733673;-;-;-;-;-;-;-;-;-;-;-;-;-;-;-
1514107729867;-;-;-1.4563751;1.382843;-0.58828735;-;-;-;-;-;-;-;-;-;-;-;-;-;-;-
1514107729888;-;-;-3.0269775;0.04208374;-4.94693;-;-;-;-;-;-;-;-;-;-;-;-;-;-;-
1514107729907;-;-;-5.9323425;0.112716675;-9.542603;-;-;-;-;-;-;-;-;-;-;-;-;-;-;-
1514107729927;-;-;1.9373932;-0.42118835;-1.2167664;-;-;-;-;-;-;-;-;-;-;-;-;-;-;-
1514107729947;-;-;19.143326;-3.8879852;2.6522675;-;-;-;-;-;-;-;-;-;-;-;-;-;-;-
1514107729968;-;-;22.980042;-5.5136566;-1.5878754;-;-;-;-;-;-;-;-;-;-;-;-;-;-;-
1514107729988;-;-;25.847092;-2.8046112;-10.73851;-;-;-;-;-;-;-;-;-;-;-;-;-;-;-
1514107730009;-;-;21.514786;2.6888733;-4.694351;-;-;-;-;-;-;-;-;-;-;-;-;-;-;-
1514107730029;-;-;10.913254;4.9813232;2.556488;-;-;-;-;-;-;-;-;-;-;-;-;-;-;-
1514107730049;-;-;2.6209412;4.983719;1.0409698;-;-;-;-;-;-;-;-;-;-;-;-;-;-;-
1514107730069;-;-;3.8838806;3.2467346;-1.2718353;-;-;-;-;-;-;-;-;-;-;-;-;-;-;-
1514107730090;-;-;9.086487;-1.2268372;-2.0774841;-;-;-;-;-;-;-;-;-;-;-;-;-;-;-
1514107730110;-;-;9.893326;-2.1258545;-2.9920654;-;-;-;-;-;-;-;-;-;-;-;-;-;-;-
1514107730130;-;-;7.655945;-1.4387207;-1.4537964;-;-;-;-;-;-;-;-;-;-;-;-;-;-;-
1514107730151;-;-;5.343155;-0.50738525;1.6490936;-;-;-;-;-;-;-;-;-;-;-;-;-;-;-
1514107730171;-;-;3.0219727;-0.76475525;0.03060913;-;-;-;-;-;-;-;-;-;-;-;-;-;-;-
1514107730191;-;-;0.10702515;-2.2790833;-4.029953;-;-;-;-;-;-;-;-;-;-;-;-;-;-;-
1514107730212;-;-;-2.2943573;-2.1929016;-5.6843567;-;-;-;-;-;-;-;-;-;-;-;-;-;-;-
1514107730232;-;-;-3.9583282;-1.0568542;-6.3954315;-;-;-;-;-;-;-;-;-;-;-;-;-;-;-
1514107730252;-;-;4.842758;-1.3082428;-6.821594;-;-;-;-;-;-;-;-;-;-;-;-;-;-;-
1514107730272;-;-;16.838913;1.916748;-4.128113;-;-;-;-;-;-;-;-;-;-;-;-;-;-;-
1514107730293;-;-;31.657822;5.0878754;1.6730347;-;-;-;-;-;-;-;-;-;-;-;-;-;-;-
1514107730312;-;-;29.485077;0.37249756;-4.4142303;-;-;-;-;-;-;-;-;-;-;-;-;-;-;-
1514107730332;-;-;22.795685;-3.6593475;-1.2909851;-;-;-;-;-;-;-;-;-;-;-;-;-;-;-
1514107730352;-;-;13.653427;-5.909897;1.7747803;-;-;-;-;-;-;-;-;-;-;-;-;-;-;-
1514107730373;-;-;4.355545;-4.381195;2.3577728;-;-;-;-;-;-;-;-;-;-;-;-;-;-;-
1514107730393;-;-;2.2031555;-3.7120209;1.1295471;-;-;-;-;-;-;-;-;-;-;-;-;-;-;-
1514107730413;-;-;6.9891663;-2.1366272;-0.551178;-;-;-;-;-;-;-;-;-;-;-;-;-;-;-
1514107730433;-;-;14.703278;-0.12908936;-2.9477692;-;-;-;-;-;-;-;-;-;-;-;-;-;-;-
1514107730453;-;-;14.49379;2.3381348;-7.0837555;-;-;-;-;-;-;-;-;-;-;-;-;-;-;-
1514107730474;-;-;8.7608795;2.9881592;-7.8139954;-;-;-;-;-;-;-;-;-;-;-;-;-;-;-
1514107730493;-;-;2.8052979;1.3505249;-3.3571777;-;-;-;-;-;-;-;-;-;-;-;-;-;-;-
1514107730513;-;-;-0.3897705;0.04927063;1.1247559;-;-;-;-;-;-;-;-;-;-;-;-;-;-;-
1514107730534;-;-;-1.3031464;-0.36732483;2.5708618;-;-;-;-;-;-;-;-;-;-;-;-;-;-;-
1514107730554;-;-;-1.4503937;-0.90242004;1.0637054;-;-;-;-;-;-;-;-;-;-;-;-;-;-;-
1514107730574;-;-;-3.9882507;-1.1502228;-2.3049316;-;-;-;-;-;-;-;-;-;-;-;-;-;-;-
1514107730595;-;-;-3.2472382;-0.77194214;-6.211075;-;-;-;-;-;-;-;-;-;-;-;-;-;-;-
1514107730615;-;-;7.466812;-0.19732666;-0.28901672;-;-;-;-;-;-;-;-;-;-;-;-;-;-;-
1514107730635;-;-;22.16481;-3.3074036;0.83506775;-;-;-;-;-;-;-;-;-;-;-;-;-;-;-
1514107730655;-;-;28.243683;-2.0516357;-3.8228607;-;-;-;-;-;-;-;-;-;-;-;-;-;-;-
1514107730676;-;-;28.556137;2.818161;-4.9636993;-;-;-;-;-;-;-;-;-;-;-;-;-;-;-
1514107730696;-;-;18.58548;4.8424683;-4.839203;-;-;-;-;-;-;-;-;-;-;-;-;-;-;-
1514107730716;-;-;10.979095;3.422699;0.3418579;-;-;-;-;-;-;-;-;-;-;-;-;-;-;-
1514107730737;-;-;5.0175323;3.7267609;1.7304993;-;-;-;-;-;-;-;-;-;-;-;-;-;-;-
1514107730757;-;-;2.9633179;2.7355652;-0.70321655;-;-;-;-;-;-;-;-;-;-;-;-;-;-;-
1514107730777;-;-;6.038666;-0.87368774;-3.1644592;-;-;-;-;-;-;-;-;-;-;-;-;-;-;-
1514107730798;-;-;4.1472473;-1.7715149;-4.246628;-;-;-;-;-;-;-;-;-;-;-;-;-;-;-
1514107730818;-;-;2.4748993;-2.0001678;-3.5331573;-;-;-;-;-;-;-;-;-;-;-;-;-;-;-
1514107730840;-;-;1.5076447;-1.9750214;-0.60266113;-;-;-;-;-;-;-;-;-;-;-;-;-;-;-
1514107730860;-;-;0.62538147;-3.0895233;0.34065247;-;-;-;-;-;-;-;-;-;-;-;-;-;-;-
1514107730881;-;-;-0.538208;-3.6473694;-5.698715;-;-;-;-;-;-;-;-;-;-;-;-;-;-;-
1514107730900;-;-;3.395462;-3.9634094;-12.249252;-;-;-;-;-;-;-;-;-;-;-;-;-;-;-
1514107730920;-;-;15.960236;-1.5572357;-4.578232;-;-;-;-;-;-;-;-;-;-;-;-;-;-;-
1514107730941;-;-;33.820984;3.4753723;4.5077667;-;-;-;-;-;-;-;-;-;-;-;-;-;-;-
1514107730960;-;-;24.836746;4.105057;-2.302536;-;-;-;-;-;-;-;-;-;-;-;-;-;-;-
1514107730980;-;-;20.634918;0.103149414;-1.8033447;-;-;-;-;-;-;-;-;-;-;-;-;-;-;-
1514107731001;-;-;15.174942;-2.7615204;0.6555023;-;-;-;-;-;-;-;-;-;-;-;-;-;-;-
1514107731020;-;-;5.765732;-3.629425;1.5102234;-;-;-;-;-;-;-;-;-;-;-;-;-;-;-
1514107731040;-;-;2.2821655;-3.5276642;1.2492523;-;-;-;-;-;-;-;-;-;-;-;-;-;-;-
1514107731061;-;-;2.6412964;-3.7072296;-2.294159;-;-;-;-;-;-;-;-;-;-;-;-;-;-;-
1514107731081;-;-;5.79805;-1.8206024;-3.2949371;-;-;-;-;-;-;-;-;-;-;-;-;-;-;-
1514107731101;-;-;8.888962;-0.28112793;-4.3268433;-;-;-;-;-;-;-;-;-;-;-;-;-;-;-
1514107731121;-;-;9.912491;1.3696747;-4.2729645;-;-;-;-;-;-;-;-;-;-;-;-;-;-;-
1514107731142;-;-;4.9816284;1.4211578;-2.8448334;-;-;-;-;-;-;-;-;-;-;-;-;-;-;-
1514107731162;-;-;0.44221497;1.2200317;-0.16810608;-;-;-;-;-;-;-;-;-;-;-;-;-;-;-
1514107731182;-;-;-1.3833618;1.0189209;-0.03163147;-;-;-;-;-;-;-;-;-;-;-;-;-;-;-
1514107731203;-;-;-2.0884552;-0.3589325;-1.4334412;-;-;-;-;-;-;-;-;-;-;-;-;-;-;-
1514107731223;-;-;1.7015686;-1.2172546;-4.875107;-;-;-;-;-;-;-;-;-;-;-;-;-;-;-
1514107731243;-;-;6.680313;-2.771103;-3.8611603;-;-;-;-;-;-;-;-;-;-;-;-;-;-;-
1514107731263;-;-;17.576324;-7.0303802;1.4515686;-;-;-;-;-;-;-;-;-;-;-;-;-;-;-
1514107731284;-;-;24.83075;-3.2056427;-5.048691;-;-;-;-;-;-;-;-;-;-;-;-;-;-;-
1514107731304;-;-;30.167435;8.595383;-3.662445;-;-;-;-;-;-;-;-;-;-;-;-;-;-;-
1514107731324;-;-;18.185654;7.983658;-0.46977234;-;-;-;-;-;-;-;-;-;-;-;-;-;-;-
1514107731344;-;-;6.3187866;3.0264587;-0.75468445;-;-;-;-;-;-;-;-;-;-;-;-;-;-;-
1514107731365;-;-;-0.95718384;0.5269165;-1.7985535;-;-;-;-;-;-;-;-;-;-;-;-;-;-;-
1514107731385;-;-;-1.0373993;-2.2994385;0.15750122;-;-;-;-;-;-;-;-;-;-;-;-;-;-;-
1514107731405;-;-;5.5586243;-4.10347;-1.3831635;-;-;-;-;-;-;-;-;-;-;-;-;-;-;-
1514107731426;-;-;7.794815;-3.2128296;-2.1588898;-;-;-;-;-;-;-;-;-;-;-;-;-;-;-
1514107731446;-;-;8.164719;-2.4335175;-3.9078522;-;-;-;-;-;-;-;-;-;-;-;-;-;-;-
1514107731467;-;-;5.394623;-0.9790344;-3.1692352;-;-;-;-;-;-;-;-;-;-;-;-;-;-;-
1514107731487;-;-;1.05513;0.5341034;-2.5323792;-;-;-;-;-;-;-;-;-;-;-;-;-;-;-
1514107731507;-;-;-0.56333923;0.7950592;-3.5092163;-;-;-;-;-;-;-;-;-;-;-;-;-;-;-
1514107731527;-;-;0.6780548;0.5472717;-6.1177063;-;-;-;-;-;-;-;-;-;-;-;-;-;-;-
1514107731548;-;-;10.7456665;-1.2531738;-8.649567;-;-;-;-;-;-;-;-;-;-;-;-;-;-;-
1514107731568;-;-;20.193192;2.1884918;-3.9293976;-;-;-;-;-;-;-;-;-;-;-;-;-;-;-
1514107731588;-;-;27.078903;2.921112;2.3194733;-;-;-;-;-;-;-;-;-;-;-;-;-;-;-
1514107731609;-;-;25.52507;-4.271057;-2.3228912;-;-;-;-;-;-;-;-;-;-;-;-;-;-;-
1514107731629;-;-;17.67688;-6.519226;0.216156;-;-;-;-;-;-;-;-;-;-;-;-;-;-;-
1514107731649;-;-;11.861359;-4.921097;1.7029572;-;-;-;-;-;-;-;-;-;-;-;-;-;-;-
1514107731670;-;-;6.880234;-3.443863;2.1135712;-;-;-;-;-;-;-;-;-;-;-;-;-;-;-
1514107731690;-;-;2.9190216;-1.5823822;-0.15135193;-;-;-;-;-;-;-;-;-;-;-;-;-;-;-
1514107731709;-;-;0.8755646;-0.102752686;-1.8440552;-;-;-;-;-;-;-;-;-;-;-;-;-;-;-
1514107731729;-;-;7.2944183;0.3796692;-1.9757233;-;-;-;-;-;-;-;-;-;-;-;-;-;-;-
1514107731750;-;-;10.928818;-1.0233307;-3.0902252;-;-;-;-;-;-;-;-;-;-;-;-;-;-;-
1514107731770;-;-;10.689407;-2.4095764;-4.738632;-;-;-;-;-;-;-;-;-;-;-;-;-;-;-
1514107731790;-;-;4.882263;-2.1402283;-3.8180695;-;-;-;-;-;-;-;-;-;-;-;-;-;-;-
1514107731810;-;-;1.2514648;-0.67497253;-1.5471649;-;-;-;-;-;-;-;-;-;-;-;-;-;-;-
1514107731831;-;-;0.387146;1.3361511;0.45439148;-;-;-;-;-;-;-;-;-;-;-;-;-;-;-
1514107731851;-;-;-1.2792053;2.6769104;-0.16810608;-;-;-;-;-;-;-;-;-;-;-;-;-;-;-
1514107731871;-;-;-2.2991486;2.2232056;-3.38591;-;-;-;-;-;-;-;-;-;-;-;-;-;-;-
1514107731891;-;-;3.2386475;1.437912;-6.6671753;-;-;-;-;-;-;-;-;-;-;-;-;-;-;-
1514107731912;-;-;8.712982;1.1350403;-2.6078033;-;-;-;-;-;-;-;-;-;-;-;-;-;-;-
1514107731932;-;-;18.991302;-1.313034;1.4264374;-;-;-;-;-;-;-;-;-;-;-;-;-;-;-
1514107731952;-;-;22.337189;0.3617096;-3.409851;-;-;-;-;-;-;-;-;-;-;-;-;-;-;-
1514107731973;-;-;21.991226;0.35932922;-5.319229;-;-;-;-;-;-;-;-;-;-;-;-;-;-;-
1514107731993;-;-;14.441116;1.1625824;-3.5702667;-;-;-;-;-;-;-;-;-;-;-;-;-;-;-
1514107732013;-;-;6.9951477;1.3469238;0.01864624;-;-;-;-;-;-;-;-;-;-;-;-;-;-;-
1514107732033;-;-;2.2977295;0.4658661;1.4372101;-;-;-;-;-;-;-;-;-;-;-;-;-;-;-
1514107732054;-;-;2.4270172;-1.3238068;1.0948334;-;-;-;-;-;-;-;-;-;-;-;-;-;-;-
1514107732074;-;-;7.3183746;-1.9319305;0.76683044;-;-;-;-;-;-;-;-;-;-;-;-;-;-;-
1514107732094;-;-;9.379776;-1.0580444;-1.2383118;-;-;-;-;-;-;-;-;-;-;-;-;-;-;-
1514107732115;-;-;10.405685;-1.1394501;-3.2937317;-;-;-;-;-;-;-;-;-;-;-;-;-;-;-
1514107732135;-;-;11.526184;-2.1330414;-3.6588593;-;-;-;-;-;-;-;-;-;-;-;-;-;-;-
1514107732155;-;-;8.971558;-0.68455505;-1.2227478;-;-;-;-;-;-;-;-;-;-;-;-;-;-;-
1514107732176;-;-;5.090561;0.417984;-0.74391174;-;-;-;-;-;-;-;-;-;-;-;-;-;-;-
1514107732196;-;-;1.5794678;-0.210495;-5.0211487;-;-;-;-;-;-;-;-;-;-;-;-;-;-;-
1514107732216;-;-;1.010849;-1.1729736;-10.232132;-;-;-;-;-;-;-;-;-;-;-;-;-;-;-
1514107732236;-;-;5.9464874;-3.9514313;-10.081299;-;-;-;-;-;-;-;-;-;-;-;-;-;-;-
1514107732257;-;-;16.635406;-4.958206;-6.314026;-;-;-;-;-;-;-;-;-;-;-;-;-;-;-
1514107732277;-;-;28.214966;-1.269928;-4.393875;-;-;-;-;-;-;-;-;-;-;-;-;-;-;-
1514107732297;-;-;28.741684;0.21208191;-6.7437897;-;-;-;-;-;-;-;-;-;-;-;-;-;-;-
1514107732318;-;-;21.837997;2.3896027;-3.2913513;-;-;-;-;-;-;-;-;-;-;-;-;-;-;-
1514107732338;-;-;15.46344;-3.3085938;-1.0120697;-;-;-;-;-;-;-;-;-;-;-;-;-;-;-
1514107732364;-;-;4.135269;-3.3313446;1.239685;-;-;-;-;-;-;-;-;-;-;-;-;-;-;-
1514107732379;-;-;1.5387573;-2.8728485;0.7716217;-;-;-;-;-;-;-;-;-;-;-;-;-;-;-
1514107732399;-;-;0.41947937;-3.2487335;-1.5411835;-;-;-;-;-;-;-;-;-;-;-;-;-;-;-
1514107732419;-;-;2.8567657;-1.7978516;-1.2143707;-;-;-;-;-;-;-;-;-;-;-;-;-;-;-
1514107732440;-;-;6.2481537;-0.1530304;-1.148529;-;-;-;-;-;-;-;-;-;-;-;-;-;-;-
1514107732459;-;-;7.987549;0.6968994;-0.9546051;-;-;-;-;-;-;-;-;-;-;-;-;-;-;-
1514107732479;-;-;6.4887695;-0.3074646;-1.5926514;-;-;-;-;-;-;-;-;-;-;-;-;-;-;-
1514107732499;-;-;5.1396484;-3.1685333;-4.323242;-;-;-;-;-;-;-;-;-;-;-;-;-;-;-
1514107732519;-;-;7.295624;-3.258316;-2.7909546;-;-;-;-;-;-;-;-;-;-;-;-;-;-;-
1514107732540;-;-;9.555756;-2.4706268;0.6459198;-;-;-;-;-;-;-;-;-;-;-;-;-;-;-
1514107732560;-;-;11.58963;-1.9582672;2.4511414;-;-;-;-;-;-;-;-;-;-;-;-;-;-;-
1514107732580;-;-;10.995865;-4.1920624;0.72732544;-;-;-;-;-;-;-;-;-;-;-;-;-;-;-
1514107732602;-;-;8.447235;-7.3859253;-7.1663666;-;-;-;-;-;-;-;-;-;-;-;-;-;-;-
1514107732622;-;-;6.2122498;-3.538437;-11.928421;-;-;-;-;-;-;-;-;-;-;-;-;-;-;-
1514107732642;-;-;8.377808;3.6190338;-7.0981293;-;-;-;-;-;-;-;-;-;-;-;-;-;-;-
1514107732662;-;-;12.921997;6.738678;-2.3647919;-;-;-;-;-;-;-;-;-;-;-;-;-;-;-
1514107732683;-;-;13.933548;2.3572845;-4.140091;-;-;-;-;-;-;-;-;-;-;-;-;-;-;-
1514107732703;-;-;16.507309;-6.5024567;-6.5414734;-;-;-;-;-;-;-;-;-;-;-;-;-;-;-
1514107732723;-;-;18.872787;-11.234604;-4.7577972;-;-;-;-;-;-;-;-;-;-;-;-;-;-;-
1514107732743;-;-;15.301834;-8.289734;-3.6588593;-;-;-;-;-;-;-;-;-;-;-;-;-;-;-
1514107732764;-;-;7.554199;-1.7703247;-4.444153;-;-;-;-;-;-;-;-;-;-;-;-;-;-;-
1514107732785;-;-;2.9154358;1.5947266;-3.935379;-;-;-;-;-;-;-;-;-;-;-;-;-;-;-
1514107732805;-;-;-7.019043E-4;4.4270782;-4.128113;-;-;-;-;-;-;-;-;-;-;-;-;-;-;-
1514107732826;-;-;-0.08929443;4.269058;-3.3763428;-;-;-;-;-;-;-;-;-;-;-;-;-;-;-
1514107732846;-;-;1.6728363;2.189682;-3.3631744;-;-;-;-;-;-;-;-;-;-;-;-;-;-;-
1514107732866;-;-;5.2617493;0.50057983;-2.4414063;-;-;-;-;-;-;-;-;-;-;-;-;-;-;-
1514107732886;-;-;11.1371155;-0.08241272;-2.128952;-;-;-;-;-;-;-;-;-;-;-;-;-;-;-
1514107732907;-;-;12.803482;0.30545044;-2.2091675;-;-;-;-;-;-;-;-;-;-;-;-;-;-;-
1514107732927;-;-;10.184219;0.69810486;-2.1983948;-;-;-;-;-;-;-;-;-;-;-;-;-;-;-
1514107732947;-;-;7.7912292;0.23721313;-1.90271;-;-;-;-;-;-;-;-;-;-;-;-;-;-;-
1514107732967;-;-;6.3104095;0.80703735;-1.1521301;-;-;-;-;-;-;-;-;-;-;-;-;-;-;-
1514107732988;-;-;6.849106;1.5947266;-1.9039001;-;-;-;-;-;-;-;-;-;-;-;-;-;-;-
1514107733009;-;-;7.4284973;1.4893799;-2.9010925;-;-;-;-;-;-;-;-;-;-;-;-;-;-;-
1514107733028;-;-;8.910507;1.3660889;0.09286499;-;-;-;-;-;-;-;-;-;-;-;-;-;-;-
1514107733048;-;-;9.700592;-0.29190063;-0.33210754;-;-;-;-;-;-;-;-;-;-;-;-;-;-;-
1514107733068;-;-;11.351395;-1.7140503;-8.868637;-;-;-;-;-;-;-;-;-;-;-;-;-;-;-
1514107733088;-;-;11.387314;-5.1066437;-9.311569;-;-;-;-;-;-;-;-;-;-;-;-;-;-;-
1514107733109;-;-;11.527374;-8.739838;-3.0603027;-;-;-;-;-;-;-;-;-;-;-;-;-;-;-
1514107733129;-;-;15.371262;-10.699493;-8.973984;-;-;-;-;-;-;-;-;-;-;-;-;-;-;-
1514107733149;-;-;13.659409;-3.8724365;-6.314026;-;-;-;-;-;-;-;-;-;-;-;-;-;-;-
1514107733170;-;-;12.146271;3.079132;-4.8942566;-;-;-;-;-;-;-;-;-;-;-;-;-;-;-
1514107733190;-;-;8.8003845;3.5220642;-4.8978577;-;-;-;-;-;-;-;-;-;-;-;-;-;-;-
1514107733210;-;-;5.933319;2.026886;-5.413803;-;-;-;-;-;-;-;-;-;-;-;-;-;-;-
1514107733231;-;-;5.2150574;0.59994507;-3.065094;-;-;-;-;-;-;-;-;-;-;-;-;-;-;-
1514107733250;-;-;5.6460114;-0.7815094;-1.2155762;-;-;-;-;-;-;-;-;-;-;-;-;-;-;-
1514107733270;-;-;4.1759796;-1.3752747;-2.128952;-;-;-;-;-;-;-;-;-;-;-;-;-;-;-
1514107733291;-;-;2.7813568;-2.3628845;-1.9086914;-;-;-;-;-;-;-;-;-;-;-;-;-;-;-
1514107733310;-;-;3.241043;-2.7256012;-0.87319946;-;-;-;-;-;-;-;-;-;-;-;-;-;-;-
1514107733331;-;-;4.319626;-2.4574585;-1.5280151;-;-;-;-;-;-;-;-;-;-;-;-;-;-;-
1514107733351;-;-;7.351883;-0.89164734;-1.7937775;-;-;-;-;-;-;-;-;-;-;-;-;-;-;-
1514107733371;-;-;9.858612;0.87646484;-0.6996155;-;-;-;-;-;-;-;-;-;-;-;-;-;-;-
1514107733392;-;-;11.806305;1.8580933;-0.24232483;-;-;-;-;-;-;-;-;-;-;-;-;-;-;-
1514107733412;-;-;13.226059;0.9973755;-0.61701965;-;-;-;-;-;-;-;-;-;-;-;-;-;-;-
1514107733432;-;-;13.185364;-1.4614716;-0.41830444;-;-;-;-;-;-;-;-;-;-;-;-;-;-;-
1514107733453;-;-;11.5082245;-4.0711517;-0.551178;-;-;-;-;-;-;-;-;-;-;-;-;-;-;-
1514107733473;-;-;9.148727;-5.420288;-0.83369446;-;-;-;-;-;-;-;-;-;-;-;-;-;-;-
1514107733494;-;-;7.477585;-4.8408813;-4.123337;-;-;-;-;-;-;-;-;-;-;-;-;-;-;-
1514107733514;-;-;9.61441;-3.5085144;-11.1515045;-;-;-;-;-;-;-;-;-;-;-;-;-;-;-
1514107733534;-;-;10.669052;0.5305023;-9.007507;-;-;-;-;-;-;-;-;-;-;-;-;-;-;-
1514107733554;-;-;8.788406;3.8943634;-7.3842316;-;-;-;-;-;-;-;-;-;-;-;-;-;-;-
1514107733575;-;-;7.3470917;4.185257;-4.4393616;-;-;-;-;-;-;-;-;-;-;-;-;-;-;-
1514107733595;-;-;9.264847;1.5707855;-5.6795654;-;-;-;-;-;-;-;-;-;-;-;-;-;-;-
1514107733615;-;-;11.984665;-1.8936157;-5.8387756;-;-;-;-;-;-;-;-;-;-;-;-;-;-;-
1514107733636;-;-;13.538498;-2.1222687;-3.5259705;-;-;-;-;-;-;-;-;-;-;-;-;-;-;-
1514107733656;-;-;11.122757;-0.38887024;-1.6453247;-;-;-;-;-;-;-;-;-;-;-;-;-;-;-
1514107733676;-;-;7.6667175;-1.0293121;-1.2885895;-;-;-;-;-;-;-;-;-;-;-;-;-;-;-
1514107733697;-;-;4.549469;-1.1454315;-0.85284424;-;-;-;-;-;-;-;-;-;-;-;-;-;-;-
1514107733716;-;-;2.6903687;-1.1645813;0.117996216;-;-;-;-;-;-;-;-;-;-;-;-;-;-;-
1514107733736;-;-;2.940567;-1.1131134;0.41368103;-;-;-;-;-;-;-;-;-;-;-;-;-;-;-
1514107733757;-;-;4.0814056;-0.7503967;0.68782043;-;-;-;-;-;-;-;-;-;-;-;-;-;-;-
1514107733777;-;-;4.9109955;-0.4092102;1.0828552;-;-;-;-;-;-;-;-;-;-;-;-;-;-;-
1514107733797;-;-;5.8315735;-0.48703003;0.8314667;-;-;-;-;-;-;-;-;-;-;-;-;-;-;-
1514107733817;-;-;6.3187866;-0.9826355;-0.51885986;-;-;-;-;-;-;-;-;-;-;-;-;-;-;-
1514107733838;-;-;7.1806946;-0.70729065;-1.401123;-;-;-;-;-;-;-;-;-;-;-;-;-;-;-
1514107733857;-;-;7.293228;-0.119522095;-1.7327118;-;-;-;-;-;-;-;-;-;-;-;-;-;-;-
1514107733877;-;-;7.7337646;1.7180328;-0.6194153;-;-;-;-;-;-;-;-;-;-;-;-;-;-;-
1514107733897;-;-;8.849457;3.659729;-0.4051361;-;-;-;-;-;-;-;-;-;-;-;-;-;-;-
1514107733917;-;-;11.847;3.7255707;-3.788147;-;-;-;-;-;-;-;-;-;-;-;-;-;-;-
1514107733938;-;-;11.098816;1.1685638;-7.63562;-;-;-;-;-;-;-;-;-;-;-;-;-;-;-
1514107733958;-;-;8.023453;-0.9191742;-7.9612274;-;-;-;-;-;-;-;-;-;-;-;-;-;-;-
1514107733978;-;-;3.3404083;-1.6985016;-4.76857;-;-;-;-;-;-;-;-;-;-;-;-;-;-;-
1514107733998;-;-;0.29258728;-2.2970428;0.103637695;-;-;-;-;-;-;-;-;-;-;-;-;-;-;-
1514107734019;-;-;-2.0094452;-4.26149;1.6083832;-;-;-;-;-;-;-;-;-;-;-;-;-;-;-
1514107734039;-;-;-0.5130615;-5.571121;-4.639282;-;-;-;-;-;-;-;-;-;-;-;-;-;-;-
1514107734059;-;-;6.304428;-4.467392;-8.003128;-;-;-;-;-;-;-;-;-;-;-;-;-;-;-
1514107734079;-;-;15.815384;2.3608704;-5.437744;-;-;-;-;-;-;-;-;-;-;-;-;-;-;-
1514107734099;-;-;24.699081;7.2474365;1.5054321;-;-;-;-;-;-;-;-;-;-;-;-;-;-;-
1514107734120;-;-;27.752884;2.9139404;-2.500061;-;-;-;-;-;-;-;-;-;-;-;-;-;-;-
1514107734140;-;-;22.017563;-2.7028656;-1.1257935;-;-;-;-;-;-;-;-;-;-;-;-;-;-;-
1514107734160;-;-;13.630676;-8.0000305;0.8015442;-;-;-;-;-;-;-;-;-;-;-;-;-;-;-
1514107734181;-;-;9.367798;-9.768158;-0.2459259;-;-;-;-;-;-;-;-;-;-;-;-;-;-;-
1514107734201;-;-;4.4010315;-4.395569;-1.2024078;-;-;-;-;-;-;-;-;-;-;-;-;-;-;-
1514107734222;-;-;1.3029327;0.769928;-4.268173;-;-;-;-;-;-;-;-;-;-;-;-;-;-;-
1514107734242;-;-;4.4920044;4.0619507;-5.2378235;-;-;-;-;-;-;-;-;-;-;-;-;-;-;-
1514107734262;-;-;6.5905304;4.4151;-3.3188782;-;-;-;-;-;-;-;-;-;-;-;-;-;-;-
1514107734282;-;-;4.7673492;3.4849548;-1.3556366;-;-;-;-;-;-;-;-;-;-;-;-;-;-;-
1514107734303;-;-;0.61460876;2.710434;0.35502625;-;-;-;-;-;-;-;-;-;-;-;-;-;-;-
1514107734323;-;-;-1.9064941;1.4833984;-1.0336151;-;-;-;-;-;-;-;-;-;-;-;-;-;-;-
1514107734343;-;-;-2.3314667;-1.1203003;-2.2187347;-;-;-;-;-;-;-;-;-;-;-;-;-;-;-
1514107734364;-;-;1.2574463;-3.3552856;-8.080948;-;-;-;-;-;-;-;-;-;-;-;-;-;-;-
1514107734384;-;-;9.821503;-5.8931427;-0.922287;-;-;-;-;-;-;-;-;-;-;-;-;-;-;-
1514107734404;-;-;23.05066;-7.7737885;4.188141;-;-;-;-;-;-;-;-;-;-;-;-;-;-;-
1514107734425;-;-;27.408112;-2.183319;-7.8259583;-;-;-;-;-;-;-;-;-;-;-;-;-;-;-
1514107734445;-;-;26.606049;2.1681366;-2.819687;-;-;-;-;-;-;-;-;-;-;-;-;-;-;-
1514107734465;-;-;16.934677;5.4841156;0.9427948;-;-;-;-;-;-;-;-;-;-;-;-;-;-;-
1514107734486;-;-;4.3028717;5.771408;0.017440796;-;-;-;-;-;-;-;-;-;-;-;-;-;-;-
1514107734506;-;-;-1.5210266;5.5391846;-6.0039825;-;-;-;-;-;-;-;-;-;-;-;-;-;-;-
1514107734526;-;-;2.9058533;2.670929;-0.74391174;-;-;-;-;-;-;-;-;-;-;-;-;-;-;-
1514107734547;-;-;9.182251;-2.1929016;1.6047974;-;-;-;-;-;-;-;-;-;-;-;-;-;-;-
1514107734566;-;-;13.898834;-2.3856354;0.5010681;-;-;-;-;-;-;-;-;-;-;-;-;-;-;-
1514107734586;-;-;12.754395;-1.3273926;-4.9852448;-;-;-;-;-;-;-;-;-;-;-;-;-;-;-
1514107734606;-;-;6.4133606;-1.0436859;-4.3950653;-;-;-;-;-;-;-;-;-;-;-;-;-;-;-
1514107734627;-;-;1.7614288;-0.95150757;-1.6573029;-;-;-;-;-;-;-;-;-;-;-;-;-;-;-
1514107734647;-;-;-0.969162;-1.3046417;0.29037476;-;-;-;-;-;-;-;-;-;-;-;-;-;-;-
1514107734667;-;-;-2.514618;-1.8050385;0.9451904;-;-;-;-;-;-;-;-;-;-;-;-;-;-;-
1514107734687;-;-;-3.404068;-2.4897766;-3.8707428;-;-;-;-;-;-;-;-;-;-;-;-;-;-;-
1514107734708;-;-;-2.7181244;-1.1394501;-9.547394;-;-;-;-;-;-;-;-;-;-;-;-;-;-;-
1514107734728;-;-;6.8167877;1.3852386;-5.001999;-;-;-;-;-;-;-;-;-;-;-;-;-;-;-
1514107734748;-;-;20.905457;6.782959;-3.3440094;-;-;-;-;-;-;-;-;-;-;-;-;-;-;-
1514107734768;-;-;38.113785;3.690857;-0.32731628;-;-;-;-;-;-;-;-;-;-;-;-;-;-;-
1514107734789;-;-;26.111649;-5.8260956;1.5581055;-;-;-;-;-;-;-;-;-;-;-;-;-;-;-
1514107734808;-;-;21.347198;-9.246216;1.29953;-;-;-;-;-;-;-;-;-;-;-;-;-;-;-
1514107734828;-;-;9.519836;-7.87912;2.5373383;-;-;-;-;-;-;-;-;-;-;-;-;-;-;-
1514107734848;-;-;3.7318573;-2.2072601;-0.946228;-;-;-;-;-;-;-;-;-;-;-;-;-;-;-
1514107734869;-;-;0.65649414;-0.17338562;-3.6169586;-;-;-;-;-;-;-;-;-;-;-;-;-;-;-
1514107734889;-;-;0.6205902;2.449463;-5.5466766;-;-;-;-;-;-;-;-;-;-;-;-;-;-;-
1514107734909;-;-;4.135269;2.8876038;-3.111786;-;-;-;-;-;-;-;-;-;-;-;-;-;-;-
1514107734930;-;-;8.058182;3.240738;-3.6768036;-;-;-;-;-;-;-;-;-;-;-;-;-;-;-
1514107734950;-;-;3.8084717;2.1873016;-1.7195587;-;-;-;-;-;-;-;-;-;-;-;-;-;-;-
1514107734970;-;-;1.2586365;1.8604889;-1.3747864;-;-;-;-;-;-;-;-;-;-;-;-;-;-;-
1514107734990;-;-;0.18603516;-0.56243896;-3.9186249;-;-;-;-;-;-;-;-;-;-;-;-;-;-;-
1514107735011;-;-;5.616089;-0.8712921;-2.7861633;-;-;-;-;-;-;-;-;-;-;-;-;-;-;-
1514107735031;-;-;12.689758;-1.4818115;-0.06036377;-;-;-;-;-;-;-;-;-;-;-;-;-;-;-
1514107735051;-;-;17.037628;-6.547943;2.390091;-;-;-;-;-;-;-;-;-;-;-;-;-;-;-
1514107735072;-;-;20.148895;-6.5287933;-3.3679657;-;-;-;-;-;-;-;-;-;-;-;-;-;-;-
1514107735092;-;-;24.142426;0.8405609;-4.524353;-;-;-;-;-;-;-;-;-;-;-;-;-;-;-
1514107735112;-;-;18.852432;7.2234955;-1.6692657;-;-;-;-;-;-;-;-;-;-;-;-;-;-;-
1514107735133;-;-;9.242111;7.936966;2.3637543;-;-;-;-;-;-;-;-;-;-;-;-;-;-;-
1514107735153;-;-;1.9505615;6.4441833;-0.49491882;-;-;-;-;-;-;-;-;-;-;-;-;-;-;-
1514107735173;-;-;3.0159912;0.20848083;-2.603012;-;-;-;-;-;-;-;-;-;-;-;-;-;-;-
1514107735194;-;-;6.1045074;-4.0101013;-4.8344116;-;-;-;-;-;-;-;-;-;-;-;-;-;-;-
1514107735214;-;-;4.9493103;-4.5092926;-4.2526093;-;-;-;-;-;-;-;-;-;-;-;-;-;-;-
1514107735234;-;-;2.188797;-3.7455444;-1.4729462;-;-;-;-;-;-;-;-;-;-;-;-;-;-;-
1514107735255;-;-;-0.14555359;-3.1026917;2.7492218;-;-;-;-;-;-;-;-;-;-;-;-;-;-;-
1514107735275;-;-;-0.06175232;-3.227188;1.5066376;-;-;-;-;-;-;-;-;-;-;-;-;-;-;-
1514107735295;-;-;2.8352203;-2.8141937;-11.047363;-;-;-;-;-;-;-;-;-;-;-;-;-;-;-
1514107735315;-;-;8.938049;-2.9039764;-12.136719;-;-;-;-;-;-;-;-;-;-;-;-;-;-;-
1514107735336;-;-;20.636108;0.33776855;-0.22077942;-;-;-;-;-;-;-;-;-;-;-;-;-;-;-
1514107735356;-;-;24.986374;4.4677734;3.109558;-;-;-;-;-;-;-;-;-;-;-;-;-;-;-
1514107735376;-;-;23.049469;3.5076904;3.4351654;-;-;-;-;-;-;-;-;-;-;-;-;-;-;-
1514107735397;-;-;19.127762;-1.1873322;-0.099868774;-;-;-;-;-;-;-;-;-;-;-;-;-;-;-
1514107735417;-;-;14.346542;-5.2048035;1.7723846;-;-;-;-;-;-;-;-;-;-;-;-;-;-;-
1514107735437;-;-;9.585678;-7.294937;2.4870605;-;-;-;-;-;-;-;-;-;-;-;-;-;-;-
1514107735458;-;-;5.8076324;-6.5503387;0.13595581;-;-;-;-;-;-;-;-;-;-;-;-;-;-;-
1514107735478;-;-;3.7294617;-3.2403564;-5.255783;-;-;-;-;-;-;-;-;-;-;-;-;-;-;-
1514107735498;-;-;5.438919;1.2128601;-7.459656;-;-;-;-;-;-;-;-;-;-;-;-;-;-;-
1514107735518;-;-;6.138031;3.9793549;-6.0398865;-;-;-;-;-;-;-;-;-;-;-;-;-;-;-
1514107735539;-;-;6.4528656;5.3823547;-0.8061676;-;-;-;-;-;-;-;-;-;-;-;-;-;-;-
1514107735559;-;-;3.3667297;4.5826874;0.13595581;-;-;-;-;-;-;-;-;-;-;-;-;-;-;-
1514107735580;-;-;0.0723114;3.378418;-2.0834656;-;-;-;-;-;-;-;-;-;-;-;-;-;-;-
1514107735600;-;-;-2.194992;2.2986298;-3.6109772;-;-;-;-;-;-;-;-;-;-;-;-;-;-;-
1514107735620;-;-;-1.2732239;-1.9738312;-4.5327454;-;-;-;-;-;-;-;-;-;-;-;-;-;-;-
1514107735641;-;-;2.4030762;-4.5799103;-6.33078;-;-;-;-;-;-;-;-;-;-;-;-;-;-;-
1514107735660;-;-;16.597092;-6.045166;1.4252319;-;-;-;-;-;-;-;-;-;-;-;-;-;-;-
1514107735680;-;-;26.080536;-4.9725647;0.30714417;-;-;-;-;-;-;-;-;-;-;-;-;-;-;-
1514107735701;-;-;28.711761;0.9004059;-7.441696;-;-;-;-;-;-;-;-;-;-;-;-;-;-;-
1514107735720;-;-;27.538605;6.208359;-6.7796936;-;-;-;-;-;-;-;-;-;-;-;-;-;-;-
1514107735741;-;-;13.271545;5.186035;3.923584;-;-;-;-;-;-;-;-;-;-;-;-;-;-;-
1514107735761;-;-;2.133728;3.5400238;1.0637054;-;-;-;-;-;-;-;-;-;-;-;-;-;-;-
1514107735781;-;-;-0.15753174;0.84773254;-0.15254211;-;-;-;-;-;-;-;-;-;-;-;-;-;-;-
1514107735802;-;-;3.2111206;-3.01651;-1.337677;-;-;-;-;-;-;-;-;-;-;-;-;-;-;-
1514107735822;-;-;2.9860535;-3.3469086;-3.1225586;-;-;-;-;-;-;-;-;-;-;-;-;-;-;-
1514107735842;-;-;2.8124847;-4.0507965;-1.0491791;-;-;-;-;-;-;-;-;-;-;-;-;-;-;-
1514107735862;-;-;2.7849426;-3.8843994;1.0122375;-;-;-;-;-;-;-;-;-;-;-;-;-;-;-
1514107735883;-;-;3.5642548;-3.1194458;1.2612305;-;-;-;-;-;-;-;-;-;-;-;-;-;-;-
1514107735904;-;-;2.3743439;-1.953476;-5.9405212;-;-;-;-;-;-;-;-;-;-;-;-;-;-;-
1514107735924;-;-;0.54037476;0.19172668;-10.011871;-;-;-;-;-;-;-;-;-;-;-;-;-;-;-
1514107735944;-;-;1.999649;2.8935852;-4.4908447;-;-;-;-;-;-;-;-;-;-;-;-;-;-;-
1514107735965;-;-;16.276276;3.872818;-5.0798187;-;-;-;-;-;-;-;-;-;-;-;-;-;-;-
1514107735985;-;-;32.905197;1.651001;4.2851105;-;-;-;-;-;-;-;-;-;-;-;-;-;-;-
1514107736005;-;-;37.888733;-5.490906;-4.183182;-;-;-;-;-;-;-;-;-;-;-;-;-;-;-
1514107736025;-;-;28.82309;-6.3049316;-5.34317;-;-;-;-;-;-;-;-;-;-;-;-;-;-;-
1514107736046;-;-;13.233246;-5.5136566;-1.5064697;-;-;-;-;-;-;-;-;-;-;-;-;-;-;-
1514107736065;-;-;5.1049347;-3.7706757;4.201309;-;-;-;-;-;-;-;-;-;-;-;-;-;-;-
1514107736085;-;-;0.8073425;-1.8313751;-0.62779236;-;-;-;-;-;-;-;-;-;-;-;-;-;-;-
1514107736105;-;-;-1.65271;-0.30267334;-5.156433;-;-;-;-;-;-;-;-;-;-;-;-;-;-;-
1514107736126;-;-;-2.1542969;0.33418274;-5.8866577;-;-;-;-;-;-;-;-;-;-;-;-;-;-;-
1514107736146;-;-;0.931839;0.66937256;-3.6564636;-;-;-;-;-;-;-;-;-;-;-;-;-;-;-
1514107736166;-;-;2.6329193;2.9115448;0.3598175;-;-;-;-;-;-;-;-;-;-;-;-;-;-;-
1514107736187;-;-;0.0388031;4.5192413;1.236084;-;-;-;-;-;-;-;-;-;-;-;-;-;-;-
1514107736206;-;-;-1.3941345;4.7203674;-3.2853546;-;-;-;-;-;-;-;-;-;-;-;-;-;-;-
1514107736227;-;-;3.3523712;0.3677063;-8.535843;-;-;-;-;-;-;-;-;-;-;-;-;-;-;-
1514107736247;-;-;9.639542;-3.665329;-5.314438;-;-;-;-;-;-;-;-;-;-;-;-;-;-;-
1514107736267;-;-;20.548721;-5.1257935;0.59085083;-;-;-;-;-;-;-;-;-;-;-;-;-;-;-
1514107736287;-;-;26.419312;0.5269165;2.9503326;-;-;-;-;-;-;-;-;-;-;-;-;-;-;-
1514107736308;-;-;20.135727;1.5492401;-2.2761993;-;-;-;-;-;-;-;-;-;-;-;-;-;-;-
1514107736328;-;-;15.057617;1.7084503;-6.639633;-;-;-;-;-;-;-;-;-;-;-;-;-;-;-
1514107736349;-;-;6.475601;2.9498444;-2.2618408;-;-;-;-;-;-;-;-;-;-;-;-;-;-;-
1514107736369;-;-;0.22314453;4.4366455;0.010253906;-;-;-;-;-;-;-;-;-;-;-;-;-;-;-
1514107736389;-;-;5.5670013;3.6309967;2.595993;-;-;-;-;-;-;-;-;-;-;-;-;-;-;-
1514107736410;-;-;13.594772;-1.0508575;0.87934875;-;-;-;-;-;-;-;-;-;-;-;-;-;-;-
1514107736430;-;-;15.926712;-4.1932526;-0.9258728;-;-;-;-;-;-;-;-;-;-;-;-;-;-;-
1514107736450;-;-;12.93277;-4.642166;-2.3564148;-;-;-;-;-;-;-;-;-;-;-;-;-;-;-
1514107736471;-;-;8.255692;-2.5532227;-1.6022339;-;-;-;-;-;-;-;-;-;-;-;-;-;-;-
1514107736491;-;-;6.5390472;-1.2232513;-3.891098;-;-;-;-;-;-;-;-;-;-;-;-;-;-;-
1514107736511;-;-;5.118103;1.0715942;-3.448166;-;-;-;-;-;-;-;-;-;-;-;-;-;-;-
1514107736532;-;-;1.4992523;1.8173981;-0.6433563;-;-;-;-;-;-;-;-;-;-;-;-;-;-;-
1514107736551;-;-;-1.142746;1.7359924;0.50704956;-;-;-;-;-;-;-;-;-;-;-;-;-;-;-
1514107736571;-;-;-1.6048279;0.25398254;-2.4378052;-;-;-;-;-;-;-;-;-;-;-;-;-;-;-
1514107736591;-;-;-0.37060547;-2.1318512;-7.61528;-;-;-;-;-;-;-;-;-;-;-;-;-;-;-
1514107736612;-;-;0.5535431;-4.5775146;-13.850967;-;-;-;-;-;-;-;-;-;-;-;-;-;-;-
1514107736632;-;-;11.070084;-5.9206696;-15.528107;-;-;-;-;-;-;-;-;-;-;-;-;-;-;-
1514107736652;-;-;38.895493;-3.5180817;4.082794;-;-;-;-;-;-;-;-;-;-;-;-;-;-;-
1514107736673;-;-;38.895493;-2.692093;3.4938202;-;-;-;-;-;-;-;-;-;-;-;-;-;-;-
1514107736694;-;-;17.292618;3.18927;-6.497177;-;-;-;-;-;-;-;-;-;-;-;-;-;-;-
1514107736714;-;-;14.825394;-5.147339;-2.9896698;-;-;-;-;-;-;-;-;-;-;-;-;-;-;-
1514107736734;-;-;7.715805;-5.4537964;3.4519196;-;-;-;-;-;-;-;-;-;-;-;-;-;-;-
1514107736755;-;-;1.1868134;-3.4450684;-0.028045654;-;-;-;-;-;-;-;-;-;-;-;-;-;-;-
1514107736776;-;-;-1.7628326;-2.6011047;-3.0842438;-;-;-;-;-;-;-;-;-;-;-;-;-;-;-
1514107736797;-;-;2.830429;-0.0021972656;-0.6900482;-;-;-;-;-;-;-;-;-;-;-;-;-;-;-
1514107736816;-;-;8.824326;1.3002472;-0.19444275;-;-;-;-;-;-;-;-;-;-;-;-;-;-;-
1514107736836;-;-;7.869034;0.54008484;-2.6473083;-;-;-;-;-;-;-;-;-;-;-;-;-;-;-
1514107736856;-;-;3.7330475;-1.8445435;-3.1884003;-;-;-;-;-;-;-;-;-;-;-;-;-;-;-
1514107736877;-;-;2.7945251;-1.8876343;-2.388733;-;-;-;-;-;-;-;-;-;-;-;-;-;-;-
1514107736897;-;-;5.0283203;-0.9251709;0.28918457;-;-;-;-;-;-;-;-;-;-;-;-;-;-;-
1514107736917;-;-;8.581314;-0.8126373;1.3210907;-;-;-;-;-;-;-;-;-;-;-;-;-;-;-
1514107736938;-;-;11.639908;-2.7591248;3.556076;-;-;-;-;-;-;-;-;-;-;-;-;-;-;-
1514107736958;-;-;12.040924;-6.7155457;-1.2622528;-;-;-;-;-;-;-;-;-;-;-;-;-;-;-
1514107736978;-;-;13.13269;-8.529144;-7.005951;-;-;-;-;-;-;-;-;-;-;-;-;-;-;-
1514107736998;-;-;13.998184;-3.3876038;-6.9688416;-;-;-;-;-;-;-;-;-;-;-;-;-;-;-
1514107737019;-;-;12.063675;0.7028961;-7.0921326;-;-;-;-;-;-;-;-;-;-;-;-;-;-;-
1514107737039;-;-;9.518631;4.090683;-5.4030304;-;-;-;-;-;-;-;-;-;-;-;-;-;-;-
1514107737059;-;-;8.629196;2.6278229;-4.342392;-;-;-;-;-;-;-;-;-;-;-;-;-;-;-
1514107737080;-;-;10.342239;-1.4159851;-2.527588;-;-;-;-;-;-;-;-;-;-;-;-;-;-;-
1514107737100;-;-;11.559692;-4.664917;-2.2606354;-;-;-;-;-;-;-;-;-;-;-;-;-;-;-
1514107737120;-;-;11.425613;-5.155716;-2.3360596;-;-;-;-;-;-;-;-;-;-;-;-;-;-;-
1514107737140;-;-;11.418442;-4.269867;-2.2103577;-;-;-;-;-;-;-;-;-;-;-;-;-;-;-
1514107737161;-;-;10.537369;-3.313385;-2.954956;-;-;-;-;-;-;-;-;-;-;-;-;-;-;-
1514107737181;-;-;6.8455048;-1.704483;-3.2530365;-;-;-;-;-;-;-;-;-;-;-;-;-;-;-
1514107737201;-;-;4.1137238;-0.39604187;-3.7905426;-;-;-;-;-;-;-;-;-;-;-;-;-;-;-
1514107737221;-;-;2.3815308;0.77711487;-4.1149445;-;-;-;-;-;-;-;-;-;-;-;-;-;-;-
1514107737242;-;-;2.904663;0.97702026;-4.5686493;-;-;-;-;-;-;-;-;-;-;-;-;-;-;-
1514107737262;-;-;6.9628296;0.8166199;-4.006012;-;-;-;-;-;-;-;-;-;-;-;-;-;-;-
1514107737282;-;-;9.33548;1.5552216;-3.2913513;-;-;-;-;-;-;-;-;-;-;-;-;-;-;-
1514107737302;-;-;8.165909;2.3740387;-3.5187988;-;-;-;-;-;-;-;-;-;-;-;-;-;-;-
1514107737323;-;-;7.2190094;2.8157654;-3.0818481;-;-;-;-;-;-;-;-;-;-;-;-;-;-;-
1514107737343;-;-;7.4177246;1.9861755;-2.2761993;-;-;-;-;-;-;-;-;-;-;-;-;-;-;-
