TimeStamp[ms];Prox[Cm];Lux[lux];AccX[m/s^2];AccY[m/s^2];AccZ[m/s^2];GyroX[rad/s];GyroY[rad/s];GyroZ[rad/s];MagnX[uT];MagnY[uT];MagnZ[uT];OrienYaw[degrees];OrienPitch[degrees];OrienRoll[degrees];Press[Pa];Temp[C°];Batt[%];Lat;Lng;Speed[m/s]
1514107757575;-;-;8.752487;-2.3197937;1.4479828;-;-;-;-;-;-;-;-;-;-;-;-;-;-;-
1514107757579;-;-;8.556168;-2.4215393;1.5293732;-;-;-;-;-;-;-;-;-;-;-;-;-;-;-
1514107757599;-;-;8.495117;-2.5711823;1.5617065;-;-;-;-;-;-;-;-;-;-;-;-;-;-;-
1514107757620;-;-;8.629196;-2.6178741;1.5712738;-;-;-;-;-;-;-;-;-;-;-;-;-;-;-
1514107757640;-;-;8.659119;-1.8325653;0.011459351;-;-;-;-;-;-;-;-;-;-;-;-;-;-;-
1514107757661;-;-;8.453217;-1.7427826;2.007019;-;-;-;-;-;-;-;-;-;-;-;-;-;-;-
1514107757681;-;-;9.268448;-1.7020874;1.1774292;-;-;-;-;-;-;-;-;-;-;-;-;-;-;-
1514107757702;-;-;8.838684;-1.4566803;0.091659546;-;-;-;-;-;-;-;-;-;-;-;-;-;-;-
1514107757722;-;-;8.7213745;-1.6494141;0.64112854;-;-;-;-;-;-;-;-;-;-;-;-;-;-;-
1514107757743;-;-;8.984726;-1.7655334;0.6279602;-;-;-;-;-;-;-;-;-;-;-;-;-;-;-
1514107757764;-;-;8.547791;-1.5680084;1.0050507;-;-;-;-;-;-;-;-;-;-;-;-;-;-;-
1514107757784;-;-;8.080917;-1.6589966;-1.0312195;-;-;-;-;-;-;-;-;-;-;-;-;-;-;-
1514107757803;-;-;11.350204;-5.9039154;-9.386978;-;-;-;-;-;-;-;-;-;-;-;-;-;-;-
1514107757825;-;-;7.906143;-1.7415924;1.7723846;-;-;-;-;-;-;-;-;-;-;-;-;-;-;-
1514107757844;-;-;7.904953;-0.8593292;1.0936432;-;-;-;-;-;-;-;-;-;-;-;-;-;-;-
1514107757864;-;-;12.078033;-0.73483276;1.330658;-;-;-;-;-;-;-;-;-;-;-;-;-;-;-
1514107757884;-;-;10.576874;0.46228027;-1.1066284;-;-;-;-;-;-;-;-;-;-;-;-;-;-;-
1514107757905;-;-;9.51265;-1.1059265;-0.7463074;-;-;-;-;-;-;-;-;-;-;-;-;-;-;-
1514107757924;-;-;9.233734;-1.803833;-0.8947449;-;-;-;-;-;-;-;-;-;-;-;-;-;-;-
1514107757944;-;-;9.163101;-2.3556976;-0.92108154;-;-;-;-;-;-;-;-;-;-;-;-;-;-;-
1514107757965;-;-;9.285202;-2.7842712;0.34783936;-;-;-;-;-;-;-;-;-;-;-;-;-;-;-
1514107757985;-;-;8.671097;-2.399994;0.9894867;-;-;-;-;-;-;-;-;-;-;-;-;-;-;-
1514107758005;-;-;8.480759;-1.838562;0.70578;-;-;-;-;-;-;-;-;-;-;-;-;-;-;-
1514107758025;-;-;8.024658;-1.7966614;-0.7199707;-;-;-;-;-;-;-;-;-;-;-;-;-;-;-
1514107758046;-;-;9.511459;-2.62146;-0.9833374;-;-;-;-;-;-;-;-;-;-;-;-;-;-;-
1514107758066;-;-;9.540192;-1.2196503;-0.6218109;-;-;-;-;-;-;-;-;-;-;-;-;-;-;-
1514107758086;-;-;9.15831;-0.7276459;-0.46020508;-;-;-;-;-;-;-;-;-;-;-;-;-;-;-
1514107758107;-;-;8.493927;-1.1226959;-0.67448425;-;-;-;-;-;-;-;-;-;-;-;-;-;-;-
1514107758127;-;-;8.463989;-1.7703247;-0.41830444;-;-;-;-;-;-;-;-;-;-;-;-;-;-;-
1514107758147;-;-;10.262039;-0.87249756;-1.2000122;-;-;-;-;-;-;-;-;-;-;-;-;-;-;-
1514107758168;-;-;10.426041;-0.4259796;-0.93785095;-;-;-;-;-;-;-;-;-;-;-;-;-;-;-
1514107758187;-;-;9.82988;-1.2136688;-1.3077545;-;-;-;-;-;-;-;-;-;-;-;-;-;-;-
1514107758207;-;-;10.208176;-0.42118835;-1.2215576;-;-;-;-;-;-;-;-;-;-;-;-;-;-;-
1514107758227;-;-;8.757278;-1.6589966;-1.6177979;-;-;-;-;-;-;-;-;-;-;-;-;-;-;-
1514107758248;-;-;9.700592;-2.597519;-1.808136;-;-;-;-;-;-;-;-;-;-;-;-;-;-;-
1514107758267;-;-;10.801926;-1.1825409;-2.0403748;-;-;-;-;-;-;-;-;-;-;-;-;-;-;-
1514107758287;-;-;10.760025;0.25637817;-1.4669647;-;-;-;-;-;-;-;-;-;-;-;-;-;-;-
1514107758307;-;-;9.011063;1.7335968;-1.069519;-;-;-;-;-;-;-;-;-;-;-;-;-;-;-
1514107758327;-;-;8.718979;1.4750214;-3.4697113;-;-;-;-;-;-;-;-;-;-;-;-;-;-;-
1514107758348;-;-;9.147537;2.9953308;-5.618515;-;-;-;-;-;-;-;-;-;-;-;-;-;-;-
1514107758368;-;-;4.7685394;2.8361206;-1.1892395;-;-;-;-;-;-;-;-;-;-;-;-;-;-;-
1514107758388;-;-;7.264496;3.117447;-1.3209229;-;-;-;-;-;-;-;-;-;-;-;-;-;-;-
1514107758409;-;-;9.550964;2.0711823;-2.3396454;-;-;-;-;-;-;-;-;-;-;-;-;-;-;-
1514107758430;-;-;8.456802;2.5164948;-2.5718842;-;-;-;-;-;-;-;-;-;-;-;-;-;-;-
1514107758450;-;-;10.361404;0.7136688;-2.9058838;-;-;-;-;-;-;-;-;-;-;-;-;-;-;-
1514107758471;-;-;2.9501495;2.490158;-1.7027893;-;-;-;-;-;-;-;-;-;-;-;-;-;-;-
1514107758491;-;-;9.278015;0.3174286;-2.9537659;-;-;-;-;-;-;-;-;-;-;-;-;-;-;-
1514107758511;-;-;10.500259;-0.25;-3.0686798;-;-;-;-;-;-;-;-;-;-;-;-;-;-;-
1514107758532;-;-;9.357025;0.06364441;-2.6137848;-;-;-;-;-;-;-;-;-;-;-;-;-;-;-
1514107758552;-;-;7.9827576;-0.44992065;-0.8887634;-;-;-;-;-;-;-;-;-;-;-;-;-;-;-
1514107758572;-;-;7.312378;0.014556885;0.8985138;-;-;-;-;-;-;-;-;-;-;-;-;-;-;-
1514107758593;-;-;7.530258;-3.2559204;0.9104767;-;-;-;-;-;-;-;-;-;-;-;-;-;-;-
1514107758612;-;-;6.6503906;-1.5835724;0.65190125;-;-;-;-;-;-;-;-;-;-;-;-;-;-;-
1514107758633;-;-;7.93248;1.4582672;-1.3245087;-;-;-;-;-;-;-;-;-;-;-;-;-;-;-
1514107758653;-;-;9.196625;1.4941711;-1.3795776;-;-;-;-;-;-;-;-;-;-;-;-;-;-;-
1514107758673;-;-;9.422867;2.0280762;-0.57632446;-;-;-;-;-;-;-;-;-;-;-;-;-;-;-
1514107758694;-;-;9.497086;1.5827637;-0.6122284;-;-;-;-;-;-;-;-;-;-;-;-;-;-;-
1514107758714;-;-;10.087265;1.0584259;-0.67807007;-;-;-;-;-;-;-;-;-;-;-;-;-;-;-
1514107758734;-;-;8.930862;1.7012787;-2.0786743;-;-;-;-;-;-;-;-;-;-;-;-;-;-;-
1514107758754;-;-;8.778824;-0.0045928955;-5.0115814;-;-;-;-;-;-;-;-;-;-;-;-;-;-;-
1514107758775;-;-;10.100433;0.2013092;-3.2518463;-;-;-;-;-;-;-;-;-;-;-;-;-;-;-
1514107758795;-;-;11.357391;1.4977722;-2.3444366;-;-;-;-;-;-;-;-;-;-;-;-;-;-;-
1514107758816;-;-;10.770813;2.9701996;-0.40393066;-;-;-;-;-;-;-;-;-;-;-;-;-;-;-
1514107758836;-;-;9.847839;2.5093079;-0.93066406;-;-;-;-;-;-;-;-;-;-;-;-;-;-;-
1514107758857;-;-;10.545746;1.2104645;-4.246628;-;-;-;-;-;-;-;-;-;-;-;-;-;-;-
1514107758877;-;-;9.467163;0.80822754;-4.778137;-;-;-;-;-;-;-;-;-;-;-;-;-;-;-
1514107758897;-;-;8.942825;0.091171265;-4.1939545;-;-;-;-;-;-;-;-;-;-;-;-;-;-;-
1514107758917;-;-;7.91333;-1.5811768;-4.1592407;-;-;-;-;-;-;-;-;-;-;-;-;-;-;-
1514107758938;-;-;7.007126;-3.9059448;-4.7266693;-;-;-;-;-;-;-;-;-;-;-;-;-;-;-
1514107758958;-;-;8.868607;-3.9370728;-4.650055;-;-;-;-;-;-;-;-;-;-;-;-;-;-;-
1514107758978;-;-;9.807144;-1.4207611;-4.263397;-;-;-;-;-;-;-;-;-;-;-;-;-;-;-
1514107758998;-;-;10.423645;1.358902;-2.8292694;-;-;-;-;-;-;-;-;-;-;-;-;-;-;-
1514107759019;-;-;10.499069;2.5787506;-2.5491486;-;-;-;-;-;-;-;-;-;-;-;-;-;-;-
1514107759039;-;-;9.487518;1.8173981;-2.7203217;-;-;-;-;-;-;-;-;-;-;-;-;-;-;-
1514107759059;-;-;8.817139;-0.5313263;-2.4306335;-;-;-;-;-;-;-;-;-;-;-;-;-;-;-
1514107759080;-;-;7.477585;-2.1402283;-1.8799591;-;-;-;-;-;-;-;-;-;-;-;-;-;-;-
1514107759100;-;-;5.192322;-2.890808;-1.4286499;-;-;-;-;-;-;-;-;-;-;-;-;-;-;-
1514107759120;-;-;4.2968903;-2.3712616;-1.90271;-;-;-;-;-;-;-;-;-;-;-;-;-;-;-
1514107759141;-;-;4.201111;-0.368515;-1.7853851;-;-;-;-;-;-;-;-;-;-;-;-;-;-;-
1514107759161;-;-;5.4449005;2.0089264;-1.4418182;-;-;-;-;-;-;-;-;-;-;-;-;-;-;-
1514107759182;-;-;5.3311768;3.000122;-1.737503;-;-;-;-;-;-;-;-;-;-;-;-;-;-;-
1514107759202;-;-;6.1296387;2.315384;-1.1353607;-;-;-;-;-;-;-;-;-;-;-;-;-;-;-
1514107759223;-;-;7.904953;0.86450195;-0.78700256;-;-;-;-;-;-;-;-;-;-;-;-;-;-;-
1514107759243;-;-;9.951996;0.007369995;-0.6900482;-;-;-;-;-;-;-;-;-;-;-;-;-;-;-
1514107759263;-;-;11.700958;-0.77911377;-1.2179718;-;-;-;-;-;-;-;-;-;-;-;-;-;-;-
1514107759283;-;-;11.781158;-2.377243;-0.9809418;-;-;-;-;-;-;-;-;-;-;-;-;-;-;-
1514107759304;-;-;11.358582;-2.7028656;-1.7207489;-;-;-;-;-;-;-;-;-;-;-;-;-;-;-
1514107759324;-;-;10.398514;-2.6465912;-2.9633331;-;-;-;-;-;-;-;-;-;-;-;-;-;-;-
1514107759344;-;-;7.7577057;-1.7715149;-4.5255585;-;-;-;-;-;-;-;-;-;-;-;-;-;-;-
1514107759365;-;-;4.5351105;-0.1482544;-5.0750275;-;-;-;-;-;-;-;-;-;-;-;-;-;-;-
1514107759385;-;-;1.2478638;1.1817322;-2.5359802;-;-;-;-;-;-;-;-;-;-;-;-;-;-;-
1514107759405;-;-;-0.4711609;1.0009613;0.091659546;-;-;-;-;-;-;-;-;-;-;-;-;-;-;-
1514107759426;-;-;-0.9320526;0.7950592;-0.051986694;-;-;-;-;-;-;-;-;-;-;-;-;-;-;-
1514107759446;-;-;2.0894318;1.3205872;-2.1038208;-;-;-;-;-;-;-;-;-;-;-;-;-;-;-
1514107759466;-;-;3.3942719;3.1521606;-4.3591614;-;-;-;-;-;-;-;-;-;-;-;-;-;-;-
1514107759487;-;-;10.121979;2.1418;-2.389923;-;-;-;-;-;-;-;-;-;-;-;-;-;-;-
1514107759506;-;-;18.062347;-1.5584412;-1.3496399;-;-;-;-;-;-;-;-;-;-;-;-;-;-;-
1514107759526;-;-;24.851105;-3.6761017;0.074905396;-;-;-;-;-;-;-;-;-;-;-;-;-;-;-
1514107759547;-;-;25.255722;-1.9965668;-4.2657776;-;-;-;-;-;-;-;-;-;-;-;-;-;-;-
1514107759566;-;-;17.147766;1.6653595;-2.4904785;-;-;-;-;-;-;-;-;-;-;-;-;-;-;-
1514107759586;-;-;9.419281;3.5436096;-0.2962036;-;-;-;-;-;-;-;-;-;-;-;-;-;-;-
1514107759607;-;-;5.932129;3.8033752;2.2141266;-;-;-;-;-;-;-;-;-;-;-;-;-;-;-
1514107759626;-;-;6.9472656;3.0959015;2.520584;-;-;-;-;-;-;-;-;-;-;-;-;-;-;-
1514107759646;-;-;10.329071;0.37249756;-3.8791199;-;-;-;-;-;-;-;-;-;-;-;-;-;-;-
1514107759666;-;-;8.894943;-1.1801453;-6.393036;-;-;-;-;-;-;-;-;-;-;-;-;-;-;-
1514107759687;-;-;5.662781;-2.5723724;-4.922989;-;-;-;-;-;-;-;-;-;-;-;-;-;-;-
1514107759707;-;-;3.5271454;-2.8489075;-1.2718353;-;-;-;-;-;-;-;-;-;-;-;-;-;-;-
1514107759727;-;-;0.7798004;-3.3504944;2.7612;-;-;-;-;-;-;-;-;-;-;-;-;-;-;-
1514107759747;-;-;-3.0305634;-3.538437;3.7236633;-;-;-;-;-;-;-;-;-;-;-;-;-;-;-
1514107759768;-;-;-5.2631683;-2.221634;-3.820465;-;-;-;-;-;-;-;-;-;-;-;-;-;-;-
1514107759788;-;-;-4.4347687;-0.08480835;-10.199814;-;-;-;-;-;-;-;-;-;-;-;-;-;-;-
1514107759808;-;-;8.851852;2.0209045;-7.7840576;-;-;-;-;-;-;-;-;-;-;-;-;-;-;-
1514107759829;-;-;21.00003;5.1716614;-4.0275574;-;-;-;-;-;-;-;-;-;-;-;-;-;-;-
1514107759848;-;-;28.662674;3.833313;-1.2550812;-;-;-;-;-;-;-;-;-;-;-;-;-;-;-
1514107759868;-;-;28.774002;1.9861755;0.46754456;-;-;-;-;-;-;-;-;-;-;-;-;-;-;-
1514107759888;-;-;25.540634;-3.3265533;0.43762207;-;-;-;-;-;-;-;-;-;-;-;-;-;-;-
1514107759908;-;-;14.172974;-5.906311;1.4479828;-;-;-;-;-;-;-;-;-;-;-;-;-;-;-
1514107759929;-;-;6.913742;-5.246704;4.16539;-;-;-;-;-;-;-;-;-;-;-;-;-;-;-
1514107759948;-;-;2.4988403;-4.4422455;-1.2227478;-;-;-;-;-;-;-;-;-;-;-;-;-;-;-
1514107759969;-;-;1.2742004;-2.7447662;-4.2729645;-;-;-;-;-;-;-;-;-;-;-;-;-;-;-
1514107759989;-;-;6.0853577;0.088775635;-6.361908;-;-;-;-;-;-;-;-;-;-;-;-;-;-;-
1514107760010;-;-;8.817139;2.2902527;-4.8583527;-;-;-;-;-;-;-;-;-;-;-;-;-;-;-
1514107760029;-;-;5.313217;3.9183044;-1.6560974;-;-;-;-;-;-;-;-;-;-;-;-;-;-;-
1514107760049;-;-;1.8703613;4.4905243;-0.025650024;-;-;-;-;-;-;-;-;-;-;-;-;-;-;-
1514107760069;-;-;-2.8402252;3.7004242;-0.49012756;-;-;-;-;-;-;-;-;-;-;-;-;-;-;-
1514107760090;-;-;-4.6107483;0.71725464;-1.3197174;-;-;-;-;-;-;-;-;-;-;-;-;-;-;-
1514107760110;-;-;-2.467926;-2.1629639;-4.828415;-;-;-;-;-;-;-;-;-;-;-;-;-;-;-
1514107760130;-;-;3.4864502;-3.53125;-4.8978577;-;-;-;-;-;-;-;-;-;-;-;-;-;-;-
1514107760151;-;-;14.964249;-6.71434;0.3095398;-;-;-;-;-;-;-;-;-;-;-;-;-;-;-
1514107760171;-;-;26.833511;-7.336838;-3.4469604;-;-;-;-;-;-;-;-;-;-;-;-;-;-;-
1514107760191;-;-;36.357635;-1.8098297;-7.8618774;-;-;-;-;-;-;-;-;-;-;-;-;-;-;-
1514107760211;-;-;37.241104;5.026825;1.9747009;-;-;-;-;-;-;-;-;-;-;-;-;-;-;-
1514107760232;-;-;9.613205;8.159637;0.7943573;-;-;-;-;-;-;-;-;-;-;-;-;-;-;-
1514107760252;-;-;0.46138;5.9342194;-3.9246063;-;-;-;-;-;-;-;-;-;-;-;-;-;-;-
1514107760272;-;-;-1.4156799;1.1936951;-1.447815;-;-;-;-;-;-;-;-;-;-;-;-;-;-;-
1514107760293;-;-;0.5379944;-2.906372;-1.7063904;-;-;-;-;-;-;-;-;-;-;-;-;-;-;-
1514107760312;-;-;1.3735657;-4.5260468;-2.1026306;-;-;-;-;-;-;-;-;-;-;-;-;-;-;-
1514107760332;-;-;3.378708;-5.2562714;-2.8460236;-;-;-;-;-;-;-;-;-;-;-;-;-;-;-
1514107760353;-;-;3.9784546;-5.112625;-2.8352509;-;-;-;-;-;-;-;-;-;-;-;-;-;-;-
1514107760373;-;-;2.233078;-2.8656616;0.8877411;-;-;-;-;-;-;-;-;-;-;-;-;-;-;-
1514107760393;-;-;-0.07254028;-0.8569336;0.10003662;-;-;-;-;-;-;-;-;-;-;-;-;-;-;-
1514107760414;-;-;-1.6024323;0.5065613;-7.580551;-;-;-;-;-;-;-;-;-;-;-;-;-;-;-
1514107760433;-;-;0.87316895;1.96344;-8.086929;-;-;-;-;-;-;-;-;-;-;-;-;-;-;-
1514107760453;-;-;12.27916;2.608673;-8.984756;-;-;-;-;-;-;-;-;-;-;-;-;-;-;-
1514107760474;-;-;29.876541;4.2235565;2.776764;-;-;-;-;-;-;-;-;-;-;-;-;-;-;-
1514107760494;-;-;37.21237;0.73161316;-0.7187805;-;-;-;-;-;-;-;-;-;-;-;-;-;-;-
1514107760514;-;-;27.9516;-3.0332642;0.23651123;-;-;-;-;-;-;-;-;-;-;-;-;-;-;-
1514107760534;-;-;19.99327;-9.839981;-1.4466095;-;-;-;-;-;-;-;-;-;-;-;-;-;-;-
1514107760555;-;-;10.005859;-10.78569;-0.25549316;-;-;-;-;-;-;-;-;-;-;-;-;-;-;-
1514107760575;-;-;5.3814545;-3.8137665;-1.784195;-;-;-;-;-;-;-;-;-;-;-;-;-;-;-
1514107760596;-;-;0.28659058;-0.1302948;-3.919815;-;-;-;-;-;-;-;-;-;-;-;-;-;-;-
1514107760615;-;-;-2.6822205;2.5105133;-5.7633514;-;-;-;-;-;-;-;-;-;-;-;-;-;-;-
1514107760635;-;-;-1.637146;5.363205;-4.089813;-;-;-;-;-;-;-;-;-;-;-;-;-;-;-
1514107760656;-;-;3.0064087;5.291382;1.0792694;-;-;-;-;-;-;-;-;-;-;-;-;-;-;-
1514107760676;-;-;0.28779602;3.470581;-0.77145386;-;-;-;-;-;-;-;-;-;-;-;-;-;-;-
1514107760696;-;-;-0.9248657;2.4925537;-1.8823547;-;-;-;-;-;-;-;-;-;-;-;-;-;-;-
1514107760716;-;-;0.24589539;-0.21289063;-4.0311584;-;-;-;-;-;-;-;-;-;-;-;-;-;-;-
1514107760736;-;-;1.9589539;-4.982147;-4.51239;-;-;-;-;-;-;-;-;-;-;-;-;-;-;-
1514107760757;-;-;7.3614655;-8.231079;-1.3879547;-;-;-;-;-;-;-;-;-;-;-;-;-;-;-
1514107760776;-;-;21.124527;-5.5651245;4.009781;-;-;-;-;-;-;-;-;-;-;-;-;-;-;-
1514107760796;-;-;29.015823;-0.37449646;-4.3962708;-;-;-;-;-;-;-;-;-;-;-;-;-;-;-
1514107760817;-;-;36.618607;3.1533508;-5.556259;-;-;-;-;-;-;-;-;-;-;-;-;-;-;-
1514107760837;-;-;25.872238;3.259903;-2.388733;-;-;-;-;-;-;-;-;-;-;-;-;-;-;-
1514107760857;-;-;7.327942;2.8349304;0.81829834;-;-;-;-;-;-;-;-;-;-;-;-;-;-;-
1514107760877;-;-;-0.44244385;2.2591248;-2.254654;-;-;-;-;-;-;-;-;-;-;-;-;-;-;-
1514107760897;-;-;-1.3725891;0.7723236;-1.5244293;-;-;-;-;-;-;-;-;-;-;-;-;-;-;-
1514107760918;-;-;2.0200043;-1.9103851;-3.7318726;-;-;-;-;-;-;-;-;-;-;-;-;-;-;-
1514107760938;-;-;3.5678558;-3.3002167;-3.6480865;-;-;-;-;-;-;-;-;-;-;-;-;-;-;-
1514107760958;-;-;3.916214;-4.144165;-0.82292175;-;-;-;-;-;-;-;-;-;-;-;-;-;-;-
1514107760979;-;-;3.0542908;-4.2519073;-0.5056915;-;-;-;-;-;-;-;-;-;-;-;-;-;-;-
1514107760999;-;-;1.6967773;-3.4905548;0.48310852;-;-;-;-;-;-;-;-;-;-;-;-;-;-;-
1514107761019;-;-;2.2701874;-2.221634;-9.461197;-;-;-;-;-;-;-;-;-;-;-;-;-;-;-
1514107761040;-;-;1.9625397;1.0811768;-11.370575;-;-;-;-;-;-;-;-;-;-;-;-;-;-;-
1514107761060;-;-;9.330688;4.121811;-3.6205444;-;-;-;-;-;-;-;-;-;-;-;-;-;-;-
1514107761080;-;-;19.338455;6.2837677;-0.22198486;-;-;-;-;-;-;-;-;-;-;-;-;-;-;-
1514107761101;-;-;25.973984;3.628601;0.40290833;-;-;-;-;-;-;-;-;-;-;-;-;-;-;-
1514107761120;-;-;26.564163;-3.1421967;-0.56674194;-;-;-;-;-;-;-;-;-;-;-;-;-;-;-
1514107761140;-;-;25.001938;-8.616547;-0.14057922;-;-;-;-;-;-;-;-;-;-;-;-;-;-;-
1514107761160;-;-;16.759903;-11.146011;1.3055267;-;-;-;-;-;-;-;-;-;-;-;-;-;-;-
1514107761181;-;-;9.288788;-7.04953;1.2301025;-;-;-;-;-;-;-;-;-;-;-;-;-;-;-
1514107761201;-;-;3.5355225;-2.1845245;-3.7701874;-;-;-;-;-;-;-;-;-;-;-;-;-;-;-
1514107761221;-;-;-1.5964355;1.5480499;-7.390213;-;-;-;-;-;-;-;-;-;-;-;-;-;-;-
1514107761242;-;-;-2.4344177;3.1605377;-4.891861;-;-;-;-;-;-;-;-;-;-;-;-;-;-;-
1514107761262;-;-;1.544754;4.2546844;-0.23036194;-;-;-;-;-;-;-;-;-;-;-;-;-;-;-
1514107761282;-;-;3.1548462;3.1880646;1.0744781;-;-;-;-;-;-;-;-;-;-;-;-;-;-;-
1514107761302;-;-;-0.050979614;2.631424;-1.4992828;-;-;-;-;-;-;-;-;-;-;-;-;-;-;-
1514107761322;-;-;-0.6746826;1.6150818;-3.1309357;-;-;-;-;-;-;-;-;-;-;-;-;-;-;-
1514107761343;-;-;1.5519257;-2.1390228;-2.5694885;-;-;-;-;-;-;-;-;-;-;-;-;-;-;-
1514107761363;-;-;5.300049;-3.3097992;-2.7945404;-;-;-;-;-;-;-;-;-;-;-;-;-;-;-
1514107761383;-;-;12.640671;-3.941864;-1.3256989;-;-;-;-;-;-;-;-;-;-;-;-;-;-;-
1514107761404;-;-;19.479721;-4.1226196;-5.8806763;-;-;-;-;-;-;-;-;-;-;-;-;-;-;-
1514107761424;-;-;32.26834;-0.062057495;-5.8339844;-;-;-;-;-;-;-;-;-;-;-;-;-;-;-
1514107761444;-;-;37.98091;3.5998688;-2.8903198;-;-;-;-;-;-;-;-;-;-;-;-;-;-;-
1514107761464;-;-;18.557953;4.5000916;-0.6589203;-;-;-;-;-;-;-;-;-;-;-;-;-;-;-
1514107761485;-;-;3.6133423;3.489746;-2.148117;-;-;-;-;-;-;-;-;-;-;-;-;-;-;-
1514107761505;-;-;-1.9244537;0.38327026;-3.1069946;-;-;-;-;-;-;-;-;-;-;-;-;-;-;-
1514107761526;-;-;-1.7724152;-3.68927;1.7580261;-;-;-;-;-;-;-;-;-;-;-;-;-;-;-
1514107761545;-;-;-0.19464111;-6.807724;1.310318;-;-;-;-;-;-;-;-;-;-;-;-;-;-;-
1514107761565;-;-;7.0741577;-4.317749;-1.2814178;-;-;-;-;-;-;-;-;-;-;-;-;-;-;-
1514107761585;-;-;6.826355;-3.3876038;-3.9653168;-;-;-;-;-;-;-;-;-;-;-;-;-;-;-
1514107761606;-;-;3.6935425;-2.8237762;-3.6133575;-;-;-;-;-;-;-;-;-;-;-;-;-;-;-
1514107761626;-;-;0.4721527;-1.3309784;-0.5607605;-;-;-;-;-;-;-;-;-;-;-;-;-;-;-
1514107761646;-;-;-0.89494324;0.045684814;-1.4202728;-;-;-;-;-;-;-;-;-;-;-;-;-;-;-
1514107761667;-;-;-2.1878052;1.1158905;-4.4669037;-;-;-;-;-;-;-;-;-;-;-;-;-;-;-
1514107761687;-;-;1.4166565;0.6538086;-10.371002;-;-;-;-;-;-;-;-;-;-;-;-;-;-;-
1514107761707;-;-;10.79834;0.96624756;-7.4799957;-;-;-;-;-;-;-;-;-;-;-;-;-;-;-
1514107761727;-;-;30.010605;1.5420532;2.242859;-;-;-;-;-;-;-;-;-;-;-;-;-;-;-
1514107761747;-;-;34.879227;-3.6988525;-0.44943237;-;-;-;-;-;-;-;-;-;-;-;-;-;-;-
1514107761768;-;-;24.821182;-3.9550323;-3.341629;-;-;-;-;-;-;-;-;-;-;-;-;-;-;-
1514107761788;-;-;14.182541;-2.1737366;0.99786377;-;-;-;-;-;-;-;-;-;-;-;-;-;-;-
1514107761808;-;-;5.758545;-1.4028168;4.279114;-;-;-;-;-;-;-;-;-;-;-;-;-;-;-
1514107761828;-;-;3.4469452;-1.2483826;1.8214722;-;-;-;-;-;-;-;-;-;-;-;-;-;-;-
1514107761849;-;-;-1.1283722;-0.3086548;-0.6912384;-;-;-;-;-;-;-;-;-;-;-;-;-;-;-
1514107761868;-;-;5.248581;-2.5412598;-0.44224548;-;-;-;-;-;-;-;-;-;-;-;-;-;-;-
1514107761888;-;-;13.343369;-2.8213806;-2.2761993;-;-;-;-;-;-;-;-;-;-;-;-;-;-;-
1514107761909;-;-;14.904388;-0.7851105;-4.5746307;-;-;-;-;-;-;-;-;-;-;-;-;-;-;-
1514107761929;-;-;9.325912;-0.94192505;-3.9377747;-;-;-;-;-;-;-;-;-;-;-;-;-;-;-
1514107761949;-;-;3.7929077;-0.8605194;-1.8464508;-;-;-;-;-;-;-;-;-;-;-;-;-;-;-
1514107761970;-;-;0.9270477;-0.11352539;-0.33450317;-;-;-;-;-;-;-;-;-;-;-;-;-;-;-
1514107761989;-;-;0.4326477;0.098358154;-1.4741516;-;-;-;-;-;-;-;-;-;-;-;-;-;-;-
1514107762009;-;-;-0.5669403;0.4514923;-3.8348236;-;-;-;-;-;-;-;-;-;-;-;-;-;-;-
1514107762029;-;-;0.39074707;-0.33499146;-7.986374;-;-;-;-;-;-;-;-;-;-;-;-;-;-;-
1514107762050;-;-;6.8371277;-0.581604;2.1794128;-;-;-;-;-;-;-;-;-;-;-;-;-;-;-
1514107762070;-;-;18.769836;-0.5851898;-0.62779236;-;-;-;-;-;-;-;-;-;-;-;-;-;-;-
1514107762090;-;-;28.457977;1.0009613;-8.692657;-;-;-;-;-;-;-;-;-;-;-;-;-;-;-
1514107762111;-;-;37.880356;3.8237305;-4.3112793;-;-;-;-;-;-;-;-;-;-;-;-;-;-;-
1514107762131;-;-;31.103561;-0.10635376;-8.496338;-;-;-;-;-;-;-;-;-;-;-;-;-;-;-
1514107762151;-;-;7.0346527;-2.3185883;3.2831268;-;-;-;-;-;-;-;-;-;-;-;-;-;-;-
1514107762171;-;-;2.2546234;-2.9949493;4.061249;-;-;-;-;-;-;-;-;-;-;-;-;-;-;-
1514107762192;-;-;1.1520996;-4.3907776;1.0373688;-;-;-;-;-;-;-;-;-;-;-;-;-;-;-
1514107762212;-;-;-0.62080383;-3.84729;-2.1804352;-;-;-;-;-;-;-;-;-;-;-;-;-;-;-
1514107762233;-;-;6.7796783;-0.70729065;-0.67567444;-;-;-;-;-;-;-;-;-;-;-;-;-;-;-
1514107762253;-;-;6.407379;1.5624084;-2.8927155;-;-;-;-;-;-;-;-;-;-;-;-;-;-;-
1514107762274;-;-;4.465683;2.1082916;-2.0499573;-;-;-;-;-;-;-;-;-;-;-;-;-;-;-
1514107762294;-;-;6.0877533;1.130249;-2.8508148;-;-;-;-;-;-;-;-;-;-;-;-;-;-;-
1514107762314;-;-;11.51181;0.259964;-1.618988;-;-;-;-;-;-;-;-;-;-;-;-;-;-;-
1514107762334;-;-;10.167465;1.4283295;-2.8508148;-;-;-;-;-;-;-;-;-;-;-;-;-;-;-
1514107762355;-;-;7.944458;1.4367065;-5.52034;-;-;-;-;-;-;-;-;-;-;-;-;-;-;-
1514107762374;-;-;7.43808;-3.11586;-6.5857697;-;-;-;-;-;-;-;-;-;-;-;-;-;-;-
1514107762394;-;-;10.220139;-10.558243;-2.3863373;-;-;-;-;-;-;-;-;-;-;-;-;-;-;-
1514107762414;-;-;13.72525;-13.619232;-5.6604004;-;-;-;-;-;-;-;-;-;-;-;-;-;-;-
1514107762435;-;-;15.468231;-5.2718353;-6.942505;-;-;-;-;-;-;-;-;-;-;-;-;-;-;-
1514107762455;-;-;14.668564;2.9785767;-6.729416;-;-;-;-;-;-;-;-;-;-;-;-;-;-;-
1514107762475;-;-;14.147827;6.4358063;-4.9002533;-;-;-;-;-;-;-;-;-;-;-;-;-;-;-
1514107762496;-;-;12.228882;2.0400543;-4.1305084;-;-;-;-;-;-;-;-;-;-;-;-;-;-;-
1514107762516;-;-;6.6862946;-2.004959;-2.3360596;-;-;-;-;-;-;-;-;-;-;-;-;-;-;-
1514107762536;-;-;4.007187;-4.1573334;-0.4446411;-;-;-;-;-;-;-;-;-;-;-;-;-;-;-
1514107762557;-;-;2.7406464;-4.0507965;0.017440796;-;-;-;-;-;-;-;-;-;-;-;-;-;-;-
1514107762576;-;-;2.0343628;-2.977005;-0.109451294;-;-;-;-;-;-;-;-;-;-;-;-;-;-;-
1514107762596;-;-;2.9681091;-2.1234589;-1.100647;-;-;-;-;-;-;-;-;-;-;-;-;-;-;-
1514107762617;-;-;4.7122803;-1.443512;-1.7458801;-;-;-;-;-;-;-;-;-;-;-;-;-;-;-
1514107762636;-;-;7.143585;-0.7084961;-1.5136566;-;-;-;-;-;-;-;-;-;-;-;-;-;-;-
1514107762656;-;-;8.745316;0.10913086;-1.0755157;-;-;-;-;-;-;-;-;-;-;-;-;-;-;-
1514107762677;-;-;9.39534;0.27911377;-1.0862885;-;-;-;-;-;-;-;-;-;-;-;-;-;-;-
1514107762697;-;-;9.74968;-0.035720825;-0.21359253;-;-;-;-;-;-;-;-;-;-;-;-;-;-;-
1514107762717;-;-;11.308304;-1.4650574;0.5764923;-;-;-;-;-;-;-;-;-;-;-;-;-;-;-
1514107762737;-;-;13.150635;-3.8424988;1.3964996;-;-;-;-;-;-;-;-;-;-;-;-;-;-;-
1514107762758;-;-;12.582016;-4.7499084;1.725708;-;-;-;-;-;-;-;-;-;-;-;-;-;-;-
1514107762778;-;-;10.847427;-5.360428;1.0684967;-;-;-;-;-;-;-;-;-;-;-;-;-;-;-
1514107762798;-;-;8.019867;-6.352829;-5.235443;-;-;-;-;-;-;-;-;-;-;-;-;-;-;-
1514107762819;-;-;7.02507;-8.093414;-11.346634;-;-;-;-;-;-;-;-;-;-;-;-;-;-;-
1514107762839;-;-;10.807922;-4.336899;-7.697876;-;-;-;-;-;-;-;-;-;-;-;-;-;-;-
1514107762859;-;-;10.678635;0.88365173;-4.3268433;-;-;-;-;-;-;-;-;-;-;-;-;-;-;-
1514107762880;-;-;11.127548;2.7619019;-4.1341095;-;-;-;-;-;-;-;-;-;-;-;-;-;-;-
1514107762900;-;-;12.165436;1.5492401;-6.176361;-;-;-;-;-;-;-;-;-;-;-;-;-;-;-
1514107762920;-;-;11.736862;-2.6884918;-6.571396;-;-;-;-;-;-;-;-;-;-;-;-;-;-;-
1514107762940;-;-;10.977905;-5.061157;-3.8432007;-;-;-;-;-;-;-;-;-;-;-;-;-;-;-
1514107762961;-;-;8.657928;-2.6226501;-1.7363129;-;-;-;-;-;-;-;-;-;-;-;-;-;-;-
1514107762982;-;-;7.051407;-0.43196106;-2.2355042;-;-;-;-;-;-;-;-;-;-;-;-;-;-;-
1514107763002;-;-;6.45166;-0.63905334;-3.1417084;-;-;-;-;-;-;-;-;-;-;-;-;-;-;-
1514107763022;-;-;6.2146454;-1.609909;-4.3926697;-;-;-;-;-;-;-;-;-;-;-;-;-;-;-
1514107763043;-;-;5.860306;-0.76594543;-4.677582;-;-;-;-;-;-;-;-;-;-;-;-;-;-;-
1514107763063;-;-;5.565811;0.6538086;-3.9461517;-;-;-;-;-;-;-;-;-;-;-;-;-;-;-
1514107763083;-;-;5.9788055;1.0955353;-3.1057892;-;-;-;-;-;-;-;-;-;-;-;-;-;-;-
1514107763103;-;-;8.210205;1.3086243;-2.3743591;-;-;-;-;-;-;-;-;-;-;-;-;-;-;-
1514107763123;-;-;9.658707;1.9251251;-2.1864166;-;-;-;-;-;-;-;-;-;-;-;-;-;-;-
1514107763144;-;-;8.8003845;2.6613464;-2.3935242;-;-;-;-;-;-;-;-;-;-;-;-;-;-;-
1514107763164;-;-;6.8359375;1.9909668;-2.278595;-;-;-;-;-;-;-;-;-;-;-;-;-;-;-
1514107763184;-;-;6.457657;0.22764587;-0.61343384;-;-;-;-;-;-;-;-;-;-;-;-;-;-;-
1514107763205;-;-;8.18866;-1.9259491;0.04498291;-;-;-;-;-;-;-;-;-;-;-;-;-;-;-
1514107763225;-;-;8.960785;-1.3262024;-1.2419128;-;-;-;-;-;-;-;-;-;-;-;-;-;-;-
1514107763245;-;-;9.261261;-0.38049316;-1.7111664;-;-;-;-;-;-;-;-;-;-;-;-;-;-;-
1514107763266;-;-;9.665878;0.5879669;-2.5491486;-;-;-;-;-;-;-;-;-;-;-;-;-;-;-
1514107763286;-;-;9.609619;1.2272186;-2.0032654;-;-;-;-;-;-;-;-;-;-;-;-;-;-;-
1514107763306;-;-;9.837067;1.1350403;-1.98172;-;-;-;-;-;-;-;-;-;-;-;-;-;-;-
1514107763327;-;-;9.179855;0.9016113;-5.693924;-;-;-;-;-;-;-;-;-;-;-;-;-;-;-
1514107763346;-;-;8.282028;-0.088394165;-10.18425;-;-;-;-;-;-;-;-;-;-;-;-;-;-;-
1514107763366;-;-;9.577301;-3.2714844;-3.449356;-;-;-;-;-;-;-;-;-;-;-;-;-;-;-
1514107763387;-;-;10.092056;-5.160507;-2.5718842;-;-;-;-;-;-;-;-;-;-;-;-;-;-;-
1514107763407;-;-;8.672287;-4.4889374;-5.1540375;-;-;-;-;-;-;-;-;-;-;-;-;-;-;-
1514107763427;-;-;10.4021;-3.4271088;-4.2873383;-;-;-;-;-;-;-;-;-;-;-;-;-;-;-
1514107763447;-;-;13.065643;-1.0628357;-3.0483398;-;-;-;-;-;-;-;-;-;-;-;-;-;-;-
1514107763468;-;-;12.158249;0.833374;-3.2506409;-;-;-;-;-;-;-;-;-;-;-;-;-;-;-
1514107763488;-;-;9.266052;1.5695953;-2.168457;-;-;-;-;-;-;-;-;-;-;-;-;-;-;-
1514107763508;-;-;7.9205017;1.837738;-1.6764526;-;-;-;-;-;-;-;-;-;-;-;-;-;-;-
1514107763529;-;-;6.9508514;1.1158905;-1.8979187;-;-;-;-;-;-;-;-;-;-;-;-;-;-;-
1514107763549;-;-;4.1316833;-0.2392273;-1.3759766;-;-;-;-;-;-;-;-;-;-;-;-;-;-;-
1514107763569;-;-;3.1811829;-1.3657074;-0.8576355;-;-;-;-;-;-;-;-;-;-;-;-;-;-;-
1514107763590;-;-;4.154434;-1.3393707;-0.72476196;-;-;-;-;-;-;-;-;-;-;-;-;-;-;-
1514107763610;-;-;6.6707306;-0.7156677;-1.4861145;-;-;-;-;-;-;-;-;-;-;-;-;-;-;-
1514107763630;-;-;9.31633;0.6107178;-1.6549072;-;-;-;-;-;-;-;-;-;-;-;-;-;-;-
1514107763651;-;-;11.380127;1.7479553;-1.3340912;-;-;-;-;-;-;-;-;-;-;-;-;-;-;-
1514107763671;-;-;11.946365;1.0560303;-1.2107849;-;-;-;-;-;-;-;-;-;-;-;-;-;-;-
1514107763692;-;-;11.27359;-0.19134521;-0.14297485;-;-;-;-;-;-;-;-;-;-;-;-;-;-;-
1514107763712;-;-;10.452377;-3.0081177;-2.9441833;-;-;-;-;-;-;-;-;-;-;-;-;-;-;-
1514107763731;-;-;9.072113;-4.10466;-5.398239;-;-;-;-;-;-;-;-;-;-;-;-;-;-;-
1514107763751;-;-;5.106125;-4.4865417;-5.6675873;-;-;-;-;-;-;-;-;-;-;-;-;-;-;-
1514107763771;-;-;2.679596;-2.8022156;-4.5901947;-;-;-;-;-;-;-;-;-;-;-;-;-;-;-
1514107763791;-;-;0.7510681;0.8297882;-0.7199707;-;-;-;-;-;-;-;-;-;-;-;-;-;-;-
1514107763812;-;-;0.14413452;3.5603638;3.3645325;-;-;-;-;-;-;-;-;-;-;-;-;-;-;-
1514107763832;-;-;0.3859558;4.884369;0.5513458;-;-;-;-;-;-;-;-;-;-;-;-;-;-;-
1514107763852;-;-;-1.0493622;5.028015;-1.9062958;-;-;-;-;-;-;-;-;-;-;-;-;-;-;-
1514107763873;-;-;4.348358;2.138214;-6.903;-;-;-;-;-;-;-;-;-;-;-;-;-;-;-
1514107763893;-;-;7.707428;-1.5536499;-5.491623;-;-;-;-;-;-;-;-;-;-;-;-;-;-;-
1514107763913;-;-;19.2379;-6.356415;4.513748;-;-;-;-;-;-;-;-;-;-;-;-;-;-;-
1514107763934;-;-;22.505981;-5.760254;-0.030441284;-;-;-;-;-;-;-;-;-;-;-;-;-;-;-
1514107763954;-;-;19.13974;-2.28508;-1.5387878;-;-;-;-;-;-;-;-;-;-;-;-;-;-;-
1514107763974;-;-;15.105515;0.95188904;-2.539566;-;-;-;-;-;-;-;-;-;-;-;-;-;-;-
1514107763994;-;-;10.673843;4.01886;-1.8452454;-;-;-;-;-;-;-;-;-;-;-;-;-;-;-
1514107764015;-;-;6.7377777;6.13533;2.6630402;-;-;-;-;-;-;-;-;-;-;-;-;-;-;-
1514107764035;-;-;6.1607666;4.767044;5.077591;-;-;-;-;-;-;-;-;-;-;-;-;-;-;-
1514107764055;-;-;10.578079;0.14263916;-0.50450134;-;-;-;-;-;-;-;-;-;-;-;-;-;-;-
1514107764076;-;-;12.965088;-3.7096252;-3.7270966;-;-;-;-;-;-;-;-;-;-;-;-;-;-;-
1514107764096;-;-;8.953613;-4.142975;-4.29451;-;-;-;-;-;-;-;-;-;-;-;-;-;-;-
1514107764116;-;-;4.427368;-3.658142;-5.3168335;-;-;-;-;-;-;-;-;-;-;-;-;-;-;-
1514107764136;-;-;2.2342834;-2.4969635;-4.0586853;-;-;-;-;-;-;-;-;-;-;-;-;-;-;-
1514107764157;-;-;0.4051056;-2.329361;-1.6393433;-;-;-;-;-;-;-;-;-;-;-;-;-;-;-
1514107764177;-;-;-2.5601044;-2.309021;2.2009583;-;-;-;-;-;-;-;-;-;-;-;-;-;-;-
1514107764198;-;-;-4.348572;-0.20930481;-3.95932;-;-;-;-;-;-;-;-;-;-;-;-;-;-;-
1514107764218;-;-;1.1820221;-0.44154358;-12.033768;-;-;-;-;-;-;-;-;-;-;-;-;-;-;-
1514107764238;-;-;11.799118;1.3768616;-6.602524;-;-;-;-;-;-;-;-;-;-;-;-;-;-;-
1514107764258;-;-;27.910889;8.096191;3.1777954;-;-;-;-;-;-;-;-;-;-;-;-;-;-;-
1514107764279;-;-;25.74414;6.0503387;-4.289734;-;-;-;-;-;-;-;-;-;-;-;-;-;-;-
1514107764299;-;-;26.608444;-4.168106;2.52417;-;-;-;-;-;-;-;-;-;-;-;-;-;-;-
1514107764319;-;-;21.375916;-11.287277;-0.9174957;-;-;-;-;-;-;-;-;-;-;-;-;-;-;-
1514107764340;-;-;11.284363;-11.705063;0.9104767;-;-;-;-;-;-;-;-;-;-;-;-;-;-;-
1514107764360;-;-;5.4520874;-6.5048523;-2.2750092;-;-;-;-;-;-;-;-;-;-;-;-;-;-;-
1514107764380;-;-;1.1401367;-1.0293121;-4.3040924;-;-;-;-;-;-;-;-;-;-;-;-;-;-;-
1514107764401;-;-;-0.3215332;1.2068634;-6.545059;-;-;-;-;-;-;-;-;-;-;-;-;-;-;-
1514107764421;-;-;-0.9512024;2.2136383;-2.8292694;-;-;-;-;-;-;-;-;-;-;-;-;-;-;-
1514107764441;-;-;1.4190521;4.6736755;1.6526794;-;-;-;-;-;-;-;-;-;-;-;-;-;-;-
1514107764462;-;-;1.5148163;5.46257;0.82788086;-;-;-;-;-;-;-;-;-;-;-;-;-;-;-
1514107764482;-;-;-0.70339966;4.367218;-4.1783905;-;-;-;-;-;-;-;-;-;-;-;-;-;-;-
1514107764502;-;-;-0.4017334;1.1733551;-5.432953;-;-;-;-;-;-;-;-;-;-;-;-;-;-;-
1514107764523;-;-;4.7050934;-1.5380859;-6.3810577;-;-;-;-;-;-;-;-;-;-;-;-;-;-;-
1514107764542;-;-;9.094864;-3.2571259;-1.9230652;-;-;-;-;-;-;-;-;-;-;-;-;-;-;-
1514107764562;-;-;14.490204;-7.5882263;3.6278992;-;-;-;-;-;-;-;-;-;-;-;-;-;-;-
1514107764583;-;-;23.60971;-6.5204163;-3.28656;-;-;-;-;-;-;-;-;-;-;-;-;-;-;-
1514107764603;-;-;35.326935;0.63345337;-5.6292877;-;-;-;-;-;-;-;-;-;-;-;-;-;-;-
1514107764623;-;-;20.642105;5.4685516;1.7065582;-;-;-;-;-;-;-;-;-;-;-;-;-;-;-
1514107764643;-;-;7.4416656;8.299698;2.5588837;-;-;-;-;-;-;-;-;-;-;-;-;-;-;-
1514107764664;-;-;0.35482788;7.5586853;-2.3791504;-;-;-;-;-;-;-;-;-;-;-;-;-;-;-
1514107764684;-;-;6.407379;1.3912201;-2.9681244;-;-;-;-;-;-;-;-;-;-;-;-;-;-;-
1514107764704;-;-;8.972763;-2.1533966;-3.0267792;-;-;-;-;-;-;-;-;-;-;-;-;-;-;-
1514107764724;-;-;7.6272125;-3.5575867;-3.5822449;-;-;-;-;-;-;-;-;-;-;-;-;-;-;-
1514107764745;-;-;4.82959;-3.4977417;-2.7981415;-;-;-;-;-;-;-;-;-;-;-;-;-;-;-
1514107764765;-;-;1.3496246;-3.0033417;1.7939453;-;-;-;-;-;-;-;-;-;-;-;-;-;-;-
1514107764785;-;-;0.05555725;-2.8656616;0.83506775;-;-;-;-;-;-;-;-;-;-;-;-;-;-;-
1514107764805;-;-;-0.46398926;-1.9606628;-5.0391083;-;-;-;-;-;-;-;-;-;-;-;-;-;-;-
1514107764825;-;-;-1.1056366;-1.289093;-11.345444;-;-;-;-;-;-;-;-;-;-;-;-;-;-;-
1514107764846;-;-;0.8420563;-0.19134521;-10.889343;-;-;-;-;-;-;-;-;-;-;-;-;-;-;-
1514107764866;-;-;15.0672;3.1198425;-0.5439911;-;-;-;-;-;-;-;-;-;-;-;-;-;-;-
1514107764886;-;-;29.342636;4.952591;0.37657166;-;-;-;-;-;-;-;-;-;-;-;-;-;-;-
1514107764907;-;-;30.044128;0.0049743652;-2.017624;-;-;-;-;-;-;-;-;-;-;-;-;-;-;-
1514107764926;-;-;27.100464;-3.6880798;-3.0507202;-;-;-;-;-;-;-;-;-;-;-;-;-;-;-
1514107764946;-;-;15.562805;-7.583435;1.2289124;-;-;-;-;-;-;-;-;-;-;-;-;-;-;-
1514107764967;-;-;6.5426483;-7.333252;1.2348938;-;-;-;-;-;-;-;-;-;-;-;-;-;-;-
1514107764988;-;-;3.399063;-5.526825;-2.524002;-;-;-;-;-;-;-;-;-;-;-;-;-;-;-
1514107765007;-;-;3.876709;-1.7894745;-2.9501648;-;-;-;-;-;-;-;-;-;-;-;-;-;-;-
1514107765027;-;-;6.2074585;1.1601868;-4.6847687;-;-;-;-;-;-;-;-;-;-;-;-;-;-;-
1514107765047;-;-;5.9740295;2.2567291;-5.956085;-;-;-;-;-;-;-;-;-;-;-;-;-;-;-
1514107765068;-;-;4.3974457;2.2232056;-1.6920166;-;-;-;-;-;-;-;-;-;-;-;-;-;-;-
1514107765088;-;-;2.3719482;2.2507477;1.4659271;-;-;-;-;-;-;-;-;-;-;-;-;-;-;-
1514107765108;-;-;0.43981934;2.165741;0.56211853;-;-;-;-;-;-;-;-;-;-;-;-;-;-;-
1514107765129;-;-;-1.1367493;1.2870789;-1.4130859;-;-;-;-;-;-;-;-;-;-;-;-;-;-;-
1514107765149;-;-;-1.7221375;-1.4135895;-5.701111;-;-;-;-;-;-;-;-;-;-;-;-;-;-;-
1514107765169;-;-;-0.027038574;-4.7271576;-7.3291626;-;-;-;-;-;-;-;-;-;-;-;-;-;-;-
1514107765189;-;-;8.004303;-4.3069763;-1.0659332;-;-;-;-;-;-;-;-;-;-;-;-;-;-;-
1514107765210;-;-;20.311707;-1.7176514;2.848587;-;-;-;-;-;-;-;-;-;-;-;-;-;-;-
1514107765230;-;-;26.823929;3.319748;-7.9492645;-;-;-;-;-;-;-;-;-;-;-;-;-;-;-
1514107765250;-;-;37.806137;6.126953;-3.7378693;-;-;-;-;-;-;-;-;-;-;-;-;-;-;-
1514107765271;-;-;24.930115;3.8500671;-3.5104065;-;-;-;-;-;-;-;-;-;-;-;-;-;-;-
1514107765291;-;-;7.8833923;2.9079437;1.5641022;-;-;-;-;-;-;-;-;-;-;-;-;-;-;-
1514107765311;-;-;-0.5058899;2.1406097;-1.6333618;-;-;-;-;-;-;-;-;-;-;-;-;-;-;-
1514107765331;-;-;-0.2892151;-1.5979309;-2.594635;-;-;-;-;-;-;-;-;-;-;-;-;-;-;-
1514107765352;-;-;1.1916046;-4.6756897;-2.5527344;-;-;-;-;-;-;-;-;-;-;-;-;-;-;-
1514107765372;-;-;5.3934326;-4.879196;-2.5539246;-;-;-;-;-;-;-;-;-;-;-;-;-;-;-
1514107765392;-;-;6.05542;-4.266281;-2.053543;-;-;-;-;-;-;-;-;-;-;-;-;-;-;-
1514107765413;-;-;3.7055206;-2.2910614;0.52381897;-;-;-;-;-;-;-;-;-;-;-;-;-;-;-
1514107765433;-;-;0.9461975;-1.0412903;0.88534546;-;-;-;-;-;-;-;-;-;-;-;-;-;-;-
1514107765453;-;-;1.8799438;-0.44273376;-7.507538;-;-;-;-;-;-;-;-;-;-;-;-;-;-;-
1514107765474;-;-;2.0080261;1.4762115;-12.881317;-;-;-;-;-;-;-;-;-;-;-;-;-;-;-
1514107765494;-;-;5.805237;6.55072;-1.069519;-;-;-;-;-;-;-;-;-;-;-;-;-;-;-
1514107765514;-;-;16.820953;5.1046295;-1.9589691;-;-;-;-;-;-;-;-;-;-;-;-;-;-;-
1514107765534;-;-;32.25757;0.4981842;3.0353394;-;-;-;-;-;-;-;-;-;-;-;-;-;-;-
1514107765555;-;-;32.33658;-4.606247;-0.7810211;-;-;-;-;-;-;-;-;-;-;-;-;-;-;-
1514107765575;-;-;25.766891;-8.325638;1.3522034;-;-;-;-;-;-;-;-;-;-;-;-;-;-;-
1514107765595;-;-;15.307816;-10.602524;-1.3256989;-;-;-;-;-;-;-;-;-;-;-;-;-;-;-
1514107765616;-;-;5.739395;-3.649765;-0.1956482;-;-;-;-;-;-;-;-;-;-;-;-;-;-;-
1514107765636;-;-;0.60861206;0.02293396;-0.9522095;-;-;-;-;-;-;-;-;-;-;-;-;-;-;-
1514107765656;-;-;-1.0780945;1.7048645;-6.5342865;-;-;-;-;-;-;-;-;-;-;-;-;-;-;-
1514107765676;-;-;-2.2452698;3.156952;-6.74498;-;-;-;-;-;-;-;-;-;-;-;-;-;-;-
1514107765697;-;-;1.0204163;3.1449738;-1.4346466;-;-;-;-;-;-;-;-;-;-;-;-;-;-;-
1514107765717;-;-;2.7083282;3.0121002;1.7245026;-;-;-;-;-;-;-;-;-;-;-;-;-;-;-
1514107765737;-;-;0.32730103;3.8345032;0.70098877;-;-;-;-;-;-;-;-;-;-;-;-;-;-;-
1514107765758;-;-;-0.23414612;2.1322327;-0.65293884;-;-;-;-;-;-;-;-;-;-;-;-;-;-;-
1514107765778;-;-;2.5814362;-2.3102112;-4.3663483;-;-;-;-;-;-;-;-;-;-;-;-;-;-;-
1514107765798;-;-;5.6615753;-7.360779;-5.2917023;-;-;-;-;-;-;-;-;-;-;-;-;-;-;-
1514107765818;-;-;12.133102;-6.8424377;0.117996216;-;-;-;-;-;-;-;-;-;-;-;-;-;-;-
1514107765838;-;-;19.371979;1.398407;1.2133484;-;-;-;-;-;-;-;-;-;-;-;-;-;-;-
1514107765859;-;-;24.300446;4.722748;-7.7517395;-;-;-;-;-;-;-;-;-;-;-;-;-;-;-
1514107765878;-;-;30.516983;6.9302063;-4.4501343;-;-;-;-;-;-;-;-;-;-;-;-;-;-;-
1514107765898;-;-;21.739838;4.9933014;-2.5850525;-;-;-;-;-;-;-;-;-;-;-;-;-;-;-
1514107765918;-;-;8.6423645;2.512909;1.0984192;-;-;-;-;-;-;-;-;-;-;-;-;-;-;-
1514107765939;-;-;1.3484192;0.3102417;-2.9250336;-;-;-;-;-;-;-;-;-;-;-;-;-;-;-
1514107765959;-;-;1.2454681;-4.1812744;-3.4469604;-;-;-;-;-;-;-;-;-;-;-;-;-;-;-
1514107765979;-;-;1.03479;-5.116211;-2.2738037;-;-;-;-;-;-;-;-;-;-;-;-;-;-;-
1514107766000;-;-;-0.41729736;-4.3392944;-0.31774902;-;-;-;-;-;-;-;-;-;-;-;-;-;-;-
1514107766021;-;-;-1.9627533;-3.6246338;2.321869;-;-;-;-;-;-;-;-;-;-;-;-;-;-;-
1514107766041;-;-;-1.7341156;-2.4813995;-0.49731445;-;-;-;-;-;-;-;-;-;-;-;-;-;-;-
1514107766061;-;-;1.5459442;-0.5157623;-11.15271;-;-;-;-;-;-;-;-;-;-;-;-;-;-;-
1514107766082;-;-;7.463211;1.4450989;-8.438873;-;-;-;-;-;-;-;-;-;-;-;-;-;-;-
1514107766102;-;-;20.375153;5.093857;-2.4617462;-;-;-;-;-;-;-;-;-;-;-;-;-;-;-
1514107766122;-;-;28.765625;4.5743103;-0.14537048;-;-;-;-;-;-;-;-;-;-;-;-;-;-;-
1514107766143;-;-;31.649445;-3.000946;1.2324982;-;-;-;-;-;-;-;-;-;-;-;-;-;-;-
1514107766162;-;-;21.181992;-4.111847;2.0034332;-;-;-;-;-;-;-;-;-;-;-;-;-;-;-
1514107766182;-;-;13.412811;-5.140152;2.4403687;-;-;-;-;-;-;-;-;-;-;-;-;-;-;-
1514107766203;-;-;3.2817383;-2.396408;4.577194;-;-;-;-;-;-;-;-;-;-;-;-;-;-;-
1514107766222;-;-;-1.795166;-1.4997711;2.8378143;-;-;-;-;-;-;-;-;-;-;-;-;-;-;-
1514107766242;-;-;-2.0417633;-2.775879;-1.6632843;-;-;-;-;-;-;-;-;-;-;-;-;-;-;-
1514107766262;-;-;9.661087;-2.2958527;-3.8384247;-;-;-;-;-;-;-;-;-;-;-;-;-;-;-
1514107766283;-;-;15.192902;1.1386414;-6.053055;-;-;-;-;-;-;-;-;-;-;-;-;-;-;-
1514107766302;-;-;10.347031;2.102295;-4.1855774;-;-;-;-;-;-;-;-;-;-;-;-;-;-;-
1514107766322;-;-;4.7517853;1.0392761;-3.3739471;-;-;-;-;-;-;-;-;-;-;-;-;-;-;-
1514107766343;-;-;1.2957458;0.21447754;-0.7415161;-;-;-;-;-;-;-;-;-;-;-;-;-;-;-
1514107766362;-;-;-1.1571045;-0.01776123;1.1594696;-;-;-;-;-;-;-;-;-;-;-;-;-;-;-
1514107766382;-;-;-1.1798553;-0.18415833;-2.3157043;-;-;-;-;-;-;-;-;-;-;-;-;-;-;-
1514107766403;-;-;-1.6934052;-1.7272186;-5.813629;-;-;-;-;-;-;-;-;-;-;-;-;-;-;-
1514107766423;-;-;2.0224;-1.8517303;-7.00235;-;-;-;-;-;-;-;-;-;-;-;-;-;-;-
1514107766443;-;-;20.630127;-1.9690399;2.871338;-;-;-;-;-;-;-;-;-;-;-;-;-;-;-
1514107766464;-;-;27.483536;2.3058014;-5.587387;-;-;-;-;-;-;-;-;-;-;-;-;-;-;-
1514107766484;-;-;38.895493;6.1844177;-1.6716614;-;-;-;-;-;-;-;-;-;-;-;-;-;-;-
1514107766504;-;-;30.448746;3.0324554;-9.321136;-;-;-;-;-;-;-;-;-;-;-;-;-;-;-
1514107766525;-;-;9.4887085;-1.5332947;3.7751465;-;-;-;-;-;-;-;-;-;-;-;-;-;-;-
1514107766545;-;-;1.9158478;-3.1900787;4.382065;-;-;-;-;-;-;-;-;-;-;-;-;-;-;-
1514107766564;-;-;0.9928894;-4.479355;3.2675781;-;-;-;-;-;-;-;-;-;-;-;-;-;-;-
1514107766585;-;-;5.1324615;-4.174103;1.3558044;-;-;-;-;-;-;-;-;-;-;-;-;-;-;-
1514107766605;-;-;9.926849;-2.4490814;0.53219604;-;-;-;-;-;-;-;-;-;-;-;-;-;-;-
1514107766626;-;-;7.344696;0.45388794;-1.7973633;-;-;-;-;-;-;-;-;-;-;-;-;-;-;-
1514107766646;-;-;3.9425354;-0.052474976;-1.8775635;-;-;-;-;-;-;-;-;-;-;-;-;-;-;-
1514107766666;-;-;3.1524506;-1.131073;-1.7961731;-;-;-;-;-;-;-;-;-;-;-;-;-;-;-
1514107766687;-;-;7.968399;-0.5756073;-1.768631;-;-;-;-;-;-;-;-;-;-;-;-;-;-;-
1514107766707;-;-;9.875381;2.205246;-4.4776764;-;-;-;-;-;-;-;-;-;-;-;-;-;-;-
1514107766727;-;-;9.422867;3.283844;-10.624786;-;-;-;-;-;-;-;-;-;-;-;-;-;-;-
1514107766748;-;-;10.612793;-1.225647;-5.0355225;-;-;-;-;-;-;-;-;-;-;-;-;-;-;-
1514107766768;-;-;13.731232;-7.1884003;-2.7957458;-;-;-;-;-;-;-;-;-;-;-;-;-;-;-
1514107766788;-;-;15.299438;-7.724701;-3.9102478;-;-;-;-;-;-;-;-;-;-;-;-;-;-;-
1514107766809;-;-;15.6358185;-1.0568542;-5.3156433;-;-;-;-;-;-;-;-;-;-;-;-;-;-;-
1514107766828;-;-;13.840179;1.6845093;-3.9844666;-;-;-;-;-;-;-;-;-;-;-;-;-;-;-
1514107766849;-;-;11.70694;-0.31344604;-3.8803253;-;-;-;-;-;-;-;-;-;-;-;-;-;-;-
1514107766869;-;-;7.4416656;-1.0568542;-2.3372498;-;-;-;-;-;-;-;-;-;-;-;-;-;-;-
1514107766889;-;-;3.3834991;-1.1262817;-1.8895416;-;-;-;-;-;-;-;-;-;-;-;-;-;-;-
1514107766910;-;-;2.9968262;-2.4071808;-2.8974915;-;-;-;-;-;-;-;-;-;-;-;-;-;-;-
1514107766930;-;-;4.292099;-3.0153046;-1.2658539;-;-;-;-;-;-;-;-;-;-;-;-;-;-;-
1514107766950;-;-;5.2581635;-2.7028656;-0.7403259;-;-;-;-;-;-;-;-;-;-;-;-;-;-;-
1514107766970;-;-;5.95726;-2.2276154;-1.3664093;-;-;-;-;-;-;-;-;-;-;-;-;-;-;-
1514107766991;-;-;6.2733;-0.9838257;-1.8045502;-;-;-;-;-;-;-;-;-;-;-;-;-;-;-
1514107767010;-;-;6.620453;0.61190796;-1.3939362;-;-;-;-;-;-;-;-;-;-;-;-;-;-;-
1514107767030;-;-;7.8606567;1.343338;0.070114136;-;-;-;-;-;-;-;-;-;-;-;-;-;-;-
1514107767051;-;-;8.149155;0.49938965;-0.2399292;-;-;-;-;-;-;-;-;-;-;-;-;-;-;-
1514107767071;-;-;8.695038;-0.63067627;0.8230896;-;-;-;-;-;-;-;-;-;-;-;-;-;-;-
1514107767091;-;-;9.503082;-2.9255219;0.18981934;-;-;-;-;-;-;-;-;-;-;-;-;-;-;-
1514107767112;-;-;11.25444;-4.302185;0.31791687;-;-;-;-;-;-;-;-;-;-;-;-;-;-;-
1514107767132;-;-;11.155075;-4.036438;0.48789978;-;-;-;-;-;-;-;-;-;-;-;-;-;-;-
1514107767152;-;-;9.608414;-6.1936035;-9.662308;-;-;-;-;-;-;-;-;-;-;-;-;-;-;-
1514107767173;-;-;12.382111;-3.7898254;-10.436844;-;-;-;-;-;-;-;-;-;-;-;-;-;-;-
1514107767192;-;-;11.723694;1.8736572;-5.5622406;-;-;-;-;-;-;-;-;-;-;-;-;-;-;-
1514107767213;-;-;11.328659;4.8125305;-3.851593;-;-;-;-;-;-;-;-;-;-;-;-;-;-;-
1514107767233;-;-;11.180222;2.5081177;-4.5746307;-;-;-;-;-;-;-;-;-;-;-;-;-;-;-
1514107767253;-;-;11.340622;-4.0819244;-6.0985413;-;-;-;-;-;-;-;-;-;-;-;-;-;-;-
1514107767274;-;-;13.363724;-7.5379486;-4.895462;-;-;-;-;-;-;-;-;-;-;-;-;-;-;-
1514107767294;-;-;13.394852;-5.1341705;-2.5982208;-;-;-;-;-;-;-;-;-;-;-;-;-;-;-
1514107767314;-;-;10.06572;-0.8018646;-3.2003632;-;-;-;-;-;-;-;-;-;-;-;-;-;-;-
1514107767334;-;-;7.593704;0.541275;-2.9286194;-;-;-;-;-;-;-;-;-;-;-;-;-;-;-
1514107767355;-;-;4.4572906;0.8920288;-3.2901459;-;-;-;-;-;-;-;-;-;-;-;-;-;-;-
1514107767374;-;-;3.4828491;0.71725464;-3.9437714;-;-;-;-;-;-;-;-;-;-;-;-;-;-;-
1514107767394;-;-;3.3009033;0.124694824;-3.6959686;-;-;-;-;-;-;-;-;-;-;-;-;-;-;-
1514107767414;-;-;5.4018097;-0.3194275;-2.658081;-;-;-;-;-;-;-;-;-;-;-;-;-;-;-
1514107767435;-;-;9.088882;0.38206482;-0.75349426;-;-;-;-;-;-;-;-;-;-;-;-;-;-;-
1514107767455;-;-;10.353012;1.8185883;-1.3256989;-;-;-;-;-;-;-;-;-;-;-;-;-;-;-
1514107767476;-;-;7.7804413;2.3333435;-1.5304108;-;-;-;-;-;-;-;-;-;-;-;-;-;-;-
1514107767496;-;-;5.1312714;1.3780518;-1.5639343;-;-;-;-;-;-;-;-;-;-;-;-;-;-;-
1514107767516;-;-;4.8475494;-0.3541565;-0.20521545;-;-;-;-;-;-;-;-;-;-;-;-;-;-;-
1514107767537;-;-;6.975998;-1.5392761;-0.93185425;-;-;-;-;-;-;-;-;-;-;-;-;-;-;-
1514107767557;-;-;9.430054;-1.404007;-1.7746124;-;-;-;-;-;-;-;-;-;-;-;-;-;-;-
1514107767577;-;-;10.667862;0.1618042;-1.5627289;-;-;-;-;-;-;-;-;-;-;-;-;-;-;-
1514107767597;-;-;9.905304;1.3684845;-0.5858917;-;-;-;-;-;-;-;-;-;-;-;-;-;-;-
1514107767618;-;-;10.192612;1.7647247;-6.235016;-;-;-;-;-;-;-;-;-;-;-;-;-;-;-
1514107767638;-;-;10.518219;0.2815094;-12.380936;-;-;-;-;-;-;-;-;-;-;-;-;-;-;-
1514107767658;-;-;12.27916;-5.8500366;-2.1804352;-;-;-;-;-;-;-;-;-;-;-;-;-;-;-
1514107767679;-;-;16.126633;-11.581757;-4.835602;-;-;-;-;-;-;-;-;-;-;-;-;-;-;-
1514107767698;-;-;15.511322;-8.903839;-6.203888;-;-;-;-;-;-;-;-;-;-;-;-;-;-;-
1514107767718;-;-;13.38887;0.32341003;-5.8232117;-;-;-;-;-;-;-;-;-;-;-;-;-;-;-
1514107767738;-;-;11.09642;3.7662659;-3.223114;-;-;-;-;-;-;-;-;-;-;-;-;-;-;-
1514107767759;-;-;5.707062;2.3536987;-3.5738678;-;-;-;-;-;-;-;-;-;-;-;-;-;-;-
1514107767778;-;-;2.9513397;0.44911194;-3.2686005;-;-;-;-;-;-;-;-;-;-;-;-;-;-;-
1514107767798;-;-;5.4532776;-0.9503021;-2.0619202;-;-;-;-;-;-;-;-;-;-;-;-;-;-;-
1514107767818;-;-;6.886215;-1.6721649;-2.0798798;-;-;-;-;-;-;-;-;-;-;-;-;-;-;-
1514107767839;-;-;6.324768;-2.0743866;-2.1313477;-;-;-;-;-;-;-;-;-;-;-;-;-;-;-
1514107767859;-;-;4.9349365;-2.6238556;-1.040802;-;-;-;-;-;-;-;-;-;-;-;-;-;-;-
1514107767879;-;-;4.735016;-2.487381;-1.2383118;-;-;-;-;-;-;-;-;-;-;-;-;-;-;-
1514107767900;-;-;4.5279236;-0.9838257;-2.2187347;-;-;-;-;-;-;-;-;-;-;-;-;-;-;-
1514107767920;-;-;6.7449493;0.63705444;-1.5878754;-;-;-;-;-;-;-;-;-;-;-;-;-;-;-
1514107767940;-;-;9.37738;2.4590302;-1.0204468;-;-;-;-;-;-;-;-;-;-;-;-;-;-;-
1514107767961;-;-;9.606033;2.833725;-0.69363403;-;-;-;-;-;-;-;-;-;-;-;-;-;-;-
1514107767981;-;-;9.4935;0.8309784;-1.1054382;-;-;-;-;-;-;-;-;-;-;-;-;-;-;-
1514107768002;-;-;10.124374;-1.9259491;-0.8241272;-;-;-;-;-;-;-;-;-;-;-;-;-;-;-
1514107768022;-;-;10.14711;-4.388382;-1.0719147;-;-;-;-;-;-;-;-;-;-;-;-;-;-;-
1514107768042;-;-;10.880936;-6.0499573;0.6064148;-;-;-;-;-;-;-;-;-;-;-;-;-;-;-
1514107768063;-;-;12.054092;-5.6010437;1.3821411;-;-;-;-;-;-;-;-;-;-;-;-;-;-;-
1514107768083;-;-;12.692154;-3.3169708;-0.669693;-;-;-;-;-;-;-;-;-;-;-;-;-;-;-
1514107768103;-;-;10.209366;-0.6007538;-4.571045;-;-;-;-;-;-;-;-;-;-;-;-;-;-;-
1514107768124;-;-;8.314362;0.22883606;-12.256439;-;-;-;-;-;-;-;-;-;-;-;-;-;-;-
1514107768143;-;-;6.446884;1.5049438;-9.179886;-;-;-;-;-;-;-;-;-;-;-;-;-;-;-
1514107768164;-;-;6.418152;3.3975677;-5.5658417;-;-;-;-;-;-;-;-;-;-;-;-;-;-;-
1514107768184;-;-;7.6511536;2.6338196;-3.2733917;-;-;-;-;-;-;-;-;-;-;-;-;-;-;-
1514107768204;-;-;12.161835;-2.0336761;-4.3962708;-;-;-;-;-;-;-;-;-;-;-;-;-;-;-
1514107768225;-;-;17.315353;-5.135376;-3.990448;-;-;-;-;-;-;-;-;-;-;-;-;-;-;-
1514107768245;-;-;16.752716;-2.253952;-2.2774048;-;-;-;-;-;-;-;-;-;-;-;-;-;-;-
1514107768265;-;-;9.543777;0.7364044;-2.488083;-;-;-;-;-;-;-;-;-;-;-;-;-;-;-
1514107768285;-;-;5.5083466;1.1625824;-2.1624756;-;-;-;-;-;-;-;-;-;-;-;-;-;-;-
1514107768306;-;-;1.8655701;0.9303436;-0.77145386;-;-;-;-;-;-;-;-;-;-;-;-;-;-;-
1514107768326;-;-;0.85043335;0.20610046;-0.5978699;-;-;-;-;-;-;-;-;-;-;-;-;-;-;-
1514107768346;-;-;2.6975555;-0.25;-0.29260254;-;-;-;-;-;-;-;-;-;-;-;-;-;-;-
1514107768367;-;-;4.1879425;0.2132721;0.7404938;-;-;-;-;-;-;-;-;-;-;-;-;-;-;-
1514107768387;-;-;4.979233;0.26115417;1.6095886;-;-;-;-;-;-;-;-;-;-;-;-;-;-;-
1514107768407;-;-;6.857483;-0.117126465;1.3462219;-;-;-;-;-;-;-;-;-;-;-;-;-;-;-
1514107768427;-;-;8.237747;-0.48942566;0.44599915;-;-;-;-;-;-;-;-;-;-;-;-;-;-;-
1514107768448;-;-;7.9157257;-1.1526184;-0.3548584;-;-;-;-;-;-;-;-;-;-;-;-;-;-;-
1514107768469;-;-;7.125641;-1.1693726;-0.6481476;-;-;-;-;-;-;-;-;-;-;-;-;-;-;-
1514107768490;-;-;6.6587677;-0.4846344;-0.7738342;-;-;-;-;-;-;-;-;-;-;-;-;-;-;-
1514107768510;-;-;7.430893;0.39523315;-1.7722168;-;-;-;-;-;-;-;-;-;-;-;-;-;-;-
1514107768530;-;-;9.8993225;1.3876343;-0.08909607;-;-;-;-;-;-;-;-;-;-;-;-;-;-;-
1514107768551;-;-;12.003815;2.2495422;-0.654129;-;-;-;-;-;-;-;-;-;-;-;-;-;-;-
1514107768570;-;-;13.115921;1.8401337;-5.0845947;-;-;-;-;-;-;-;-;-;-;-;-;-;-;-
1514107768590;-;-;10.319504;0.2240448;-8.361069;-;-;-;-;-;-;-;-;-;-;-;-;-;-;-
1514107768611;-;-;6.388214;-0.79467773;-5.2761383;-;-;-;-;-;-;-;-;-;-;-;-;-;-;-
1514107768631;-;-;2.659256;-0.73602295;-1.8213043;-;-;-;-;-;-;-;-;-;-;-;-;-;-;-
1514107768651;-;-;-0.5848999;-1.7978516;1.45755;-;-;-;-;-;-;-;-;-;-;-;-;-;-;-
1514107768672;-;-;-1.4060974;-3.9622192;0.04975891;-;-;-;-;-;-;-;-;-;-;-;-;-;-;-
1514107768692;-;-;3.5786285;-5.15094;-4.879898;-;-;-;-;-;-;-;-;-;-;-;-;-;-;-
1514107768712;-;-;10.770813;-1.6051178;-9.432465;-;-;-;-;-;-;-;-;-;-;-;-;-;-;-
1514107768733;-;-;18.815323;2.778656;-4.499222;-;-;-;-;-;-;-;-;-;-;-;-;-;-;-
1514107768752;-;-;27.295593;1.8796387;4.7807007;-;-;-;-;-;-;-;-;-;-;-;-;-;-;-
1514107768772;-;-;24.760132;-2.8764343;-2.5287933;-;-;-;-;-;-;-;-;-;-;-;-;-;-;-
1514107768792;-;-;17.04361;-4.3464813;-0.19085693;-;-;-;-;-;-;-;-;-;-;-;-;-;-;-
1514107768813;-;-;11.303513;-3.558792;1.3677673;-;-;-;-;-;-;-;-;-;-;-;-;-;-;-
1514107768833;-;-;3.6408691;-0.92996216;1.1259613;-;-;-;-;-;-;-;-;-;-;-;-;-;-;-
1514107768853;-;-;-0.44004822;-0.8964386;0.49150085;-;-;-;-;-;-;-;-;-;-;-;-;-;-;-
1514107768873;-;-;7.5290527;-1.1274719;-1.282608;-;-;-;-;-;-;-;-;-;-;-;-;-;-;-
1514107768894;-;-;15.950668;0.25038147;-0.7558899;-;-;-;-;-;-;-;-;-;-;-;-;-;-;-
1514107768914;-;-;15.823761;1.580368;-6.7665253;-;-;-;-;-;-;-;-;-;-;-;-;-;-;-
1514107768934;-;-;10.732498;0.007369995;-6.689911;-;-;-;-;-;-;-;-;-;-;-;-;-;-;-
1514107768954;-;-;4.548279;-1.522522;-3.231491;-;-;-;-;-;-;-;-;-;-;-;-;-;-;-
1514107768975;-;-;-0.35743713;-2.1126862;0.053359985;-;-;-;-;-;-;-;-;-;-;-;-;-;-;-
1514107768994;-;-;-3.6398926;-0.88087463;1.294754;-;-;-;-;-;-;-;-;-;-;-;-;-;-;-
1514107769014;-;-;-3.6339111;0.3964386;2.1758118;-;-;-;-;-;-;-;-;-;-;-;-;-;-;-
1514107769034;-;-;-4.7615814;1.3146057;-1.2718353;-;-;-;-;-;-;-;-;-;-;-;-;-;-;-
1514107769055;-;-;-0.3610382;-0.53970337;-5.685547;-;-;-;-;-;-;-;-;-;-;-;-;-;-;-
1514107769075;-;-;4.465683;-1.028122;-6.966446;-;-;-;-;-;-;-;-;-;-;-;-;-;-;-
1514107769095;-;-;10.268021;-0.9539032;-2.9010925;-;-;-;-;-;-;-;-;-;-;-;-;-;-;-
1514107769116;-;-;17.305786;0.40481567;3.9247742;-;-;-;-;-;-;-;-;-;-;-;-;-;-;-
1514107769136;-;-;18.176071;1.7647247;-4.029953;-;-;-;-;-;-;-;-;-;-;-;-;-;-;-
1514107769155;-;-;25.3096;1.2906647;-9.27565;-;-;-;-;-;-;-;-;-;-;-;-;-;-;-
1514107769175;-;-;26.576126;-0.6701813;0.65908813;-;-;-;-;-;-;-;-;-;-;-;-;-;-;-
1514107769195;-;-;15.130646;0.7807007;1.5904388;-;-;-;-;-;-;-;-;-;-;-;-;-;-;-
1514107769216;-;-;6.6623535;3.2575073;-0.73553467;-;-;-;-;-;-;-;-;-;-;-;-;-;-;-
1514107769236;-;-;2.7789612;2.284256;-1.9003143;-;-;-;-;-;-;-;-;-;-;-;-;-;-;-
1514107769256;-;-;4.07782;-0.13508606;-1.8667908;-;-;-;-;-;-;-;-;-;-;-;-;-;-;-
1514107769277;-;-;3.1704102;-1.467453;-1.6800537;-;-;-;-;-;-;-;-;-;-;-;-;-;-;-
1514107769297;-;-;2.3456116;-2.933899;-1.3280945;-;-;-;-;-;-;-;-;-;-;-;-;-;-;-
1514107769317;-;-;4.284912;-3.6749115;-2.3947144;-;-;-;-;-;-;-;-;-;-;-;-;-;-;-
1514107769338;-;-;2.6053772;-2.985382;-0.28182983;-;-;-;-;-;-;-;-;-;-;-;-;-;-;-
1514107769358;-;-;0.9246521;-1.8696747;-2.2366943;-;-;-;-;-;-;-;-;-;-;-;-;-;-;-
1514107769378;-;-;1.2634277;-1.451889;-8.289246;-;-;-;-;-;-;-;-;-;-;-;-;-;-;-
1514107769398;-;-;1.6345367;-0.40322876;-11.766815;-;-;-;-;-;-;-;-;-;-;-;-;-;-;-
1514107769418;-;-;7.477585;-1.4734344;-7.9265137;-;-;-;-;-;-;-;-;-;-;-;-;-;-;-
1514107769439;-;-;22.863922;-0.71447754;5.987381;-;-;-;-;-;-;-;-;-;-;-;-;-;-;-
1514107769459;-;-;31.90802;3.6764832;-5.029541;-;-;-;-;-;-;-;-;-;-;-;-;-;-;-
1514107769479;-;-;22.930954;3.8057709;-1.595047;-;-;-;-;-;-;-;-;-;-;-;-;-;-;-
1514107769500;-;-;17.869614;-1.2028961;-3.4589386;-;-;-;-;-;-;-;-;-;-;-;-;-;-;-
1514107769520;-;-;8.84108;-3.7192078;3.3094635;-;-;-;-;-;-;-;-;-;-;-;-;-;-;-
1514107769540;-;-;6.742569;-4.0112915;1.8118896;-;-;-;-;-;-;-;-;-;-;-;-;-;-;-
1514107769560;-;-;6.4636383;-2.5137177;-0.8325043;-;-;-;-;-;-;-;-;-;-;-;-;-;-;-
1514107769581;-;-;10.60321;-0.78990173;-2.7789917;-;-;-;-;-;-;-;-;-;-;-;-;-;-;-
1514107769600;-;-;9.900513;-0.22247314;-4.61055;-;-;-;-;-;-;-;-;-;-;-;-;-;-;-
1514107769620;-;-;8.1766815;-0.8868561;-3.566681;-;-;-;-;-;-;-;-;-;-;-;-;-;-;-
1514107769641;-;-;5.87825;-1.0544586;-2.203186;-;-;-;-;-;-;-;-;-;-;-;-;-;-;-
1514107769661;-;-;3.8587494;-0.011779785;-1.9781189;-;-;-;-;-;-;-;-;-;-;-;-;-;-;-
1514107769681;-;-;1.1963959;1.3050385;-2.2594452;-;-;-;-;-;-;-;-;-;-;-;-;-;-;-
1514107769702;-;-;-1.1235809;0.63705444;-0.6577301;-;-;-;-;-;-;-;-;-;-;-;-;-;-;-
1514107769722;-;-;-3.2556305;-0.21647644;1.4288177;-;-;-;-;-;-;-;-;-;-;-;-;-;-;-
1514107769742;-;-;-5.962265;-1.2603607;-2.9286194;-;-;-;-;-;-;-;-;-;-;-;-;-;-;-
1514107769763;-;-;-4.0349426;-0.8820648;-6.947296;-;-;-;-;-;-;-;-;-;-;-;-;-;-;-
1514107769783;-;-;6.3654785;1.4414978;-5.037918;-;-;-;-;-;-;-;-;-;-;-;-;-;-;-
1514107769802;-;-;16.943054;-0.6618042;0.9056854;-;-;-;-;-;-;-;-;-;-;-;-;-;-;-
1514107769822;-;-;20.16925;-2.842926;-4.745819;-;-;-;-;-;-;-;-;-;-;-;-;-;-;-
1514107769843;-;-;38.88353;-0.9000244;-5.9129944;-;-;-;-;-;-;-;-;-;-;-;-;-;-;-
1514107769863;-;-;37.70198;0.9207611;0.15870667;-;-;-;-;-;-;-;-;-;-;-;-;-;-;-
1514107769882;-;-;13.812637;3.0599823;-0.05079651;-;-;-;-;-;-;-;-;-;-;-;-;-;-;-
1514107769902;-;-;1.3699799;3.5136871;-1.1545258;-;-;-;-;-;-;-;-;-;-;-;-;-;-;-
1514107769922;-;-;-0.9871216;1.5911407;-4.175995;-;-;-;-;-;-;-;-;-;-;-;-;-;-;-
1514107769943;-;-;0.075912476;-0.10395813;-4.266983;-;-;-;-;-;-;-;-;-;-;-;-;-;-;-
1514107769963;-;-;4.3459625;-1.4099884;-2.428238;-;-;-;-;-;-;-;-;-;-;-;-;-;-;-
1514107769983;-;-;4.9971924;-2.54245;-2.8448334;-;-;-;-;-;-;-;-;-;-;-;-;-;-;-
1514107770004;-;-;2.8519897;-3.4486542;-2.8663788;-;-;-;-;-;-;-;-;-;-;-;-;-;-;-
1514107770024;-;-;0.7103729;-2.4179535;1.8023224;-;-;-;-;-;-;-;-;-;-;-;-;-;-;-
1514107770044;-;-;1.7123413;-1.8708801;-1.3400726;-;-;-;-;-;-;-;-;-;-;-;-;-;-;-
1514107770065;-;-;2.3144836;-0.28231812;-8.150375;-;-;-;-;-;-;-;-;-;-;-;-;-;-;-
1514107770085;-;-;7.4093475;1.9849854;-6.5773926;-;-;-;-;-;-;-;-;-;-;-;-;-;-;-
1514107770105;-;-;13.801865;4.071533;-5.556259;-;-;-;-;-;-;-;-;-;-;-;-;-;-;-
1514107770125;-;-;22.063065;3.1796875;4.093567;-;-;-;-;-;-;-;-;-;-;-;-;-;-;-
1514107770145;-;-;33.552826;-3.8856049;2.6474762;-;-;-;-;-;-;-;-;-;-;-;-;-;-;-
1514107770167;-;-;28.202988;-10.784485;-1.7087708;-;-;-;-;-;-;-;-;-;-;-;-;-;-;-
1514107770186;-;-;15.313797;-10.008774;-1.045578;-;-;-;-;-;-;-;-;-;-;-;-;-;-;-
1514107770206;-;-;7.1519775;-5.6824493;-0.5787201;-;-;-;-;-;-;-;-;-;-;-;-;-;-;-
1514107770227;-;-;2.0966187;-0.42477417;-2.1038208;-;-;-;-;-;-;-;-;-;-;-;-;-;-;-
1514107770247;-;-;-0.89733887;1.5707855;-4.347183;-;-;-;-;-;-;-;-;-;-;-;-;-;-;-
1514107770267;-;-;-1.6455231;1.5109406;-7.06102;-;-;-;-;-;-;-;-;-;-;-;-;-;-;-
1514107770287;-;-;-3.5501099;2.7008514;-1.2227478;-;-;-;-;-;-;-;-;-;-;-;-;-;-;-
1514107770308;-;-;2.3025208;3.359253;1.8561859;-;-;-;-;-;-;-;-;-;-;-;-;-;-;-
1514107770328;-;-;-0.1958313;3.7315521;-3.567871;-;-;-;-;-;-;-;-;-;-;-;-;-;-;-
1514107770348;-;-;-3.0413513;2.955841;-6.3403625;-;-;-;-;-;-;-;-;-;-;-;-;-;-;-
1514107770369;-;-;2.4868622;-0.36611938;-1.0120697;-;-;-;-;-;-;-;-;-;-;-;-;-;-;-
1514107770389;-;-;7.470398;-3.0332642;0.30593872;-;-;-;-;-;-;-;-;-;-;-;-;-;-;-
1514107770409;-;-;14.344147;-6.1852264;0.9284363;-;-;-;-;-;-;-;-;-;-;-;-;-;-;-
1514107770429;-;-;20.330856;-7.717514;-5.622101;-;-;-;-;-;-;-;-;-;-;-;-;-;-;-
1514107770450;-;-;38.895493;0.08039856;-6.0674286;-;-;-;-;-;-;-;-;-;-;-;-;-;-;-
1514107770470;-;-;33.862885;6.6464996;0.04975891;-;-;-;-;-;-;-;-;-;-;-;-;-;-;-
1514107770490;-;-;13.356537;8.206314;-2.646103;-;-;-;-;-;-;-;-;-;-;-;-;-;-;-
1514107770511;-;-;0.48292542;6.572281;-5.34198;-;-;-;-;-;-;-;-;-;-;-;-;-;-;-
1514107770531;-;-;-0.8027649;-0.3984375;-1.1221924;-;-;-;-;-;-;-;-;-;-;-;-;-;-;-
1514107770551;-;-;3.3439941;-4.369232;-0.4853363;-;-;-;-;-;-;-;-;-;-;-;-;-;-;-
1514107770571;-;-;3.560669;-4.532028;-0.58470154;-;-;-;-;-;-;-;-;-;-;-;-;-;-;-
1514107770592;-;-;1.4358063;-4.2339478;-0.8744049;-;-;-;-;-;-;-;-;-;-;-;-;-;-;-
1514107770611;-;-;-0.9799347;-4.4542236;1.246872;-;-;-;-;-;-;-;-;-;-;-;-;-;-;-
1514107770631;-;-;-1.6287689;-4.041214;1.9136505;-;-;-;-;-;-;-;-;-;-;-;-;-;-;-
1514107770652;-;-;0.33328247;-3.1613464;-4.673996;-;-;-;-;-;-;-;-;-;-;-;-;-;-;-
1514107770671;-;-;0.049575806;-1.9474945;-11.552536;-;-;-;-;-;-;-;-;-;-;-;-;-;-;-
1514107770691;-;-;1.4489746;3.5867004;-7.6523895;-;-;-;-;-;-;-;-;-;-;-;-;-;-;-
1514107770711;-;-;17.526047;6.612976;-4.572235;-;-;-;-;-;-;-;-;-;-;-;-;-;-;-
1514107770732;-;-;38.895493;5.9665375;0.39692688;-;-;-;-;-;-;-;-;-;-;-;-;-;-;-
1514107770752;-;-;34.69487;-1.2627563;-3.2087402;-;-;-;-;-;-;-;-;-;-;-;-;-;-;-
1514107770772;-;-;20.943771;-5.420288;2.6702118;-;-;-;-;-;-;-;-;-;-;-;-;-;-;-
1514107770793;-;-;14.958267;-11.803223;2.8892822;-;-;-;-;-;-;-;-;-;-;-;-;-;-;-
1514107770813;-;-;7.051407;-9.3120575;0.137146;-;-;-;-;-;-;-;-;-;-;-;-;-;-;-
1514107770833;-;-;3.0004272;-2.8405304;0.42326355;-;-;-;-;-;-;-;-;-;-;-;-;-;-;-
1514107770853;-;-;0.1405487;1.4905853;-4.0359344;-;-;-;-;-;-;-;-;-;-;-;-;-;-;-
1514107770874;-;-;6.612076;0.49578857;-5.4030304;-;-;-;-;-;-;-;-;-;-;-;-;-;-;-
1514107770894;-;-;10.189011;1.6857147;-4.081436;-;-;-;-;-;-;-;-;-;-;-;-;-;-;-
1514107770915;-;-;6.541443;1.8329468;-3.1728363;-;-;-;-;-;-;-;-;-;-;-;-;-;-;-
1514107770935;-;-;2.4413757;2.0005493;-1.8213043;-;-;-;-;-;-;-;-;-;-;-;-;-;-;-
1514107770955;-;-;-0.20899963;1.9287262;0.5669098;-;-;-;-;-;-;-;-;-;-;-;-;-;-;-
1514107770975;-;-;-1.1595001;1.7814789;0.63993835;-;-;-;-;-;-;-;-;-;-;-;-;-;-;-
1514107770995;-;-;-2.360199;1.130249;-1.3735962;-;-;-;-;-;-;-;-;-;-;-;-;-;-;-
1514107771015;-;-;-0.69981384;-2.1785278;-4.8068695;-;-;-;-;-;-;-;-;-;-;-;-;-;-;-
1514107771036;-;-;6.7581177;-3.5731506;-7.2333984;-;-;-;-;-;-;-;-;-;-;-;-;-;-;-
1514107771056;-;-;16.981369;-4.4183044;3.659027;-;-;-;-;-;-;-;-;-;-;-;-;-;-;-
1514107771076;-;-;22.00679;-2.7052612;-5.274948;-;-;-;-;-;-;-;-;-;-;-;-;-;-;-
1514107771097;-;-;26.942444;1.0201263;-5.4473267;-;-;-;-;-;-;-;-;-;-;-;-;-;-;-
1514107771117;-;-;25.65915;3.2156067;-3.1464996;-;-;-;-;-;-;-;-;-;-;-;-;-;-;-
1514107771137;-;-;12.40126;4.5707245;1.3426361;-;-;-;-;-;-;-;-;-;-;-;-;-;-;-
1514107771157;-;-;1.9768982;4.208008;0.9775238;-;-;-;-;-;-;-;-;-;-;-;-;-;-;-
1514107771178;-;-;-0.7441101;-0.07043457;1.6203613;-;-;-;-;-;-;-;-;-;-;-;-;-;-;-
1514107771198;-;-;5.9500732;-3.5755463;2.354187;-;-;-;-;-;-;-;-;-;-;-;-;-;-;-
1514107771218;-;-;10.825867;-3.368454;-0.64575195;-;-;-;-;-;-;-;-;-;-;-;-;-;-;-
1514107771239;-;-;13.028534;-2.7100372;-2.3276825;-;-;-;-;-;-;-;-;-;-;-;-;-;-;-
1514107771259;-;-;12.08403;-0.87368774;-3.0710754;-;-;-;-;-;-;-;-;-;-;-;-;-;-;-
1514107771279;-;-;10.38414;1.4486847;-2.2462769;-;-;-;-;-;-;-;-;-;-;-;-;-;-;-
1514107771299;-;-;6.6946716;2.3728485;-2.6161804;-;-;-;-;-;-;-;-;-;-;-;-;-;-;-
1514107771320;-;-;2.980072;1.9203491;-2.781372;-;-;-;-;-;-;-;-;-;-;-;-;-;-;-
1514107771340;-;-;0.9150696;0.56163025;-1.1305847;-;-;-;-;-;-;-;-;-;-;-;-;-;-;-
1514107771360;-;-;-0.6830597;-1.5356903;0.3215027;-;-;-;-;-;-;-;-;-;-;-;-;-;-;-
1514107771380;-;-;4.1005554;-6.2139587;-7.0670013;-;-;-;-;-;-;-;-;-;-;-;-;-;-;-
1514107771401;-;-;14.189728;-8.257416;-4.010803;-;-;-;-;-;-;-;-;-;-;-;-;-;-;-
1514107771421;-;-;24.293259;-3.108673;-0.121414185;-;-;-;-;-;-;-;-;-;-;-;-;-;-;-
1514107771441;-;-;33.318207;-3.2116241;0.029418945;-;-;-;-;-;-;-;-;-;-;-;-;-;-;-
1514107771462;-;-;27.397339;-1.254364;-1.4310455;-;-;-;-;-;-;-;-;-;-;-;-;-;-;-
1514107771481;-;-;20.20636;-0.8641205;-6.1835327;-;-;-;-;-;-;-;-;-;-;-;-;-;-;-
1514107771501;-;-;11.159866;-2.8249664;-0.080718994;-;-;-;-;-;-;-;-;-;-;-;-;-;-;-
1514107771522;-;-;2.0487366;-0.59117126;1.4419861;-;-;-;-;-;-;-;-;-;-;-;-;-;-;-
1514107771541;-;-;-2.6977692;0.8740692;0.6052246;-;-;-;-;-;-;-;-;-;-;-;-;-;-;-
1514107771561;-;-;-3.4687042;1.0368805;-0.72476196;-;-;-;-;-;-;-;-;-;-;-;-;-;-;-
1514107771582;-;-;0.123794556;0.50177;-0.07952881;-;-;-;-;-;-;-;-;-;-;-;-;-;-;-
1514107771602;-;-;8.963181;-2.9757996;-1.5471649;-;-;-;-;-;-;-;-;-;-;-;-;-;-;-
1514107771622;-;-;12.245636;-4.0232697;-3.0315704;-;-;-;-;-;-;-;-;-;-;-;-;-;-;-
1514107771643;-;-;11.776367;-2.3161926;-2.1744537;-;-;-;-;-;-;-;-;-;-;-;-;-;-;-
1514107771663;-;-;9.412094;-0.9910126;-0.2578888;-;-;-;-;-;-;-;-;-;-;-;-;-;-;-
1514107771683;-;-;8.996704;-1.6434326;-0.23753357;-;-;-;-;-;-;-;-;-;-;-;-;-;-;-
1514107771703;-;-;10.54097;-5.2766266;-7.2405853;-;-;-;-;-;-;-;-;-;-;-;-;-;-;-
1514107771723;-;-;13.112335;-7.297333;-6.9017944;-;-;-;-;-;-;-;-;-;-;-;-;-;-;-
1514107771744;-;-;11.875732;-0.42358398;-4.6632233;-;-;-;-;-;-;-;-;-;-;-;-;-;-;-
1514107771764;-;-;8.808762;5.1692657;-2.1014252;-;-;-;-;-;-;-;-;-;-;-;-;-;-;-
1514107771784;-;-;9.795166;3.4370728;-3.9090424;-;-;-;-;-;-;-;-;-;-;-;-;-;-;-
1514107771804;-;-;11.076065;-3.3852081;-6.705475;-;-;-;-;-;-;-;-;-;-;-;-;-;-;-
1514107771825;-;-;13.84256;-5.88356;-2.3312683;-;-;-;-;-;-;-;-;-;-;-;-;-;-;-
1514107771844;-;-;14.544067;-4.2016296;-0.32852173;-;-;-;-;-;-;-;-;-;-;-;-;-;-;-
1514107771864;-;-;12.452728;-2.2838745;-2.7753906;-;-;-;-;-;-;-;-;-;-;-;-;-;-;-
1514107771884;-;-;7.916916;-0.23324585;-3.151291;-;-;-;-;-;-;-;-;-;-;-;-;-;-;-
1514107771905;-;-;4.5267334;1.932312;-3.1225586;-;-;-;-;-;-;-;-;-;-;-;-;-;-;-
1514107771926;-;-;3.217102;2.1465912;-2.4629517;-;-;-;-;-;-;-;-;-;-;-;-;-;-;-
1514107771945;-;-;2.798111;0.9854126;-2.5970306;-;-;-;-;-;-;-;-;-;-;-;-;-;-;-
1514107771966;-;-;4.900223;-0.8246155;-2.5168152;-;-;-;-;-;-;-;-;-;-;-;-;-;-;-
1514107771986;-;-;9.431244;-0.5432892;-1.2323303;-;-;-;-;-;-;-;-;-;-;-;-;-;-;-
1514107772006;-;-;8.9991;0.3174286;-1.5495605;-;-;-;-;-;-;-;-;-;-;-;-;-;-;-
1514107772026;-;-;6.952057;1.279892;-1.5447693;-;-;-;-;-;-;-;-;-;-;-;-;-;-;-
1514107772047;-;-;5.628067;1.8329468;-0.9186859;-;-;-;-;-;-;-;-;-;-;-;-;-;-;-
1514107772066;-;-;7.0023346;1.2571411;-0.82173157;-;-;-;-;-;-;-;-;-;-;-;-;-;-;-
1514107772086;-;-;9.893326;-0.0105896;-1.4442139;-;-;-;-;-;-;-;-;-;-;-;-;-;-;-
1514107772106;-;-;9.128387;-0.9862213;-0.9737549;-;-;-;-;-;-;-;-;-;-;-;-;-;-;-
1514107772127;-;-;8.315552;-0.66300964;-1.8679962;-;-;-;-;-;-;-;-;-;-;-;-;-;-;-
1514107772146;-;-;7.554199;-0.8377838;-4.7470245;-;-;-;-;-;-;-;-;-;-;-;-;-;-;-
1514107772166;-;-;8.574127;-2.6358185;-10.217773;-;-;-;-;-;-;-;-;-;-;-;-;-;-;-
1514107772187;-;-;10.986282;-5.9434204;-5.0187683;-;-;-;-;-;-;-;-;-;-;-;-;-;-;-
1514107772207;-;-;13.601944;-7.9916534;-4.8547516;-;-;-;-;-;-;-;-;-;-;-;-;-;-;-
1514107772227;-;-;16.672516;-7.0603027;-6.7593384;-;-;-;-;-;-;-;-;-;-;-;-;-;-;-
1514107772247;-;-;14.930725;-0.34098816;-6.4038086;-;-;-;-;-;-;-;-;-;-;-;-;-;-;-
1514107772268;-;-;12.718491;1.6833191;-3.6444855;-;-;-;-;-;-;-;-;-;-;-;-;-;-;-
1514107772288;-;-;9.027832;-0.17098999;-3.4038696;-;-;-;-;-;-;-;-;-;-;-;-;-;-;-
1514107772308;-;-;5.150421;-1.1969147;-3.0531158;-;-;-;-;-;-;-;-;-;-;-;-;-;-;-
1514107772328;-;-;3.513977;-1.5799866;-2.8184967;-;-;-;-;-;-;-;-;-;-;-;-;-;-;-
1514107772349;-;-;4.906204;-2.253952;-2.3157043;-;-;-;-;-;-;-;-;-;-;-;-;-;-;-
1514107772369;-;-;3.9628906;-2.3628845;-2.1505127;-;-;-;-;-;-;-;-;-;-;-;-;-;-;-
1514107772389;-;-;3.8683167;-1.8361664;-2.053543;-;-;-;-;-;-;-;-;-;-;-;-;-;-;-
1514107772409;-;-;4.0047913;-0.94551086;-2.1469116;-;-;-;-;-;-;-;-;-;-;-;-;-;-;-
1514107772430;-;-;6.0243073;-0.17459106;-1.7087708;-;-;-;-;-;-;-;-;-;-;-;-;-;-;-
1514107772451;-;-;8.368225;0.36531067;-1.8416595;-;-;-;-;-;-;-;-;-;-;-;-;-;-;-
1514107772470;-;-;9.997482;0.74838257;-1.4334412;-;-;-;-;-;-;-;-;-;-;-;-;-;-;-
1514107772490;-;-;10.343445;0.68014526;-0.85165405;-;-;-;-;-;-;-;-;-;-;-;-;-;-;-
1514107772511;-;-;10.405685;-0.47865295;-0.22317505;-;-;-;-;-;-;-;-;-;-;-;-;-;-;-
1514107772531;-;-;11.155075;-2.6035004;-0.39794922;-;-;-;-;-;-;-;-;-;-;-;-;-;-;-
1514107772551;-;-;11.146698;-4.180084;-0.90312195;-;-;-;-;-;-;-;-;-;-;-;-;-;-;-
1514107772571;-;-;10.301544;-3.7215881;1.275589;-;-;-;-;-;-;-;-;-;-;-;-;-;-;-
1514107772592;-;-;10.418854;-2.8776398;0.34664917;-;-;-;-;-;-;-;-;-;-;-;-;-;-;-
1514107772612;-;-;10.254852;-3.673706;-5.646042;-;-;-;-;-;-;-;-;-;-;-;-;-;-;-
1514107772632;-;-;12.123535;-3.7586975;-6.5654144;-;-;-;-;-;-;-;-;-;-;-;-;-;-;-
1514107772653;-;-;9.861008;-1.0496674;-5.4904175;-;-;-;-;-;-;-;-;-;-;-;-;-;-;-
1514107772673;-;-;7.355484;1.070404;-5.40184;-;-;-;-;-;-;-;-;-;-;-;-;-;-;-
1514107772694;-;-;6.904175;1.2966461;-4.1341095;-;-;-;-;-;-;-;-;-;-;-;-;-;-;-
1514107772714;-;-;9.206192;-0.33259583;-3.8156738;-;-;-;-;-;-;-;-;-;-;-;-;-;-;-
1514107772734;-;-;12.797501;-2.839325;-3.3919067;-;-;-;-;-;-;-;-;-;-;-;-;-;-;-
1514107772755;-;-;14.3980255;-3.673706;-2.2259216;-;-;-;-;-;-;-;-;-;-;-;-;-;-;-
1514107772775;-;-;11.999039;-1.9486847;-1.8907318;-;-;-;-;-;-;-;-;-;-;-;-;-;-;-
1514107772795;-;-;9.462372;-0.8305969;-1.7458801;-;-;-;-;-;-;-;-;-;-;-;-;-;-;-
1514107772815;-;-;7.205841;-0.26675415;-1.8931274;-;-;-;-;-;-;-;-;-;-;-;-;-;-;-
1514107772836;-;-;5.051056;0.4862213;-2.4988708;-;-;-;-;-;-;-;-;-;-;-;-;-;-;-
