TimeStamp[ms];Prox[Cm];Lux[lux];AccX[m/s^2];AccY[m/s^2];AccZ[m/s^2];GyroX[rad/s];GyroY[rad/s];GyroZ[rad/s];MagnX[uT];MagnY[uT];MagnZ[uT];OrienYaw[degrees];OrienPitch[degrees];OrienRoll[degrees];Press[Pa];Temp[C°];Batt[%];Lat;Lng;Speed[m/s]
1514107823445;-;-;8.952408;-0.2966919;-0.04121399;-;-;-;-;-;-;-;-;-;-;-;-;-;-;-
1514107823449;-;-;8.984726;-0.12908936;-0.051986694;-;-;-;-;-;-;-;-;-;-;-;-;-;-;-
1514107823469;-;-;9.203796;0.06602478;0.08807373;-;-;-;-;-;-;-;-;-;-;-;-;-;-;-
1514107823489;-;-;9.531799;-0.16261292;0.15631104;-;-;-;-;-;-;-;-;-;-;-;-;-;-;-
1514107823510;-;-;9.410904;-0.1530304;-0.15374756;-;-;-;-;-;-;-;-;-;-;-;-;-;-;-
1514107823531;-;-;9.548569;-0.5564575;0.04975891;-;-;-;-;-;-;-;-;-;-;-;-;-;-;-
1514107823551;-;-;9.33548;-0.56604004;0.32510376;-;-;-;-;-;-;-;-;-;-;-;-;-;-;-
1514107823571;-;-;9.003891;-0.6127167;0.22453308;-;-;-;-;-;-;-;-;-;-;-;-;-;-;-
1514107823592;-;-;8.527435;-0.6713867;0.18504333;-;-;-;-;-;-;-;-;-;-;-;-;-;-;-
1514107823614;-;-;9.15831;-1.0329132;0.08088684;-;-;-;-;-;-;-;-;-;-;-;-;-;-;-
1514107823633;-;-;8.936844;-0.83657837;-0.32852173;-;-;-;-;-;-;-;-;-;-;-;-;-;-;-
1514107823653;-;-;8.490326;-0.24162292;1.5748749;-;-;-;-;-;-;-;-;-;-;-;-;-;-;-
1514107823674;-;-;8.355057;-0.074035645;-3.919815;-;-;-;-;-;-;-;-;-;-;-;-;-;-;-
1514107823697;-;-;10.663071;0.888443;-3.9772797;-;-;-;-;-;-;-;-;-;-;-;-;-;-;-
1514107823714;-;-;8.460403;-1.546463;-0.39915466;-;-;-;-;-;-;-;-;-;-;-;-;-;-;-
1514107823734;-;-;9.33548;0.3425598;-0.7080078;-;-;-;-;-;-;-;-;-;-;-;-;-;-;-
1514107823755;-;-;9.583282;-0.6294861;0.9882965;-;-;-;-;-;-;-;-;-;-;-;-;-;-;-
1514107823775;-;-;9.434845;-0.6139221;-0.66490173;-;-;-;-;-;-;-;-;-;-;-;-;-;-;-
1514107823795;-;-;8.636368;-0.88327026;-0.01966858;-;-;-;-;-;-;-;-;-;-;-;-;-;-;-
1514107823816;-;-;8.1874695;-0.05368042;-1.2562714;-;-;-;-;-;-;-;-;-;-;-;-;-;-;-
1514107823836;-;-;9.301956;-0.7767334;0.686615;-;-;-;-;-;-;-;-;-;-;-;-;-;-;-
1514107823856;-;-;8.535812;0.56521606;-0.011291504;-;-;-;-;-;-;-;-;-;-;-;-;-;-;-
1514107823876;-;-;10.239288;0.19293213;1.20018;-;-;-;-;-;-;-;-;-;-;-;-;-;-;-
1514107823897;-;-;9.002686;0.2013092;-0.69244385;-;-;-;-;-;-;-;-;-;-;-;-;-;-;-
1514107823917;-;-;10.200989;0.23960876;-1.5818787;-;-;-;-;-;-;-;-;-;-;-;-;-;-;-
1514107823937;-;-;10.545746;0.6573944;-2.0152283;-;-;-;-;-;-;-;-;-;-;-;-;-;-;-
1514107823957;-;-;11.129929;1.1482086;-2.0260162;-;-;-;-;-;-;-;-;-;-;-;-;-;-;-
1514107823978;-;-;12.388092;1.6378326;-2.0331879;-;-;-;-;-;-;-;-;-;-;-;-;-;-;-
1514107823998;-;-;12.497025;1.6234589;-2.5144196;-;-;-;-;-;-;-;-;-;-;-;-;-;-;-
1514107824019;-;-;10.454773;0.17018127;-3.8108826;-;-;-;-;-;-;-;-;-;-;-;-;-;-;-
1514107824039;-;-;8.103668;1.1972961;-4.5375214;-;-;-;-;-;-;-;-;-;-;-;-;-;-;-
1514107824059;-;-;2.6209412;-0.73602295;-3.0842438;-;-;-;-;-;-;-;-;-;-;-;-;-;-;-
1514107824079;-;-;6.2242126;-0.33738708;-1.863205;-;-;-;-;-;-;-;-;-;-;-;-;-;-;-
1514107824099;-;-;9.148727;-0.49899292;-1.8991089;-;-;-;-;-;-;-;-;-;-;-;-;-;-;-
1514107824119;-;-;10.432022;-0.8090515;-2.0080566;-;-;-;-;-;-;-;-;-;-;-;-;-;-;-
1514107824139;-;-;10.675034;-0.9874115;-2.4222565;-;-;-;-;-;-;-;-;-;-;-;-;-;-;-
1514107824160;-;-;10.095642;-1.5979309;-2.7275085;-;-;-;-;-;-;-;-;-;-;-;-;-;-;-
1514107824180;-;-;8.959595;-2.004959;-3.4373932;-;-;-;-;-;-;-;-;-;-;-;-;-;-;-
1514107824200;-;-;8.83989;-1.4351349;-2.606598;-;-;-;-;-;-;-;-;-;-;-;-;-;-;-
1514107824221;-;-;8.345474;-0.7695465;-2.13974;-;-;-;-;-;-;-;-;-;-;-;-;-;-;-
1514107824240;-;-;7.447647;-0.16142273;-1.5579376;-;-;-;-;-;-;-;-;-;-;-;-;-;-;-
1514107824260;-;-;6.0638123;-0.023742676;-1.653717;-;-;-;-;-;-;-;-;-;-;-;-;-;-;-
1514107824280;-;-;6.418152;0.20489502;-3.0471344;-;-;-;-;-;-;-;-;-;-;-;-;-;-;-
1514107824301;-;-;7.317169;-0.21409607;-2.7550507;-;-;-;-;-;-;-;-;-;-;-;-;-;-;-
1514107824321;-;-;6.7677;-1.404007;-1.9146729;-;-;-;-;-;-;-;-;-;-;-;-;-;-;-
1514107824341;-;-;8.533432;-1.913971;-1.3843689;-;-;-;-;-;-;-;-;-;-;-;-;-;-;-
1514107824362;-;-;8.368225;-1.4734344;-1.8237;-;-;-;-;-;-;-;-;-;-;-;-;-;-;-
1514107824383;-;-;8.340698;-1.0424805;-2.1026306;-;-;-;-;-;-;-;-;-;-;-;-;-;-;-
1514107824403;-;-;7.7840424;-0.6127167;-2.0894623;-;-;-;-;-;-;-;-;-;-;-;-;-;-;-
1514107824423;-;-;8.562149;-0.45231628;-1.337677;-;-;-;-;-;-;-;-;-;-;-;-;-;-;-
1514107824444;-;-;9.29837;-0.5133667;-0.3668213;-;-;-;-;-;-;-;-;-;-;-;-;-;-;-
1514107824464;-;-;9.621582;0.0049743652;0.27243042;-;-;-;-;-;-;-;-;-;-;-;-;-;-;-
1514107824484;-;-;9.336685;-0.11114502;-0.50450134;-;-;-;-;-;-;-;-;-;-;-;-;-;-;-
1514107824504;-;-;10.473923;-0.6510315;-2.4473877;-;-;-;-;-;-;-;-;-;-;-;-;-;-;-
1514107824525;-;-;9.822708;-1.3034515;-6.021927;-;-;-;-;-;-;-;-;-;-;-;-;-;-;-
1514107824545;-;-;11.790741;-3.407959;-2.8220825;-;-;-;-;-;-;-;-;-;-;-;-;-;-;-
1514107824565;-;-;13.458298;-2.1462097;-6.749771;-;-;-;-;-;-;-;-;-;-;-;-;-;-;-
1514107824585;-;-;12.635895;-0.2571869;-3.638504;-;-;-;-;-;-;-;-;-;-;-;-;-;-;-
1514107824605;-;-;6.928116;0.2013092;-4.112549;-;-;-;-;-;-;-;-;-;-;-;-;-;-;-
1514107824626;-;-;3.545105;-0.016571045;-6.7090607;-;-;-;-;-;-;-;-;-;-;-;-;-;-;-
1514107824646;-;-;5.7573547;-0.3589325;-6.176361;-;-;-;-;-;-;-;-;-;-;-;-;-;-;-
1514107824666;-;-;8.458008;0.378479;-0.8325043;-;-;-;-;-;-;-;-;-;-;-;-;-;-;-
1514107824687;-;-;9.734116;0.28390503;-0.040023804;-;-;-;-;-;-;-;-;-;-;-;-;-;-;-
1514107824707;-;-;11.578842;-2.1881104;-0.085510254;-;-;-;-;-;-;-;-;-;-;-;-;-;-;-
1514107824727;-;-;12.910019;-3.107483;-3.025589;-;-;-;-;-;-;-;-;-;-;-;-;-;-;-
1514107824748;-;-;13.615112;-2.0851593;-3.2087402;-;-;-;-;-;-;-;-;-;-;-;-;-;-;-
1514107824768;-;-;10.220139;-0.095581055;-2.0307922;-;-;-;-;-;-;-;-;-;-;-;-;-;-;-
1514107824788;-;-;5.2545624;2.3644714;-0.4458313;-;-;-;-;-;-;-;-;-;-;-;-;-;-;-
1514107824809;-;-;2.9465485;3.0527954;0.6890106;-;-;-;-;-;-;-;-;-;-;-;-;-;-;-
1514107824829;-;-;2.9752808;2.1070862;0.88653564;-;-;-;-;-;-;-;-;-;-;-;-;-;-;-
1514107824849;-;-;4.7805176;1.1182861;1.2025757;-;-;-;-;-;-;-;-;-;-;-;-;-;-;-
1514107824870;-;-;8.493927;0.088775635;1.2013702;-;-;-;-;-;-;-;-;-;-;-;-;-;-;-
1514107824890;-;-;12.811859;-0.6246948;-0.48414612;-;-;-;-;-;-;-;-;-;-;-;-;-;-;-
1514107824910;-;-;12.361755;-0.16619873;-0.7965851;-;-;-;-;-;-;-;-;-;-;-;-;-;-;-
1514107824930;-;-;11.703354;0.417984;-1.3915405;-;-;-;-;-;-;-;-;-;-;-;-;-;-;-
1514107824951;-;-;13.15303;0.3712921;-0.35006714;-;-;-;-;-;-;-;-;-;-;-;-;-;-;-
1514107824971;-;-;12.483856;1.5588226;-0.7475128;-;-;-;-;-;-;-;-;-;-;-;-;-;-;-
1514107824991;-;-;12.497025;3.046814;-1.3580322;-;-;-;-;-;-;-;-;-;-;-;-;-;-;-
1514107825012;-;-;12.560471;4.4318542;-1.7470856;-;-;-;-;-;-;-;-;-;-;-;-;-;-;-
1514107825033;-;-;10.6666565;5.3608093;-5.353943;-;-;-;-;-;-;-;-;-;-;-;-;-;-;-
1514107825054;-;-;8.833893;4.940628;-9.025452;-;-;-;-;-;-;-;-;-;-;-;-;-;-;-
1514107825074;-;-;4.6153107;2.9091492;-9.322342;-;-;-;-;-;-;-;-;-;-;-;-;-;-;-
1514107825095;-;-;3.6851654;1.4941711;-0.1381836;-;-;-;-;-;-;-;-;-;-;-;-;-;-;-
1514107825115;-;-;9.445618;3.0875092;-3.247055;-;-;-;-;-;-;-;-;-;-;-;-;-;-;-
1514107825135;-;-;8.612427;3.9661865;-7.052643;-;-;-;-;-;-;-;-;-;-;-;-;-;-;-
1514107825155;-;-;5.2425995;1.5815582;-8.153961;-;-;-;-;-;-;-;-;-;-;-;-;-;-;-
1514107825176;-;-;4.3148346;0.35572815;-10.545776;-;-;-;-;-;-;-;-;-;-;-;-;-;-;-
1514107825195;-;-;5.7956543;-1.9462891;-1.3807678;-;-;-;-;-;-;-;-;-;-;-;-;-;-;-
1514107825215;-;-;9.8993225;-4.6038513;-0.5643463;-;-;-;-;-;-;-;-;-;-;-;-;-;-;-
1514107825235;-;-;15.303024;-3.6605377;-2.2378998;-;-;-;-;-;-;-;-;-;-;-;-;-;-;-
1514107825256;-;-;17.10228;-2.5316772;-4.76976;-;-;-;-;-;-;-;-;-;-;-;-;-;-;-
1514107825276;-;-;19.91307;-1.8182068;-5.547882;-;-;-;-;-;-;-;-;-;-;-;-;-;-;-
1514107825297;-;-;26.266083;-8.520767;-3.8228607;-;-;-;-;-;-;-;-;-;-;-;-;-;-;-
1514107825317;-;-;30.684586;-13.279251;5.4714355;-;-;-;-;-;-;-;-;-;-;-;-;-;-;-
1514107825337;-;-;25.502335;-12.033066;-2.7023773;-;-;-;-;-;-;-;-;-;-;-;-;-;-;-
1514107825357;-;-;7.5841217;-4.211212;-11.137146;-;-;-;-;-;-;-;-;-;-;-;-;-;-;-
1514107825378;-;-;-0.39933777;-3.7670898;-5.230652;-;-;-;-;-;-;-;-;-;-;-;-;-;-;-
1514107825397;-;-;-2.6235504;-5.9601746;-3.2171173;-;-;-;-;-;-;-;-;-;-;-;-;-;-;-
1514107825417;-;-;-2.3146973;-5.796173;-8.631607;-;-;-;-;-;-;-;-;-;-;-;-;-;-;-
1514107825437;-;-;-4.605957;-2.2874756;-15.479034;-;-;-;-;-;-;-;-;-;-;-;-;-;-;-
1514107825458;-;-;-0.8781891;4.726349;-6.500778;-;-;-;-;-;-;-;-;-;-;-;-;-;-;-
1514107825478;-;-;2.3264618;13.617218;8.541992;-;-;-;-;-;-;-;-;-;-;-;-;-;-;-
1514107825498;-;-;-4.407242;10.276108;3.7679596;-;-;-;-;-;-;-;-;-;-;-;-;-;-;-
1514107825519;-;-;-5.8461456;1.3660889;-3.4673157;-;-;-;-;-;-;-;-;-;-;-;-;-;-;-
1514107825539;-;-;-3.9128265;-6.907074;-4.7278595;-;-;-;-;-;-;-;-;-;-;-;-;-;-;-
1514107825559;-;-;-7.4071655;-15.718933;-7.8223724;-;-;-;-;-;-;-;-;-;-;-;-;-;-;-
1514107825580;-;-;5.5155334;-7.618164;-2.6880035;-;-;-;-;-;-;-;-;-;-;-;-;-;-;-
1514107825600;-;-;38.895493;3.2946167;7.125824;-;-;-;-;-;-;-;-;-;-;-;-;-;-;-
1514107825620;-;-;12.524551;-0.368515;-8.859055;-;-;-;-;-;-;-;-;-;-;-;-;-;-;-
1514107825641;-;-;11.19577;-2.8716583;-11.155106;-;-;-;-;-;-;-;-;-;-;-;-;-;-;-
1514107825661;-;-;15.218033;-3.783844;-8.70224;-;-;-;-;-;-;-;-;-;-;-;-;-;-;-
1514107825681;-;-;9.914871;3.1114502;-3.7306824;-;-;-;-;-;-;-;-;-;-;-;-;-;-;-
1514107825702;-;-;9.357025;7.5874176;-5.3647156;-;-;-;-;-;-;-;-;-;-;-;-;-;-;-
1514107825722;-;-;13.060867;9.598541;-4.8763123;-;-;-;-;-;-;-;-;-;-;-;-;-;-;-
1514107825742;-;-;13.927567;8.634888;-2.2127533;-;-;-;-;-;-;-;-;-;-;-;-;-;-;-
1514107825762;-;-;13.206909;9.63446;-2.2486725;-;-;-;-;-;-;-;-;-;-;-;-;-;-;-
1514107825783;-;-;11.752426;7.3300476;-0.16091919;-;-;-;-;-;-;-;-;-;-;-;-;-;-;-
1514107825803;-;-;11.924805;6.269409;-0.2459259;-;-;-;-;-;-;-;-;-;-;-;-;-;-;-
1514107825823;-;-;7.8965607;6.8751373;-3.0291748;-;-;-;-;-;-;-;-;-;-;-;-;-;-;-
1514107825844;-;-;0.18005371;4.4533997;-8.710617;-;-;-;-;-;-;-;-;-;-;-;-;-;-;-
1514107825864;-;-;-3.436386;4.636566;-5.6005554;-;-;-;-;-;-;-;-;-;-;-;-;-;-;-
1514107825885;-;-;-3.771576;-0.2320404;1.3881226;-;-;-;-;-;-;-;-;-;-;-;-;-;-;-
1514107825905;-;-;-1.285202;-7.9593353;-0.013687134;-;-;-;-;-;-;-;-;-;-;-;-;-;-;-
1514107825925;-;-;-3.1239471;-10.3284;-5.5574493;-;-;-;-;-;-;-;-;-;-;-;-;-;-;-
1514107825946;-;-;-6.582367;-5.494507;-12.5425415;-;-;-;-;-;-;-;-;-;-;-;-;-;-;-
1514107825966;-;-;5.4413147;1.6964874;-11.503464;-;-;-;-;-;-;-;-;-;-;-;-;-;-;-
1514107825987;-;-;12.732849;7.356369;-9.086517;-;-;-;-;-;-;-;-;-;-;-;-;-;-;-
1514107826007;-;-;2.0224;5.8552094;-6.226639;-;-;-;-;-;-;-;-;-;-;-;-;-;-;-
1514107826027;-;-;14.643433;-3.1218414;-3.5391388;-;-;-;-;-;-;-;-;-;-;-;-;-;-;-
1514107826047;-;-;13.98143;-2.2443695;4.994995;-;-;-;-;-;-;-;-;-;-;-;-;-;-;-
1514107826067;-;-;13.082413;1.2332001;-6.3236084;-;-;-;-;-;-;-;-;-;-;-;-;-;-;-
1514107826088;-;-;19.856796;-0.8090515;-8.086929;-;-;-;-;-;-;-;-;-;-;-;-;-;-;-
1514107826108;-;-;20.62294;-7.634918;-4.123337;-;-;-;-;-;-;-;-;-;-;-;-;-;-;-
1514107826128;-;-;17.221985;-10.320007;1.0792694;-;-;-;-;-;-;-;-;-;-;-;-;-;-;-
1514107826149;-;-;22.690338;-7.334442;2.1363068;-;-;-;-;-;-;-;-;-;-;-;-;-;-;-
1514107826169;-;-;20.187195;-7.4649353;-6.2014923;-;-;-;-;-;-;-;-;-;-;-;-;-;-;-
1514107826189;-;-;10.533783;-3.3504944;-6.2026978;-;-;-;-;-;-;-;-;-;-;-;-;-;-;-
1514107826209;-;-;2.375534;-6.6281586;-8.589706;-;-;-;-;-;-;-;-;-;-;-;-;-;-;-
1514107826230;-;-;-2.5361633;-9.203125;-12.79274;-;-;-;-;-;-;-;-;-;-;-;-;-;-;-
1514107826250;-;-;-7.665741;-3.8796082;-11.132355;-;-;-;-;-;-;-;-;-;-;-;-;-;-;-
1514107826270;-;-;-7.433502;5.7498627;-3.4433746;-;-;-;-;-;-;-;-;-;-;-;-;-;-;-
1514107826291;-;-;-1.613205;14.35582;5.5588226;-;-;-;-;-;-;-;-;-;-;-;-;-;-;-
1514107826311;-;-;3.7126923;15.278793;-1.2167664;-;-;-;-;-;-;-;-;-;-;-;-;-;-;-
1514107826331;-;-;-2.5637054;4.19722;-5.6532288;-;-;-;-;-;-;-;-;-;-;-;-;-;-;-
1514107826352;-;-;-3.237671;-7.8300476;-0.3764038;-;-;-;-;-;-;-;-;-;-;-;-;-;-;-
1514107826372;-;-;-6.4853973;-20.791061;-3.6564636;-;-;-;-;-;-;-;-;-;-;-;-;-;-;-
1514107826392;-;-;7.197464;-12.847092;2.1925812;-;-;-;-;-;-;-;-;-;-;-;-;-;-;-
1514107826412;-;-;16.664139;-0.018966675;-11.019821;-;-;-;-;-;-;-;-;-;-;-;-;-;-;-
1514107826433;-;-;20.32846;3.2239838;-2.9597473;-;-;-;-;-;-;-;-;-;-;-;-;-;-;-
1514107826453;-;-;9.6072235;2.6433868;-9.77005;-;-;-;-;-;-;-;-;-;-;-;-;-;-;-
1514107826473;-;-;13.853348;0.67774963;-10.161499;-;-;-;-;-;-;-;-;-;-;-;-;-;-;-
1514107826494;-;-;14.541672;-1.6003265;-11.319107;-;-;-;-;-;-;-;-;-;-;-;-;-;-;-
1514107826514;-;-;14.087967;3.2934113;-7.6296387;-;-;-;-;-;-;-;-;-;-;-;-;-;-;-
1514107826534;-;-;15.479004;4.25708;-8.332336;-;-;-;-;-;-;-;-;-;-;-;-;-;-;-
1514107826554;-;-;13.339783;8.6779785;-8.143188;-;-;-;-;-;-;-;-;-;-;-;-;-;-;-
1514107826575;-;-;9.858612;10.792053;-5.2378235;-;-;-;-;-;-;-;-;-;-;-;-;-;-;-
1514107826595;-;-;10.338654;7.45813;-3.8767242;-;-;-;-;-;-;-;-;-;-;-;-;-;-;-
1514107826615;-;-;9.658707;5.2794037;-2.2558594;-;-;-;-;-;-;-;-;-;-;-;-;-;-;-
1514107826636;-;-;6.9736023;4.441437;-0.9079132;-;-;-;-;-;-;-;-;-;-;-;-;-;-;-
1514107826656;-;-;0.8061371;3.6298065;-0.8312988;-;-;-;-;-;-;-;-;-;-;-;-;-;-;-
1514107826677;-;-;0.32609558;3.6501465;0.8661804;-;-;-;-;-;-;-;-;-;-;-;-;-;-;-
1514107826696;-;-;-2.0585175;1.3600922;-1.6321564;-;-;-;-;-;-;-;-;-;-;-;-;-;-;-
1514107826716;-;-;-3.443573;-3.5001373;-2.5826569;-;-;-;-;-;-;-;-;-;-;-;-;-;-;-
1514107826736;-;-;-5.840164;-6.6161804;-5.3755035;-;-;-;-;-;-;-;-;-;-;-;-;-;-;-
1514107826757;-;-;-2.5720825;-6.981308;-10.311142;-;-;-;-;-;-;-;-;-;-;-;-;-;-;-
1514107826777;-;-;22.32402;-0.0021972656;-5.898636;-;-;-;-;-;-;-;-;-;-;-;-;-;-;-
1514107826798;-;-;13.949112;7.097809;-4.7326508;-;-;-;-;-;-;-;-;-;-;-;-;-;-;-
1514107826818;-;-;4.6631927;5.3536224;-6.7880707;-;-;-;-;-;-;-;-;-;-;-;-;-;-;-
1514107826838;-;-;7.525467;-1.7822876;-4.184387;-;-;-;-;-;-;-;-;-;-;-;-;-;-;-
1514107826859;-;-;4.161606;-1.3082428;-0.13937378;-;-;-;-;-;-;-;-;-;-;-;-;-;-;-
1514107826879;-;-;7.846283;-0.43315125;-3.0112305;-;-;-;-;-;-;-;-;-;-;-;-;-;-;-
1514107826899;-;-;11.105988;0.62028503;-6.4468994;-;-;-;-;-;-;-;-;-;-;-;-;-;-;-
1514107826920;-;-;11.162262;0.6945038;-5.7442017;-;-;-;-;-;-;-;-;-;-;-;-;-;-;-
1514107826940;-;-;9.752075;0.44911194;-4.124527;-;-;-;-;-;-;-;-;-;-;-;-;-;-;-
1514107826960;-;-;7.36026;-0.06564331;-3.3943024;-;-;-;-;-;-;-;-;-;-;-;-;-;-;-
1514107826981;-;-;5.2150574;-0.83657837;-2.076294;-;-;-;-;-;-;-;-;-;-;-;-;-;-;-
1514107827001;-;-;4.323227;-1.1406403;-2.132553;-;-;-;-;-;-;-;-;-;-;-;-;-;-;-
1514107827021;-;-;4.695526;-0.2775421;-2.3983002;-;-;-;-;-;-;-;-;-;-;-;-;-;-;-
1514107827042;-;-;4.9624786;0.7136688;-2.5108337;-;-;-;-;-;-;-;-;-;-;-;-;-;-;-
1514107827062;-;-;4.976837;1.4343262;-2.4006958;-;-;-;-;-;-;-;-;-;-;-;-;-;-;-
1514107827082;-;-;4.7015076;0.72683716;-2.211563;-;-;-;-;-;-;-;-;-;-;-;-;-;-;-
1514107827103;-;-;4.96846;-0.19493103;-1.6118164;-;-;-;-;-;-;-;-;-;-;-;-;-;-;-
1514107827123;-;-;5.5478516;-1.3214111;-1.7195587;-;-;-;-;-;-;-;-;-;-;-;-;-;-;-
1514107827143;-;-;5.952469;-2.9841766;-2.0822754;-;-;-;-;-;-;-;-;-;-;-;-;-;-;-
1514107827164;-;-;7.312378;-3.1888885;-2.4797058;-;-;-;-;-;-;-;-;-;-;-;-;-;-;-
1514107827184;-;-;8.611237;-2.0205078;-3.7187042;-;-;-;-;-;-;-;-;-;-;-;-;-;-;-
1514107827204;-;-;9.470749;-1.2830963;-3.3751373;-;-;-;-;-;-;-;-;-;-;-;-;-;-;-
1514107827224;-;-;9.965164;-0.27035522;-2.670044;-;-;-;-;-;-;-;-;-;-;-;-;-;-;-
1514107827245;-;-;9.637146;0.4909973;-2.6401215;-;-;-;-;-;-;-;-;-;-;-;-;-;-;-
1514107827265;-;-;9.814316;0.61190796;-2.7873688;-;-;-;-;-;-;-;-;-;-;-;-;-;-;-
1514107827285;-;-;11.1167755;2.1011047;-2.4749146;-;-;-;-;-;-;-;-;-;-;-;-;-;-;-
1514107827306;-;-;10.183029;3.7124023;-3.6181488;-;-;-;-;-;-;-;-;-;-;-;-;-;-;-
1514107827326;-;-;7.384201;3.7100067;-10.551758;-;-;-;-;-;-;-;-;-;-;-;-;-;-;-
1514107827346;-;-;5.6819305;2.2675018;-13.967087;-;-;-;-;-;-;-;-;-;-;-;-;-;-;-
1514107827367;-;-;10.283585;0.4467163;-7.268112;-;-;-;-;-;-;-;-;-;-;-;-;-;-;-
1514107827387;-;-;12.91362;-0.621109;-5.42218;-;-;-;-;-;-;-;-;-;-;-;-;-;-;-
1514107827407;-;-;11.088043;-0.045303345;-6.275711;-;-;-;-;-;-;-;-;-;-;-;-;-;-;-
1514107827427;-;-;11.650681;-0.32182312;-4.7350464;-;-;-;-;-;-;-;-;-;-;-;-;-;-;-
1514107827448;-;-;11.237671;-1.2819061;-4.8020782;-;-;-;-;-;-;-;-;-;-;-;-;-;-;-
1514107827468;-;-;9.711365;-0.55166626;-4.362747;-;-;-;-;-;-;-;-;-;-;-;-;-;-;-
1514107827488;-;-;7.051407;0.80822754;-3.496048;-;-;-;-;-;-;-;-;-;-;-;-;-;-;-
1514107827509;-;-;4.644043;2.6134644;-2.9417877;-;-;-;-;-;-;-;-;-;-;-;-;-;-;-
1514107827529;-;-;4.0;2.9534454;-2.4641418;-;-;-;-;-;-;-;-;-;-;-;-;-;-;-
1514107827549;-;-;4.284912;2.0053406;-1.8464508;-;-;-;-;-;-;-;-;-;-;-;-;-;-;-
1514107827570;-;-;4.05986;1.1553955;-1.3233032;-;-;-;-;-;-;-;-;-;-;-;-;-;-;-
1514107827590;-;-;3.8467712;0.79985046;-0.843277;-;-;-;-;-;-;-;-;-;-;-;-;-;-;-
1514107827610;-;-;4.4800415;0.59155273;-0.6038513;-;-;-;-;-;-;-;-;-;-;-;-;-;-;-
1514107827631;-;-;6.4720154;1.1889191;-0.4063263;-;-;-;-;-;-;-;-;-;-;-;-;-;-;-
1514107827651;-;-;9.288788;1.2224274;-1.9697418;-;-;-;-;-;-;-;-;-;-;-;-;-;-;-
1514107827671;-;-;9.9496;0.8920288;-2.373169;-;-;-;-;-;-;-;-;-;-;-;-;-;-;-
1514107827692;-;-;10.552933;1.2032776;-0.8492584;-;-;-;-;-;-;-;-;-;-;-;-;-;-;-
1514107827712;-;-;10.750458;0.7819061;0.45916748;-;-;-;-;-;-;-;-;-;-;-;-;-;-;-
1514107827732;-;-;11.679413;-0.095581055;-0.75109863;-;-;-;-;-;-;-;-;-;-;-;-;-;-;-
1514107827753;-;-;12.213318;-0.73243713;-0.98213196;-;-;-;-;-;-;-;-;-;-;-;-;-;-;-
1514107827773;-;-;12.336609;0.7878876;-4.0275574;-;-;-;-;-;-;-;-;-;-;-;-;-;-;-
1514107827793;-;-;10.777985;5.351227;-8.540634;-;-;-;-;-;-;-;-;-;-;-;-;-;-;-
1514107827814;-;-;7.7648926;7.139694;-8.424515;-;-;-;-;-;-;-;-;-;-;-;-;-;-;-
1514107827833;-;-;8.0533905;5.1836395;-7.1268616;-;-;-;-;-;-;-;-;-;-;-;-;-;-;-
1514107827853;-;-;6.809601;-0.47984314;-6.914963;-;-;-;-;-;-;-;-;-;-;-;-;-;-;-
1514107827873;-;-;5.4640503;-3.4306946;-9.474365;-;-;-;-;-;-;-;-;-;-;-;-;-;-;-
1514107827894;-;-;6.8766327;-1.522522;-7.6080933;-;-;-;-;-;-;-;-;-;-;-;-;-;-;-
1514107827914;-;-;10.040573;2.3453064;-4.6213226;-;-;-;-;-;-;-;-;-;-;-;-;-;-;-
1514107827934;-;-;11.329849;3.077942;-5.587387;-;-;-;-;-;-;-;-;-;-;-;-;-;-;-
1514107827955;-;-;11.781158;2.1274414;-6.0626373;-;-;-;-;-;-;-;-;-;-;-;-;-;-;-
1514107827975;-;-;9.082901;0.42515564;-6.3080444;-;-;-;-;-;-;-;-;-;-;-;-;-;-;-
1514107827995;-;-;6.600113;-1.9690399;-5.247406;-;-;-;-;-;-;-;-;-;-;-;-;-;-;-
1514107828015;-;-;3.5870056;-4.530838;-3.274582;-;-;-;-;-;-;-;-;-;-;-;-;-;-;-
1514107828036;-;-;2.5227814;-4.752304;-2.3276825;-;-;-;-;-;-;-;-;-;-;-;-;-;-;-
1514107828056;-;-;4.47406;-3.522873;-1.7279358;-;-;-;-;-;-;-;-;-;-;-;-;-;-;-
1514107828077;-;-;8.232956;-1.7787018;-1.3664093;-;-;-;-;-;-;-;-;-;-;-;-;-;-;-
1514107828097;-;-;9.957977;-0.54808044;-1.8488312;-;-;-;-;-;-;-;-;-;-;-;-;-;-;-
1514107828118;-;-;10.16507;-1.2807007;-4.602173;-;-;-;-;-;-;-;-;-;-;-;-;-;-;-
1514107828138;-;-;11.023392;-2.4107666;-4.7877197;-;-;-;-;-;-;-;-;-;-;-;-;-;-;-
1514107828158;-;-;10.435623;-1.506958;-5.033127;-;-;-;-;-;-;-;-;-;-;-;-;-;-;-
1514107828179;-;-;8.535812;-1.427948;-5.9022217;-;-;-;-;-;-;-;-;-;-;-;-;-;-;-
1514107828199;-;-;6.834732;-2.313797;-6.7749023;-;-;-;-;-;-;-;-;-;-;-;-;-;-;-
1514107828219;-;-;4.8283997;-2.8620758;-6.0949554;-;-;-;-;-;-;-;-;-;-;-;-;-;-;-
1514107828240;-;-;3.0411224;-1.6709595;-3.5415344;-;-;-;-;-;-;-;-;-;-;-;-;-;-;-
1514107828259;-;-;3.3607483;-0.18057251;-4.5854034;-;-;-;-;-;-;-;-;-;-;-;-;-;-;-
1514107828280;-;-;7.0190887;1.9502716;-3.974884;-;-;-;-;-;-;-;-;-;-;-;-;-;-;-
1514107828300;-;-;8.237747;2.5548096;-2.9358063;-;-;-;-;-;-;-;-;-;-;-;-;-;-;-
1514107828320;-;-;13.366119;-1.1502228;-3.180008;-;-;-;-;-;-;-;-;-;-;-;-;-;-;-
1514107828341;-;-;15.119873;-3.4905548;-0.3249359;-;-;-;-;-;-;-;-;-;-;-;-;-;-;-
1514107828361;-;-;14.869675;-2.7172241;-0.5140686;-;-;-;-;-;-;-;-;-;-;-;-;-;-;-
1514107828381;-;-;12.099594;-0.5564575;-0.3656311;-;-;-;-;-;-;-;-;-;-;-;-;-;-;-
1514107828402;-;-;8.541809;1.4115753;0.84703064;-;-;-;-;-;-;-;-;-;-;-;-;-;-;-
1514107828422;-;-;8.344284;1.461853;-0.72236633;-;-;-;-;-;-;-;-;-;-;-;-;-;-;-
1514107828442;-;-;11.059311;1.022522;-0.91989136;-;-;-;-;-;-;-;-;-;-;-;-;-;-;-
1514107828462;-;-;15.332962;0.84654236;-0.86361694;-;-;-;-;-;-;-;-;-;-;-;-;-;-;-
1514107828483;-;-;18.038406;4.777817;-0.867218;-;-;-;-;-;-;-;-;-;-;-;-;-;-;-
1514107828503;-;-;19.727509;7.782547;-0.77264404;-;-;-;-;-;-;-;-;-;-;-;-;-;-;-
1514107828523;-;-;17.803772;5.900696;-2.1038208;-;-;-;-;-;-;-;-;-;-;-;-;-;-;-
1514107828543;-;-;12.1762085;6.003647;0.86499023;-;-;-;-;-;-;-;-;-;-;-;-;-;-;-
1514107828564;-;-;6.7641144;7.115753;-2.6054077;-;-;-;-;-;-;-;-;-;-;-;-;-;-;-
1514107828584;-;-;0.5930481;7.415039;-6.797653;-;-;-;-;-;-;-;-;-;-;-;-;-;-;-
1514107828604;-;-;-1.3151245;3.9937134;-12.099609;-;-;-;-;-;-;-;-;-;-;-;-;-;-;-
1514107828625;-;-;-3.5501099;0.64064026;-10.99469;-;-;-;-;-;-;-;-;-;-;-;-;-;-;-
1514107828645;-;-;-3.6027832;0.100753784;-9.766464;-;-;-;-;-;-;-;-;-;-;-;-;-;-;-
1514107828665;-;-;9.88974;-0.38168335;-7.046646;-;-;-;-;-;-;-;-;-;-;-;-;-;-;-
1514107828685;-;-;10.216553;-3.2164154;-9.212204;-;-;-;-;-;-;-;-;-;-;-;-;-;-;-
1514107828705;-;-;6.331955;-2.2671204;-6.026718;-;-;-;-;-;-;-;-;-;-;-;-;-;-;-
1514107828726;-;-;8.26767;-4.700821;-2.3600006;-;-;-;-;-;-;-;-;-;-;-;-;-;-;-
1514107828745;-;-;8.165909;-2.9638367;-1.3580322;-;-;-;-;-;-;-;-;-;-;-;-;-;-;-
1514107828765;-;-;6.7210083;0.65979004;-2.4102783;-;-;-;-;-;-;-;-;-;-;-;-;-;-;-
1514107828786;-;-;5.4760284;2.0041351;0.28678894;-;-;-;-;-;-;-;-;-;-;-;-;-;-;-
1514107828806;-;-;6.917343;1.6378326;2.5529022;-;-;-;-;-;-;-;-;-;-;-;-;-;-;-
1514107828826;-;-;5.844742;0.47065735;-2.1373444;-;-;-;-;-;-;-;-;-;-;-;-;-;-;-
1514107828847;-;-;2.0535126;-2.0863495;-6.5414734;-;-;-;-;-;-;-;-;-;-;-;-;-;-;-
1514107828867;-;-;1.2646332;-4.0436096;-4.9253845;-;-;-;-;-;-;-;-;-;-;-;-;-;-;-
1514107828887;-;-;6.6060944;-4.9989014;-0.95339966;-;-;-;-;-;-;-;-;-;-;-;-;-;-;-
1514107828907;-;-;10.544556;-6.357605;-2.096634;-;-;-;-;-;-;-;-;-;-;-;-;-;-;-
1514107828928;-;-;16.653366;-5.899124;-4.4585114;-;-;-;-;-;-;-;-;-;-;-;-;-;-;-
1514107828948;-;-;20.609772;-3.0811462;-7.531479;-;-;-;-;-;-;-;-;-;-;-;-;-;-;-
1514107828968;-;-;20.310501;-3.265503;-8.145584;-;-;-;-;-;-;-;-;-;-;-;-;-;-;-
1514107828989;-;-;19.065521;-6.3073273;-8.221008;-;-;-;-;-;-;-;-;-;-;-;-;-;-;-
1514107829009;-;-;17.582306;-8.026367;-5.8100433;-;-;-;-;-;-;-;-;-;-;-;-;-;-;-
1514107829029;-;-;14.96904;-8.586609;-1.990097;-;-;-;-;-;-;-;-;-;-;-;-;-;-;-
1514107829050;-;-;10.046555;-6.883133;-1.8296814;-;-;-;-;-;-;-;-;-;-;-;-;-;-;-
1514107829070;-;-;5.7645264;-3.4462585;-1.7267303;-;-;-;-;-;-;-;-;-;-;-;-;-;-;-
1514107829090;-;-;2.7155151;-1.3525391;-7.8032227;-;-;-;-;-;-;-;-;-;-;-;-;-;-;-
1514107829111;-;-;1.4860992;1.5815582;-16.425934;-;-;-;-;-;-;-;-;-;-;-;-;-;-;-
1514107829130;-;-;4.075424;1.6138763;-8.62323;-;-;-;-;-;-;-;-;-;-;-;-;-;-;-
1514107829150;-;-;4.5027924;1.6450043;-1.1748657;-;-;-;-;-;-;-;-;-;-;-;-;-;-;-
1514107829171;-;-;4.4525146;-1.2447968;-5.511963;-;-;-;-;-;-;-;-;-;-;-;-;-;-;-
1514107829190;-;-;2.3875122;-2.4335175;-1.6393433;-;-;-;-;-;-;-;-;-;-;-;-;-;-;-
1514107829210;-;-;-1.5246124;-2.8656616;-4.086212;-;-;-;-;-;-;-;-;-;-;-;-;-;-;-
1514107829230;-;-;-0.32751465;-3.4773865;-5.8339844;-;-;-;-;-;-;-;-;-;-;-;-;-;-;-
1514107829251;-;-;6.904175;-2.9530487;0.5561371;-;-;-;-;-;-;-;-;-;-;-;-;-;-;-
1514107829271;-;-;13.027344;-3.5444183;0.5764923;-;-;-;-;-;-;-;-;-;-;-;-;-;-;-
1514107829291;-;-;17.51767;-4.881592;-8.590912;-;-;-;-;-;-;-;-;-;-;-;-;-;-;-
1514107829312;-;-;17.776245;-3.1374054;-10.543381;-;-;-;-;-;-;-;-;-;-;-;-;-;-;-
1514107829332;-;-;13.764755;5.126175;-12.152283;-;-;-;-;-;-;-;-;-;-;-;-;-;-;-
1514107829352;-;-;17.939041;11.287659;-10.75647;-;-;-;-;-;-;-;-;-;-;-;-;-;-;-
1514107829372;-;-;12.507797;14.834671;-5.544281;-;-;-;-;-;-;-;-;-;-;-;-;-;-;-
1514107829393;-;-;10.70018;9.292084;-1.6944122;-;-;-;-;-;-;-;-;-;-;-;-;-;-;-
1514107829413;-;-;3.2230835;5.944992;1.6478882;-;-;-;-;-;-;-;-;-;-;-;-;-;-;-
1514107829433;-;-;6.932907;2.6577606;-0.87319946;-;-;-;-;-;-;-;-;-;-;-;-;-;-;-
1514107829453;-;-;2.8962708;3.1952515;1.5700836;-;-;-;-;-;-;-;-;-;-;-;-;-;-;-
1514107829474;-;-;-1.716156;0.3425598;-3.140503;-;-;-;-;-;-;-;-;-;-;-;-;-;-;-
1514107829493;-;-;-0.5166626;-0.2799225;-3.8731384;-;-;-;-;-;-;-;-;-;-;-;-;-;-;-
1514107829514;-;-;1.0515442;0.66218567;-3.0471344;-;-;-;-;-;-;-;-;-;-;-;-;-;-;-
1514107829534;-;-;-1.1235809;-2.7507477;-2.7203217;-;-;-;-;-;-;-;-;-;-;-;-;-;-;-
1514107829555;-;-;-2.1530914;-7.771393;-5.3048706;-;-;-;-;-;-;-;-;-;-;-;-;-;-;-
1514107829575;-;-;2.9681091;-3.029663;-15.614304;-;-;-;-;-;-;-;-;-;-;-;-;-;-;-
1514107829595;-;-;6.8993835;4.142166;-6.967636;-;-;-;-;-;-;-;-;-;-;-;-;-;-;-
1514107829615;-;-;1.6872101;5.364395;-4.3759155;-;-;-;-;-;-;-;-;-;-;-;-;-;-;-
1514107829636;-;-;4.817627;-0.9957886;-6.926941;-;-;-;-;-;-;-;-;-;-;-;-;-;-;-
1514107829656;-;-;6.9424744;-3.6749115;-2.1217804;-;-;-;-;-;-;-;-;-;-;-;-;-;-;-
1514107829676;-;-;7.5996857;-0.47625732;-0.01966858;-;-;-;-;-;-;-;-;-;-;-;-;-;-;-
1514107829697;-;-;11.059311;4.1672974;-8.531052;-;-;-;-;-;-;-;-;-;-;-;-;-;-;-
1514107829717;-;-;15.475418;4.8640137;-9.674286;-;-;-;-;-;-;-;-;-;-;-;-;-;-;-
1514107829737;-;-;17.073547;-1.7787018;-8.417328;-;-;-;-;-;-;-;-;-;-;-;-;-;-;-
1514107829757;-;-;14.235214;-7.314087;-5.180374;-;-;-;-;-;-;-;-;-;-;-;-;-;-;-
1514107829778;-;-;14.53569;-6.31691;-0.8097534;-;-;-;-;-;-;-;-;-;-;-;-;-;-;-
1514107829797;-;-;16.555191;-3.909546;2.2404633;-;-;-;-;-;-;-;-;-;-;-;-;-;-;-
1514107829817;-;-;19.551544;-6.037979;-3.9126434;-;-;-;-;-;-;-;-;-;-;-;-;-;-;-
1514107829837;-;-;18.759064;-5.210785;-8.60527;-;-;-;-;-;-;-;-;-;-;-;-;-;-;-
1514107829858;-;-;13.245209;-8.180801;-6.1943207;-;-;-;-;-;-;-;-;-;-;-;-;-;-;-
1514107829878;-;-;7.3111877;-9.544296;-4.299301;-;-;-;-;-;-;-;-;-;-;-;-;-;-;-
1514107829898;-;-;2.947754;-6.7658234;-3.4661255;-;-;-;-;-;-;-;-;-;-;-;-;-;-;-
1514107829919;-;-;-1.5988312;-4.3704224;-10.378189;-;-;-;-;-;-;-;-;-;-;-;-;-;-;-
1514107829939;-;-;-4.446747;-0.8353882;-13.222488;-;-;-;-;-;-;-;-;-;-;-;-;-;-;-
1514107829959;-;-;-3.9990234;8.679169;-7.0801697;-;-;-;-;-;-;-;-;-;-;-;-;-;-;-
1514107829979;-;-;-0.106048584;12.265686;1.5329742;-;-;-;-;-;-;-;-;-;-;-;-;-;-;-
1514107830000;-;-;-1.8801575;3.3125763;5.3409424;-;-;-;-;-;-;-;-;-;-;-;-;-;-;-
1514107830020;-;-;-3.3861084;-6.2283173;-1.0132599;-;-;-;-;-;-;-;-;-;-;-;-;-;-;-
1514107830040;-;-;5.2114716;-15.037796;-8.345505;-;-;-;-;-;-;-;-;-;-;-;-;-;-;-
1514107830061;-;-;17.8768;-8.207138;-14.052078;-;-;-;-;-;-;-;-;-;-;-;-;-;-;-
1514107830081;-;-;11.354996;1.640213;-1.7889862;-;-;-;-;-;-;-;-;-;-;-;-;-;-;-
1514107830101;-;-;8.222183;0.9578705;-3.4278107;-;-;-;-;-;-;-;-;-;-;-;-;-;-;-
1514107830122;-;-;9.896927;2.4518585;-7.764908;-;-;-;-;-;-;-;-;-;-;-;-;-;-;-
1514107830142;-;-;9.5677185;4.6808624;-12.148697;-;-;-;-;-;-;-;-;-;-;-;-;-;-;-
1514107830162;-;-;9.744888;4.648529;-8.778854;-;-;-;-;-;-;-;-;-;-;-;-;-;-;-
1514107830183;-;-;7.0921173;3.4801636;-5.693924;-;-;-;-;-;-;-;-;-;-;-;-;-;-;-
1514107830203;-;-;3.9628906;0.31263733;-2.709549;-;-;-;-;-;-;-;-;-;-;-;-;-;-;-
1514107830223;-;-;3.1416779;-2.5340729;-1.5399933;-;-;-;-;-;-;-;-;-;-;-;-;-;-;-
1514107830243;-;-;0.72354126;-2.427536;-0.82292175;-;-;-;-;-;-;-;-;-;-;-;-;-;-;-
1514107830263;-;-;1.5914307;-0.4487152;0.99427795;-;-;-;-;-;-;-;-;-;-;-;-;-;-;-
1514107830284;-;-;3.272171;1.2894745;0.45677185;-;-;-;-;-;-;-;-;-;-;-;-;-;-;-
1514107830303;-;-;4.1077423;1.4343262;-0.83369446;-;-;-;-;-;-;-;-;-;-;-;-;-;-;-
1514107830323;-;-;3.5546875;0.576004;-2.0283966;-;-;-;-;-;-;-;-;-;-;-;-;-;-;-
1514107830343;-;-;3.2494202;1.2990417;-3.95813;-;-;-;-;-;-;-;-;-;-;-;-;-;-;-
1514107830364;-;-;3.3571625;3.8381042;-4.341202;-;-;-;-;-;-;-;-;-;-;-;-;-;-;-
1514107830384;-;-;5.912964;4.755081;-4.5459137;-;-;-;-;-;-;-;-;-;-;-;-;-;-;-
1514107830405;-;-;9.568924;5.4924927;-4.799698;-;-;-;-;-;-;-;-;-;-;-;-;-;-;-
1514107830425;-;-;12.649063;6.580658;-7.211853;-;-;-;-;-;-;-;-;-;-;-;-;-;-;-
1514107830445;-;-;14.663773;6.3687744;-10.339874;-;-;-;-;-;-;-;-;-;-;-;-;-;-;-
1514107830466;-;-;17.213608;4.799362;-7.5745697;-;-;-;-;-;-;-;-;-;-;-;-;-;-;-
1514107830486;-;-;20.40268;1.956253;-8.018692;-;-;-;-;-;-;-;-;-;-;-;-;-;-;-
1514107830506;-;-;9.365402;7.8747253;-7.8139954;-;-;-;-;-;-;-;-;-;-;-;-;-;-;-
1514107830526;-;-;5.3611145;7.7645874;-6.188324;-;-;-;-;-;-;-;-;-;-;-;-;-;-;-
1514107830547;-;-;2.6472778;6.019211;-1.777008;-;-;-;-;-;-;-;-;-;-;-;-;-;-;-
1514107830567;-;-;1.0623169;3.158142;-1.5938568;-;-;-;-;-;-;-;-;-;-;-;-;-;-;-
1514107830587;-;-;5.0283203;1.3098145;-5.180374;-;-;-;-;-;-;-;-;-;-;-;-;-;-;-
1514107830608;-;-;8.620819;4.6581116;-9.625198;-;-;-;-;-;-;-;-;-;-;-;-;-;-;-
1514107830628;-;-;8.703415;6.8236694;-9.601257;-;-;-;-;-;-;-;-;-;-;-;-;-;-;-
1514107830648;-;-;5.510742;7.3898926;-8.450851;-;-;-;-;-;-;-;-;-;-;-;-;-;-;-
1514107830668;-;-;3.0854187;4.248703;-6.32959;-;-;-;-;-;-;-;-;-;-;-;-;-;-;-
1514107830689;-;-;5.5670013;-0.4343567;-2.3049316;-;-;-;-;-;-;-;-;-;-;-;-;-;-;-
1514107830709;-;-;5.5382843;-1.922348;-3.70195;-;-;-;-;-;-;-;-;-;-;-;-;-;-;-
1514107830729;-;-;4.979233;-0.55885315;-4.421402;-;-;-;-;-;-;-;-;-;-;-;-;-;-;-
1514107830750;-;-;6.3211823;0.88604736;-5.0917816;-;-;-;-;-;-;-;-;-;-;-;-;-;-;-
1514107830770;-;-;7.5242615;1.0979309;-5.3443756;-;-;-;-;-;-;-;-;-;-;-;-;-;-;-
1514107830790;-;-;7.8726196;0.9758301;-4.9600983;-;-;-;-;-;-;-;-;-;-;-;-;-;-;-
1514107830811;-;-;8.001907;0.92196655;-5.6448517;-;-;-;-;-;-;-;-;-;-;-;-;-;-;-
1514107830830;-;-;7.7253876;0.9470978;-6.2218475;-;-;-;-;-;-;-;-;-;-;-;-;-;-;-
1514107830850;-;-;7.3770294;0.5448761;-5.3132477;-;-;-;-;-;-;-;-;-;-;-;-;-;-;-
1514107830871;-;-;6.1128845;0.13186646;-4.219101;-;-;-;-;-;-;-;-;-;-;-;-;-;-;-
1514107830891;-;-;4.2513885;-0.35534668;-3.175232;-;-;-;-;-;-;-;-;-;-;-;-;-;-;-
1514107830911;-;-;3.0327454;-0.7922821;-2.9010925;-;-;-;-;-;-;-;-;-;-;-;-;-;-;-
1514107830932;-;-;2.7083282;-0.996994;-2.207962;-;-;-;-;-;-;-;-;-;-;-;-;-;-;-
1514107830952;-;-;3.916214;-0.8138428;-1.9170685;-;-;-;-;-;-;-;-;-;-;-;-;-;-;-
1514107830972;-;-;4.787689;-0.64505005;-2.2498627;-;-;-;-;-;-;-;-;-;-;-;-;-;-;-
1514107830993;-;-;5.3263855;-0.6498413;-2.9405975;-;-;-;-;-;-;-;-;-;-;-;-;-;-;-
1514107831013;-;-;6.276886;-0.65582275;-2.7538452;-;-;-;-;-;-;-;-;-;-;-;-;-;-;-
1514107831033;-;-;6.723404;-0.6474457;-2.1828308;-;-;-;-;-;-;-;-;-;-;-;-;-;-;-
1514107831053;-;-;7.20105;-1.3932343;-2.2019806;-;-;-;-;-;-;-;-;-;-;-;-;-;-;-
1514107831074;-;-;7.143585;-2.4694214;-2.4330292;-;-;-;-;-;-;-;-;-;-;-;-;-;-;-
1514107831094;-;-;7.406952;-2.8070068;-3.176422;-;-;-;-;-;-;-;-;-;-;-;-;-;-;-
1514107831114;-;-;7.2082367;-2.2707062;-4.448944;-;-;-;-;-;-;-;-;-;-;-;-;-;-;-
1514107831134;-;-;5.4927826;-0.8246155;-3.3799286;-;-;-;-;-;-;-;-;-;-;-;-;-;-;-
1514107831155;-;-;7.885788;-0.71447754;-0.88397217;-;-;-;-;-;-;-;-;-;-;-;-;-;-;-
1514107831175;-;-;12.464706;0.0049743652;-2.9896698;-;-;-;-;-;-;-;-;-;-;-;-;-;-;-
1514107831195;-;-;12.348587;0.76394653;-12.7951355;-;-;-;-;-;-;-;-;-;-;-;-;-;-;-
1514107831215;-;-;12.470688;2.6278229;-13.247635;-;-;-;-;-;-;-;-;-;-;-;-;-;-;-
1514107831236;-;-;16.320572;3.125824;-8.699844;-;-;-;-;-;-;-;-;-;-;-;-;-;-;-
1514107831255;-;-;13.98024;2.0699768;-10.506271;-;-;-;-;-;-;-;-;-;-;-;-;-;-;-
1514107831275;-;-;9.566528;3.0516052;-7.649994;-;-;-;-;-;-;-;-;-;-;-;-;-;-;-
1514107831295;-;-;5.806427;4.3851776;-6.4516907;-;-;-;-;-;-;-;-;-;-;-;-;-;-;-
1514107831316;-;-;3.0447235;3.2970123;-6.1979065;-;-;-;-;-;-;-;-;-;-;-;-;-;-;-
1514107831337;-;-;2.20076;1.0608215;-5.777725;-;-;-;-;-;-;-;-;-;-;-;-;-;-;-
1514107831357;-;-;4.2262573;-1.3980255;-3.9880524;-;-;-;-;-;-;-;-;-;-;-;-;-;-;-
1514107831377;-;-;6.177536;-1.8206024;-3.2602234;-;-;-;-;-;-;-;-;-;-;-;-;-;-;-
1514107831398;-;-;10.4487915;-0.80067444;-3.768982;-;-;-;-;-;-;-;-;-;-;-;-;-;-;-
1514107831419;-;-;11.360977;1.030899;-3.9258118;-;-;-;-;-;-;-;-;-;-;-;-;-;-;-
1514107831438;-;-;9.142746;1.4881897;-2.977707;-;-;-;-;-;-;-;-;-;-;-;-;-;-;-
1514107831458;-;-;6.7054443;1.2978516;-1.8739777;-;-;-;-;-;-;-;-;-;-;-;-;-;-;-
1514107831479;-;-;4.735016;1.0596313;-1.1784668;-;-;-;-;-;-;-;-;-;-;-;-;-;-;-
1514107831499;-;-;3.8934631;1.0021667;-0.9581909;-;-;-;-;-;-;-;-;-;-;-;-;-;-;-
1514107831519;-;-;3.8922577;1.2559509;-0.74391174;-;-;-;-;-;-;-;-;-;-;-;-;-;-;-
1514107831540;-;-;4.82959;1.3804474;-0.35725403;-;-;-;-;-;-;-;-;-;-;-;-;-;-;-
1514107831560;-;-;7.5278625;0.7076721;-0.48294067;-;-;-;-;-;-;-;-;-;-;-;-;-;-;-
1514107831580;-;-;10.953964;-0.121917725;0.22094727;-;-;-;-;-;-;-;-;-;-;-;-;-;-;-
1514107831601;-;-;12.415619;-0.16619873;-1.0826874;-;-;-;-;-;-;-;-;-;-;-;-;-;-;-
1514107831620;-;-;13.260773;0.05885315;-2.3588104;-;-;-;-;-;-;-;-;-;-;-;-;-;-;-
1514107831640;-;-;12.825027;-0.109939575;-1.713562;-;-;-;-;-;-;-;-;-;-;-;-;-;-;-
1514107831661;-;-;10.139938;1.2787018;-2.579071;-;-;-;-;-;-;-;-;-;-;-;-;-;-;-
1514107831681;-;-;7.490753;4.846054;-7.223816;-;-;-;-;-;-;-;-;-;-;-;-;-;-;-
1514107831702;-;-;6.0266876;7.6197357;-9.2948;-;-;-;-;-;-;-;-;-;-;-;-;-;-;-
1514107831722;-;-;6.8000183;4.4989014;-8.4987335;-;-;-;-;-;-;-;-;-;-;-;-;-;-;-
1514107831742;-;-;10.46196;-0.3397827;-8.361069;-;-;-;-;-;-;-;-;-;-;-;-;-;-;-
1514107831763;-;-;11.383728;-3.1182556;-12.783157;-;-;-;-;-;-;-;-;-;-;-;-;-;-;-
1514107831782;-;-;10.635529;0.59394836;-9.309174;-;-;-;-;-;-;-;-;-;-;-;-;-;-;-
1514107831802;-;-;10.220139;3.03125;-4.706314;-;-;-;-;-;-;-;-;-;-;-;-;-;-;-
1514107831823;-;-;8.928467;2.0939178;-4.4226074;-;-;-;-;-;-;-;-;-;-;-;-;-;-;-
1514107831842;-;-;8.471176;1.4498749;-3.9497528;-;-;-;-;-;-;-;-;-;-;-;-;-;-;-
1514107831862;-;-;5.596939;0.14144897;-4.773361;-;-;-;-;-;-;-;-;-;-;-;-;-;-;-
1514107831883;-;-;3.4086304;-1.6709595;-4.4273987;-;-;-;-;-;-;-;-;-;-;-;-;-;-;-
1514107831902;-;-;2.5287628;-3.225998;-3.607376;-;-;-;-;-;-;-;-;-;-;-;-;-;-;-
1514107831922;-;-;3.0806274;-3.2128296;-3.449356;-;-;-;-;-;-;-;-;-;-;-;-;-;-;-
1514107831943;-;-;6.7880554;-2.5484314;-2.7071533;-;-;-;-;-;-;-;-;-;-;-;-;-;-;-
1514107831963;-;-;9.819107;-2.313797;-3.8527832;-;-;-;-;-;-;-;-;-;-;-;-;-;-;-
1514107831983;-;-;10.687012;-1.799057;-2.9717255;-;-;-;-;-;-;-;-;-;-;-;-;-;-;-
1514107832003;-;-;9.893326;-0.7851105;-2.3193054;-;-;-;-;-;-;-;-;-;-;-;-;-;-;-
1514107832024;-;-;8.513077;-0.92996216;-3.1943817;-;-;-;-;-;-;-;-;-;-;-;-;-;-;-
1514107832044;-;-;9.052963;-2.2802887;-3.018402;-;-;-;-;-;-;-;-;-;-;-;-;-;-;-
1514107832064;-;-;10.190216;-3.3121796;-3.7282867;-;-;-;-;-;-;-;-;-;-;-;-;-;-;-
1514107832085;-;-;9.80954;-3.2571259;-5.556259;-;-;-;-;-;-;-;-;-;-;-;-;-;-;-
1514107832105;-;-;8.572922;-2.9375;-6.657593;-;-;-;-;-;-;-;-;-;-;-;-;-;-;-
1514107832125;-;-;5.5358887;-2.289856;-8.319168;-;-;-;-;-;-;-;-;-;-;-;-;-;-;-
1514107832146;-;-;4.4812317;2.1274414;-8.742935;-;-;-;-;-;-;-;-;-;-;-;-;-;-;-
1514107832165;-;-;6.5163116;6.684799;-4.4776764;-;-;-;-;-;-;-;-;-;-;-;-;-;-;-
1514107832185;-;-;10.713348;6.766205;-3.1081848;-;-;-;-;-;-;-;-;-;-;-;-;-;-;-
1514107832205;-;-;13.3541565;1.7551422;-8.882996;-;-;-;-;-;-;-;-;-;-;-;-;-;-;-
1514107832226;-;-;17.38478;-3.7946167;-5.4042206;-;-;-;-;-;-;-;-;-;-;-;-;-;-;-
1514107832246;-;-;15.26712;-4.8444824;-3.6109772;-;-;-;-;-;-;-;-;-;-;-;-;-;-;-
1514107832267;-;-;13.32901;-0.25479126;-3.1417084;-;-;-;-;-;-;-;-;-;-;-;-;-;-;-
1514107832287;-;-;11.447174;3.0899048;-2.8089142;-;-;-;-;-;-;-;-;-;-;-;-;-;-;-
1514107832307;-;-;6.284073;4.868805;-2.8484192;-;-;-;-;-;-;-;-;-;-;-;-;-;-;-
1514107832327;-;-;-0.9655762;4.5348053;-1.5699158;-;-;-;-;-;-;-;-;-;-;-;-;-;-;-
1514107832348;-;-;-3.8972778;2.248352;0.23052979;-;-;-;-;-;-;-;-;-;-;-;-;-;-;-
1514107832368;-;-;1.5172119;-0.96946716;0.6926117;-;-;-;-;-;-;-;-;-;-;-;-;-;-;-
1514107832388;-;-;8.40773;-3.1817017;-0.6948395;-;-;-;-;-;-;-;-;-;-;-;-;-;-;-
1514107832409;-;-;9.257675;-1.2124786;-1.4573822;-;-;-;-;-;-;-;-;-;-;-;-;-;-;-
1514107832428;-;-;7.02269;-0.18296814;-1.7494812;-;-;-;-;-;-;-;-;-;-;-;-;-;-;-
1514107832448;-;-;8.437653;0.088775635;0.29756165;-;-;-;-;-;-;-;-;-;-;-;-;-;-;-
1514107832469;-;-;9.892136;2.5153046;0.6363373;-;-;-;-;-;-;-;-;-;-;-;-;-;-;-
1514107832489;-;-;9.838257;5.2111664;-0.8073578;-;-;-;-;-;-;-;-;-;-;-;-;-;-;-
1514107832509;-;-;12.59639;5.830078;-0.72236633;-;-;-;-;-;-;-;-;-;-;-;-;-;-;-
1514107832530;-;-;14.743988;3.0108948;-0.36083984;-;-;-;-;-;-;-;-;-;-;-;-;-;-;-
1514107832550;-;-;17.072342;1.5887451;-4.021576;-;-;-;-;-;-;-;-;-;-;-;-;-;-;-
1514107832570;-;-;17.221985;3.7746582;-6.973633;-;-;-;-;-;-;-;-;-;-;-;-;-;-;-
1514107832591;-;-;11.741653;7.1983643;-9.807159;-;-;-;-;-;-;-;-;-;-;-;-;-;-;-
1514107832611;-;-;5.316818;8.783325;-8.157562;-;-;-;-;-;-;-;-;-;-;-;-;-;-;-
1514107832631;-;-;3.1524506;6.269409;-3.097412;-;-;-;-;-;-;-;-;-;-;-;-;-;-;-
1514107832652;-;-;0.95936584;0.7005005;-3.8659515;-;-;-;-;-;-;-;-;-;-;-;-;-;-;-
1514107832672;-;-;3.9580994;1.5288849;-4.986435;-;-;-;-;-;-;-;-;-;-;-;-;-;-;-
1514107832692;-;-;5.0067596;1.3792572;-5.5502777;-;-;-;-;-;-;-;-;-;-;-;-;-;-;-
1514107832712;-;-;4.735016;0.5269165;-8.458038;-;-;-;-;-;-;-;-;-;-;-;-;-;-;-
1514107832732;-;-;6.4887695;-0.70729065;-9.896942;-;-;-;-;-;-;-;-;-;-;-;-;-;-;-
1514107832753;-;-;10.076492;-2.1234589;-5.1576233;-;-;-;-;-;-;-;-;-;-;-;-;-;-;-
1514107832773;-;-;11.98587;-1.8541107;-4.536331;-;-;-;-;-;-;-;-;-;-;-;-;-;-;-
1514107832793;-;-;12.128311;0.41677856;-5.5622406;-;-;-;-;-;-;-;-;-;-;-;-;-;-;-
1514107832813;-;-;13.629486;1.9406891;-6.859909;-;-;-;-;-;-;-;-;-;-;-;-;-;-;-
1514107832833;-;-;12.884888;2.79422;-6.4433136;-;-;-;-;-;-;-;-;-;-;-;-;-;-;-
1514107832854;-;-;13.573212;-2.2288055;-5.0989685;-;-;-;-;-;-;-;-;-;-;-;-;-;-;-
1514107832874;-;-;13.42598;-6.4031067;-1.6680756;-;-;-;-;-;-;-;-;-;-;-;-;-;-;-
1514107832894;-;-;19.682022;-11.669144;0.19581604;-;-;-;-;-;-;-;-;-;-;-;-;-;-;-
1514107832915;-;-;23.523514;-13.948425;-0.7163849;-;-;-;-;-;-;-;-;-;-;-;-;-;-;-
1514107832935;-;-;20.037567;-8.429794;-6.426544;-;-;-;-;-;-;-;-;-;-;-;-;-;-;-
1514107832955;-;-;15.021713;-3.1170654;-5.302475;-;-;-;-;-;-;-;-;-;-;-;-;-;-;-
1514107832976;-;-;6.280487;-1.3752747;-6.0518646;-;-;-;-;-;-;-;-;-;-;-;-;-;-;-
1514107832996;-;-;0.34165955;-1.2830963;-2.5802612;-;-;-;-;-;-;-;-;-;-;-;-;-;-;-
1514107833016;-;-;-1.7209473;-1.937912;-3.1692352;-;-;-;-;-;-;-;-;-;-;-;-;-;-;-
1514107833036;-;-;-3.333435;-0.6426544;-12.972305;-;-;-;-;-;-;-;-;-;-;-;-;-;-;-
1514107833057;-;-;-2.30513;1.0440674;-9.3007965;-;-;-;-;-;-;-;-;-;-;-;-;-;-;-
1514107833077;-;-;1.362793;7.3348236;-0.3668213;-;-;-;-;-;-;-;-;-;-;-;-;-;-;-
1514107833097;-;-;0.64811707;4.6186066;-3.2793732;-;-;-;-;-;-;-;-;-;-;-;-;-;-;-
1514107833118;-;-;-2.9527588;-0.9838257;0.35502625;-;-;-;-;-;-;-;-;-;-;-;-;-;-;-
1514107833138;-;-;-5.0428925;-11.422546;0.06413269;-;-;-;-;-;-;-;-;-;-;-;-;-;-;-
1514107833158;-;-;5.3216095;-13.722168;-4.3902893;-;-;-;-;-;-;-;-;-;-;-;-;-;-;-
1514107833179;-;-;16.698853;-2.2371826;-17.235168;-;-;-;-;-;-;-;-;-;-;-;-;-;-;-
1514107833199;-;-;10.866577;2.967804;1.9064636;-;-;-;-;-;-;-;-;-;-;-;-;-;-;-
1514107833219;-;-;7.3291473;3.0887146;-2.7586365;-;-;-;-;-;-;-;-;-;-;-;-;-;-;-
1514107833240;-;-;12.540115;-0.71447754;-4.2095184;-;-;-;-;-;-;-;-;-;-;-;-;-;-;-
1514107833260;-;-;20.740265;-5.8141327;-10.270447;-;-;-;-;-;-;-;-;-;-;-;-;-;-;-
1514107833280;-;-;12.929184;-2.1785278;-11.592041;-;-;-;-;-;-;-;-;-;-;-;-;-;-;-
1514107833302;-;-;15.886017;3.996109;-8.101303;-;-;-;-;-;-;-;-;-;-;-;-;-;-;-
1514107833321;-;-;14.556046;7.328842;-6.3834534;-;-;-;-;-;-;-;-;-;-;-;-;-;-;-
1514107833341;-;-;8.562149;13.32991;-0.9797363;-;-;-;-;-;-;-;-;-;-;-;-;-;-;-
1514107833361;-;-;8.707001;9.541092;-2.1181793;-;-;-;-;-;-;-;-;-;-;-;-;-;-;-
1514107833381;-;-;7.216614;7.533554;-2.522812;-;-;-;-;-;-;-;-;-;-;-;-;-;-;-
1514107833402;-;-;8.522644;5.8983;-0.6577301;-;-;-;-;-;-;-;-;-;-;-;-;-;-;-
1514107833422;-;-;5.3072357;2.308197;-1.3819733;-;-;-;-;-;-;-;-;-;-;-;-;-;-;-
1514107833442;-;-;1.2813873;-0.6989136;-1.618988;-;-;-;-;-;-;-;-;-;-;-;-;-;-;-
1514107833463;-;-;-0.17907715;3.1377869;-2.3121185;-;-;-;-;-;-;-;-;-;-;-;-;-;-;-
1514107833483;-;-;-1.9459991;0.105529785;-4.2167053;-;-;-;-;-;-;-;-;-;-;-;-;-;-;-
1514107833503;-;-;-2.0788727;-4.26268;-1.7638397;-;-;-;-;-;-;-;-;-;-;-;-;-;-;-
1514107833524;-;-;-4.3545685;-7.333252;-13.204544;-;-;-;-;-;-;-;-;-;-;-;-;-;-;-
1514107833543;-;-;-1.9124756;-3.8496857;-12.031372;-;-;-;-;-;-;-;-;-;-;-;-;-;-;-
1514107833563;-;-;9.776016;3.7028198;-2.9250336;-;-;-;-;-;-;-;-;-;-;-;-;-;-;-
1514107833583;-;-;6.8826294;4.98732;-6.8263855;-;-;-;-;-;-;-;-;-;-;-;-;-;-;-
1514107833604;-;-;3.497223;-0.4163971;-4.8224335;-;-;-;-;-;-;-;-;-;-;-;-;-;-;-
1514107833624;-;-;5.4257507;-1.5584412;-1.4262543;-;-;-;-;-;-;-;-;-;-;-;-;-;-;-
1514107833644;-;-;7.787628;0.06842041;-2.594635;-;-;-;-;-;-;-;-;-;-;-;-;-;-;-
1514107833665;-;-;10.598419;2.0256805;-8.015106;-;-;-;-;-;-;-;-;-;-;-;-;-;-;-
1514107833685;-;-;11.402878;2.0963135;-10.603241;-;-;-;-;-;-;-;-;-;-;-;-;-;-;-
1514107833705;-;-;14.39563;1.8808441;-12.213333;-;-;-;-;-;-;-;-;-;-;-;-;-;-;-
1514107833726;-;-;15.554428;0.11631775;-10.5625305;-;-;-;-;-;-;-;-;-;-;-;-;-;-;-
1514107833746;-;-;14.763138;-5.6920166;-2.6927948;-;-;-;-;-;-;-;-;-;-;-;-;-;-;-
1514107833766;-;-;15.396408;-10.414581;-0.28422546;-;-;-;-;-;-;-;-;-;-;-;-;-;-;-
1514107833787;-;-;18.670471;-7.788147;-1.1533203;-;-;-;-;-;-;-;-;-;-;-;-;-;-;-
1514107833806;-;-;19.15889;-7.345215;-6.4696503;-;-;-;-;-;-;-;-;-;-;-;-;-;-;-
1514107833826;-;-;19.880737;-6.033203;-8.648376;-;-;-;-;-;-;-;-;-;-;-;-;-;-;-
1514107833847;-;-;12.823837;-6.735901;-8.455643;-;-;-;-;-;-;-;-;-;-;-;-;-;-;-
1514107833866;-;-;3.5475006;-6.8615875;-4.738632;-;-;-;-;-;-;-;-;-;-;-;-;-;-;-
1514107833886;-;-;-3.8062897;-6.2127686;-6.859909;-;-;-;-;-;-;-;-;-;-;-;-;-;-;-
1514107833907;-;-;-5.052475;-0.62709045;-11.932022;-;-;-;-;-;-;-;-;-;-;-;-;-;-;-
1514107833926;-;-;-7.060013;8.241028;-1.8224945;-;-;-;-;-;-;-;-;-;-;-;-;-;-;-
1514107833946;-;-;-4.063675;9.857117;-4.4860535;-;-;-;-;-;-;-;-;-;-;-;-;-;-;-
1514107833966;-;-;-1.6084137;5.783386;-2.8711548;-;-;-;-;-;-;-;-;-;-;-;-;-;-;-
1514107833987;-;-;0.57987976;-2.9003906;6.4985504;-;-;-;-;-;-;-;-;-;-;-;-;-;-;-
1514107834007;-;-;-0.64115906;-12.44606;-7.084961;-;-;-;-;-;-;-;-;-;-;-;-;-;-;-
1514107834027;-;-;22.812439;-16.501846;-11.333466;-;-;-;-;-;-;-;-;-;-;-;-;-;-;-
1514107834047;-;-;19.351624;-5.38916;-10.00589;-;-;-;-;-;-;-;-;-;-;-;-;-;-;-
1514107834068;-;-;6.6144714;0.4586792;-4.028763;-;-;-;-;-;-;-;-;-;-;-;-;-;-;-
1514107834088;-;-;7.248932;1.9263306;-5.6484375;-;-;-;-;-;-;-;-;-;-;-;-;-;-;-
1514107834109;-;-;5.1444244;5.3428497;-6.8898315;-;-;-;-;-;-;-;-;-;-;-;-;-;-;-
1514107834128;-;-;5.8914185;6.439392;-6.949692;-;-;-;-;-;-;-;-;-;-;-;-;-;-;-
1514107834148;-;-;10.262039;4.162506;-5.191147;-;-;-;-;-;-;-;-;-;-;-;-;-;-;-
1514107834169;-;-;6.8670654;1.8916168;-4.0790405;-;-;-;-;-;-;-;-;-;-;-;-;-;-;-
1514107834188;-;-;1.9242249;1.6390228;-0.53800964;-;-;-;-;-;-;-;-;-;-;-;-;-;-;-
1514107834208;-;-;1.331665;1.7886658;-1.3747864;-;-;-;-;-;-;-;-;-;-;-;-;-;-;-
1514107834228;-;-;1.6321411;-0.38407898;-2.831665;-;-;-;-;-;-;-;-;-;-;-;-;-;-;-
1514107834249;-;-;2.6819916;-1.1179047;-2.8615875;-;-;-;-;-;-;-;-;-;-;-;-;-;-;-
1514107834269;-;-;3.390686;0.033706665;-2.9501648;-;-;-;-;-;-;-;-;-;-;-;-;-;-;-
1514107834289;-;-;3.0638733;1.2667236;-3.2171173;-;-;-;-;-;-;-;-;-;-;-;-;-;-;-
1514107834310;-;-;3.1189423;2.4207306;-2.6269531;-;-;-;-;-;-;-;-;-;-;-;-;-;-;-
1514107834330;-;-;4.5829926;3.2167969;-2.7586365;-;-;-;-;-;-;-;-;-;-;-;-;-;-;-
1514107834350;-;-;9.337875;2.5967102;-3.9653168;-;-;-;-;-;-;-;-;-;-;-;-;-;-;-
1514107834371;-;-;12.113953;2.7092285;-4.638077;-;-;-;-;-;-;-;-;-;-;-;-;-;-;-
1514107834391;-;-;13.023743;4.6533203;-5.048691;-;-;-;-;-;-;-;-;-;-;-;-;-;-;-
1514107834411;-;-;15.626251;6.6884003;-4.4669037;-;-;-;-;-;-;-;-;-;-;-;-;-;-;-
1514107834432;-;-;15.36528;9.452499;-5.7525787;-;-;-;-;-;-;-;-;-;-;-;-;-;-;-
1514107834452;-;-;18.270645;1.5576172;-9.525848;-;-;-;-;-;-;-;-;-;-;-;-;-;-;-
1514107834472;-;-;16.794617;2.2124329;-7.2561493;-;-;-;-;-;-;-;-;-;-;-;-;-;-;-
1514107834492;-;-;1.4561615;6.766205;-4.665619;-;-;-;-;-;-;-;-;-;-;-;-;-;-;-
1514107834513;-;-;1.2179413;3.7279663;-3.0267792;-;-;-;-;-;-;-;-;-;-;-;-;-;-;-
1514107834533;-;-;3.1476746;1.714447;-5.6017456;-;-;-;-;-;-;-;-;-;-;-;-;-;-;-
1514107834553;-;-;6.038666;4.616211;-8.396973;-;-;-;-;-;-;-;-;-;-;-;-;-;-;-
1514107834574;-;-;5.9512787;8.421799;-9.712601;-;-;-;-;-;-;-;-;-;-;-;-;-;-;-
1514107834594;-;-;6.0530243;7.1887817;-7.5027466;-;-;-;-;-;-;-;-;-;-;-;-;-;-;-
1514107834614;-;-;5.5322876;5.505661;-7.2405853;-;-;-;-;-;-;-;-;-;-;-;-;-;-;-
1514107834635;-;-;4.0730286;2.8014069;-7.954056;-;-;-;-;-;-;-;-;-;-;-;-;-;-;-
1514107834655;-;-;2.9465485;-1.2232513;-5.231842;-;-;-;-;-;-;-;-;-;-;-;-;-;-;-
1514107834675;-;-;4.181961;-1.0556488;-5.6316833;-;-;-;-;-;-;-;-;-;-;-;-;-;-;-
1514107834696;-;-;5.6891174;0.1797638;-5.6532288;-;-;-;-;-;-;-;-;-;-;-;-;-;-;-
1514107834716;-;-;7.0142975;1.164978;-5.2928925;-;-;-;-;-;-;-;-;-;-;-;-;-;-;-
1514107834736;-;-;8.924881;1.4977722;-5.278534;-;-;-;-;-;-;-;-;-;-;-;-;-;-;-
1514107834757;-;-;8.557373;1.2068634;-5.204315;-;-;-;-;-;-;-;-;-;-;-;-;-;-;-
1514107834777;-;-;7.9983215;0.22525024;-5.136078;-;-;-;-;-;-;-;-;-;-;-;-;-;-;-
1514107834797;-;-;7.818756;-0.6546173;-5.6532288;-;-;-;-;-;-;-;-;-;-;-;-;-;-;-
1514107834817;-;-;7.6739044;-0.93833923;-5.716675;-;-;-;-;-;-;-;-;-;-;-;-;-;-;-
1514107834838;-;-;7.6571503;-0.5612488;-5.2533875;-;-;-;-;-;-;-;-;-;-;-;-;-;-;-
1514107834857;-;-;6.6467896;-0.19374084;-5.127701;-;-;-;-;-;-;-;-;-;-;-;-;-;-;-
1514107834877;-;-;5.344345;-0.071640015;-4.986435;-;-;-;-;-;-;-;-;-;-;-;-;-;-;-
1514107834897;-;-;4.355545;0.026535034;-4.5375214;-;-;-;-;-;-;-;-;-;-;-;-;-;-;-
1514107834918;-;-;3.569046;0.35812378;-4.3208466;-;-;-;-;-;-;-;-;-;-;-;-;-;-;-
1514107834938;-;-;3.0327454;0.52093506;-4.19635;-;-;-;-;-;-;-;-;-;-;-;-;-;-;-
1514107834958;-;-;2.7155151;0.5676117;-4.183182;-;-;-;-;-;-;-;-;-;-;-;-;-;-;-
1514107834978;-;-;4.169998;0.008575439;-4.555481;-;-;-;-;-;-;-;-;-;-;-;-;-;-;-
1514107834999;-;-;5.5777893;-0.48703003;-5.6723785;-;-;-;-;-;-;-;-;-;-;-;-;-;-;-
1514107835019;-;-;5.655594;-0.65582275;-5.2581787;-;-;-;-;-;-;-;-;-;-;-;-;-;-;-
1514107835039;-;-;5.430542;-0.45948792;-4.2083282;-;-;-;-;-;-;-;-;-;-;-;-;-;-;-
1514107835059;-;-;5.9393005;0.076812744;-4.0742493;-;-;-;-;-;-;-;-;-;-;-;-;-;-;-
1514107835079;-;-;7.1172485;0.30545044;-2.5539246;-;-;-;-;-;-;-;-;-;-;-;-;-;-;-
1514107835100;-;-;8.400543;0.013366699;-2.2486725;-;-;-;-;-;-;-;-;-;-;-;-;-;-;-
1514107835120;-;-;9.136765;-0.17936707;-1.1102295;-;-;-;-;-;-;-;-;-;-;-;-;-;-;-
1514107835140;-;-;9.251678;0.03730774;-1.1461334;-;-;-;-;-;-;-;-;-;-;-;-;-;-;-
1514107835161;-;-;7.866638;-0.29429626;-2.6604767;-;-;-;-;-;-;-;-;-;-;-;-;-;-;-
1514107835181;-;-;5.8794556;-1.4626617;-2.768219;-;-;-;-;-;-;-;-;-;-;-;-;-;-;-
1514107835201;-;-;9.206192;-1.6326599;-3.3919067;-;-;-;-;-;-;-;-;-;-;-;-;-;-;-
1514107835222;-;-;9.898117;-0.8820648;-11.05574;-;-;-;-;-;-;-;-;-;-;-;-;-;-;-
1514107835241;-;-;10.634338;0.5520477;-16.677322;-;-;-;-;-;-;-;-;-;-;-;-;-;-;-
1514107835261;-;-;14.9079895;3.4981232;-11.006653;-;-;-;-;-;-;-;-;-;-;-;-;-;-;-
1514107835281;-;-;14.636246;6.3460236;-9.272064;-;-;-;-;-;-;-;-;-;-;-;-;-;-;-
1514107835302;-;-;11.445969;5.3656006;-9.201431;-;-;-;-;-;-;-;-;-;-;-;-;-;-;-
1514107835322;-;-;10.265625;-0.24281311;-8.064178;-;-;-;-;-;-;-;-;-;-;-;-;-;-;-
1514107835343;-;-;7.8594513;-3.428299;-5.8902435;-;-;-;-;-;-;-;-;-;-;-;-;-;-;-
1514107835363;-;-;6.343933;-3.938263;-3.449356;-;-;-;-;-;-;-;-;-;-;-;-;-;-;-
1514107835383;-;-;4.398636;-2.4155579;-1.9841156;-;-;-;-;-;-;-;-;-;-;-;-;-;-;-
1514107835403;-;-;4.0574646;1.1805267;-0.40992737;-;-;-;-;-;-;-;-;-;-;-;-;-;-;-
1514107835424;-;-;6.6575623;2.8863983;-1.179657;-;-;-;-;-;-;-;-;-;-;-;-;-;-;-
1514107835445;-;-;7.2860413;1.7180328;-2.0583344;-;-;-;-;-;-;-;-;-;-;-;-;-;-;-
1514107835465;-;-;5.6220703;0.42636108;-1.7171631;-;-;-;-;-;-;-;-;-;-;-;-;-;-;-
1514107835485;-;-;3.4038544;0.22644043;-1.1425476;-;-;-;-;-;-;-;-;-;-;-;-;-;-;-
1514107835506;-;-;3.7438202;0.4119873;-1.610611;-;-;-;-;-;-;-;-;-;-;-;-;-;-;-
1514107835526;-;-;5.387436;-0.5205536;-2.309723;-;-;-;-;-;-;-;-;-;-;-;-;-;-;-
1514107835546;-;-;7.700241;-0.22964478;-2.1169891;-;-;-;-;-;-;-;-;-;-;-;-;-;-;-
1514107835566;-;-;9.366608;-0.57681274;-2.3049316;-;-;-;-;-;-;-;-;-;-;-;-;-;-;-
1514107835587;-;-;9.644333;-0.114730835;-0.9055176;-;-;-;-;-;-;-;-;-;-;-;-;-;-;-
1514107835607;-;-;9.388153;1.4738159;-0.32731628;-;-;-;-;-;-;-;-;-;-;-;-;-;-;-
1514107835627;-;-;9.511459;3.0013275;-0.11543274;-;-;-;-;-;-;-;-;-;-;-;-;-;-;-
1514107835648;-;-;9.571304;3.6058655;-0.47695923;-;-;-;-;-;-;-;-;-;-;-;-;-;-;-
1514107835668;-;-;10.288376;3.2335663;-1.0168457;-;-;-;-;-;-;-;-;-;-;-;-;-;-;-
1514107835688;-;-;11.307114;1.288269;-0.42668152;-;-;-;-;-;-;-;-;-;-;-;-;-;-;-
1514107835709;-;-;14.175354;-1.388443;-1.7614441;-;-;-;-;-;-;-;-;-;-;-;-;-;-;-
1514107835728;-;-;14.324997;0.47782898;-2.0200195;-;-;-;-;-;-;-;-;-;-;-;-;-;-;-
1514107835748;-;-;11.995438;6.1760406;-1.3747864;-;-;-;-;-;-;-;-;-;-;-;-;-;-;-
1514107835768;-;-;8.746506;6.506439;-4.9636993;-;-;-;-;-;-;-;-;-;-;-;-;-;-;-
1514107835789;-;-;6.047043;4.647339;-7.026306;-;-;-;-;-;-;-;-;-;-;-;-;-;-;-
1514107835809;-;-;3.442154;2.3058014;-8.78244;-;-;-;-;-;-;-;-;-;-;-;-;-;-;-
1514107835829;-;-;2.2426605;-0.088394165;-8.46521;-;-;-;-;-;-;-;-;-;-;-;-;-;-;-
1514107835850;-;-;5.0773926;-1.0855713;-7.7481537;-;-;-;-;-;-;-;-;-;-;-;-;-;-;-
1514107835870;-;-;12.486252;-1.1226959;-4.227478;-;-;-;-;-;-;-;-;-;-;-;-;-;-;-
1514107835890;-;-;13.500198;0.40361023;-6.928131;-;-;-;-;-;-;-;-;-;-;-;-;-;-;-
1514107835910;-;-;10.080078;6.529175;-8.338318;-;-;-;-;-;-;-;-;-;-;-;-;-;-;-
1514107835931;-;-;11.103607;3.4921417;-6.6875153;-;-;-;-;-;-;-;-;-;-;-;-;-;-;-
1514107835951;-;-;10.586456;0.8513336;-7.5506287;-;-;-;-;-;-;-;-;-;-;-;-;-;-;-
1514107835971;-;-;7.921707;0.6059265;-8.205444;-;-;-;-;-;-;-;-;-;-;-;-;-;-;-
1514107835992;-;-;5.802841;-1.5452728;-8.46402;-;-;-;-;-;-;-;-;-;-;-;-;-;-;-
1514107836012;-;-;6.5282745;-4.4410553;-8.296417;-;-;-;-;-;-;-;-;-;-;-;-;-;-;-
1514107836032;-;-;8.220978;-5.768631;-6.188324;-;-;-;-;-;-;-;-;-;-;-;-;-;-;-
1514107836053;-;-;7.8127747;-5.839264;-5.6101227;-;-;-;-;-;-;-;-;-;-;-;-;-;-;-
1514107836073;-;-;8.780029;-5.0946655;-4.914612;-;-;-;-;-;-;-;-;-;-;-;-;-;-;-
1514107836093;-;-;8.526245;-4.8612366;-3.6241455;-;-;-;-;-;-;-;-;-;-;-;-;-;-;-
1514107836113;-;-;7.743332;-3.634201;-1.7662354;-;-;-;-;-;-;-;-;-;-;-;-;-;-;-
1514107836134;-;-;6.7892456;-3.1266327;-2.2582397;-;-;-;-;-;-;-;-;-;-;-;-;-;-;-
1514107836155;-;-;5.62088;-3.68927;-2.2019806;-;-;-;-;-;-;-;-;-;-;-;-;-;-;-
1514107836175;-;-;5.8794556;-3.8341217;-1.6968079;-;-;-;-;-;-;-;-;-;-;-;-;-;-;-
1514107836195;-;-;5.965637;-3.1888885;-0.788208;-;-;-;-;-;-;-;-;-;-;-;-;-;-;-
1514107836216;-;-;5.328781;-2.5077362;-0.5284424;-;-;-;-;-;-;-;-;-;-;-;-;-;-;-
1514107836236;-;-;4.7170715;-2.6789246;-0.6708832;-;-;-;-;-;-;-;-;-;-;-;-;-;-;-
1514107836256;-;-;4.8152313;-2.5951233;-0.5643463;-;-;-;-;-;-;-;-;-;-;-;-;-;-;-
1514107836277;-;-;5.853119;-1.882843;-0.7056122;-;-;-;-;-;-;-;-;-;-;-;-;-;-;-
1514107836297;-;-;7.1016846;-1.4854126;-0.5918884;-;-;-;-;-;-;-;-;-;-;-;-;-;-;-
1514107836318;-;-;8.649536;-1.4758301;-1.5998383;-;-;-;-;-;-;-;-;-;-;-;-;-;-;-
1514107836338;-;-;10.14592;-1.2639465;-2.3635864;-;-;-;-;-;-;-;-;-;-;-;-;-;-;-
1514107836358;-;-;9.479141;-1.9702301;-2.3360596;-;-;-;-;-;-;-;-;-;-;-;-;-;-;-
1514107836378;-;-;10.767212;-2.2635193;-0.9749603;-;-;-;-;-;-;-;-;-;-;-;-;-;-;-
1514107836399;-;-;13.321823;-2.210846;-0.9186859;-;-;-;-;-;-;-;-;-;-;-;-;-;-;-
1514107836418;-;-;15.016922;-2.1653595;-2.7789917;-;-;-;-;-;-;-;-;-;-;-;-;-;-;-
1514107836438;-;-;15.480194;-2.0552368;-3.4625244;-;-;-;-;-;-;-;-;-;-;-;-;-;-;-
1514107836458;-;-;16.11467;-2.317398;-4.773361;-;-;-;-;-;-;-;-;-;-;-;-;-;-;-
1514107836479;-;-;14.39563;-3.218811;-5.7286377;-;-;-;-;-;-;-;-;-;-;-;-;-;-;-
1514107836498;-;-;11.90686;-3.953827;-11.534576;-;-;-;-;-;-;-;-;-;-;-;-;-;-;-
1514107836518;-;-;13.661804;-4.022064;-8.229385;-;-;-;-;-;-;-;-;-;-;-;-;-;-;-
1514107836539;-;-;10.985092;-2.261139;-4.780533;-;-;-;-;-;-;-;-;-;-;-;-;-;-;-
1514107836558;-;-;8.74292;-3.3696442;-6.492386;-;-;-;-;-;-;-;-;-;-;-;-;-;-;-
1514107836578;-;-;7.8869934;-4.0914917;-9.3403015;-;-;-;-;-;-;-;-;-;-;-;-;-;-;-
1514107836599;-;-;7.3375244;-2.0205078;-6.7042847;-;-;-;-;-;-;-;-;-;-;-;-;-;-;-
1514107836619;-;-;6.0685883;-0.102752686;-5.3216248;-;-;-;-;-;-;-;-;-;-;-;-;-;-;-
1514107836639;-;-;5.2593536;-0.542099;-2.6664581;-;-;-;-;-;-;-;-;-;-;-;-;-;-;-
1514107836659;-;-;6.221817;-0.80784607;-2.7191315;-;-;-;-;-;-;-;-;-;-;-;-;-;-;-
1514107836679;-;-;8.985931;-1.3166199;-3.4577484;-;-;-;-;-;-;-;-;-;-;-;-;-;-;-
1514107836700;-;-;9.776016;-1.313034;-4.483658;-;-;-;-;-;-;-;-;-;-;-;-;-;-;-
1514107836719;-;-;8.869812;-0.2607727;-2.618576;-;-;-;-;-;-;-;-;-;-;-;-;-;-;-
1514107836739;-;-;8.163513;1.1673584;-1.2502899;-;-;-;-;-;-;-;-;-;-;-;-;-;-;-
1514107836760;-;-;6.8239594;1.5671997;-1.8165131;-;-;-;-;-;-;-;-;-;-;-;-;-;-;-
1514107836779;-;-;4.1628113;0.9135742;-3.1057892;-;-;-;-;-;-;-;-;-;-;-;-;-;-;-
1514107836799;-;-;2.85318;-0.26437378;-2.524002;-;-;-;-;-;-;-;-;-;-;-;-;-;-;-
1514107836820;-;-;3.1021729;-0.77194214;-1.5962524;-;-;-;-;-;-;-;-;-;-;-;-;-;-;-
1514107836840;-;-;2.027176;0.94111633;-0.6601105;-;-;-;-;-;-;-;-;-;-;-;-;-;-;-
1514107836860;-;-;1.7757874;2.6936646;0.5381775;-;-;-;-;-;-;-;-;-;-;-;-;-;-;-
1514107836880;-;-;3.0518951;2.9510498;-0.26986694;-;-;-;-;-;-;-;-;-;-;-;-;-;-;-
1514107836901;-;-;6.541443;1.5444489;-3.9234161;-;-;-;-;-;-;-;-;-;-;-;-;-;-;-
1514107836921;-;-;11.9631195;2.2782745;-5.5502777;-;-;-;-;-;-;-;-;-;-;-;-;-;-;-
1514107836941;-;-;13.647446;6.0994263;-3.9557343;-;-;-;-;-;-;-;-;-;-;-;-;-;-;-
1514107836961;-;-;17.22438;8.132095;-4.872711;-;-;-;-;-;-;-;-;-;-;-;-;-;-;-
1514107836982;-;-;19.59224;9.760162;-5.587387;-;-;-;-;-;-;-;-;-;-;-;-;-;-;-
1514107837002;-;-;18.848846;8.923386;-6.3918304;-;-;-;-;-;-;-;-;-;-;-;-;-;-;-
1514107837022;-;-;16.03685;7.644882;-3.9317932;-;-;-;-;-;-;-;-;-;-;-;-;-;-;-
1514107837042;-;-;10.339844;3.158142;-3.0926208;-;-;-;-;-;-;-;-;-;-;-;-;-;-;-
1514107837063;-;-;4.391449;5.2111664;-1.1473389;-;-;-;-;-;-;-;-;-;-;-;-;-;-;-
1514107837083;-;-;-0.077316284;7.2618103;-5.295288;-;-;-;-;-;-;-;-;-;-;-;-;-;-;-
1514107837103;-;-;1.8871155;5.9821014;-8.534653;-;-;-;-;-;-;-;-;-;-;-;-;-;-;-
1514107837123;-;-;6.005142;4.6664886;-9.765259;-;-;-;-;-;-;-;-;-;-;-;-;-;-;-
1514107837144;-;-;8.001907;2.6374054;-7.2848663;-;-;-;-;-;-;-;-;-;-;-;-;-;-;-
1514107837163;-;-;6.515106;1.3936157;-7.1220703;-;-;-;-;-;-;-;-;-;-;-;-;-;-;-
1514107837183;-;-;2.6999512;0.14503479;-6.602524;-;-;-;-;-;-;-;-;-;-;-;-;-;-;-
1514107837204;-;-;-0.88656616;-1.2687378;-7.675125;-;-;-;-;-;-;-;-;-;-;-;-;-;-;-
1514107837224;-;-;1.7243195;-1.3812561;-3.4373932;-;-;-;-;-;-;-;-;-;-;-;-;-;-;-
1514107837244;-;-;3.6815796;-0.10395813;-5.338394;-;-;-;-;-;-;-;-;-;-;-;-;-;-;-
1514107837265;-;-;7.0370483;0.64782715;-6.1943207;-;-;-;-;-;-;-;-;-;-;-;-;-;-;-
1514107837285;-;-;9.468353;0.33299255;-4.823639;-;-;-;-;-;-;-;-;-;-;-;-;-;-;-
1514107837305;-;-;10.460754;0.45269775;-3.6133575;-;-;-;-;-;-;-;-;-;-;-;-;-;-;-
1514107837326;-;-;13.033325;1.5923309;-0.7199707;-;-;-;-;-;-;-;-;-;-;-;-;-;-;-
1514107837346;-;-;18.684845;-6.0583344;-7.524292;-;-;-;-;-;-;-;-;-;-;-;-;-;-;-
1514107837366;-;-;19.701172;-13.006302;-4.1903687;-;-;-;-;-;-;-;-;-;-;-;-;-;-;-
1514107837387;-;-;22.478455;-11.489578;0.8015442;-;-;-;-;-;-;-;-;-;-;-;-;-;-;-
1514107837407;-;-;17.160934;-7.689987;-2.0044556;-;-;-;-;-;-;-;-;-;-;-;-;-;-;-
1514107837427;-;-;15.870453;-4.8803864;-4.6871643;-;-;-;-;-;-;-;-;-;-;-;-;-;-;-
1514107837447;-;-;7.229782;-1.155014;-7.2932587;-;-;-;-;-;-;-;-;-;-;-;-;-;-;-
1514107837468;-;-;3.208725;-0.47146606;-1.729126;-;-;-;-;-;-;-;-;-;-;-;-;-;-;-
1514107837488;-;-;-0.835083;-2.9554443;-6.6061096;-;-;-;-;-;-;-;-;-;-;-;-;-;-;-
1514107837509;-;-;-5.1997223;-4.1333923;-10.162704;-;-;-;-;-;-;-;-;-;-;-;-;-;-;-
1514107837530;-;-;-4.3078766;0.15940857;-8.748932;-;-;-;-;-;-;-;-;-;-;-;-;-;-;-
1514107837550;-;-;-2.056137;5.364395;-0.4015503;-;-;-;-;-;-;-;-;-;-;-;-;-;-;-
1514107837570;-;-;1.1772461;3.2850342;-1.3867645;-;-;-;-;-;-;-;-;-;-;-;-;-;-;-
1514107837591;-;-;-1.9807129;1.837738;-6.129669;-;-;-;-;-;-;-;-;-;-;-;-;-;-;-
1514107837611;-;-;-3.9559326;-4.3117676;2.3422089;-;-;-;-;-;-;-;-;-;-;-;-;-;-;-
1514107837631;-;-;-4.6430664;-11.049042;1.9004822;-;-;-;-;-;-;-;-;-;-;-;-;-;-;-
1514107837652;-;-;13.933548;-10.835968;-5.923767;-;-;-;-;-;-;-;-;-;-;-;-;-;-;-
1514107837672;-;-;17.645752;-3.6617432;-12.954346;-;-;-;-;-;-;-;-;-;-;-;-;-;-;-
1514107837692;-;-;4.3998413;2.7056427;-3.120163;-;-;-;-;-;-;-;-;-;-;-;-;-;-;-
1514107837712;-;-;5.253372;4.184067;-1.8488312;-;-;-;-;-;-;-;-;-;-;-;-;-;-;-
1514107837733;-;-;8.367035;1.9263306;-5.3048706;-;-;-;-;-;-;-;-;-;-;-;-;-;-;-
1514107837754;-;-;14.618286;0.3461609;-4.2250824;-;-;-;-;-;-;-;-;-;-;-;-;-;-;-
1514107837774;-;-;13.039307;-2.1246643;-5.9489136;-;-;-;-;-;-;-;-;-;-;-;-;-;-;-
1514107837795;-;-;13.82222;-4.1549377;-9.029053;-;-;-;-;-;-;-;-;-;-;-;-;-;-;-
1514107837815;-;-;10.722916;-0.64505005;-6.3966217;-;-;-;-;-;-;-;-;-;-;-;-;-;-;-
1514107837835;-;-;13.216476;4.2044067;-4.325638;-;-;-;-;-;-;-;-;-;-;-;-;-;-;-
1514107837855;-;-;13.3146515;4.9657593;-5.9177856;-;-;-;-;-;-;-;-;-;-;-;-;-;-;-
1514107837876;-;-;12.230072;7.0140076;-7.1938934;-;-;-;-;-;-;-;-;-;-;-;-;-;-;-
1514107837896;-;-;11.922424;9.169983;-7.71344;-;-;-;-;-;-;-;-;-;-;-;-;-;-;-
1514107837916;-;-;11.1371155;7.6664276;-4.306488;-;-;-;-;-;-;-;-;-;-;-;-;-;-;-
1514107837937;-;-;9.95079;3.9973145;-1.2790222;-;-;-;-;-;-;-;-;-;-;-;-;-;-;-
1514107837957;-;-;6.9664154;1.5635986;-0.2578888;-;-;-;-;-;-;-;-;-;-;-;-;-;-;-
1514107837977;-;-;3.359558;3.3688354;3.3286285;-;-;-;-;-;-;-;-;-;-;-;-;-;-;-
1514107837997;-;-;1.2406921;2.0017395;-2.9178467;-;-;-;-;-;-;-;-;-;-;-;-;-;-;-
1514107838018;-;-;1.2981415;-1.2759247;-8.902161;-;-;-;-;-;-;-;-;-;-;-;-;-;-;-
1514107838038;-;-;1.6931915;-0.65701294;-3.5020294;-;-;-;-;-;-;-;-;-;-;-;-;-;-;-
1514107838058;-;-;3.9772644;3.228775;-11.955963;-;-;-;-;-;-;-;-;-;-;-;-;-;-;-
1514107838079;-;-;3.1704102;1.3182068;-11.356216;-;-;-;-;-;-;-;-;-;-;-;-;-;-;-
1514107838099;-;-;2.7023468;2.569168;-12.798721;-;-;-;-;-;-;-;-;-;-;-;-;-;-;-
1514107838119;-;-;4.276535;2.0053406;-9.687454;-;-;-;-;-;-;-;-;-;-;-;-;-;-;-
1514107838140;-;-;4.3495636;-1.0891724;-4.5770264;-;-;-;-;-;-;-;-;-;-;-;-;-;-;-
1514107838160;-;-;5.759735;-1.3824615;-2.6951904;-;-;-;-;-;-;-;-;-;-;-;-;-;-;-
1514107838180;-;-;7.782837;0.57240295;-4.1987457;-;-;-;-;-;-;-;-;-;-;-;-;-;-;-
1514107838201;-;-;6.959244;0.5879669;-6.855118;-;-;-;-;-;-;-;-;-;-;-;-;-;-;-
1514107838221;-;-;6.888611;-1.364502;-8.228195;-;-;-;-;-;-;-;-;-;-;-;-;-;-;-
1514107838241;-;-;6.4696198;-3.910736;-7.707443;-;-;-;-;-;-;-;-;-;-;-;-;-;-;-
1514107838261;-;-;6.941284;-4.6146393;-6.4888;-;-;-;-;-;-;-;-;-;-;-;-;-;-;-
1514107838282;-;-;7.549408;-3.0141144;-4.7829285;-;-;-;-;-;-;-;-;-;-;-;-;-;-;-
1514107838302;-;-;7.5673676;-0.45829773;-2.8232727;-;-;-;-;-;-;-;-;-;-;-;-;-;-;-
1514107838322;-;-;1.4765167;1.7910614;-1.447815;-;-;-;-;-;-;-;-;-;-;-;-;-;-;-
1514107838343;-;-;-1.839447;1.6857147;-2.6951904;-;-;-;-;-;-;-;-;-;-;-;-;-;-;-
1514107838363;-;-;-1.3618164;-2.2790833;-3.745041;-;-;-;-;-;-;-;-;-;-;-;-;-;-;-
1514107838383;-;-;0.3859558;-4.0747375;0.115600586;-;-;-;-;-;-;-;-;-;-;-;-;-;-;-
1514107838403;-;-;1.7123413;-4.860031;0.46037292;-;-;-;-;-;-;-;-;-;-;-;-;-;-;-
1514107838424;-;-;2.8268433;-4.5918884;-1.4537964;-;-;-;-;-;-;-;-;-;-;-;-;-;-;-
1514107838444;-;-;8.7812195;-3.7790527;-2.6209717;-;-;-;-;-;-;-;-;-;-;-;-;-;-;-
1514107838464;-;-;18.04918;-4.3405;-5.8387756;-;-;-;-;-;-;-;-;-;-;-;-;-;-;-
1514107838485;-;-;20.614563;-9.310852;-14.480652;-;-;-;-;-;-;-;-;-;-;-;-;-;-;-
1514107838505;-;-;15.789047;-10.235016;-12.408463;-;-;-;-;-;-;-;-;-;-;-;-;-;-;-
1514107838525;-;-;20.713928;-6.8963013;-8.311981;-;-;-;-;-;-;-;-;-;-;-;-;-;-;-
1514107838546;-;-;17.947418;-4.056778;-5.784912;-;-;-;-;-;-;-;-;-;-;-;-;-;-;-
1514107838567;-;-;10.14711;-2.7052612;-4.4585114;-;-;-;-;-;-;-;-;-;-;-;-;-;-;-
1514107838587;-;-;6.2517548;2.4386902;-4.6692047;-;-;-;-;-;-;-;-;-;-;-;-;-;-;-
1514107838607;-;-;1.1413269;-5.7865906;0.44960022;-;-;-;-;-;-;-;-;-;-;-;-;-;-;-
1514107838627;-;-;-1.447998;-5.636963;-4.720688;-;-;-;-;-;-;-;-;-;-;-;-;-;-;-
1514107838648;-;-;2.078659;-5.1341705;-10.309952;-;-;-;-;-;-;-;-;-;-;-;-;-;-;-
1514107838668;-;-;8.753693;-5.9278564;-12.577255;-;-;-;-;-;-;-;-;-;-;-;-;-;-;-
1514107838689;-;-;11.290344;-5.1269836;-11.5824585;-;-;-;-;-;-;-;-;-;-;-;-;-;-;-
1514107838709;-;-;9.260071;-2.040863;-6.0746;-;-;-;-;-;-;-;-;-;-;-;-;-;-;-
1514107838729;-;-;6.6946716;0.6023407;-2.0511475;-;-;-;-;-;-;-;-;-;-;-;-;-;-;-
1514107838749;-;-;4.099365;1.6689453;-2.6449127;-;-;-;-;-;-;-;-;-;-;-;-;-;-;-
1514107838770;-;-;3.5546875;-0.9167938;-5.800461;-;-;-;-;-;-;-;-;-;-;-;-;-;-;-
