TimeStamp[ms];Prox[Cm];Lux[lux];AccX[m/s^2];AccY[m/s^2];AccZ[m/s^2];GyroX[rad/s];GyroY[rad/s];GyroZ[rad/s];MagnX[uT];MagnY[uT];MagnZ[uT];OrienYaw[degrees];OrienPitch[degrees];OrienRoll[degrees];Press[Pa];Temp[C°];Batt[%];Lat;Lng;Speed[m/s]
1513510816185;-;-;8.849457;-0.93473816;0.2736206;-;-;-;-;-;-;-;-;-;-;-;-;-;-;-
1513510816184;-;-;8.849457;-0.93473816;0.2736206;-;-;-;-;-;-;-;-;-;-;-;-;-;-;-
1513510816189;-;-;8.592087;-1.1011353;0.899704;-;-;-;-;-;-;-;-;-;-;-;-;-;-;-
1513510816209;-;-;9.407303;-0.8581238;-0.8767853;-;-;-;-;-;-;-;-;-;-;-;-;-;-;-
1513510816230;-;-;9.160706;-1.2711334;0.5561371;-;-;-;-;-;-;-;-;-;-;-;-;-;-;-
1513510816250;-;-;9.55455;-0.28710938;-1.8703918;-;-;-;-;-;-;-;-;-;-;-;-;-;-;-
1513510816271;-;-;9.207397;-0.97784424;0.17425537;-;-;-;-;-;-;-;-;-;-;-;-;-;-;-
1513510816291;-;-;9.050568;-0.78271484;-0.14537048;-;-;-;-;-;-;-;-;-;-;-;-;-;-;-
1513510816311;-;-;9.51265;-0.46069336;0.35263062;-;-;-;-;-;-;-;-;-;-;-;-;-;-;-
1513510816332;-;-;8.56575;-0.47027588;-0.28422546;-;-;-;-;-;-;-;-;-;-;-;-;-;-;-
1513510816352;-;-;9.128387;-0.46427917;-0.06755066;-;-;-;-;-;-;-;-;-;-;-;-;-;-;-
1513510816373;-;-;8.973953;-1.1143036;-0.79418945;-;-;-;-;-;-;-;-;-;-;-;-;-;-;-
1513510816394;-;-;9.45639;-0.704895;-0.6685028;-;-;-;-;-;-;-;-;-;-;-;-;-;-;-
1513510816427;-;-;10.214157;-0.917984;-0.91270447;-;-;-;-;-;-;-;-;-;-;-;-;-;-;-
1513510816434;-;-;9.866989;-0.98143005;-0.803772;-;-;-;-;-;-;-;-;-;-;-;-;-;-;-
1513510816454;-;-;8.985931;-0.8425598;-0.70680237;-;-;-;-;-;-;-;-;-;-;-;-;-;-;-
1513510816475;-;-;9.012268;-0.8461609;-0.75349426;-;-;-;-;-;-;-;-;-;-;-;-;-;-;-
1513510816495;-;-;9.164291;-0.9646759;-0.79418945;-;-;-;-;-;-;-;-;-;-;-;-;-;-;-
1513510816516;-;-;9.615601;-1.3908386;-1.3975372;-;-;-;-;-;-;-;-;-;-;-;-;-;-;-
1513510816536;-;-;9.707779;-1.372879;-0.5607605;-;-;-;-;-;-;-;-;-;-;-;-;-;-;-
1513510816556;-;-;7.85347;-0.41281128;-1.1162109;-;-;-;-;-;-;-;-;-;-;-;-;-;-;-
1513510816576;-;-;9.024231;-0.25360107;-0.42189026;-;-;-;-;-;-;-;-;-;-;-;-;-;-;-
1513510816597;-;-;9.73053;-0.41879272;-0.2459259;-;-;-;-;-;-;-;-;-;-;-;-;-;-;-
1513510816617;-;-;9.115219;-0.621109;-1.0072784;-;-;-;-;-;-;-;-;-;-;-;-;-;-;-
1513510816638;-;-;8.797989;-0.9898071;-0.48054504;-;-;-;-;-;-;-;-;-;-;-;-;-;-;-
1513510816658;-;-;10.744476;-1.9786224;-1.3472595;-;-;-;-;-;-;-;-;-;-;-;-;-;-;-
1513510816679;-;-;8.572922;0.36650085;-0.7379303;-;-;-;-;-;-;-;-;-;-;-;-;-;-;-
1513510816699;-;-;9.230133;-1.076004;-1.6788483;-;-;-;-;-;-;-;-;-;-;-;-;-;-;-
1513510816720;-;-;9.683838;-1.0293121;-1.1545258;-;-;-;-;-;-;-;-;-;-;-;-;-;-;-
1513510816740;-;-;9.31752;0.06842041;-1.0431824;-;-;-;-;-;-;-;-;-;-;-;-;-;-;-
1513510816760;-;-;7.9779663;0.3964386;-0.51527405;-;-;-;-;-;-;-;-;-;-;-;-;-;-;-
1513510816781;-;-;8.311966;-0.76834106;0.35502625;-;-;-;-;-;-;-;-;-;-;-;-;-;-;-
1513510816802;-;-;9.067337;-1.2507782;-0.42549133;-;-;-;-;-;-;-;-;-;-;-;-;-;-;-
1513510816822;-;-;9.584473;-0.9957886;-0.71398926;-;-;-;-;-;-;-;-;-;-;-;-;-;-;-
1513510816842;-;-;10.590042;-1.5057678;0.92245483;-;-;-;-;-;-;-;-;-;-;-;-;-;-;-
1513510816862;-;-;10.393723;-1.1693726;-1.1569061;-;-;-;-;-;-;-;-;-;-;-;-;-;-;-
1513510816883;-;-;9.148727;-1.1717682;-1.4466095;-;-;-;-;-;-;-;-;-;-;-;-;-;-;-
1513510816904;-;-;10.163879;-0.62350464;-0.68167114;-;-;-;-;-;-;-;-;-;-;-;-;-;-;-
1513510816923;-;-;9.187042;-0.98501587;0.072509766;-;-;-;-;-;-;-;-;-;-;-;-;-;-;-
1513510816944;-;-;9.75087;-0.35176086;-0.8767853;-;-;-;-;-;-;-;-;-;-;-;-;-;-;-
1513510816964;-;-;6.735382;-0.7815094;-1.480133;-;-;-;-;-;-;-;-;-;-;-;-;-;-;-
1513510816985;-;-;9.825104;-0.8186188;-0.71517944;-;-;-;-;-;-;-;-;-;-;-;-;-;-;-
1513510817005;-;-;11.287949;-0.54808044;-1.9709473;-;-;-;-;-;-;-;-;-;-;-;-;-;-;-
1513510817025;-;-;10.297958;-1.1789551;0.33587646;-;-;-;-;-;-;-;-;-;-;-;-;-;-;-
1513510817045;-;-;10.257248;-0.4044342;-0.87319946;-;-;-;-;-;-;-;-;-;-;-;-;-;-;-
1513510817066;-;-;6.375046;-0.71447754;-2.831665;-;-;-;-;-;-;-;-;-;-;-;-;-;-;-
1513510817086;-;-;7.423706;-0.48703003;-1.8296814;-;-;-;-;-;-;-;-;-;-;-;-;-;-;-
1513510817107;-;-;11.182602;-0.33499146;-1.1197968;-;-;-;-;-;-;-;-;-;-;-;-;-;-;-
1513510817127;-;-;9.77243;0.040893555;-1.025238;-;-;-;-;-;-;-;-;-;-;-;-;-;-;-
1513510817147;-;-;10.14473;-1.1238861;-3.4589386;-;-;-;-;-;-;-;-;-;-;-;-;-;-;-
1513510817168;-;-;6.1883087;-1.3585205;-3.733078;-;-;-;-;-;-;-;-;-;-;-;-;-;-;-
1513510817189;-;-;9.085281;-1.2974701;-5.9105988;-;-;-;-;-;-;-;-;-;-;-;-;-;-;-
1513510817208;-;-;11.934387;-1.8158112;-4.3759155;-;-;-;-;-;-;-;-;-;-;-;-;-;-;-
1513510817229;-;-;10.329071;0.1438446;-3.0638885;-;-;-;-;-;-;-;-;-;-;-;-;-;-;-
1513510817249;-;-;9.894531;-0.32661438;-4.496826;-;-;-;-;-;-;-;-;-;-;-;-;-;-;-
1513510817269;-;-;8.025848;0.1797638;0.5010681;-;-;-;-;-;-;-;-;-;-;-;-;-;-;-
1513510817290;-;-;7.0262756;-0.41041565;0.74168396;-;-;-;-;-;-;-;-;-;-;-;-;-;-;-
1513510817310;-;-;6.9939575;-0.85453796;-0.58709717;-;-;-;-;-;-;-;-;-;-;-;-;-;-;-
1513510817331;-;-;6.850296;-0.7444;-1.1054382;-;-;-;-;-;-;-;-;-;-;-;-;-;-;-
1513510817350;-;-;7.811569;-0.67497253;-1.3664093;-;-;-;-;-;-;-;-;-;-;-;-;-;-;-
1513510817370;-;-;6.576172;-0.8305969;-2.2522583;-;-;-;-;-;-;-;-;-;-;-;-;-;-;-
1513510817391;-;-;7.4596252;-2.559204;-3.6373138;-;-;-;-;-;-;-;-;-;-;-;-;-;-;-
1513510817411;-;-;12.090012;-3.2236023;-2.9429932;-;-;-;-;-;-;-;-;-;-;-;-;-;-;-
1513510817432;-;-;8.618423;-2.2467651;-3.7199097;-;-;-;-;-;-;-;-;-;-;-;-;-;-;-
1513510817452;-;-;8.716583;-0.6103363;-3.025589;-;-;-;-;-;-;-;-;-;-;-;-;-;-;-
1513510817473;-;-;8.885376;-1.4494934;-1.9936829;-;-;-;-;-;-;-;-;-;-;-;-;-;-;-
1513510817493;-;-;7.873825;-0.8066559;-4.108963;-;-;-;-;-;-;-;-;-;-;-;-;-;-;-
1513510817513;-;-;7.937271;-0.542099;-4.148468;-;-;-;-;-;-;-;-;-;-;-;-;-;-;-
1513510817534;-;-;7.830719;-0.4152069;-3.678009;-;-;-;-;-;-;-;-;-;-;-;-;-;-;-
1513510817555;-;-;7.4716034;-0.46188354;-3.2362823;-;-;-;-;-;-;-;-;-;-;-;-;-;-;-
1513510817575;-;-;6.5953217;-0.94551086;-3.590622;-;-;-;-;-;-;-;-;-;-;-;-;-;-;-
1513510817595;-;-;5.95726;-1.2112732;-3.8096924;-;-;-;-;-;-;-;-;-;-;-;-;-;-;-
1513510817616;-;-;6.233795;-1.2567596;-3.4792938;-;-;-;-;-;-;-;-;-;-;-;-;-;-;-
1513510817636;-;-;6.409775;-1.2531738;-3.3092957;-;-;-;-;-;-;-;-;-;-;-;-;-;-;-
1513510817657;-;-;6.76651;-1.333374;-3.4182434;-;-;-;-;-;-;-;-;-;-;-;-;-;-;-
1513510817678;-;-;6.908966;-1.0652313;-4.4944305;-;-;-;-;-;-;-;-;-;-;-;-;-;-;-
1513510817698;-;-;6.8275604;-1.1562042;-5.4042206;-;-;-;-;-;-;-;-;-;-;-;-;-;-;-
1513510817718;-;-;5.837555;-0.8425598;-4.991226;-;-;-;-;-;-;-;-;-;-;-;-;-;-;-
1513510817739;-;-;6.0733795;-0.052474976;-3.4613342;-;-;-;-;-;-;-;-;-;-;-;-;-;-;-
1513510817760;-;-;5.8997955;0.62268066;-2.4425964;-;-;-;-;-;-;-;-;-;-;-;-;-;-;-
1513510817780;-;-;5.5071564;0.6095123;-3.100998;-;-;-;-;-;-;-;-;-;-;-;-;-;-;-
1513510817800;-;-;4.6727753;-0.083602905;-3.4349976;-;-;-;-;-;-;-;-;-;-;-;-;-;-;-
1513510817821;-;-;4.647629;-0.7958832;-4.3292236;-;-;-;-;-;-;-;-;-;-;-;-;-;-;-
1513510817842;-;-;6.410965;-2.8848267;-5.5742188;-;-;-;-;-;-;-;-;-;-;-;-;-;-;-
1513510817862;-;-;9.013458;-4.9558105;-7.39859;-;-;-;-;-;-;-;-;-;-;-;-;-;-;-
1513510817883;-;-;12.445557;-4.8229218;-8.157562;-;-;-;-;-;-;-;-;-;-;-;-;-;-;-
1513510817903;-;-;12.054092;-1.735611;-7.4788055;-;-;-;-;-;-;-;-;-;-;-;-;-;-;-
1513510817924;-;-;9.856216;-0.82221985;-7.052643;-;-;-;-;-;-;-;-;-;-;-;-;-;-;-
1513510817944;-;-;8.734543;-2.3353577;-7.5027466;-;-;-;-;-;-;-;-;-;-;-;-;-;-;-
1513510817965;-;-;6.7102356;-1.7379913;-7.414154;-;-;-;-;-;-;-;-;-;-;-;-;-;-;-
1513510817985;-;-;5.668762;-0.69651794;-6.642029;-;-;-;-;-;-;-;-;-;-;-;-;-;-;-
1513510818005;-;-;6.1667633;-0.36253357;-5.856735;-;-;-;-;-;-;-;-;-;-;-;-;-;-;-
1513510818026;-;-;7.2393646;-0.23683167;-6.0171356;-;-;-;-;-;-;-;-;-;-;-;-;-;-;-
1513510818046;-;-;7.930084;-0.6641998;-7.3722687;-;-;-;-;-;-;-;-;-;-;-;-;-;-;-
1513510818067;-;-;8.359848;-1.0927582;-7.7948303;-;-;-;-;-;-;-;-;-;-;-;-;-;-;-
1513510818088;-;-;8.085709;-1.2639465;-7.3602905;-;-;-;-;-;-;-;-;-;-;-;-;-;-;-
1513510818107;-;-;7.4093475;-1.4578705;-6.849121;-;-;-;-;-;-;-;-;-;-;-;-;-;-;-
1513510818128;-;-;6.7294006;-1.4602661;-5.9010315;-;-;-;-;-;-;-;-;-;-;-;-;-;-;-
1513510818148;-;-;6.877838;-1.364502;-5.413803;-;-;-;-;-;-;-;-;-;-;-;-;-;-;-
1513510818170;-;-;7.4129333;-1.0652313;-5.571823;-;-;-;-;-;-;-;-;-;-;-;-;-;-;-
1513510818190;-;-;7.614044;-0.48104858;-5.8806763;-;-;-;-;-;-;-;-;-;-;-;-;-;-;-
1513510818210;-;-;7.2429504;-0.3254242;-5.9129944;-;-;-;-;-;-;-;-;-;-;-;-;-;-;-
1513510818230;-;-;6.880234;-0.8533478;-5.250992;-;-;-;-;-;-;-;-;-;-;-;-;-;-;-
1513510818251;-;-;7.384201;-1.3154297;-5.1061554;-;-;-;-;-;-;-;-;-;-;-;-;-;-;-
1513510818271;-;-;9.147537;-1.2747192;-5.3647156;-;-;-;-;-;-;-;-;-;-;-;-;-;-;-
1513510818292;-;-;12.501816;-1.1190948;-5.9728546;-;-;-;-;-;-;-;-;-;-;-;-;-;-;-
1513510818313;-;-;15.2838745;0.1558075;-8.241364;-;-;-;-;-;-;-;-;-;-;-;-;-;-;-
1513510818332;-;-;13.751587;1.1278534;-9.285233;-;-;-;-;-;-;-;-;-;-;-;-;-;-;-
1513510818353;-;-;14.742783;0.2707367;-8.103683;-;-;-;-;-;-;-;-;-;-;-;-;-;-;-
1513510818373;-;-;12.287537;-0.8377838;-5.4341583;-;-;-;-;-;-;-;-;-;-;-;-;-;-;-
1513510818393;-;-;9.546173;-2.1569824;-3.9964294;-;-;-;-;-;-;-;-;-;-;-;-;-;-;-
1513510818414;-;-;7.296814;-2.5364685;-1.9912872;-;-;-;-;-;-;-;-;-;-;-;-;-;-;-
1513510818435;-;-;5.869873;-1.8086243;0.098846436;-;-;-;-;-;-;-;-;-;-;-;-;-;-;-
1513510818455;-;-;4.999588;-0.53012085;0.9032898;-;-;-;-;-;-;-;-;-;-;-;-;-;-;-
1513510818475;-;-;5.6531982;0.5161438;-0.4817505;-;-;-;-;-;-;-;-;-;-;-;-;-;-;-
1513510818495;-;-;8.098877;0.68852234;-1.48732;-;-;-;-;-;-;-;-;-;-;-;-;-;-;-
1513510818515;-;-;9.641937;0.20848083;-2.3540192;-;-;-;-;-;-;-;-;-;-;-;-;-;-;-
1513510818536;-;-;10.36618;0.21566772;-2.7694092;-;-;-;-;-;-;-;-;-;-;-;-;-;-;-
1513510818557;-;-;10.059723;0.45988464;-2.5144196;-;-;-;-;-;-;-;-;-;-;-;-;-;-;-
1513510818577;-;-;9.343857;0.6669769;-2.175644;-;-;-;-;-;-;-;-;-;-;-;-;-;-;-
1513510818598;-;-;9.160706;0.90519714;-1.6992035;-;-;-;-;-;-;-;-;-;-;-;-;-;-;-
1513510818618;-;-;9.323517;0.35932922;-1.1150208;-;-;-;-;-;-;-;-;-;-;-;-;-;-;-
1513510818638;-;-;9.467163;-0.37330627;-0.93904114;-;-;-;-;-;-;-;-;-;-;-;-;-;-;-
1513510818659;-;-;9.199005;-0.9622803;-0.24951172;-;-;-;-;-;-;-;-;-;-;-;-;-;-;-
1513510818679;-;-;8.989517;-1.3657074;0.25686646;-;-;-;-;-;-;-;-;-;-;-;-;-;-;-
1513510818699;-;-;8.884171;-1.3848572;0.58247375;-;-;-;-;-;-;-;-;-;-;-;-;-;-;-
1513510818720;-;-;8.66391;-0.83657837;0.81710815;-;-;-;-;-;-;-;-;-;-;-;-;-;-;-
1513510818741;-;-;8.273651;-0.39245605;0.7440796;-;-;-;-;-;-;-;-;-;-;-;-;-;-;-
1513510818761;-;-;8.237747;-0.15184021;0.55015564;-;-;-;-;-;-;-;-;-;-;-;-;-;-;-
1513510818781;-;-;8.861435;-0.69532776;-0.15614319;-;-;-;-;-;-;-;-;-;-;-;-;-;-;-
1513510818802;-;-;9.75087;-1.1442413;-0.882782;-;-;-;-;-;-;-;-;-;-;-;-;-;-;-
1513510818821;-;-;10.10881;-1.5380859;-1.2179718;-;-;-;-;-;-;-;-;-;-;-;-;-;-;-
1513510818841;-;-;9.598846;-1.443512;-1.3963318;-;-;-;-;-;-;-;-;-;-;-;-;-;-;-
1513510818862;-;-;8.815933;-0.9934082;-1.4142914;-;-;-;-;-;-;-;-;-;-;-;-;-;-;-
1513510818882;-;-;8.829102;-0.6294861;-1.3640137;-;-;-;-;-;-;-;-;-;-;-;-;-;-;-
1513510818908;-;-;9.403717;-0.45231628;-0.19923401;-;-;-;-;-;-;-;-;-;-;-;-;-;-;-
1513510818923;-;-;9.189438;-0.5540619;0.065322876;-;-;-;-;-;-;-;-;-;-;-;-;-;-;-
1513510818944;-;-;9.050568;-0.6426544;-0.15014648;-;-;-;-;-;-;-;-;-;-;-;-;-;-;-
1513510818966;-;-;9.09845;-0.7982788;-0.62420654;-;-;-;-;-;-;-;-;-;-;-;-;-;-;-
1513510818987;-;-;9.638351;-0.6522217;-0.8660126;-;-;-;-;-;-;-;-;-;-;-;-;-;-;-
1513510819006;-;-;10.130356;-0.2799225;-1.0575562;-;-;-;-;-;-;-;-;-;-;-;-;-;-;-
1513510819027;-;-;9.857422;-0.34936523;-1.4035187;-;-;-;-;-;-;-;-;-;-;-;-;-;-;-
1513510819048;-;-;9.424072;-0.43554688;-1.392746;-;-;-;-;-;-;-;-;-;-;-;-;-;-;-
1513510819068;-;-;9.099655;-0.3757019;-1.4023132;-;-;-;-;-;-;-;-;-;-;-;-;-;-;-
1513510819089;-;-;9.143951;-0.083602905;-1.9613647;-;-;-;-;-;-;-;-;-;-;-;-;-;-;-
1513510819109;-;-;9.019455;-0.021362305;-2.5802612;-;-;-;-;-;-;-;-;-;-;-;-;-;-;-
1513510819130;-;-;9.576096;-0.34936523;-2.9657288;-;-;-;-;-;-;-;-;-;-;-;-;-;-;-
1513510819150;-;-;9.803543;-0.119522095;-3.0243835;-;-;-;-;-;-;-;-;-;-;-;-;-;-;-
1513510819171;-;-;8.862625;-0.5325165;-2.6556854;-;-;-;-;-;-;-;-;-;-;-;-;-;-;-
1513510819191;-;-;9.71376;-1.1334686;-2.0104523;-;-;-;-;-;-;-;-;-;-;-;-;-;-;-
1513510819212;-;-;9.363022;-1.4387207;-1.6058197;-;-;-;-;-;-;-;-;-;-;-;-;-;-;-
1513510819232;-;-;9.527023;-0.7803192;-1.653717;-;-;-;-;-;-;-;-;-;-;-;-;-;-;-
1513510819253;-;-;9.45639;-0.24401855;-1.7554626;-;-;-;-;-;-;-;-;-;-;-;-;-;-;-
1513510819273;-;-;9.517441;-0.37091064;-1.8009491;-;-;-;-;-;-;-;-;-;-;-;-;-;-;-
1513510819294;-;-;9.382172;-0.73602295;-1.792572;-;-;-;-;-;-;-;-;-;-;-;-;-;-;-
1513510819314;-;-;8.97995;-0.7551727;-1.4514008;-;-;-;-;-;-;-;-;-;-;-;-;-;-;-
1513510819335;-;-;8.827911;-0.41041565;-1.2850037;-;-;-;-;-;-;-;-;-;-;-;-;-;-;-
1513510819354;-;-;9.13916;-0.46427917;-1.2538757;-;-;-;-;-;-;-;-;-;-;-;-;-;-;-
1513510819375;-;-;9.424072;-0.35176086;-1.5052643;-;-;-;-;-;-;-;-;-;-;-;-;-;-;-
1513510819396;-;-;9.213379;-0.4559021;-1.3364716;-;-;-;-;-;-;-;-;-;-;-;-;-;-;-
1513510819416;-;-;8.90213;-0.49661255;-1.1724701;-;-;-;-;-;-;-;-;-;-;-;-;-;-;-
1513510819436;-;-;8.736938;-0.7767334;-0.72236633;-;-;-;-;-;-;-;-;-;-;-;-;-;-;-
1513510819457;-;-;9.088882;-0.4834442;-1.0635376;-;-;-;-;-;-;-;-;-;-;-;-;-;-;-
1513510819477;-;-;9.3893585;-0.15184021;-2.1648712;-;-;-;-;-;-;-;-;-;-;-;-;-;-;-
1513510819497;-;-;8.673492;-0.82580566;-2.6269531;-;-;-;-;-;-;-;-;-;-;-;-;-;-;-
1513510819518;-;-;8.048599;-0.8497467;-3.298523;-;-;-;-;-;-;-;-;-;-;-;-;-;-;-
1513510819537;-;-;7.643982;0.02293396;-3.0279846;-;-;-;-;-;-;-;-;-;-;-;-;-;-;-
1513510819558;-;-;9.025436;0.2815094;-1.3759766;-;-;-;-;-;-;-;-;-;-;-;-;-;-;-
1513510819578;-;-;10.85939;-0.45710754;-0.9737549;-;-;-;-;-;-;-;-;-;-;-;-;-;-;-
1513510819598;-;-;10.93721;-1.6266632;-0.89953613;-;-;-;-;-;-;-;-;-;-;-;-;-;-;-
1513510819617;-;-;9.225342;-0.9910126;-1.1724701;-;-;-;-;-;-;-;-;-;-;-;-;-;-;-
1513510819637;-;-;7.813965;-0.48942566;-1.6046295;-;-;-;-;-;-;-;-;-;-;-;-;-;-;-
1513510819658;-;-;7.8965607;0.39523315;-1.5603333;-;-;-;-;-;-;-;-;-;-;-;-;-;-;-
1513510819677;-;-;9.092468;0.9064026;-1.2012024;-;-;-;-;-;-;-;-;-;-;-;-;-;-;-
1513510819699;-;-;9.295975;0.6789551;-2.3228912;-;-;-;-;-;-;-;-;-;-;-;-;-;-;-
1513510819719;-;-;9.398926;-0.24401855;-3.9413757;-;-;-;-;-;-;-;-;-;-;-;-;-;-;-
1513510819740;-;-;9.29837;-1.0903625;-2.9537659;-;-;-;-;-;-;-;-;-;-;-;-;-;-;-
1513510819760;-;-;9.549759;0.040893555;-1.7075806;-;-;-;-;-;-;-;-;-;-;-;-;-;-;-
1513510819780;-;-;9.549759;0.42277527;-0.22436523;-;-;-;-;-;-;-;-;-;-;-;-;-;-;-
1513510819801;-;-;9.536591;0.42515564;0.72612;-;-;-;-;-;-;-;-;-;-;-;-;-;-;-
1513510819821;-;-;9.154724;0.026535034;0.55015564;-;-;-;-;-;-;-;-;-;-;-;-;-;-;-
1513510819842;-;-;8.551376;-0.66778564;0.602829;-;-;-;-;-;-;-;-;-;-;-;-;-;-;-
1513510819862;-;-;8.460403;-1.2507782;0.09046936;-;-;-;-;-;-;-;-;-;-;-;-;-;-;-
1513510819883;-;-;8.783615;-1.6386414;-0.36083984;-;-;-;-;-;-;-;-;-;-;-;-;-;-;-
1513510819903;-;-;9.388153;-1.5919495;-0.8205261;-;-;-;-;-;-;-;-;-;-;-;-;-;-;-
1513510819923;-;-;9.744888;-1.0269165;-0.9234772;-;-;-;-;-;-;-;-;-;-;-;-;-;-;-
1513510819944;-;-;10.271622;-0.6941223;-1.2945862;-;-;-;-;-;-;-;-;-;-;-;-;-;-;-
1513510819963;-;-;10.059723;-0.3984375;-1.511261;-;-;-;-;-;-;-;-;-;-;-;-;-;-;-
1513510819984;-;-;9.644333;-0.3936615;-0.9522095;-;-;-;-;-;-;-;-;-;-;-;-;-;-;-
1513510820004;-;-;9.005081;-0.30506897;-0.4673767;-;-;-;-;-;-;-;-;-;-;-;-;-;-;-
1513510820025;-;-;8.291611;-0.6641998;0.1144104;-;-;-;-;-;-;-;-;-;-;-;-;-;-;-
1513510820046;-;-;8.649536;-1.115509;0.5453644;-;-;-;-;-;-;-;-;-;-;-;-;-;-;-
1513510820066;-;-;8.904526;-1.2819061;0.21257019;-;-;-;-;-;-;-;-;-;-;-;-;-;-;-
1513510820087;-;-;9.131973;-1.1490326;-0.26986694;-;-;-;-;-;-;-;-;-;-;-;-;-;-;-
1513510820107;-;-;9.500687;-0.581604;-0.5428009;-;-;-;-;-;-;-;-;-;-;-;-;-;-;-
1513510820127;-;-;9.61441;-0.07522583;-0.7690582;-;-;-;-;-;-;-;-;-;-;-;-;-;-;-
1513510820148;-;-;9.650314;0.19172668;-0.9737549;-;-;-;-;-;-;-;-;-;-;-;-;-;-;-
1513510820167;-;-;9.628769;0.110321045;-0.9450226;-;-;-;-;-;-;-;-;-;-;-;-;-;-;-
1513510820188;-;-;9.41449;-0.081207275;-0.748703;-;-;-;-;-;-;-;-;-;-;-;-;-;-;-
1513510820207;-;-;9.0972595;-0.052474976;-0.77264404;-;-;-;-;-;-;-;-;-;-;-;-;-;-;-
1513510820227;-;-;8.972763;0.17855835;-0.71517944;-;-;-;-;-;-;-;-;-;-;-;-;-;-;-
1513510820248;-;-;8.825516;0.35214233;-0.6888428;-;-;-;-;-;-;-;-;-;-;-;-;-;-;-
1513510820268;-;-;9.003891;0.37368774;-0.5787201;-;-;-;-;-;-;-;-;-;-;-;-;-;-;-
1513510820288;-;-;9.264847;0.1905365;-0.372818;-;-;-;-;-;-;-;-;-;-;-;-;-;-;-
1513510820309;-;-;9.3701935;0.115112305;-0.3620453;-;-;-;-;-;-;-;-;-;-;-;-;-;-;-
1513510820330;-;-;9.288788;0.038497925;-0.4338684;-;-;-;-;-;-;-;-;-;-;-;-;-;-;-
1513510820350;-;-;9.331894;-0.10395813;-0.3764038;-;-;-;-;-;-;-;-;-;-;-;-;-;-;-
1513510820370;-;-;9.407303;-0.3002777;-0.1956482;-;-;-;-;-;-;-;-;-;-;-;-;-;-;-
1513510820391;-;-;9.507858;-0.35176086;-0.083114624;-;-;-;-;-;-;-;-;-;-;-;-;-;-;-
1513510820411;-;-;9.39534;-0.3577423;-0.014877319;-;-;-;-;-;-;-;-;-;-;-;-;-;-;-
1513510820432;-;-;9.225342;-0.35055542;0.025817871;-;-;-;-;-;-;-;-;-;-;-;-;-;-;-
1513510820452;-;-;9.242111;-0.2679596;-0.030441284;-;-;-;-;-;-;-;-;-;-;-;-;-;-;-
1513510820473;-;-;9.215775;-0.21170044;-0.15853882;-;-;-;-;-;-;-;-;-;-;-;-;-;-;-
1513510820492;-;-;9.225342;-0.15542603;-0.20281982;-;-;-;-;-;-;-;-;-;-;-;-;-;-;-
1513510820512;-;-;9.23613;-0.109939575;-0.29380798;-;-;-;-;-;-;-;-;-;-;-;-;-;-;-
1513510820534;-;-;9.3103485;-0.08241272;-0.40034485;-;-;-;-;-;-;-;-;-;-;-;-;-;-;-
1513510820554;-;-;9.418076;0.0037841797;-0.4925232;-;-;-;-;-;-;-;-;-;-;-;-;-;-;-
1513510820574;-;-;9.282806;0.038497925;-0.5571594;-;-;-;-;-;-;-;-;-;-;-;-;-;-;-
1513510820594;-;-;9.23613;-0.03213501;-0.4817505;-;-;-;-;-;-;-;-;-;-;-;-;-;-;-
1513510820614;-;-;9.1523285;-0.16261292;-0.37042236;-;-;-;-;-;-;-;-;-;-;-;-;-;-;-
1513510820635;-;-;9.190628;-0.30506897;-0.31176758;-;-;-;-;-;-;-;-;-;-;-;-;-;-;-
1513510820655;-;-;9.189438;-0.4271698;-0.22317505;-;-;-;-;-;-;-;-;-;-;-;-;-;-;-
1513510820675;-;-;9.346252;-0.31344604;-0.19683838;-;-;-;-;-;-;-;-;-;-;-;-;-;-;-
1513510820696;-;-;9.336685;-0.3182373;-0.20761108;-;-;-;-;-;-;-;-;-;-;-;-;-;-;-
1513510820716;-;-;9.380966;-0.31105042;-0.14656067;-;-;-;-;-;-;-;-;-;-;-;-;-;-;-
1513510820740;-;-;9.360626;-0.26316833;-0.15135193;-;-;-;-;-;-;-;-;-;-;-;-;-;-;-
1513510820759;-;-;9.284012;-0.24281311;-0.07952881;-;-;-;-;-;-;-;-;-;-;-;-;-;-;-
1513510820779;-;-;9.281616;-0.21887207;-0.05319214;-;-;-;-;-;-;-;-;-;-;-;-;-;-;-
1513510820800;-;-;9.258865;-0.25239563;-0.040023804;-;-;-;-;-;-;-;-;-;-;-;-;-;-;-
1513510820820;-;-;9.224152;-0.23324585;-0.078323364;-;-;-;-;-;-;-;-;-;-;-;-;-;-;-
1513510820841;-;-;9.232529;-0.20690918;-0.06036377;-;-;-;-;-;-;-;-;-;-;-;-;-;-;-
1513510820861;-;-;9.212173;-0.1985321;-0.01966858;-;-;-;-;-;-;-;-;-;-;-;-;-;-;-
1513510820882;-;-;9.284012;-0.1817627;-0.107055664;-;-;-;-;-;-;-;-;-;-;-;-;-;-;-
1513510820903;-;-;9.29837;-0.1530304;-0.2351532;-;-;-;-;-;-;-;-;-;-;-;-;-;-;-
1513510820923;-;-;9.262466;-0.102752686;-0.18965149;-;-;-;-;-;-;-;-;-;-;-;-;-;-;-
1513510820943;-;-;9.343857;-0.06324768;-0.1776886;-;-;-;-;-;-;-;-;-;-;-;-;-;-;-
1513510820964;-;-;9.318726;-0.042907715;-0.20521545;-;-;-;-;-;-;-;-;-;-;-;-;-;-;-
1513510820984;-;-;9.264847;-0.03213501;-0.16212463;-;-;-;-;-;-;-;-;-;-;-;-;-;-;-
1513510821005;-;-;9.250488;-0.016571045;-0.023254395;-;-;-;-;-;-;-;-;-;-;-;-;-;-;-
1513510821025;-;-;9.246902;0.0025787354;0.034194946;-;-;-;-;-;-;-;-;-;-;-;-;-;-;-
1513510821046;-;-;9.216965;-0.009384155;-0.03642273;-;-;-;-;-;-;-;-;-;-;-;-;-;-;-
1513510821066;-;-;9.257675;0.0025787354;-0.14297485;-;-;-;-;-;-;-;-;-;-;-;-;-;-;-
1513510821087;-;-;9.313934;0.060043335;-0.2004242;-;-;-;-;-;-;-;-;-;-;-;-;-;-;-
1513510821107;-;-;9.266052;0.083984375;-0.16212463;-;-;-;-;-;-;-;-;-;-;-;-;-;-;-
1513510821128;-;-;9.244507;0.03251648;-0.23753357;-;-;-;-;-;-;-;-;-;-;-;-;-;-;-
1513510821148;-;-;9.220566;0.028915405;-0.18725586;-;-;-;-;-;-;-;-;-;-;-;-;-;-;-
1513510821169;-;-;9.23732;0.0013885498;-0.16091919;-;-;-;-;-;-;-;-;-;-;-;-;-;-;-
1513510821189;-;-;9.244507;0.07081604;-0.19683838;-;-;-;-;-;-;-;-;-;-;-;-;-;-;-
1513510821210;-;-;9.210983;0.028915405;-0.22077942;-;-;-;-;-;-;-;-;-;-;-;-;-;-;-
1513510821229;-;-;9.252884;0.021743774;-0.23394775;-;-;-;-;-;-;-;-;-;-;-;-;-;-;-
1513510821249;-;-;9.210983;0.013366699;-0.26387024;-;-;-;-;-;-;-;-;-;-;-;-;-;-;-
1513510821270;-;-;9.221756;0.016952515;-0.1669159;-;-;-;-;-;-;-;-;-;-;-;-;-;-;-
1513510821290;-;-;9.2756195;0.0037841797;-0.18965149;-;-;-;-;-;-;-;-;-;-;-;-;-;-;-
1513510821311;-;-;9.318726;-0.030929565;-0.15733337;-;-;-;-;-;-;-;-;-;-;-;-;-;-;-
1513510821331;-;-;9.304352;-0.0440979;-0.10107422;-;-;-;-;-;-;-;-;-;-;-;-;-;-;-
1513510821351;-;-;9.25647;-0.040512085;-0.07234192;-;-;-;-;-;-;-;-;-;-;-;-;-;-;-
1513510821371;-;-;9.264847;-0.03691101;-0.0687561;-;-;-;-;-;-;-;-;-;-;-;-;-;-;-
1513510821392;-;-;9.230133;-0.026138306;-0.06636047;-;-;-;-;-;-;-;-;-;-;-;-;-;-;-
1513510821412;-;-;9.266052;-0.038116455;-0.087905884;-;-;-;-;-;-;-;-;-;-;-;-;-;-;-
1513510821433;-;-;9.240906;-0.04170227;-0.037628174;-;-;-;-;-;-;-;-;-;-;-;-;-;-;-
1513510821453;-;-;9.240906;-0.08958435;-0.018478394;-;-;-;-;-;-;-;-;-;-;-;-;-;-;-
1513510821474;-;-;9.329498;-0.081207275;-0.056777954;-;-;-;-;-;-;-;-;-;-;-;-;-;-;-
1513510821493;-;-;9.281616;-0.114730835;-0.107055664;-;-;-;-;-;-;-;-;-;-;-;-;-;-;-
1513510821514;-;-;9.293579;-0.09437561;-0.08909607;-;-;-;-;-;-;-;-;-;-;-;-;-;-;-
1513510821534;-;-;9.260071;-0.112335205;-0.030441284;-;-;-;-;-;-;-;-;-;-;-;-;-;-;-
1513510821555;-;-;9.250488;-0.102752686;-0.029251099;-;-;-;-;-;-;-;-;-;-;-;-;-;-;-
1513510821576;-;-;9.2313385;-0.107543945;-0.102264404;-;-;-;-;-;-;-;-;-;-;-;-;-;-;-
1513510821596;-;-;9.234924;-0.04170227;-0.20402527;-;-;-;-;-;-;-;-;-;-;-;-;-;-;-
1513510821616;-;-;9.257675;-0.062057495;-0.20402527;-;-;-;-;-;-;-;-;-;-;-;-;-;-;-
1513510821637;-;-;9.279221;-0.112335205;-0.24951172;-;-;-;-;-;-;-;-;-;-;-;-;-;-;-
1513510821656;-;-;9.266052;-0.07522583;-0.20162964;-;-;-;-;-;-;-;-;-;-;-;-;-;-;-
1513510821677;-;-;9.257675;-0.08001709;-0.09867859;-;-;-;-;-;-;-;-;-;-;-;-;-;-;-
1513510821697;-;-;9.289993;-0.07522583;-0.10824585;-;-;-;-;-;-;-;-;-;-;-;-;-;-;-
1513510821718;-;-;9.305557;-0.078811646;-0.18367004;-;-;-;-;-;-;-;-;-;-;-;-;-;-;-
1513510821737;-;-;9.25528;-0.04649353;-0.21838379;-;-;-;-;-;-;-;-;-;-;-;-;-;-;-
1513510821758;-;-;9.2708435;-0.040512085;-0.15374756;-;-;-;-;-;-;-;-;-;-;-;-;-;-;-
1513510821778;-;-;9.274429;-0.071640015;-0.14537048;-;-;-;-;-;-;-;-;-;-;-;-;-;-;-
1513510821798;-;-;9.284012;-0.016571045;-0.085510254;-;-;-;-;-;-;-;-;-;-;-;-;-;-;-
1513510821819;-;-;9.262466;-0.074035645;-0.09388733;-;-;-;-;-;-;-;-;-;-;-;-;-;-;-
1513510821839;-;-;9.309143;-0.035720825;-0.099868774;-;-;-;-;-;-;-;-;-;-;-;-;-;-;-
1513510821860;-;-;9.291183;-0.054870605;-0.075927734;-;-;-;-;-;-;-;-;-;-;-;-;-;-;-
1513510821880;-;-;9.246902;-0.06324768;0.001876831;-;-;-;-;-;-;-;-;-;-;-;-;-;-;-
1513510821901;-;-;9.216965;-0.01776123;0.019836426;-;-;-;-;-;-;-;-;-;-;-;-;-;-;-
1513510821941;-;-;9.293579;0.019348145;-0.023254395;-;-;-;-;-;-;-;-;-;-;-;-;-;-;-
1513510821942;-;-;9.293579;0.019348145;-0.023254395;-;-;-;-;-;-;-;-;-;-;-;-;-;-;-
1513510821962;-;-;9.291183;-0.033325195;-0.07952881;-;-;-;-;-;-;-;-;-;-;-;-;-;-;-
1513510821983;-;-;9.205002;-0.054870605;-0.09269714;-;-;-;-;-;-;-;-;-;-;-;-;-;-;-
1513510822003;-;-;9.289993;-0.033325195;-0.123809814;-;-;-;-;-;-;-;-;-;-;-;-;-;-;-
1513510822024;-;-;9.291183;-0.04170227;-0.19923401;-;-;-;-;-;-;-;-;-;-;-;-;-;-;-
1513510822044;-;-;9.250488;-0.042907715;-0.16931152;-;-;-;-;-;-;-;-;-;-;-;-;-;-;-
1513510822064;-;-;9.286407;-0.07762146;-0.1381836;-;-;-;-;-;-;-;-;-;-;-;-;-;-;-
1513510822084;-;-;9.288788;-0.107543945;-0.0627594;-;-;-;-;-;-;-;-;-;-;-;-;-;-;-
1513510822105;-;-;9.288788;-0.13388062;-0.014877319;-;-;-;-;-;-;-;-;-;-;-;-;-;-;-
1513510822125;-;-;9.225342;-0.093185425;-0.013687134;-;-;-;-;-;-;-;-;-;-;-;-;-;-;-
1513510822145;-;-;9.151123;-0.030929565;-0.059173584;-;-;-;-;-;-;-;-;-;-;-;-;-;-;-
1513510822166;-;-;9.175064;-0.054870605;-0.10346985;-;-;-;-;-;-;-;-;-;-;-;-;-;-;-
1513510822186;-;-;9.252884;-0.07522583;-0.14176941;-;-;-;-;-;-;-;-;-;-;-;-;-;-;-
1513510822206;-;-;9.301956;0.0061798096;-0.19802856;-;-;-;-;-;-;-;-;-;-;-;-;-;-;-
1513510822227;-;-;9.303162;-0.015365601;-0.14537048;-;-;-;-;-;-;-;-;-;-;-;-;-;-;-
1513510822247;-;-;9.323517;0.014556885;-0.159729;-;-;-;-;-;-;-;-;-;-;-;-;-;-;-
1513510822267;-;-;9.254074;-0.009384155;-0.18247986;-;-;-;-;-;-;-;-;-;-;-;-;-;-;-
1513510822288;-;-;9.213379;-0.012969971;-0.120224;-;-;-;-;-;-;-;-;-;-;-;-;-;-;-
1513510822309;-;-;9.249298;-0.059661865;-0.11424255;-;-;-;-;-;-;-;-;-;-;-;-;-;-;-
1513510822329;-;-;9.264847;-0.078811646;-0.14416504;-;-;-;-;-;-;-;-;-;-;-;-;-;-;-
1513510822350;-;-;9.25647;-0.05607605;-0.17529297;-;-;-;-;-;-;-;-;-;-;-;-;-;-;-
1513510822370;-;-;9.246902;-0.083602905;-0.14537048;-;-;-;-;-;-;-;-;-;-;-;-;-;-;-
1513510822391;-;-;9.267242;-0.08001709;-0.13578796;-;-;-;-;-;-;-;-;-;-;-;-;-;-;-
1513510822411;-;-;9.249298;-0.08001709;-0.15014648;-;-;-;-;-;-;-;-;-;-;-;-;-;-;-
1513510822432;-;-;9.242111;-0.08241272;-0.123809814;-;-;-;-;-;-;-;-;-;-;-;-;-;-;-
1513510822452;-;-;9.29837;-0.030929565;-0.08192444;-;-;-;-;-;-;-;-;-;-;-;-;-;-;-
1513510822472;-;-;9.2756195;1.9836426E-4;-0.10107422;-;-;-;-;-;-;-;-;-;-;-;-;-;-;-
1513510822492;-;-;9.263657;-0.009384155;-0.07473755;-;-;-;-;-;-;-;-;-;-;-;-;-;-;-
1513510822512;-;-;9.274429;-0.018966675;-0.12501526;-;-;-;-;-;-;-;-;-;-;-;-;-;-;-
1513510822533;-;-;9.195419;-0.015365601;-0.14775085;-;-;-;-;-;-;-;-;-;-;-;-;-;-;-
1513510822554;-;-;9.182251;0.010971069;-0.05558777;-;-;-;-;-;-;-;-;-;-;-;-;-;-;-
1513510822574;-;-;9.357025;-0.0010070801;-0.18965149;-;-;-;-;-;-;-;-;-;-;-;-;-;-;-
1513510822594;-;-;9.3151245;-0.02973938;-0.20761108;-;-;-;-;-;-;-;-;-;-;-;-;-;-;-
1513510822615;-;-;9.306747;-0.03453064;-0.13697815;-;-;-;-;-;-;-;-;-;-;-;-;-;-;-
1513510822636;-;-;9.281616;-0.0010070801;-0.078323364;-;-;-;-;-;-;-;-;-;-;-;-;-;-;-
1513510822656;-;-;9.258865;-0.026138306;-0.026855469;-;-;-;-;-;-;-;-;-;-;-;-;-;-;-
1513510822676;-;-;9.216965;0.036102295;-0.020858765;-;-;-;-;-;-;-;-;-;-;-;-;-;-;-
1513510822697;-;-;9.212173;-0.0045928955;-0.10586548;-;-;-;-;-;-;-;-;-;-;-;-;-;-;-
1513510822718;-;-;9.25647;0.0025787354;-0.08192444;-;-;-;-;-;-;-;-;-;-;-;-;-;-;-
1513510822738;-;-;9.264847;-0.081207275;-0.073532104;-;-;-;-;-;-;-;-;-;-;-;-;-;-;-
1513510822758;-;-;9.2756195;-0.093185425;-0.107055664;-;-;-;-;-;-;-;-;-;-;-;-;-;-;-
1513510822778;-;-;9.287598;-0.095581055;-0.071136475;-;-;-;-;-;-;-;-;-;-;-;-;-;-;-
1513510822799;-;-;9.329498;-0.074035645;-0.075927734;-;-;-;-;-;-;-;-;-;-;-;-;-;-;-
1513510822818;-;-;9.306747;-0.050079346;-0.09388733;-;-;-;-;-;-;-;-;-;-;-;-;-;-;-
1513510822839;-;-;9.257675;-0.01776123;-0.102264404;-;-;-;-;-;-;-;-;-;-;-;-;-;-;-
1513510822858;-;-;9.243301;-0.0045928955;-0.03881836;-;-;-;-;-;-;-;-;-;-;-;-;-;-;-
1513510822879;-;-;9.258865;-0.033325195;-0.0076904297;-;-;-;-;-;-;-;-;-;-;-;-;-;-;-
1513510822898;-;-;9.242111;-0.05368042;0.027023315;-;-;-;-;-;-;-;-;-;-;-;-;-;-;-
1513510822919;-;-;9.224152;-0.042907715;0.0138549805;-;-;-;-;-;-;-;-;-;-;-;-;-;-;-
1513510822939;-;-;9.243301;-0.03930664;-0.030441284;-;-;-;-;-;-;-;-;-;-;-;-;-;-;-
1513510822960;-;-;9.240906;-0.042907715;0.029418945;-;-;-;-;-;-;-;-;-;-;-;-;-;-;-
1513510822980;-;-;9.273239;-0.0069885254;0.028213501;-;-;-;-;-;-;-;-;-;-;-;-;-;-;-
1513510823000;-;-;9.284012;-0.0045928955;-0.037628174;-;-;-;-;-;-;-;-;-;-;-;-;-;-;-
1513510823020;-;-;9.321121;-0.02255249;-0.006500244;-;-;-;-;-;-;-;-;-;-;-;-;-;-;-
1513510823041;-;-;9.278015;-0.0069885254;-0.04121399;-;-;-;-;-;-;-;-;-;-;-;-;-;-;-
1513510823061;-;-;9.242111;-0.023742676;-0.0029144287;-;-;-;-;-;-;-;-;-;-;-;-;-;-;-
1513510823082;-;-;9.279221;-0.047698975;-0.030441284;-;-;-;-;-;-;-;-;-;-;-;-;-;-;-
1513510823101;-;-;9.23851;-0.038116455;-0.07713318;-;-;-;-;-;-;-;-;-;-;-;-;-;-;-
1513510823122;-;-;9.226547;-0.03930664;-0.078323364;-;-;-;-;-;-;-;-;-;-;-;-;-;-;-
1513510823142;-;-;9.369003;0.014556885;-0.15135193;-;-;-;-;-;-;-;-;-;-;-;-;-;-;-
1513510823163;-;-;9.300766;0.0049743652;-0.12261963;-;-;-;-;-;-;-;-;-;-;-;-;-;-;-
1513510823183;-;-;9.304352;-0.02015686;-0.059173584;-;-;-;-;-;-;-;-;-;-;-;-;-;-;-
1513510823204;-;-;9.279221;-0.016571045;-0.07473755;-;-;-;-;-;-;-;-;-;-;-;-;-;-;-
1513510823224;-;-;9.234924;-0.026138306;6.866455E-4;-;-;-;-;-;-;-;-;-;-;-;-;-;-;-
1513510823245;-;-;9.1918335;0.019348145;-0.035232544;-;-;-;-;-;-;-;-;-;-;-;-;-;-;-
1513510823265;-;-;9.188232;0.04208374;-0.080718994;-;-;-;-;-;-;-;-;-;-;-;-;-;-;-
1513510823285;-;-;9.21936;0.014556885;-0.06515503;-;-;-;-;-;-;-;-;-;-;-;-;-;-;-
1513510823305;-;-;9.282806;-0.02015686;-0.10107422;-;-;-;-;-;-;-;-;-;-;-;-;-;-;-
1513510823326;-;-;9.29837;-0.00819397;-0.099868774;-;-;-;-;-;-;-;-;-;-;-;-;-;-;-
1513510823346;-;-;9.305557;0.01574707;-0.05796814;-;-;-;-;-;-;-;-;-;-;-;-;-;-;-
1513510823367;-;-;9.305557;-0.0021972656;-0.04360962;-;-;-;-;-;-;-;-;-;-;-;-;-;-;-
1513510823387;-;-;9.25647;-0.02015686;-0.071136475;-;-;-;-;-;-;-;-;-;-;-;-;-;-;-
1513510823407;-;-;9.23613;0.013366699;-0.063964844;-;-;-;-;-;-;-;-;-;-;-;-;-;-;-
1513510823428;-;-;9.250488;-0.05128479;-0.018478394;-;-;-;-;-;-;-;-;-;-;-;-;-;-;-
1513510823447;-;-;9.272034;-0.06324768;-0.025650024;-;-;-;-;-;-;-;-;-;-;-;-;-;-;-
1513510823467;-;-;9.261261;-0.0021972656;-0.0340271;-;-;-;-;-;-;-;-;-;-;-;-;-;-;-
1513510823488;-;-;9.262466;-0.02015686;-0.008895874;-;-;-;-;-;-;-;-;-;-;-;-;-;-;-
1513510823509;-;-;9.262466;-0.03453064;0.036590576;-;-;-;-;-;-;-;-;-;-;-;-;-;-;-
1513510823529;-;-;9.226547;-0.015365601;0.04498291;-;-;-;-;-;-;-;-;-;-;-;-;-;-;-
1513510823549;-;-;9.213379;-0.0069885254;0.01625061;-;-;-;-;-;-;-;-;-;-;-;-;-;-;-
1513510823570;-;-;9.230133;0.02772522;-0.01008606;-;-;-;-;-;-;-;-;-;-;-;-;-;-;-
1513510823590;-;-;9.269638;-0.0010070801;-0.016082764;-;-;-;-;-;-;-;-;-;-;-;-;-;-;-
1513510823611;-;-;9.299576;0.014556885;0.023422241;-;-;-;-;-;-;-;-;-;-;-;-;-;-;-
1513510823631;-;-;9.306747;-0.0069885254;-0.008895874;-;-;-;-;-;-;-;-;-;-;-;-;-;-;-
1513510823652;-;-;9.268448;-0.047698975;-0.0076904297;-;-;-;-;-;-;-;-;-;-;-;-;-;-;-
1513510823672;-;-;9.213379;-0.0010070801;-0.0041046143;-;-;-;-;-;-;-;-;-;-;-;-;-;-;-
1513510823693;-;-;9.246902;1.9836426E-4;-0.028045654;-;-;-;-;-;-;-;-;-;-;-;-;-;-;-
1513510823713;-;-;9.276825;-0.03453064;-0.04360962;-;-;-;-;-;-;-;-;-;-;-;-;-;-;-
1513510823734;-;-;9.165497;-0.0440979;-0.05558777;-;-;-;-;-;-;-;-;-;-;-;-;-;-;-
1513510823754;-;-;9.262466;0.0061798096;-0.04360962;-;-;-;-;-;-;-;-;-;-;-;-;-;-;-
1513510823775;-;-;9.403717;-0.069244385;-0.07473755;-;-;-;-;-;-;-;-;-;-;-;-;-;-;-
1513510823795;-;-;9.329498;-0.014175415;-0.099868774;-;-;-;-;-;-;-;-;-;-;-;-;-;-;-
1513510823815;-;-;9.31752;-0.02015686;0.01864624;-;-;-;-;-;-;-;-;-;-;-;-;-;-;-
1513510823835;-;-;9.261261;-0.011779785;0.1251831;-;-;-;-;-;-;-;-;-;-;-;-;-;-;-
1513510823856;-;-;9.212173;0.045684814;0.17904663;-;-;-;-;-;-;-;-;-;-;-;-;-;-;-
1513510823876;-;-;9.190628;0.072021484;0.06892395;-;-;-;-;-;-;-;-;-;-;-;-;-;-;-
1513510823897;-;-;9.207397;0.06602478;0.067718506;-;-;-;-;-;-;-;-;-;-;-;-;-;-;-
1513510823918;-;-;9.239716;0.048080444;0.079696655;-;-;-;-;-;-;-;-;-;-;-;-;-;-;-
1513510823939;-;-;9.254074;0.05406189;0.046173096;-;-;-;-;-;-;-;-;-;-;-;-;-;-;-
1513510823958;-;-;9.268448;0.02293396;0.021026611;-;-;-;-;-;-;-;-;-;-;-;-;-;-;-
1513510823979;-;-;9.318726;0.060043335;0.074905396;-;-;-;-;-;-;-;-;-;-;-;-;-;-;-
1513510823998;-;-;9.278015;0.04208374;0.1539154;-;-;-;-;-;-;-;-;-;-;-;-;-;-;-
1513510824018;-;-;9.222961;0.03012085;0.15151978;-;-;-;-;-;-;-;-;-;-;-;-;-;-;-
1513510824038;-;-;9.206192;-0.02255249;0.12397766;-;-;-;-;-;-;-;-;-;-;-;-;-;-;-
1513510824059;-;-;9.254074;-0.023742676;0.07849121;-;-;-;-;-;-;-;-;-;-;-;-;-;-;-
1513510824079;-;-;9.289993;-0.02973938;0.084472656;-;-;-;-;-;-;-;-;-;-;-;-;-;-;-
1513510824100;-;-;9.286407;-0.04170227;0.058151245;-;-;-;-;-;-;-;-;-;-;-;-;-;-;-
1513510824121;-;-;9.306747;-0.014175415;0.012649536;-;-;-;-;-;-;-;-;-;-;-;-;-;-;-
1513510824141;-;-;9.348648;-0.066848755;0.01864624;-;-;-;-;-;-;-;-;-;-;-;-;-;-;-
1513510824161;-;-;9.307953;-0.012969971;0.04019165;-;-;-;-;-;-;-;-;-;-;-;-;-;-;-
1513510824181;-;-;9.234924;-0.03930664;0.089263916;-;-;-;-;-;-;-;-;-;-;-;-;-;-;-
1513510824202;-;-;9.225342;-0.01776123;0.09526062;-;-;-;-;-;-;-;-;-;-;-;-;-;-;-
1513510824223;-;-;9.276825;-0.05847168;0.122787476;-;-;-;-;-;-;-;-;-;-;-;-;-;-;-
1513510824243;-;-;9.249298;-0.047698975;0.17785645;-;-;-;-;-;-;-;-;-;-;-;-;-;-;-
1513510824264;-;-;9.242111;0.02293396;0.14672852;-;-;-;-;-;-;-;-;-;-;-;-;-;-;-
1513510824284;-;-;9.206192;-0.00340271;0.18623352;-;-;-;-;-;-;-;-;-;-;-;-;-;-;-
1513510824304;-;-;9.233734;0.03012085;0.25086975;-;-;-;-;-;-;-;-;-;-;-;-;-;-;-
1513510824325;-;-;9.240906;-0.009384155;0.21736145;-;-;-;-;-;-;-;-;-;-;-;-;-;-;-
1513510824347;-;-;9.287598;-0.01776123;0.21376038;-;-;-;-;-;-;-;-;-;-;-;-;-;-;-
1513510824367;-;-;9.249298;-0.01776123;0.25805664;-;-;-;-;-;-;-;-;-;-;-;-;-;-;-
1513510824387;-;-;9.224152;-0.028533936;0.32270813;-;-;-;-;-;-;-;-;-;-;-;-;-;-;-
1513510824407;-;-;9.328293;-0.052474976;0.36579895;-;-;-;-;-;-;-;-;-;-;-;-;-;-;-
1513510824428;-;-;9.366608;-0.15184021;0.28559875;-;-;-;-;-;-;-;-;-;-;-;-;-;-;-
1513510824449;-;-;9.245697;-0.1530304;0.26524353;-;-;-;-;-;-;-;-;-;-;-;-;-;-;-
1513510824469;-;-;9.262466;-0.08241272;0.29756165;-;-;-;-;-;-;-;-;-;-;-;-;-;-;-
1513510824489;-;-;9.287598;-0.050079346;0.20898438;-;-;-;-;-;-;-;-;-;-;-;-;-;-;-
1513510824510;-;-;9.21936;-0.00819397;0.26882935;-;-;-;-;-;-;-;-;-;-;-;-;-;-;-
1513510824530;-;-;9.263657;0.016952515;0.35742188;-;-;-;-;-;-;-;-;-;-;-;-;-;-;-
1513510824551;-;-;9.249298;-0.0728302;0.3610077;-;-;-;-;-;-;-;-;-;-;-;-;-;-;-
1513510824572;-;-;9.222961;-0.12310791;0.38015747;-;-;-;-;-;-;-;-;-;-;-;-;-;-;-
1513510824592;-;-;9.23613;-0.107543945;0.3310852;-;-;-;-;-;-;-;-;-;-;-;-;-;-;-
1513510824612;-;-;9.291183;-0.009384155;0.28559875;-;-;-;-;-;-;-;-;-;-;-;-;-;-;-
1513510824633;-;-;9.279221;0.036102295;0.3095398;-;-;-;-;-;-;-;-;-;-;-;-;-;-;-
1513510824653;-;-;9.21936;0.083984375;0.3215027;-;-;-;-;-;-;-;-;-;-;-;-;-;-;-
1513510824673;-;-;9.311539;0.10673523;0.3430481;-;-;-;-;-;-;-;-;-;-;-;-;-;-;-
1513510824694;-;-;9.293579;0.09475708;0.36460876;-;-;-;-;-;-;-;-;-;-;-;-;-;-;-
1513510824714;-;-;9.307953;0.1330719;0.45558167;-;-;-;-;-;-;-;-;-;-;-;-;-;-;-
1513510824734;-;-;9.212173;0.18214417;0.5046692;-;-;-;-;-;-;-;-;-;-;-;-;-;-;-
1513510824755;-;-;9.146347;0.15820313;0.5405731;-;-;-;-;-;-;-;-;-;-;-;-;-;-;-
1513510824775;-;-;9.141556;0.100753784;0.6351471;-;-;-;-;-;-;-;-;-;-;-;-;-;-;-
1513510824796;-;-;9.125992;0.050476074;0.60762024;-;-;-;-;-;-;-;-;-;-;-;-;-;-;-
1513510824816;-;-;9.194229;0.03730774;0.6542969;-;-;-;-;-;-;-;-;-;-;-;-;-;-;-
1513510824836;-;-;9.209793;0.08518982;0.6100006;-;-;-;-;-;-;-;-;-;-;-;-;-;-;-
1513510824857;-;-;9.233734;0.09236145;0.50227356;-;-;-;-;-;-;-;-;-;-;-;-;-;-;-
1513510824878;-;-;9.210983;0.081588745;0.50227356;-;-;-;-;-;-;-;-;-;-;-;-;-;-;-
1513510824898;-;-;9.213379;0.038497925;0.50704956;-;-;-;-;-;-;-;-;-;-;-;-;-;-;-
1513510824918;-;-;9.262466;0.05406189;0.587265;-;-;-;-;-;-;-;-;-;-;-;-;-;-;-
1513510824939;-;-;9.228943;0.045684814;0.60043335;-;-;-;-;-;-;-;-;-;-;-;-;-;-;-
1513510824958;-;-;9.227737;1.9836426E-4;0.57888794;-;-;-;-;-;-;-;-;-;-;-;-;-;-;-
1513510824979;-;-;9.250488;-0.02255249;0.50704956;-;-;-;-;-;-;-;-;-;-;-;-;-;-;-
1513510824998;-;-;9.23851;-0.07043457;0.45916748;-;-;-;-;-;-;-;-;-;-;-;-;-;-;-
1513510825018;-;-;9.173874;-0.124313354;0.4184723;-;-;-;-;-;-;-;-;-;-;-;-;-;-;-
1513510825039;-;-;9.154724;-0.24281311;0.46875;-;-;-;-;-;-;-;-;-;-;-;-;-;-;-
1513510825060;-;-;9.172684;-0.34217834;0.5920563;-;-;-;-;-;-;-;-;-;-;-;-;-;-;-
1513510825080;-;-;9.230133;-0.3541565;0.5980377;-;-;-;-;-;-;-;-;-;-;-;-;-;-;-
1513510825100;-;-;9.327103;-0.36013794;0.4974823;-;-;-;-;-;-;-;-;-;-;-;-;-;-;-
1513510825121;-;-;9.397736;-0.38287354;0.43164063;-;-;-;-;-;-;-;-;-;-;-;-;-;-;-
1513510825141;-;-;9.345062;-0.41281128;0.51304626;-;-;-;-;-;-;-;-;-;-;-;-;-;-;-
1513510825162;-;-;9.182251;-0.4379425;0.6602783;-;-;-;-;-;-;-;-;-;-;-;-;-;-;-
1513510825182;-;-;9.203796;-0.3577423;0.681839;-;-;-;-;-;-;-;-;-;-;-;-;-;-;-
1513510825203;-;-;9.15831;-0.30387878;0.69859314;-;-;-;-;-;-;-;-;-;-;-;-;-;-;-
1513510825223;-;-;9.23851;-0.25479126;0.6842346;-;-;-;-;-;-;-;-;-;-;-;-;-;-;-
1513510825243;-;-;9.21936;-0.19732666;0.7069702;-;-;-;-;-;-;-;-;-;-;-;-;-;-;-
1513510825263;-;-;9.207397;-0.05607605;0.77401733;-;-;-;-;-;-;-;-;-;-;-;-;-;-;-
1513510825284;-;-;9.278015;0.076812744;0.74768066;-;-;-;-;-;-;-;-;-;-;-;-;-;-;-
1513510825305;-;-;9.325912;0.23721313;0.5776825;-;-;-;-;-;-;-;-;-;-;-;-;-;-;-
1513510825326;-;-;9.348648;0.23362732;0.43164063;-;-;-;-;-;-;-;-;-;-;-;-;-;-;-
1513510825346;-;-;9.313934;0.2515869;0.29756165;-;-;-;-;-;-;-;-;-;-;-;-;-;-;-
1513510825368;-;-;9.212173;0.19412231;0.1874237;-;-;-;-;-;-;-;-;-;-;-;-;-;-;-
1513510825389;-;-;9.104446;0.06842041;0.18383789;-;-;-;-;-;-;-;-;-;-;-;-;-;-;-
1513510825408;-;-;9.103241;-0.02973938;0.065322876;-;-;-;-;-;-;-;-;-;-;-;-;-;-;-
1513510825428;-;-;9.215775;-0.11114502;-0.04600525;-;-;-;-;-;-;-;-;-;-;-;-;-;-;-
1513510825448;-;-;9.286407;-0.20451355;-0.18247986;-;-;-;-;-;-;-;-;-;-;-;-;-;-;-
1513510825469;-;-;9.246902;-0.25958252;-0.22557068;-;-;-;-;-;-;-;-;-;-;-;-;-;-;-
1513510825488;-;-;9.288788;-0.3254242;-0.18486023;-;-;-;-;-;-;-;-;-;-;-;-;-;-;-
1513510825509;-;-;9.383362;-0.32421875;-0.20281982;-;-;-;-;-;-;-;-;-;-;-;-;-;-;-
1513510825529;-;-;9.324707;-0.26675415;-0.29380798;-;-;-;-;-;-;-;-;-;-;-;-;-;-;-
1513510825549;-;-;9.309143;-0.21528625;-0.3764038;-;-;-;-;-;-;-;-;-;-;-;-;-;-;-
1513510825570;-;-;9.366608;-0.19374084;-0.43626404;-;-;-;-;-;-;-;-;-;-;-;-;-;-;-
1513510825590;-;-;9.379776;-0.12071228;-0.5056915;-;-;-;-;-;-;-;-;-;-;-;-;-;-;-
1513510825611;-;-;9.300766;-0.08958435;-0.44943237;-;-;-;-;-;-;-;-;-;-;-;-;-;-;-
1513510825631;-;-;9.013458;-0.045303345;-0.21598816;-;-;-;-;-;-;-;-;-;-;-;-;-;-;-
1513510825651;-;-;9.014664;-0.07522583;0.055755615;-;-;-;-;-;-;-;-;-;-;-;-;-;-;-
1513510825672;-;-;9.108032;-0.25239563;0.24009705;-;-;-;-;-;-;-;-;-;-;-;-;-;-;-
1513510825692;-;-;9.257675;-0.36132813;0.26045227;-;-;-;-;-;-;-;-;-;-;-;-;-;-;-
1513510825712;-;-;9.431244;-0.4834442;0.14074707;-;-;-;-;-;-;-;-;-;-;-;-;-;-;-
1513510825733;-;-;9.552155;-0.47146606;0.03540039;-;-;-;-;-;-;-;-;-;-;-;-;-;-;-
1513510825753;-;-;9.658707;-0.4738617;-0.006500244;-;-;-;-;-;-;-;-;-;-;-;-;-;-;-
1513510825774;-;-;9.498291;-0.41041565;-0.06515503;-;-;-;-;-;-;-;-;-;-;-;-;-;-;-
1513510825794;-;-;9.227737;-0.2272644;-0.020858765;-;-;-;-;-;-;-;-;-;-;-;-;-;-;-
1513510825815;-;-;9.2708435;-0.03930664;0.0054779053;-;-;-;-;-;-;-;-;-;-;-;-;-;-;-
1513510825835;-;-;9.194229;0.08518982;-0.11903381;-;-;-;-;-;-;-;-;-;-;-;-;-;-;-
1513510825856;-;-;9.215775;0.05645752;-0.17170715;-;-;-;-;-;-;-;-;-;-;-;-;-;-;-
1513510825876;-;-;9.215775;0.0049743652;-0.22676086;-;-;-;-;-;-;-;-;-;-;-;-;-;-;-
1513510825897;-;-;9.273239;-0.0045928955;-0.17408752;-;-;-;-;-;-;-;-;-;-;-;-;-;-;-
1513510825918;-;-;9.304352;0.09236145;-0.2399292;-;-;-;-;-;-;-;-;-;-;-;-;-;-;-
1513510825938;-;-;9.21817;0.11631775;-0.30577087;-;-;-;-;-;-;-;-;-;-;-;-;-;-;-
1513510825958;-;-;9.15712;0.11631775;-0.23036194;-;-;-;-;-;-;-;-;-;-;-;-;-;-;-
1513510825979;-;-;9.145142;0.043289185;-0.10824585;-;-;-;-;-;-;-;-;-;-;-;-;-;-;-
1513510825999;-;-;9.182251;-0.021362305;-0.037628174;-;-;-;-;-;-;-;-;-;-;-;-;-;-;-
1513510826020;-;-;9.197815;-0.05368042;-0.07473755;-;-;-;-;-;-;-;-;-;-;-;-;-;-;-
1513510826039;-;-;9.23613;-0.0440979;-0.20281982;-;-;-;-;-;-;-;-;-;-;-;-;-;-;-
1513510826060;-;-;9.348648;-0.06803894;-0.2866211;-;-;-;-;-;-;-;-;-;-;-;-;-;-;-
1513510826080;-;-;9.363022;-0.093185425;-0.36442566;-;-;-;-;-;-;-;-;-;-;-;-;-;-;-
1513510826101;-;-;9.3151245;-0.081207275;-0.2962036;-;-;-;-;-;-;-;-;-;-;-;-;-;-;-
1513510826121;-;-;9.276825;-0.09916687;-0.22077942;-;-;-;-;-;-;-;-;-;-;-;-;-;-;-
1513510826142;-;-;9.215775;-0.12310791;-0.12620544;-;-;-;-;-;-;-;-;-;-;-;-;-;-;-
1513510826162;-;-;9.214569;-0.18536377;-0.09388733;-;-;-;-;-;-;-;-;-;-;-;-;-;-;-
1513510826183;-;-;9.286407;-0.2212677;-0.085510254;-;-;-;-;-;-;-;-;-;-;-;-;-;-;-
1513510826203;-;-;9.337875;-0.24760437;-0.06636047;-;-;-;-;-;-;-;-;-;-;-;-;-;-;-
1513510826224;-;-;9.305557;-0.22845459;-0.0687561;-;-;-;-;-;-;-;-;-;-;-;-;-;-;-
1513510826244;-;-;9.279221;-0.20451355;-0.032836914;-;-;-;-;-;-;-;-;-;-;-;-;-;-;-
1513510826265;-;-;9.225342;-0.23564148;-0.0076904297;-;-;-;-;-;-;-;-;-;-;-;-;-;-;-
1513510826285;-;-;9.266052;-0.20930481;0.041381836;-;-;-;-;-;-;-;-;-;-;-;-;-;-;-
1513510826305;-;-;9.243301;-0.1530304;0.012649536;-;-;-;-;-;-;-;-;-;-;-;-;-;-;-
1513510826326;-;-;9.234924;-0.14465332;-0.0053100586;-;-;-;-;-;-;-;-;-;-;-;-;-;-;-
1513510826346;-;-;9.242111;-0.11592102;0.03779602;-;-;-;-;-;-;-;-;-;-;-;-;-;-;-
1513510826367;-;-;9.284012;-0.11352539;0.03300476;-;-;-;-;-;-;-;-;-;-;-;-;-;-;-
1513510826387;-;-;9.274429;-0.109939575;0.009063721;-;-;-;-;-;-;-;-;-;-;-;-;-;-;-
1513510826408;-;-;9.2708435;-0.09677124;0.025817871;-;-;-;-;-;-;-;-;-;-;-;-;-;-;-
1513510826428;-;-;9.357025;-0.088394165;-0.07952881;-;-;-;-;-;-;-;-;-;-;-;-;-;-;-
1513510826449;-;-;9.262466;-0.042907715;-0.13578796;-;-;-;-;-;-;-;-;-;-;-;-;-;-;-
1513510826469;-;-;9.276825;0.0013885498;-0.06994629;-;-;-;-;-;-;-;-;-;-;-;-;-;-;-
1513510826490;-;-;9.252884;-0.04888916;-0.073532104;-;-;-;-;-;-;-;-;-;-;-;-;-;-;-
1513510826510;-;-;9.291183;-0.08720398;0.007858276;-;-;-;-;-;-;-;-;-;-;-;-;-;-;-
1513510826531;-;-;9.210983;-0.076416016;0.009063721;-;-;-;-;-;-;-;-;-;-;-;-;-;-;-
1513510826551;-;-;9.230133;-0.062057495;-0.054382324;-;-;-;-;-;-;-;-;-;-;-;-;-;-;-
1513510826572;-;-;9.225342;-0.08241272;-0.09030151;-;-;-;-;-;-;-;-;-;-;-;-;-;-;-
1513510826592;-;-;9.287598;-0.07762146;-0.05319214;-;-;-;-;-;-;-;-;-;-;-;-;-;-;-
1513510826612;-;-;9.282806;-0.105148315;-0.06636047;-;-;-;-;-;-;-;-;-;-;-;-;-;-;-
1513510826633;-;-;9.304352;-0.09197998;-0.006500244;-;-;-;-;-;-;-;-;-;-;-;-;-;-;-
1513510826653;-;-;9.327103;-0.093185425;-0.0017089844;-;-;-;-;-;-;-;-;-;-;-;-;-;-;-
1513510826674;-;-;9.39534;-0.107543945;-0.0053100586;-;-;-;-;-;-;-;-;-;-;-;-;-;-;-
1513510826694;-;-;9.420471;-0.12310791;0.07130432;-;-;-;-;-;-;-;-;-;-;-;-;-;-;-
1513510826715;-;-;9.299576;-0.14346313;-0.071136475;-;-;-;-;-;-;-;-;-;-;-;-;-;-;-
1513510826735;-;-;9.299576;-0.1877594;-0.03881836;-;-;-;-;-;-;-;-;-;-;-;-;-;-;-
1513510826755;-;-;9.261261;-0.20451355;0.053359985;-;-;-;-;-;-;-;-;-;-;-;-;-;-;-
1513510826776;-;-;9.286407;-0.16859436;0.3095398;-;-;-;-;-;-;-;-;-;-;-;-;-;-;-
1513510826796;-;-;9.418076;-0.19493103;0.5046692;-;-;-;-;-;-;-;-;-;-;-;-;-;-;-
1513510826817;-;-;9.432449;-0.1302948;0.3933258;-;-;-;-;-;-;-;-;-;-;-;-;-;-;-
1513510826837;-;-;9.069733;-0.109939575;0.038986206;-;-;-;-;-;-;-;-;-;-;-;-;-;-;-
1513510826857;-;-;9.026627;-0.124313354;-0.1489563;-;-;-;-;-;-;-;-;-;-;-;-;-;-;-
1513510826878;-;-;9.233734;-0.16619873;0.07369995;-;-;-;-;-;-;-;-;-;-;-;-;-;-;-
1513510826898;-;-;9.234924;-0.13986206;0.3215027;-;-;-;-;-;-;-;-;-;-;-;-;-;-;-
1513510826918;-;-;9.14035;-0.10395813;0.45439148;-;-;-;-;-;-;-;-;-;-;-;-;-;-;-
1513510826939;-;-;9.110428;-0.05607605;0.51423645;-;-;-;-;-;-;-;-;-;-;-;-;-;-;-
1513510826960;-;-;9.220566;-0.06803894;0.5453644;-;-;-;-;-;-;-;-;-;-;-;-;-;-;-
1513510826980;-;-;9.312744;-0.07043457;0.4005127;-;-;-;-;-;-;-;-;-;-;-;-;-;-;-
1513510827000;-;-;9.3151245;-0.15782166;0.3131256;-;-;-;-;-;-;-;-;-;-;-;-;-;-;-
1513510827021;-;-;9.251678;-0.18536377;0.2843933;-;-;-;-;-;-;-;-;-;-;-;-;-;-;-
1513510827041;-;-;9.266052;-0.23443604;0.36938477;-;-;-;-;-;-;-;-;-;-;-;-;-;-;-
1513510827062;-;-;9.357025;-0.24641418;0.4400177;-;-;-;-;-;-;-;-;-;-;-;-;-;-;-
1513510827081;-;-;9.188232;-0.19013977;0.4507904;-;-;-;-;-;-;-;-;-;-;-;-;-;-;-
1513510827102;-;-;9.143951;-0.17459106;0.5298004;-;-;-;-;-;-;-;-;-;-;-;-;-;-;-
1513510827122;-;-;9.134369;-0.18415833;0.5800781;-;-;-;-;-;-;-;-;-;-;-;-;-;-;-
1513510827143;-;-;9.206192;-0.22486877;0.53938293;-;-;-;-;-;-;-;-;-;-;-;-;-;-;-
1513510827163;-;-;9.248093;-0.19013977;0.5453644;-;-;-;-;-;-;-;-;-;-;-;-;-;-;-
1513510827183;-;-;9.224152;-0.19613647;0.5489502;-;-;-;-;-;-;-;-;-;-;-;-;-;-;-
1513510827204;-;-;9.173874;-0.22366333;0.5405731;-;-;-;-;-;-;-;-;-;-;-;-;-;-;-
1513510827225;-;-;9.181061;-0.22486877;0.50227356;-;-;-;-;-;-;-;-;-;-;-;-;-;-;-
1513510827246;-;-;9.21936;-0.22845459;0.51065063;-;-;-;-;-;-;-;-;-;-;-;-;-;-;-
1513510827266;-;-;9.251678;-0.20451355;0.563324;-;-;-;-;-;-;-;-;-;-;-;-;-;-;-
1513510827287;-;-;9.21936;-0.13986206;0.6136017;-;-;-;-;-;-;-;-;-;-;-;-;-;-;-
1513510827307;-;-;9.25528;-0.12669373;0.61120605;-;-;-;-;-;-;-;-;-;-;-;-;-;-;-
1513510827328;-;-;9.31752;-0.13986206;0.58366394;-;-;-;-;-;-;-;-;-;-;-;-;-;-;-
1513510827349;-;-;9.443222;-0.16261292;0.5298004;-;-;-;-;-;-;-;-;-;-;-;-;-;-;-
1513510827369;-;-;9.249298;-0.12789917;0.5657196;-;-;-;-;-;-;-;-;-;-;-;-;-;-;-
1513510827390;-;-;9.082901;-0.119522095;0.602829;-;-;-;-;-;-;-;-;-;-;-;-;-;-;-
1513510827410;-;-;9.199005;-0.1302948;0.62677;-;-;-;-;-;-;-;-;-;-;-;-;-;-;-
1513510827431;-;-;9.328293;-0.23803711;0.6375427;-;-;-;-;-;-;-;-;-;-;-;-;-;-;-
1513510827451;-;-;9.342667;-0.24760437;0.6315613;-;-;-;-;-;-;-;-;-;-;-;-;-;-;-
1513510827472;-;-;9.246902;-0.22486877;0.61958313;-;-;-;-;-;-;-;-;-;-;-;-;-;-;-
1513510827492;-;-;9.194229;-0.16500854;0.5992279;-;-;-;-;-;-;-;-;-;-;-;-;-;-;-
1513510827512;-;-;9.141556;-0.12310791;0.55374146;-;-;-;-;-;-;-;-;-;-;-;-;-;-;-
1513510827533;-;-;9.206192;-0.14585876;0.5118408;-;-;-;-;-;-;-;-;-;-;-;-;-;-;-
1513510827552;-;-;9.268448;-0.20930481;0.43403625;-;-;-;-;-;-;-;-;-;-;-;-;-;-;-
1513510827572;-;-;9.311539;-0.20809937;0.44241333;-;-;-;-;-;-;-;-;-;-;-;-;-;-;-
1513510827593;-;-;9.299576;-0.2392273;0.4220581;-;-;-;-;-;-;-;-;-;-;-;-;-;-;-
1513510827613;-;-;9.329498;-0.20809937;0.429245;-;-;-;-;-;-;-;-;-;-;-;-;-;-;-
1513510827634;-;-;9.293579;-0.2392273;0.37538147;-;-;-;-;-;-;-;-;-;-;-;-;-;-;-
1513510827654;-;-;9.246902;-0.1817627;0.45916748;-;-;-;-;-;-;-;-;-;-;-;-;-;-;-
1513510827675;-;-;9.305557;-0.18057251;0.4388275;-;-;-;-;-;-;-;-;-;-;-;-;-;-;-
1513510827695;-;-;9.274429;-0.20211792;0.36698914;-;-;-;-;-;-;-;-;-;-;-;-;-;-;-
1513510827716;-;-;9.250488;-0.21289063;0.40649414;-;-;-;-;-;-;-;-;-;-;-;-;-;-;-
1513510827736;-;-;9.267242;-0.18415833;0.48431396;-;-;-;-;-;-;-;-;-;-;-;-;-;-;-
1513510827757;-;-;9.245697;-0.16142273;0.5657196;-;-;-;-;-;-;-;-;-;-;-;-;-;-;-
1513510827777;-;-;9.197815;-0.124313354;0.5980377;-;-;-;-;-;-;-;-;-;-;-;-;-;-;-
1513510827798;-;-;9.161896;-0.14704895;0.5286102;-;-;-;-;-;-;-;-;-;-;-;-;-;-;-
1513510827817;-;-;9.21817;-0.13269043;0.5381775;-;-;-;-;-;-;-;-;-;-;-;-;-;-;-
1513510827838;-;-;9.23613;-0.1410675;0.5298004;-;-;-;-;-;-;-;-;-;-;-;-;-;-;-
1513510827858;-;-;9.29718;-0.114730835;0.53100586;-;-;-;-;-;-;-;-;-;-;-;-;-;-;-
1513510827878;-;-;9.266052;-0.097976685;0.5202179;-;-;-;-;-;-;-;-;-;-;-;-;-;-;-
1513510827899;-;-;9.280411;-0.13388062;0.43403625;-;-;-;-;-;-;-;-;-;-;-;-;-;-;-
1513510827919;-;-;9.285202;-0.08958435;0.45558167;-;-;-;-;-;-;-;-;-;-;-;-;-;-;-
1513510827940;-;-;9.25528;-0.124313354;0.3789673;-;-;-;-;-;-;-;-;-;-;-;-;-;-;-
1513510827960;-;-;9.210983;-0.13627625;0.37538147;-;-;-;-;-;-;-;-;-;-;-;-;-;-;-
1513510827981;-;-;9.221756;-0.20809937;0.3885498;-;-;-;-;-;-;-;-;-;-;-;-;-;-;-
1513510828001;-;-;9.257675;-0.19013977;0.41488647;-;-;-;-;-;-;-;-;-;-;-;-;-;-;-
1513510828022;-;-;9.284012;-0.14225769;0.38375854;-;-;-;-;-;-;-;-;-;-;-;-;-;-;-
1513510828043;-;-;9.263657;-0.22007751;0.41249084;-;-;-;-;-;-;-;-;-;-;-;-;-;-;-
1513510828063;-;-;9.260071;-0.1877594;0.44241333;-;-;-;-;-;-;-;-;-;-;-;-;-;-;-
1513510828083;-;-;9.242111;-0.18296814;0.47114563;-;-;-;-;-;-;-;-;-;-;-;-;-;-;-
1513510828103;-;-;9.249298;-0.17338562;0.48431396;-;-;-;-;-;-;-;-;-;-;-;-;-;-;-
1513510828124;-;-;9.273239;-0.16859436;0.52500916;-;-;-;-;-;-;-;-;-;-;-;-;-;-;-
1513510828144;-;-;9.268448;-0.14585876;0.5046692;-;-;-;-;-;-;-;-;-;-;-;-;-;-;-
1513510828165;-;-;9.272034;-0.18296814;0.4699402;-;-;-;-;-;-;-;-;-;-;-;-;-;-;-
1513510828185;-;-;9.257675;-0.19374084;0.4867096;-;-;-;-;-;-;-;-;-;-;-;-;-;-;-
1513510828205;-;-;9.221756;-0.16859436;0.46516418;-;-;-;-;-;-;-;-;-;-;-;-;-;-;-
1513510828227;-;-;9.269638;-0.12669373;0.4400177;-;-;-;-;-;-;-;-;-;-;-;-;-;-;-
1513510828246;-;-;9.294785;-0.121917725;0.46276855;-;-;-;-;-;-;-;-;-;-;-;-;-;-;-
1513510828267;-;-;9.21817;-0.13986206;0.4400177;-;-;-;-;-;-;-;-;-;-;-;-;-;-;-
1513510828288;-;-;9.294785;-0.09677124;0.4507904;-;-;-;-;-;-;-;-;-;-;-;-;-;-;-
1513510828309;-;-;9.340271;-0.114730835;0.33587646;-;-;-;-;-;-;-;-;-;-;-;-;-;-;-
1513510828329;-;-;9.239716;-0.16740417;0.3143158;-;-;-;-;-;-;-;-;-;-;-;-;-;-;-
1513510828349;-;-;9.285202;-0.13148499;0.43762207;-;-;-;-;-;-;-;-;-;-;-;-;-;-;-
1513510828370;-;-;9.258865;-0.17459106;0.49388123;-;-;-;-;-;-;-;-;-;-;-;-;-;-;-
1513510828389;-;-;9.222961;-0.12550354;0.51065063;-;-;-;-;-;-;-;-;-;-;-;-;-;-;-
1513510828410;-;-;9.182251;-0.085998535;0.49388123;-;-;-;-;-;-;-;-;-;-;-;-;-;-;-
1513510828429;-;-;9.197815;-0.14944458;0.4759369;-;-;-;-;-;-;-;-;-;-;-;-;-;-;-
1513510828449;-;-;9.200211;-0.121917725;0.49508667;-;-;-;-;-;-;-;-;-;-;-;-;-;-;-
1513510828470;-;-;9.292389;-0.18057251;0.4005127;-;-;-;-;-;-;-;-;-;-;-;-;-;-;-
1513510828491;-;-;9.303162;-0.16261292;0.52142334;-;-;-;-;-;-;-;-;-;-;-;-;-;-;-
1513510828511;-;-;9.313934;-0.20570374;0.48910522;-;-;-;-;-;-;-;-;-;-;-;-;-;-;-
1513510828530;-;-;9.285202;-0.13388062;0.5381775;-;-;-;-;-;-;-;-;-;-;-;-;-;-;-
1513510828551;-;-;9.233734;-0.15184021;0.52142334;-;-;-;-;-;-;-;-;-;-;-;-;-;-;-
1513510828571;-;-;9.208588;-0.1697998;0.49987793;-;-;-;-;-;-;-;-;-;-;-;-;-;-;-
1513510828591;-;-;9.262466;-0.1925354;0.49388123;-;-;-;-;-;-;-;-;-;-;-;-;-;-;-
1513510828611;-;-;9.248093;-0.19374084;0.51065063;-;-;-;-;-;-;-;-;-;-;-;-;-;-;-
1513510828632;-;-;9.261261;-0.21528625;0.49987793;-;-;-;-;-;-;-;-;-;-;-;-;-;-;-
1513510828653;-;-;9.234924;-0.14225769;0.4807129;-;-;-;-;-;-;-;-;-;-;-;-;-;-;-
1513510828672;-;-;9.261261;-0.13508606;0.49987793;-;-;-;-;-;-;-;-;-;-;-;-;-;-;-
1513510828693;-;-;9.233734;-0.12550354;0.5046692;-;-;-;-;-;-;-;-;-;-;-;-;-;-;-
1513510828713;-;-;9.239716;-0.102752686;0.50704956;-;-;-;-;-;-;-;-;-;-;-;-;-;-;-
1513510828733;-;-;9.266052;-0.13269043;0.5118408;-;-;-;-;-;-;-;-;-;-;-;-;-;-;-
1513510828754;-;-;9.264847;-0.13508606;0.45916748;-;-;-;-;-;-;-;-;-;-;-;-;-;-;-
1513510828775;-;-;9.254074;-0.1530304;0.43403625;-;-;-;-;-;-;-;-;-;-;-;-;-;-;-
1513510828794;-;-;9.269638;-0.1817627;0.46516418;-;-;-;-;-;-;-;-;-;-;-;-;-;-;-
1513510828815;-;-;9.225342;-0.12669373;0.44122314;-;-;-;-;-;-;-;-;-;-;-;-;-;-;-
1513510828834;-;-;9.212173;-0.15542603;0.52500916;-;-;-;-;-;-;-;-;-;-;-;-;-;-;-
1513510828854;-;-;9.263657;-0.117126465;0.4507904;-;-;-;-;-;-;-;-;-;-;-;-;-;-;-
1513510828875;-;-;9.244507;-0.17459106;0.44122314;-;-;-;-;-;-;-;-;-;-;-;-;-;-;-
1513510828895;-;-;9.212173;-0.14704895;0.4974823;-;-;-;-;-;-;-;-;-;-;-;-;-;-;-
1513510828915;-;-;9.351044;-0.1590271;0.48191833;-;-;-;-;-;-;-;-;-;-;-;-;-;-;-
1513510828936;-;-;9.2756195;-0.14704895;0.38974;-;-;-;-;-;-;-;-;-;-;-;-;-;-;-
1513510828956;-;-;9.230133;-0.17578125;0.42445374;-;-;-;-;-;-;-;-;-;-;-;-;-;-;-
1513510828977;-;-;9.301956;-0.15663147;0.5226135;-;-;-;-;-;-;-;-;-;-;-;-;-;-;-
1513510828998;-;-;9.262466;-0.17338562;0.58366394;-;-;-;-;-;-;-;-;-;-;-;-;-;-;-
1513510829018;-;-;9.194229;-0.15542603;0.5381775;-;-;-;-;-;-;-;-;-;-;-;-;-;-;-
1513510829039;-;-;9.193024;-0.1482544;0.4807129;-;-;-;-;-;-;-;-;-;-;-;-;-;-;-
1513510829059;-;-;9.17746;-0.1410675;0.48789978;-;-;-;-;-;-;-;-;-;-;-;-;-;-;-
1513510829079;-;-;9.242111;-0.17578125;0.47354126;-;-;-;-;-;-;-;-;-;-;-;-;-;-;-
1513510829100;-;-;9.293579;-0.1769867;0.429245;-;-;-;-;-;-;-;-;-;-;-;-;-;-;-
1513510829120;-;-;9.31633;-0.1697998;0.4472046;-;-;-;-;-;-;-;-;-;-;-;-;-;-;-
1513510829141;-;-;9.3151245;-0.16021729;0.5118408;-;-;-;-;-;-;-;-;-;-;-;-;-;-;-
1513510829161;-;-;9.258865;-0.114730835;0.49508667;-;-;-;-;-;-;-;-;-;-;-;-;-;-;-
1513510829182;-;-;9.188232;-0.14585876;0.48550415;-;-;-;-;-;-;-;-;-;-;-;-;-;-;-
1513510829202;-;-;9.243301;-0.15184021;0.50346375;-;-;-;-;-;-;-;-;-;-;-;-;-;-;-
1513510829223;-;-;9.226547;-0.17219543;0.50704956;-;-;-;-;-;-;-;-;-;-;-;-;-;-;-
1513510829243;-;-;9.280411;-0.17338562;0.4902954;-;-;-;-;-;-;-;-;-;-;-;-;-;-;-
1513510829264;-;-;9.278015;-0.17578125;0.48310852;-;-;-;-;-;-;-;-;-;-;-;-;-;-;-
1513510829283;-;-;9.248093;-0.1530304;0.5154419;-;-;-;-;-;-;-;-;-;-;-;-;-;-;-
1513510829304;-;-;9.226547;-0.18415833;0.5573273;-;-;-;-;-;-;-;-;-;-;-;-;-;-;-
1513510829324;-;-;9.240906;-0.16261292;0.5010681;-;-;-;-;-;-;-;-;-;-;-;-;-;-;-
1513510829344;-;-;9.21817;-0.14585876;0.55015564;-;-;-;-;-;-;-;-;-;-;-;-;-;-;-
1513510829365;-;-;9.262466;-0.17338562;0.52381897;-;-;-;-;-;-;-;-;-;-;-;-;-;-;-
1513510829385;-;-;9.269638;-0.17098999;0.49627686;-;-;-;-;-;-;-;-;-;-;-;-;-;-;-
1513510829406;-;-;9.246902;-0.16740417;0.47114563;-;-;-;-;-;-;-;-;-;-;-;-;-;-;-
1513510829426;-;-;9.230133;-0.17338562;0.47712708;-;-;-;-;-;-;-;-;-;-;-;-;-;-;-
1513510829447;-;-;9.23613;-0.15065002;0.48431396;-;-;-;-;-;-;-;-;-;-;-;-;-;-;-
1513510829466;-;-;9.2313385;-0.14225769;0.4328308;-;-;-;-;-;-;-;-;-;-;-;-;-;-;-
1513510829487;-;-;9.250488;-0.12789917;0.48789978;-;-;-;-;-;-;-;-;-;-;-;-;-;-;-
1513510829507;-;-;9.268448;-0.15542603;0.5058594;-;-;-;-;-;-;-;-;-;-;-;-;-;-;-
1513510829526;-;-;9.325912;-0.17219543;0.46754456;-;-;-;-;-;-;-;-;-;-;-;-;-;-;-
1513510829547;-;-;9.196625;-0.15184021;0.48910522;-;-;-;-;-;-;-;-;-;-;-;-;-;-;-
1513510829567;-;-;9.257675;-0.13508606;0.53578186;-;-;-;-;-;-;-;-;-;-;-;-;-;-;-
1513510829587;-;-;9.33429;-0.13269043;0.43043518;-;-;-;-;-;-;-;-;-;-;-;-;-;-;-
1513510829608;-;-;9.175064;-0.13148499;0.36698914;-;-;-;-;-;-;-;-;-;-;-;-;-;-;-
1513510829628;-;-;9.29837;-0.2033081;0.52142334;-;-;-;-;-;-;-;-;-;-;-;-;-;-;-
1513510829648;-;-;9.300766;-0.17219543;0.56092834;-;-;-;-;-;-;-;-;-;-;-;-;-;-;-
1513510829669;-;-;9.201401;-0.15065002;0.57888794;-;-;-;-;-;-;-;-;-;-;-;-;-;-;-
1513510829690;-;-;9.1918335;-0.102752686;0.5262146;-;-;-;-;-;-;-;-;-;-;-;-;-;-;-
1513510829711;-;-;9.216965;-0.1410675;0.49388123;-;-;-;-;-;-;-;-;-;-;-;-;-;-;-
1513510829731;-;-;9.189438;-0.1302948;0.5274048;-;-;-;-;-;-;-;-;-;-;-;-;-;-;-
1513510829751;-;-;9.291183;-0.17578125;0.48310852;-;-;-;-;-;-;-;-;-;-;-;-;-;-;-
1513510829772;-;-;9.328293;-0.19134521;0.46516418;-;-;-;-;-;-;-;-;-;-;-;-;-;-;-
1513510829793;-;-;9.3103485;-0.14225769;0.4974823;-;-;-;-;-;-;-;-;-;-;-;-;-;-;-
1513510829813;-;-;9.25528;-0.14585876;0.52381897;-;-;-;-;-;-;-;-;-;-;-;-;-;-;-
1513510829833;-;-;9.196625;-0.13627625;0.49987793;-;-;-;-;-;-;-;-;-;-;-;-;-;-;-
1513510829854;-;-;9.210983;-0.16381836;0.48310852;-;-;-;-;-;-;-;-;-;-;-;-;-;-;-
1513510829873;-;-;9.248093;-0.1590271;0.50227356;-;-;-;-;-;-;-;-;-;-;-;-;-;-;-
1513510829894;-;-;9.242111;-0.17817688;0.4795227;-;-;-;-;-;-;-;-;-;-;-;-;-;-;-
1513510829913;-;-;9.276825;-0.17098999;0.4974823;-;-;-;-;-;-;-;-;-;-;-;-;-;-;-
1513510829934;-;-;9.23732;-0.16619873;0.5441742;-;-;-;-;-;-;-;-;-;-;-;-;-;-;-
1513510829954;-;-;9.228943;-0.16619873;0.5405731;-;-;-;-;-;-;-;-;-;-;-;-;-;-;-
1513510829975;-;-;9.240906;-0.14704895;0.54296875;-;-;-;-;-;-;-;-;-;-;-;-;-;-;-
1513510829994;-;-;9.252884;-0.15423584;0.55255127;-;-;-;-;-;-;-;-;-;-;-;-;-;-;-
1513510830014;-;-;9.2313385;-0.18655396;0.5178375;-;-;-;-;-;-;-;-;-;-;-;-;-;-;-
1513510830036;-;-;9.268448;-0.13148499;0.5453644;-;-;-;-;-;-;-;-;-;-;-;-;-;-;-
1513510830056;-;-;9.239716;-0.16261292;0.48789978;-;-;-;-;-;-;-;-;-;-;-;-;-;-;-
1513510830076;-;-;9.233734;-0.17219543;0.49627686;-;-;-;-;-;-;-;-;-;-;-;-;-;-;-
1513510830097;-;-;9.258865;-0.17459106;0.48789978;-;-;-;-;-;-;-;-;-;-;-;-;-;-;-
1513510830118;-;-;9.232529;-0.13627625;0.44839478;-;-;-;-;-;-;-;-;-;-;-;-;-;-;-
1513510830138;-;-;9.249298;-0.16619873;0.4974823;-;-;-;-;-;-;-;-;-;-;-;-;-;-;-
1513510830159;-;-;9.273239;-0.16859436;0.5190277;-;-;-;-;-;-;-;-;-;-;-;-;-;-;-
1513510830179;-;-;9.263657;-0.13627625;0.54776;-;-;-;-;-;-;-;-;-;-;-;-;-;-;-
1513510830200;-;-;9.273239;-0.17459106;0.4986725;-;-;-;-;-;-;-;-;-;-;-;-;-;-;-
1513510830220;-;-;9.233734;-0.17338562;0.53338623;-;-;-;-;-;-;-;-;-;-;-;-;-;-;-
1513510830240;-;-;9.228943;-0.12669373;0.5453644;-;-;-;-;-;-;-;-;-;-;-;-;-;-;-
1513510830261;-;-;9.346252;-0.1482544;0.49508667;-;-;-;-;-;-;-;-;-;-;-;-;-;-;-
1513510830280;-;-;9.188232;-0.15663147;0.42684937;-;-;-;-;-;-;-;-;-;-;-;-;-;-;-
1513510830301;-;-;9.243301;-0.18536377;0.5657196;-;-;-;-;-;-;-;-;-;-;-;-;-;-;-
1513510830321;-;-;9.300766;-0.17338562;0.61239624;-;-;-;-;-;-;-;-;-;-;-;-;-;-;-
1513510830342;-;-;9.272034;-0.20092773;0.5980377;-;-;-;-;-;-;-;-;-;-;-;-;-;-;-
1513510830362;-;-;9.23732;-0.119522095;0.61120605;-;-;-;-;-;-;-;-;-;-;-;-;-;-;-
1513510830382;-;-;9.213379;-0.093185425;0.6363373;-;-;-;-;-;-;-;-;-;-;-;-;-;-;-
1513510830403;-;-;9.163101;-0.11114502;0.6770477;-;-;-;-;-;-;-;-;-;-;-;-;-;-;-
1513510830423;-;-;9.264847;-0.14944458;0.6531067;-;-;-;-;-;-;-;-;-;-;-;-;-;-;-
1513510830444;-;-;9.305557;-0.17936707;0.60401917;-;-;-;-;-;-;-;-;-;-;-;-;-;-;-
1513510830464;-;-;9.348648;-0.23443604;0.64112854;-;-;-;-;-;-;-;-;-;-;-;-;-;-;-
1513510830484;-;-;9.3498535;-0.23803711;0.8338623;-;-;-;-;-;-;-;-;-;-;-;-;-;-;-
1513510830505;-;-;9.392944;-0.21768188;0.9751282;-;-;-;-;-;-;-;-;-;-;-;-;-;-;-
1513510830525;-;-;9.268448;-0.1590271;0.85780334;-;-;-;-;-;-;-;-;-;-;-;-;-;-;-
1513510830546;-;-;9.202606;-0.16021729;0.45318604;-;-;-;-;-;-;-;-;-;-;-;-;-;-;-
1513510830566;-;-;9.127182;-0.31584167;0.22215271;-;-;-;-;-;-;-;-;-;-;-;-;-;-;-
1513510830588;-;-;9.336685;-0.50138855;0.216156;-;-;-;-;-;-;-;-;-;-;-;-;-;-;-
1513510830607;-;-;9.577301;-0.49899292;0.19342041;-;-;-;-;-;-;-;-;-;-;-;-;-;-;-
1513510830628;-;-;9.386963;-0.27514648;0.31671143;-;-;-;-;-;-;-;-;-;-;-;-;-;-;-
1513510830648;-;-;9.064941;-0.014175415;0.6363373;-;-;-;-;-;-;-;-;-;-;-;-;-;-;-
1513510830668;-;-;8.819534;0.026535034;0.9930725;-;-;-;-;-;-;-;-;-;-;-;-;-;-;-
1513510830689;-;-;8.8051605;0.0756073;1.3450317;-;-;-;-;-;-;-;-;-;-;-;-;-;-;-
1513510830709;-;-;9.037399;0.074417114;1.4850922;-;-;-;-;-;-;-;-;-;-;-;-;-;-;-
1513510830730;-;-;9.172684;-0.023742676;1.1750336;-;-;-;-;-;-;-;-;-;-;-;-;-;-;-
1513510830750;-;-;9.288788;-0.088394165;1.0242004;-;-;-;-;-;-;-;-;-;-;-;-;-;-;-
1513510830770;-;-;9.263657;-0.078811646;0.97273254;-;-;-;-;-;-;-;-;-;-;-;-;-;-;-
1513510830791;-;-;9.200211;-0.093185425;1.0649109;-;-;-;-;-;-;-;-;-;-;-;-;-;-;-
1513510830811;-;-;9.036209;-0.09197998;1.1822205;-;-;-;-;-;-;-;-;-;-;-;-;-;-;-
1513510830832;-;-;8.847061;-0.097976685;1.1427155;-;-;-;-;-;-;-;-;-;-;-;-;-;-;-
1513510830852;-;-;8.797989;-0.095581055;1.0349731;-;-;-;-;-;-;-;-;-;-;-;-;-;-;-
1513510830872;-;-;8.918884;-0.22486877;0.8985138;-;-;-;-;-;-;-;-;-;-;-;-;-;-;-
1513510830893;-;-;8.953613;-0.24281311;0.8518219;-;-;-;-;-;-;-;-;-;-;-;-;-;-;-
1513510830912;-;-;9.169083;-0.2272644;0.82907104;-;-;-;-;-;-;-;-;-;-;-;-;-;-;-
1513510830933;-;-;9.536591;-0.1015625;0.53578186;-;-;-;-;-;-;-;-;-;-;-;-;-;-;-
1513510830953;-;-;9.609619;-0.11831665;0.20777893;-;-;-;-;-;-;-;-;-;-;-;-;-;-;-
1513510830974;-;-;9.555756;-0.3182373;0.15631104;-;-;-;-;-;-;-;-;-;-;-;-;-;-;-
1513510830994;-;-;9.537796;-0.40802002;0.30116272;-;-;-;-;-;-;-;-;-;-;-;-;-;-;-
1513510831015;-;-;9.327103;-0.34576416;0.4388275;-;-;-;-;-;-;-;-;-;-;-;-;-;-;-
1513510831035;-;-;9.1523285;-0.18536377;0.53100586;-;-;-;-;-;-;-;-;-;-;-;-;-;-;-
1513510831056;-;-;9.287598;0.0037841797;0.5992279;-;-;-;-;-;-;-;-;-;-;-;-;-;-;-
1513510831076;-;-;9.367798;0.03251648;0.5453644;-;-;-;-;-;-;-;-;-;-;-;-;-;-;-
1513510831096;-;-;9.239716;-0.015365601;0.27601624;-;-;-;-;-;-;-;-;-;-;-;-;-;-;-
1513510831117;-;-;9.206192;-0.052474976;0.137146;-;-;-;-;-;-;-;-;-;-;-;-;-;-;-
1513510831137;-;-;9.23613;0.028915405;0.1479187;-;-;-;-;-;-;-;-;-;-;-;-;-;-;-
1513510831158;-;-;9.358231;-0.047698975;0.2616577;-;-;-;-;-;-;-;-;-;-;-;-;-;-;-
1513510831178;-;-;9.382172;-0.14225769;0.22813416;-;-;-;-;-;-;-;-;-;-;-;-;-;-;-
1513510831199;-;-;9.250488;-0.25598145;0.255661;-;-;-;-;-;-;-;-;-;-;-;-;-;-;-
1513510831219;-;-;9.135559;-0.16859436;0.3933258;-;-;-;-;-;-;-;-;-;-;-;-;-;-;-
1513510831240;-;-;9.232529;-0.102752686;0.45916748;-;-;-;-;-;-;-;-;-;-;-;-;-;-;-
1513510831259;-;-;9.360626;-0.00579834;0.48310852;-;-;-;-;-;-;-;-;-;-;-;-;-;-;-
1513510831279;-;-;9.533005;0.014556885;0.4328308;-;-;-;-;-;-;-;-;-;-;-;-;-;-;-
1513510831300;-;-;9.598846;-0.052474976;0.4280548;-;-;-;-;-;-;-;-;-;-;-;-;-;-;-
1513510831320;-;-;9.663483;-0.11352539;0.4986725;-;-;-;-;-;-;-;-;-;-;-;-;-;-;-
1513510831340;-;-;9.473145;-0.1015625;0.35144043;-;-;-;-;-;-;-;-;-;-;-;-;-;-;-
