TimeStamp[ms];Prox[Cm];Lux[lux];AccX[m/s^2];AccY[m/s^2];AccZ[m/s^2];GyroX[rad/s];GyroY[rad/s];GyroZ[rad/s];MagnX[uT];MagnY[uT];MagnZ[uT];OrienYaw[degrees];OrienPitch[degrees];OrienRoll[degrees];Press[Pa];Temp[C°];Batt[%];Lat;Lng;Speed[m/s]
1513510501339;-;-;8.784821;-0.49899292;-1.0910797;-;-;-;-;-;-;-;-;-;-;-;-;-;-;-
1513510501341;-;-;8.784821;-0.49899292;-1.0910797;-;-;-;-;-;-;-;-;-;-;-;-;-;-;-
1513510501354;-;-;8.80397;-0.5337219;-1.3101501;-;-;-;-;-;-;-;-;-;-;-;-;-;-;-
1513510501374;-;-;9.228943;-0.43675232;-1.90271;-;-;-;-;-;-;-;-;-;-;-;-;-;-;-
1513510501394;-;-;9.019455;-0.0021972656;-1.8237;-;-;-;-;-;-;-;-;-;-;-;-;-;-;-
1513510501414;-;-;9.091278;-0.3074646;-1.3544312;-;-;-;-;-;-;-;-;-;-;-;-;-;-;-
1513510501435;-;-;9.47435;0.09954834;-2.3252869;-;-;-;-;-;-;-;-;-;-;-;-;-;-;-
1513510501456;-;-;9.397736;0.25875854;-1.3460541;-;-;-;-;-;-;-;-;-;-;-;-;-;-;-
1513510501476;-;-;9.517441;0.2420044;-0.5104828;-;-;-;-;-;-;-;-;-;-;-;-;-;-;-
1513510501496;-;-;8.757278;0.46705627;-0.23155212;-;-;-;-;-;-;-;-;-;-;-;-;-;-;-
1513510501517;-;-;9.451599;-0.31584167;-0.7738342;-;-;-;-;-;-;-;-;-;-;-;-;-;-;-
1513510501538;-;-;8.90213;-0.54927063;-1.1712799;-;-;-;-;-;-;-;-;-;-;-;-;-;-;-
1513510501558;-;-;9.0793;-0.36013794;-1.0515747;-;-;-;-;-;-;-;-;-;-;-;-;-;-;-
1513510501587;-;-;9.13916;0.21087646;-1.4466095;-;-;-;-;-;-;-;-;-;-;-;-;-;-;-
1513510501598;-;-;9.076904;0.36410522;-1.4645691;-;-;-;-;-;-;-;-;-;-;-;-;-;-;-
1513510501618;-;-;9.189438;0.59754944;-1.4549866;-;-;-;-;-;-;-;-;-;-;-;-;-;-;-
1513510501639;-;-;9.228943;0.5556488;-1.5256195;-;-;-;-;-;-;-;-;-;-;-;-;-;-;-
1513510501659;-;-;9.099655;0.31861877;-1.7075806;-;-;-;-;-;-;-;-;-;-;-;-;-;-;-
1513510501679;-;-;9.020645;-0.02255249;-1.8787689;-;-;-;-;-;-;-;-;-;-;-;-;-;-;-
1513510501700;-;-;8.914108;-0.22486877;-1.8296814;-;-;-;-;-;-;-;-;-;-;-;-;-;-;-
1513510501720;-;-;9.056564;-0.4152069;-1.9637604;-;-;-;-;-;-;-;-;-;-;-;-;-;-;-
1513510501741;-;-;9.199005;-0.55885315;-1.9912872;-;-;-;-;-;-;-;-;-;-;-;-;-;-;-
1513510501762;-;-;9.009872;-0.5349121;-1.8584137;-;-;-;-;-;-;-;-;-;-;-;-;-;-;-
1513510501781;-;-;9.12001;-0.37928772;-1.5854797;-;-;-;-;-;-;-;-;-;-;-;-;-;-;-
1513510501802;-;-;9.596451;-0.38049316;-1.6764526;-;-;-;-;-;-;-;-;-;-;-;-;-;-;-
1513510501822;-;-;9.790375;-0.37809753;-1.7267303;-;-;-;-;-;-;-;-;-;-;-;-;-;-;-
1513510501844;-;-;9.961563;-0.3768921;-1.8667908;-;-;-;-;-;-;-;-;-;-;-;-;-;-;-
1513510501863;-;-;9.768829;-0.30267334;-2.0355835;-;-;-;-;-;-;-;-;-;-;-;-;-;-;-
1513510501884;-;-;9.797562;-0.50138855;-2.2187347;-;-;-;-;-;-;-;-;-;-;-;-;-;-;-
1513510501905;-;-;9.105637;-0.18894958;-2.1576843;-;-;-;-;-;-;-;-;-;-;-;-;-;-;-
1513510501926;-;-;8.916504;0.009765625;-2.0164337;-;-;-;-;-;-;-;-;-;-;-;-;-;-;-
1513510501946;-;-;8.739319;0.26115417;-1.6764526;-;-;-;-;-;-;-;-;-;-;-;-;-;-;-
1513510501966;-;-;8.686661;0.30426025;-1.7614441;-;-;-;-;-;-;-;-;-;-;-;-;-;-;-
1513510501987;-;-;8.507095;0.26475525;-2.163681;-;-;-;-;-;-;-;-;-;-;-;-;-;-;-
1513510502007;-;-;8.469971;0.13786316;-2.71315;-;-;-;-;-;-;-;-;-;-;-;-;-;-;-
1513510502028;-;-;8.74411;0.16539001;-2.6724396;-;-;-;-;-;-;-;-;-;-;-;-;-;-;-
1513510502048;-;-;8.203018;-0.3876648;-3.1081848;-;-;-;-;-;-;-;-;-;-;-;-;-;-;-
1513510502068;-;-;7.6176453;-0.014175415;-3.5583038;-;-;-;-;-;-;-;-;-;-;-;-;-;-;-
1513510502089;-;-;7.2860413;0.87527466;-4.187973;-;-;-;-;-;-;-;-;-;-;-;-;-;-;-
1513510502108;-;-;7.849884;1.2954559;-3.9880524;-;-;-;-;-;-;-;-;-;-;-;-;-;-;-
1513510502129;-;-;8.935654;0.64183044;-3.484085;-;-;-;-;-;-;-;-;-;-;-;-;-;-;-
1513510502148;-;-;9.220566;0.4802246;-3.4756927;-;-;-;-;-;-;-;-;-;-;-;-;-;-;-
1513510502169;-;-;8.305969;0.675354;-4.4692993;-;-;-;-;-;-;-;-;-;-;-;-;-;-;-
1513510502189;-;-;7.881012;0.61190796;-4.729065;-;-;-;-;-;-;-;-;-;-;-;-;-;-;-
1513510502210;-;-;8.48674;-0.3864746;-4.630905;-;-;-;-;-;-;-;-;-;-;-;-;-;-;-
1513510502230;-;-;9.961563;-2.044464;-3.6373138;-;-;-;-;-;-;-;-;-;-;-;-;-;-;-
1513510502251;-;-;10.046555;-4.1298065;-3.4182434;-;-;-;-;-;-;-;-;-;-;-;-;-;-;-
1513510502270;-;-;10.035782;-3.8879852;-5.259384;-;-;-;-;-;-;-;-;-;-;-;-;-;-;-
1513510502290;-;-;9.655106;-1.9522858;-6.3355713;-;-;-;-;-;-;-;-;-;-;-;-;-;-;-
1513510502311;-;-;9.386963;0.11869812;-5.654419;-;-;-;-;-;-;-;-;-;-;-;-;-;-;-
1513510502332;-;-;8.039017;1.947876;-3.95932;-;-;-;-;-;-;-;-;-;-;-;-;-;-;-
1513510502352;-;-;7.4368744;1.2212372;-3.4373932;-;-;-;-;-;-;-;-;-;-;-;-;-;-;-
1513510502373;-;-;7.7852325;-0.59716797;-4.3878937;-;-;-;-;-;-;-;-;-;-;-;-;-;-;-
1513510502392;-;-;8.164719;-1.3872528;-5.148041;-;-;-;-;-;-;-;-;-;-;-;-;-;-;-
1513510502413;-;-;8.414917;-1.0736084;-5.6244965;-;-;-;-;-;-;-;-;-;-;-;-;-;-;-
1513510502433;-;-;7.478775;0.22764587;-5.358734;-;-;-;-;-;-;-;-;-;-;-;-;-;-;-
1513510502454;-;-;6.8718414;1.2774963;-4.855957;-;-;-;-;-;-;-;-;-;-;-;-;-;-;-
1513510502474;-;-;6.6575623;1.4953766;-4.665619;-;-;-;-;-;-;-;-;-;-;-;-;-;-;-
1513510502495;-;-;7.2716827;0.6849365;-4.7984924;-;-;-;-;-;-;-;-;-;-;-;-;-;-;-
1513510502515;-;-;8.120422;-0.6354675;-5.148041;-;-;-;-;-;-;-;-;-;-;-;-;-;-;-
1513510502535;-;-;7.9073334;-1.8768616;-5.911804;-;-;-;-;-;-;-;-;-;-;-;-;-;-;-
1513510502556;-;-;7.7996063;-2.1174774;-6.0470734;-;-;-;-;-;-;-;-;-;-;-;-;-;-;-
1513510502576;-;-;7.430893;-1.5045624;-4.930176;-;-;-;-;-;-;-;-;-;-;-;-;-;-;-
1513510502597;-;-;6.798828;-1.0628357;-3.6648407;-;-;-;-;-;-;-;-;-;-;-;-;-;-;-
1513510502617;-;-;5.486801;-0.95988464;-3.887497;-;-;-;-;-;-;-;-;-;-;-;-;-;-;-
1513510502638;-;-;4.5554657;-0.83418274;-5.195938;-;-;-;-;-;-;-;-;-;-;-;-;-;-;-
1513510502659;-;-;5.6747437;0.38804626;-4.6596375;-;-;-;-;-;-;-;-;-;-;-;-;-;-;-
1513510502678;-;-;6.545044;1.5576172;-3.7390594;-;-;-;-;-;-;-;-;-;-;-;-;-;-;-
1513510502699;-;-;6.84671;2.026886;-3.662445;-;-;-;-;-;-;-;-;-;-;-;-;-;-;-
1513510502718;-;-;7.379425;1.4726257;-4.9253845;-;-;-;-;-;-;-;-;-;-;-;-;-;-;-
1513510502738;-;-;8.1371765;0.23123169;-6.088974;-;-;-;-;-;-;-;-;-;-;-;-;-;-;-
1513510502759;-;-;8.802765;0.02772522;-6.0326996;-;-;-;-;-;-;-;-;-;-;-;-;-;-;-
1513510502780;-;-;8.334702;0.9387207;-5.0630493;-;-;-;-;-;-;-;-;-;-;-;-;-;-;-
1513510502800;-;-;7.4524384;1.9921722;-4.0239716;-;-;-;-;-;-;-;-;-;-;-;-;-;-;-
1513510502820;-;-;5.8519135;2.6577606;-3.317688;-;-;-;-;-;-;-;-;-;-;-;-;-;-;-
1513510502840;-;-;4.848755;2.6769104;-3.7342682;-;-;-;-;-;-;-;-;-;-;-;-;-;-;-
1513510502861;-;-;2.85318;2.2303925;-4.9600983;-;-;-;-;-;-;-;-;-;-;-;-;-;-;-
1513510502882;-;-;1.9852753;1.956253;-6.3966217;-;-;-;-;-;-;-;-;-;-;-;-;-;-;-
1513510502903;-;-;4.1999207;0.7842865;-5.942917;-;-;-;-;-;-;-;-;-;-;-;-;-;-;-
1513510502923;-;-;9.167892;-0.15782166;-4.6871643;-;-;-;-;-;-;-;-;-;-;-;-;-;-;-
1513510502944;-;-;10.317108;0.30784607;-5.2258606;-;-;-;-;-;-;-;-;-;-;-;-;-;-;-
1513510502964;-;-;10.555328;1.1589813;-5.6759644;-;-;-;-;-;-;-;-;-;-;-;-;-;-;-
1513510502984;-;-;8.424484;0.5472717;-6.112915;-;-;-;-;-;-;-;-;-;-;-;-;-;-;-
1513510503005;-;-;7.078949;-0.30267334;-5.8974304;-;-;-;-;-;-;-;-;-;-;-;-;-;-;-
1513510503025;-;-;6.154785;-0.79348755;-5.254593;-;-;-;-;-;-;-;-;-;-;-;-;-;-;-
1513510503045;-;-;6.6264496;-0.3086548;-5.4150085;-;-;-;-;-;-;-;-;-;-;-;-;-;-;-
1513510503064;-;-;7.5589905;0.7028961;-5.5107727;-;-;-;-;-;-;-;-;-;-;-;-;-;-;-
1513510503085;-;-;8.029449;1.5468445;-5.5490723;-;-;-;-;-;-;-;-;-;-;-;-;-;-;-
1513510503105;-;-;8.370621;1.4558716;-5.6687927;-;-;-;-;-;-;-;-;-;-;-;-;-;-;-
1513510503125;-;-;8.167114;0.4945984;-6.3559265;-;-;-;-;-;-;-;-;-;-;-;-;-;-;-
1513510503146;-;-;7.7924194;-0.10395813;-7.927719;-;-;-;-;-;-;-;-;-;-;-;-;-;-;-
1513510503166;-;-;8.997894;-0.5169525;-6.954468;-;-;-;-;-;-;-;-;-;-;-;-;-;-;-
1513510503187;-;-;7.2788696;0.5472717;-6.224243;-;-;-;-;-;-;-;-;-;-;-;-;-;-;-
1513510503207;-;-;7.5913086;0.6466217;-5.701111;-;-;-;-;-;-;-;-;-;-;-;-;-;-;-
1513510503228;-;-;6.4217377;1.4008026;-7.0011597;-;-;-;-;-;-;-;-;-;-;-;-;-;-;-
1513510503248;-;-;8.001907;0.98420715;-7.5781555;-;-;-;-;-;-;-;-;-;-;-;-;-;-;-
1513510503269;-;-;8.052185;0.967453;-7.61528;-;-;-;-;-;-;-;-;-;-;-;-;-;-;-
1513510503289;-;-;7.541031;0.80345154;-7.246567;-;-;-;-;-;-;-;-;-;-;-;-;-;-;-
1513510503309;-;-;7.9205017;0.24919128;-6.8670807;-;-;-;-;-;-;-;-;-;-;-;-;-;-;-
1513510503330;-;-;7.794815;0.1797638;-6.287689;-;-;-;-;-;-;-;-;-;-;-;-;-;-;-
1513510503351;-;-;7.6236267;0.62628174;-6.105728;-;-;-;-;-;-;-;-;-;-;-;-;-;-;-
1513510503371;-;-;7.963608;1.1661682;-7.055023;-;-;-;-;-;-;-;-;-;-;-;-;-;-;-
1513510503392;-;-;8.56694;0.58917236;-7.1819153;-;-;-;-;-;-;-;-;-;-;-;-;-;-;-
1513510503411;-;-;9.345062;-0.03930664;-7.1555786;-;-;-;-;-;-;-;-;-;-;-;-;-;-;-
1513510503432;-;-;11.060501;-0.19972229;-6.5151367;-;-;-;-;-;-;-;-;-;-;-;-;-;-;-
1513510503452;-;-;10.837845;0.5676117;-6.4349365;-;-;-;-;-;-;-;-;-;-;-;-;-;-;-
1513510503473;-;-;10.586456;0.42755127;-5.982422;-;-;-;-;-;-;-;-;-;-;-;-;-;-;-
1513510503492;-;-;10.088455;1.3493195;-4.499222;-;-;-;-;-;-;-;-;-;-;-;-;-;-;-
1513510503513;-;-;9.170288;1.7551422;-4.0910034;-;-;-;-;-;-;-;-;-;-;-;-;-;-;-
1513510503533;-;-;8.827911;1.3696747;-2.9812927;-;-;-;-;-;-;-;-;-;-;-;-;-;-;-
1513510503554;-;-;8.953613;0.793869;-2.625763;-;-;-;-;-;-;-;-;-;-;-;-;-;-;-
1513510503574;-;-;8.855438;0.2695465;-3.2422638;-;-;-;-;-;-;-;-;-;-;-;-;-;-;-
1513510503594;-;-;8.795593;0.48980713;-3.1776276;-;-;-;-;-;-;-;-;-;-;-;-;-;-;-
1513510503615;-;-;8.502304;0.769928;-2.764618;-;-;-;-;-;-;-;-;-;-;-;-;-;-;-
1513510503635;-;-;8.600464;1.0428619;-2.47612;-;-;-;-;-;-;-;-;-;-;-;-;-;-;-
1513510503656;-;-;8.18985;0.5376892;-2.310913;-;-;-;-;-;-;-;-;-;-;-;-;-;-;-
1513510503676;-;-;8.1766815;0.1845398;-2.326477;-;-;-;-;-;-;-;-;-;-;-;-;-;-;-
1513510503696;-;-;8.8997345;0.036102295;-2.2654266;-;-;-;-;-;-;-;-;-;-;-;-;-;-;-
1513510503717;-;-;9.103241;-0.0045928955;-2.4318237;-;-;-;-;-;-;-;-;-;-;-;-;-;-;-
1513510503737;-;-;9.188232;-0.12310791;-2.5180206;-;-;-;-;-;-;-;-;-;-;-;-;-;-;-
1513510503758;-;-;9.355835;0.033706665;-2.2259216;-;-;-;-;-;-;-;-;-;-;-;-;-;-;-
1513510503779;-;-;9.39534;0.34016418;-1.8943329;-;-;-;-;-;-;-;-;-;-;-;-;-;-;-
1513510503799;-;-;9.424072;0.259964;-1.6776581;-;-;-;-;-;-;-;-;-;-;-;-;-;-;-
1513510503819;-;-;9.160706;0.2707367;-1.8679962;-;-;-;-;-;-;-;-;-;-;-;-;-;-;-
1513510503840;-;-;8.995499;0.33059692;-1.6070251;-;-;-;-;-;-;-;-;-;-;-;-;-;-;-
1513510503860;-;-;8.911713;0.28749084;-1.3975372;-;-;-;-;-;-;-;-;-;-;-;-;-;-;-
1513510503881;-;-;8.8997345;0.115112305;-1.164093;-;-;-;-;-;-;-;-;-;-;-;-;-;-;-
1513510503901;-;-;9.154724;0.110321045;-0.9402313;-;-;-;-;-;-;-;-;-;-;-;-;-;-;-
1513510503922;-;-;9.371399;0.2300415;-0.8289032;-;-;-;-;-;-;-;-;-;-;-;-;-;-;-
1513510503942;-;-;9.422867;0.46826172;-0.8899536;-;-;-;-;-;-;-;-;-;-;-;-;-;-;-
1513510503962;-;-;8.809952;0.13786316;-2.084671;-;-;-;-;-;-;-;-;-;-;-;-;-;-;-
1513510503983;-;-;9.80954;0.03970337;-2.8244781;-;-;-;-;-;-;-;-;-;-;-;-;-;-;-
1513510504003;-;-;10.400894;0.19412231;-3.6492767;-;-;-;-;-;-;-;-;-;-;-;-;-;-;-
1513510504024;-;-;9.415695;0.61909485;-2.9908752;-;-;-;-;-;-;-;-;-;-;-;-;-;-;-
1513510504045;-;-;8.207809;0.92315674;-2.3647919;-;-;-;-;-;-;-;-;-;-;-;-;-;-;-
1513510504065;-;-;7.3889923;-0.27514648;-2.0427704;-;-;-;-;-;-;-;-;-;-;-;-;-;-;-
1513510504085;-;-;8.414917;-0.8461609;-2.6568756;-;-;-;-;-;-;-;-;-;-;-;-;-;-;-
1513510504106;-;-;10.141129;-0.54089355;-3.0447388;-;-;-;-;-;-;-;-;-;-;-;-;-;-;-
1513510504125;-;-;9.61441;-0.59954834;-2.5323792;-;-;-;-;-;-;-;-;-;-;-;-;-;-;-
1513510504145;-;-;8.783615;-0.2033081;-1.7207489;-;-;-;-;-;-;-;-;-;-;-;-;-;-;-
1513510504166;-;-;8.716583;-0.641449;-1.3675995;-;-;-;-;-;-;-;-;-;-;-;-;-;-;-
1513510504186;-;-;8.671097;-0.89404297;-1.9410095;-;-;-;-;-;-;-;-;-;-;-;-;-;-;-
1513510504207;-;-;8.783615;-0.739624;-2.2438812;-;-;-;-;-;-;-;-;-;-;-;-;-;-;-
1513510504228;-;-;9.337875;-0.5444946;-2.1110077;-;-;-;-;-;-;-;-;-;-;-;-;-;-;-
1513510504247;-;-;9.201401;-0.67736816;-2.2486725;-;-;-;-;-;-;-;-;-;-;-;-;-;-;-
1513510504268;-;-;9.072113;-0.1697998;-2.4042969;-;-;-;-;-;-;-;-;-;-;-;-;-;-;-
1513510504288;-;-;9.1128235;-0.40322876;-2.3216858;-;-;-;-;-;-;-;-;-;-;-;-;-;-;-
1513510504309;-;-;9.170288;-1.0317078;-2.1564941;-;-;-;-;-;-;-;-;-;-;-;-;-;-;-
1513510504329;-;-;9.205002;-0.8317871;-1.7566681;-;-;-;-;-;-;-;-;-;-;-;-;-;-;-
1513510504350;-;-;8.631592;-0.8174286;-1.7327118;-;-;-;-;-;-;-;-;-;-;-;-;-;-;-
1513510504371;-;-;8.106064;-1.1538086;-1.535202;-;-;-;-;-;-;-;-;-;-;-;-;-;-;-
1513510504391;-;-;8.727356;-1.5895538;-1.3712006;-;-;-;-;-;-;-;-;-;-;-;-;-;-;-
1513510504411;-;-;9.230133;-1.234024;-1.4897003;-;-;-;-;-;-;-;-;-;-;-;-;-;-;-
1513510504431;-;-;8.993118;-0.9143982;-1.9338379;-;-;-;-;-;-;-;-;-;-;-;-;-;-;-
1513510504451;-;-;8.618423;-0.5851898;-2.2331085;-;-;-;-;-;-;-;-;-;-;-;-;-;-;-
1513510504472;-;-;8.788406;-0.56843567;-1.8859406;-;-;-;-;-;-;-;-;-;-;-;-;-;-;-
1513510504491;-;-;9.398926;0.6861267;-1.9458008;-;-;-;-;-;-;-;-;-;-;-;-;-;-;-
1513510504511;-;-;9.799957;2.0855408;-2.3707733;-;-;-;-;-;-;-;-;-;-;-;-;-;-;-
1513510504532;-;-;9.835876;2.488968;-2.5180206;-;-;-;-;-;-;-;-;-;-;-;-;-;-;-
1513510504553;-;-;10.001068;1.7443695;-2.4976654;-;-;-;-;-;-;-;-;-;-;-;-;-;-;-
1513510504573;-;-;9.691025;1.114685;-2.5575256;-;-;-;-;-;-;-;-;-;-;-;-;-;-;-
1513510504593;-;-;9.33548;0.3425598;-2.3276825;-;-;-;-;-;-;-;-;-;-;-;-;-;-;-
1513510504613;-;-;8.909317;-0.17578125;-2.3013458;-;-;-;-;-;-;-;-;-;-;-;-;-;-;-
1513510504634;-;-;8.880585;-0.066848755;-2.1469116;-;-;-;-;-;-;-;-;-;-;-;-;-;-;-
1513510504654;-;-;8.40892;-0.23683167;-2.1457214;-;-;-;-;-;-;-;-;-;-;-;-;-;-;-
1513510504675;-;-;8.515472;-0.68933105;-2.4641418;-;-;-;-;-;-;-;-;-;-;-;-;-;-;-
1513510504695;-;-;9.519836;-1.0736084;-3.0088348;-;-;-;-;-;-;-;-;-;-;-;-;-;-;-
1513510504716;-;-;8.714188;-1.2962646;-3.566681;-;-;-;-;-;-;-;-;-;-;-;-;-;-;-
1513510504737;-;-;8.497513;-1.0843811;-3.0507202;-;-;-;-;-;-;-;-;-;-;-;-;-;-;-
1513510504757;-;-;9.110428;-1.2902832;-2.6916046;-;-;-;-;-;-;-;-;-;-;-;-;-;-;-
1513510504776;-;-;9.483917;-0.93115234;-2.649704;-;-;-;-;-;-;-;-;-;-;-;-;-;-;-
1513510504797;-;-;9.57251;-0.79467773;-2.4497833;-;-;-;-;-;-;-;-;-;-;-;-;-;-;-
1513510504818;-;-;9.814316;-0.6007538;-2.3935242;-;-;-;-;-;-;-;-;-;-;-;-;-;-;-
1513510504838;-;-;9.279221;-0.8581238;-2.2594452;-;-;-;-;-;-;-;-;-;-;-;-;-;-;-
1513510504858;-;-;8.967972;-1.1083221;-2.4114685;-;-;-;-;-;-;-;-;-;-;-;-;-;-;-
1513510504879;-;-;8.323929;-1.1681824;-2.7346954;-;-;-;-;-;-;-;-;-;-;-;-;-;-;-
1513510504899;-;-;8.356247;-0.3589325;-2.3288727;-;-;-;-;-;-;-;-;-;-;-;-;-;-;-
1513510504920;-;-;8.422089;-0.1302948;-1.7614441;-;-;-;-;-;-;-;-;-;-;-;-;-;-;-
1513510504941;-;-;8.4292755;0.19770813;-1.8703918;-;-;-;-;-;-;-;-;-;-;-;-;-;-;-
1513510504961;-;-;8.592087;0.35932922;-1.7422943;-;-;-;-;-;-;-;-;-;-;-;-;-;-;-
1513510504981;-;-;8.960785;0.2707367;-2.0667114;-;-;-;-;-;-;-;-;-;-;-;-;-;-;-
1513510505001;-;-;9.136765;0.22045898;-1.9721375;-;-;-;-;-;-;-;-;-;-;-;-;-;-;-
1513510505021;-;-;9.676651;0.25637817;-1.942215;-;-;-;-;-;-;-;-;-;-;-;-;-;-;-
1513510505042;-;-;9.759262;0.41438293;-1.4274597;-;-;-;-;-;-;-;-;-;-;-;-;-;-;-
1513510505063;-;-;9.697006;0.259964;-0.87319946;-;-;-;-;-;-;-;-;-;-;-;-;-;-;-
1513510505082;-;-;9.282806;0.4658661;-0.5811157;-;-;-;-;-;-;-;-;-;-;-;-;-;-;-
1513510505103;-;-;8.869812;0.6023407;-0.37400818;-;-;-;-;-;-;-;-;-;-;-;-;-;-;-
1513510505123;-;-;8.876999;0.010971069;0.0569458;-;-;-;-;-;-;-;-;-;-;-;-;-;-;-
1513510505144;-;-;8.971558;-0.3086548;0.022232056;-;-;-;-;-;-;-;-;-;-;-;-;-;-;-
1513510505164;-;-;8.947617;-0.41400146;-0.14057922;-;-;-;-;-;-;-;-;-;-;-;-;-;-;-
1513510505185;-;-;9.230133;-0.5205536;-0.0041046143;-;-;-;-;-;-;-;-;-;-;-;-;-;-;-
1513510505205;-;-;9.263657;-0.42477417;0.1946106;-;-;-;-;-;-;-;-;-;-;-;-;-;-;-
1513510505225;-;-;9.179855;-0.23324585;0.2808075;-;-;-;-;-;-;-;-;-;-;-;-;-;-;-
1513510505246;-;-;9.21817;-0.23803711;0.3382721;-;-;-;-;-;-;-;-;-;-;-;-;-;-;-
1513510505266;-;-;9.015854;-0.6522217;0.56092834;-;-;-;-;-;-;-;-;-;-;-;-;-;-;-
1513510505286;-;-;8.795593;-1.0053711;0.6351471;-;-;-;-;-;-;-;-;-;-;-;-;-;-;-
1513510505307;-;-;8.929672;-1.1933136;0.53219604;-;-;-;-;-;-;-;-;-;-;-;-;-;-;-
1513510505328;-;-;9.415695;-1.0233307;0.41488647;-;-;-;-;-;-;-;-;-;-;-;-;-;-;-
1513510505348;-;-;9.863403;-0.6510315;0.18862915;-;-;-;-;-;-;-;-;-;-;-;-;-;-;-
1513510505368;-;-;9.8645935;-0.31344604;0.084472656;-;-;-;-;-;-;-;-;-;-;-;-;-;-;-
1513510505389;-;-;8.941635;-0.17338562;-0.6948395;-;-;-;-;-;-;-;-;-;-;-;-;-;-;-
1513510505409;-;-;9.295975;-0.090789795;-0.0627594;-;-;-;-;-;-;-;-;-;-;-;-;-;-;-
1513510505429;-;-;10.020218;-0.41400146;0.34544373;-;-;-;-;-;-;-;-;-;-;-;-;-;-;-
1513510505450;-;-;9.698196;-0.13627625;0.21855164;-;-;-;-;-;-;-;-;-;-;-;-;-;-;-
1513510505470;-;-;9.175064;0.20848083;0.18981934;-;-;-;-;-;-;-;-;-;-;-;-;-;-;-
1513510505491;-;-;8.661514;0.39404297;0.5776825;-;-;-;-;-;-;-;-;-;-;-;-;-;-;-
1513510505511;-;-;8.696228;0.22764587;0.92485046;-;-;-;-;-;-;-;-;-;-;-;-;-;-;-
1513510505532;-;-;9.006287;-0.04888916;0.90808105;-;-;-;-;-;-;-;-;-;-;-;-;-;-;-
1513510505552;-;-;9.069733;-0.1590271;0.6255646;-;-;-;-;-;-;-;-;-;-;-;-;-;-;-
1513510505573;-;-;9.382172;-0.0010070801;0.48310852;-;-;-;-;-;-;-;-;-;-;-;-;-;-;-
1513510505593;-;-;9.732925;0.18574524;0.46516418;-;-;-;-;-;-;-;-;-;-;-;-;-;-;-
1513510505614;-;-;9.813126;0.13786316;0.6279602;-;-;-;-;-;-;-;-;-;-;-;-;-;-;-
1513510505634;-;-;9.635956;-0.09677124;0.59324646;-;-;-;-;-;-;-;-;-;-;-;-;-;-;-
1513510505655;-;-;9.185837;-0.20809937;0.3705902;-;-;-;-;-;-;-;-;-;-;-;-;-;-;-
1513510505675;-;-;9.099655;-0.27514648;0.29516602;-;-;-;-;-;-;-;-;-;-;-;-;-;-;-
1513510505695;-;-;9.063736;-0.46548462;0.3035431;-;-;-;-;-;-;-;-;-;-;-;-;-;-;-
1513510505716;-;-;9.100845;-0.66539;0.2808075;-;-;-;-;-;-;-;-;-;-;-;-;-;-;-
1513510505737;-;-;9.312744;-0.7276459;0.16947937;-;-;-;-;-;-;-;-;-;-;-;-;-;-;-
1513510505757;-;-;9.495895;-0.7958832;-0.06036377;-;-;-;-;-;-;-;-;-;-;-;-;-;-;-
1513510505778;-;-;9.406113;-0.6761627;-0.377594;-;-;-;-;-;-;-;-;-;-;-;-;-;-;-
1513510505798;-;-;9.274429;-0.3146515;-0.5571594;-;-;-;-;-;-;-;-;-;-;-;-;-;-;-
1513510505818;-;-;9.030228;0.05885315;-0.5056915;-;-;-;-;-;-;-;-;-;-;-;-;-;-;-
1513510505839;-;-;9.15831;0.26115417;0.15750122;-;-;-;-;-;-;-;-;-;-;-;-;-;-;-
1513510505860;-;-;9.579697;0.16059875;0.44599915;-;-;-;-;-;-;-;-;-;-;-;-;-;-;-
1513510505879;-;-;9.724533;-0.054870605;0.35861206;-;-;-;-;-;-;-;-;-;-;-;-;-;-;-
1513510505900;-;-;9.637146;-0.34457397;0.22932434;-;-;-;-;-;-;-;-;-;-;-;-;-;-;-
1513510505921;-;-;9.268448;-0.621109;0.30116272;-;-;-;-;-;-;-;-;-;-;-;-;-;-;-
1513510505940;-;-;9.032608;-0.55885315;0.38136292;-;-;-;-;-;-;-;-;-;-;-;-;-;-;-
1513510505961;-;-;9.006287;-0.32063293;0.36819458;-;-;-;-;-;-;-;-;-;-;-;-;-;-;-
1513510505981;-;-;9.115219;-0.064453125;0.35861206;-;-;-;-;-;-;-;-;-;-;-;-;-;-;-
1513510506002;-;-;9.301956;-0.050079346;0.23052979;-;-;-;-;-;-;-;-;-;-;-;-;-;-;-
1513510506022;-;-;9.467163;-0.15423584;0.034194946;-;-;-;-;-;-;-;-;-;-;-;-;-;-;-
1513510506042;-;-;9.555756;-0.3194275;0.01864624;-;-;-;-;-;-;-;-;-;-;-;-;-;-;-
1513510506063;-;-;9.543777;-0.3757019;0.058151245;-;-;-;-;-;-;-;-;-;-;-;-;-;-;-
1513510506083;-;-;9.397736;-0.2966919;0.120391846;-;-;-;-;-;-;-;-;-;-;-;-;-;-;-
1513510506103;-;-;9.1918335;-0.3002777;0.04975891;-;-;-;-;-;-;-;-;-;-;-;-;-;-;-
1513510506123;-;-;9.110428;-0.31105042;0.106033325;-;-;-;-;-;-;-;-;-;-;-;-;-;-;-
1513510506144;-;-;9.194229;-0.33140564;0.17785645;-;-;-;-;-;-;-;-;-;-;-;-;-;-;-
1513510506166;-;-;9.293579;-0.28352356;0.18025208;-;-;-;-;-;-;-;-;-;-;-;-;-;-;-
1513510506185;-;-;9.179855;-0.21170044;0.04975891;-;-;-;-;-;-;-;-;-;-;-;-;-;-;-
1513510506204;-;-;9.206192;-0.2787323;0.022232056;-;-;-;-;-;-;-;-;-;-;-;-;-;-;-
1513510506225;-;-;9.343857;-0.27035522;0.05215454;-;-;-;-;-;-;-;-;-;-;-;-;-;-;-
1513510506246;-;-;9.364212;-0.2320404;0.34664917;-;-;-;-;-;-;-;-;-;-;-;-;-;-;-
1513510506265;-;-;9.268448;-0.19493103;0.46635437;-;-;-;-;-;-;-;-;-;-;-;-;-;-;-
1513510506286;-;-;9.220566;-0.102752686;0.51304626;-;-;-;-;-;-;-;-;-;-;-;-;-;-;-
1513510506305;-;-;9.225342;-0.13388062;0.5058594;-;-;-;-;-;-;-;-;-;-;-;-;-;-;-
1513510506326;-;-;9.321121;-0.17098999;0.50346375;-;-;-;-;-;-;-;-;-;-;-;-;-;-;-
1513510506345;-;-;9.392944;-0.28352356;0.41488647;-;-;-;-;-;-;-;-;-;-;-;-;-;-;-
1513510506365;-;-;9.367798;-0.29429626;0.36340332;-;-;-;-;-;-;-;-;-;-;-;-;-;-;-
1513510506386;-;-;9.263657;-0.17817688;0.4328308;-;-;-;-;-;-;-;-;-;-;-;-;-;-;-
1513510506407;-;-;9.188232;-0.117126465;0.5118408;-;-;-;-;-;-;-;-;-;-;-;-;-;-;-
1513510506427;-;-;9.123596;-0.16619873;0.4759369;-;-;-;-;-;-;-;-;-;-;-;-;-;-;-
1513510506448;-;-;9.153519;-0.2787323;0.44960022;-;-;-;-;-;-;-;-;-;-;-;-;-;-;-
1513510506468;-;-;9.166687;-0.2799225;0.46516418;-;-;-;-;-;-;-;-;-;-;-;-;-;-;-
1513510506488;-;-;9.284012;-0.13986206;0.52500916;-;-;-;-;-;-;-;-;-;-;-;-;-;-;-
1513510506509;-;-;9.3546295;-0.09437561;0.6375427;-;-;-;-;-;-;-;-;-;-;-;-;-;-;-
1513510506530;-;-;9.388153;-0.23085022;0.6052246;-;-;-;-;-;-;-;-;-;-;-;-;-;-;-
1513510506550;-;-;9.343857;-0.5253296;0.4220581;-;-;-;-;-;-;-;-;-;-;-;-;-;-;-
1513510506570;-;-;9.500687;-0.8988342;0.13476563;-;-;-;-;-;-;-;-;-;-;-;-;-;-;-
1513510506591;-;-;9.473145;-0.9550934;0.06892395;-;-;-;-;-;-;-;-;-;-;-;-;-;-;-
1513510506611;-;-;9.295975;-0.68455505;0.19700623;-;-;-;-;-;-;-;-;-;-;-;-;-;-;-
1513510506632;-;-;9.0733185;-0.22845459;0.46754456;-;-;-;-;-;-;-;-;-;-;-;-;-;-;-
1513510506652;-;-;8.959595;0.074417114;0.5944519;-;-;-;-;-;-;-;-;-;-;-;-;-;-;-
1513510506673;-;-;9.054169;0.03491211;0.65071106;-;-;-;-;-;-;-;-;-;-;-;-;-;-;-
1513510506693;-;-;9.463577;-0.17098999;0.61239624;-;-;-;-;-;-;-;-;-;-;-;-;-;-;-
1513510506714;-;-;9.613205;-0.3876648;0.5190277;-;-;-;-;-;-;-;-;-;-;-;-;-;-;-
1513510506734;-;-;9.406113;-0.48582458;0.6255646;-;-;-;-;-;-;-;-;-;-;-;-;-;-;-
1513510506755;-;-;9.254074;-0.5923767;0.79914856;-;-;-;-;-;-;-;-;-;-;-;-;-;-;-
1513510506774;-;-;9.082901;-0.6330719;0.9416046;-;-;-;-;-;-;-;-;-;-;-;-;-;-;-
1513510506795;-;-;9.133179;-0.66539;0.844635;-;-;-;-;-;-;-;-;-;-;-;-;-;-;-
1513510506815;-;-;9.327103;-0.50738525;0.5154419;-;-;-;-;-;-;-;-;-;-;-;-;-;-;-
1513510506835;-;-;9.498291;-0.30387878;0.3131256;-;-;-;-;-;-;-;-;-;-;-;-;-;-;-
1513510506856;-;-;9.439636;-0.062057495;0.23890686;-;-;-;-;-;-;-;-;-;-;-;-;-;-;-
1513510506876;-;-;9.306747;-0.04888916;0.082092285;-;-;-;-;-;-;-;-;-;-;-;-;-;-;-
1513510506897;-;-;9.29718;-0.117126465;0.091659546;-;-;-;-;-;-;-;-;-;-;-;-;-;-;-
1513510506916;-;-;9.3941345;-0.30387878;0.10961914;-;-;-;-;-;-;-;-;-;-;-;-;-;-;-
1513510506936;-;-;9.385757;-0.42837524;0.54296875;-;-;-;-;-;-;-;-;-;-;-;-;-;-;-
1513510506957;-;-;9.327103;-0.33380127;0.70936584;-;-;-;-;-;-;-;-;-;-;-;-;-;-;-
1513510506977;-;-;8.894943;-0.22486877;0.7428894;-;-;-;-;-;-;-;-;-;-;-;-;-;-;-
1513510506998;-;-;8.76207;-0.2679596;0.760849;-;-;-;-;-;-;-;-;-;-;-;-;-;-;-
1513510507018;-;-;9.121201;-0.7851105;1.0373688;-;-;-;-;-;-;-;-;-;-;-;-;-;-;-
1513510507039;-;-;9.410904;-1.0388947;1.0098419;-;-;-;-;-;-;-;-;-;-;-;-;-;-;-
1513510507059;-;-;9.530609;-0.7886963;0.9703369;-;-;-;-;-;-;-;-;-;-;-;-;-;-;-
1513510507079;-;-;9.5354;-0.38887024;0.95835876;-;-;-;-;-;-;-;-;-;-;-;-;-;-;-
1513510507099;-;-;9.3546295;-0.04170227;0.96195984;-;-;-;-;-;-;-;-;-;-;-;-;-;-;-
1513510507122;-;-;9.293579;0.07081604;1.1032104;-;-;-;-;-;-;-;-;-;-;-;-;-;-;-
1513510507143;-;-;9.311539;-0.32661438;1.0804749;-;-;-;-;-;-;-;-;-;-;-;-;-;-;-
1513510507163;-;-;9.2708435;-0.68574524;0.89372253;-;-;-;-;-;-;-;-;-;-;-;-;-;-;-
1513510507183;-;-;9.178665;-0.7108917;0.6602783;-;-;-;-;-;-;-;-;-;-;-;-;-;-;-
1513510507204;-;-;9.054169;-0.55526733;0.6100006;-;-;-;-;-;-;-;-;-;-;-;-;-;-;-
1513510507225;-;-;9.291183;-0.44631958;0.5704956;-;-;-;-;-;-;-;-;-;-;-;-;-;-;-
1513510507245;-;-;9.333084;-0.31344604;0.29516602;-;-;-;-;-;-;-;-;-;-;-;-;-;-;-
1513510507265;-;-;9.281616;-0.21528625;0.16827393;-;-;-;-;-;-;-;-;-;-;-;-;-;-;-
1513510507285;-;-;9.4133;-0.093185425;0.22453308;-;-;-;-;-;-;-;-;-;-;-;-;-;-;-
1513510507306;-;-;9.39653;-0.17098999;0.43164063;-;-;-;-;-;-;-;-;-;-;-;-;-;-;-
1513510507326;-;-;9.005081;-0.26316833;0.563324;-;-;-;-;-;-;-;-;-;-;-;-;-;-;-
1513510507346;-;-;8.8207245;-0.3864746;0.69140625;-;-;-;-;-;-;-;-;-;-;-;-;-;-;-
1513510507367;-;-;8.896149;-0.6761627;0.83984375;-;-;-;-;-;-;-;-;-;-;-;-;-;-;-
1513510507387;-;-;8.936844;-0.9167938;0.8147125;-;-;-;-;-;-;-;-;-;-;-;-;-;-;-
1513510507407;-;-;9.178665;-0.74679565;0.9679413;-;-;-;-;-;-;-;-;-;-;-;-;-;-;-
1513510507428;-;-;9.130783;-0.51815796;1.2372894;-;-;-;-;-;-;-;-;-;-;-;-;-;-;-
1513510507447;-;-;9.143951;-0.33380127;1.45755;-;-;-;-;-;-;-;-;-;-;-;-;-;-;-
1513510507467;-;-;9.325912;-0.0440979;1.6347198;-;-;-;-;-;-;-;-;-;-;-;-;-;-;-
1513510507487;-;-;9.495895;0.04447937;1.8513947;-;-;-;-;-;-;-;-;-;-;-;-;-;-;-
1513510507507;-;-;9.260071;-0.17817688;1.5401611;-;-;-;-;-;-;-;-;-;-;-;-;-;-;-
1513510507528;-;-;8.966782;-0.3254242;1.057724;-;-;-;-;-;-;-;-;-;-;-;-;-;-;-
1513510507548;-;-;9.291183;-0.22366333;0.90689087;-;-;-;-;-;-;-;-;-;-;-;-;-;-;-
1513510507568;-;-;9.694611;-0.119522095;1.0014648;-;-;-;-;-;-;-;-;-;-;-;-;-;-;-
1513510507588;-;-;9.525818;-0.1877594;0.92245483;-;-;-;-;-;-;-;-;-;-;-;-;-;-;-
1513510507609;-;-;9.2708435;-0.36611938;0.642334;-;-;-;-;-;-;-;-;-;-;-;-;-;-;-
1513510507629;-;-;9.15712;-0.4954071;0.31910706;-;-;-;-;-;-;-;-;-;-;-;-;-;-;-
1513510507649;-;-;9.29718;-0.5313263;0.19221497;-;-;-;-;-;-;-;-;-;-;-;-;-;-;-
1513510507669;-;-;9.382172;-0.4439392;0.04975891;-;-;-;-;-;-;-;-;-;-;-;-;-;-;-
1513510507689;-;-;9.402527;-0.43675232;0.17306519;-;-;-;-;-;-;-;-;-;-;-;-;-;-;-
1513510507710;-;-;9.292389;-0.42118835;0.20179749;-;-;-;-;-;-;-;-;-;-;-;-;-;-;-
1513510507730;-;-;9.170288;-0.3397827;0.37417603;-;-;-;-;-;-;-;-;-;-;-;-;-;-;-
1513510507750;-;-;9.210983;-0.2859192;0.5561371;-;-;-;-;-;-;-;-;-;-;-;-;-;-;-
1513510507770;-;-;9.347458;-0.15663147;0.8422394;-;-;-;-;-;-;-;-;-;-;-;-;-;-;-
1513510507791;-;-;9.374985;-0.13867188;0.9607544;-;-;-;-;-;-;-;-;-;-;-;-;-;-;-
1513510507810;-;-;9.15712;-0.119522095;0.8338623;-;-;-;-;-;-;-;-;-;-;-;-;-;-;-
1513510507830;-;-;9.005081;-0.11831665;0.7692261;-;-;-;-;-;-;-;-;-;-;-;-;-;-;-
1513510507851;-;-;9.052963;-0.3361969;1.0254059;-;-;-;-;-;-;-;-;-;-;-;-;-;-;-
1513510507871;-;-;9.240906;-0.4738617;1.2181396;-;-;-;-;-;-;-;-;-;-;-;-;-;-;-
1513510507891;-;-;9.459976;-0.51216125;1.1690521;-;-;-;-;-;-;-;-;-;-;-;-;-;-;-
1513510507912;-;-;9.513855;-0.41760254;0.9811096;-;-;-;-;-;-;-;-;-;-;-;-;-;-;-
1513510507932;-;-;9.47435;-0.31344604;0.9020996;-;-;-;-;-;-;-;-;-;-;-;-;-;-;-
1513510507952;-;-;9.333084;-0.33738708;0.7835846;-;-;-;-;-;-;-;-;-;-;-;-;-;-;-
1513510507972;-;-;8.8602295;-0.44154358;0.8721771;-;-;-;-;-;-;-;-;-;-;-;-;-;-;-
1513510507994;-;-;8.799179;-0.5169525;1.0517426;-;-;-;-;-;-;-;-;-;-;-;-;-;-;-
1513510508014;-;-;9.011063;-0.72883606;1.3665771;-;-;-;-;-;-;-;-;-;-;-;-;-;-;-
1513510508034;-;-;9.4133;-0.8138428;1.3821411;-;-;-;-;-;-;-;-;-;-;-;-;-;-;-
1513510508055;-;-;9.392944;-0.73243713;1.1618652;-;-;-;-;-;-;-;-;-;-;-;-;-;-;-
1513510508075;-;-;9.341461;-0.5325165;1.0110321;-;-;-;-;-;-;-;-;-;-;-;-;-;-;-
1513510508095;-;-;9.233734;-0.29190063;1.0122375;-;-;-;-;-;-;-;-;-;-;-;-;-;-;-
1513510508115;-;-;9.2756195;-0.29190063;0.98350525;-;-;-;-;-;-;-;-;-;-;-;-;-;-;-
1513510508136;-;-;9.252884;-0.29908752;0.9607544;-;-;-;-;-;-;-;-;-;-;-;-;-;-;-
1513510508156;-;-;9.284012;-0.20570374;0.8015442;-;-;-;-;-;-;-;-;-;-;-;-;-;-;-
1513510508176;-;-;9.431244;-0.16859436;0.71295166;-;-;-;-;-;-;-;-;-;-;-;-;-;-;-
1513510508197;-;-;9.487518;-0.3541565;0.79914856;-;-;-;-;-;-;-;-;-;-;-;-;-;-;-
1513510508217;-;-;9.232529;-0.59954834;0.80992126;-;-;-;-;-;-;-;-;-;-;-;-;-;-;-
1513510508237;-;-;9.135559;-0.52893066;0.95477295;-;-;-;-;-;-;-;-;-;-;-;-;-;-;-
1513510508258;-;-;9.469559;-0.680954;0.8829498;-;-;-;-;-;-;-;-;-;-;-;-;-;-;-
1513510508279;-;-;9.761642;-0.58039856;0.9775238;-;-;-;-;-;-;-;-;-;-;-;-;-;-;-
1513510508299;-;-;9.603638;-0.31225586;1.1882019;-;-;-;-;-;-;-;-;-;-;-;-;-;-;-
1513510508319;-;-;9.365402;-0.29908752;1.018219;-;-;-;-;-;-;-;-;-;-;-;-;-;-;-
1513510508339;-;-;9.258865;-0.4044342;0.9859009;-;-;-;-;-;-;-;-;-;-;-;-;-;-;-
1513510508359;-;-;9.062546;-0.65701294;0.88653564;-;-;-;-;-;-;-;-;-;-;-;-;-;-;-
1513510508379;-;-;8.918884;-0.8126373;0.49388123;-;-;-;-;-;-;-;-;-;-;-;-;-;-;-
1513510508399;-;-;8.918884;-0.88446045;0.40888977;-;-;-;-;-;-;-;-;-;-;-;-;-;-;-
1513510508420;-;-;8.831497;-0.76116943;0.63035583;-;-;-;-;-;-;-;-;-;-;-;-;-;-;-
1513510508439;-;-;8.829102;-0.6821594;0.7345123;-;-;-;-;-;-;-;-;-;-;-;-;-;-;-
1513510508459;-;-;8.811157;-0.7276459;0.70817566;-;-;-;-;-;-;-;-;-;-;-;-;-;-;-
1513510508479;-;-;9.064941;-0.6977234;0.75605774;-;-;-;-;-;-;-;-;-;-;-;-;-;-;-
1513510508500;-;-;9.755661;-0.44752502;0.95477295;-;-;-;-;-;-;-;-;-;-;-;-;-;-;-
1513510508519;-;-;10.252457;-0.112335205;1.0673065;-;-;-;-;-;-;-;-;-;-;-;-;-;-;-
1513510508539;-;-;10.433228;0.43354797;1.3881226;-;-;-;-;-;-;-;-;-;-;-;-;-;-;-
1513510508559;-;-;9.627579;0.086380005;1.9052734;-;-;-;-;-;-;-;-;-;-;-;-;-;-;-
1513510508580;-;-;8.578918;-1.0005798;1.6407166;-;-;-;-;-;-;-;-;-;-;-;-;-;-;-
1513510508600;-;-;7.542221;-1.3106384;1.4372101;-;-;-;-;-;-;-;-;-;-;-;-;-;-;-
1513510508620;-;-;7.317169;-1.6110992;1.9998474;-;-;-;-;-;-;-;-;-;-;-;-;-;-;-
1513510508641;-;-;8.125214;-2.0695953;1.6239471;-;-;-;-;-;-;-;-;-;-;-;-;-;-;-
1513510508661;-;-;9.550964;-1.898407;0.27243042;-;-;-;-;-;-;-;-;-;-;-;-;-;-;-
1513510508681;-;-;10.478714;-0.46907043;-0.6182251;-;-;-;-;-;-;-;-;-;-;-;-;-;-;-
1513510508701;-;-;10.28598;0.8776703;-0.57032776;-;-;-;-;-;-;-;-;-;-;-;-;-;-;-
1513510508722;-;-;9.858612;1.6270447;-0.03881836;-;-;-;-;-;-;-;-;-;-;-;-;-;-;-
1513510508742;-;-;9.240906;2.0304718;0.48910522;-;-;-;-;-;-;-;-;-;-;-;-;-;-;-
1513510508762;-;-;8.768051;1.7886658;0.9775238;-;-;-;-;-;-;-;-;-;-;-;-;-;-;-
1513510508782;-;-;8.5238495;0.6382446;0.9930725;-;-;-;-;-;-;-;-;-;-;-;-;-;-;-
1513510508803;-;-;8.802765;-0.6402588;0.86380005;-;-;-;-;-;-;-;-;-;-;-;-;-;-;-
1513510508823;-;-;9.3941345;-1.6470184;0.7967529;-;-;-;-;-;-;-;-;-;-;-;-;-;-;-
1513510508843;-;-;9.531799;-1.7487793;0.45916748;-;-;-;-;-;-;-;-;-;-;-;-;-;-;-
1513510508864;-;-;9.687424;-1.1143036;-0.09269714;-;-;-;-;-;-;-;-;-;-;-;-;-;-;-
1513510508884;-;-;9.761642;-0.41760254;-0.33450317;-;-;-;-;-;-;-;-;-;-;-;-;-;-;-
1513510508904;-;-;9.523422;0.0756073;-0.19802856;-;-;-;-;-;-;-;-;-;-;-;-;-;-;-
1513510508924;-;-;9.206192;0.1438446;0.070114136;-;-;-;-;-;-;-;-;-;-;-;-;-;-;-
1513510508945;-;-;8.997894;-0.13388062;0.2233429;-;-;-;-;-;-;-;-;-;-;-;-;-;-;-
1513510508965;-;-;8.957199;-0.71447754;0.5597229;-;-;-;-;-;-;-;-;-;-;-;-;-;-;-
1513510508986;-;-;9.015854;-1.2675323;0.7428894;-;-;-;-;-;-;-;-;-;-;-;-;-;-;-
1513510509006;-;-;9.184647;-1.5249176;0.6746521;-;-;-;-;-;-;-;-;-;-;-;-;-;-;-
1513510509026;-;-;9.491104;-1.3704834;0.6243744;-;-;-;-;-;-;-;-;-;-;-;-;-;-;-
1513510509047;-;-;9.700592;-0.7480011;0.50704956;-;-;-;-;-;-;-;-;-;-;-;-;-;-;-
1513510509067;-;-;9.51265;-0.29429626;0.36698914;-;-;-;-;-;-;-;-;-;-;-;-;-;-;-
1513510509087;-;-;9.382172;-0.09197998;0.3430481;-;-;-;-;-;-;-;-;-;-;-;-;-;-;-
1513510509107;-;-;9.228943;-0.210495;0.27720642;-;-;-;-;-;-;-;-;-;-;-;-;-;-;-
1513510509128;-;-;9.226547;-0.32901;0.19821167;-;-;-;-;-;-;-;-;-;-;-;-;-;-;-
1513510509149;-;-;9.288788;-0.45710754;0.255661;-;-;-;-;-;-;-;-;-;-;-;-;-;-;-
1513510509169;-;-;9.29837;-0.59117126;0.22692871;-;-;-;-;-;-;-;-;-;-;-;-;-;-;-
1513510509190;-;-;9.179855;-0.70729065;0.2640381;-;-;-;-;-;-;-;-;-;-;-;-;-;-;-
1513510509210;-;-;9.2313385;-0.74560547;0.33467102;-;-;-;-;-;-;-;-;-;-;-;-;-;-;-
1513510509231;-;-;9.339081;-0.7910919;0.3131256;-;-;-;-;-;-;-;-;-;-;-;-;-;-;-
1513510509251;-;-;9.330688;-0.7982788;0.36340332;-;-;-;-;-;-;-;-;-;-;-;-;-;-;-
1513510509272;-;-;9.278015;-0.838974;0.36221313;-;-;-;-;-;-;-;-;-;-;-;-;-;-;-
1513510509292;-;-;9.31752;-0.8377838;0.2987671;-;-;-;-;-;-;-;-;-;-;-;-;-;-;-
1513510509312;-;-;9.347458;-0.7515869;0.27243042;-;-;-;-;-;-;-;-;-;-;-;-;-;-;-
1513510509333;-;-;9.353439;-0.6941223;0.19940186;-;-;-;-;-;-;-;-;-;-;-;-;-;-;-
1513510509353;-;-;9.309143;-0.7527771;0.22215271;-;-;-;-;-;-;-;-;-;-;-;-;-;-;-
1513510509374;-;-;9.278015;-0.69532776;0.2628479;-;-;-;-;-;-;-;-;-;-;-;-;-;-;-
1513510509395;-;-;9.274429;-0.5600586;0.35861206;-;-;-;-;-;-;-;-;-;-;-;-;-;-;-
1513510509414;-;-;9.288788;-0.4152069;0.30593872;-;-;-;-;-;-;-;-;-;-;-;-;-;-;-
1513510509435;-;-;9.278015;-0.3481598;0.26045227;-;-;-;-;-;-;-;-;-;-;-;-;-;-;-
1513510509455;-;-;9.285202;-0.31225586;0.25686646;-;-;-;-;-;-;-;-;-;-;-;-;-;-;-
1513510509475;-;-;9.322311;-0.4044342;0.26524353;-;-;-;-;-;-;-;-;-;-;-;-;-;-;-
1513510509496;-;-;9.410904;-0.3936615;0.15750122;-;-;-;-;-;-;-;-;-;-;-;-;-;-;-
1513510509516;-;-;9.269638;-0.35534668;0.07849121;-;-;-;-;-;-;-;-;-;-;-;-;-;-;-
1513510509537;-;-;9.221756;-0.3146515;0.14074707;-;-;-;-;-;-;-;-;-;-;-;-;-;-;-
1513510509558;-;-;9.2313385;-0.26914978;0.2233429;-;-;-;-;-;-;-;-;-;-;-;-;-;-;-
1513510509578;-;-;9.234924;-0.210495;0.27601624;-;-;-;-;-;-;-;-;-;-;-;-;-;-;-
1513510509599;-;-;9.281616;-0.1410675;0.17306519;-;-;-;-;-;-;-;-;-;-;-;-;-;-;-
1513510509619;-;-;9.341461;-0.1697998;0.103637695;-;-;-;-;-;-;-;-;-;-;-;-;-;-;-
1513510509640;-;-;9.348648;-0.24162292;0.05455017;-;-;-;-;-;-;-;-;-;-;-;-;-;-;-
1513510509660;-;-;9.352234;-0.35534668;0.07849121;-;-;-;-;-;-;-;-;-;-;-;-;-;-;-
1513510509680;-;-;9.329498;-0.39485168;0.15870667;-;-;-;-;-;-;-;-;-;-;-;-;-;-;-
1513510509700;-;-;9.2756195;-0.42956543;0.20658875;-;-;-;-;-;-;-;-;-;-;-;-;-;-;-
1513510509720;-;-;9.214569;-0.4379425;0.27720642;-;-;-;-;-;-;-;-;-;-;-;-;-;-;-
1513510509741;-;-;9.175064;-0.4439392;0.26763916;-;-;-;-;-;-;-;-;-;-;-;-;-;-;-
1513510509762;-;-;9.257675;-0.4954071;0.24369812;-;-;-;-;-;-;-;-;-;-;-;-;-;-;-
1513510509783;-;-;9.348648;-0.5528717;0.23651123;-;-;-;-;-;-;-;-;-;-;-;-;-;-;-
1513510509803;-;-;9.346252;-0.60913086;0.24249268;-;-;-;-;-;-;-;-;-;-;-;-;-;-;-
1513510509824;-;-;9.382172;-0.70370483;0.30116272;-;-;-;-;-;-;-;-;-;-;-;-;-;-;-
1513510509844;-;-;9.390549;-0.8688965;0.36460876;-;-;-;-;-;-;-;-;-;-;-;-;-;-;-
1513510509864;-;-;9.365402;-0.99220276;0.3885498;-;-;-;-;-;-;-;-;-;-;-;-;-;-;-
1513510509885;-;-;9.415695;-1.028122;0.3322754;-;-;-;-;-;-;-;-;-;-;-;-;-;-;-
1513510509905;-;-;9.41449;-1.0688171;0.25805664;-;-;-;-;-;-;-;-;-;-;-;-;-;-;-
1513510509925;-;-;9.280411;-0.98143005;0.19940186;-;-;-;-;-;-;-;-;-;-;-;-;-;-;-
1513510509946;-;-;9.221756;-0.704895;0.23532104;-;-;-;-;-;-;-;-;-;-;-;-;-;-;-
1513510509966;-;-;9.202606;-0.38887024;0.3418579;-;-;-;-;-;-;-;-;-;-;-;-;-;-;-
1513510509987;-;-;9.102051;-0.23803711;0.48789978;-;-;-;-;-;-;-;-;-;-;-;-;-;-;-
1513510510007;-;-;9.175064;-0.289505;0.4184723;-;-;-;-;-;-;-;-;-;-;-;-;-;-;-
1513510510027;-;-;9.288788;-0.32781982;0.21736145;-;-;-;-;-;-;-;-;-;-;-;-;-;-;-
1513510510047;-;-;9.329498;-0.25479126;0.082092285;-;-;-;-;-;-;-;-;-;-;-;-;-;-;-
1513510510068;-;-;9.347458;-0.23324585;0.13476563;-;-;-;-;-;-;-;-;-;-;-;-;-;-;-
1513510510088;-;-;9.346252;-0.13148499;0.103637695;-;-;-;-;-;-;-;-;-;-;-;-;-;-;-
1513510510109;-;-;9.252884;-0.0728302;0.22453308;-;-;-;-;-;-;-;-;-;-;-;-;-;-;-
1513510510129;-;-;9.325912;0.0181427;0.3215027;-;-;-;-;-;-;-;-;-;-;-;-;-;-;-
1513510510149;-;-;9.337875;0.06842041;0.3789673;-;-;-;-;-;-;-;-;-;-;-;-;-;-;-
1513510510170;-;-;9.306747;0.012161255;0.36698914;-;-;-;-;-;-;-;-;-;-;-;-;-;-;-
1513510510190;-;-;9.242111;-0.05847168;0.31910706;-;-;-;-;-;-;-;-;-;-;-;-;-;-;-
1513510510210;-;-;9.178665;-0.10395813;0.2808075;-;-;-;-;-;-;-;-;-;-;-;-;-;-;-
1513510510231;-;-;9.193024;-0.07043457;0.3789673;-;-;-;-;-;-;-;-;-;-;-;-;-;-;-
1513510510251;-;-;9.214569;-0.08480835;0.35861206;-;-;-;-;-;-;-;-;-;-;-;-;-;-;-
1513510510272;-;-;9.224152;-0.081207275;0.3705902;-;-;-;-;-;-;-;-;-;-;-;-;-;-;-
1513510510291;-;-;9.306747;-0.059661865;0.36819458;-;-;-;-;-;-;-;-;-;-;-;-;-;-;-
1513510510311;-;-;9.391739;0.014556885;0.37538147;-;-;-;-;-;-;-;-;-;-;-;-;-;-;-
1513510510331;-;-;9.3103485;0.026535034;0.23532104;-;-;-;-;-;-;-;-;-;-;-;-;-;-;-
1513510510352;-;-;9.2708435;0.031311035;0.14074707;-;-;-;-;-;-;-;-;-;-;-;-;-;-;-
1513510510371;-;-;9.240906;0.06842041;0.04019165;-;-;-;-;-;-;-;-;-;-;-;-;-;-;-
1513510510391;-;-;9.199005;-0.0069885254;0.05455017;-;-;-;-;-;-;-;-;-;-;-;-;-;-;-
1513510510412;-;-;9.292389;-0.05847168;0.12757874;-;-;-;-;-;-;-;-;-;-;-;-;-;-;-
1513510510432;-;-;9.397736;-0.054870605;0.070114136;-;-;-;-;-;-;-;-;-;-;-;-;-;-;-
1513510510452;-;-;9.348648;-0.05607605;0.03779602;-;-;-;-;-;-;-;-;-;-;-;-;-;-;-
1513510510473;-;-;9.263657;-0.097976685;0.0856781;-;-;-;-;-;-;-;-;-;-;-;-;-;-;-
1513510510493;-;-;9.264847;-0.17936707;0.23171997;-;-;-;-;-;-;-;-;-;-;-;-;-;-;-
1513510510513;-;-;9.282806;-0.33499146;0.25686646;-;-;-;-;-;-;-;-;-;-;-;-;-;-;-
1513510510533;-;-;9.303162;-0.38887024;0.24009705;-;-;-;-;-;-;-;-;-;-;-;-;-;-;-
1513510510554;-;-;9.269638;-0.3433838;0.11680603;-;-;-;-;-;-;-;-;-;-;-;-;-;-;-
1513510510574;-;-;9.222961;-0.3074646;0.15510559;-;-;-;-;-;-;-;-;-;-;-;-;-;-;-
1513510510594;-;-;9.287598;-0.20451355;0.12159729;-;-;-;-;-;-;-;-;-;-;-;-;-;-;-
1513510510615;-;-;9.328293;-0.13867188;0.06413269;-;-;-;-;-;-;-;-;-;-;-;-;-;-;-
1513510510635;-;-;9.226547;-0.057266235;0.08807373;-;-;-;-;-;-;-;-;-;-;-;-;-;-;-
1513510510655;-;-;9.281616;0.07800293;0.106033325;-;-;-;-;-;-;-;-;-;-;-;-;-;-;-
1513510510675;-;-;9.330688;0.23242188;-0.0053100586;-;-;-;-;-;-;-;-;-;-;-;-;-;-;-
1513510510696;-;-;9.214569;0.34376526;-0.011291504;-;-;-;-;-;-;-;-;-;-;-;-;-;-;-
1513510510716;-;-;9.214569;0.3282013;0.12637329;-;-;-;-;-;-;-;-;-;-;-;-;-;-;-
1513510510737;-;-;9.2756195;0.25038147;0.28678894;-;-;-;-;-;-;-;-;-;-;-;-;-;-;-
1513510510757;-;-;9.299576;0.14863586;0.34425354;-;-;-;-;-;-;-;-;-;-;-;-;-;-;-
1513510510777;-;-;9.307953;0.081588745;0.21855164;-;-;-;-;-;-;-;-;-;-;-;-;-;-;-
1513510510797;-;-;9.293579;0.13786316;0.05934143;-;-;-;-;-;-;-;-;-;-;-;-;-;-;-
1513510510818;-;-;9.250488;0.14503479;0.13116455;-;-;-;-;-;-;-;-;-;-;-;-;-;-;-
1513510510838;-;-;9.196625;0.043289185;0.19700623;-;-;-;-;-;-;-;-;-;-;-;-;-;-;-
1513510510858;-;-;9.205002;-0.040512085;0.25686646;-;-;-;-;-;-;-;-;-;-;-;-;-;-;-
1513510510879;-;-;9.163101;-0.08241272;0.36698914;-;-;-;-;-;-;-;-;-;-;-;-;-;-;-
1513510510899;-;-;9.262466;-0.03213501;0.3885498;-;-;-;-;-;-;-;-;-;-;-;-;-;-;-
1513510510919;-;-;9.330688;0.081588745;0.31791687;-;-;-;-;-;-;-;-;-;-;-;-;-;-;-
1513510510940;-;-;9.347458;0.25875854;0.16468811;-;-;-;-;-;-;-;-;-;-;-;-;-;-;-
1513510510960;-;-;9.280411;0.29826355;0.1144104;-;-;-;-;-;-;-;-;-;-;-;-;-;-;-
1513510510980;-;-;9.249298;0.28988647;0.20298767;-;-;-;-;-;-;-;-;-;-;-;-;-;-;-
1513510511001;-;-;9.146347;0.21806335;0.27243042;-;-;-;-;-;-;-;-;-;-;-;-;-;-;-
1513510511020;-;-;9.187042;0.14503479;0.350235;-;-;-;-;-;-;-;-;-;-;-;-;-;-;-
1513510511040;-;-;9.272034;0.17376709;0.40769958;-;-;-;-;-;-;-;-;-;-;-;-;-;-;-
1513510511061;-;-;9.210983;0.02293396;0.49987793;-;-;-;-;-;-;-;-;-;-;-;-;-;-;-
1513510511081;-;-;9.23613;0.01574707;0.4388275;-;-;-;-;-;-;-;-;-;-;-;-;-;-;-
1513510511102;-;-;9.325912;-0.12550354;0.46037292;-;-;-;-;-;-;-;-;-;-;-;-;-;-;-
1513510511122;-;-;9.276825;-0.30387878;0.46754456;-;-;-;-;-;-;-;-;-;-;-;-;-;-;-
1513510511142;-;-;9.361816;-0.25360107;0.3705902;-;-;-;-;-;-;-;-;-;-;-;-;-;-;-
1513510511162;-;-;9.465973;-0.1877594;0.27960205;-;-;-;-;-;-;-;-;-;-;-;-;-;-;-
1513510511183;-;-;9.436035;-0.1817627;0.15989685;-;-;-;-;-;-;-;-;-;-;-;-;-;-;-
1513510511203;-;-;9.39653;-0.20809937;0.120391846;-;-;-;-;-;-;-;-;-;-;-;-;-;-;-
1513510511224;-;-;9.388153;-0.3361969;0.29995728;-;-;-;-;-;-;-;-;-;-;-;-;-;-;-
1513510511243;-;-;9.533005;-0.46188354;0.15989685;-;-;-;-;-;-;-;-;-;-;-;-;-;-;-
1513510511263;-;-;9.922058;-0.07522583;-0.4051361;-;-;-;-;-;-;-;-;-;-;-;-;-;-;-
1513510511284;-;-;10.059723;0.24081421;-0.5535736;-;-;-;-;-;-;-;-;-;-;-;-;-;-;-
1513510511304;-;-;9.603638;0.3425598;-0.39076233;-;-;-;-;-;-;-;-;-;-;-;-;-;-;-
1513510511324;-;-;9.9986725;0.68133545;0.120391846;-;-;-;-;-;-;-;-;-;-;-;-;-;-;-
1513510511345;-;-;9.566528;0.53889465;-0.1776886;-;-;-;-;-;-;-;-;-;-;-;-;-;-;-
1513510511365;-;-;9.3701935;0.25398254;-0.15493774;-;-;-;-;-;-;-;-;-;-;-;-;-;-;-
1513510511385;-;-;8.922485;-0.02734375;-0.23873901;-;-;-;-;-;-;-;-;-;-;-;-;-;-;-
1513510511405;-;-;9.001495;-0.124313354;-0.20881653;-;-;-;-;-;-;-;-;-;-;-;-;-;-;-
1513510511426;-;-;9.262466;0.0025787354;-0.159729;-;-;-;-;-;-;-;-;-;-;-;-;-;-;-
1513510511446;-;-;9.407303;0.22644043;-0.111846924;-;-;-;-;-;-;-;-;-;-;-;-;-;-;-
1513510511466;-;-;9.196625;0.5269165;-0.52604675;-;-;-;-;-;-;-;-;-;-;-;-;-;-;-
1513510511488;-;-;9.21817;1.0931396;-0.60624695;-;-;-;-;-;-;-;-;-;-;-;-;-;-;-
1513510511507;-;-;9.51265;1.1003265;-0.58709717;-;-;-;-;-;-;-;-;-;-;-;-;-;-;-
1513510511528;-;-;9.452805;1.1386414;-0.15853882;-;-;-;-;-;-;-;-;-;-;-;-;-;-;-
1513510511547;-;-;9.115219;1.1051178;0.025817871;-;-;-;-;-;-;-;-;-;-;-;-;-;-;-
1513510511567;-;-;8.307175;1.0727997;0.004272461;-;-;-;-;-;-;-;-;-;-;-;-;-;-;-
1513510511588;-;-;8.048599;1.3158112;0.062927246;-;-;-;-;-;-;-;-;-;-;-;-;-;-;-
1513510511607;-;-;8.339493;1.2475739;-0.5691376;-;-;-;-;-;-;-;-;-;-;-;-;-;-;-
1513510511628;-;-;8.6423645;1.2918701;-1.0228424;-;-;-;-;-;-;-;-;-;-;-;-;-;-;-
1513510511648;-;-;8.503494;1.4355164;-1.1054382;-;-;-;-;-;-;-;-;-;-;-;-;-;-;-
1513510511669;-;-;8.641159;1.4319305;-0.94143677;-;-;-;-;-;-;-;-;-;-;-;-;-;-;-
1513510511689;-;-;9.461182;1.6869049;-0.6409607;-;-;-;-;-;-;-;-;-;-;-;-;-;-;-
1513510511710;-;-;9.091278;1.4295349;-0.9294586;-;-;-;-;-;-;-;-;-;-;-;-;-;-;-
1513510511730;-;-;8.924881;1.3325653;-0.9953003;-;-;-;-;-;-;-;-;-;-;-;-;-;-;-
1513510511750;-;-;9.894531;0.92555237;-0.9761505;-;-;-;-;-;-;-;-;-;-;-;-;-;-;-
1513510511771;-;-;10.036987;1.0524445;-0.9797363;-;-;-;-;-;-;-;-;-;-;-;-;-;-;-
1513510511790;-;-;9.293579;1.4259338;-1.1497345;-;-;-;-;-;-;-;-;-;-;-;-;-;-;-
1513510511811;-;-;8.894943;1.5540314;-1.0982513;-;-;-;-;-;-;-;-;-;-;-;-;-;-;-
1513510511832;-;-;8.751297;1.4486847;-0.82292175;-;-;-;-;-;-;-;-;-;-;-;-;-;-;-
1513510511852;-;-;8.807556;1.006958;-0.7678528;-;-;-;-;-;-;-;-;-;-;-;-;-;-;-
1513510511873;-;-;8.794388;1.0608215;-0.7307434;-;-;-;-;-;-;-;-;-;-;-;-;-;-;-
1513510511893;-;-;9.264847;1.0739899;-0.69602966;-;-;-;-;-;-;-;-;-;-;-;-;-;-;-
1513510511913;-;-;9.463577;1.169754;-0.5439911;-;-;-;-;-;-;-;-;-;-;-;-;-;-;-
1513510511934;-;-;9.328293;1.1170807;-0.3153534;-;-;-;-;-;-;-;-;-;-;-;-;-;-;-
1513510511956;-;-;9.37738;1.0955353;0.12397766;-;-;-;-;-;-;-;-;-;-;-;-;-;-;-
1513510511976;-;-;9.31752;1.0739899;0.44241333;-;-;-;-;-;-;-;-;-;-;-;-;-;-;-
1513510511996;-;-;9.210983;0.85372925;0.54296875;-;-;-;-;-;-;-;-;-;-;-;-;-;-;-
1513510512017;-;-;9.189438;0.9530792;0.46635437;-;-;-;-;-;-;-;-;-;-;-;-;-;-;-
1513510512037;-;-;8.928467;1.1182861;0.38375854;-;-;-;-;-;-;-;-;-;-;-;-;-;-;-
1513510512057;-;-;8.674683;0.8513336;0.21138;-;-;-;-;-;-;-;-;-;-;-;-;-;-;-
1513510512078;-;-;8.807556;0.5053711;0.06413269;-;-;-;-;-;-;-;-;-;-;-;-;-;-;-
1513510512098;-;-;9.151123;0.22883606;-0.085510254;-;-;-;-;-;-;-;-;-;-;-;-;-;-;-
1513510512119;-;-;9.382172;0.038497925;-0.13697815;-;-;-;-;-;-;-;-;-;-;-;-;-;-;-
1513510512139;-;-;9.600037;-0.009384155;-0.2291565;-;-;-;-;-;-;-;-;-;-;-;-;-;-;-
1513510512160;-;-;9.649124;0.07081604;-0.5715332;-;-;-;-;-;-;-;-;-;-;-;-;-;-;-
1513510512180;-;-;9.401321;0.2886963;-0.8600311;-;-;-;-;-;-;-;-;-;-;-;-;-;-;-
1513510512201;-;-;9.328293;0.57121277;-0.7965851;-;-;-;-;-;-;-;-;-;-;-;-;-;-;-
1513510512221;-;-;9.436035;0.70887756;-0.590683;-;-;-;-;-;-;-;-;-;-;-;-;-;-;-
1513510512241;-;-;9.415695;0.7184448;-0.33570862;-;-;-;-;-;-;-;-;-;-;-;-;-;-;-
1513510512262;-;-;9.25647;0.77111816;-0.28182983;-;-;-;-;-;-;-;-;-;-;-;-;-;-;-
1513510512282;-;-;9.091278;0.68852234;-0.27464294;-;-;-;-;-;-;-;-;-;-;-;-;-;-;-
1513510512303;-;-;9.262466;0.45988464;-0.23873901;-;-;-;-;-;-;-;-;-;-;-;-;-;-;-
1513510512323;-;-;9.328293;0.37727356;-0.06036377;-;-;-;-;-;-;-;-;-;-;-;-;-;-;-
1513510512344;-;-;9.424072;0.28630066;0.022232056;-;-;-;-;-;-;-;-;-;-;-;-;-;-;-
1513510512364;-;-;9.608414;0.09236145;0.22453308;-;-;-;-;-;-;-;-;-;-;-;-;-;-;-
1513510512384;-;-;9.592865;-0.03930664;0.33348083;-;-;-;-;-;-;-;-;-;-;-;-;-;-;-
1513510512405;-;-;9.458786;-0.04888916;0.45318604;-;-;-;-;-;-;-;-;-;-;-;-;-;-;-
1513510512427;-;-;9.286407;0.03491211;0.43643188;-;-;-;-;-;-;-;-;-;-;-;-;-;-;-
1513510512447;-;-;8.991913;-0.047698975;0.40888977;-;-;-;-;-;-;-;-;-;-;-;-;-;-;-
1513510512467;-;-;9.029022;-0.014175415;0.35263062;-;-;-;-;-;-;-;-;-;-;-;-;-;-;-
1513510512487;-;-;9.147537;0.083984375;0.3131256;-;-;-;-;-;-;-;-;-;-;-;-;-;-;-
1513510512507;-;-;9.249298;0.2886963;0.38136292;-;-;-;-;-;-;-;-;-;-;-;-;-;-;-
1513510512528;-;-;9.278015;0.39404297;0.4280548;-;-;-;-;-;-;-;-;-;-;-;-;-;-;-
1513510512548;-;-;9.33548;0.46466064;0.4280548;-;-;-;-;-;-;-;-;-;-;-;-;-;-;-
1513510512568;-;-;9.33548;0.3317871;0.3885498;-;-;-;-;-;-;-;-;-;-;-;-;-;-;-
1513510512589;-;-;9.3701935;0.01574707;0.18383789;-;-;-;-;-;-;-;-;-;-;-;-;-;-;-
1513510512609;-;-;9.385757;-0.071640015;0.017440796;-;-;-;-;-;-;-;-;-;-;-;-;-;-;-
1513510512630;-;-;9.2756195;-0.22007751;0.18025208;-;-;-;-;-;-;-;-;-;-;-;-;-;-;-
1513510512650;-;-;9.190628;-0.54089355;0.13595581;-;-;-;-;-;-;-;-;-;-;-;-;-;-;-
1513510512671;-;-;9.242111;-0.5325165;-0.087905884;-;-;-;-;-;-;-;-;-;-;-;-;-;-;-
1513510512690;-;-;9.464767;-0.52653503;-0.2674713;-;-;-;-;-;-;-;-;-;-;-;-;-;-;-
1513510512710;-;-;9.527023;-0.34457397;-0.4242859;-;-;-;-;-;-;-;-;-;-;-;-;-;-;-
1513510512731;-;-;9.333084;0.21687317;-0.6601105;-;-;-;-;-;-;-;-;-;-;-;-;-;-;-
1513510512751;-;-;9.23732;0.6861267;-0.6840515;-;-;-;-;-;-;-;-;-;-;-;-;-;-;-
1513510512771;-;-;9.278015;0.8202057;-0.6337738;-;-;-;-;-;-;-;-;-;-;-;-;-;-;-
1513510512792;-;-;9.365402;0.72802734;-0.48414612;-;-;-;-;-;-;-;-;-;-;-;-;-;-;-
1513510512812;-;-;9.189438;0.46347046;-0.38478088;-;-;-;-;-;-;-;-;-;-;-;-;-;-;-
1513510512832;-;-;9.208588;0.44311523;-0.35246277;-;-;-;-;-;-;-;-;-;-;-;-;-;-;-
1513510512853;-;-;9.215775;0.54008484;-0.3153534;-;-;-;-;-;-;-;-;-;-;-;-;-;-;-
1513510512874;-;-;9.23732;0.6669769;-0.30218506;-;-;-;-;-;-;-;-;-;-;-;-;-;-;-
1513510512894;-;-;9.264847;0.8118286;-0.26507568;-;-;-;-;-;-;-;-;-;-;-;-;-;-;-
1513510512915;-;-;9.110428;0.7819061;-0.11064148;-;-;-;-;-;-;-;-;-;-;-;-;-;-;-
1513510512935;-;-;8.990723;0.5065613;-0.029251099;-;-;-;-;-;-;-;-;-;-;-;-;-;-;-
1513510512955;-;-;9.041;0.19293213;-0.029251099;-;-;-;-;-;-;-;-;-;-;-;-;-;-;-
1513510512976;-;-;9.23732;0.119903564;0.034194946;-;-;-;-;-;-;-;-;-;-;-;-;-;-;-
1513510512995;-;-;9.3546295;0.14982605;-0.040023804;-;-;-;-;-;-;-;-;-;-;-;-;-;-;-
1513510513016;-;-;9.278015;0.1905365;-0.13697815;-;-;-;-;-;-;-;-;-;-;-;-;-;-;-
1513510513037;-;-;9.273239;0.09715271;-0.1884613;-;-;-;-;-;-;-;-;-;-;-;-;-;-;-
1513510513056;-;-;9.434845;0.107925415;-0.20162964;-;-;-;-;-;-;-;-;-;-;-;-;-;-;-
1513510513077;-;-;9.420471;0.124694824;-0.12620544;-;-;-;-;-;-;-;-;-;-;-;-;-;-;-
1513510513097;-;-;9.406113;0.3102417;-0.30577087;-;-;-;-;-;-;-;-;-;-;-;-;-;-;-
1513510513117;-;-;9.37738;0.55085754;-0.43147278;-;-;-;-;-;-;-;-;-;-;-;-;-;-;-
1513510513138;-;-;9.360626;0.67056274;-0.36921692;-;-;-;-;-;-;-;-;-;-;-;-;-;-;-
1513510513158;-;-;9.230133;0.73521423;-0.21838379;-;-;-;-;-;-;-;-;-;-;-;-;-;-;-
1513510513179;-;-;9.151123;0.71965027;-0.21000671;-;-;-;-;-;-;-;-;-;-;-;-;-;-;-
1513510513198;-;-;9.161896;0.61550903;-0.24472046;-;-;-;-;-;-;-;-;-;-;-;-;-;-;-
1513510513218;-;-;9.279221;0.36410522;-0.16810608;-;-;-;-;-;-;-;-;-;-;-;-;-;-;-
1513510513239;-;-;9.273239;-0.02973938;-0.15853882;-;-;-;-;-;-;-;-;-;-;-;-;-;-;-
1513510513258;-;-;9.2708435;-0.13748169;-0.22796631;-;-;-;-;-;-;-;-;-;-;-;-;-;-;-
1513510513278;-;-;9.340271;0.10194397;-0.46499634;-;-;-;-;-;-;-;-;-;-;-;-;-;-;-
1513510513299;-;-;9.3941345;0.6430359;-0.55477905;-;-;-;-;-;-;-;-;-;-;-;-;-;-;-
1513510513319;-;-;9.29718;0.78907776;-0.417099;-;-;-;-;-;-;-;-;-;-;-;-;-;-;-
1513510513340;-;-;9.187042;0.76634216;-0.34048462;-;-;-;-;-;-;-;-;-;-;-;-;-;-;-
1513510513361;-;-;9.250488;0.62268066;-0.31056213;-;-;-;-;-;-;-;-;-;-;-;-;-;-;-
1513510513381;-;-;9.267242;0.7016907;-0.39076233;-;-;-;-;-;-;-;-;-;-;-;-;-;-;-
1513510513402;-;-;9.136765;0.8740692;-0.3584442;-;-;-;-;-;-;-;-;-;-;-;-;-;-;-
1513510513422;-;-;9.099655;0.8154144;-0.2854309;-;-;-;-;-;-;-;-;-;-;-;-;-;-;-
1513510513441;-;-;9.206192;0.7232361;-0.17170715;-;-;-;-;-;-;-;-;-;-;-;-;-;-;-
1513510513462;-;-;9.205002;0.63705444;-0.05558777;-;-;-;-;-;-;-;-;-;-;-;-;-;-;-
1513510513482;-;-;9.2313385;0.59754944;0.0030822754;-;-;-;-;-;-;-;-;-;-;-;-;-;-;-
1513510513503;-;-;9.185837;0.5257263;-0.05319214;-;-;-;-;-;-;-;-;-;-;-;-;-;-;-
1513510513523;-;-;9.183456;0.32580566;-0.054382324;-;-;-;-;-;-;-;-;-;-;-;-;-;-;-
1513510513544;-;-;9.209793;-0.06564331;0.062927246;-;-;-;-;-;-;-;-;-;-;-;-;-;-;-
1513510513565;-;-;9.225342;-0.30625916;-0.11424255;-;-;-;-;-;-;-;-;-;-;-;-;-;-;-
1513510513585;-;-;9.268448;-0.34936523;-0.33450317;-;-;-;-;-;-;-;-;-;-;-;-;-;-;-
1513510513605;-;-;9.482727;-0.27514648;-0.50927734;-;-;-;-;-;-;-;-;-;-;-;-;-;-;-
1513510513626;-;-;9.627579;0.04927063;-0.51646423;-;-;-;-;-;-;-;-;-;-;-;-;-;-;-
1513510513646;-;-;9.455185;0.74838257;-0.4637909;-;-;-;-;-;-;-;-;-;-;-;-;-;-;-
1513510513666;-;-;9.242111;1.1470184;-0.42907715;-;-;-;-;-;-;-;-;-;-;-;-;-;-;-
1513510513687;-;-;9.268448;1.1278534;-0.39196777;-;-;-;-;-;-;-;-;-;-;-;-;-;-;-
1513510513707;-;-;9.248093;0.8345642;-0.40034485;-;-;-;-;-;-;-;-;-;-;-;-;-;-;-
1513510513727;-;-;9.015854;0.48501587;-0.333313;-;-;-;-;-;-;-;-;-;-;-;-;-;-;-
1513510513747;-;-;9.023041;0.29109192;-0.20881653;-;-;-;-;-;-;-;-;-;-;-;-;-;-;-
1513510513768;-;-;9.173874;0.39283752;-0.014877319;-;-;-;-;-;-;-;-;-;-;-;-;-;-;-
1513510513789;-;-;9.348648;0.5855713;-0.012481689;-;-;-;-;-;-;-;-;-;-;-;-;-;-;-
1513510513809;-;-;9.287598;0.8010559;-0.05079651;-;-;-;-;-;-;-;-;-;-;-;-;-;-;-
1513510513830;-;-;9.242111;0.88723755;-0.120224;-;-;-;-;-;-;-;-;-;-;-;-;-;-;-
1513510513850;-;-;9.227737;0.76634216;-0.24951172;-;-;-;-;-;-;-;-;-;-;-;-;-;-;-
1513510513870;-;-;9.116409;0.6131134;-0.35006714;-;-;-;-;-;-;-;-;-;-;-;-;-;-;-
1513510513891;-;-;9.136765;0.5771942;-0.35006714;-;-;-;-;-;-;-;-;-;-;-;-;-;-;-
1513510513912;-;-;9.264847;0.60832214;-0.2973938;-;-;-;-;-;-;-;-;-;-;-;-;-;-;-
1513510513933;-;-;9.43364;0.4909973;-0.32254028;-;-;-;-;-;-;-;-;-;-;-;-;-;-;-
1513510513954;-;-;9.444412;0.49339294;-0.36442566;-;-;-;-;-;-;-;-;-;-;-;-;-;-;-
1513510513974;-;-;9.327103;0.51374817;-0.31056213;-;-;-;-;-;-;-;-;-;-;-;-;-;-;-
1513510513995;-;-;9.21936;0.5783844;-0.22436523;-;-;-;-;-;-;-;-;-;-;-;-;-;-;-
1513510514017;-;-;9.136765;0.6059265;-0.20881653;-;-;-;-;-;-;-;-;-;-;-;-;-;-;-
1513510514036;-;-;9.15712;0.5664215;-0.15014648;-;-;-;-;-;-;-;-;-;-;-;-;-;-;-
1513510514056;-;-;9.307953;0.48143005;-0.24711609;-;-;-;-;-;-;-;-;-;-;-;-;-;-;-
1513510514076;-;-;9.284012;0.45388794;-0.2902069;-;-;-;-;-;-;-;-;-;-;-;-;-;-;-
1513510514097;-;-;9.210983;0.457489;-0.21000671;-;-;-;-;-;-;-;-;-;-;-;-;-;-;-
1513510514117;-;-;9.284012;0.4371338;-0.22317505;-;-;-;-;-;-;-;-;-;-;-;-;-;-;-
1513510514137;-;-;9.17746;0.47782898;-0.333313;-;-;-;-;-;-;-;-;-;-;-;-;-;-;-
1513510514158;-;-;9.185837;0.46705627;-0.2902069;-;-;-;-;-;-;-;-;-;-;-;-;-;-;-
1513510514179;-;-;9.263657;0.48980713;-0.17887878;-;-;-;-;-;-;-;-;-;-;-;-;-;-;-
1513510514199;-;-;9.321121;0.54008484;-0.24113464;-;-;-;-;-;-;-;-;-;-;-;-;-;-;-
1513510514219;-;-;9.31633;0.5532532;-0.3081665;-;-;-;-;-;-;-;-;-;-;-;-;-;-;-
1513510514239;-;-;9.2756195;0.62028503;-0.3584442;-;-;-;-;-;-;-;-;-;-;-;-;-;-;-
1513510514260;-;-;9.240906;0.714859;-0.38238525;-;-;-;-;-;-;-;-;-;-;-;-;-;-;-
1513510514280;-;-;9.230133;0.6609955;-0.38957214;-;-;-;-;-;-;-;-;-;-;-;-;-;-;-
1513510514301;-;-;9.262466;0.6442261;-0.4626007;-;-;-;-;-;-;-;-;-;-;-;-;-;-;-
1513510514321;-;-;9.251678;0.6178894;-0.4673767;-;-;-;-;-;-;-;-;-;-;-;-;-;-;-
1513510514342;-;-;9.220566;0.69810486;-0.43147278;-;-;-;-;-;-;-;-;-;-;-;-;-;-;-
1513510514362;-;-;9.207397;0.66578674;-0.3548584;-;-;-;-;-;-;-;-;-;-;-;-;-;-;-
1513510514383;-;-;9.228943;0.61909485;-0.3153534;-;-;-;-;-;-;-;-;-;-;-;-;-;-;-
1513510514403;-;-;9.301956;0.5736084;-0.24113464;-;-;-;-;-;-;-;-;-;-;-;-;-;-;-
1513510514424;-;-;9.342667;0.5783844;-0.29859924;-;-;-;-;-;-;-;-;-;-;-;-;-;-;-
1513510514443;-;-;9.327103;0.56521606;-0.34048462;-;-;-;-;-;-;-;-;-;-;-;-;-;-;-
1513510514464;-;-;9.262466;0.5448761;-0.24951172;-;-;-;-;-;-;-;-;-;-;-;-;-;-;-
1513510514484;-;-;9.239716;0.55804443;-0.13937378;-;-;-;-;-;-;-;-;-;-;-;-;-;-;-
1513510514505;-;-;9.199005;0.5448761;-0.026855469;-;-;-;-;-;-;-;-;-;-;-;-;-;-;-
1513510514525;-;-;9.149933;0.5053711;-0.016082764;-;-;-;-;-;-;-;-;-;-;-;-;-;-;-
1513510514546;-;-;9.17627;0.5161438;-0.056777954;-;-;-;-;-;-;-;-;-;-;-;-;-;-;-
1513510514565;-;-;9.21936;0.52093506;-0.044799805;-;-;-;-;-;-;-;-;-;-;-;-;-;-;-
1513510514585;-;-;9.166687;0.51374817;-0.06036377;-;-;-;-;-;-;-;-;-;-;-;-;-;-;-
1513510514606;-;-;9.268448;0.49220276;-0.044799805;-;-;-;-;-;-;-;-;-;-;-;-;-;-;-
1513510514626;-;-;9.254074;0.5269165;-0.11064148;-;-;-;-;-;-;-;-;-;-;-;-;-;-;-
1513510514647;-;-;9.207397;0.55804443;-0.07473755;-;-;-;-;-;-;-;-;-;-;-;-;-;-;-
1513510514667;-;-;9.346252;0.5927582;-0.109451294;-;-;-;-;-;-;-;-;-;-;-;-;-;-;-
1513510514687;-;-;9.264847;0.59155273;-0.30218506;-;-;-;-;-;-;-;-;-;-;-;-;-;-;-
1513510514708;-;-;9.23851;0.6250763;-0.13937378;-;-;-;-;-;-;-;-;-;-;-;-;-;-;-
1513510514729;-;-;9.163101;0.596344;0.021026611;-;-;-;-;-;-;-;-;-;-;-;-;-;-;-
1513510514749;-;-;9.014664;0.5664215;-0.09030151;-;-;-;-;-;-;-;-;-;-;-;-;-;-;-
1513510514770;-;-;9.136765;0.53289795;-0.23036194;-;-;-;-;-;-;-;-;-;-;-;-;-;-;-
1513510514790;-;-;9.333084;0.49339294;-0.42549133;-;-;-;-;-;-;-;-;-;-;-;-;-;-;-
1513510514810;-;-;9.404907;0.4694519;-0.3081665;-;-;-;-;-;-;-;-;-;-;-;-;-;-;-
1513510514831;-;-;9.446808;0.47543335;-0.30218506;-;-;-;-;-;-;-;-;-;-;-;-;-;-;-
1513510514850;-;-;9.295975;0.4586792;-0.36442566;-;-;-;-;-;-;-;-;-;-;-;-;-;-;-
1513510514871;-;-;9.195419;0.40361023;-0.39675903;-;-;-;-;-;-;-;-;-;-;-;-;-;-;-
1513510514891;-;-;9.17627;0.38565063;-0.23634338;-;-;-;-;-;-;-;-;-;-;-;-;-;-;-
1513510514912;-;-;9.23613;0.34376526;-0.1489563;-;-;-;-;-;-;-;-;-;-;-;-;-;-;-
1513510514932;-;-;9.25647;0.33418274;-0.020858765;-;-;-;-;-;-;-;-;-;-;-;-;-;-;-
1513510514952;-;-;9.319916;0.35453796;-5.187988E-4;-;-;-;-;-;-;-;-;-;-;-;-;-;-;-
1513510514973;-;-;9.339081;0.38804626;-0.0041046143;-;-;-;-;-;-;-;-;-;-;-;-;-;-;-
1513510514993;-;-;9.305557;0.42156982;-0.01727295;-;-;-;-;-;-;-;-;-;-;-;-;-;-;-
1513510515013;-;-;9.323517;0.43234253;-0.0914917;-;-;-;-;-;-;-;-;-;-;-;-;-;-;-
1513510515034;-;-;9.333084;0.48382568;-0.14537048;-;-;-;-;-;-;-;-;-;-;-;-;-;-;-
1513510515054;-;-;9.299576;0.5077667;-0.19204712;-;-;-;-;-;-;-;-;-;-;-;-;-;-;-
1513510515074;-;-;9.201401;0.457489;-0.19923401;-;-;-;-;-;-;-;-;-;-;-;-;-;-;-
1513510515095;-;-;9.149933;0.41677856;-0.17170715;-;-;-;-;-;-;-;-;-;-;-;-;-;-;-
1513510515115;-;-;9.202606;0.3497467;-0.2973938;-;-;-;-;-;-;-;-;-;-;-;-;-;-;-
1513510515136;-;-;9.202606;0.31622314;-0.30937195;-;-;-;-;-;-;-;-;-;-;-;-;-;-;-
1513510515156;-;-;9.286407;0.3461609;-0.3009796;-;-;-;-;-;-;-;-;-;-;-;-;-;-;-
1513510515180;-;-;9.293579;0.36410522;-0.29859924;-;-;-;-;-;-;-;-;-;-;-;-;-;-;-
1513510515201;-;-;9.242111;0.38446045;-0.04121399;-;-;-;-;-;-;-;-;-;-;-;-;-;-;-
1513510515221;-;-;9.333084;0.3892517;0.004272461;-;-;-;-;-;-;-;-;-;-;-;-;-;-;-
1513510515241;-;-;9.261261;0.4000244;-0.18606567;-;-;-;-;-;-;-;-;-;-;-;-;-;-;-
1513510515261;-;-;9.260071;0.41319275;-0.063964844;-;-;-;-;-;-;-;-;-;-;-;-;-;-;-
1513510515282;-;-;9.254074;0.40242004;0.08807373;-;-;-;-;-;-;-;-;-;-;-;-;-;-;-
1513510515302;-;-;9.261261;0.4407196;0.117996216;-;-;-;-;-;-;-;-;-;-;-;-;-;-;-
1513510515322;-;-;9.239716;0.37368774;-0.008895874;-;-;-;-;-;-;-;-;-;-;-;-;-;-;-
1513510515343;-;-;9.243301;0.41677856;-0.05558777;-;-;-;-;-;-;-;-;-;-;-;-;-;-;-
1513510515363;-;-;9.234924;0.43473816;-0.037628174;-;-;-;-;-;-;-;-;-;-;-;-;-;-;-
1513510515383;-;-;9.232529;0.44311523;0.009063721;-;-;-;-;-;-;-;-;-;-;-;-;-;-;-
1513510515403;-;-;9.251678;0.46705627;-0.016082764;-;-;-;-;-;-;-;-;-;-;-;-;-;-;-
1513510515424;-;-;9.287598;0.5269165;-0.04840088;-;-;-;-;-;-;-;-;-;-;-;-;-;-;-
1513510515444;-;-;9.2708435;0.49220276;-0.0627594;-;-;-;-;-;-;-;-;-;-;-;-;-;-;-
1513510515465;-;-;9.292389;0.47782898;-0.085510254;-;-;-;-;-;-;-;-;-;-;-;-;-;-;-
1513510515485;-;-;9.242111;0.4586792;-0.14656067;-;-;-;-;-;-;-;-;-;-;-;-;-;-;-
1513510515505;-;-;9.261261;0.42277527;-0.10107422;-;-;-;-;-;-;-;-;-;-;-;-;-;-;-
1513510515525;-;-;9.244507;0.40361023;-0.063964844;-;-;-;-;-;-;-;-;-;-;-;-;-;-;-
1513510515546;-;-;9.242111;0.4191742;-0.07473755;-;-;-;-;-;-;-;-;-;-;-;-;-;-;-
1513510515567;-;-;9.269638;0.4084015;-0.0053100586;-;-;-;-;-;-;-;-;-;-;-;-;-;-;-
1513510515587;-;-;9.244507;0.378479;-0.01008606;-;-;-;-;-;-;-;-;-;-;-;-;-;-;-
1513510515607;-;-;9.251678;0.37487793;0.07130432;-;-;-;-;-;-;-;-;-;-;-;-;-;-;-
1513510515628;-;-;9.285202;0.35453796;0.08807373;-;-;-;-;-;-;-;-;-;-;-;-;-;-;-
1513510515648;-;-;9.2708435;0.34854126;0.09286499;-;-;-;-;-;-;-;-;-;-;-;-;-;-;-
1513510515669;-;-;9.278015;0.3102417;0.110809326;-;-;-;-;-;-;-;-;-;-;-;-;-;-;-
1513510515690;-;-;9.29718;0.29588318;0.122787476;-;-;-;-;-;-;-;-;-;-;-;-;-;-;-
1513510515710;-;-;9.295975;0.34136963;0.09286499;-;-;-;-;-;-;-;-;-;-;-;-;-;-;-
1513510515731;-;-;9.258865;0.31143188;0.070114136;-;-;-;-;-;-;-;-;-;-;-;-;-;-;-
1513510515751;-;-;9.25528;0.30426025;0.16468811;-;-;-;-;-;-;-;-;-;-;-;-;-;-;-
1513510515771;-;-;9.327103;0.28630066;0.086868286;-;-;-;-;-;-;-;-;-;-;-;-;-;-;-
1513510515791;-;-;9.285202;0.24798584;-0.037628174;-;-;-;-;-;-;-;-;-;-;-;-;-;-;-
1513510515812;-;-;9.318726;0.259964;0.07130432;-;-;-;-;-;-;-;-;-;-;-;-;-;-;-
1513510515832;-;-;9.279221;0.27792358;0.19821167;-;-;-;-;-;-;-;-;-;-;-;-;-;-;-
1513510515852;-;-;9.250488;0.24798584;0.19940186;-;-;-;-;-;-;-;-;-;-;-;-;-;-;-
1513510515873;-;-;9.216965;0.30426025;0.12397766;-;-;-;-;-;-;-;-;-;-;-;-;-;-;-
1513510515893;-;-;9.239716;0.3282013;0.06892395;-;-;-;-;-;-;-;-;-;-;-;-;-;-;-
1513510515914;-;-;9.269638;0.31622314;0.13237;-;-;-;-;-;-;-;-;-;-;-;-;-;-;-
1513510515934;-;-;9.228943;0.29588318;0.11201477;-;-;-;-;-;-;-;-;-;-;-;-;-;-;-
1513510515954;-;-;9.248093;0.27552795;0.1539154;-;-;-;-;-;-;-;-;-;-;-;-;-;-;-
1513510515975;-;-;9.321121;0.31861877;0.16947937;-;-;-;-;-;-;-;-;-;-;-;-;-;-;-
1513510515994;-;-;9.306747;0.34735107;0.117996216;-;-;-;-;-;-;-;-;-;-;-;-;-;-;-
1513510516014;-;-;9.2756195;0.32939148;0.13237;-;-;-;-;-;-;-;-;-;-;-;-;-;-;-
1513510516035;-;-;9.234924;0.378479;0.1539154;-;-;-;-;-;-;-;-;-;-;-;-;-;-;-
1513510516055;-;-;9.213379;0.37010193;0.16108704;-;-;-;-;-;-;-;-;-;-;-;-;-;-;-
1513510516075;-;-;9.230133;0.35932922;0.171875;-;-;-;-;-;-;-;-;-;-;-;-;-;-;-
1513510516096;-;-;9.251678;0.3461609;0.14553833;-;-;-;-;-;-;-;-;-;-;-;-;-;-;-
1513510516115;-;-;9.262466;0.4299469;0.20419312;-;-;-;-;-;-;-;-;-;-;-;-;-;-;-
1513510516136;-;-;9.216965;0.41319275;0.2233429;-;-;-;-;-;-;-;-;-;-;-;-;-;-;-
1513510516156;-;-;9.266052;0.4072113;0.21496582;-;-;-;-;-;-;-;-;-;-;-;-;-;-;-
1513510516177;-;-;9.251678;0.37727356;0.20059204;-;-;-;-;-;-;-;-;-;-;-;-;-;-;-
1513510516197;-;-;9.305557;0.38206482;0.16947937;-;-;-;-;-;-;-;-;-;-;-;-;-;-;-
1513510516217;-;-;9.288788;0.34854126;0.18144226;-;-;-;-;-;-;-;-;-;-;-;-;-;-;-
1513510516237;-;-;9.278015;0.33299255;0.16348267;-;-;-;-;-;-;-;-;-;-;-;-;-;-;-
1513510516258;-;-;9.304352;0.36889648;0.12997437;-;-;-;-;-;-;-;-;-;-;-;-;-;-;-
1513510516278;-;-;9.232529;0.35812378;0.11680603;-;-;-;-;-;-;-;-;-;-;-;-;-;-;-
1513510516299;-;-;9.243301;0.3569336;0.1479187;-;-;-;-;-;-;-;-;-;-;-;-;-;-;-
1513510516320;-;-;9.330688;0.3892517;0.098846436;-;-;-;-;-;-;-;-;-;-;-;-;-;-;-
1513510516340;-;-;9.280411;0.3677063;-5.187988E-4;-;-;-;-;-;-;-;-;-;-;-;-;-;-;-
1513510516360;-;-;9.274429;0.38087463;0.122787476;-;-;-;-;-;-;-;-;-;-;-;-;-;-;-
1513510516381;-;-;9.262466;0.378479;0.18025208;-;-;-;-;-;-;-;-;-;-;-;-;-;-;-
1513510516401;-;-;9.230133;0.34376526;0.23171997;-;-;-;-;-;-;-;-;-;-;-;-;-;-;-
1513510516422;-;-;9.254074;0.3677063;0.13237;-;-;-;-;-;-;-;-;-;-;-;-;-;-;-
1513510516442;-;-;9.245697;0.39523315;0.103637695;-;-;-;-;-;-;-;-;-;-;-;-;-;-;-
1513510516462;-;-;9.240906;0.42396545;0.077301025;-;-;-;-;-;-;-;-;-;-;-;-;-;-;-
1513510516483;-;-;9.21936;0.417984;0.034194946;-;-;-;-;-;-;-;-;-;-;-;-;-;-;-
1513510516502;-;-;9.222961;0.44192505;0.028213501;-;-;-;-;-;-;-;-;-;-;-;-;-;-;-
1513510516522;-;-;9.242111;0.44911194;0.017440796;-;-;-;-;-;-;-;-;-;-;-;-;-;-;-
1513510516542;-;-;9.269638;0.44551086;0.03779602;-;-;-;-;-;-;-;-;-;-;-;-;-;-;-
1513510516563;-;-;9.25528;0.45509338;0.010253906;-;-;-;-;-;-;-;-;-;-;-;-;-;-;-
1513510516584;-;-;9.287598;0.43473816;0.091659546;-;-;-;-;-;-;-;-;-;-;-;-;-;-;-
1513510516605;-;-;9.285202;0.42156982;0.03779602;-;-;-;-;-;-;-;-;-;-;-;-;-;-;-
1513510516625;-;-;9.254074;0.47903442;0.03060913;-;-;-;-;-;-;-;-;-;-;-;-;-;-;-
1513510516645;-;-;9.25528;0.3904419;0.027023315;-;-;-;-;-;-;-;-;-;-;-;-;-;-;-
1513510516665;-;-;9.260071;0.37249756;0.072509766;-;-;-;-;-;-;-;-;-;-;-;-;-;-;-
