TimeStamp[ms];Prox[Cm];Lux[lux];AccX[m/s^2];AccY[m/s^2];AccZ[m/s^2];GyroX[rad/s];GyroY[rad/s];GyroZ[rad/s];MagnX[uT];MagnY[uT];MagnZ[uT];OrienYaw[degrees];OrienPitch[degrees];OrienRoll[degrees];Press[Pa];Temp[C°];Batt[%];Lat;Lng;Speed[m/s]
1513511752603;-;-;9.220566;-0.63786316;3.615921;-;-;-;-;-;-;-;-;-;-;-;-;-;-;-
1513511752638;-;-;8.246124;-0.7982788;3.231659;-;-;-;-;-;-;-;-;-;-;-;-;-;-;-
1513511752640;-;-;8.246124;-0.7982788;3.231659;-;-;-;-;-;-;-;-;-;-;-;-;-;-;-
1513511752660;-;-;8.5849;-0.6761627;3.09758;-;-;-;-;-;-;-;-;-;-;-;-;-;-;-
1513511752680;-;-;8.82193;-0.56962585;2.9407654;-;-;-;-;-;-;-;-;-;-;-;-;-;-;-
1513511752701;-;-;8.942825;-0.44273376;2.7659912;-;-;-;-;-;-;-;-;-;-;-;-;-;-;-
1513511752721;-;-;8.96199;-0.289505;2.4355927;-;-;-;-;-;-;-;-;-;-;-;-;-;-;-
1513511752742;-;-;8.905716;-0.23085022;2.1351166;-;-;-;-;-;-;-;-;-;-;-;-;-;-;-
1513511752761;-;-;8.909317;-0.3194275;2.1075745;-;-;-;-;-;-;-;-;-;-;-;-;-;-;-
1513511752781;-;-;8.620819;-0.36611938;1.7400665;-;-;-;-;-;-;-;-;-;-;-;-;-;-;-
1513511752802;-;-;8.32753;-0.48703003;1.3031311;-;-;-;-;-;-;-;-;-;-;-;-;-;-;-
1513511752823;-;-;9.009872;-0.4559021;0.9715271;-;-;-;-;-;-;-;-;-;-;-;-;-;-;-
1513511752843;-;-;9.574905;-0.4343567;0.4795227;-;-;-;-;-;-;-;-;-;-;-;-;-;-;-
1513511752879;-;-;10.017822;-0.13748169;0.10482788;-;-;-;-;-;-;-;-;-;-;-;-;-;-;-
1513511752883;-;-;9.9077;0.22644043;-0.073532104;-;-;-;-;-;-;-;-;-;-;-;-;-;-;-
1513511752904;-;-;9.359421;1.0177307;-0.50927734;-;-;-;-;-;-;-;-;-;-;-;-;-;-;-
1513511752924;-;-;9.571304;0.71965027;0.03300476;-;-;-;-;-;-;-;-;-;-;-;-;-;-;-
1513511752945;-;-;9.182251;0.20610046;-0.35006714;-;-;-;-;-;-;-;-;-;-;-;-;-;-;-
1513511752965;-;-;9.185837;0.014556885;-0.39196777;-;-;-;-;-;-;-;-;-;-;-;-;-;-;-
1513511752986;-;-;9.357025;-0.097976685;-0.37521362;-;-;-;-;-;-;-;-;-;-;-;-;-;-;-
1513511753005;-;-;9.566528;-0.32182312;-0.13937378;-;-;-;-;-;-;-;-;-;-;-;-;-;-;-
1513511753025;-;-;9.851425;-0.18057251;-0.24353027;-;-;-;-;-;-;-;-;-;-;-;-;-;-;-
1513511753045;-;-;8.98233;-0.2607727;-0.04840088;-;-;-;-;-;-;-;-;-;-;-;-;-;-;-
1513511753066;-;-;9.042191;-0.29908752;-0.25430298;-;-;-;-;-;-;-;-;-;-;-;-;-;-;-
1513511753085;-;-;8.838684;-0.34936523;-0.083114624;-;-;-;-;-;-;-;-;-;-;-;-;-;-;-
1513511753105;-;-;8.82193;-0.27035522;-0.2507019;-;-;-;-;-;-;-;-;-;-;-;-;-;-;-
1513511753126;-;-;9.39534;-0.5049896;0.065322876;-;-;-;-;-;-;-;-;-;-;-;-;-;-;-
1513511753146;-;-;9.55455;-0.6402588;0.004272461;-;-;-;-;-;-;-;-;-;-;-;-;-;-;-
1513511753167;-;-;9.515045;-0.84495544;-0.2962036;-;-;-;-;-;-;-;-;-;-;-;-;-;-;-
1513511753187;-;-;9.269638;-0.8976288;-0.38238525;-;-;-;-;-;-;-;-;-;-;-;-;-;-;-
1513511753208;-;-;9.201401;-0.61990356;-0.4350586;-;-;-;-;-;-;-;-;-;-;-;-;-;-;-
1513511753227;-;-;8.959595;0.01574707;0.053359985;-;-;-;-;-;-;-;-;-;-;-;-;-;-;-
1513511753248;-;-;9.044586;-0.12789917;-0.22317505;-;-;-;-;-;-;-;-;-;-;-;-;-;-;-
1513511753267;-;-;9.33429;-0.14944458;-0.496109;-;-;-;-;-;-;-;-;-;-;-;-;-;-;-
1513511753288;-;-;9.226547;-0.6438446;0.15270996;-;-;-;-;-;-;-;-;-;-;-;-;-;-;-
1513511753307;-;-;8.455612;-0.44752502;-1.0156555;-;-;-;-;-;-;-;-;-;-;-;-;-;-;-
1513511753328;-;-;9.415695;-0.1590271;-0.78700256;-;-;-;-;-;-;-;-;-;-;-;-;-;-;-
1513511753347;-;-;9.665878;-0.19972229;-0.491333;-;-;-;-;-;-;-;-;-;-;-;-;-;-;-
1513511753367;-;-;9.243301;-0.13269043;-0.61701965;-;-;-;-;-;-;-;-;-;-;-;-;-;-;-
1513511753388;-;-;9.360626;-0.2799225;-0.496109;-;-;-;-;-;-;-;-;-;-;-;-;-;-;-
1513511753409;-;-;9.469559;-0.29309082;-0.26626587;-;-;-;-;-;-;-;-;-;-;-;-;-;-;-
1513511753428;-;-;9.570114;-0.04170227;-0.5715332;-;-;-;-;-;-;-;-;-;-;-;-;-;-;-
1513511753448;-;-;8.881775;-0.45710754;-0.62779236;-;-;-;-;-;-;-;-;-;-;-;-;-;-;-
1513511753469;-;-;9.600037;-0.4738617;-0.40872192;-;-;-;-;-;-;-;-;-;-;-;-;-;-;-
1513511753489;-;-;9.57251;-0.30267334;-0.76187134;-;-;-;-;-;-;-;-;-;-;-;-;-;-;-
1513511753509;-;-;8.936844;-0.038116455;-0.7163849;-;-;-;-;-;-;-;-;-;-;-;-;-;-;-
1513511753530;-;-;9.127182;-0.062057495;-0.5248413;-;-;-;-;-;-;-;-;-;-;-;-;-;-;-
1513511753549;-;-;9.359421;-0.26197815;-0.5224457;-;-;-;-;-;-;-;-;-;-;-;-;-;-;-
1513511753569;-;-;9.25528;-0.33140564;-0.5691376;-;-;-;-;-;-;-;-;-;-;-;-;-;-;-
1513511753590;-;-;9.43364;-0.5756073;-0.8325043;-;-;-;-;-;-;-;-;-;-;-;-;-;-;-
1513511753611;-;-;9.194229;-0.5037842;-0.9653778;-;-;-;-;-;-;-;-;-;-;-;-;-;-;-
1513511753631;-;-;9.825104;-0.6977234;-0.7127838;-;-;-;-;-;-;-;-;-;-;-;-;-;-;-
1513511753652;-;-;8.386185;-0.22366333;-0.44703674;-;-;-;-;-;-;-;-;-;-;-;-;-;-;-
1513511753672;-;-;8.911713;0.117507935;-0.7738342;-;-;-;-;-;-;-;-;-;-;-;-;-;-;-
1513511753693;-;-;8.90094;-0.35653687;-1.258667;-;-;-;-;-;-;-;-;-;-;-;-;-;-;-
1513511753713;-;-;8.880585;-0.77911377;-1.2371216;-;-;-;-;-;-;-;-;-;-;-;-;-;-;-
1513511753733;-;-;9.837067;-0.51815796;-0.74272156;-;-;-;-;-;-;-;-;-;-;-;-;-;-;-
1513511753754;-;-;5.79924;-1.2998657;-0.3297119;-;-;-;-;-;-;-;-;-;-;-;-;-;-;-
1513511753774;-;-;8.38858;-0.20690918;-1.3352814;-;-;-;-;-;-;-;-;-;-;-;-;-;-;-
1513511753795;-;-;8.6028595;0.37249756;-1.7147675;-;-;-;-;-;-;-;-;-;-;-;-;-;-;-
1513511753815;-;-;10.724121;-0.121917725;-2.0188293;-;-;-;-;-;-;-;-;-;-;-;-;-;-;-
1513511753835;-;-;9.331894;1.6270447;-5.8064575;-;-;-;-;-;-;-;-;-;-;-;-;-;-;-
1513511753856;-;-;10.792358;-0.31344604;-1.0563507;-;-;-;-;-;-;-;-;-;-;-;-;-;-;-
1513511753877;-;-;10.769608;-0.5600586;-1.5004883;-;-;-;-;-;-;-;-;-;-;-;-;-;-;-
1513511753897;-;-;9.501877;-0.7922821;-2.3959198;-;-;-;-;-;-;-;-;-;-;-;-;-;-;-
1513511753917;-;-;9.178665;-0.7563782;-1.4693604;-;-;-;-;-;-;-;-;-;-;-;-;-;-;-
1513511753937;-;-;8.558563;-0.49661255;-0.84806824;-;-;-;-;-;-;-;-;-;-;-;-;-;-;-
1513511753958;-;-;7.7361603;-0.07522583;-0.9845276;-;-;-;-;-;-;-;-;-;-;-;-;-;-;-
1513511753979;-;-;8.818329;-0.109939575;-0.8312988;-;-;-;-;-;-;-;-;-;-;-;-;-;-;-
1513511753999;-;-;9.002686;-1.3609161;-0.3045807;-;-;-;-;-;-;-;-;-;-;-;-;-;-;-
1513511754021;-;-;12.455124;-1.641037;-2.658081;-;-;-;-;-;-;-;-;-;-;-;-;-;-;-
1513511754040;-;-;10.011841;-1.3800659;-1.9517822;-;-;-;-;-;-;-;-;-;-;-;-;-;-;-
1513511754061;-;-;7.77446;-0.73602295;-1.4537964;-;-;-;-;-;-;-;-;-;-;-;-;-;-;-
1513511754081;-;-;7.4165344;-0.55166626;-0.9330597;-;-;-;-;-;-;-;-;-;-;-;-;-;-;-
1513511754102;-;-;8.186264;-0.41281128;-0.98213196;-;-;-;-;-;-;-;-;-;-;-;-;-;-;-
1513511754122;-;-;8.904526;-0.38049316;-1.1341705;-;-;-;-;-;-;-;-;-;-;-;-;-;-;-
1513511754143;-;-;9.345062;-0.5540619;-1.2634583;-;-;-;-;-;-;-;-;-;-;-;-;-;-;-
1513511754163;-;-;9.73172;-0.6426544;-1.2502899;-;-;-;-;-;-;-;-;-;-;-;-;-;-;-
1513511754183;-;-;9.945999;-0.7108917;-1.1389618;-;-;-;-;-;-;-;-;-;-;-;-;-;-;-
1513511754203;-;-;9.911285;-0.76594543;-0.9725647;-;-;-;-;-;-;-;-;-;-;-;-;-;-;-
1513511754224;-;-;9.549759;-0.7372284;-0.9354553;-;-;-;-;-;-;-;-;-;-;-;-;-;-;-
1513511754245;-;-;9.239716;-0.63427734;-0.8289032;-;-;-;-;-;-;-;-;-;-;-;-;-;-;-
1513511754265;-;-;9.151123;-0.5600586;-0.6732788;-;-;-;-;-;-;-;-;-;-;-;-;-;-;-
1513511754285;-;-;8.996704;-0.6246948;-0.52963257;-;-;-;-;-;-;-;-;-;-;-;-;-;-;-
1513511754306;-;-;8.963181;-0.92996216;-0.43026733;-;-;-;-;-;-;-;-;-;-;-;-;-;-;-
1513511754326;-;-;8.906921;-1.0329132;-0.72117615;-;-;-;-;-;-;-;-;-;-;-;-;-;-;-
1513511754347;-;-;8.918884;-0.8102417;-1.3712006;-;-;-;-;-;-;-;-;-;-;-;-;-;-;-
1513511754367;-;-;9.147537;-0.22964478;-1.4693604;-;-;-;-;-;-;-;-;-;-;-;-;-;-;-
1513511754388;-;-;9.281616;0.2132721;-1.4669647;-;-;-;-;-;-;-;-;-;-;-;-;-;-;-
1513511754408;-;-;9.476746;0.05166626;-1.2131805;-;-;-;-;-;-;-;-;-;-;-;-;-;-;-
1513511754429;-;-;9.3701935;-0.641449;-1.3879547;-;-;-;-;-;-;-;-;-;-;-;-;-;-;-
1513511754449;-;-;9.167892;-1.2866974;-1.6249847;-;-;-;-;-;-;-;-;-;-;-;-;-;-;-
1513511754470;-;-;9.3941345;-1.3573151;-1.6249847;-;-;-;-;-;-;-;-;-;-;-;-;-;-;-
1513511754490;-;-;9.301956;-1.0005798;-1.5567474;-;-;-;-;-;-;-;-;-;-;-;-;-;-;-
1513511754511;-;-;9.164291;-0.2715454;-1.5052643;-;-;-;-;-;-;-;-;-;-;-;-;-;-;-
1513511754531;-;-;8.745316;0.3904419;-1.5998383;-;-;-;-;-;-;-;-;-;-;-;-;-;-;-
1513511754552;-;-;8.662704;0.47305298;-1.5890656;-;-;-;-;-;-;-;-;-;-;-;-;-;-;-
1513511754572;-;-;8.894943;0.20370483;-1.3161316;-;-;-;-;-;-;-;-;-;-;-;-;-;-;-
1513511754592;-;-;9.280411;-0.076416016;-1.274231;-;-;-;-;-;-;-;-;-;-;-;-;-;-;-
1513511754613;-;-;9.695816;-0.368515;-1.4190826;-;-;-;-;-;-;-;-;-;-;-;-;-;-;-
1513511754634;-;-;9.785599;-0.5253296;-1.574707;-;-;-;-;-;-;-;-;-;-;-;-;-;-;-
1513511754654;-;-;9.505478;-0.45829773;-1.4609833;-;-;-;-;-;-;-;-;-;-;-;-;-;-;-
1513511754674;-;-;9.084091;-0.5564575;-1.2622528;-;-;-;-;-;-;-;-;-;-;-;-;-;-;-
1513511754695;-;-;8.84227;-0.5504761;-1.1210022;-;-;-;-;-;-;-;-;-;-;-;-;-;-;-
1513511754714;-;-;8.845871;-0.4738617;-1.0360107;-;-;-;-;-;-;-;-;-;-;-;-;-;-;-
1513511754734;-;-;8.935654;-0.3864746;-1.1341705;-;-;-;-;-;-;-;-;-;-;-;-;-;-;-
1513511754755;-;-;9.0733185;-0.40083313;-1.2071991;-;-;-;-;-;-;-;-;-;-;-;-;-;-;-
1513511754775;-;-;9.163101;-0.46188354;-1.3089447;-;-;-;-;-;-;-;-;-;-;-;-;-;-;-
1513511754796;-;-;9.3498535;-0.4846344;-1.3436584;-;-;-;-;-;-;-;-;-;-;-;-;-;-;-
1513511754816;-;-;9.353439;-0.34576416;-1.5375977;-;-;-;-;-;-;-;-;-;-;-;-;-;-;-
1513511754837;-;-;9.289993;-0.19134521;-1.6692657;-;-;-;-;-;-;-;-;-;-;-;-;-;-;-
1513511754857;-;-;9.197815;-0.076416016;-1.6489258;-;-;-;-;-;-;-;-;-;-;-;-;-;-;-
1513511754877;-;-;9.134369;-0.16142273;-1.4190826;-;-;-;-;-;-;-;-;-;-;-;-;-;-;-
1513511754898;-;-;9.075714;-0.3397827;-1.3113403;-;-;-;-;-;-;-;-;-;-;-;-;-;-;-
1513511754919;-;-;9.017059;-0.42837524;-1.1605072;-;-;-;-;-;-;-;-;-;-;-;-;-;-;-
1513511754939;-;-;9.042191;-0.42358398;-1.0743103;-;-;-;-;-;-;-;-;-;-;-;-;-;-;-
1513511754960;-;-;9.039795;-0.43196106;-1.0886841;-;-;-;-;-;-;-;-;-;-;-;-;-;-;-
1513511754979;-;-;9.148727;-0.4774475;-1.069519;-;-;-;-;-;-;-;-;-;-;-;-;-;-;-
1513511754999;-;-;9.286407;-0.51815796;-0.9941101;-;-;-;-;-;-;-;-;-;-;-;-;-;-;-
1513511755020;-;-;9.378571;-0.65940857;-1.0108643;-;-;-;-;-;-;-;-;-;-;-;-;-;-;-
1513511755040;-;-;9.434845;-0.80307007;-0.9833374;-;-;-;-;-;-;-;-;-;-;-;-;-;-;-
1513511755061;-;-;9.339081;-0.8593292;-0.9905243;-;-;-;-;-;-;-;-;-;-;-;-;-;-;-
1513511755081;-;-;9.190628;-0.8186188;-1.0084686;-;-;-;-;-;-;-;-;-;-;-;-;-;-;-
1513511755102;-;-;9.009872;-0.74560547;-1.1150208;-;-;-;-;-;-;-;-;-;-;-;-;-;-;-
1513511755121;-;-;8.951218;-0.66539;-1.0755157;-;-;-;-;-;-;-;-;-;-;-;-;-;-;-
1513511755142;-;-;9.017059;-0.542099;-1.0671387;-;-;-;-;-;-;-;-;-;-;-;-;-;-;-
1513511755161;-;-;9.029022;-0.49780273;-1.1281891;-;-;-;-;-;-;-;-;-;-;-;-;-;-;-
1513511755181;-;-;9.084091;-0.5600586;-1.2478943;-;-;-;-;-;-;-;-;-;-;-;-;-;-;-
1513511755202;-;-;9.093674;-0.625885;-1.2969818;-;-;-;-;-;-;-;-;-;-;-;-;-;-;-
1513511755222;-;-;9.136765;-0.6989136;-1.392746;-;-;-;-;-;-;-;-;-;-;-;-;-;-;-
1513511755242;-;-;9.170288;-0.78271484;-1.4837189;-;-;-;-;-;-;-;-;-;-;-;-;-;-;-
1513511755263;-;-;9.225342;-0.8605194;-1.5651245;-;-;-;-;-;-;-;-;-;-;-;-;-;-;-
1513511755283;-;-;9.244507;-0.8605194;-1.574707;-;-;-;-;-;-;-;-;-;-;-;-;-;-;-
1513511755304;-;-;9.251678;-0.8760834;-1.6369476;-;-;-;-;-;-;-;-;-;-;-;-;-;-;-
1513511755323;-;-;9.251678;-0.87968445;-1.7997589;-;-;-;-;-;-;-;-;-;-;-;-;-;-;-
1513511755344;-;-;9.159515;-0.917984;-1.7542725;-;-;-;-;-;-;-;-;-;-;-;-;-;-;-
1513511755364;-;-;9.185837;-0.7551727;-1.5100555;-;-;-;-;-;-;-;-;-;-;-;-;-;-;-
1513511755384;-;-;9.134369;-0.47265625;-1.1868439;-;-;-;-;-;-;-;-;-;-;-;-;-;-;-
1513511755405;-;-;9.166687;-0.4271698;-1.1150208;-;-;-;-;-;-;-;-;-;-;-;-;-;-;-
1513511755425;-;-;9.183456;-0.5899811;-1.2454987;-;-;-;-;-;-;-;-;-;-;-;-;-;-;-
1513511755446;-;-;9.1128235;-0.67497253;-1.3508453;-;-;-;-;-;-;-;-;-;-;-;-;-;-;-
1513511755466;-;-;9.054169;-0.5241394;-1.48732;-;-;-;-;-;-;-;-;-;-;-;-;-;-;-
1513511755487;-;-;9.09845;-0.50138855;-1.5830841;-;-;-;-;-;-;-;-;-;-;-;-;-;-;-
1513511755507;-;-;9.1918335;-0.50857544;-1.7003937;-;-;-;-;-;-;-;-;-;-;-;-;-;-;-
1513511755528;-;-;9.2708435;-0.36013794;-1.8093262;-;-;-;-;-;-;-;-;-;-;-;-;-;-;-
1513511755548;-;-;9.357025;-0.1985321;-1.7315216;-;-;-;-;-;-;-;-;-;-;-;-;-;-;-
1513511755569;-;-;9.345062;-0.15542603;-1.7566681;-;-;-;-;-;-;-;-;-;-;-;-;-;-;-
1513511755588;-;-;9.358231;-0.24520874;-1.7806091;-;-;-;-;-;-;-;-;-;-;-;-;-;-;-
1513511755609;-;-;9.242111;-0.4271698;-1.6381531;-;-;-;-;-;-;-;-;-;-;-;-;-;-;-
1513511755628;-;-;9.063736;-0.7707367;-1.3999176;-;-;-;-;-;-;-;-;-;-;-;-;-;-;-
1513511755648;-;-;8.909317;-1.2962646;-1.4262543;-;-;-;-;-;-;-;-;-;-;-;-;-;-;-
1513511755669;-;-;8.896149;-1.609909;-1.401123;-;-;-;-;-;-;-;-;-;-;-;-;-;-;-
1513511755689;-;-;8.97995;-1.9786224;-1.3424683;-;-;-;-;-;-;-;-;-;-;-;-;-;-;-
1513511755710;-;-;9.058945;-2.1258545;-1.416687;-;-;-;-;-;-;-;-;-;-;-;-;-;-;-
1513511755731;-;-;8.973953;-2.0779724;-1.7051849;-;-;-;-;-;-;-;-;-;-;-;-;-;-;-
1513511755751;-;-;8.941635;-1.862503;-1.8943329;-;-;-;-;-;-;-;-;-;-;-;-;-;-;-
1513511755772;-;-;8.927277;-1.3740845;-2.0092468;-;-;-;-;-;-;-;-;-;-;-;-;-;-;-
1513511755792;-;-;9.227737;-0.4846344;-1.9745331;-;-;-;-;-;-;-;-;-;-;-;-;-;-;-
1513511755812;-;-;9.301956;0.2743225;-2.1074066;-;-;-;-;-;-;-;-;-;-;-;-;-;-;-
1513511755833;-;-;9.100845;0.4514923;-2.2366943;-;-;-;-;-;-;-;-;-;-;-;-;-;-;-
1513511755854;-;-;8.667496;-0.028533936;-2.5742798;-;-;-;-;-;-;-;-;-;-;-;-;-;-;-
1513511755874;-;-;8.702209;-0.44273376;-2.6054077;-;-;-;-;-;-;-;-;-;-;-;-;-;-;-
1513511755894;-;-;8.881775;-0.52893066;-2.3683777;-;-;-;-;-;-;-;-;-;-;-;-;-;-;-
1513511755915;-;-;8.924881;-0.36732483;-2.333664;-;-;-;-;-;-;-;-;-;-;-;-;-;-;-
1513511755935;-;-;8.928467;-0.4559021;-2.2654266;-;-;-;-;-;-;-;-;-;-;-;-;-;-;-
1513511755956;-;-;8.885376;-0.6474457;-2.0882568;-;-;-;-;-;-;-;-;-;-;-;-;-;-;-
1513511755975;-;-;8.987122;-0.71447754;-2.0643158;-;-;-;-;-;-;-;-;-;-;-;-;-;-;-
1513511755996;-;-;9.184647;-0.3254242;-1.9709473;-;-;-;-;-;-;-;-;-;-;-;-;-;-;-
1513511756016;-;-;9.134369;0.1558075;-1.7303314;-;-;-;-;-;-;-;-;-;-;-;-;-;-;-
1513511756036;-;-;9.001495;0.6166992;-1.6130066;-;-;-;-;-;-;-;-;-;-;-;-;-;-;-
1513511756057;-;-;8.780029;0.8513336;-1.006073;-;-;-;-;-;-;-;-;-;-;-;-;-;-;-
1513511756076;-;-;8.886566;0.7005005;-0.82292175;-;-;-;-;-;-;-;-;-;-;-;-;-;-;-
1513511756096;-;-;9.462372;0.27192688;-1.1018524;-;-;-;-;-;-;-;-;-;-;-;-;-;-;-
1513511756116;-;-;9.999878;0.098358154;-1.2024078;-;-;-;-;-;-;-;-;-;-;-;-;-;-;-
1513511756137;-;-;10.4535675;0.107925415;-1.1736755;-;-;-;-;-;-;-;-;-;-;-;-;-;-;-
1513511756157;-;-;10.702576;0.045684814;-1.3508453;-;-;-;-;-;-;-;-;-;-;-;-;-;-;-
1513511756177;-;-;10.615189;0.17018127;-2.105011;-;-;-;-;-;-;-;-;-;-;-;-;-;-;-
1513511756198;-;-;9.973541;0.7914734;-2.2570496;-;-;-;-;-;-;-;-;-;-;-;-;-;-;-
1513511756218;-;-;8.7764435;1.5480499;-1.7075806;-;-;-;-;-;-;-;-;-;-;-;-;-;-;-
1513511756239;-;-;7.5865173;1.8090057;-1.1940308;-;-;-;-;-;-;-;-;-;-;-;-;-;-;-
1513511756259;-;-;6.7772827;1.2499695;-0.6625061;-;-;-;-;-;-;-;-;-;-;-;-;-;-;-
1513511756280;-;-;6.8993835;0.2850952;-0.38598633;-;-;-;-;-;-;-;-;-;-;-;-;-;-;-
1513511756299;-;-;7.916916;-0.70729065;-0.3955536;-;-;-;-;-;-;-;-;-;-;-;-;-;-;-
1513511756319;-;-;9.067337;-1.0448761;-0.82650757;-;-;-;-;-;-;-;-;-;-;-;-;-;-;-
1513511756340;-;-;9.9879;-0.8186188;-2.1660767;-;-;-;-;-;-;-;-;-;-;-;-;-;-;-
1513511756360;-;-;11.1371155;0.076812744;-3.693573;-;-;-;-;-;-;-;-;-;-;-;-;-;-;-
1513511756381;-;-;11.704544;1.1936951;-4.323242;-;-;-;-;-;-;-;-;-;-;-;-;-;-;-
1513511756401;-;-;10.597229;1.659378;-3.4194336;-;-;-;-;-;-;-;-;-;-;-;-;-;-;-
1513511756422;-;-;8.4448395;1.4498749;-2.0319977;-;-;-;-;-;-;-;-;-;-;-;-;-;-;-
1513511756442;-;-;7.4680023;1.0572357;-1.3712006;-;-;-;-;-;-;-;-;-;-;-;-;-;-;-
1513511756462;-;-;7.216614;0.99497986;-2.3839417;-;-;-;-;-;-;-;-;-;-;-;-;-;-;-
1513511756483;-;-;7.693054;1.2535553;-2.8843231;-;-;-;-;-;-;-;-;-;-;-;-;-;-;-
1513511756502;-;-;8.715378;1.3421478;-2.6209717;-;-;-;-;-;-;-;-;-;-;-;-;-;-;-
1513511756522;-;-;9.534195;0.5520477;-2.230713;-;-;-;-;-;-;-;-;-;-;-;-;-;-;-
1513511756543;-;-;10.105225;-0.8018646;-1.990097;-;-;-;-;-;-;-;-;-;-;-;-;-;-;-
1513511756564;-;-;10.217743;-1.6721649;-1.5471649;-;-;-;-;-;-;-;-;-;-;-;-;-;-;-
1513511756584;-;-;9.483917;-1.4470978;-1.1138153;-;-;-;-;-;-;-;-;-;-;-;-;-;-;-
1513511756604;-;-;8.966782;-0.9562988;-0.9151001;-;-;-;-;-;-;-;-;-;-;-;-;-;-;-
1513511756625;-;-;8.784821;-0.4954071;-1.1473389;-;-;-;-;-;-;-;-;-;-;-;-;-;-;-
1513511756645;-;-;9.075714;-0.59835815;-1.2071991;-;-;-;-;-;-;-;-;-;-;-;-;-;-;-
1513511756666;-;-;9.540192;-1.1179047;-1.1569061;-;-;-;-;-;-;-;-;-;-;-;-;-;-;-
1513511756686;-;-;9.659897;-1.6865234;-1.2897949;-;-;-;-;-;-;-;-;-;-;-;-;-;-;-
1513511756706;-;-;9.361816;-1.8373566;-1.4154816;-;-;-;-;-;-;-;-;-;-;-;-;-;-;-
1513511756727;-;-;8.589691;-1.4243622;-1.4442139;-;-;-;-;-;-;-;-;-;-;-;-;-;-;-
1513511756747;-;-;7.8522797;-0.66539;-1.4214783;-;-;-;-;-;-;-;-;-;-;-;-;-;-;-
1513511756768;-;-;7.724182;0.27792358;-1.6764526;-;-;-;-;-;-;-;-;-;-;-;-;-;-;-
1513511756788;-;-;8.097687;1.2355957;-2.3827515;-;-;-;-;-;-;-;-;-;-;-;-;-;-;-
1513511756809;-;-;9.128387;2.1094818;-3.4385834;-;-;-;-;-;-;-;-;-;-;-;-;-;-;-
1513511756829;-;-;10.159088;2.6840973;-2.5168152;-;-;-;-;-;-;-;-;-;-;-;-;-;-;-
1513511756849;-;-;9.75087;1.3397522;-2.9525604;-;-;-;-;-;-;-;-;-;-;-;-;-;-;-
1513511756870;-;-;9.631165;-0.5384979;-2.5778656;-;-;-;-;-;-;-;-;-;-;-;-;-;-;-
1513511756890;-;-;9.062546;-1.6218872;-2.2690277;-;-;-;-;-;-;-;-;-;-;-;-;-;-;-
1513511756911;-;-;8.704605;-1.7619476;-2.0403748;-;-;-;-;-;-;-;-;-;-;-;-;-;-;-
1513511756932;-;-;8.434067;-0.9503021;-2.021225;-;-;-;-;-;-;-;-;-;-;-;-;-;-;-
1513511756952;-;-;8.3502655;-0.035720825;-1.574707;-;-;-;-;-;-;-;-;-;-;-;-;-;-;-
1513511756973;-;-;8.641159;0.3222046;-1.0288239;-;-;-;-;-;-;-;-;-;-;-;-;-;-;-
1513511756993;-;-;8.881775;0.057647705;-0.9342499;-;-;-;-;-;-;-;-;-;-;-;-;-;-;-
1513511757014;-;-;9.392944;-0.46788025;-0.97135925;-;-;-;-;-;-;-;-;-;-;-;-;-;-;-
1513511757034;-;-;9.714966;-0.82580566;-1.0994568;-;-;-;-;-;-;-;-;-;-;-;-;-;-;-
1513511757055;-;-;9.764038;-0.84376526;-1.2682495;-;-;-;-;-;-;-;-;-;-;-;-;-;-;-
1513511757075;-;-;9.584473;-0.58399963;-1.3269043;-;-;-;-;-;-;-;-;-;-;-;-;-;-;-
1513511757096;-;-;9.407303;-0.30148315;-1.3831635;-;-;-;-;-;-;-;-;-;-;-;-;-;-;-
1513511757116;-;-;9.364212;-0.12550354;-1.3640137;-;-;-;-;-;-;-;-;-;-;-;-;-;-;-
1513511757136;-;-;9.212173;-0.15184021;-1.3197174;-;-;-;-;-;-;-;-;-;-;-;-;-;-;-
1513511757157;-;-;8.896149;-0.2571869;-1.392746;-;-;-;-;-;-;-;-;-;-;-;-;-;-;-
1513511757177;-;-;8.580109;-0.3577423;-1.5399933;-;-;-;-;-;-;-;-;-;-;-;-;-;-;-
1513511757199;-;-;8.540604;-0.2859192;-2.3396454;-;-;-;-;-;-;-;-;-;-;-;-;-;-;-
1513511757219;-;-;9.282806;0.8213959;-3.3296509;-;-;-;-;-;-;-;-;-;-;-;-;-;-;-
1513511757238;-;-;9.898117;1.516922;-3.199173;-;-;-;-;-;-;-;-;-;-;-;-;-;-;-
1513511757259;-;-;9.981918;0.122299194;-1.8117218;-;-;-;-;-;-;-;-;-;-;-;-;-;-;-
1513511757279;-;-;9.001495;-0.6534271;-1.6393433;-;-;-;-;-;-;-;-;-;-;-;-;-;-;-
1513511757299;-;-;8.1874695;-0.996994;-2.452179;-;-;-;-;-;-;-;-;-;-;-;-;-;-;-
1513511757320;-;-;8.193451;-0.60913086;-2.788559;-;-;-;-;-;-;-;-;-;-;-;-;-;-;-
1513511757340;-;-;8.143173;0.41677856;-2.5132294;-;-;-;-;-;-;-;-;-;-;-;-;-;-;-
1513511757361;-;-;8.443649;1.3768616;-2.2283173;-;-;-;-;-;-;-;-;-;-;-;-;-;-;-
1513511757381;-;-;9.09845;1.2032776;-1.8428497;-;-;-;-;-;-;-;-;-;-;-;-;-;-;-
1513511757401;-;-;9.90889;0.457489;-1.8129272;-;-;-;-;-;-;-;-;-;-;-;-;-;-;-
1513511757422;-;-;10.566101;-0.68933105;-2.0882568;-;-;-;-;-;-;-;-;-;-;-;-;-;-;-
1513511757442;-;-;10.087265;-1.2771149;-2.0918427;-;-;-;-;-;-;-;-;-;-;-;-;-;-;-
1513511757462;-;-;9.06134;-1.1598053;-1.8332825;-;-;-;-;-;-;-;-;-;-;-;-;-;-;-
1513511757483;-;-;8.127609;-0.7886963;-1.7554626;-;-;-;-;-;-;-;-;-;-;-;-;-;-;-
1513511757502;-;-;7.6080627;-0.16740417;-1.9481964;-;-;-;-;-;-;-;-;-;-;-;-;-;-;-
1513511757522;-;-;8.474762;0.007369995;-1.8392639;-;-;-;-;-;-;-;-;-;-;-;-;-;-;-
1513511757543;-;-;9.221756;-0.08958435;-1.9170685;-;-;-;-;-;-;-;-;-;-;-;-;-;-;-
1513511757562;-;-;9.7017975;-0.08720398;-2.0750885;-;-;-;-;-;-;-;-;-;-;-;-;-;-;-
1513511757583;-;-;9.51265;-0.17578125;-2.175644;-;-;-;-;-;-;-;-;-;-;-;-;-;-;-
1513511757602;-;-;9.228943;-0.22486877;-2.0679016;-;-;-;-;-;-;-;-;-;-;-;-;-;-;-
1513511757622;-;-;9.14035;-0.32421875;-2.0379791;-;-;-;-;-;-;-;-;-;-;-;-;-;-;-
1513511757642;-;-;9.163101;-0.3481598;-2.08107;-;-;-;-;-;-;-;-;-;-;-;-;-;-;-
1513511757663;-;-;9.086487;-0.29908752;-2.3085175;-;-;-;-;-;-;-;-;-;-;-;-;-;-;-
1513511757682;-;-;9.147537;-0.030929565;-2.6916046;-;-;-;-;-;-;-;-;-;-;-;-;-;-;-
1513511757702;-;-;9.355835;0.73880005;-3.2015686;-;-;-;-;-;-;-;-;-;-;-;-;-;-;-
1513511757722;-;-;9.511459;1.3002472;-3.2602234;-;-;-;-;-;-;-;-;-;-;-;-;-;-;-
1513511757743;-;-;9.100845;0.4072113;-2.642517;-;-;-;-;-;-;-;-;-;-;-;-;-;-;-
1513511757763;-;-;8.601654;-0.17219543;-1.9697418;-;-;-;-;-;-;-;-;-;-;-;-;-;-;-
1513511757783;-;-;8.042618;-0.32781982;-2.029602;-;-;-;-;-;-;-;-;-;-;-;-;-;-;-
1513511757805;-;-;7.6068726;-0.02973938;-2.1038208;-;-;-;-;-;-;-;-;-;-;-;-;-;-;-
1513511757825;-;-;7.8965607;-0.011779785;-2.0283966;-;-;-;-;-;-;-;-;-;-;-;-;-;-;-
1513511757846;-;-;8.807556;-0.2859192;-2.0403748;-;-;-;-;-;-;-;-;-;-;-;-;-;-;-
1513511757866;-;-;9.656311;-0.5732269;-2.0774841;-;-;-;-;-;-;-;-;-;-;-;-;-;-;-
1513511757887;-;-;10.218948;-0.63786316;-2.0559387;-;-;-;-;-;-;-;-;-;-;-;-;-;-;-
1513511757908;-;-;10.141129;-0.32781982;-2.203186;-;-;-;-;-;-;-;-;-;-;-;-;-;-;-
1513511757928;-;-;9.592865;-0.13748169;-2.2570496;-;-;-;-;-;-;-;-;-;-;-;-;-;-;-
1513511757948;-;-;8.7764435;-0.02255249;-2.349228;-;-;-;-;-;-;-;-;-;-;-;-;-;-;-
1513511757969;-;-;8.548981;-0.054870605;-2.2893677;-;-;-;-;-;-;-;-;-;-;-;-;-;-;-
1513511757989;-;-;8.764465;-0.06803894;-2.227127;-;-;-;-;-;-;-;-;-;-;-;-;-;-;-
1513511758010;-;-;9.0733185;-0.05128479;-2.0894623;-;-;-;-;-;-;-;-;-;-;-;-;-;-;-
1513511758030;-;-;9.151123;0.05885315;-2.0978394;-;-;-;-;-;-;-;-;-;-;-;-;-;-;-
1513511758050;-;-;8.952408;0.14144897;-2.0906525;-;-;-;-;-;-;-;-;-;-;-;-;-;-;-
1513511758070;-;-;8.857834;0.055252075;-2.128952;-;-;-;-;-;-;-;-;-;-;-;-;-;-;-
1513511758091;-;-;8.874603;-0.076416016;-2.2211304;-;-;-;-;-;-;-;-;-;-;-;-;-;-;-
1513511758110;-;-;8.9787445;-0.210495;-2.2498627;-;-;-;-;-;-;-;-;-;-;-;-;-;-;-
1513511758130;-;-;8.948822;-0.1985321;-2.271408;-;-;-;-;-;-;-;-;-;-;-;-;-;-;-
1513511758151;-;-;8.884171;-0.15184021;-2.1780396;-;-;-;-;-;-;-;-;-;-;-;-;-;-;-
1513511758172;-;-;8.831497;-0.13508606;-2.1409302;-;-;-;-;-;-;-;-;-;-;-;-;-;-;-
1513511758192;-;-;8.926071;-0.05607605;-2.168457;-;-;-;-;-;-;-;-;-;-;-;-;-;-;-
1513511758213;-;-;9.058945;-0.052474976;-2.242691;-;-;-;-;-;-;-;-;-;-;-;-;-;-;-
1513511758233;-;-;9.179855;-0.009384155;-2.223526;-;-;-;-;-;-;-;-;-;-;-;-;-;-;-
1513511758253;-;-;9.171478;0.014556885;-2.230713;-;-;-;-;-;-;-;-;-;-;-;-;-;-;-
1513511758274;-;-;9.088882;-0.01776123;-2.120575;-;-;-;-;-;-;-;-;-;-;-;-;-;-;-
1513511758295;-;-;9.026627;-0.018966675;-2.136139;-;-;-;-;-;-;-;-;-;-;-;-;-;-;-
1513511758315;-;-;9.011063;-0.059661865;-2.1421204;-;-;-;-;-;-;-;-;-;-;-;-;-;-;-
1513511758335;-;-;9.050568;-0.015365601;-2.2223358;-;-;-;-;-;-;-;-;-;-;-;-;-;-;-
1513511758356;-;-;9.085281;0.03970337;-2.1852264;-;-;-;-;-;-;-;-;-;-;-;-;-;-;-
1513511758376;-;-;9.056564;0.048080444;-2.211563;-;-;-;-;-;-;-;-;-;-;-;-;-;-;-
1513511758396;-;-;8.952408;0.062438965;-2.381546;-;-;-;-;-;-;-;-;-;-;-;-;-;-;-
1513511758417;-;-;8.879379;0.02532959;-2.4186554;-;-;-;-;-;-;-;-;-;-;-;-;-;-;-
1513511758437;-;-;8.912903;0.014556885;-2.3444366;-;-;-;-;-;-;-;-;-;-;-;-;-;-;-
1513511758458;-;-;8.905716;0.1330719;-2.3647919;-;-;-;-;-;-;-;-;-;-;-;-;-;-;-
1513511758478;-;-;8.795593;0.1953125;-2.3396454;-;-;-;-;-;-;-;-;-;-;-;-;-;-;-
1513511758498;-;-;8.814743;0.014556885;-2.3923187;-;-;-;-;-;-;-;-;-;-;-;-;-;-;-
1513511758519;-;-;8.938049;-0.07762146;-2.2342987;-;-;-;-;-;-;-;-;-;-;-;-;-;-;-
1513511758539;-;-;8.958389;-0.10395813;-2.132553;-;-;-;-;-;-;-;-;-;-;-;-;-;-;-
1513511758560;-;-;9.029022;-0.13388062;-2.0870667;-;-;-;-;-;-;-;-;-;-;-;-;-;-;-
1513511758580;-;-;9.1523285;-0.17219543;-2.0595245;-;-;-;-;-;-;-;-;-;-;-;-;-;-;-
1513511758601;-;-;9.228943;-0.25958252;-1.966156;-;-;-;-;-;-;-;-;-;-;-;-;-;-;-
1513511758620;-;-;9.273239;-0.3433838;-1.9733429;-;-;-;-;-;-;-;-;-;-;-;-;-;-;-
1513511758641;-;-;9.251678;-0.45829773;-1.9565735;-;-;-;-;-;-;-;-;-;-;-;-;-;-;-
1513511758661;-;-;9.096069;-0.44154358;-2.0188293;-;-;-;-;-;-;-;-;-;-;-;-;-;-;-
1513511758681;-;-;8.92128;-0.3972473;-1.911087;-;-;-;-;-;-;-;-;-;-;-;-;-;-;-
1513511758701;-;-;9.069733;-0.21647644;-2.3145142;-;-;-;-;-;-;-;-;-;-;-;-;-;-;-
1513511758722;-;-;9.160706;0.0013885498;-2.3300781;-;-;-;-;-;-;-;-;-;-;-;-;-;-;-
1513511758742;-;-;9.306747;0.30426025;-2.3803558;-;-;-;-;-;-;-;-;-;-;-;-;-;-;-
1513511758763;-;-;9.29718;0.4072113;-2.3444366;-;-;-;-;-;-;-;-;-;-;-;-;-;-;-
1513511758783;-;-;9.015854;0.013366699;-1.9410095;-;-;-;-;-;-;-;-;-;-;-;-;-;-;-
1513511758804;-;-;8.746506;-0.26675415;-1.7710266;-;-;-;-;-;-;-;-;-;-;-;-;-;-;-
1513511758824;-;-;8.527435;-0.39485168;-1.8691864;-;-;-;-;-;-;-;-;-;-;-;-;-;-;-
1513511758845;-;-;8.416107;-0.2787323;-2.0116425;-;-;-;-;-;-;-;-;-;-;-;-;-;-;-
1513511758865;-;-;8.551376;-0.1925354;-2.1193848;-;-;-;-;-;-;-;-;-;-;-;-;-;-;-
1513511758886;-;-;8.950012;-0.20930481;-2.1433258;-;-;-;-;-;-;-;-;-;-;-;-;-;-;-
1513511758906;-;-;9.45639;-0.29788208;-2.2043762;-;-;-;-;-;-;-;-;-;-;-;-;-;-;-
1513511758927;-;-;9.485123;-0.32063293;-2.2498627;-;-;-;-;-;-;-;-;-;-;-;-;-;-;-
1513511758947;-;-;9.336685;-0.38049316;-2.2438812;-;-;-;-;-;-;-;-;-;-;-;-;-;-;-
1513511758967;-;-;9.194229;-0.35055542;-1.9075012;-;-;-;-;-;-;-;-;-;-;-;-;-;-;-
1513511758990;-;-;9.221756;-0.066848755;-1.6836395;-;-;-;-;-;-;-;-;-;-;-;-;-;-;-
1513511759010;-;-;9.021835;0.3030548;-1.5962524;-;-;-;-;-;-;-;-;-;-;-;-;-;-;-
1513511759031;-;-;8.910507;0.16419983;-1.6716614;-;-;-;-;-;-;-;-;-;-;-;-;-;-;-
1513511759050;-;-;8.963181;-0.05847168;-1.7482758;-;-;-;-;-;-;-;-;-;-;-;-;-;-;-
1513511759070;-;-;9.086487;-0.21289063;-1.9458008;-;-;-;-;-;-;-;-;-;-;-;-;-;-;-
1513511759091;-;-;9.122391;-0.26556396;-2.1014252;-;-;-;-;-;-;-;-;-;-;-;-;-;-;-
1513511759111;-;-;9.15712;-0.32901;-2.1062164;-;-;-;-;-;-;-;-;-;-;-;-;-;-;-
1513511759132;-;-;9.094864;-0.25479126;-1.9805145;-;-;-;-;-;-;-;-;-;-;-;-;-;-;-
1513511759152;-;-;9.023041;-0.19732666;-1.8895416;-;-;-;-;-;-;-;-;-;-;-;-;-;-;-
1513511759173;-;-;9.082901;-0.19613647;-1.8703918;-;-;-;-;-;-;-;-;-;-;-;-;-;-;-
1513511759193;-;-;9.13916;-0.10635376;-1.9565735;-;-;-;-;-;-;-;-;-;-;-;-;-;-;-
1513511759214;-;-;9.068527;-0.045303345;-2.0726929;-;-;-;-;-;-;-;-;-;-;-;-;-;-;-
1513511759234;-;-;9.006287;-0.07043457;-2.163681;-;-;-;-;-;-;-;-;-;-;-;-;-;-;-
1513511759255;-;-;8.972763;-0.21647644;-2.0272064;-;-;-;-;-;-;-;-;-;-;-;-;-;-;-
1513511759275;-;-;9.062546;-0.16500854;-1.8332825;-;-;-;-;-;-;-;-;-;-;-;-;-;-;-
1513511759295;-;-;8.976349;-0.16619873;-1.8213043;-;-;-;-;-;-;-;-;-;-;-;-;-;-;-
1513511759316;-;-;9.023041;-0.3074646;-1.8033447;-;-;-;-;-;-;-;-;-;-;-;-;-;-;-
1513511759335;-;-;9.108032;-0.33738708;-1.8512268;-;-;-;-;-;-;-;-;-;-;-;-;-;-;-
1513511759355;-;-;9.143951;-0.16740417;-1.8811646;-;-;-;-;-;-;-;-;-;-;-;-;-;-;-
1513511759376;-;-;9.111618;-0.03213501;-2.0355835;-;-;-;-;-;-;-;-;-;-;-;-;-;-;-
1513511759396;-;-;9.068527;-0.033325195;-1.950592;-;-;-;-;-;-;-;-;-;-;-;-;-;-;-
1513511759417;-;-;9.15712;-0.088394165;-2.0463562;-;-;-;-;-;-;-;-;-;-;-;-;-;-;-
1513511759437;-;-;9.153519;-0.17578125;-2.0643158;-;-;-;-;-;-;-;-;-;-;-;-;-;-;-
1513511759457;-;-;9.039795;-0.24401855;-2.0559387;-;-;-;-;-;-;-;-;-;-;-;-;-;-;-
1513511759478;-;-;8.917694;-0.32302856;-1.9170685;-;-;-;-;-;-;-;-;-;-;-;-;-;-;-
1513511759498;-;-;8.958389;-0.38887024;-1.8165131;-;-;-;-;-;-;-;-;-;-;-;-;-;-;-
1513511759519;-;-;9.026627;-0.40682983;-1.7506714;-;-;-;-;-;-;-;-;-;-;-;-;-;-;-
1513511759539;-;-;9.155914;-0.44154358;-1.7315216;-;-;-;-;-;-;-;-;-;-;-;-;-;-;-
1513511759560;-;-;9.172684;-0.4774475;-1.7662354;-;-;-;-;-;-;-;-;-;-;-;-;-;-;-
1513511759581;-;-;9.207397;-0.63427734;-1.8416595;-;-;-;-;-;-;-;-;-;-;-;-;-;-;-
1513511759601;-;-;9.12001;-0.7312317;-1.7339172;-;-;-;-;-;-;-;-;-;-;-;-;-;-;-
1513511759621;-;-;8.948822;-0.5780029;-1.7243347;-;-;-;-;-;-;-;-;-;-;-;-;-;-;-
1513511759642;-;-;9.033813;-0.30267334;-1.808136;-;-;-;-;-;-;-;-;-;-;-;-;-;-;-
1513511759662;-;-;9.262466;0.008575439;-1.7351074;-;-;-;-;-;-;-;-;-;-;-;-;-;-;-
1513511759683;-;-;9.363022;0.23841858;-1.6920166;-;-;-;-;-;-;-;-;-;-;-;-;-;-;-
1513511759704;-;-;9.312744;0.11392212;-1.6956024;-;-;-;-;-;-;-;-;-;-;-;-;-;-;-
1513511759724;-;-;9.108032;-0.22007751;-1.8224945;-;-;-;-;-;-;-;-;-;-;-;-;-;-;-
1513511759743;-;-;8.972763;-0.42477417;-1.7877808;-;-;-;-;-;-;-;-;-;-;-;-;-;-;-
1513511759764;-;-;8.856644;-0.52893066;-1.8380585;-;-;-;-;-;-;-;-;-;-;-;-;-;-;-
1513511759784;-;-;8.799179;-0.46427917;-1.7722168;-;-;-;-;-;-;-;-;-;-;-;-;-;-;-
1513511759804;-;-;8.830307;-0.31584167;-1.6632843;-;-;-;-;-;-;-;-;-;-;-;-;-;-;-
1513511759825;-;-;8.987122;-0.18655396;-1.6752625;-;-;-;-;-;-;-;-;-;-;-;-;-;-;-
1513511759845;-;-;9.121201;-0.1302948;-1.7351074;-;-;-;-;-;-;-;-;-;-;-;-;-;-;-
1513511759866;-;-;9.234924;-0.13748169;-1.7997589;-;-;-;-;-;-;-;-;-;-;-;-;-;-;-
1513511759887;-;-;9.212173;-0.11114502;-1.9470062;-;-;-;-;-;-;-;-;-;-;-;-;-;-;-
1513511759909;-;-;9.216965;-0.05847168;-1.9481964;-;-;-;-;-;-;-;-;-;-;-;-;-;-;-
1513511759928;-;-;9.29837;0.07800293;-2.0667114;-;-;-;-;-;-;-;-;-;-;-;-;-;-;-
1513511759948;-;-;9.096069;0.32699585;-1.9649506;-;-;-;-;-;-;-;-;-;-;-;-;-;-;-
1513511759968;-;-;9.055359;0.32580566;-1.8488312;-;-;-;-;-;-;-;-;-;-;-;-;-;-;-
1513511759989;-;-;9.082901;0.24919128;-1.737503;-;-;-;-;-;-;-;-;-;-;-;-;-;-;-
1513511760008;-;-;9.155914;0.0756073;-1.6465302;-;-;-;-;-;-;-;-;-;-;-;-;-;-;-
1513511760028;-;-;9.080505;-0.20092773;-1.7159576;-;-;-;-;-;-;-;-;-;-;-;-;-;-;-
1513511760049;-;-;8.929672;-0.25;-1.7171631;-;-;-;-;-;-;-;-;-;-;-;-;-;-;-
1513511760069;-;-;8.819534;-0.22366333;-1.5782928;-;-;-;-;-;-;-;-;-;-;-;-;-;-;-
1513511760089;-;-;8.836288;-0.18057251;-1.5579376;-;-;-;-;-;-;-;-;-;-;-;-;-;-;-
1513511760110;-;-;9.037399;-0.2212677;-1.574707;-;-;-;-;-;-;-;-;-;-;-;-;-;-;-
1513511760130;-;-;9.159515;-0.25837708;-1.6776581;-;-;-;-;-;-;-;-;-;-;-;-;-;-;-
1513511760150;-;-;9.276825;-0.32302856;-1.6656799;-;-;-;-;-;-;-;-;-;-;-;-;-;-;-
1513511760170;-;-;9.391739;-0.3768921;-1.6249847;-;-;-;-;-;-;-;-;-;-;-;-;-;-;-
1513511760191;-;-;9.385757;-0.26316833;-1.6800537;-;-;-;-;-;-;-;-;-;-;-;-;-;-;-
1513511760212;-;-;9.175064;-0.31344604;-1.6908264;-;-;-;-;-;-;-;-;-;-;-;-;-;-;-
1513511760232;-;-;9.019455;-0.33499146;-1.5148468;-;-;-;-;-;-;-;-;-;-;-;-;-;-;-
1513511760252;-;-;8.8051605;-0.26675415;-1.526825;-;-;-;-;-;-;-;-;-;-;-;-;-;-;-
1513511760272;-;-;8.871002;-0.06086731;-1.8069458;-;-;-;-;-;-;-;-;-;-;-;-;-;-;-
1513511760293;-;-;9.133179;0.20968628;-2.0260162;-;-;-;-;-;-;-;-;-;-;-;-;-;-;-
1513511760313;-;-;9.453995;0.19891357;-1.8272858;-;-;-;-;-;-;-;-;-;-;-;-;-;-;-
1513511760334;-;-;9.410904;-0.069244385;-1.753067;-;-;-;-;-;-;-;-;-;-;-;-;-;-;-
1513511760354;-;-;9.027832;-0.28471375;-1.6608887;-;-;-;-;-;-;-;-;-;-;-;-;-;-;-
1513511760375;-;-;8.740524;-0.45231628;-1.5423737;-;-;-;-;-;-;-;-;-;-;-;-;-;-;-
1513511760396;-;-;8.690247;-0.53730774;-1.5172424;-;-;-;-;-;-;-;-;-;-;-;-;-;-;-
1513511760416;-;-;8.826721;-0.43196106;-1.6273804;-;-;-;-;-;-;-;-;-;-;-;-;-;-;-
1513511760437;-;-;9.146347;-0.37210083;-1.6525116;-;-;-;-;-;-;-;-;-;-;-;-;-;-;-
1513511760456;-;-;9.448013;-0.35653687;-1.7458801;-;-;-;-;-;-;-;-;-;-;-;-;-;-;-
1513511760477;-;-;9.579697;-0.44631958;-1.7422943;-;-;-;-;-;-;-;-;-;-;-;-;-;-;-
1513511760497;-;-;9.330688;-0.4271698;-1.7363129;-;-;-;-;-;-;-;-;-;-;-;-;-;-;-
1513511760518;-;-;8.994308;-0.27035522;-1.6381531;-;-;-;-;-;-;-;-;-;-;-;-;-;-;-
1513511760538;-;-;8.793198;-0.0440979;-1.618988;-;-;-;-;-;-;-;-;-;-;-;-;-;-;-
1513511760559;-;-;8.891357;0.09475708;-1.5890656;-;-;-;-;-;-;-;-;-;-;-;-;-;-;-
1513511760580;-;-;9.244507;-0.012969971;-1.6333618;-;-;-;-;-;-;-;-;-;-;-;-;-;-;-
1513511760600;-;-;9.382172;-0.18415833;-1.6824341;-;-;-;-;-;-;-;-;-;-;-;-;-;-;-
1513511760621;-;-;9.364212;-0.210495;-1.6884308;-;-;-;-;-;-;-;-;-;-;-;-;-;-;-
1513511760641;-;-;9.167892;-0.21647644;-1.7901764;-;-;-;-;-;-;-;-;-;-;-;-;-;-;-
1513511760662;-;-;8.954803;-0.21887207;-1.8237;-;-;-;-;-;-;-;-;-;-;-;-;-;-;-
1513511760682;-;-;8.890167;-0.19374084;-1.8033447;-;-;-;-;-;-;-;-;-;-;-;-;-;-;-
1513511760702;-;-;9.014664;-0.26556396;-1.7051849;-;-;-;-;-;-;-;-;-;-;-;-;-;-;-
1513511760723;-;-;9.216965;-0.2787323;-1.832077;-;-;-;-;-;-;-;-;-;-;-;-;-;-;-
1513511760743;-;-;9.215775;-0.2212677;-1.6908264;-;-;-;-;-;-;-;-;-;-;-;-;-;-;-
1513511760763;-;-;9.042191;-0.105148315;-1.697998;-;-;-;-;-;-;-;-;-;-;-;-;-;-;-
1513511760783;-;-;8.904526;-0.14585876;-1.5256195;-;-;-;-;-;-;-;-;-;-;-;-;-;-;-
1513511760804;-;-;9.041;-0.3589325;-1.590271;-;-;-;-;-;-;-;-;-;-;-;-;-;-;-
1513511760824;-;-;9.212173;-0.31344604;-1.7279358;-;-;-;-;-;-;-;-;-;-;-;-;-;-;-
1513511760845;-;-;9.240906;-0.062057495;-1.7434998;-;-;-;-;-;-;-;-;-;-;-;-;-;-;-
1513511760865;-;-;9.179855;0.067230225;-1.7913818;-;-;-;-;-;-;-;-;-;-;-;-;-;-;-
1513511760886;-;-;9.142746;0.086380005;-1.9290466;-;-;-;-;-;-;-;-;-;-;-;-;-;-;-
1513511760906;-;-;9.036209;0.08998108;-1.9374237;-;-;-;-;-;-;-;-;-;-;-;-;-;-;-
1513511760926;-;-;9.054169;-0.0010070801;-1.8392639;-;-;-;-;-;-;-;-;-;-;-;-;-;-;-
1513511760947;-;-;9.074509;-0.19613647;-1.5627289;-;-;-;-;-;-;-;-;-;-;-;-;-;-;-
1513511760967;-;-;9.058945;-0.30148315;-1.480133;-;-;-;-;-;-;-;-;-;-;-;-;-;-;-
1513511760988;-;-;9.064941;-0.29309082;-1.531601;-;-;-;-;-;-;-;-;-;-;-;-;-;-;-
1513511761009;-;-;9.090073;-0.16261292;-1.618988;-;-;-;-;-;-;-;-;-;-;-;-;-;-;-
1513511761029;-;-;9.072113;-0.06324768;-1.7267303;-;-;-;-;-;-;-;-;-;-;-;-;-;-;-
1513511761049;-;-;9.091278;-0.06324768;-1.8260956;-;-;-;-;-;-;-;-;-;-;-;-;-;-;-
1513511761070;-;-;9.103241;-0.015365601;-1.8260956;-;-;-;-;-;-;-;-;-;-;-;-;-;-;-
1513511761091;-;-;9.030228;-0.047698975;-1.8763733;-;-;-;-;-;-;-;-;-;-;-;-;-;-;-
1513511761112;-;-;9.054169;-0.25598145;-1.8021545;-;-;-;-;-;-;-;-;-;-;-;-;-;-;-
1513511761132;-;-;9.091278;-0.5253296;-1.5387878;-;-;-;-;-;-;-;-;-;-;-;-;-;-;-
1513511761152;-;-;9.1128235;-0.66659546;-1.3149261;-;-;-;-;-;-;-;-;-;-;-;-;-;-;-
1513511761172;-;-;9.121201;-0.58758545;-1.1868439;-;-;-;-;-;-;-;-;-;-;-;-;-;-;-
1513511761193;-;-;9.123596;-0.5277252;-1.1904297;-;-;-;-;-;-;-;-;-;-;-;-;-;-;-
1513511761213;-;-;9.202606;-0.41879272;-1.3340912;-;-;-;-;-;-;-;-;-;-;-;-;-;-;-
1513511761234;-;-;9.29718;-0.2571869;-1.4669647;-;-;-;-;-;-;-;-;-;-;-;-;-;-;-
1513511761254;-;-;9.385757;-0.119522095;-1.6213837;-;-;-;-;-;-;-;-;-;-;-;-;-;-;-
1513511761275;-;-;9.374985;0.12828064;-1.7279358;-;-;-;-;-;-;-;-;-;-;-;-;-;-;-
1513511761295;-;-;9.343857;0.1953125;-1.7985535;-;-;-;-;-;-;-;-;-;-;-;-;-;-;-
1513511761314;-;-;9.23851;0.11869812;-1.7518768;-;-;-;-;-;-;-;-;-;-;-;-;-;-;-
1513511761335;-;-;9.15831;-0.11352539;-1.6944122;-;-;-;-;-;-;-;-;-;-;-;-;-;-;-
1513511761355;-;-;9.102051;-0.31225586;-1.6453247;-;-;-;-;-;-;-;-;-;-;-;-;-;-;-
1513511761376;-;-;9.008667;-0.4259796;-1.5854797;-;-;-;-;-;-;-;-;-;-;-;-;-;-;-
1513511761396;-;-;8.912903;-0.39485168;-1.5016785;-;-;-;-;-;-;-;-;-;-;-;-;-;-;-
1513511761417;-;-;8.90094;-0.30267334;-1.4813232;-;-;-;-;-;-;-;-;-;-;-;-;-;-;-
1513511761437;-;-;8.935654;-0.1985321;-1.4466095;-;-;-;-;-;-;-;-;-;-;-;-;-;-;-
1513511761458;-;-;9.001495;-0.2799225;-1.4621735;-;-;-;-;-;-;-;-;-;-;-;-;-;-;-
1513511761478;-;-;9.130783;-0.3876648;-1.4274597;-;-;-;-;-;-;-;-;-;-;-;-;-;-;-
1513511761498;-;-;9.213379;-0.4738617;-1.4226685;-;-;-;-;-;-;-;-;-;-;-;-;-;-;-
1513511761519;-;-;9.29718;-0.55526733;-1.3245087;-;-;-;-;-;-;-;-;-;-;-;-;-;-;-
1513511761540;-;-;9.257675;-0.463089;-1.337677;-;-;-;-;-;-;-;-;-;-;-;-;-;-;-
1513511761560;-;-;9.221756;-0.21528625;-1.3640137;-;-;-;-;-;-;-;-;-;-;-;-;-;-;-
1513511761580;-;-;9.172684;-0.093185425;-1.4382324;-;-;-;-;-;-;-;-;-;-;-;-;-;-;-
1513511761600;-;-;9.187042;0.014556885;-1.5052643;-;-;-;-;-;-;-;-;-;-;-;-;-;-;-
1513511761621;-;-;9.184647;0.076812744;-1.614212;-;-;-;-;-;-;-;-;-;-;-;-;-;-;-
1513511761641;-;-;9.149933;-0.033325195;-1.6692657;-;-;-;-;-;-;-;-;-;-;-;-;-;-;-
1513511761662;-;-;9.090073;-0.21647644;-1.4645691;-;-;-;-;-;-;-;-;-;-;-;-;-;-;-
1513511761682;-;-;9.075714;-0.3577423;-1.1928253;-;-;-;-;-;-;-;-;-;-;-;-;-;-;-
1513511761703;-;-;9.001495;-0.50138855;-1.2945862;-;-;-;-;-;-;-;-;-;-;-;-;-;-;-
1513511761723;-;-;9.031418;-0.5636444;-1.3759766;-;-;-;-;-;-;-;-;-;-;-;-;-;-;-
1513511761743;-;-;9.2313385;-0.5361023;-1.3999176;-;-;-;-;-;-;-;-;-;-;-;-;-;-;-
1513511761763;-;-;9.248093;-0.35055542;-1.5196381;-;-;-;-;-;-;-;-;-;-;-;-;-;-;-
1513511761784;-;-;9.261261;-0.16381836;-1.6070251;-;-;-;-;-;-;-;-;-;-;-;-;-;-;-
1513511761804;-;-;9.183456;0.0025787354;-1.5758972;-;-;-;-;-;-;-;-;-;-;-;-;-;-;-
1513511761825;-;-;9.100845;0.043289185;-1.6082153;-;-;-;-;-;-;-;-;-;-;-;-;-;-;-
1513511761845;-;-;9.09845;-0.042907715;-1.6369476;-;-;-;-;-;-;-;-;-;-;-;-;-;-;-
1513511761865;-;-;9.178665;-0.100372314;-1.6429291;-;-;-;-;-;-;-;-;-;-;-;-;-;-;-
1513511761886;-;-;9.181061;-0.13627625;-1.5543518;-;-;-;-;-;-;-;-;-;-;-;-;-;-;-
1513511761906;-;-;9.099655;-0.20690918;-1.4418182;-;-;-;-;-;-;-;-;-;-;-;-;-;-;-
1513511761927;-;-;9.045776;-0.34098816;-1.4023132;-;-;-;-;-;-;-;-;-;-;-;-;-;-;-
1513511761947;-;-;9.042191;-0.42837524;-1.3867645;-;-;-;-;-;-;-;-;-;-;-;-;-;-;-
1513511761968;-;-;9.069733;-0.40802002;-1.361618;-;-;-;-;-;-;-;-;-;-;-;-;-;-;-
1513511761988;-;-;9.0793;-0.2775421;-1.3352814;-;-;-;-;-;-;-;-;-;-;-;-;-;-;-
1513511762009;-;-;9.06134;-0.20451355;-1.3269043;-;-;-;-;-;-;-;-;-;-;-;-;-;-;-
1513511762029;-;-;9.130783;-0.17817688;-1.3388672;-;-;-;-;-;-;-;-;-;-;-;-;-;-;-
1513511762050;-;-;9.230133;-0.18655396;-1.3735962;-;-;-;-;-;-;-;-;-;-;-;-;-;-;-
1513511762070;-;-;9.257675;-0.2392273;-1.4825287;-;-;-;-;-;-;-;-;-;-;-;-;-;-;-
1513511762090;-;-;9.254074;-0.23803711;-1.6130066;-;-;-;-;-;-;-;-;-;-;-;-;-;-;-
1513511762111;-;-;9.228943;-0.052474976;-1.674057;-;-;-;-;-;-;-;-;-;-;-;-;-;-;-
1513511762131;-;-;9.215775;0.26594543;-1.7817993;-;-;-;-;-;-;-;-;-;-;-;-;-;-;-
1513511762152;-;-;9.200211;0.28271484;-1.8667908;-;-;-;-;-;-;-;-;-;-;-;-;-;-;-
1513511762172;-;-;9.0793;0.050476074;-1.8500366;-;-;-;-;-;-;-;-;-;-;-;-;-;-;-
1513511762193;-;-;8.954803;-0.1590271;-1.653717;-;-;-;-;-;-;-;-;-;-;-;-;-;-;-
1513511762213;-;-;8.936844;-0.35295105;-1.5136566;-;-;-;-;-;-;-;-;-;-;-;-;-;-;-
1513511762233;-;-;8.9392395;-0.42837524;-1.337677;-;-;-;-;-;-;-;-;-;-;-;-;-;-;-
1513511762253;-;-;8.993118;-0.42118835;-1.3280945;-;-;-;-;-;-;-;-;-;-;-;-;-;-;-
1513511762274;-;-;9.167892;-0.36132813;-1.3747864;-;-;-;-;-;-;-;-;-;-;-;-;-;-;-
1513511762293;-;-;9.336685;-0.23803711;-1.4274597;-;-;-;-;-;-;-;-;-;-;-;-;-;-;-
1513511762313;-;-;9.431244;-0.24760437;-1.4944916;-;-;-;-;-;-;-;-;-;-;-;-;-;-;-
1513511762334;-;-;9.517441;-0.2033081;-1.4514008;-;-;-;-;-;-;-;-;-;-;-;-;-;-;-
1513511762353;-;-;9.361816;-0.100372314;-1.3699951;-;-;-;-;-;-;-;-;-;-;-;-;-;-;-
1513511762373;-;-;9.155914;0.055252075;-1.3256989;-;-;-;-;-;-;-;-;-;-;-;-;-;-;-
1513511762394;-;-;8.941635;0.13186646;-1.1629028;-;-;-;-;-;-;-;-;-;-;-;-;-;-;-
1513511762414;-;-;8.915298;0.050476074;-1.2838135;-;-;-;-;-;-;-;-;-;-;-;-;-;-;-
1513511762434;-;-;8.911713;-0.081207275;-1.6333618;-;-;-;-;-;-;-;-;-;-;-;-;-;-;-
1513511762455;-;-;9.124786;-0.25239563;-1.6321564;-;-;-;-;-;-;-;-;-;-;-;-;-;-;-
1513511762476;-;-;9.31752;-0.19493103;-1.6285706;-;-;-;-;-;-;-;-;-;-;-;-;-;-;-
1513511762496;-;-;9.463577;-0.11831665;-1.9086914;-;-;-;-;-;-;-;-;-;-;-;-;-;-;-
1513511762517;-;-;9.470749;-0.19493103;-1.6716614;-;-;-;-;-;-;-;-;-;-;-;-;-;-;-
1513511762536;-;-;9.184647;-0.48942566;-1.3029633;-;-;-;-;-;-;-;-;-;-;-;-;-;-;-
1513511762557;-;-;8.624405;-0.5337219;-1.3699951;-;-;-;-;-;-;-;-;-;-;-;-;-;-;-
1513511762577;-;-;8.437653;-0.41999817;-1.4382324;-;-;-;-;-;-;-;-;-;-;-;-;-;-;-
1513511762597;-;-;8.588486;-0.10395813;-1.3855591;-;-;-;-;-;-;-;-;-;-;-;-;-;-;-
1513511762618;-;-;8.935654;0.03491211;-1.4023132;-;-;-;-;-;-;-;-;-;-;-;-;-;-;-
1513511762637;-;-;9.171478;0.06602478;-1.471756;-;-;-;-;-;-;-;-;-;-;-;-;-;-;-
1513511762657;-;-;9.436035;-0.033325195;-1.401123;-;-;-;-;-;-;-;-;-;-;-;-;-;-;-
1513511762678;-;-;9.719757;-0.25598145;-1.2179718;-;-;-;-;-;-;-;-;-;-;-;-;-;-;-
1513511762698;-;-;9.649124;-0.20930481;-1.3580322;-;-;-;-;-;-;-;-;-;-;-;-;-;-;-
1513511762718;-;-;9.3151245;-0.121917725;-1.4573822;-;-;-;-;-;-;-;-;-;-;-;-;-;-;-
1513511762739;-;-;9.081696;-0.15542603;-1.4813232;-;-;-;-;-;-;-;-;-;-;-;-;-;-;-
1513511762759;-;-;8.997894;-0.08241272;-1.5387878;-;-;-;-;-;-;-;-;-;-;-;-;-;-;-
1513511762780;-;-;9.193024;0.17376709;-1.5627289;-;-;-;-;-;-;-;-;-;-;-;-;-;-;-
1513511762800;-;-;9.390549;0.2348175;-1.7111664;-;-;-;-;-;-;-;-;-;-;-;-;-;-;-
1513511762820;-;-;9.489914;0.086380005;-1.7973633;-;-;-;-;-;-;-;-;-;-;-;-;-;-;-
1513511762841;-;-;9.442017;-0.09437561;-1.7123718;-;-;-;-;-;-;-;-;-;-;-;-;-;-;-
1513511762862;-;-;9.214569;-0.26914978;-1.5220337;-;-;-;-;-;-;-;-;-;-;-;-;-;-;-
1513511762881;-;-;8.708206;-0.2033081;-1.3604279;-;-;-;-;-;-;-;-;-;-;-;-;-;-;-
1513511762902;-;-;8.478363;-0.1697998;-1.3999176;-;-;-;-;-;-;-;-;-;-;-;-;-;-;-
1513511762922;-;-;8.509476;-0.057266235;-1.3065491;-;-;-;-;-;-;-;-;-;-;-;-;-;-;-
1513511762942;-;-;8.671097;0.04927063;-1.258667;-;-;-;-;-;-;-;-;-;-;-;-;-;-;-
1513511762962;-;-;9.088882;0.02532959;-1.5004883;-;-;-;-;-;-;-;-;-;-;-;-;-;-;-
1513511762983;-;-;9.355835;-0.08720398;-1.6632843;-;-;-;-;-;-;-;-;-;-;-;-;-;-;-
1513511763003;-;-;9.562927;-0.20930481;-1.6369476;-;-;-;-;-;-;-;-;-;-;-;-;-;-;-
1513511763023;-;-;9.543777;-0.33259583;-1.4765472;-;-;-;-;-;-;-;-;-;-;-;-;-;-;-
1513511763044;-;-;9.419281;-0.3433838;-1.3843689;-;-;-;-;-;-;-;-;-;-;-;-;-;-;-
1513511763064;-;-;9.260071;-0.33859253;-1.2694397;-;-;-;-;-;-;-;-;-;-;-;-;-;-;-
1513511763085;-;-;9.109222;-0.20690918;-1.3735962;-;-;-;-;-;-;-;-;-;-;-;-;-;-;-
1513511763105;-;-;9.031418;-0.15423584;-1.4789276;-;-;-;-;-;-;-;-;-;-;-;-;-;-;-
1513511763126;-;-;9.1128235;-0.097976685;-1.440628;-;-;-;-;-;-;-;-;-;-;-;-;-;-;-
1513511763146;-;-;9.214569;-0.06324768;-1.4729462;-;-;-;-;-;-;-;-;-;-;-;-;-;-;-
1513511763167;-;-;9.221756;-0.102752686;-1.5052643;-;-;-;-;-;-;-;-;-;-;-;-;-;-;-
1513511763188;-;-;9.215775;-0.12310791;-1.5543518;-;-;-;-;-;-;-;-;-;-;-;-;-;-;-
1513511763208;-;-;9.160706;-0.15065002;-1.5591431;-;-;-;-;-;-;-;-;-;-;-;-;-;-;-
1513511763229;-;-;9.056564;-0.24401855;-1.4885101;-;-;-;-;-;-;-;-;-;-;-;-;-;-;-
1513511763249;-;-;9.037399;-0.24760437;-1.3951416;-;-;-;-;-;-;-;-;-;-;-;-;-;-;-
1513511763269;-;-;9.030228;-0.14944458;-1.3556366;-;-;-;-;-;-;-;-;-;-;-;-;-;-;-
1513511763290;-;-;9.038605;-0.11352539;-1.3580322;-;-;-;-;-;-;-;-;-;-;-;-;-;-;-
1513511763310;-;-;9.100845;-0.24641418;-1.3819733;-;-;-;-;-;-;-;-;-;-;-;-;-;-;-
1513511763331;-;-;9.284012;-0.36611938;-1.2957764;-;-;-;-;-;-;-;-;-;-;-;-;-;-;-
1513511763352;-;-;9.2708435;-0.39604187;-1.2550812;-;-;-;-;-;-;-;-;-;-;-;-;-;-;-
1513511763372;-;-;9.215775;-0.25120544;-1.2814178;-;-;-;-;-;-;-;-;-;-;-;-;-;-;-
1513511763392;-;-;9.121201;-0.17338562;-1.3173218;-;-;-;-;-;-;-;-;-;-;-;-;-;-;-
1513511763412;-;-;9.092468;-0.12669373;-1.3652039;-;-;-;-;-;-;-;-;-;-;-;-;-;-;-
1513511763433;-;-;9.185837;-0.071640015;-1.5208282;-;-;-;-;-;-;-;-;-;-;-;-;-;-;-
1513511763453;-;-;9.337875;0.067230225;-1.7638397;-;-;-;-;-;-;-;-;-;-;-;-;-;-;-
1513511763474;-;-;9.408508;0.20968628;-1.8584137;-;-;-;-;-;-;-;-;-;-;-;-;-;-;-
1513511763493;-;-;9.252884;0.112716675;-1.7279358;-;-;-;-;-;-;-;-;-;-;-;-;-;-;-
1513511763513;-;-;8.904526;-0.0440979;-1.689621;-;-;-;-;-;-;-;-;-;-;-;-;-;-;-
1513511763534;-;-;8.616028;-0.16021729;-1.6381531;-;-;-;-;-;-;-;-;-;-;-;-;-;-;-
1513511763555;-;-;8.551376;-0.23085022;-1.5639343;-;-;-;-;-;-;-;-;-;-;-;-;-;-;-
1513511763574;-;-;8.766861;-0.20809937;-1.5172424;-;-;-;-;-;-;-;-;-;-;-;-;-;-;-
1513511763595;-;-;9.0972595;-0.25837708;-1.4861145;-;-;-;-;-;-;-;-;-;-;-;-;-;-;-
1513511763616;-;-;9.390549;-0.40203857;-1.4573822;-;-;-;-;-;-;-;-;-;-;-;-;-;-;-
1513511763636;-;-;9.570114;-0.54927063;-1.2969818;-;-;-;-;-;-;-;-;-;-;-;-;-;-;-
1513511763656;-;-;9.479141;-0.6905365;-1.4944916;-;-;-;-;-;-;-;-;-;-;-;-;-;-;-
1513511763676;-;-;9.301956;-0.64624023;-1.5411835;-;-;-;-;-;-;-;-;-;-;-;-;-;-;-
1513511763697;-;-;9.200211;-0.46069336;-1.4190826;-;-;-;-;-;-;-;-;-;-;-;-;-;-;-
1513511763717;-;-;9.111618;-0.32781982;-1.3915405;-;-;-;-;-;-;-;-;-;-;-;-;-;-;-
1513511763738;-;-;9.160706;-0.21768188;-1.4741516;-;-;-;-;-;-;-;-;-;-;-;-;-;-;-
1513511763758;-;-;9.23613;-0.2033081;-1.5735016;-;-;-;-;-;-;-;-;-;-;-;-;-;-;-
1513511763779;-;-;9.305557;-0.11592102;-1.697998;-;-;-;-;-;-;-;-;-;-;-;-;-;-;-
1513511763798;-;-;9.361816;-0.0045928955;-1.7650452;-;-;-;-;-;-;-;-;-;-;-;-;-;-;-
1513511763819;-;-;9.304352;0.18574524;-1.8308868;-;-;-;-;-;-;-;-;-;-;-;-;-;-;-
1513511763839;-;-;8.972763;0.27911377;-1.9434052;-;-;-;-;-;-;-;-;-;-;-;-;-;-;-
1513511763859;-;-;8.638763;-0.030929565;-1.7363129;-;-;-;-;-;-;-;-;-;-;-;-;-;-;-
1513511763880;-;-;8.630386;-0.38049316;-1.6620941;-;-;-;-;-;-;-;-;-;-;-;-;-;-;-
1513511763900;-;-;8.793198;-0.5708313;-1.7782135;-;-;-;-;-;-;-;-;-;-;-;-;-;-;-
1513511763921;-;-;9.092468;-0.49661255;-1.8619995;-;-;-;-;-;-;-;-;-;-;-;-;-;-;-
1513511763942;-;-;9.273239;-0.29788208;-1.7758179;-;-;-;-;-;-;-;-;-;-;-;-;-;-;-
1513511763962;-;-;9.281616;-0.13388062;-1.595047;-;-;-;-;-;-;-;-;-;-;-;-;-;-;-
1513511763982;-;-;9.278015;-0.15782166;-1.4286499;-;-;-;-;-;-;-;-;-;-;-;-;-;-;-
1513511764003;-;-;9.183456;-0.35653687;-1.4573822;-;-;-;-;-;-;-;-;-;-;-;-;-;-;-
1513511764023;-;-;9.086487;-0.54927063;-1.3975372;-;-;-;-;-;-;-;-;-;-;-;-;-;-;-
1513511764044;-;-;9.015854;-0.67378235;-1.3065491;-;-;-;-;-;-;-;-;-;-;-;-;-;-;-
1513511764063;-;-;9.037399;-0.5564575;-1.3125305;-;-;-;-;-;-;-;-;-;-;-;-;-;-;-
1513511764083;-;-;9.108032;-0.47265625;-1.3568268;-;-;-;-;-;-;-;-;-;-;-;-;-;-;-
1513511764104;-;-;9.105637;-0.47505188;-1.2969818;-;-;-;-;-;-;-;-;-;-;-;-;-;-;-
1513511764124;-;-;9.181061;-0.4559021;-1.3017578;-;-;-;-;-;-;-;-;-;-;-;-;-;-;-
1513511764144;-;-;9.190628;-0.32302856;-1.4023132;-;-;-;-;-;-;-;-;-;-;-;-;-;-;-
1513511764165;-;-;9.252884;-0.2799225;-1.531601;-;-;-;-;-;-;-;-;-;-;-;-;-;-;-
1513511764185;-;-;9.29837;-0.19013977;-1.5148468;-;-;-;-;-;-;-;-;-;-;-;-;-;-;-
1513511764206;-;-;9.274429;-0.13269043;-1.5196381;-;-;-;-;-;-;-;-;-;-;-;-;-;-;-
1513511764227;-;-;9.15831;-0.14465332;-1.511261;-;-;-;-;-;-;-;-;-;-;-;-;-;-;-
1513511764246;-;-;9.143951;-0.2392273;-1.531601;-;-;-;-;-;-;-;-;-;-;-;-;-;-;-
1513511764266;-;-;8.984726;-0.28710938;-1.7267303;-;-;-;-;-;-;-;-;-;-;-;-;-;-;-
1513511764287;-;-;8.965576;-0.2212677;-1.7614441;-;-;-;-;-;-;-;-;-;-;-;-;-;-;-
1513511764307;-;-;8.938049;-0.13627625;-1.7279358;-;-;-;-;-;-;-;-;-;-;-;-;-;-;-
1513511764327;-;-;8.983536;-0.16381836;-1.6884308;-;-;-;-;-;-;-;-;-;-;-;-;-;-;-
1513511764348;-;-;9.021835;-0.10874939;-1.7051849;-;-;-;-;-;-;-;-;-;-;-;-;-;-;-
1513511764368;-;-;9.096069;-0.18655396;-1.629776;-;-;-;-;-;-;-;-;-;-;-;-;-;-;-
1513511764389;-;-;9.054169;-0.26914978;-1.5519562;-;-;-;-;-;-;-;-;-;-;-;-;-;-;-
1513511764409;-;-;9.032608;-0.3182373;-1.5208282;-;-;-;-;-;-;-;-;-;-;-;-;-;-;-
1513511764429;-;-;9.070923;-0.31704712;-1.4334412;-;-;-;-;-;-;-;-;-;-;-;-;-;-;-
1513511764449;-;-;9.164291;-0.28352356;-1.4573822;-;-;-;-;-;-;-;-;-;-;-;-;-;-;-
1513511764470;-;-;9.323517;-0.2799225;-1.4466095;-;-;-;-;-;-;-;-;-;-;-;-;-;-;-
1513511764490;-;-;9.382172;-0.37330627;-1.4789276;-;-;-;-;-;-;-;-;-;-;-;-;-;-;-
1513511764511;-;-;9.383362;-0.49061584;-1.4310455;-;-;-;-;-;-;-;-;-;-;-;-;-;-;-
1513511764531;-;-;9.321121;-0.49661255;-1.4130859;-;-;-;-;-;-;-;-;-;-;-;-;-;-;-
1513511764552;-;-;9.160706;-0.42358398;-1.3723907;-;-;-;-;-;-;-;-;-;-;-;-;-;-;-
1513511764572;-;-;9.137955;-0.37809753;-1.3269043;-;-;-;-;-;-;-;-;-;-;-;-;-;-;-
1513511764596;-;-;9.104446;-0.3864746;-1.3053589;-;-;-;-;-;-;-;-;-;-;-;-;-;-;-
1513511764616;-;-;9.14035;-0.45350647;-1.322113;-;-;-;-;-;-;-;-;-;-;-;-;-;-;-
1513511764637;-;-;9.209793;-0.44033813;-1.353241;-;-;-;-;-;-;-;-;-;-;-;-;-;-;-
1513511764657;-;-;9.21817;-0.38887024;-1.3879547;-;-;-;-;-;-;-;-;-;-;-;-;-;-;-
1513511764678;-;-;9.155914;-0.3146515;-1.4262543;-;-;-;-;-;-;-;-;-;-;-;-;-;-;-
1513511764698;-;-;9.121201;-0.25598145;-1.6632843;-;-;-;-;-;-;-;-;-;-;-;-;-;-;-
1513511764718;-;-;9.1918335;-0.12071228;-1.7422943;-;-;-;-;-;-;-;-;-;-;-;-;-;-;-
1513511764739;-;-;9.371399;0.02293396;-1.9434052;-;-;-;-;-;-;-;-;-;-;-;-;-;-;-
1513511764759;-;-;9.295975;0.010971069;-1.9362335;-;-;-;-;-;-;-;-;-;-;-;-;-;-;-
1513511764779;-;-;9.052963;-0.083602905;-1.8201141;-;-;-;-;-;-;-;-;-;-;-;-;-;-;-
1513511764800;-;-;8.746506;-0.16740417;-1.777008;-;-;-;-;-;-;-;-;-;-;-;-;-;-;-
1513511764820;-;-;8.660324;-0.18057251;-1.6357574;-;-;-;-;-;-;-;-;-;-;-;-;-;-;-
1513511764841;-;-;8.771652;-0.100372314;-1.6812439;-;-;-;-;-;-;-;-;-;-;-;-;-;-;-
1513511764862;-;-;9.014664;-0.21887207;-1.6249847;-;-;-;-;-;-;-;-;-;-;-;-;-;-;-
1513511764882;-;-;9.284012;-0.3469696;-1.4705505;-;-;-;-;-;-;-;-;-;-;-;-;-;-;-
1513511764902;-;-;9.299576;-0.47625732;-1.4238739;-;-;-;-;-;-;-;-;-;-;-;-;-;-;-
1513511764923;-;-;9.188232;-0.5564575;-1.4083099;-;-;-;-;-;-;-;-;-;-;-;-;-;-;-
1513511764943;-;-;9.092468;-0.5504761;-1.3867645;-;-;-;-;-;-;-;-;-;-;-;-;-;-;-
1513511764963;-;-;9.044586;-0.50138855;-1.3699951;-;-;-;-;-;-;-;-;-;-;-;-;-;-;-
1513511764984;-;-;9.050568;-0.42237854;-1.361618;-;-;-;-;-;-;-;-;-;-;-;-;-;-;-
1513511765004;-;-;9.252884;-0.36611938;-1.2778168;-;-;-;-;-;-;-;-;-;-;-;-;-;-;-
1513511765024;-;-;9.361816;-0.4044342;-1.3065491;-;-;-;-;-;-;-;-;-;-;-;-;-;-;-
1513511765045;-;-;9.3103485;-0.3864746;-1.3556366;-;-;-;-;-;-;-;-;-;-;-;-;-;-;-
1513511765065;-;-;9.197815;-0.39006042;-1.3065491;-;-;-;-;-;-;-;-;-;-;-;-;-;-;-
1513511765085;-;-;9.142746;-0.3876648;-1.3544312;-;-;-;-;-;-;-;-;-;-;-;-;-;-;-
1513511765106;-;-;9.153519;-0.45111084;-1.3664093;-;-;-;-;-;-;-;-;-;-;-;-;-;-;-
1513511765127;-;-;9.183456;-0.49421692;-1.3628082;-;-;-;-;-;-;-;-;-;-;-;-;-;-;-
1513511765147;-;-;9.213379;-0.45829773;-1.3939362;-;-;-;-;-;-;-;-;-;-;-;-;-;-;-
1513511765168;-;-;9.136765;-0.35534668;-1.5938568;-;-;-;-;-;-;-;-;-;-;-;-;-;-;-
1513511765188;-;-;9.230133;-0.059661865;-1.9075012;-;-;-;-;-;-;-;-;-;-;-;-;-;-;-
1513511765209;-;-;9.485123;0.26594543;-2.1505127;-;-;-;-;-;-;-;-;-;-;-;-;-;-;-
1513511765230;-;-;9.482727;0.28390503;-1.9613647;-;-;-;-;-;-;-;-;-;-;-;-;-;-;-
1513511765250;-;-;8.90213;-0.1590271;-1.6249847;-;-;-;-;-;-;-;-;-;-;-;-;-;-;-
1513511765271;-;-;8.32991;-0.7623596;-1.452591;-;-;-;-;-;-;-;-;-;-;-;-;-;-;-
1513511765292;-;-;8.359848;-0.8305969;-1.3712006;-;-;-;-;-;-;-;-;-;-;-;-;-;-;-
1513511765311;-;-;8.643555;-0.59954834;-1.4514008;-;-;-;-;-;-;-;-;-;-;-;-;-;-;-
1513511765332;-;-;9.136765;-0.33021545;-1.526825;-;-;-;-;-;-;-;-;-;-;-;-;-;-;-
1513511765352;-;-;9.625183;-0.20570374;-1.5004883;-;-;-;-;-;-;-;-;-;-;-;-;-;-;-
1513511765373;-;-;9.963959;-0.35534668;-1.4286499;-;-;-;-;-;-;-;-;-;-;-;-;-;-;-
1513511765392;-;-;10.015442;-0.52293396;-1.4777374;-;-;-;-;-;-;-;-;-;-;-;-;-;-;-
1513511765412;-;-;9.529419;-0.56604004;-1.4897003;-;-;-;-;-;-;-;-;-;-;-;-;-;-;-
1513511765433;-;-;8.898544;-0.3697052;-1.3975372;-;-;-;-;-;-;-;-;-;-;-;-;-;-;-
1513511765453;-;-;8.735733;-0.22007751;-1.2921906;-;-;-;-;-;-;-;-;-;-;-;-;-;-;-
1513511765474;-;-;8.815933;-0.2033081;-1.2682495;-;-;-;-;-;-;-;-;-;-;-;-;-;-;-
1513511765495;-;-;9.093674;-0.28112793;-1.3963318;-;-;-;-;-;-;-;-;-;-;-;-;-;-;-
1513511765515;-;-;9.282806;-0.28831482;-1.6225891;-;-;-;-;-;-;-;-;-;-;-;-;-;-;-
1513511765536;-;-;9.240906;-0.26914978;-1.7051849;-;-;-;-;-;-;-;-;-;-;-;-;-;-;-
1513511765556;-;-;9.196625;-0.38287354;-1.6429291;-;-;-;-;-;-;-;-;-;-;-;-;-;-;-
1513511765576;-;-;9.163101;-0.46069336;-1.6022339;-;-;-;-;-;-;-;-;-;-;-;-;-;-;-
1513511765597;-;-;9.091278;-0.59117126;-1.6261749;-;-;-;-;-;-;-;-;-;-;-;-;-;-;-
1513511765617;-;-;8.964386;-0.5540619;-1.6034393;-;-;-;-;-;-;-;-;-;-;-;-;-;-;-
1513511765638;-;-;8.911713;-0.51216125;-1.5519562;-;-;-;-;-;-;-;-;-;-;-;-;-;-;-
1513511765659;-;-;8.975159;-0.32781982;-1.4645691;-;-;-;-;-;-;-;-;-;-;-;-;-;-;-
1513511765680;-;-;9.037399;-0.2787323;-1.4286499;-;-;-;-;-;-;-;-;-;-;-;-;-;-;-
1513511765699;-;-;9.232529;-0.19374084;-1.3879547;-;-;-;-;-;-;-;-;-;-;-;-;-;-;-
1513511765719;-;-;9.324707;-0.24162292;-1.377182;-;-;-;-;-;-;-;-;-;-;-;-;-;-;-
1513511765740;-;-;9.359421;-0.28710938;-1.4992828;-;-;-;-;-;-;-;-;-;-;-;-;-;-;-
1513511765760;-;-;9.348648;-0.33738708;-1.5172424;-;-;-;-;-;-;-;-;-;-;-;-;-;-;-
1513511765781;-;-;9.2313385;-0.32661438;-1.5004883;-;-;-;-;-;-;-;-;-;-;-;-;-;-;-
1513511765802;-;-;9.165497;-0.2571869;-1.4442139;-;-;-;-;-;-;-;-;-;-;-;-;-;-;-
1513511765822;-;-;9.09845;-0.25479126;-1.3939362;-;-;-;-;-;-;-;-;-;-;-;-;-;-;-
1513511765843;-;-;9.023041;-0.32781982;-1.3903503;-;-;-;-;-;-;-;-;-;-;-;-;-;-;-
1513511765863;-;-;9.086487;-0.35534668;-1.3628082;-;-;-;-;-;-;-;-;-;-;-;-;-;-;-
1513511765884;-;-;9.07811;-0.36611938;-1.4047089;-;-;-;-;-;-;-;-;-;-;-;-;-;-;-
1513511765905;-;-;9.125992;-0.34457397;-1.4741516;-;-;-;-;-;-;-;-;-;-;-;-;-;-;-
1513511765925;-;-;9.166687;-0.32302856;-1.4382324;-;-;-;-;-;-;-;-;-;-;-;-;-;-;-
1513511765945;-;-;9.133179;-0.31584167;-1.4370422;-;-;-;-;-;-;-;-;-;-;-;-;-;-;-
1513511765966;-;-;9.188232;-0.2775421;-1.5328064;-;-;-;-;-;-;-;-;-;-;-;-;-;-;-
1513511765986;-;-;9.146347;-0.25239563;-1.5411835;-;-;-;-;-;-;-;-;-;-;-;-;-;-;-
1513511766007;-;-;9.143951;-0.2679596;-1.5076599;-;-;-;-;-;-;-;-;-;-;-;-;-;-;-
1513511766028;-;-;9.254074;-0.22605896;-1.471756;-;-;-;-;-;-;-;-;-;-;-;-;-;-;-
1513511766048;-;-;9.311539;-0.16381836;-1.3879547;-;-;-;-;-;-;-;-;-;-;-;-;-;-;-
1513511766067;-;-;9.23732;-0.1410675;-1.361618;-;-;-;-;-;-;-;-;-;-;-;-;-;-;-
1513511766088;-;-;9.041;-0.24162292;-1.2754211;-;-;-;-;-;-;-;-;-;-;-;-;-;-;-
1513511766108;-;-;9.003891;-0.28831482;-1.282608;-;-;-;-;-;-;-;-;-;-;-;-;-;-;-
1513511766129;-;-;9.056564;-0.2392273;-1.3328857;-;-;-;-;-;-;-;-;-;-;-;-;-;-;-
1513511766149;-;-;9.179855;-0.16261292;-1.3699951;-;-;-;-;-;-;-;-;-;-;-;-;-;-;-
1513511766170;-;-;9.321121;-0.1302948;-1.4130859;-;-;-;-;-;-;-;-;-;-;-;-;-;-;-
1513511766190;-;-;9.309143;-0.13508606;-1.3664093;-;-;-;-;-;-;-;-;-;-;-;-;-;-;-
1513511766211;-;-;9.117615;-0.21647644;-1.3592224;-;-;-;-;-;-;-;-;-;-;-;-;-;-;-
1513511766231;-;-;9.037399;-0.24401855;-1.3256989;-;-;-;-;-;-;-;-;-;-;-;-;-;-;-
1513511766251;-;-;9.036209;-0.32302856;-1.2933807;-;-;-;-;-;-;-;-;-;-;-;-;-;-;-
1513511766272;-;-;9.085281;-0.31105042;-1.2706451;-;-;-;-;-;-;-;-;-;-;-;-;-;-;-
1513511766291;-;-;9.166687;-0.32302856;-1.3101501;-;-;-;-;-;-;-;-;-;-;-;-;-;-;-
1513511766312;-;-;9.244507;-0.35653687;-1.3484497;-;-;-;-;-;-;-;-;-;-;-;-;-;-;-
1513511766332;-;-;9.23613;-0.34217834;-1.3233032;-;-;-;-;-;-;-;-;-;-;-;-;-;-;-
1513511766353;-;-;9.190628;-0.31344604;-1.2993622;-;-;-;-;-;-;-;-;-;-;-;-;-;-;-
1513511766372;-;-;9.154724;-0.24520874;-1.2059937;-;-;-;-;-;-;-;-;-;-;-;-;-;-;-
1513511766393;-;-;9.133179;-0.17098999;-1.2395172;-;-;-;-;-;-;-;-;-;-;-;-;-;-;-
1513511766413;-;-;9.216965;-0.22007751;-1.258667;-;-;-;-;-;-;-;-;-;-;-;-;-;-;-
1513511766433;-;-;9.2708435;-0.21768188;-1.2694397;-;-;-;-;-;-;-;-;-;-;-;-;-;-;-
1513511766453;-;-;9.278015;-0.20690918;-1.2682495;-;-;-;-;-;-;-;-;-;-;-;-;-;-;-
1513511766474;-;-;9.159515;-0.16500854;-1.4238739;-;-;-;-;-;-;-;-;-;-;-;-;-;-;-
1513511766494;-;-;9.075714;-0.16142273;-1.5543518;-;-;-;-;-;-;-;-;-;-;-;-;-;-;-
1513511766514;-;-;9.067337;-0.20211792;-1.5675201;-;-;-;-;-;-;-;-;-;-;-;-;-;-;-
1513511766535;-;-;9.0793;-0.3697052;-1.4609833;-;-;-;-;-;-;-;-;-;-;-;-;-;-;-
1513511766556;-;-;8.993118;-0.368515;-1.3735962;-;-;-;-;-;-;-;-;-;-;-;-;-;-;-
1513511766575;-;-;8.950012;-0.33380127;-1.2838135;-;-;-;-;-;-;-;-;-;-;-;-;-;-;-
1513511766595;-;-;9.036209;-0.37449646;-1.2443085;-;-;-;-;-;-;-;-;-;-;-;-;-;-;-
1513511766616;-;-;9.243301;-0.3469696;-1.2969818;-;-;-;-;-;-;-;-;-;-;-;-;-;-;-
1513511766636;-;-;9.4096985;-0.37330627;-1.3161316;-;-;-;-;-;-;-;-;-;-;-;-;-;-;-
1513511766657;-;-;9.487518;-0.38049316;-1.2802124;-;-;-;-;-;-;-;-;-;-;-;-;-;-;-
1513511766677;-;-;9.372589;-0.38526917;-1.2395172;-;-;-;-;-;-;-;-;-;-;-;-;-;-;-
1513511766698;-;-;9.230133;-0.36253357;-1.1940308;-;-;-;-;-;-;-;-;-;-;-;-;-;-;-
1513511766717;-;-;9.199005;-0.34936523;-1.2550812;-;-;-;-;-;-;-;-;-;-;-;-;-;-;-
1513511766737;-;-;9.165497;-0.289505;-1.3652039;-;-;-;-;-;-;-;-;-;-;-;-;-;-;-
1513511766758;-;-;9.166687;-0.26914978;-1.274231;-;-;-;-;-;-;-;-;-;-;-;-;-;-;-
1513511766778;-;-;9.130783;-0.27394104;-1.2861938;-;-;-;-;-;-;-;-;-;-;-;-;-;-;-
1513511766799;-;-;9.099655;-0.27394104;-1.3604279;-;-;-;-;-;-;-;-;-;-;-;-;-;-;-
1513511766818;-;-;9.100845;-0.31225586;-1.353241;-;-;-;-;-;-;-;-;-;-;-;-;-;-;-
1513511766839;-;-;9.133179;-0.33021545;-1.4130859;-;-;-;-;-;-;-;-;-;-;-;-;-;-;-
1513511766859;-;-;9.141556;-0.34217834;-1.4454193;-;-;-;-;-;-;-;-;-;-;-;-;-;-;-
1513511766880;-;-;9.146347;-0.33738708;-1.3999176;-;-;-;-;-;-;-;-;-;-;-;-;-;-;-
1513511766899;-;-;9.110428;-0.25;-1.4286499;-;-;-;-;-;-;-;-;-;-;-;-;-;-;-
1513511766919;-;-;9.106842;-0.26316833;-1.4490051;-;-;-;-;-;-;-;-;-;-;-;-;-;-;-
1513511766940;-;-;9.100845;-0.30267334;-1.5459747;-;-;-;-;-;-;-;-;-;-;-;-;-;-;-
1513511766959;-;-;9.141556;-0.29071045;-1.5220337;-;-;-;-;-;-;-;-;-;-;-;-;-;-;-
1513511766979;-;-;9.182251;-0.1925354;-1.5363922;-;-;-;-;-;-;-;-;-;-;-;-;-;-;-
1513511767000;-;-;9.14035;-0.105148315;-1.4777374;-;-;-;-;-;-;-;-;-;-;-;-;-;-;-
1513511767019;-;-;9.096069;-0.13627625;-1.4514008;-;-;-;-;-;-;-;-;-;-;-;-;-;-;-
1513511767039;-;-;9.109222;-0.16381836;-1.4573822;-;-;-;-;-;-;-;-;-;-;-;-;-;-;-
1513511767060;-;-;9.12001;-0.15663147;-1.4454193;-;-;-;-;-;-;-;-;-;-;-;-;-;-;-
1513511767080;-;-;9.160706;-0.13748169;-1.3939362;-;-;-;-;-;-;-;-;-;-;-;-;-;-;-
1513511767101;-;-;9.172684;-0.13269043;-1.3903503;-;-;-;-;-;-;-;-;-;-;-;-;-;-;-
1513511767121;-;-;9.133179;-0.121917725;-1.416687;-;-;-;-;-;-;-;-;-;-;-;-;-;-;-
1513511767141;-;-;9.141556;-0.22964478;-1.440628;-;-;-;-;-;-;-;-;-;-;-;-;-;-;-
1513511767162;-;-;9.143951;-0.23683167;-1.4095001;-;-;-;-;-;-;-;-;-;-;-;-;-;-;-
1513511767181;-;-;9.173874;-0.18057251;-1.4226685;-;-;-;-;-;-;-;-;-;-;-;-;-;-;-
1513511767201;-;-;9.213379;-0.16261292;-1.4083099;-;-;-;-;-;-;-;-;-;-;-;-;-;-;-
1513511767222;-;-;9.149933;-0.10635376;-1.456192;-;-;-;-;-;-;-;-;-;-;-;-;-;-;-
1513511767242;-;-;9.106842;-0.083602905;-1.4645691;-;-;-;-;-;-;-;-;-;-;-;-;-;-;-
1513511767263;-;-;9.074509;-0.105148315;-1.471756;-;-;-;-;-;-;-;-;-;-;-;-;-;-;-
1513511767283;-;-;9.043396;-0.088394165;-1.5615387;-;-;-;-;-;-;-;-;-;-;-;-;-;-;-
1513511767303;-;-;9.114014;-0.13748169;-1.6333618;-;-;-;-;-;-;-;-;-;-;-;-;-;-;-
1513511767324;-;-;9.169083;-0.20451355;-1.6201935;-;-;-;-;-;-;-;-;-;-;-;-;-;-;-
1513511767344;-;-;9.307953;-0.20809937;-1.6920166;-;-;-;-;-;-;-;-;-;-;-;-;-;-;-
1513511767365;-;-;9.23851;-0.1530304;-1.7470856;-;-;-;-;-;-;-;-;-;-;-;-;-;-;-
1513511767385;-;-;9.214569;-0.1985321;-1.6860352;-;-;-;-;-;-;-;-;-;-;-;-;-;-;-
1513511767406;-;-;9.155914;-0.25360107;-1.5471649;-;-;-;-;-;-;-;-;-;-;-;-;-;-;-
1513511767426;-;-;9.058945;-0.2212677;-1.5184326;-;-;-;-;-;-;-;-;-;-;-;-;-;-;-
1513511767446;-;-;8.995499;-0.24760437;-1.697998;-;-;-;-;-;-;-;-;-;-;-;-;-;-;-
1513511767467;-;-;9.096069;-0.30506897;-1.7039948;-;-;-;-;-;-;-;-;-;-;-;-;-;-;-
1513511767488;-;-;9.149933;-0.3182373;-1.7099762;-;-;-;-;-;-;-;-;-;-;-;-;-;-;-
1513511767507;-;-;9.17746;-0.31225586;-1.7147675;-;-;-;-;-;-;-;-;-;-;-;-;-;-;-
1513511767528;-;-;9.15712;-0.27633667;-1.7231445;-;-;-;-;-;-;-;-;-;-;-;-;-;-;-
1513511767548;-;-;9.068527;-0.27275085;-1.8045502;-;-;-;-;-;-;-;-;-;-;-;-;-;-;-
1513511767569;-;-;9.043396;-0.1925354;-1.7482758;-;-;-;-;-;-;-;-;-;-;-;-;-;-;-
1513511767589;-;-;9.027832;-0.12669373;-1.7279358;-;-;-;-;-;-;-;-;-;-;-;-;-;-;-
1513511767610;-;-;9.044586;-0.10635376;-1.768631;-;-;-;-;-;-;-;-;-;-;-;-;-;-;-
1513511767630;-;-;9.069733;-0.062057495;-1.9230652;-;-;-;-;-;-;-;-;-;-;-;-;-;-;-
1513511767651;-;-;9.13916;-0.06564331;-2.005661;-;-;-;-;-;-;-;-;-;-;-;-;-;-;-
1513511767671;-;-;9.194229;-0.09916687;-2.0726929;-;-;-;-;-;-;-;-;-;-;-;-;-;-;-
1513511767692;-;-;9.13916;-0.17338562;-2.0679016;-;-;-;-;-;-;-;-;-;-;-;-;-;-;-
1513511767712;-;-;9.038605;-0.28831482;-1.9062958;-;-;-;-;-;-;-;-;-;-;-;-;-;-;-
1513511767732;-;-;8.971558;-0.2715454;-1.8213043;-;-;-;-;-;-;-;-;-;-;-;-;-;-;-
1513511767752;-;-;8.983536;-0.21170044;-1.8560181;-;-;-;-;-;-;-;-;-;-;-;-;-;-;-
1513511767772;-;-;9.056564;-0.21289063;-1.6764526;-;-;-;-;-;-;-;-;-;-;-;-;-;-;-
1513511767793;-;-;9.090073;-0.1925354;-1.5543518;-;-;-;-;-;-;-;-;-;-;-;-;-;-;-
1513511767813;-;-;9.0577545;-0.14704895;-1.7243347;-;-;-;-;-;-;-;-;-;-;-;-;-;-;-
1513511767833;-;-;9.114014;-0.33259583;-1.8835602;-;-;-;-;-;-;-;-;-;-;-;-;-;-;-
1513511767854;-;-;9.23732;-0.5205536;-1.8787689;-;-;-;-;-;-;-;-;-;-;-;-;-;-;-
1513511767874;-;-;9.280411;-0.5241394;-1.7949677;-;-;-;-;-;-;-;-;-;-;-;-;-;-;-
