TimeStamp[ms];Prox[Cm];Lux[lux];AccX[m/s^2];AccY[m/s^2];AccZ[m/s^2];GyroX[rad/s];GyroY[rad/s];GyroZ[rad/s];MagnX[uT];MagnY[uT];MagnZ[uT];OrienYaw[degrees];OrienPitch[degrees];OrienRoll[degrees];Press[Pa];Temp[C°];Batt[%];Lat;Lng;Speed[m/s]
1513511505103;-;-;9.1918335;-1.704483;-1.6022339;-;-;-;-;-;-;-;-;-;-;-;-;-;-;-
1513511505129;-;-;8.898544;-1.6027222;-1.8308868;-;-;-;-;-;-;-;-;-;-;-;-;-;-;-
1513511505137;-;-;8.908112;-1.7427826;-1.7506714;-;-;-;-;-;-;-;-;-;-;-;-;-;-;-
1513511505158;-;-;9.070923;-1.7966614;-1.7650452;-;-;-;-;-;-;-;-;-;-;-;-;-;-;-
1513511505177;-;-;9.020645;-1.6398315;-1.7889862;-;-;-;-;-;-;-;-;-;-;-;-;-;-;-
1513511505197;-;-;8.908112;-1.5452728;-1.5914612;-;-;-;-;-;-;-;-;-;-;-;-;-;-;-
1513511505218;-;-;8.996704;-1.4219666;-1.8895416;-;-;-;-;-;-;-;-;-;-;-;-;-;-;-
1513511505239;-;-;8.952408;-1.7104645;-1.9494019;-;-;-;-;-;-;-;-;-;-;-;-;-;-;-
1513511505259;-;-;9.453995;-2.2359924;-1.9134827;-;-;-;-;-;-;-;-;-;-;-;-;-;-;-
1513511505279;-;-;9.385757;-1.7272186;-2.0355835;-;-;-;-;-;-;-;-;-;-;-;-;-;-;-
1513511505300;-;-;9.181061;-0.759964;-1.966156;-;-;-;-;-;-;-;-;-;-;-;-;-;-;-
1513511505320;-;-;9.386963;-1.2136688;-1.9577789;-;-;-;-;-;-;-;-;-;-;-;-;-;-;-
1513511505342;-;-;8.680664;-1.5656128;-1.4514008;-;-;-;-;-;-;-;-;-;-;-;-;-;-;-
1513511505362;-;-;8.605255;-1.7379913;-1.516037;-;-;-;-;-;-;-;-;-;-;-;-;-;-;-
1513511505382;-;-;9.136765;-1.6326599;-1.6620941;-;-;-;-;-;-;-;-;-;-;-;-;-;-;-
1513511505402;-;-;9.200211;-1.5715942;-1.7877808;-;-;-;-;-;-;-;-;-;-;-;-;-;-;-
1513511505423;-;-;9.049377;-1.764328;-1.7865906;-;-;-;-;-;-;-;-;-;-;-;-;-;-;-
1513511505442;-;-;8.748901;-2.1390228;-1.6118164;-;-;-;-;-;-;-;-;-;-;-;-;-;-;-
1513511505463;-;-;8.570541;-2.4502716;-1.3436584;-;-;-;-;-;-;-;-;-;-;-;-;-;-;-
1513511505483;-;-;8.40892;-2.6226501;-1.313736;-;-;-;-;-;-;-;-;-;-;-;-;-;-;-
1513511505504;-;-;8.141968;-2.5711823;-1.5962524;-;-;-;-;-;-;-;-;-;-;-;-;-;-;-
1513511505524;-;-;8.88298;-2.5400543;-1.8584137;-;-;-;-;-;-;-;-;-;-;-;-;-;-;-
1513511505545;-;-;9.7017975;-2.5340729;-1.9757233;-;-;-;-;-;-;-;-;-;-;-;-;-;-;-
1513511505565;-;-;10.531387;-2.3784485;-1.674057;-;-;-;-;-;-;-;-;-;-;-;-;-;-;-
1513511505586;-;-;10.327881;-2.2443695;-1.6225891;-;-;-;-;-;-;-;-;-;-;-;-;-;-;-
1513511505606;-;-;9.434845;-2.210846;-1.6477203;-;-;-;-;-;-;-;-;-;-;-;-;-;-;-
1513511505627;-;-;8.668701;-1.7930603;-1.6872253;-;-;-;-;-;-;-;-;-;-;-;-;-;-;-
1513511505646;-;-;7.8486786;-1.2244415;-1.6273804;-;-;-;-;-;-;-;-;-;-;-;-;-;-;-
1513511505666;-;-;7.001129;-0.9539032;-1.6453247;-;-;-;-;-;-;-;-;-;-;-;-;-;-;-
1513511505687;-;-;7.8438873;-0.8377838;-1.6573029;-;-;-;-;-;-;-;-;-;-;-;-;-;-;-
1513511505708;-;-;8.9787445;-1.1645813;-2.0715027;-;-;-;-;-;-;-;-;-;-;-;-;-;-;-
1513511505728;-;-;10.023819;-1.2567596;-2.7742004;-;-;-;-;-;-;-;-;-;-;-;-;-;-;-
1513511505748;-;-;9.768829;-0.79348755;-3.1333313;-;-;-;-;-;-;-;-;-;-;-;-;-;-;-
1513511505769;-;-;10.71814;-0.6546173;-3.4457703;-;-;-;-;-;-;-;-;-;-;-;-;-;-;-
1513511505789;-;-;9.951996;-0.53012085;-3.3763428;-;-;-;-;-;-;-;-;-;-;-;-;-;-;-
1513511505810;-;-;9.464767;-0.36732483;-2.8567963;-;-;-;-;-;-;-;-;-;-;-;-;-;-;-
1513511505830;-;-;8.893753;-0.542099;-2.5599213;-;-;-;-;-;-;-;-;-;-;-;-;-;-;-
1513511505850;-;-;8.01149;-0.38526917;-2.2953491;-;-;-;-;-;-;-;-;-;-;-;-;-;-;-
1513511505871;-;-;8.084518;0.16897583;-1.7243347;-;-;-;-;-;-;-;-;-;-;-;-;-;-;-
1513511505892;-;-;8.182678;0.46228027;-1.966156;-;-;-;-;-;-;-;-;-;-;-;-;-;-;-
1513511505911;-;-;8.915298;0.43473816;-1.8512268;-;-;-;-;-;-;-;-;-;-;-;-;-;-;-
1513511505932;-;-;9.003891;0.08039856;-2.0272064;-;-;-;-;-;-;-;-;-;-;-;-;-;-;-
1513511505951;-;-;9.285202;-0.3361969;-1.8931274;-;-;-;-;-;-;-;-;-;-;-;-;-;-;-
1513511505972;-;-;9.762848;-0.56604004;-2.0738983;-;-;-;-;-;-;-;-;-;-;-;-;-;-;-
1513511505991;-;-;9.965164;-0.5097656;-2.898697;-;-;-;-;-;-;-;-;-;-;-;-;-;-;-
1513511506012;-;-;9.579697;0.038497925;-2.907074;-;-;-;-;-;-;-;-;-;-;-;-;-;-;-
1513511506032;-;-;9.003891;0.3102417;-2.618576;-;-;-;-;-;-;-;-;-;-;-;-;-;-;-
1513511506052;-;-;8.854248;0.2013092;-2.5096436;-;-;-;-;-;-;-;-;-;-;-;-;-;-;-
1513511506073;-;-;8.531036;0.14503479;-2.2798004;-;-;-;-;-;-;-;-;-;-;-;-;-;-;-
1513511506092;-;-;8.377808;0.18334961;-2.1744537;-;-;-;-;-;-;-;-;-;-;-;-;-;-;-
1513511506112;-;-;8.757278;0.25038147;-2.349228;-;-;-;-;-;-;-;-;-;-;-;-;-;-;-
1513511506133;-;-;9.299576;0.2348175;-2.5898438;-;-;-;-;-;-;-;-;-;-;-;-;-;-;-
1513511506152;-;-;9.538986;0.04208374;-2.5754852;-;-;-;-;-;-;-;-;-;-;-;-;-;-;-
1513511506173;-;-;9.664688;0.05406189;-2.1888123;-;-;-;-;-;-;-;-;-;-;-;-;-;-;-
1513511506193;-;-;9.222961;-0.34217834;-2.7514496;-;-;-;-;-;-;-;-;-;-;-;-;-;-;-
1513511506214;-;-;8.941635;-0.29908752;-2.5898438;-;-;-;-;-;-;-;-;-;-;-;-;-;-;-
1513511506234;-;-;8.6423645;-0.18894958;-2.2726135;-;-;-;-;-;-;-;-;-;-;-;-;-;-;-
1513511506254;-;-;8.489136;-0.059661865;-1.90271;-;-;-;-;-;-;-;-;-;-;-;-;-;-;-
1513511506275;-;-;8.260483;0.117507935;-1.7279358;-;-;-;-;-;-;-;-;-;-;-;-;-;-;-
1513511506295;-;-;8.377808;0.21806335;-1.5124512;-;-;-;-;-;-;-;-;-;-;-;-;-;-;-
1513511506316;-;-;9.029022;0.27911377;-1.2490845;-;-;-;-;-;-;-;-;-;-;-;-;-;-;-
1513511506336;-;-;9.410904;0.18214417;-0.90312195;-;-;-;-;-;-;-;-;-;-;-;-;-;-;-
1513511506356;-;-;9.321121;-0.0010070801;-0.64456177;-;-;-;-;-;-;-;-;-;-;-;-;-;-;-
1513511506377;-;-;9.15831;-0.49421692;-0.40992737;-;-;-;-;-;-;-;-;-;-;-;-;-;-;-
1513511506397;-;-;9.291183;-0.6139221;-0.33570862;-;-;-;-;-;-;-;-;-;-;-;-;-;-;-
1513511506418;-;-;9.3701935;-0.25837708;-0.4458313;-;-;-;-;-;-;-;-;-;-;-;-;-;-;-
1513511506440;-;-;9.507858;0.007369995;-0.54759216;-;-;-;-;-;-;-;-;-;-;-;-;-;-;-
1513511506459;-;-;9.509064;0.22764587;-0.49850464;-;-;-;-;-;-;-;-;-;-;-;-;-;-;-
1513511506480;-;-;9.462372;-0.18415833;-0.93185425;-;-;-;-;-;-;-;-;-;-;-;-;-;-;-
1513511506499;-;-;9.398926;-0.42237854;-0.6038513;-;-;-;-;-;-;-;-;-;-;-;-;-;-;-
1513511506519;-;-;9.380966;-0.3541565;-0.63856506;-;-;-;-;-;-;-;-;-;-;-;-;-;-;-
1513511506539;-;-;9.319916;-0.31584167;-0.65293884;-;-;-;-;-;-;-;-;-;-;-;-;-;-;-
1513511506560;-;-;9.062546;-0.3589325;-1.0886841;-;-;-;-;-;-;-;-;-;-;-;-;-;-;-
1513511506580;-;-;9.418076;-0.29309082;-1.1832428;-;-;-;-;-;-;-;-;-;-;-;-;-;-;-
1513511506601;-;-;8.884171;0.0025787354;-0.7786255;-;-;-;-;-;-;-;-;-;-;-;-;-;-;-
1513511506621;-;-;8.772842;0.15940857;-0.89234924;-;-;-;-;-;-;-;-;-;-;-;-;-;-;-
1513511506642;-;-;9.17746;-0.21289063;-0.63139343;-;-;-;-;-;-;-;-;-;-;-;-;-;-;-
1513511506662;-;-;9.485123;-0.37449646;-0.4063263;-;-;-;-;-;-;-;-;-;-;-;-;-;-;-
1513511506682;-;-;9.444412;-0.5432892;-0.39794922;-;-;-;-;-;-;-;-;-;-;-;-;-;-;-
1513511506702;-;-;9.225342;-0.6007538;-0.34048462;-;-;-;-;-;-;-;-;-;-;-;-;-;-;-
1513511506723;-;-;9.209793;-0.45231628;-0.36083984;-;-;-;-;-;-;-;-;-;-;-;-;-;-;-
1513511506744;-;-;9.264847;-0.58039856;-0.085510254;-;-;-;-;-;-;-;-;-;-;-;-;-;-;-
1513511506764;-;-;9.252884;-0.5337219;0.110809326;-;-;-;-;-;-;-;-;-;-;-;-;-;-;-
1513511506785;-;-;8.898544;-0.38526917;0.084472656;-;-;-;-;-;-;-;-;-;-;-;-;-;-;-
1513511506804;-;-;9.268448;-0.4487152;-0.27226257;-;-;-;-;-;-;-;-;-;-;-;-;-;-;-
1513511506824;-;-;9.392944;-0.85572815;0.0054779053;-;-;-;-;-;-;-;-;-;-;-;-;-;-;-
1513511506844;-;-;9.397736;-0.9646759;0.09286499;-;-;-;-;-;-;-;-;-;-;-;-;-;-;-
1513511506865;-;-;9.029022;-1.0664215;0.34544373;-;-;-;-;-;-;-;-;-;-;-;-;-;-;-
1513511506886;-;-;8.413712;-0.80426025;0.20419312;-;-;-;-;-;-;-;-;-;-;-;-;-;-;-
1513511506906;-;-;9.459976;-0.55766296;0.5657196;-;-;-;-;-;-;-;-;-;-;-;-;-;-;-
1513511506927;-;-;9.341461;-0.7922821;0.48910522;-;-;-;-;-;-;-;-;-;-;-;-;-;-;-
1513511506947;-;-;9.518631;-0.96946716;0.20419312;-;-;-;-;-;-;-;-;-;-;-;-;-;-;-
1513511506967;-;-;9.479141;-0.9550934;0.5573273;-;-;-;-;-;-;-;-;-;-;-;-;-;-;-
1513511506988;-;-;9.663483;0.04208374;0.14553833;-;-;-;-;-;-;-;-;-;-;-;-;-;-;-
1513511507008;-;-;9.916077;-0.5049896;0.7345123;-;-;-;-;-;-;-;-;-;-;-;-;-;-;-
1513511507029;-;-;9.473145;-0.39126587;1.0110321;-;-;-;-;-;-;-;-;-;-;-;-;-;-;-
1513511507049;-;-;8.72377;-0.11831665;1.1020203;-;-;-;-;-;-;-;-;-;-;-;-;-;-;-
1513511507070;-;-;9.704193;-0.9550934;1.3354492;-;-;-;-;-;-;-;-;-;-;-;-;-;-;-
1513511507090;-;-;9.764038;-0.72406006;1.3689728;-;-;-;-;-;-;-;-;-;-;-;-;-;-;-
1513511507110;-;-;9.042191;-0.6318817;1.6371155;-;-;-;-;-;-;-;-;-;-;-;-;-;-;-
1513511507131;-;-;8.9991;-0.5349121;1.4767151;-;-;-;-;-;-;-;-;-;-;-;-;-;-;-
1513511507151;-;-;9.342667;-0.91319275;1.7771759;-;-;-;-;-;-;-;-;-;-;-;-;-;-;-
1513511507171;-;-;9.123596;-0.90242004;1.8573914;-;-;-;-;-;-;-;-;-;-;-;-;-;-;-
1513511507192;-;-;8.879379;-0.83657837;1.8118896;-;-;-;-;-;-;-;-;-;-;-;-;-;-;-
1513511507212;-;-;8.903336;-0.93115234;2.007019;-;-;-;-;-;-;-;-;-;-;-;-;-;-;-
1513511507233;-;-;9.3941345;-0.87249756;1.9495697;-;-;-;-;-;-;-;-;-;-;-;-;-;-;-
1513511507253;-;-;8.607651;-0.63427734;1.8526001;-;-;-;-;-;-;-;-;-;-;-;-;-;-;-
1513511507274;-;-;8.994308;-0.64624023;2.3374176;-;-;-;-;-;-;-;-;-;-;-;-;-;-;-
1513511507296;-;-;8.827911;-0.73243713;2.5349426;-;-;-;-;-;-;-;-;-;-;-;-;-;-;-
1513511507316;-;-;9.365402;-0.84495544;2.3889008;-;-;-;-;-;-;-;-;-;-;-;-;-;-;-
1513511507337;-;-;8.572922;-1.0664215;2.3122864;-;-;-;-;-;-;-;-;-;-;-;-;-;-;-
1513511507357;-;-;8.915298;-0.99220276;2.4284058;-;-;-;-;-;-;-;-;-;-;-;-;-;-;-
1513511507380;-;-;9.582092;-0.9754486;2.6091614;-;-;-;-;-;-;-;-;-;-;-;-;-;-;-
1513511507400;-;-;9.530609;-1.028122;2.1614532;-;-;-;-;-;-;-;-;-;-;-;-;-;-;-
1513511507421;-;-;9.151123;-0.72406006;2.3003082;-;-;-;-;-;-;-;-;-;-;-;-;-;-;-
1513511507442;-;-;8.5082855;-0.65582275;2.3613586;-;-;-;-;-;-;-;-;-;-;-;-;-;-;-
1513511507463;-;-;8.6818695;-0.6546173;2.548111;-;-;-;-;-;-;-;-;-;-;-;-;-;-;-
1513511507483;-;-;8.857834;-0.8018646;2.4152374;-;-;-;-;-;-;-;-;-;-;-;-;-;-;-
1513511507504;-;-;9.148727;-0.97424316;2.5289612;-;-;-;-;-;-;-;-;-;-;-;-;-;-;-
1513511507524;-;-;9.463577;-1.2196503;2.6247253;-;-;-;-;-;-;-;-;-;-;-;-;-;-;-
1513511507545;-;-;9.523422;-0.9000244;2.563675;-;-;-;-;-;-;-;-;-;-;-;-;-;-;-
1513511507564;-;-;8.88298;-0.7707367;2.6007843;-;-;-;-;-;-;-;-;-;-;-;-;-;-;-
1513511507584;-;-;8.32991;-0.77552795;2.6438751;-;-;-;-;-;-;-;-;-;-;-;-;-;-;-
1513511507605;-;-;8.358643;-0.92037964;2.4284058;-;-;-;-;-;-;-;-;-;-;-;-;-;-;-
1513511507625;-;-;8.540604;-0.8413696;2.809082;-;-;-;-;-;-;-;-;-;-;-;-;-;-;-
1513511507645;-;-;9.172684;-1.131073;2.8450012;-;-;-;-;-;-;-;-;-;-;-;-;-;-;-
1513511507666;-;-;8.985931;-1.1286774;2.5110016;-;-;-;-;-;-;-;-;-;-;-;-;-;-;-
1513511507686;-;-;8.923676;-1.1298676;2.5265656;-;-;-;-;-;-;-;-;-;-;-;-;-;-;-
1513511507707;-;-;8.718979;-0.9945984;2.6558533;-;-;-;-;-;-;-;-;-;-;-;-;-;-;-
1513511507727;-;-;8.988327;-0.8701019;2.7659912;-;-;-;-;-;-;-;-;-;-;-;-;-;-;-
1513511507748;-;-;8.849457;-0.9048157;2.5433197;-;-;-;-;-;-;-;-;-;-;-;-;-;-;-
1513511507769;-;-;9.175064;-0.95150757;2.8749237;-;-;-;-;-;-;-;-;-;-;-;-;-;-;-
1513511507789;-;-;9.200211;-0.9790344;2.6019897;-;-;-;-;-;-;-;-;-;-;-;-;-;-;-
1513511507809;-;-;9.035004;-0.85572815;2.642685;-;-;-;-;-;-;-;-;-;-;-;-;-;-;-
1513511507830;-;-;8.953613;-0.88327026;2.7516174;-;-;-;-;-;-;-;-;-;-;-;-;-;-;-
1513511507851;-;-;8.691437;-1.937912;2.4918518;-;-;-;-;-;-;-;-;-;-;-;-;-;-;-
1513511507870;-;-;8.648346;-1.1083221;2.453537;-;-;-;-;-;-;-;-;-;-;-;-;-;-;-
1513511507890;-;-;8.815933;-0.9371338;2.7839355;-;-;-;-;-;-;-;-;-;-;-;-;-;-;-
1513511507911;-;-;8.7764435;-0.5540619;2.6546478;-;-;-;-;-;-;-;-;-;-;-;-;-;-;-
1513511507931;-;-;8.771652;-0.5612488;2.4212189;-;-;-;-;-;-;-;-;-;-;-;-;-;-;-
1513511507952;-;-;9.197815;-0.5133667;2.8845062;-;-;-;-;-;-;-;-;-;-;-;-;-;-;-
1513511507972;-;-;9.337875;-0.9072113;2.8868866;-;-;-;-;-;-;-;-;-;-;-;-;-;-;-
1513511507993;-;-;9.141556;-1.2388;2.599594;-;-;-;-;-;-;-;-;-;-;-;-;-;-;-
1513511508013;-;-;8.857834;-1.3142242;2.6642303;-;-;-;-;-;-;-;-;-;-;-;-;-;-;-
1513511508034;-;-;9.062546;-1.1813507;2.6414948;-;-;-;-;-;-;-;-;-;-;-;-;-;-;-
1513511508054;-;-;8.957199;-0.9682617;2.4954376;-;-;-;-;-;-;-;-;-;-;-;-;-;-;-
1513511508075;-;-;8.526245;-0.8856659;2.2404633;-;-;-;-;-;-;-;-;-;-;-;-;-;-;-
1513511508095;-;-;8.574127;-0.85214233;2.251236;-;-;-;-;-;-;-;-;-;-;-;-;-;-;-
1513511508116;-;-;8.84227;-0.8964386;2.2260895;-;-;-;-;-;-;-;-;-;-;-;-;-;-;-
1513511508135;-;-;8.813553;-0.70370483;2.220108;-;-;-;-;-;-;-;-;-;-;-;-;-;-;-
1513511508156;-;-;9.127182;-0.64624023;2.3050995;-;-;-;-;-;-;-;-;-;-;-;-;-;-;-
1513511508176;-;-;9.228943;-0.88446045;2.7731628;-;-;-;-;-;-;-;-;-;-;-;-;-;-;-
1513511508197;-;-;9.245697;-0.86531067;2.4667053;-;-;-;-;-;-;-;-;-;-;-;-;-;-;-
1513511508217;-;-;9.064941;-0.54927063;2.651062;-;-;-;-;-;-;-;-;-;-;-;-;-;-;-
1513511508237;-;-;8.509476;-0.8976288;1.8621674;-;-;-;-;-;-;-;-;-;-;-;-;-;-;-
1513511508271;-;-;9.087677;-0.93115234;2.247635;-;-;-;-;-;-;-;-;-;-;-;-;-;-;-
1513511508309;-;-;9.020645;-0.7384186;2.1710205;-;-;-;-;-;-;-;-;-;-;-;-;-;-;-
1513511508327;-;-;8.772842;-0.8964386;2.2787628;-;-;-;-;-;-;-;-;-;-;-;-;-;-;-
1513511508327;-;-;8.772842;-0.8964386;2.2787628;-;-;-;-;-;-;-;-;-;-;-;-;-;-;-
1513511508371;-;-;9.085281;-1.0999451;2.2165222;-;-;-;-;-;-;-;-;-;-;-;-;-;-;-
1513511508388;-;-;8.764465;-0.95988464;2.148285;-;-;-;-;-;-;-;-;-;-;-;-;-;-;-
1513511508405;-;-;9.049377;-0.77433777;2.244049;-;-;-;-;-;-;-;-;-;-;-;-;-;-;-
1513511508421;-;-;8.975159;-0.6402588;2.2141266;-;-;-;-;-;-;-;-;-;-;-;-;-;-;-
1513511508437;-;-;8.847061;-0.69651794;2.1530762;-;-;-;-;-;-;-;-;-;-;-;-;-;-;-
1513511508455;-;-;8.914108;-0.7803192;2.1782074;-;-;-;-;-;-;-;-;-;-;-;-;-;-;-
1513511508488;-;-;9.175064;-0.98501587;2.3098907;-;-;-;-;-;-;-;-;-;-;-;-;-;-;-
1513511508505;-;-;9.269638;-0.99220276;2.1794128;-;-;-;-;-;-;-;-;-;-;-;-;-;-;-
1513511508520;-;-;9.242111;-0.92996216;2.0956116;-;-;-;-;-;-;-;-;-;-;-;-;-;-;-
1513511508539;-;-;9.069733;-0.8497467;2.1195526;-;-;-;-;-;-;-;-;-;-;-;-;-;-;-
1513511508555;-;-;8.92009;-0.8126373;2.1039886;-;-;-;-;-;-;-;-;-;-;-;-;-;-;-
1513511508574;-;-;8.853058;-0.76594543;2.1315155;-;-;-;-;-;-;-;-;-;-;-;-;-;-;-
1513511508591;-;-;8.928467;-0.7228546;2.18779;-;-;-;-;-;-;-;-;-;-;-;-;-;-;-
1513511508628;-;-;8.971558;-0.8246155;2.1363068;-;-;-;-;-;-;-;-;-;-;-;-;-;-;-
1513511508643;-;-;9.003891;-0.83299255;2.0740662;-;-;-;-;-;-;-;-;-;-;-;-;-;-;-
1513511508658;-;-;8.995499;-0.878479;2.1075745;-;-;-;-;-;-;-;-;-;-;-;-;-;-;-
1513511508672;-;-;9.033813;-0.77552795;2.086029;-;-;-;-;-;-;-;-;-;-;-;-;-;-;-
1513511508706;-;-;9.002686;-0.77433777;2.0525208;-;-;-;-;-;-;-;-;-;-;-;-;-;-;-
1513511508724;-;-;8.942825;-0.88446045;2.0321655;-;-;-;-;-;-;-;-;-;-;-;-;-;-;-
1513511508740;-;-;9.051773;-0.8497467;2.1542664;-;-;-;-;-;-;-;-;-;-;-;-;-;-;-
1513511508755;-;-;9.027832;-0.7336273;2.3170776;-;-;-;-;-;-;-;-;-;-;-;-;-;-;-
1513511508789;-;-;9.160706;-0.7264557;2.0728607;-;-;-;-;-;-;-;-;-;-;-;-;-;-;-
1513511508808;-;-;9.3893585;-0.7491913;2.046524;-;-;-;-;-;-;-;-;-;-;-;-;-;-;-
1513511508824;-;-;9.426468;-0.7276459;2.242859;-;-;-;-;-;-;-;-;-;-;-;-;-;-;-
1513511508841;-;-;9.082901;-0.7767334;1.9495697;-;-;-;-;-;-;-;-;-;-;-;-;-;-;-
1513511508859;-;-;9.058945;-0.8581238;1.8789368;-;-;-;-;-;-;-;-;-;-;-;-;-;-;-
1513511508892;-;-;8.92128;-0.6905365;1.820282;-;-;-;-;-;-;-;-;-;-;-;-;-;-;-
1513511508912;-;-;8.857834;-0.5851898;1.9914551;-;-;-;-;-;-;-;-;-;-;-;-;-;-;-
1513511508927;-;-;8.757278;-0.4451294;1.7328949;-;-;-;-;-;-;-;-;-;-;-;-;-;-;-
1513511508958;-;-;8.534622;-0.6079407;1.29953;-;-;-;-;-;-;-;-;-;-;-;-;-;-;-
1513511508959;-;-;8.534622;-0.6079407;1.29953;-;-;-;-;-;-;-;-;-;-;-;-;-;-;-
1513511508994;-;-;14.45668;-4.202835;-0.73672485;-;-;-;-;-;-;-;-;-;-;-;-;-;-;-
1513511509010;-;-;7.961212;0.20848083;2.472702;-;-;-;-;-;-;-;-;-;-;-;-;-;-;-
1513511509028;-;-;8.562149;-0.4666748;1.207367;-;-;-;-;-;-;-;-;-;-;-;-;-;-;-
1513511509043;-;-;8.759674;-0.48942566;0.86857605;-;-;-;-;-;-;-;-;-;-;-;-;-;-;-
1513511509061;-;-;9.045776;-0.43077087;0.38494873;-;-;-;-;-;-;-;-;-;-;-;-;-;-;-
1513511509093;-;-;9.214569;-0.53970337;0.041381836;-;-;-;-;-;-;-;-;-;-;-;-;-;-;-
1513511509108;-;-;9.160706;-0.4666748;-0.42549133;-;-;-;-;-;-;-;-;-;-;-;-;-;-;-
1513511509123;-;-;9.645538;-0.6641998;-0.41351318;-;-;-;-;-;-;-;-;-;-;-;-;-;-;-
1513511509135;-;-;9.416885;-0.42358398;-0.12620544;-;-;-;-;-;-;-;-;-;-;-;-;-;-;-
1513511509155;-;-;9.380966;-0.33738708;0.12757874;-;-;-;-;-;-;-;-;-;-;-;-;-;-;-
1513511509175;-;-;8.90213;-0.19613647;-0.1776886;-;-;-;-;-;-;-;-;-;-;-;-;-;-;-
1513511509196;-;-;9.289993;-0.2272644;-0.13339233;-;-;-;-;-;-;-;-;-;-;-;-;-;-;-
1513511509217;-;-;9.640747;-0.2966919;-0.17289734;-;-;-;-;-;-;-;-;-;-;-;-;-;-;-
1513511509237;-;-;9.544968;-0.28471375;-0.36323547;-;-;-;-;-;-;-;-;-;-;-;-;-;-;-
1513511509259;-;-;9.386963;-0.30148315;-0.39196777;-;-;-;-;-;-;-;-;-;-;-;-;-;-;-
1513511509279;-;-;9.266052;-0.3936615;-0.43865967;-;-;-;-;-;-;-;-;-;-;-;-;-;-;-
1513511509299;-;-;9.249298;-0.5205536;-0.47097778;-;-;-;-;-;-;-;-;-;-;-;-;-;-;-
1513511509320;-;-;9.070923;-0.4547119;-0.48654175;-;-;-;-;-;-;-;-;-;-;-;-;-;-;-
1513511509341;-;-;9.072113;-0.51815796;-0.48654175;-;-;-;-;-;-;-;-;-;-;-;-;-;-;-
1513511509361;-;-;9.027832;-0.54689026;-0.7199707;-;-;-;-;-;-;-;-;-;-;-;-;-;-;-
1513511509382;-;-;9.902908;-0.49301147;-0.9749603;-;-;-;-;-;-;-;-;-;-;-;-;-;-;-
1513511509402;-;-;9.268448;-0.7384186;-0.8241272;-;-;-;-;-;-;-;-;-;-;-;-;-;-;-
1513511509422;-;-;9.5354;-0.36372375;-0.39196777;-;-;-;-;-;-;-;-;-;-;-;-;-;-;-
1513511509443;-;-;9.570114;-0.64624023;-0.4230957;-;-;-;-;-;-;-;-;-;-;-;-;-;-;-
1513511509463;-;-;8.672287;-0.121917725;-1.1078339;-;-;-;-;-;-;-;-;-;-;-;-;-;-;-
1513511509484;-;-;8.374207;0.25517273;-1.1150208;-;-;-;-;-;-;-;-;-;-;-;-;-;-;-
1513511509504;-;-;8.529831;0.6382446;-1.4202728;-;-;-;-;-;-;-;-;-;-;-;-;-;-;-
1513511509524;-;-;8.38858;0.23721313;-1.5926514;-;-;-;-;-;-;-;-;-;-;-;-;-;-;-
1513511509545;-;-;9.1918335;-0.2859192;-1.0982513;-;-;-;-;-;-;-;-;-;-;-;-;-;-;-
1513511509565;-;-;9.251678;-0.49421692;-1.3819733;-;-;-;-;-;-;-;-;-;-;-;-;-;-;-
1513511509585;-;-;9.537796;-0.63786316;-1.5651245;-;-;-;-;-;-;-;-;-;-;-;-;-;-;-
1513511509606;-;-;9.659897;-0.7671509;-0.669693;-;-;-;-;-;-;-;-;-;-;-;-;-;-;-
1513511509627;-;-;10.131561;-0.6821594;-0.7235565;-;-;-;-;-;-;-;-;-;-;-;-;-;-;-
1513511509647;-;-;9.759262;-0.3757019;-1.0324097;-;-;-;-;-;-;-;-;-;-;-;-;-;-;-
1513511509668;-;-;9.007477;-0.13508606;-0.7127838;-;-;-;-;-;-;-;-;-;-;-;-;-;-;-
1513511509688;-;-;9.503082;-0.014175415;-0.5320282;-;-;-;-;-;-;-;-;-;-;-;-;-;-;-
1513511509708;-;-;9.740097;-0.31225586;-0.15853882;-;-;-;-;-;-;-;-;-;-;-;-;-;-;-
1513511509728;-;-;9.206192;-0.24401855;-0.9510193;-;-;-;-;-;-;-;-;-;-;-;-;-;-;-
1513511509749;-;-;8.213791;-0.5744171;-1.5567474;-;-;-;-;-;-;-;-;-;-;-;-;-;-;-
1513511509769;-;-;9.566528;-0.97065735;-1.6369476;-;-;-;-;-;-;-;-;-;-;-;-;-;-;-
1513511509790;-;-;8.186264;-0.2966919;-0.6481476;-;-;-;-;-;-;-;-;-;-;-;-;-;-;-
1513511509809;-;-;9.6862335;-0.06803894;-1.1533203;-;-;-;-;-;-;-;-;-;-;-;-;-;-;-
1513511509830;-;-;8.357452;-0.54808044;-1.1126251;-;-;-;-;-;-;-;-;-;-;-;-;-;-;-
1513511509850;-;-;7.802002;0.098358154;-0.69602966;-;-;-;-;-;-;-;-;-;-;-;-;-;-;-
1513511509870;-;-;8.945221;0.7424011;-2.9369965;-;-;-;-;-;-;-;-;-;-;-;-;-;-;-
1513511509890;-;-;8.399353;-0.34098816;-1.1784668;-;-;-;-;-;-;-;-;-;-;-;-;-;-;-
1513511509911;-;-;9.523422;-0.07762146;-0.82173157;-;-;-;-;-;-;-;-;-;-;-;-;-;-;-
1513511509931;-;-;9.388153;-0.0069885254;-1.3017578;-;-;-;-;-;-;-;-;-;-;-;-;-;-;-
1513511509952;-;-;9.902908;-0.16740417;-2.5730896;-;-;-;-;-;-;-;-;-;-;-;-;-;-;-
1513511509972;-;-;7.0538025;0.1797638;-2.5694885;-;-;-;-;-;-;-;-;-;-;-;-;-;-;-
1513511509992;-;-;8.807556;0.36889648;-0.922287;-;-;-;-;-;-;-;-;-;-;-;-;-;-;-
1513511510013;-;-;8.399353;-1.0065765;-1.1892395;-;-;-;-;-;-;-;-;-;-;-;-;-;-;-
1513511510033;-;-;8.605255;-1.5823822;-2.014038;-;-;-;-;-;-;-;-;-;-;-;-;-;-;-
1513511510053;-;-;8.818329;-0.82580566;-2.2378998;-;-;-;-;-;-;-;-;-;-;-;-;-;-;-
1513511510074;-;-;9.39653;-0.48942566;-2.2606354;-;-;-;-;-;-;-;-;-;-;-;-;-;-;-
1513511510093;-;-;8.627991;-0.16859436;-1.456192;-;-;-;-;-;-;-;-;-;-;-;-;-;-;-
1513511510113;-;-;10.081268;0.09475708;-2.4246368;-;-;-;-;-;-;-;-;-;-;-;-;-;-;-
1513511510134;-;-;9.877762;0.3174286;-2.6772308;-;-;-;-;-;-;-;-;-;-;-;-;-;-;-
1513511510154;-;-;9.141556;1.3457336;-2.421051;-;-;-;-;-;-;-;-;-;-;-;-;-;-;-
1513511510174;-;-;10.162674;1.5791626;-0.9402313;-;-;-;-;-;-;-;-;-;-;-;-;-;-;-
1513511510195;-;-;9.881363;0.88604736;-0.9402313;-;-;-;-;-;-;-;-;-;-;-;-;-;-;-
1513511510215;-;-;9.851425;0.02532959;-0.80496216;-;-;-;-;-;-;-;-;-;-;-;-;-;-;-
1513511510236;-;-;9.263657;-0.009384155;-1.8536224;-;-;-;-;-;-;-;-;-;-;-;-;-;-;-
1513511510255;-;-;8.8207245;-0.33021545;-1.9122772;-;-;-;-;-;-;-;-;-;-;-;-;-;-;-
1513511510276;-;-;8.908112;-0.4439392;-1.4573822;-;-;-;-;-;-;-;-;-;-;-;-;-;-;-
1513511510297;-;-;7.9660034;-0.29548645;-0.63616943;-;-;-;-;-;-;-;-;-;-;-;-;-;-;-
1513511510317;-;-;7.4129333;-0.46788025;-0.9402313;-;-;-;-;-;-;-;-;-;-;-;-;-;-;-
1513511510338;-;-;7.3578644;-1.3800659;-0.49491882;-;-;-;-;-;-;-;-;-;-;-;-;-;-;-
1513511510358;-;-;7.593704;-1.2016907;-0.99650574;-;-;-;-;-;-;-;-;-;-;-;-;-;-;-
1513511510378;-;-;8.396957;-1.0987396;-0.93185425;-;-;-;-;-;-;-;-;-;-;-;-;-;-;-
1513511510398;-;-;8.879379;-1.2052917;-1.0922699;-;-;-;-;-;-;-;-;-;-;-;-;-;-;-
1513511510419;-;-;7.8606567;-1.6194916;-1.4346466;-;-;-;-;-;-;-;-;-;-;-;-;-;-;-
1513511510439;-;-;10.263229;-2.7268066;-1.9697418;-;-;-;-;-;-;-;-;-;-;-;-;-;-;-
1513511510460;-;-;10.019028;-2.0025635;-1.6273804;-;-;-;-;-;-;-;-;-;-;-;-;-;-;-
1513511510480;-;-;10.531387;-0.8210144;-0.8779907;-;-;-;-;-;-;-;-;-;-;-;-;-;-;-
1513511510501;-;-;9.861008;-0.8305969;-0.630188;-;-;-;-;-;-;-;-;-;-;-;-;-;-;-
1513511510520;-;-;9.319916;-0.29429626;-0.9510193;-;-;-;-;-;-;-;-;-;-;-;-;-;-;-
1513511510541;-;-;9.351044;0.38206482;-1.9494019;-;-;-;-;-;-;-;-;-;-;-;-;-;-;-
1513511510561;-;-;8.684265;-0.29071045;-1.847641;-;-;-;-;-;-;-;-;-;-;-;-;-;-;-
1513511510581;-;-;9.188232;-0.88446045;-1.9877014;-;-;-;-;-;-;-;-;-;-;-;-;-;-;-
1513511510602;-;-;9.467163;-0.59477234;-2.8567963;-;-;-;-;-;-;-;-;-;-;-;-;-;-;-
1513511510622;-;-;9.781998;-0.59477234;-2.6784363;-;-;-;-;-;-;-;-;-;-;-;-;-;-;-
1513511510642;-;-;9.746094;-0.6618042;-2.524002;-;-;-;-;-;-;-;-;-;-;-;-;-;-;-
1513511510663;-;-;9.199005;-0.67378235;-1.8859406;-;-;-;-;-;-;-;-;-;-;-;-;-;-;-
1513511510683;-;-;8.976349;-0.80067444;-1.8284912;-;-;-;-;-;-;-;-;-;-;-;-;-;-;-
1513511510704;-;-;8.686661;-0.8820648;-1.832077;-;-;-;-;-;-;-;-;-;-;-;-;-;-;-
1513511510723;-;-;8.625595;-0.6582184;-1.8596191;-;-;-;-;-;-;-;-;-;-;-;-;-;-;-
1513511510743;-;-;8.48793;-0.16261292;-2.7694092;-;-;-;-;-;-;-;-;-;-;-;-;-;-;-
1513511510764;-;-;9.37619;-1.2040863;-1.6261749;-;-;-;-;-;-;-;-;-;-;-;-;-;-;-
1513511510785;-;-;9.627579;-0.77433777;-1.942215;-;-;-;-;-;-;-;-;-;-;-;-;-;-;-
1513511510804;-;-;9.244507;-0.6869507;-1.7039948;-;-;-;-;-;-;-;-;-;-;-;-;-;-;-
1513511510825;-;-;9.121201;-1.364502;-1.7710266;-;-;-;-;-;-;-;-;-;-;-;-;-;-;-
1513511510845;-;-;9.367798;-1.278305;-2.0523376;-;-;-;-;-;-;-;-;-;-;-;-;-;-;-
1513511510865;-;-;9.268448;-1.3070374;-1.5411835;-;-;-;-;-;-;-;-;-;-;-;-;-;-;-
1513511510885;-;-;9.518631;-1.1011353;-1.6776581;-;-;-;-;-;-;-;-;-;-;-;-;-;-;-
1513511510906;-;-;8.873398;-1.0927582;-0.9186859;-;-;-;-;-;-;-;-;-;-;-;-;-;-;-
1513511510925;-;-;8.502304;-0.3194275;-0.6553345;-;-;-;-;-;-;-;-;-;-;-;-;-;-;-
1513511510945;-;-;8.164719;0.50177;-1.0970612;-;-;-;-;-;-;-;-;-;-;-;-;-;-;-
1513511510965;-;-;8.222183;0.2348175;-0.82292175;-;-;-;-;-;-;-;-;-;-;-;-;-;-;-
1513511510986;-;-;8.3107605;0.012161255;-1.6596985;-;-;-;-;-;-;-;-;-;-;-;-;-;-;-
1513511511006;-;-;9.287598;-0.15184021;-2.737091;-;-;-;-;-;-;-;-;-;-;-;-;-;-;-
1513511511026;-;-;9.89093;-0.67497253;-2.9298248;-;-;-;-;-;-;-;-;-;-;-;-;-;-;-
1513511511047;-;-;10.239288;-0.44154358;-3.0866394;-;-;-;-;-;-;-;-;-;-;-;-;-;-;-
1513511511067;-;-;9.941208;-0.41879272;-2.567093;-;-;-;-;-;-;-;-;-;-;-;-;-;-;-
1513511511087;-;-;8.027054;-0.14704895;-3.0746765;-;-;-;-;-;-;-;-;-;-;-;-;-;-;-
1513511511108;-;-;8.560959;-0.463089;-1.8332825;-;-;-;-;-;-;-;-;-;-;-;-;-;-;-
1513511511128;-;-;8.672287;-0.60194397;-1.7949677;-;-;-;-;-;-;-;-;-;-;-;-;-;-;-
1513511511148;-;-;9.029022;-0.68933105;-2.1229706;-;-;-;-;-;-;-;-;-;-;-;-;-;-;-
1513511511168;-;-;9.254074;-0.77433777;-2.191208;-;-;-;-;-;-;-;-;-;-;-;-;-;-;-
1513511511189;-;-;9.333084;-0.7372284;-2.1505127;-;-;-;-;-;-;-;-;-;-;-;-;-;-;-
1513511511209;-;-;9.292389;-0.66300964;-2.231903;-;-;-;-;-;-;-;-;-;-;-;-;-;-;-
1513511511229;-;-;9.145142;-0.5337219;-2.3145142;-;-;-;-;-;-;-;-;-;-;-;-;-;-;-
1513511511249;-;-;9.029022;-0.5205536;-2.207962;-;-;-;-;-;-;-;-;-;-;-;-;-;-;-
1513511511269;-;-;8.960785;-0.5732269;-2.1217804;-;-;-;-;-;-;-;-;-;-;-;-;-;-;-
1513511511290;-;-;8.881775;-0.65940857;-1.9541779;-;-;-;-;-;-;-;-;-;-;-;-;-;-;-
1513511511310;-;-;8.787216;-0.6426544;-1.7159576;-;-;-;-;-;-;-;-;-;-;-;-;-;-;-
1513511511330;-;-;8.832703;-0.71447754;-1.629776;-;-;-;-;-;-;-;-;-;-;-;-;-;-;-
1513511511351;-;-;8.924881;-0.70729065;-1.6776581;-;-;-;-;-;-;-;-;-;-;-;-;-;-;-
1513511511371;-;-;9.044586;-0.65701294;-1.6776581;-;-;-;-;-;-;-;-;-;-;-;-;-;-;-
1513511511392;-;-;9.206192;-0.54927063;-1.6836395;-;-;-;-;-;-;-;-;-;-;-;-;-;-;-
1513511511412;-;-;9.25647;-0.5145569;-1.753067;-;-;-;-;-;-;-;-;-;-;-;-;-;-;-
1513511511432;-;-;9.287598;-0.62709045;-1.7937775;-;-;-;-;-;-;-;-;-;-;-;-;-;-;-
1513511511452;-;-;9.232529;-0.7120819;-1.9086914;-;-;-;-;-;-;-;-;-;-;-;-;-;-;-
1513511511472;-;-;9.114014;-0.6294861;-1.90271;-;-;-;-;-;-;-;-;-;-;-;-;-;-;-
1513511511493;-;-;8.9787445;-0.47027588;-1.9446106;-;-;-;-;-;-;-;-;-;-;-;-;-;-;-
1513511511513;-;-;8.946426;-0.41281128;-2.0008698;-;-;-;-;-;-;-;-;-;-;-;-;-;-;-
1513511511533;-;-;9.001495;-0.3481598;-2.0272064;-;-;-;-;-;-;-;-;-;-;-;-;-;-;-
1513511511553;-;-;9.043396;-0.42837524;-2.1074066;-;-;-;-;-;-;-;-;-;-;-;-;-;-;-
1513511511574;-;-;9.147537;-0.47146606;-2.105011;-;-;-;-;-;-;-;-;-;-;-;-;-;-;-
1513511511594;-;-;9.194229;-0.44992065;-2.1026306;-;-;-;-;-;-;-;-;-;-;-;-;-;-;-
1513511511614;-;-;9.257675;-0.4487152;-2.0391846;-;-;-;-;-;-;-;-;-;-;-;-;-;-;-
1513511511635;-;-;9.234924;-0.46907043;-2.0511475;-;-;-;-;-;-;-;-;-;-;-;-;-;-;-
1513511511654;-;-;9.148727;-0.5432892;-2.0008698;-;-;-;-;-;-;-;-;-;-;-;-;-;-;-
1513511511674;-;-;9.042191;-0.58399963;-2.0702972;-;-;-;-;-;-;-;-;-;-;-;-;-;-;-
1513511511694;-;-;8.934448;-0.5432892;-2.163681;-;-;-;-;-;-;-;-;-;-;-;-;-;-;-
1513511511715;-;-;8.876999;-0.4834442;-2.053543;-;-;-;-;-;-;-;-;-;-;-;-;-;-;-
1513511511735;-;-;8.923676;-0.5636444;-2.1696625;-;-;-;-;-;-;-;-;-;-;-;-;-;-;-
1513511511755;-;-;8.96199;-0.66300964;-2.3360596;-;-;-;-;-;-;-;-;-;-;-;-;-;-;-
1513511511775;-;-;9.0972595;-0.7707367;-2.3875275;-;-;-;-;-;-;-;-;-;-;-;-;-;-;-
1513511511796;-;-;9.222961;-0.8162384;-2.429428;-;-;-;-;-;-;-;-;-;-;-;-;-;-;-
1513511511816;-;-;9.134369;-0.8162384;-2.4162598;-;-;-;-;-;-;-;-;-;-;-;-;-;-;-
1513511511836;-;-;9.1128235;-0.8090515;-2.3516235;-;-;-;-;-;-;-;-;-;-;-;-;-;-;-
1513511511856;-;-;9.024231;-0.7276459;-2.302536;-;-;-;-;-;-;-;-;-;-;-;-;-;-;-
1513511511877;-;-;8.959595;-0.7013092;-2.3252869;-;-;-;-;-;-;-;-;-;-;-;-;-;-;-
1513511511897;-;-;8.802765;-0.6797638;-2.3540192;-;-;-;-;-;-;-;-;-;-;-;-;-;-;-
1513511511918;-;-;8.8003845;-0.71447754;-2.2881775;-;-;-;-;-;-;-;-;-;-;-;-;-;-;-
1513511511938;-;-;8.936844;-0.7671509;-2.2977448;-;-;-;-;-;-;-;-;-;-;-;-;-;-;-
1513511511958;-;-;8.9392395;-0.66659546;-2.3276825;-;-;-;-;-;-;-;-;-;-;-;-;-;-;-
1513511511978;-;-;9.020645;-0.60913086;-2.4114685;-;-;-;-;-;-;-;-;-;-;-;-;-;-;-
1513511511999;-;-;9.068527;-0.51934814;-2.3791504;-;-;-;-;-;-;-;-;-;-;-;-;-;-;-
1513511512019;-;-;9.013458;-0.5241394;-2.3779602;-;-;-;-;-;-;-;-;-;-;-;-;-;-;-
1513511512039;-;-;8.916504;-0.55166626;-2.3683777;-;-;-;-;-;-;-;-;-;-;-;-;-;-;-
1513511512060;-;-;8.896149;-0.51216125;-2.421051;-;-;-;-;-;-;-;-;-;-;-;-;-;-;-
1513511512080;-;-;8.92009;-0.4259796;-2.4198608;-;-;-;-;-;-;-;-;-;-;-;-;-;-;-
1513511512100;-;-;8.9787445;-0.41041565;-2.4809113;-;-;-;-;-;-;-;-;-;-;-;-;-;-;-
1513511512120;-;-;9.046982;-0.40083313;-2.4306335;-;-;-;-;-;-;-;-;-;-;-;-;-;-;-
1513511512141;-;-;9.0793;-0.44631958;-2.3181;-;-;-;-;-;-;-;-;-;-;-;-;-;-;-
1513511512160;-;-;9.046982;-0.42837524;-2.3169098;-;-;-;-;-;-;-;-;-;-;-;-;-;-;-
1513511512180;-;-;8.993118;-0.45948792;-2.2774048;-;-;-;-;-;-;-;-;-;-;-;-;-;-;-
1513511512200;-;-;8.944031;-0.48942566;-2.342041;-;-;-;-;-;-;-;-;-;-;-;-;-;-;-
1513511512221;-;-;8.933258;-0.51097107;-2.4617462;-;-;-;-;-;-;-;-;-;-;-;-;-;-;-
1513511512241;-;-;8.97995;-0.5361023;-2.5898438;-;-;-;-;-;-;-;-;-;-;-;-;-;-;-
1513511512261;-;-;8.977554;-0.5672302;-2.6078033;-;-;-;-;-;-;-;-;-;-;-;-;-;-;-
1513511512282;-;-;8.946426;-0.5504761;-2.508438;-;-;-;-;-;-;-;-;-;-;-;-;-;-;-
1513511512302;-;-;8.947617;-0.5253296;-2.4617462;-;-;-;-;-;-;-;-;-;-;-;-;-;-;-
1513511512322;-;-;8.935654;-0.53012085;-2.4557648;-;-;-;-;-;-;-;-;-;-;-;-;-;-;-
1513511512342;-;-;8.976349;-0.47027588;-2.4797058;-;-;-;-;-;-;-;-;-;-;-;-;-;-;-
1513511512363;-;-;9.006287;-0.43315125;-2.5120392;-;-;-;-;-;-;-;-;-;-;-;-;-;-;-
1513511512383;-;-;8.965576;-0.45111084;-2.5096436;-;-;-;-;-;-;-;-;-;-;-;-;-;-;-
1513511512404;-;-;8.914108;-0.47027588;-2.491684;-;-;-;-;-;-;-;-;-;-;-;-;-;-;-
1513511512424;-;-;8.896149;-0.4954071;-2.3923187;-;-;-;-;-;-;-;-;-;-;-;-;-;-;-
1513511512445;-;-;8.894943;-0.56962585;-2.405487;-;-;-;-;-;-;-;-;-;-;-;-;-;-;-
1513511512465;-;-;8.876999;-0.5241394;-2.4485931;-;-;-;-;-;-;-;-;-;-;-;-;-;-;-
1513511512485;-;-;8.911713;-0.47865295;-2.4857025;-;-;-;-;-;-;-;-;-;-;-;-;-;-;-
1513511512505;-;-;8.90213;-0.42358398;-2.500061;-;-;-;-;-;-;-;-;-;-;-;-;-;-;-
1513511512526;-;-;8.995499;-0.42477417;-2.5503387;-;-;-;-;-;-;-;-;-;-;-;-;-;-;-
1513511512545;-;-;8.955994;-0.44154358;-2.6233673;-;-;-;-;-;-;-;-;-;-;-;-;-;-;-
1513511512565;-;-;8.948822;-0.5241394;-2.6113892;-;-;-;-;-;-;-;-;-;-;-;-;-;-;-
1513511512585;-;-;8.945221;-0.5061798;-2.6209717;-;-;-;-;-;-;-;-;-;-;-;-;-;-;-
1513511512606;-;-;8.971558;-0.47146606;-2.6161804;-;-;-;-;-;-;-;-;-;-;-;-;-;-;-
1513511512625;-;-;8.947617;-0.45231628;-2.6317444;-;-;-;-;-;-;-;-;-;-;-;-;-;-;-
1513511512645;-;-;8.857834;-0.38049316;-2.6999817;-;-;-;-;-;-;-;-;-;-;-;-;-;-;-
1513511512665;-;-;8.833893;-0.47984314;-2.7047577;-;-;-;-;-;-;-;-;-;-;-;-;-;-;-
1513511512686;-;-;8.885376;-0.5349121;-2.7586365;-;-;-;-;-;-;-;-;-;-;-;-;-;-;-
1513511512706;-;-;8.848267;-0.58877563;-2.7322998;-;-;-;-;-;-;-;-;-;-;-;-;-;-;-
1513511512726;-;-;8.826721;-0.5720215;-2.7454681;-;-;-;-;-;-;-;-;-;-;-;-;-;-;-
1513511512747;-;-;8.853058;-0.58877563;-2.8328552;-;-;-;-;-;-;-;-;-;-;-;-;-;-;-
1513511512767;-;-;8.890167;-0.5612488;-2.9322205;-;-;-;-;-;-;-;-;-;-;-;-;-;-;-
1513511512787;-;-;8.872208;-0.60913086;-3.0148163;-;-;-;-;-;-;-;-;-;-;-;-;-;-;-
1513511512807;-;-;8.853058;-0.65582275;-3.0686798;-;-;-;-;-;-;-;-;-;-;-;-;-;-;-
1513511512828;-;-;8.811157;-0.63067627;-2.9118652;-;-;-;-;-;-;-;-;-;-;-;-;-;-;-
1513511512847;-;-;8.786011;-0.5217438;-2.7275085;-;-;-;-;-;-;-;-;-;-;-;-;-;-;-
1513511512868;-;-;8.7764435;-0.38407898;-2.6281433;-;-;-;-;-;-;-;-;-;-;-;-;-;-;-
1513511512888;-;-;8.772842;-0.44992065;-2.73349;-;-;-;-;-;-;-;-;-;-;-;-;-;-;-
1513511512908;-;-;8.827911;-0.5205536;-2.8699646;-;-;-;-;-;-;-;-;-;-;-;-;-;-;-
1513511512928;-;-;8.812347;-0.5205536;-2.922638;-;-;-;-;-;-;-;-;-;-;-;-;-;-;-
1513511512949;-;-;8.763275;-0.41160583;-2.898697;-;-;-;-;-;-;-;-;-;-;-;-;-;-;-
1513511512968;-;-;8.758484;-0.46188354;-2.9920654;-;-;-;-;-;-;-;-;-;-;-;-;-;-;-
1513511512988;-;-;8.809952;-0.45710754;-3.065094;-;-;-;-;-;-;-;-;-;-;-;-;-;-;-
1513511513008;-;-;8.873398;-0.4056244;-3.1033936;-;-;-;-;-;-;-;-;-;-;-;-;-;-;-
1513511513029;-;-;8.853058;-0.2799225;-3.1464996;-;-;-;-;-;-;-;-;-;-;-;-;-;-;-
1513511513049;-;-;8.871002;-0.2033081;-3.2769775;-;-;-;-;-;-;-;-;-;-;-;-;-;-;-
1513511513069;-;-;8.875793;-0.25239563;-3.2398682;-;-;-;-;-;-;-;-;-;-;-;-;-;-;-
1513511513090;-;-;8.850662;-0.28831482;-3.1884003;-;-;-;-;-;-;-;-;-;-;-;-;-;-;-
1513511513109;-;-;8.922485;-0.39964294;-3.2446594;-;-;-;-;-;-;-;-;-;-;-;-;-;-;-
1513511513129;-;-;8.847061;-0.5564575;-3.2326813;-;-;-;-;-;-;-;-;-;-;-;-;-;-;-
1513511513149;-;-;8.856644;-0.8186188;-3.1728363;-;-;-;-;-;-;-;-;-;-;-;-;-;-;-
1513511513170;-;-;8.884171;-1.0329132;-3.1069946;-;-;-;-;-;-;-;-;-;-;-;-;-;-;-
1513511513189;-;-;8.819534;-0.9191742;-3.018402;-;-;-;-;-;-;-;-;-;-;-;-;-;-;-
1513511513210;-;-;8.747711;-0.15663147;-3.0866394;-;-;-;-;-;-;-;-;-;-;-;-;-;-;-
1513511513230;-;-;8.661514;0.06842041;-2.7694092;-;-;-;-;-;-;-;-;-;-;-;-;-;-;-
1513511513250;-;-;9.386963;-1.4171753;-2.0547333;-;-;-;-;-;-;-;-;-;-;-;-;-;-;-
1513511513270;-;-;9.127182;-0.5827942;-2.8627777;-;-;-;-;-;-;-;-;-;-;-;-;-;-;-
1513511513290;-;-;8.18985;0.3497467;-3.9258118;-;-;-;-;-;-;-;-;-;-;-;-;-;-;-
1513511513311;-;-;8.163513;0.31503296;-3.0471344;-;-;-;-;-;-;-;-;-;-;-;-;-;-;-
1513511513331;-;-;8.715378;1.0141296;-3.6887817;-;-;-;-;-;-;-;-;-;-;-;-;-;-;-
1513511513351;-;-;9.29837;1.4642487;-3.6684265;-;-;-;-;-;-;-;-;-;-;-;-;-;-;-
1513511513372;-;-;9.243301;0.5305023;-3.1261444;-;-;-;-;-;-;-;-;-;-;-;-;-;-;-
1513511513392;-;-;8.918884;-0.49780273;-2.7406769;-;-;-;-;-;-;-;-;-;-;-;-;-;-;-
1513511513412;-;-;8.824326;-1.2376099;-2.8843231;-;-;-;-;-;-;-;-;-;-;-;-;-;-;-
1513511513433;-;-;8.812347;-1.5392761;-2.6221619;-;-;-;-;-;-;-;-;-;-;-;-;-;-;-
1513511513452;-;-;8.311966;-1.1238861;-2.4809113;-;-;-;-;-;-;-;-;-;-;-;-;-;-;-
1513511513472;-;-;8.223373;-0.6474457;-2.709549;-;-;-;-;-;-;-;-;-;-;-;-;-;-;-
1513511513492;-;-;8.527435;-0.4163971;-3.0160065;-;-;-;-;-;-;-;-;-;-;-;-;-;-;-
1513511513513;-;-;8.9392395;-0.42956543;-3.2602234;-;-;-;-;-;-;-;-;-;-;-;-;-;-;-
1513511513533;-;-;9.23732;-0.39485168;-3.3547974;-;-;-;-;-;-;-;-;-;-;-;-;-;-;-
1513511513553;-;-;9.254074;-0.32421875;-3.3356323;-;-;-;-;-;-;-;-;-;-;-;-;-;-;-
1513511513573;-;-;9.045776;-0.1590271;-3.2302856;-;-;-;-;-;-;-;-;-;-;-;-;-;-;-
1513511513594;-;-;8.766861;-0.20211792;-3.089035;-;-;-;-;-;-;-;-;-;-;-;-;-;-;-
1513511513613;-;-;8.574127;-0.24760437;-3.0674896;-;-;-;-;-;-;-;-;-;-;-;-;-;-;-
1513511513634;-;-;8.532227;-0.25239563;-3.0615082;-;-;-;-;-;-;-;-;-;-;-;-;-;-;-
1513511513654;-;-;8.515472;-0.29908752;-2.9693298;-;-;-;-;-;-;-;-;-;-;-;-;-;-;-
1513511513674;-;-;8.64476;-0.39485168;-3.0351715;-;-;-;-;-;-;-;-;-;-;-;-;-;-;-
1513511513694;-;-;8.861435;-0.43315125;-3.282959;-;-;-;-;-;-;-;-;-;-;-;-;-;-;-
1513511513714;-;-;8.911713;-0.41041565;-3.3751373;-;-;-;-;-;-;-;-;-;-;-;-;-;-;-
1513511513735;-;-;8.906921;-0.38049316;-3.3128967;-;-;-;-;-;-;-;-;-;-;-;-;-;-;-
1513511513754;-;-;8.844666;-0.47505188;-3.1728363;-;-;-;-;-;-;-;-;-;-;-;-;-;-;-
1513511513774;-;-;8.757278;-0.5277252;-3.057907;-;-;-;-;-;-;-;-;-;-;-;-;-;-;-
1513511513794;-;-;8.788406;-0.5157623;-3.0124207;-;-;-;-;-;-;-;-;-;-;-;-;-;-;-
1513511513815;-;-;8.699814;-0.5133667;-3.0064392;-;-;-;-;-;-;-;-;-;-;-;-;-;-;-
1513511513835;-;-;8.637573;-0.45948792;-3.104599;-;-;-;-;-;-;-;-;-;-;-;-;-;-;-
1513511513855;-;-;8.650742;-0.42837524;-3.1464996;-;-;-;-;-;-;-;-;-;-;-;-;-;-;-
1513511513876;-;-;8.695038;-0.42118835;-3.1943817;-;-;-;-;-;-;-;-;-;-;-;-;-;-;-
1513511513895;-;-;8.759674;-0.46788025;-3.175232;-;-;-;-;-;-;-;-;-;-;-;-;-;-;-
1513511513915;-;-;8.84227;-0.5241394;-3.2135315;-;-;-;-;-;-;-;-;-;-;-;-;-;-;-
1513511513935;-;-;8.863831;-0.5145569;-3.214737;-;-;-;-;-;-;-;-;-;-;-;-;-;-;-
1513511513956;-;-;8.830307;-0.49661255;-3.2051544;-;-;-;-;-;-;-;-;-;-;-;-;-;-;-
1513511513975;-;-;8.790802;-0.4774475;-3.1225586;-;-;-;-;-;-;-;-;-;-;-;-;-;-;-
1513511513995;-;-;8.703415;-0.41760254;-3.1345215;-;-;-;-;-;-;-;-;-;-;-;-;-;-;-
1513511514015;-;-;8.673492;-0.43196106;-3.1069946;-;-;-;-;-;-;-;-;-;-;-;-;-;-;-
1513511514036;-;-;8.709396;-0.47625732;-3.1488953;-;-;-;-;-;-;-;-;-;-;-;-;-;-;-
1513511514055;-;-;8.757278;-0.47865295;-3.2302856;-;-;-;-;-;-;-;-;-;-;-;-;-;-;-
1513511514075;-;-;8.76207;-0.49421692;-3.2362823;-;-;-;-;-;-;-;-;-;-;-;-;-;-;-
1513511514096;-;-;8.768051;-0.45948792;-3.2099457;-;-;-;-;-;-;-;-;-;-;-;-;-;-;-
1513511514116;-;-;8.728546;-0.3972473;-3.104599;-;-;-;-;-;-;-;-;-;-;-;-;-;-;-
1513511514136;-;-;8.72496;-0.46907043;-3.2183228;-;-;-;-;-;-;-;-;-;-;-;-;-;-;-
1513511514156;-;-;8.698624;-0.5049896;-3.2063446;-;-;-;-;-;-;-;-;-;-;-;-;-;-;-
1513511514176;-;-;8.747711;-0.55526733;-3.180008;-;-;-;-;-;-;-;-;-;-;-;-;-;-;-
1513511514197;-;-;8.861435;-0.58758545;-3.219513;-;-;-;-;-;-;-;-;-;-;-;-;-;-;-
1513511514217;-;-;8.809952;-0.55766296;-3.262619;-;-;-;-;-;-;-;-;-;-;-;-;-;-;-
1513511514237;-;-;8.764465;-0.60194397;-3.2279053;-;-;-;-;-;-;-;-;-;-;-;-;-;-;-
1513511514257;-;-;8.812347;-0.6079407;-3.1428986;-;-;-;-;-;-;-;-;-;-;-;-;-;-;-
1513511514278;-;-;8.732147;-0.59716797;-3.223114;-;-;-;-;-;-;-;-;-;-;-;-;-;-;-
1513511514298;-;-;8.696228;-0.52653503;-3.140503;-;-;-;-;-;-;-;-;-;-;-;-;-;-;-
1513511514318;-;-;8.738129;-0.5097656;-3.1656494;-;-;-;-;-;-;-;-;-;-;-;-;-;-;-
1513511514338;-;-;8.709396;-0.5217438;-3.1931763;-;-;-;-;-;-;-;-;-;-;-;-;-;-;-
1513511514359;-;-;8.689041;-0.56962585;-3.235077;-;-;-;-;-;-;-;-;-;-;-;-;-;-;-
1513511514379;-;-;8.669891;-0.5708313;-3.259018;-;-;-;-;-;-;-;-;-;-;-;-;-;-;-
1513511514399;-;-;8.693832;-0.5780029;-3.274582;-;-;-;-;-;-;-;-;-;-;-;-;-;-;-
1513511514420;-;-;8.751297;-0.5361023;-3.28656;-;-;-;-;-;-;-;-;-;-;-;-;-;-;-
1513511514440;-;-;8.775238;-0.56604004;-3.2326813;-;-;-;-;-;-;-;-;-;-;-;-;-;-;-
1513511514460;-;-;8.7656555;-0.5636444;-3.2051544;-;-;-;-;-;-;-;-;-;-;-;-;-;-;-
1513511514480;-;-;8.7213745;-0.5708313;-3.199173;-;-;-;-;-;-;-;-;-;-;-;-;-;-;-
1513511514501;-;-;8.64476;-0.5792084;-3.2686005;-;-;-;-;-;-;-;-;-;-;-;-;-;-;-
1513511514521;-;-;8.6651;-0.58639526;-3.2530365;-;-;-;-;-;-;-;-;-;-;-;-;-;-;-
1513511514541;-;-;8.769257;-0.53970337;-3.243454;-;-;-;-;-;-;-;-;-;-;-;-;-;-;-
1513511514562;-;-;8.827911;-0.5384979;-3.247055;-;-;-;-;-;-;-;-;-;-;-;-;-;-;-
1513511514582;-;-;8.871002;-0.5037842;-3.235077;-;-;-;-;-;-;-;-;-;-;-;-;-;-;-
1513511514602;-;-;8.813553;-0.5097656;-3.175232;-;-;-;-;-;-;-;-;-;-;-;-;-;-;-
1513511514622;-;-;8.747711;-0.5277252;-3.1943817;-;-;-;-;-;-;-;-;-;-;-;-;-;-;-
1513511514643;-;-;8.671097;-0.51815796;-3.2159271;-;-;-;-;-;-;-;-;-;-;-;-;-;-;-
1513511514662;-;-;8.727356;-0.48703003;-3.1895905;-;-;-;-;-;-;-;-;-;-;-;-;-;-;-
1513511514682;-;-;8.722565;-0.43077087;-3.1704407;-;-;-;-;-;-;-;-;-;-;-;-;-;-;-
1513511514703;-;-;8.769257;-0.42477417;-3.1907806;-;-;-;-;-;-;-;-;-;-;-;-;-;-;-
1513511514723;-;-;8.739319;-0.43196106;-3.2051544;-;-;-;-;-;-;-;-;-;-;-;-;-;-;-
1513511514743;-;-;8.775238;-0.45231628;-3.1608582;-;-;-;-;-;-;-;-;-;-;-;-;-;-;-
1513511514764;-;-;8.82193;-0.4163971;-3.2279053;-;-;-;-;-;-;-;-;-;-;-;-;-;-;-
1513511514784;-;-;8.748901;-0.4259796;-3.1297302;-;-;-;-;-;-;-;-;-;-;-;-;-;-;-
1513511514804;-;-;8.710602;-0.5600586;-3.0459442;-;-;-;-;-;-;-;-;-;-;-;-;-;-;-
1513511514824;-;-;8.745316;-0.64505005;-3.1069946;-;-;-;-;-;-;-;-;-;-;-;-;-;-;-
1513511514845;-;-;8.677078;-0.5145569;-3.298523;-;-;-;-;-;-;-;-;-;-;-;-;-;-;-
1513511514864;-;-;8.711792;-0.30267334;-3.28656;-;-;-;-;-;-;-;-;-;-;-;-;-;-;-
1513511514885;-;-;8.759674;-0.31105042;-3.1584625;-;-;-;-;-;-;-;-;-;-;-;-;-;-;-
1513511514905;-;-;8.769257;-0.44273376;-3.0902252;-;-;-;-;-;-;-;-;-;-;-;-;-;-;-
1513511514925;-;-;8.722565;-0.40322876;-3.203949;-;-;-;-;-;-;-;-;-;-;-;-;-;-;-
1513511514945;-;-;8.705811;-0.3433838;-3.2374725;-;-;-;-;-;-;-;-;-;-;-;-;-;-;-
1513511514966;-;-;8.64595;-0.28112793;-3.1847992;-;-;-;-;-;-;-;-;-;-;-;-;-;-;-
1513511514986;-;-;8.712982;-0.21528625;-3.1943817;-;-;-;-;-;-;-;-;-;-;-;-;-;-;-
1513511515006;-;-;8.718979;-0.35176086;-3.136917;-;-;-;-;-;-;-;-;-;-;-;-;-;-;-
1513511515026;-;-;8.770447;-0.34098816;-3.1644592;-;-;-;-;-;-;-;-;-;-;-;-;-;-;-
1513511515047;-;-;8.83989;-0.4259796;-3.156067;-;-;-;-;-;-;-;-;-;-;-;-;-;-;-
1513511515066;-;-;8.837494;-0.37210083;-3.097412;-;-;-;-;-;-;-;-;-;-;-;-;-;-;-
1513511515086;-;-;8.746506;-0.45350647;-3.080658;-;-;-;-;-;-;-;-;-;-;-;-;-;-;-
1513511515106;-;-;8.788406;-0.4559021;-3.0626984;-;-;-;-;-;-;-;-;-;-;-;-;-;-;-
1513511515127;-;-;8.774048;-0.41760254;-3.0794525;-;-;-;-;-;-;-;-;-;-;-;-;-;-;-
1513511515147;-;-;8.82312;-0.43554688;-3.080658;-;-;-;-;-;-;-;-;-;-;-;-;-;-;-
1513511515167;-;-;8.793198;-0.47027588;-3.0878448;-;-;-;-;-;-;-;-;-;-;-;-;-;-;-
1513511515188;-;-;8.783615;-0.43315125;-3.0543213;-;-;-;-;-;-;-;-;-;-;-;-;-;-;-
1513511515209;-;-;8.764465;-0.368515;-3.072281;-;-;-;-;-;-;-;-;-;-;-;-;-;-;-
1513511515228;-;-;8.774048;-0.36732483;-3.0794525;-;-;-;-;-;-;-;-;-;-;-;-;-;-;-
1513511515248;-;-;8.758484;-0.38287354;-3.0591125;-;-;-;-;-;-;-;-;-;-;-;-;-;-;-
1513511515268;-;-;8.7764435;-0.3002777;-3.1153717;-;-;-;-;-;-;-;-;-;-;-;-;-;-;-
1513511515289;-;-;8.786011;-0.30148315;-3.1141663;-;-;-;-;-;-;-;-;-;-;-;-;-;-;-
1513511515309;-;-;8.8003845;-0.36611938;-3.0662842;-;-;-;-;-;-;-;-;-;-;-;-;-;-;-
1513511515329;-;-;8.801575;-0.38887024;-3.0926208;-;-;-;-;-;-;-;-;-;-;-;-;-;-;-
1513511515350;-;-;8.711792;-0.40083313;-3.057907;-;-;-;-;-;-;-;-;-;-;-;-;-;-;-
1513511515370;-;-;8.74411;-0.41041565;-2.9992523;-;-;-;-;-;-;-;-;-;-;-;-;-;-;-
1513511515390;-;-;8.818329;-0.40322876;-3.080658;-;-;-;-;-;-;-;-;-;-;-;-;-;-;-
1513511515411;-;-;8.782425;-0.38526917;-3.0950165;-;-;-;-;-;-;-;-;-;-;-;-;-;-;-
1513511515431;-;-;8.782425;-0.35055542;-3.0447388;-;-;-;-;-;-;-;-;-;-;-;-;-;-;-
1513511515455;-;-;8.812347;-0.41879272;-3.0112305;-;-;-;-;-;-;-;-;-;-;-;-;-;-;-
1513511515475;-;-;8.808762;-0.39126587;-3.0004425;-;-;-;-;-;-;-;-;-;-;-;-;-;-;-
1513511515496;-;-;8.799179;-0.37210083;-3.0387573;-;-;-;-;-;-;-;-;-;-;-;-;-;-;-
1513511515516;-;-;8.799179;-0.34098816;-3.0207977;-;-;-;-;-;-;-;-;-;-;-;-;-;-;-
1513511515536;-;-;8.826721;-0.3589325;-2.9872742;-;-;-;-;-;-;-;-;-;-;-;-;-;-;-
1513511515557;-;-;8.791992;-0.36372375;-2.994461;-;-;-;-;-;-;-;-;-;-;-;-;-;-;-
1513511515577;-;-;8.751297;-0.34576416;-2.9669342;-;-;-;-;-;-;-;-;-;-;-;-;-;-;-
1513511515598;-;-;8.826721;-0.36372375;-2.9932709;-;-;-;-;-;-;-;-;-;-;-;-;-;-;-
1513511515618;-;-;8.829102;-0.39964294;-2.9489746;-;-;-;-;-;-;-;-;-;-;-;-;-;-;-
1513511515639;-;-;8.809952;-0.3876648;-2.9322205;-;-;-;-;-;-;-;-;-;-;-;-;-;-;-
1513511515659;-;-;8.790802;-0.34217834;-2.9250336;-;-;-;-;-;-;-;-;-;-;-;-;-;-;-
1513511515680;-;-;8.766861;-0.39964294;-2.898697;-;-;-;-;-;-;-;-;-;-;-;-;-;-;-
1513511515700;-;-;8.790802;-0.38168335;-2.9298248;-;-;-;-;-;-;-;-;-;-;-;-;-;-;-
1513511515720;-;-;8.838684;-0.41400146;-2.9537659;-;-;-;-;-;-;-;-;-;-;-;-;-;-;-
1513511515741;-;-;8.83989;-0.3972473;-2.962143;-;-;-;-;-;-;-;-;-;-;-;-;-;-;-
1513511515762;-;-;8.856644;-0.37449646;-2.994461;-;-;-;-;-;-;-;-;-;-;-;-;-;-;-
1513511515782;-;-;8.867416;-0.3984375;-2.9262238;-;-;-;-;-;-;-;-;-;-;-;-;-;-;-
1513511515803;-;-;8.814743;-0.45111084;-2.9405975;-;-;-;-;-;-;-;-;-;-;-;-;-;-;-
1513511515822;-;-;8.795593;-0.4271698;-2.9501648;-;-;-;-;-;-;-;-;-;-;-;-;-;-;-
1513511515842;-;-;8.794388;-0.41281128;-2.922638;-;-;-;-;-;-;-;-;-;-;-;-;-;-;-
1513511515862;-;-;8.82193;-0.37449646;-2.934616;-;-;-;-;-;-;-;-;-;-;-;-;-;-;-
1513511515883;-;-;8.871002;-0.37091064;-2.9501648;-;-;-;-;-;-;-;-;-;-;-;-;-;-;-
1513511515903;-;-;8.873398;-0.3757019;-2.9884796;-;-;-;-;-;-;-;-;-;-;-;-;-;-;-
1513511515924;-;-;8.784821;-0.45231628;-2.9405975;-;-;-;-;-;-;-;-;-;-;-;-;-;-;-
1513511515944;-;-;8.783615;-0.51216125;-2.852005;-;-;-;-;-;-;-;-;-;-;-;-;-;-;-
1513511515964;-;-;8.847061;-0.4918213;-2.9609375;-;-;-;-;-;-;-;-;-;-;-;-;-;-;-
1513511515984;-;-;8.809952;-0.3768921;-2.9214478;-;-;-;-;-;-;-;-;-;-;-;-;-;-;-
1513511516005;-;-;8.888962;-0.3589325;-2.9513702;-;-;-;-;-;-;-;-;-;-;-;-;-;-;-
1513511516026;-;-;8.872208;-0.4343567;-2.9358063;-;-;-;-;-;-;-;-;-;-;-;-;-;-;-
1513511516046;-;-;8.813553;-0.42956543;-2.9034882;-;-;-;-;-;-;-;-;-;-;-;-;-;-;-
1513511516066;-;-;8.778824;-0.41041565;-2.9214478;-;-;-;-;-;-;-;-;-;-;-;-;-;-;-
1513511516087;-;-;8.752487;-0.3972473;-2.934616;-;-;-;-;-;-;-;-;-;-;-;-;-;-;-
1513511516107;-;-;8.82193;-0.41281128;-2.8903198;-;-;-;-;-;-;-;-;-;-;-;-;-;-;-
1513511516128;-;-;8.867416;-0.4487152;-2.9034882;-;-;-;-;-;-;-;-;-;-;-;-;-;-;-
1513511516148;-;-;8.876999;-0.48582458;-2.7957458;-;-;-;-;-;-;-;-;-;-;-;-;-;-;-
1513511516169;-;-;8.884171;-0.45829773;-2.8891144;-;-;-;-;-;-;-;-;-;-;-;-;-;-;-
1513511516189;-;-;8.790802;-0.4559021;-2.9573517;-;-;-;-;-;-;-;-;-;-;-;-;-;-;-
1513511516210;-;-;8.806366;-0.37210083;-3.0363617;-;-;-;-;-;-;-;-;-;-;-;-;-;-;-
1513511516230;-;-;8.896149;-0.33859253;-3.0375519;-;-;-;-;-;-;-;-;-;-;-;-;-;-;-
1513511516250;-;-;8.878189;-0.34936523;-3.017212;-;-;-;-;-;-;-;-;-;-;-;-;-;-;-
1513511516271;-;-;8.849457;-0.32661438;-2.9561615;-;-;-;-;-;-;-;-;-;-;-;-;-;-;-
1513511516291;-;-;8.809952;-0.32901;-2.9322205;-;-;-;-;-;-;-;-;-;-;-;-;-;-;-
1513511516312;-;-;8.788406;-0.3577423;-2.8939056;-;-;-;-;-;-;-;-;-;-;-;-;-;-;-
1513511516332;-;-;8.793198;-0.31225586;-2.8029327;-;-;-;-;-;-;-;-;-;-;-;-;-;-;-
1513511516353;-;-;8.801575;-0.3433838;-2.8627777;-;-;-;-;-;-;-;-;-;-;-;-;-;-;-
1513511516373;-;-;8.84227;-0.3972473;-2.8172913;-;-;-;-;-;-;-;-;-;-;-;-;-;-;-
1513511516393;-;-;8.904526;-0.40322876;-2.915451;-;-;-;-;-;-;-;-;-;-;-;-;-;-;-
1513511516414;-;-;8.881775;-0.34576416;-2.9178467;-;-;-;-;-;-;-;-;-;-;-;-;-;-;-
1513511516435;-;-;8.8207245;-0.31344604;-2.859192;-;-;-;-;-;-;-;-;-;-;-;-;-;-;-
1513511516456;-;-;8.845871;-0.31704712;-2.8615875;-;-;-;-;-;-;-;-;-;-;-;-;-;-;-
1513511516479;-;-;8.90213;-0.33499146;-2.8711548;-;-;-;-;-;-;-;-;-;-;-;-;-;-;-
1513511516496;-;-;8.88298;-0.36132813;-2.8747559;-;-;-;-;-;-;-;-;-;-;-;-;-;-;-
1513511516517;-;-;8.850662;-0.33499146;-2.8687744;-;-;-;-;-;-;-;-;-;-;-;-;-;-;-
1513511516537;-;-;8.872208;-0.3086548;-2.7873688;-;-;-;-;-;-;-;-;-;-;-;-;-;-;-
1513511516557;-;-;8.855438;-0.28231812;-2.934616;-;-;-;-;-;-;-;-;-;-;-;-;-;-;-
1513511516578;-;-;8.811157;-0.32063293;-2.8735504;-;-;-;-;-;-;-;-;-;-;-;-;-;-;-
1513511516597;-;-;8.851852;-0.2775421;-2.836441;-;-;-;-;-;-;-;-;-;-;-;-;-;-;-
1513511516617;-;-;8.832703;-0.31225586;-2.788559;-;-;-;-;-;-;-;-;-;-;-;-;-;-;-
1513511516638;-;-;8.837494;-0.3182373;-2.8567963;-;-;-;-;-;-;-;-;-;-;-;-;-;-;-
1513511516658;-;-;8.865021;-0.3146515;-2.8544006;-;-;-;-;-;-;-;-;-;-;-;-;-;-;-
1513511516678;-;-;8.910507;-0.37449646;-2.9082794;-;-;-;-;-;-;-;-;-;-;-;-;-;-;-
1513511516699;-;-;8.98114;-0.33140564;-3.0064392;-;-;-;-;-;-;-;-;-;-;-;-;-;-;-
1513511516719;-;-;8.894943;-0.20451355;-2.781372;-;-;-;-;-;-;-;-;-;-;-;-;-;-;-
1513511516740;-;-;8.829102;-0.20690918;-2.6269531;-;-;-;-;-;-;-;-;-;-;-;-;-;-;-
1513511516760;-;-;8.774048;-0.34098816;-2.5646973;-;-;-;-;-;-;-;-;-;-;-;-;-;-;-
1513511516781;-;-;8.766861;-0.4451294;-2.670044;-;-;-;-;-;-;-;-;-;-;-;-;-;-;-
1513511516801;-;-;8.833893;-0.36132813;-2.7418823;-;-;-;-;-;-;-;-;-;-;-;-;-;-;-
1513511516822;-;-;8.92128;-0.21528625;-2.855606;-;-;-;-;-;-;-;-;-;-;-;-;-;-;-
1513511516842;-;-;8.944031;-0.11352539;-2.8891144;-;-;-;-;-;-;-;-;-;-;-;-;-;-;-
1513511516863;-;-;8.924881;-0.1590271;-2.828064;-;-;-;-;-;-;-;-;-;-;-;-;-;-;-
1513511516883;-;-;8.965576;-0.23803711;-2.7837677;-;-;-;-;-;-;-;-;-;-;-;-;-;-;-
1513511516904;-;-;8.915298;-0.39485168;-2.7634277;-;-;-;-;-;-;-;-;-;-;-;-;-;-;-
1513511516924;-;-;8.944031;-0.44154358;-2.7550507;-;-;-;-;-;-;-;-;-;-;-;-;-;-;-
1513511516945;-;-;8.941635;-0.38287354;-2.7957458;-;-;-;-;-;-;-;-;-;-;-;-;-;-;-
1513511516965;-;-;8.933258;-0.31105042;-2.8017273;-;-;-;-;-;-;-;-;-;-;-;-;-;-;-
1513511516985;-;-;8.90094;-0.27633667;-2.8244781;-;-;-;-;-;-;-;-;-;-;-;-;-;-;-
1513511517006;-;-;8.84227;-0.22486877;-2.781372;-;-;-;-;-;-;-;-;-;-;-;-;-;-;-
1513511517027;-;-;8.727356;-0.1769867;-2.7263184;-;-;-;-;-;-;-;-;-;-;-;-;-;-;-
1513511517046;-;-;8.789597;-0.21170044;-2.7957458;-;-;-;-;-;-;-;-;-;-;-;-;-;-;-
1513511517066;-;-;8.735733;-0.23683167;-2.907074;-;-;-;-;-;-;-;-;-;-;-;-;-;-;-
1513511517086;-;-;8.787216;-0.3002777;-2.9262238;-;-;-;-;-;-;-;-;-;-;-;-;-;-;-
1513511517107;-;-;8.745316;-0.3254242;-2.8735504;-;-;-;-;-;-;-;-;-;-;-;-;-;-;-
1513511517128;-;-;8.796783;-0.25837708;-2.8974915;-;-;-;-;-;-;-;-;-;-;-;-;-;-;-
1513511517147;-;-;8.791992;-0.13269043;-2.934616;-;-;-;-;-;-;-;-;-;-;-;-;-;-;-
1513511517168;-;-;8.788406;-0.10874939;-2.8711548;-;-;-;-;-;-;-;-;-;-;-;-;-;-;-
1513511517188;-;-;8.854248;-0.1925354;-2.8101044;-;-;-;-;-;-;-;-;-;-;-;-;-;-;-
1513511517208;-;-;8.906921;-0.32302856;-2.8304596;-;-;-;-;-;-;-;-;-;-;-;-;-;-;-
1513511517229;-;-;8.930862;-0.289505;-2.8053284;-;-;-;-;-;-;-;-;-;-;-;-;-;-;-
1513511517250;-;-;8.914108;-0.19972229;-2.8723602;-;-;-;-;-;-;-;-;-;-;-;-;-;-;-
1513511517270;-;-;8.960785;-0.14944458;-2.9178467;-;-;-;-;-;-;-;-;-;-;-;-;-;-;-
1513511517291;-;-;8.896149;-0.21170044;-2.883133;-;-;-;-;-;-;-;-;-;-;-;-;-;-;-
1513511517312;-;-;8.948822;-0.2392273;-2.852005;-;-;-;-;-;-;-;-;-;-;-;-;-;-;-
1513511517332;-;-;8.914108;-0.2775421;-2.820877;-;-;-;-;-;-;-;-;-;-;-;-;-;-;-
1513511517353;-;-;8.908112;-0.3254242;-2.8029327;-;-;-;-;-;-;-;-;-;-;-;-;-;-;-
1513511517373;-;-;8.914108;-0.28710938;-2.843628;-;-;-;-;-;-;-;-;-;-;-;-;-;-;-
1513511517394;-;-;8.829102;-0.27633667;-2.8424377;-;-;-;-;-;-;-;-;-;-;-;-;-;-;-
1513511517414;-;-;8.887772;-0.24520874;-2.8256683;-;-;-;-;-;-;-;-;-;-;-;-;-;-;-
1513511517434;-;-;8.783615;-0.29908752;-2.7957458;-;-;-;-;-;-;-;-;-;-;-;-;-;-;-
1513511517455;-;-;8.838684;-0.25837708;-2.788559;-;-;-;-;-;-;-;-;-;-;-;-;-;-;-
1513511517475;-;-;8.874603;-0.22605896;-2.7598267;-;-;-;-;-;-;-;-;-;-;-;-;-;-;-
1513511517495;-;-;8.814743;-0.3002777;-2.71315;-;-;-;-;-;-;-;-;-;-;-;-;-;-;-
1513511517516;-;-;8.84227;-0.33380127;-2.7275085;-;-;-;-;-;-;-;-;-;-;-;-;-;-;-
1513511517537;-;-;8.758484;-0.3577423;-2.7310944;-;-;-;-;-;-;-;-;-;-;-;-;-;-;-
1513511517557;-;-;8.812347;-0.3194275;-2.682022;-;-;-;-;-;-;-;-;-;-;-;-;-;-;-
1513511517578;-;-;8.945221;-0.31704712;-2.7550507;-;-;-;-;-;-;-;-;-;-;-;-;-;-;-
1513511517598;-;-;8.917694;-0.289505;-2.8029327;-;-;-;-;-;-;-;-;-;-;-;-;-;-;-
1513511517619;-;-;8.933258;-0.2607727;-2.7825775;-;-;-;-;-;-;-;-;-;-;-;-;-;-;-
1513511517640;-;-;8.886566;-0.29190063;-2.7705994;-;-;-;-;-;-;-;-;-;-;-;-;-;-;-
1513511517660;-;-;8.836288;-0.31344604;-2.685608;-;-;-;-;-;-;-;-;-;-;-;-;-;-;-
1513511517680;-;-;8.862625;-0.31344604;-2.6113892;-;-;-;-;-;-;-;-;-;-;-;-;-;-;-
1513511517700;-;-;8.878189;-0.2320404;-2.689209;-;-;-;-;-;-;-;-;-;-;-;-;-;-;-
1513511517721;-;-;8.90213;-0.16381836;-2.7394867;-;-;-;-;-;-;-;-;-;-;-;-;-;-;-
1513511517742;-;-;8.923676;-0.16142273;-2.7466583;-;-;-;-;-;-;-;-;-;-;-;-;-;-;-
1513511517761;-;-;8.966782;-0.2033081;-2.6808167;-;-;-;-;-;-;-;-;-;-;-;-;-;-;-
1513511517782;-;-;8.969162;-0.20451355;-2.63414;-;-;-;-;-;-;-;-;-;-;-;-;-;-;-
1513511517803;-;-;8.894943;-0.23085022;-2.6437073;-;-;-;-;-;-;-;-;-;-;-;-;-;-;-
1513511517823;-;-;8.861435;-0.2571869;-2.6772308;-;-;-;-;-;-;-;-;-;-;-;-;-;-;-
1513511517843;-;-;8.898544;-0.23683167;-2.646103;-;-;-;-;-;-;-;-;-;-;-;-;-;-;-
1513511517863;-;-;8.908112;-0.22366333;-2.6796265;-;-;-;-;-;-;-;-;-;-;-;-;-;-;-
1513511517884;-;-;8.894943;-0.18296814;-2.6664581;-;-;-;-;-;-;-;-;-;-;-;-;-;-;-
1513511517904;-;-;8.933258;-0.18057251;-2.6963806;-;-;-;-;-;-;-;-;-;-;-;-;-;-;-
1513511517925;-;-;8.953613;-0.15782166;-2.7023773;-;-;-;-;-;-;-;-;-;-;-;-;-;-;-
1513511517945;-;-;8.916504;-0.13986206;-2.7191315;-;-;-;-;-;-;-;-;-;-;-;-;-;-;-
1513511517966;-;-;8.859039;-0.15423584;-2.6784363;-;-;-;-;-;-;-;-;-;-;-;-;-;-;-
1513511517985;-;-;8.838684;-0.17578125;-2.6006165;-;-;-;-;-;-;-;-;-;-;-;-;-;-;-
1513511518005;-;-;8.88298;-0.1877594;-2.7993317;-;-;-;-;-;-;-;-;-;-;-;-;-;-;-
1513511518026;-;-;8.960785;-0.210495;-2.852005;-;-;-;-;-;-;-;-;-;-;-;-;-;-;-
1513511518046;-;-;8.955994;-0.14704895;-2.8663788;-;-;-;-;-;-;-;-;-;-;-;-;-;-;-
1513511518067;-;-;8.934448;-0.12789917;-2.820877;-;-;-;-;-;-;-;-;-;-;-;-;-;-;-
1513511518088;-;-;8.929672;-0.1925354;-2.8148956;-;-;-;-;-;-;-;-;-;-;-;-;-;-;-
1513511518108;-;-;8.844666;-0.24401855;-2.7227173;-;-;-;-;-;-;-;-;-;-;-;-;-;-;-
1513511518129;-;-;8.827911;-0.2571869;-2.6880035;-;-;-;-;-;-;-;-;-;-;-;-;-;-;-
1513511518149;-;-;8.829102;-0.27035522;-2.6951904;-;-;-;-;-;-;-;-;-;-;-;-;-;-;-
1513511518170;-;-;8.83989;-0.27275085;-2.7562408;-;-;-;-;-;-;-;-;-;-;-;-;-;-;-
1513511518190;-;-;8.862625;-0.22845459;-2.7155457;-;-;-;-;-;-;-;-;-;-;-;-;-;-;-
1513511518212;-;-;8.878189;-0.25958252;-2.7897644;-;-;-;-;-;-;-;-;-;-;-;-;-;-;-
1513511518232;-;-;8.928467;-0.23324585;-2.737091;-;-;-;-;-;-;-;-;-;-;-;-;-;-;-
1513511518252;-;-;9.020645;-0.2392273;-2.7705994;-;-;-;-;-;-;-;-;-;-;-;-;-;-;-
1513511518272;-;-;8.906921;-0.25;-2.7167358;-;-;-;-;-;-;-;-;-;-;-;-;-;-;-
1513511518293;-;-;8.948822;-0.27394104;-2.7933502;-;-;-;-;-;-;-;-;-;-;-;-;-;-;-
1513511518313;-;-;8.912903;-0.20690918;-2.7011719;-;-;-;-;-;-;-;-;-;-;-;-;-;-;-
1513511518334;-;-;8.897339;-0.1925354;-2.6999817;-;-;-;-;-;-;-;-;-;-;-;-;-;-;-
1513511518354;-;-;8.780029;-0.210495;-2.594635;-;-;-;-;-;-;-;-;-;-;-;-;-;-;-
1513511518375;-;-;8.763275;-0.22964478;-2.5922394;-;-;-;-;-;-;-;-;-;-;-;-;-;-;-
1513511518395;-;-;8.780029;-0.14585876;-2.7155457;-;-;-;-;-;-;-;-;-;-;-;-;-;-;-
1513511518416;-;-;8.819534;-0.22486877;-2.7658234;-;-;-;-;-;-;-;-;-;-;-;-;-;-;-
1513511518437;-;-;8.892548;-0.26556396;-2.7753906;-;-;-;-;-;-;-;-;-;-;-;-;-;-;-
1513511518457;-;-;8.918884;-0.29309082;-2.8065186;-;-;-;-;-;-;-;-;-;-;-;-;-;-;-
1513511518478;-;-;8.997894;-0.28710938;-2.8484192;-;-;-;-;-;-;-;-;-;-;-;-;-;-;-
1513511518498;-;-;8.933258;-0.22605896;-2.8232727;-;-;-;-;-;-;-;-;-;-;-;-;-;-;-
1513511518518;-;-;8.830307;-0.2787323;-2.7981415;-;-;-;-;-;-;-;-;-;-;-;-;-;-;-
1513511518539;-;-;8.812347;-0.23085022;-2.7167358;-;-;-;-;-;-;-;-;-;-;-;-;-;-;-
1513511518560;-;-;8.808762;-0.19732666;-2.728714;-;-;-;-;-;-;-;-;-;-;-;-;-;-;-
1513511518580;-;-;8.780029;-0.1590271;-2.788559;-;-;-;-;-;-;-;-;-;-;-;-;-;-;-
1513511518601;-;-;8.844666;-0.20930481;-2.8113098;-;-;-;-;-;-;-;-;-;-;-;-;-;-;-
1513511518621;-;-;8.879379;-0.24520874;-2.7059631;-;-;-;-;-;-;-;-;-;-;-;-;-;-;-
1513511518641;-;-;8.897339;-0.27633667;-2.642517;-;-;-;-;-;-;-;-;-;-;-;-;-;-;-
1513511518662;-;-;8.809952;-0.25239563;-2.709549;-;-;-;-;-;-;-;-;-;-;-;-;-;-;-
1513511518682;-;-;8.817139;-0.1590271;-2.7753906;-;-;-;-;-;-;-;-;-;-;-;-;-;-;-
1513511518703;-;-;8.869812;-0.1590271;-2.8496094;-;-;-;-;-;-;-;-;-;-;-;-;-;-;-
1513511518722;-;-;8.940445;-0.22845459;-2.9130554;-;-;-;-;-;-;-;-;-;-;-;-;-;-;-
1513511518743;-;-;8.917694;-0.2212677;-2.8627777;-;-;-;-;-;-;-;-;-;-;-;-;-;-;-
1513511518763;-;-;8.897339;-0.22007751;-2.8113098;-;-;-;-;-;-;-;-;-;-;-;-;-;-;-
1513511518784;-;-;8.898544;-0.27394104;-2.788559;-;-;-;-;-;-;-;-;-;-;-;-;-;-;-
1513511518804;-;-;8.862625;-0.27275085;-2.7957458;-;-;-;-;-;-;-;-;-;-;-;-;-;-;-
1513511518824;-;-;8.844666;-0.25479126;-2.7119446;-;-;-;-;-;-;-;-;-;-;-;-;-;-;-
1513511518845;-;-;8.893753;-0.289505;-2.7059631;-;-;-;-;-;-;-;-;-;-;-;-;-;-;-
1513511518866;-;-;8.854248;-0.24401855;-2.79216;-;-;-;-;-;-;-;-;-;-;-;-;-;-;-
1513511518886;-;-;8.84227;-0.25239563;-2.855606;-;-;-;-;-;-;-;-;-;-;-;-;-;-;-
1513511518906;-;-;8.959595;-0.23324585;-2.79216;-;-;-;-;-;-;-;-;-;-;-;-;-;-;-
1513511518927;-;-;8.911713;-0.25598145;-2.7705994;-;-;-;-;-;-;-;-;-;-;-;-;-;-;-
1513511518946;-;-;8.8602295;-0.21647644;-2.8053284;-;-;-;-;-;-;-;-;-;-;-;-;-;-;-
1513511518966;-;-;8.84108;-0.21647644;-2.7909546;-;-;-;-;-;-;-;-;-;-;-;-;-;-;-
1513511518987;-;-;8.855438;-0.23564148;-2.7789917;-;-;-;-;-;-;-;-;-;-;-;-;-;-;-
1513511519007;-;-;8.8997345;-0.25360107;-2.8448334;-;-;-;-;-;-;-;-;-;-;-;-;-;-;-
1513511519028;-;-;8.894943;-0.23683167;-2.828064;-;-;-;-;-;-;-;-;-;-;-;-;-;-;-
1513511519048;-;-;8.880585;-0.28231812;-2.7478638;-;-;-;-;-;-;-;-;-;-;-;-;-;-;-
1513511519069;-;-;8.863831;-0.2679596;-2.7670135;-;-;-;-;-;-;-;-;-;-;-;-;-;-;-
1513511519089;-;-;8.84227;-0.26556396;-2.8184967;-;-;-;-;-;-;-;-;-;-;-;-;-;-;-
1513511519110;-;-;8.832703;-0.24880981;-2.7538452;-;-;-;-;-;-;-;-;-;-;-;-;-;-;-
1513511519130;-;-;8.854248;-0.25;-2.7897644;-;-;-;-;-;-;-;-;-;-;-;-;-;-;-
1513511519151;-;-;8.880585;-0.25360107;-2.79216;-;-;-;-;-;-;-;-;-;-;-;-;-;-;-
1513511519171;-;-;8.808762;-0.25239563;-2.7670135;-;-;-;-;-;-;-;-;-;-;-;-;-;-;-
1513511519192;-;-;8.817139;-0.23564148;-2.7993317;-;-;-;-;-;-;-;-;-;-;-;-;-;-;-
1513511519212;-;-;8.885376;-0.26675415;-2.843628;-;-;-;-;-;-;-;-;-;-;-;-;-;-;-
1513511519232;-;-;8.92009;-0.2272644;-2.8484192;-;-;-;-;-;-;-;-;-;-;-;-;-;-;-
1513511519253;-;-;8.92128;-0.24281311;-2.7861633;-;-;-;-;-;-;-;-;-;-;-;-;-;-;-
1513511519273;-;-;8.868607;-0.27035522;-2.7203217;-;-;-;-;-;-;-;-;-;-;-;-;-;-;-
1513511519294;-;-;8.813553;-0.26197815;-2.6664581;-;-;-;-;-;-;-;-;-;-;-;-;-;-;-
1513511519314;-;-;8.813553;-0.23443604;-2.7275085;-;-;-;-;-;-;-;-;-;-;-;-;-;-;-
1513511519335;-;-;8.847061;-0.21289063;-2.800537;-;-;-;-;-;-;-;-;-;-;-;-;-;-;-
1513511519354;-;-;8.941635;-0.24162292;-2.8376465;-;-;-;-;-;-;-;-;-;-;-;-;-;-;-
1513511519374;-;-;8.922485;-0.23324585;-2.7945404;-;-;-;-;-;-;-;-;-;-;-;-;-;-;-
1513511519395;-;-;8.878189;-0.2320404;-2.7275085;-;-;-;-;-;-;-;-;-;-;-;-;-;-;-
1513511519416;-;-;8.851852;-0.2966919;-2.697586;-;-;-;-;-;-;-;-;-;-;-;-;-;-;-
1513511519436;-;-;8.832703;-0.25958252;-2.7514496;-;-;-;-;-;-;-;-;-;-;-;-;-;-;-
1513511519457;-;-;8.812347;-0.23803711;-2.831665;-;-;-;-;-;-;-;-;-;-;-;-;-;-;-
1513511519477;-;-;8.928467;-0.22486877;-2.8304596;-;-;-;-;-;-;-;-;-;-;-;-;-;-;-
1513511519498;-;-;8.90094;-0.27394104;-2.7083588;-;-;-;-;-;-;-;-;-;-;-;-;-;-;-
1513511519517;-;-;8.8997345;-0.28471375;-2.7071533;-;-;-;-;-;-;-;-;-;-;-;-;-;-;-
1513511519538;-;-;8.848267;-0.26914978;-2.7059631;-;-;-;-;-;-;-;-;-;-;-;-;-;-;-
1513511519558;-;-;8.8602295;-0.29309082;-2.73349;-;-;-;-;-;-;-;-;-;-;-;-;-;-;-
1513511519579;-;-;8.927277;-0.2859192;-2.7239227;-;-;-;-;-;-;-;-;-;-;-;-;-;-;-
1513511519600;-;-;8.942825;-0.2799225;-2.7622223;-;-;-;-;-;-;-;-;-;-;-;-;-;-;-
1513511519620;-;-;8.892548;-0.28112793;-2.7071533;-;-;-;-;-;-;-;-;-;-;-;-;-;-;-
1513511519641;-;-;8.84108;-0.26197815;-2.7777863;-;-;-;-;-;-;-;-;-;-;-;-;-;-;-
1513511519662;-;-;8.857834;-0.24880981;-2.7622223;-;-;-;-;-;-;-;-;-;-;-;-;-;-;-
1513511519682;-;-;8.914108;-0.24760437;-2.8220825;-;-;-;-;-;-;-;-;-;-;-;-;-;-;-
1513511519702;-;-;8.952408;-0.29548645;-2.7430725;-;-;-;-;-;-;-;-;-;-;-;-;-;-;-
1513511519723;-;-;8.897339;-0.25;-2.776596;-;-;-;-;-;-;-;-;-;-;-;-;-;-;-
1513511519743;-;-;8.824326;-0.27514648;-2.7275085;-;-;-;-;-;-;-;-;-;-;-;-;-;-;-
1513511519763;-;-;8.818329;-0.3074646;-2.725113;-;-;-;-;-;-;-;-;-;-;-;-;-;-;-
1513511519784;-;-;8.869812;-0.31704712;-2.7322998;-;-;-;-;-;-;-;-;-;-;-;-;-;-;-
1513511519805;-;-;8.867416;-0.31344604;-2.776596;-;-;-;-;-;-;-;-;-;-;-;-;-;-;-
1513511519826;-;-;8.908112;-0.24520874;-2.7502594;-;-;-;-;-;-;-;-;-;-;-;-;-;-;-
1513511519845;-;-;8.915298;-0.25958252;-2.6628723;-;-;-;-;-;-;-;-;-;-;-;-;-;-;-
1513511519865;-;-;8.969162;-0.33140564;-2.5994263;-;-;-;-;-;-;-;-;-;-;-;-;-;-;-
1513511519886;-;-;8.922485;-0.35295105;-2.6616669;-;-;-;-;-;-;-;-;-;-;-;-;-;-;-
1513511519906;-;-;8.782425;-0.31344604;-2.7658234;-;-;-;-;-;-;-;-;-;-;-;-;-;-;-
1513511519927;-;-;8.790802;-0.20809937;-2.8448334;-;-;-;-;-;-;-;-;-;-;-;-;-;-;-
1513511519947;-;-;8.861435;-0.17338562;-2.8448334;-;-;-;-;-;-;-;-;-;-;-;-;-;-;-
1513511519968;-;-;8.922485;-0.12789917;-2.8939056;-;-;-;-;-;-;-;-;-;-;-;-;-;-;-
1513511519988;-;-;8.970367;-0.18415833;-2.8184967;-;-;-;-;-;-;-;-;-;-;-;-;-;-;-
1513511520008;-;-;8.918884;-0.1015625;-2.772995;-;-;-;-;-;-;-;-;-;-;-;-;-;-;-
1513511520029;-;-;8.775238;-0.08720398;-2.831665;-;-;-;-;-;-;-;-;-;-;-;-;-;-;-
1513511520049;-;-;8.80397;-0.16381836;-2.8029327;-;-;-;-;-;-;-;-;-;-;-;-;-;-;-
1513511520069;-;-;8.878189;-0.23085022;-2.7694092;-;-;-;-;-;-;-;-;-;-;-;-;-;-;-
1513511520090;-;-;8.904526;-0.32063293;-2.649704;-;-;-;-;-;-;-;-;-;-;-;-;-;-;-
1513511520111;-;-;8.918884;-0.36253357;-2.6712494;-;-;-;-;-;-;-;-;-;-;-;-;-;-;-
1513511520131;-;-;8.909317;-0.3649292;-2.697586;-;-;-;-;-;-;-;-;-;-;-;-;-;-;-
1513511520152;-;-;8.884171;-0.35055542;-2.737091;-;-;-;-;-;-;-;-;-;-;-;-;-;-;-
1513511520172;-;-;8.880585;-0.3469696;-2.6916046;-;-;-;-;-;-;-;-;-;-;-;-;-;-;-
1513511520193;-;-;8.894943;-0.39964294;-2.6951904;-;-;-;-;-;-;-;-;-;-;-;-;-;-;-
1513511520213;-;-;8.92128;-0.32661438;-2.6963806;-;-;-;-;-;-;-;-;-;-;-;-;-;-;-
1513511520233;-;-;8.90094;-0.2775421;-2.7418823;-;-;-;-;-;-;-;-;-;-;-;-;-;-;-
1513511520254;-;-;8.830307;-0.2799225;-2.7586365;-;-;-;-;-;-;-;-;-;-;-;-;-;-;-
1513511520274;-;-;8.844666;-0.21887207;-2.728714;-;-;-;-;-;-;-;-;-;-;-;-;-;-;-
1513511520295;-;-;8.859039;-0.20690918;-2.7466583;-;-;-;-;-;-;-;-;-;-;-;-;-;-;-
1513511520315;-;-;8.938049;-0.19493103;-2.7753906;-;-;-;-;-;-;-;-;-;-;-;-;-;-;-
1513511520336;-;-;8.938049;-0.22845459;-2.7502594;-;-;-;-;-;-;-;-;-;-;-;-;-;-;-
1513511520355;-;-;8.905716;-0.23443604;-2.670044;-;-;-;-;-;-;-;-;-;-;-;-;-;-;-
1513511520376;-;-;8.837494;-0.22486877;-2.6987762;-;-;-;-;-;-;-;-;-;-;-;-;-;-;-
1513511520396;-;-;8.838684;-0.30387878;-2.7275085;-;-;-;-;-;-;-;-;-;-;-;-;-;-;-
1513511520416;-;-;8.874603;-0.35534668;-2.764618;-;-;-;-;-;-;-;-;-;-;-;-;-;-;-
