TimeStamp[ms];Prox[Cm];Lux[lux];AccX[m/s^2];AccY[m/s^2];AccZ[m/s^2];GyroX[rad/s];GyroY[rad/s];GyroZ[rad/s];MagnX[uT];MagnY[uT];MagnZ[uT];OrienYaw[degrees];OrienPitch[degrees];OrienRoll[degrees];Press[Pa];Temp[C°];Batt[%];Lat;Lng;Speed[m/s]
1513509897945;-;-;9.003891;-0.44273376;-0.8600311;-;-;-;-;-;-;-;-;-;-;-;-;-;-;-
1513509897949;-;-;9.003891;-0.44273376;-0.8600311;-;-;-;-;-;-;-;-;-;-;-;-;-;-;-
1513509897968;-;-;9.118805;-0.7024994;-1.2634583;-;-;-;-;-;-;-;-;-;-;-;-;-;-;-
1513509897988;-;-;9.220566;-0.68574524;-1.3915405;-;-;-;-;-;-;-;-;-;-;-;-;-;-;-
1513509898008;-;-;9.063736;-0.6522217;-1.3484497;-;-;-;-;-;-;-;-;-;-;-;-;-;-;-
1513509898029;-;-;9.076904;-0.3936615;-1.2682495;-;-;-;-;-;-;-;-;-;-;-;-;-;-;-
1513509898048;-;-;9.14035;-0.40083313;-1.3113403;-;-;-;-;-;-;-;-;-;-;-;-;-;-;-
1513509898068;-;-;9.213379;-0.36013794;-1.3819733;-;-;-;-;-;-;-;-;-;-;-;-;-;-;-
1513509898088;-;-;9.148727;-0.47027588;-1.3173218;-;-;-;-;-;-;-;-;-;-;-;-;-;-;-
1513509898109;-;-;9.128387;-0.66778564;-1.2634583;-;-;-;-;-;-;-;-;-;-;-;-;-;-;-
1513509898129;-;-;9.096069;-0.66778564;-1.0671387;-;-;-;-;-;-;-;-;-;-;-;-;-;-;-
1513509898150;-;-;9.187042;-0.15782166;-1.9230652;-;-;-;-;-;-;-;-;-;-;-;-;-;-;-
1513509898171;-;-;9.066132;-0.13148499;-1.2454987;-;-;-;-;-;-;-;-;-;-;-;-;-;-;-
1513509898202;-;-;9.102051;-0.463089;-0.8791809;-;-;-;-;-;-;-;-;-;-;-;-;-;-;-
1513509898211;-;-;9.222961;-0.5792084;-1.100647;-;-;-;-;-;-;-;-;-;-;-;-;-;-;-
1513509898232;-;-;9.200211;-0.5708313;-1.7578583;-;-;-;-;-;-;-;-;-;-;-;-;-;-;-
1513509898252;-;-;8.926071;-0.41879272;-1.2059937;-;-;-;-;-;-;-;-;-;-;-;-;-;-;-
1513509898272;-;-;8.996704;-0.37330627;-1.0084686;-;-;-;-;-;-;-;-;-;-;-;-;-;-;-
1513509898293;-;-;9.031418;-0.2715454;-1.164093;-;-;-;-;-;-;-;-;-;-;-;-;-;-;-
1513509898312;-;-;8.936844;-0.117126465;-1.3855591;-;-;-;-;-;-;-;-;-;-;-;-;-;-;-
1513509898333;-;-;8.677078;-0.2966919;-1.1844482;-;-;-;-;-;-;-;-;-;-;-;-;-;-;-
1513509898353;-;-;9.455185;-0.28831482;-1.3304901;-;-;-;-;-;-;-;-;-;-;-;-;-;-;-
1513509898373;-;-;8.876999;-0.06324768;-0.9354553;-;-;-;-;-;-;-;-;-;-;-;-;-;-;-
1513509898394;-;-;9.918472;-0.13388062;-1.8943329;-;-;-;-;-;-;-;-;-;-;-;-;-;-;-
1513509898414;-;-;10.011841;0.009765625;-0.9450226;-;-;-;-;-;-;-;-;-;-;-;-;-;-;-
1513509898434;-;-;9.215775;0.6849365;-0.946228;-;-;-;-;-;-;-;-;-;-;-;-;-;-;-
1513509898455;-;-;9.147537;0.3461609;-0.9474182;-;-;-;-;-;-;-;-;-;-;-;-;-;-;-
1513509898475;-;-;8.009094;0.73760986;-1.064743;-;-;-;-;-;-;-;-;-;-;-;-;-;-;-
1513509898495;-;-;8.317947;0.35572815;-1.3556366;-;-;-;-;-;-;-;-;-;-;-;-;-;-;-
1513509898516;-;-;8.453217;0.33299255;-1.8404541;-;-;-;-;-;-;-;-;-;-;-;-;-;-;-
1513509898536;-;-;8.507095;0.714859;-2.0463562;-;-;-;-;-;-;-;-;-;-;-;-;-;-;-
1513509898556;-;-;9.15831;0.8848419;-1.7123718;-;-;-;-;-;-;-;-;-;-;-;-;-;-;-
1513509898576;-;-;9.29718;1.7958374;-1.5184326;-;-;-;-;-;-;-;-;-;-;-;-;-;-;-
1513509898596;-;-;8.1766815;1.5348816;-0.13937378;-;-;-;-;-;-;-;-;-;-;-;-;-;-;-
1513509898616;-;-;9.920868;1.0584259;-0.6792755;-;-;-;-;-;-;-;-;-;-;-;-;-;-;-
1513509898636;-;-;11.020996;0.7005005;-1.3688049;-;-;-;-;-;-;-;-;-;-;-;-;-;-;-
1513509898656;-;-;10.095642;0.66218567;-1.5052643;-;-;-;-;-;-;-;-;-;-;-;-;-;-;-
1513509898676;-;-;9.046982;0.9087982;-1.2227478;-;-;-;-;-;-;-;-;-;-;-;-;-;-;-
1513509898696;-;-;8.374207;1.7551422;-1.1616974;-;-;-;-;-;-;-;-;-;-;-;-;-;-;-
1513509898716;-;-;9.425262;1.4486847;-1.0719147;-;-;-;-;-;-;-;-;-;-;-;-;-;-;-
1513509898736;-;-;9.558136;1.7000732;-1.2407074;-;-;-;-;-;-;-;-;-;-;-;-;-;-;-
1513509898756;-;-;8.503494;1.1805267;-2.4725342;-;-;-;-;-;-;-;-;-;-;-;-;-;-;-
1513509898777;-;-;8.434067;0.8525238;-1.219162;-;-;-;-;-;-;-;-;-;-;-;-;-;-;-
1513509898797;-;-;7.738556;2.0532227;-0.6840515;-;-;-;-;-;-;-;-;-;-;-;-;-;-;-
1513509898817;-;-;9.230133;1.1745453;-0.016082764;-;-;-;-;-;-;-;-;-;-;-;-;-;-;-
1513509898837;-;-;9.616806;1.2822876;-0.38957214;-;-;-;-;-;-;-;-;-;-;-;-;-;-;-
1513509898858;-;-;7.8091736;1.4654388;-0.66729736;-;-;-;-;-;-;-;-;-;-;-;-;-;-;-
1513509898877;-;-;7.9516296;2.1789093;0.08088684;-;-;-;-;-;-;-;-;-;-;-;-;-;-;-
1513509898897;-;-;9.975937;1.0895538;-0.68167114;-;-;-;-;-;-;-;-;-;-;-;-;-;-;-
1513509898918;-;-;10.064514;0.03251648;-1.7997589;-;-;-;-;-;-;-;-;-;-;-;-;-;-;-
1513509898937;-;-;8.66391;-1.1035309;-1.3185272;-;-;-;-;-;-;-;-;-;-;-;-;-;-;-
1513509898957;-;-;10.081268;-0.24760437;-1.9721375;-;-;-;-;-;-;-;-;-;-;-;-;-;-;-
1513509898978;-;-;11.302322;0.730423;-2.4150696;-;-;-;-;-;-;-;-;-;-;-;-;-;-;-
1513509898998;-;-;11.015015;1.6521912;-3.097412;-;-;-;-;-;-;-;-;-;-;-;-;-;-;-
1513509899018;-;-;9.565323;2.239975;-3.7713776;-;-;-;-;-;-;-;-;-;-;-;-;-;-;-
1513509899038;-;-;9.419281;1.461853;-4.7877197;-;-;-;-;-;-;-;-;-;-;-;-;-;-;-
1513509899059;-;-;9.688629;0.73521423;-4.2214966;-;-;-;-;-;-;-;-;-;-;-;-;-;-;-
1513509899079;-;-;9.134369;-0.63905334;-3.3583832;-;-;-;-;-;-;-;-;-;-;-;-;-;-;-
1513509899100;-;-;6.4396973;-0.9682617;-2.8639832;-;-;-;-;-;-;-;-;-;-;-;-;-;-;-
1513509899120;-;-;8.814743;-2.4490814;-4.250229;-;-;-;-;-;-;-;-;-;-;-;-;-;-;-
1513509899140;-;-;9.659897;-1.2064819;-4.028763;-;-;-;-;-;-;-;-;-;-;-;-;-;-;-
1513509899160;-;-;8.879379;-0.13748169;-3.9246063;-;-;-;-;-;-;-;-;-;-;-;-;-;-;-
1513509899181;-;-;9.410904;0.6382446;-4.3160553;-;-;-;-;-;-;-;-;-;-;-;-;-;-;-
1513509899201;-;-;9.8203125;2.825348;-7.0825653;-;-;-;-;-;-;-;-;-;-;-;-;-;-;-
1513509899221;-;-;10.983887;0.576004;-0.080718994;-;-;-;-;-;-;-;-;-;-;-;-;-;-;-
1513509899243;-;-;5.8674774;0.7651367;-2.0331879;-;-;-;-;-;-;-;-;-;-;-;-;-;-;-
1513509899262;-;-;6.795227;-4.2878265;-4.234665;-;-;-;-;-;-;-;-;-;-;-;-;-;-;-
1513509899282;-;-;8.7213745;-1.9546814;-1.2778168;-;-;-;-;-;-;-;-;-;-;-;-;-;-;-
1513509899303;-;-;6.8945923;-0.13388062;-1.4992828;-;-;-;-;-;-;-;-;-;-;-;-;-;-;-
1513509899323;-;-;6.446884;-0.54927063;-1.9637604;-;-;-;-;-;-;-;-;-;-;-;-;-;-;-
1513509899343;-;-;6.323578;-0.11352539;-2.452179;-;-;-;-;-;-;-;-;-;-;-;-;-;-;-
1513509899363;-;-;8.632782;-0.3254242;-1.0922699;-;-;-;-;-;-;-;-;-;-;-;-;-;-;-
1513509899384;-;-;10.319504;-0.050079346;-0.2674713;-;-;-;-;-;-;-;-;-;-;-;-;-;-;-
1513509899404;-;-;10.4535675;0.45030212;-0.63856506;-;-;-;-;-;-;-;-;-;-;-;-;-;-;-
1513509899424;-;-;9.453995;0.24559021;-1.7482758;-;-;-;-;-;-;-;-;-;-;-;-;-;-;-
1513509899445;-;-;8.418503;-0.20930481;-3.111786;-;-;-;-;-;-;-;-;-;-;-;-;-;-;-
1513509899465;-;-;8.752487;-0.8772888;-3.4625244;-;-;-;-;-;-;-;-;-;-;-;-;-;-;-
1513509899485;-;-;8.855438;-0.46907043;-1.5842743;-;-;-;-;-;-;-;-;-;-;-;-;-;-;-
1513509899506;-;-;8.141968;-0.29429626;-1.5579376;-;-;-;-;-;-;-;-;-;-;-;-;-;-;-
1513509899526;-;-;8.001907;-0.7527771;-2.3564148;-;-;-;-;-;-;-;-;-;-;-;-;-;-;-
1513509899546;-;-;8.50589;-1.333374;-2.0894623;-;-;-;-;-;-;-;-;-;-;-;-;-;-;-
1513509899566;-;-;9.920868;-1.1382446;-1.0755157;-;-;-;-;-;-;-;-;-;-;-;-;-;-;-
1513509899587;-;-;10.916855;-0.43077087;-0.6840515;-;-;-;-;-;-;-;-;-;-;-;-;-;-;-
1513509899607;-;-;10.683411;-0.19013977;-1.0910797;-;-;-;-;-;-;-;-;-;-;-;-;-;-;-
1513509899628;-;-;9.030228;-0.6905365;-2.4306335;-;-;-;-;-;-;-;-;-;-;-;-;-;-;-
1513509899648;-;-;8.789597;-1.3752747;-3.4433746;-;-;-;-;-;-;-;-;-;-;-;-;-;-;-
1513509899668;-;-;10.615189;-2.0540314;-3.4912567;-;-;-;-;-;-;-;-;-;-;-;-;-;-;-
1513509899688;-;-;10.703766;-1.6769409;-4.2765656;-;-;-;-;-;-;-;-;-;-;-;-;-;-;-
1513509899708;-;-;10.203384;-0.31105042;-4.3567657;-;-;-;-;-;-;-;-;-;-;-;-;-;-;-
1513509899729;-;-;8.940445;0.6526184;-4.226288;-;-;-;-;-;-;-;-;-;-;-;-;-;-;-
1513509899748;-;-;7.85347;1.145813;-4.6452637;-;-;-;-;-;-;-;-;-;-;-;-;-;-;-
1513509899768;-;-;7.423706;1.7814789;-4.5578766;-;-;-;-;-;-;-;-;-;-;-;-;-;-;-
1513509899788;-;-;7.367447;2.4997406;-3.3919067;-;-;-;-;-;-;-;-;-;-;-;-;-;-;-
1513509899809;-;-;7.5039215;2.7367706;-2.4258423;-;-;-;-;-;-;-;-;-;-;-;-;-;-;-
1513509899829;-;-;9.149933;1.6976776;-2.4390106;-;-;-;-;-;-;-;-;-;-;-;-;-;-;-
1513509899850;-;-;11.697357;-0.7803192;-1.6477203;-;-;-;-;-;-;-;-;-;-;-;-;-;-;-
1513509899870;-;-;12.889679;-3.0320587;-2.4509735;-;-;-;-;-;-;-;-;-;-;-;-;-;-;-
1513509899889;-;-;11.497452;-3.4857635;-2.6161804;-;-;-;-;-;-;-;-;-;-;-;-;-;-;-
1513509899909;-;-;8.481949;-2.6549835;-1.471756;-;-;-;-;-;-;-;-;-;-;-;-;-;-;-
1513509899929;-;-;5.735794;-0.5792084;0.17425537;-;-;-;-;-;-;-;-;-;-;-;-;-;-;-
1513509899950;-;-;4.099365;0.98062134;0.686615;-;-;-;-;-;-;-;-;-;-;-;-;-;-;-
1513509899970;-;-;3.5163727;1.616272;0.33946228;-;-;-;-;-;-;-;-;-;-;-;-;-;-;-
1513509899990;-;-;3.9617004;1.2667236;-0.31295776;-;-;-;-;-;-;-;-;-;-;-;-;-;-;-
1513509900011;-;-;4.842758;0.122299194;-0.46020508;-;-;-;-;-;-;-;-;-;-;-;-;-;-;-
1513509900031;-;-;5.410187;-0.87368774;0.034194946;-;-;-;-;-;-;-;-;-;-;-;-;-;-;-
1513509900051;-;-;5.3658905;-1.2759247;0.5202179;-;-;-;-;-;-;-;-;-;-;-;-;-;-;-
1513509900071;-;-;5.449692;-1.2172546;1.0720825;-;-;-;-;-;-;-;-;-;-;-;-;-;-;-
1513509900091;-;-;7.10289;-0.21887207;1.3079224;-;-;-;-;-;-;-;-;-;-;-;-;-;-;-
1513509900112;-;-;7.487152;1.4283295;-0.35365295;-;-;-;-;-;-;-;-;-;-;-;-;-;-;-
1513509900132;-;-;7.4045563;2.9390717;-3.6277313;-;-;-;-;-;-;-;-;-;-;-;-;-;-;-
1513509900152;-;-;8.510681;2.861267;-3.9078522;-;-;-;-;-;-;-;-;-;-;-;-;-;-;-
1513509900173;-;-;11.064102;0.872879;-2.0164337;-;-;-;-;-;-;-;-;-;-;-;-;-;-;-
1513509900193;-;-;12.110367;-0.047698975;-1.6046295;-;-;-;-;-;-;-;-;-;-;-;-;-;-;-
1513509900213;-;-;9.732925;0.16539001;-5.156433;-;-;-;-;-;-;-;-;-;-;-;-;-;-;-
1513509900233;-;-;6.908966;-0.5384979;-7.6643524;-;-;-;-;-;-;-;-;-;-;-;-;-;-;-
1513509900253;-;-;7.4991302;-1.743988;-8.215027;-;-;-;-;-;-;-;-;-;-;-;-;-;-;-
1513509900273;-;-;11.815872;-2.8237762;-4.931366;-;-;-;-;-;-;-;-;-;-;-;-;-;-;-
1513509900294;-;-;16.818558;-1.324997;-1.1748657;-;-;-;-;-;-;-;-;-;-;-;-;-;-;-
1513509900314;-;-;17.21959;1.2272186;-0.7606659;-;-;-;-;-;-;-;-;-;-;-;-;-;-;-
1513509900334;-;-;16.27507;-0.23085022;-4.9972076;-;-;-;-;-;-;-;-;-;-;-;-;-;-;-
1513509900355;-;-;17.692444;-4.455414;-3.764206;-;-;-;-;-;-;-;-;-;-;-;-;-;-;-
1513509900375;-;-;18.973343;-6.1996;0.19102478;-;-;-;-;-;-;-;-;-;-;-;-;-;-;-
1513509900395;-;-;11.937973;-4.487732;-0.37879944;-;-;-;-;-;-;-;-;-;-;-;-;-;-;-
1513509900415;-;-;7.700241;-2.0983276;-1.2466888;-;-;-;-;-;-;-;-;-;-;-;-;-;-;-
1513509900436;-;-;3.7043152;-0.22605896;-1.6968079;-;-;-;-;-;-;-;-;-;-;-;-;-;-;-
1513509900455;-;-;0.77381897;1.0021667;-1.258667;-;-;-;-;-;-;-;-;-;-;-;-;-;-;-
1513509900475;-;-;-0.81832886;1.7012787;0.89611816;-;-;-;-;-;-;-;-;-;-;-;-;-;-;-
1513509900495;-;-;1.031189;0.76394653;1.1091919;-;-;-;-;-;-;-;-;-;-;-;-;-;-;-
1513509900516;-;-;4.371109;-0.4846344;-1.1545258;-;-;-;-;-;-;-;-;-;-;-;-;-;-;-
1513509900536;-;-;7.8319244;-0.7623596;-2.9489746;-;-;-;-;-;-;-;-;-;-;-;-;-;-;-
1513509900556;-;-;9.506668;-0.63067627;-2.646103;-;-;-;-;-;-;-;-;-;-;-;-;-;-;-
1513509900577;-;-;8.501099;-0.21289063;-1.3424683;-;-;-;-;-;-;-;-;-;-;-;-;-;-;-
1513509900596;-;-;8.116837;-0.14704895;-0.6002655;-;-;-;-;-;-;-;-;-;-;-;-;-;-;-
1513509900617;-;-;8.985931;-1.4075928;0.71894836;-;-;-;-;-;-;-;-;-;-;-;-;-;-;-
1513509900637;-;-;11.1371155;-3.4893646;1.2061615;-;-;-;-;-;-;-;-;-;-;-;-;-;-;-
1513509900657;-;-;8.691437;-4.4338684;-1.9888916;-;-;-;-;-;-;-;-;-;-;-;-;-;-;-
1513509900677;-;-;6.098526;-3.8891907;-3.1967773;-;-;-;-;-;-;-;-;-;-;-;-;-;-;-
1513509900698;-;-;5.604126;-1.6518097;-3.9629211;-;-;-;-;-;-;-;-;-;-;-;-;-;-;-
1513509900717;-;-;5.5167236;0.08039856;-5.932144;-;-;-;-;-;-;-;-;-;-;-;-;-;-;-
1513509900737;-;-;8.260483;1.9059753;-5.7705383;-;-;-;-;-;-;-;-;-;-;-;-;-;-;-
1513509900757;-;-;11.917633;4.422287;-2.7538452;-;-;-;-;-;-;-;-;-;-;-;-;-;-;-
1513509900778;-;-;13.063248;6.05513;-3.5056305;-;-;-;-;-;-;-;-;-;-;-;-;-;-;-
1513509900798;-;-;17.479355;5.047165;-4.8296204;-;-;-;-;-;-;-;-;-;-;-;-;-;-;-
1513509900818;-;-;25.092926;1.5779724;-1.7961731;-;-;-;-;-;-;-;-;-;-;-;-;-;-;-
1513509900839;-;-;24.869064;-4.8217316;-4.8763123;-;-;-;-;-;-;-;-;-;-;-;-;-;-;-
1513509900859;-;-;11.25444;-1.7487793;-2.0152283;-;-;-;-;-;-;-;-;-;-;-;-;-;-;-
1513509900879;-;-;4.2430115;1.5348816;-1.9182739;-;-;-;-;-;-;-;-;-;-;-;-;-;-;-
1513509900900;-;-;0.90190125;3.1952515;-1.0000916;-;-;-;-;-;-;-;-;-;-;-;-;-;-;-
1513509900920;-;-;-0.4771576;4.023651;0.091659546;-;-;-;-;-;-;-;-;-;-;-;-;-;-;-
1513509900940;-;-;2.0595093;2.1705322;1.5006561;-;-;-;-;-;-;-;-;-;-;-;-;-;-;-
1513509900961;-;-;4.426178;-0.24281311;1.3270721;-;-;-;-;-;-;-;-;-;-;-;-;-;-;-
1513509900981;-;-;5.529892;-1.6158905;0.35502625;-;-;-;-;-;-;-;-;-;-;-;-;-;-;-
1513509901002;-;-;5.8124084;-1.922348;-1.0024872;-;-;-;-;-;-;-;-;-;-;-;-;-;-;-
1513509901022;-;-;6.209854;-1.0305176;-1.1413574;-;-;-;-;-;-;-;-;-;-;-;-;-;-;-
1513509901041;-;-;6.233795;0.17616272;-1.0946655;-;-;-;-;-;-;-;-;-;-;-;-;-;-;-
1513509901061;-;-;5.7226257;1.0799713;-0.92108154;-;-;-;-;-;-;-;-;-;-;-;-;-;-;-
1513509901081;-;-;4.88826;2.0053406;-1.8643951;-;-;-;-;-;-;-;-;-;-;-;-;-;-;-
1513509901102;-;-;7.001129;2.9666138;-1.3304901;-;-;-;-;-;-;-;-;-;-;-;-;-;-;-
1513509901122;-;-;9.422867;3.7004242;-1.5735016;-;-;-;-;-;-;-;-;-;-;-;-;-;-;-
1513509901142;-;-;9.706589;4.154129;-2.3827515;-;-;-;-;-;-;-;-;-;-;-;-;-;-;-
1513509901163;-;-;7.988739;2.260315;-3.9629211;-;-;-;-;-;-;-;-;-;-;-;-;-;-;-
1513509901183;-;-;5.770523;0.26115417;-6.813217;-;-;-;-;-;-;-;-;-;-;-;-;-;-;-
1513509901203;-;-;6.1080933;-2.9482727;-6.7796936;-;-;-;-;-;-;-;-;-;-;-;-;-;-;-
1513509901224;-;-;7.9863434;-3.6210327;-6.281708;-;-;-;-;-;-;-;-;-;-;-;-;-;-;-
1513509901244;-;-;10.373367;-3.7144165;-6.7353973;-;-;-;-;-;-;-;-;-;-;-;-;-;-;-
1513509901264;-;-;21.265793;-2.7411652;-2.029602;-;-;-;-;-;-;-;-;-;-;-;-;-;-;-
1513509901285;-;-;31.483047;-3.321762;-0.5727234;-;-;-;-;-;-;-;-;-;-;-;-;-;-;-
1513509901306;-;-;27.12201;-3.1697388;-5.0750275;-;-;-;-;-;-;-;-;-;-;-;-;-;-;-
1513509901326;-;-;20.78096;-1.5297089;-1.3819733;-;-;-;-;-;-;-;-;-;-;-;-;-;-;-
1513509901346;-;-;11.784744;-1.5392761;-0.16810608;-;-;-;-;-;-;-;-;-;-;-;-;-;-;-
1513509901366;-;-;4.9433136;-1.5189362;0.089263916;-;-;-;-;-;-;-;-;-;-;-;-;-;-;-
1513509901387;-;-;1.5758667;-0.8270111;-1.5687103;-;-;-;-;-;-;-;-;-;-;-;-;-;-;-
1513509901407;-;-;-0.30238342;-0.1697998;-1.8332825;-;-;-;-;-;-;-;-;-;-;-;-;-;-;-
1513509901427;-;-;-0.7129822;1.006958;-2.0511475;-;-;-;-;-;-;-;-;-;-;-;-;-;-;-
1513509901447;-;-;1.3376465;1.3014374;-1.7961731;-;-;-;-;-;-;-;-;-;-;-;-;-;-;-
1513509901467;-;-;2.030777;0.013366699;-2.8544006;-;-;-;-;-;-;-;-;-;-;-;-;-;-;-
1513509901488;-;-;2.375534;-0.6725769;-3.199173;-;-;-;-;-;-;-;-;-;-;-;-;-;-;-
1513509901508;-;-;3.2182922;-1.5536499;-1.4789276;-;-;-;-;-;-;-;-;-;-;-;-;-;-;-
1513509901528;-;-;6.276886;-2.1186829;0.58966064;-;-;-;-;-;-;-;-;-;-;-;-;-;-;-
1513509901548;-;-;10.0298;-1.4183655;1.4503784;-;-;-;-;-;-;-;-;-;-;-;-;-;-;-
1513509901569;-;-;10.421249;-1.194519;0.5381775;-;-;-;-;-;-;-;-;-;-;-;-;-;-;-
1513509901589;-;-;9.839462;-3.6856842;-0.22436523;-;-;-;-;-;-;-;-;-;-;-;-;-;-;-
1513509901608;-;-;8.952408;-5.226349;-3.3320465;-;-;-;-;-;-;-;-;-;-;-;-;-;-;-
1513509901628;-;-;7.4967346;-4.605057;-4.978058;-;-;-;-;-;-;-;-;-;-;-;-;-;-;-
1513509901648;-;-;7.9432526;-0.31704712;-6.286484;-;-;-;-;-;-;-;-;-;-;-;-;-;-;-
1513509901669;-;-;10.106415;3.5555878;-3.9078522;-;-;-;-;-;-;-;-;-;-;-;-;-;-;-
1513509901688;-;-;11.393295;5.366791;-2.9884796;-;-;-;-;-;-;-;-;-;-;-;-;-;-;-
1513509901708;-;-;13.557663;4.4689636;-3.7115326;-;-;-;-;-;-;-;-;-;-;-;-;-;-;-
1513509901728;-;-;20.262619;3.4298859;0.1874237;-;-;-;-;-;-;-;-;-;-;-;-;-;-;-
1513509901748;-;-;27.406921;0.6945038;-0.5332184;-;-;-;-;-;-;-;-;-;-;-;-;-;-;-
1513509901768;-;-;23.263748;-2.1342316;-3.8156738;-;-;-;-;-;-;-;-;-;-;-;-;-;-;-
1513509901789;-;-;11.455551;-0.8593292;-1.1114197;-;-;-;-;-;-;-;-;-;-;-;-;-;-;-
1513509901809;-;-;4.735016;1.2140503;-1.990097;-;-;-;-;-;-;-;-;-;-;-;-;-;-;-
1513509901830;-;-;1.5962219;2.2806702;-0.60505676;-;-;-;-;-;-;-;-;-;-;-;-;-;-;-
1513509901851;-;-;0.04118347;2.572754;0.7943573;-;-;-;-;-;-;-;-;-;-;-;-;-;-;-
1513509901871;-;-;2.1564636;1.7096558;0.25926208;-;-;-;-;-;-;-;-;-;-;-;-;-;-;-
1513509901891;-;-;4.106552;0.49938965;-0.41111755;-;-;-;-;-;-;-;-;-;-;-;-;-;-;-
1513509901910;-;-;4.699112;-0.75398254;-0.29260254;-;-;-;-;-;-;-;-;-;-;-;-;-;-;-
1513509901930;-;-;5.8076324;-1.7140503;0.08807373;-;-;-;-;-;-;-;-;-;-;-;-;-;-;-
1513509901951;-;-;5.9201508;-1.6733551;-0.29499817;-;-;-;-;-;-;-;-;-;-;-;-;-;-;-
1513509901971;-;-;5.265335;-1.0041809;-0.8169403;-;-;-;-;-;-;-;-;-;-;-;-;-;-;-
1513509901991;-;-;4.067047;0.68133545;-2.8663788;-;-;-;-;-;-;-;-;-;-;-;-;-;-;-
1513509902012;-;-;4.150833;2.521286;-2.6353302;-;-;-;-;-;-;-;-;-;-;-;-;-;-;-
1513509902032;-;-;5.820801;3.5160828;-1.3508453;-;-;-;-;-;-;-;-;-;-;-;-;-;-;-
1513509902052;-;-;7.739746;3.628601;-2.0894623;-;-;-;-;-;-;-;-;-;-;-;-;-;-;-
1513509902073;-;-;6.522293;3.0911102;-4.6237183;-;-;-;-;-;-;-;-;-;-;-;-;-;-;-
1513509902093;-;-;5.2222443;0.8956299;-8.710617;-;-;-;-;-;-;-;-;-;-;-;-;-;-;-
1513509902113;-;-;8.259293;-1.2196503;-7.729004;-;-;-;-;-;-;-;-;-;-;-;-;-;-;-
1513509902133;-;-;13.198532;-2.8321533;-6.3044434;-;-;-;-;-;-;-;-;-;-;-;-;-;-;-
1513509902154;-;-;19.813705;-0.5612488;-5.477249;-;-;-;-;-;-;-;-;-;-;-;-;-;-;-
1513509902173;-;-;23.778503;-0.0021972656;-2.6484985;-;-;-;-;-;-;-;-;-;-;-;-;-;-;-
1513509902193;-;-;23.52951;-4.9115143;-5.65802;-;-;-;-;-;-;-;-;-;-;-;-;-;-;-
1513509902213;-;-;25.801605;-5.839264;-2.780182;-;-;-;-;-;-;-;-;-;-;-;-;-;-;-
1513509902234;-;-;18.291;-3.2834625;-1.6201935;-;-;-;-;-;-;-;-;-;-;-;-;-;-;-
1513509902254;-;-;6.9077606;-0.2966919;-1.0599518;-;-;-;-;-;-;-;-;-;-;-;-;-;-;-
1513509902275;-;-;1.3951111;1.4642487;-0.8241272;-;-;-;-;-;-;-;-;-;-;-;-;-;-;-
1513509902295;-;-;-0.0473938;1.2703094;-1.0683289;-;-;-;-;-;-;-;-;-;-;-;-;-;-;-
1513509902315;-;-;-0.017471313;0.045684814;-1.9410095;-;-;-;-;-;-;-;-;-;-;-;-;-;-;-
1513509902335;-;-;3.4241943;-2.1557922;-2.5443573;-;-;-;-;-;-;-;-;-;-;-;-;-;-;-
1513509902356;-;-;5.8519135;-1.8912201;-2.9753113;-;-;-;-;-;-;-;-;-;-;-;-;-;-;-
1513509902376;-;-;4.5746155;-0.42477417;-3.089035;-;-;-;-;-;-;-;-;-;-;-;-;-;-;-
1513509902396;-;-;1.4513702;0.50177;-2.5503387;-;-;-;-;-;-;-;-;-;-;-;-;-;-;-
1513509902417;-;-;0.32369995;-0.09916687;-1.8129272;-;-;-;-;-;-;-;-;-;-;-;-;-;-;-
1513509902436;-;-;3.0112;-1.953476;-0.029251099;-;-;-;-;-;-;-;-;-;-;-;-;-;-;-
1513509902456;-;-;6.651581;-2.3592987;0.38015747;-;-;-;-;-;-;-;-;-;-;-;-;-;-;-
1513509902477;-;-;9.653915;-0.93473816;0.9451904;-;-;-;-;-;-;-;-;-;-;-;-;-;-;-
1513509902496;-;-;10.2512665;-1.9762268;0.8925171;-;-;-;-;-;-;-;-;-;-;-;-;-;-;-
1513509902517;-;-;7.621231;-5.7578583;-3.1548767;-;-;-;-;-;-;-;-;-;-;-;-;-;-;-
1513509902537;-;-;6.7796783;-5.3269043;-5.877075;-;-;-;-;-;-;-;-;-;-;-;-;-;-;-
1513509902557;-;-;6.7641144;1.1721497;-6.96286;-;-;-;-;-;-;-;-;-;-;-;-;-;-;-
1513509902577;-;-;10.302734;6.0048523;-2.187622;-;-;-;-;-;-;-;-;-;-;-;-;-;-;-
1513509902598;-;-;16.087128;6.9697113;-2.488083;-;-;-;-;-;-;-;-;-;-;-;-;-;-;-
1513509902618;-;-;20.729492;5.016037;-7.1076965;-;-;-;-;-;-;-;-;-;-;-;-;-;-;-
1513509902638;-;-;31.382492;2.749939;-5.7825165;-;-;-;-;-;-;-;-;-;-;-;-;-;-;-
1513509902659;-;-;28.74527;-1.3142242;-7.0191193;-;-;-;-;-;-;-;-;-;-;-;-;-;-;-
1513509902679;-;-;15.0815735;-1.1430359;-1.9877014;-;-;-;-;-;-;-;-;-;-;-;-;-;-;-
1513509902699;-;-;7.5075073;-0.6438446;-0.73313904;-;-;-;-;-;-;-;-;-;-;-;-;-;-;-
1513509902719;-;-;2.7442474;0.23721313;-1.2634583;-;-;-;-;-;-;-;-;-;-;-;-;-;-;-
1513509902740;-;-;1.0096436;1.2188416;-1.8656006;-;-;-;-;-;-;-;-;-;-;-;-;-;-;-
1513509902760;-;-;1.3101196;1.022522;-1.2634583;-;-;-;-;-;-;-;-;-;-;-;-;-;-;-
1513509902780;-;-;1.2359009;0.45030212;-1.1964111;-;-;-;-;-;-;-;-;-;-;-;-;-;-;-
1513509902800;-;-;3.066269;0.05885315;-1.0814972;-;-;-;-;-;-;-;-;-;-;-;-;-;-;-
1513509902821;-;-;5.2545624;-0.5253296;-0.9055176;-;-;-;-;-;-;-;-;-;-;-;-;-;-;-
1513509902841;-;-;5.774109;-0.7372284;-0.827713;-;-;-;-;-;-;-;-;-;-;-;-;-;-;-
1513509902861;-;-;5.097748;-0.13748169;-0.6409607;-;-;-;-;-;-;-;-;-;-;-;-;-;-;-
1513509902881;-;-;4.067047;0.48860168;-1.0144653;-;-;-;-;-;-;-;-;-;-;-;-;-;-;-
1513509902901;-;-;4.090988;0.33776855;-0.9522095;-;-;-;-;-;-;-;-;-;-;-;-;-;-;-
1513509902922;-;-;6.4241333;-0.23443604;0.13116455;-;-;-;-;-;-;-;-;-;-;-;-;-;-;-
1513509902941;-;-;8.443649;0.5281067;-1.2323303;-;-;-;-;-;-;-;-;-;-;-;-;-;-;-
1513509902961;-;-;8.618423;2.4590302;-3.5104065;-;-;-;-;-;-;-;-;-;-;-;-;-;-;-
1513509902981;-;-;8.046204;3.4969177;-4.938553;-;-;-;-;-;-;-;-;-;-;-;-;-;-;-
1513509903001;-;-;6.3858185;2.7571106;-5.646042;-;-;-;-;-;-;-;-;-;-;-;-;-;-;-
1513509903022;-;-;5.727417;0.44432068;-6.353531;-;-;-;-;-;-;-;-;-;-;-;-;-;-;-
1513509903041;-;-;8.009094;-1.9714355;-6.8742676;-;-;-;-;-;-;-;-;-;-;-;-;-;-;-
1513509903061;-;-;11.756027;-3.6868744;-5.6675873;-;-;-;-;-;-;-;-;-;-;-;-;-;-;-
1513509903082;-;-;18.038406;-3.1900787;-2.9298248;-;-;-;-;-;-;-;-;-;-;-;-;-;-;-
1513509903102;-;-;27.705002;-2.5065308;-3.2302856;-;-;-;-;-;-;-;-;-;-;-;-;-;-;-
1513509903122;-;-;29.664642;-4.455414;-6.6516113;-;-;-;-;-;-;-;-;-;-;-;-;-;-;-
1513509903142;-;-;19.843628;-1.799057;-2.429428;-;-;-;-;-;-;-;-;-;-;-;-;-;-;-
1513509903163;-;-;11.954742;-1.1957092;-0.9905243;-;-;-;-;-;-;-;-;-;-;-;-;-;-;-
1513509903182;-;-;7.145981;-0.72525024;-0.95339966;-;-;-;-;-;-;-;-;-;-;-;-;-;-;-
1513509903202;-;-;4.3651123;-0.5827942;-1.7363129;-;-;-;-;-;-;-;-;-;-;-;-;-;-;-
1513509903222;-;-;2.9824677;-0.86172485;-1.7411041;-;-;-;-;-;-;-;-;-;-;-;-;-;-;-
1513509903243;-;-;3.1309052;-0.7228546;-1.5519562;-;-;-;-;-;-;-;-;-;-;-;-;-;-;-
1513509903264;-;-;4.075424;-0.6713867;-0.026855469;-;-;-;-;-;-;-;-;-;-;-;-;-;-;-
1513509903283;-;-;4.5446777;-0.7480011;-2.3312683;-;-;-;-;-;-;-;-;-;-;-;-;-;-;-
1513509903303;-;-;3.8228302;-1.2316284;-2.9166565;-;-;-;-;-;-;-;-;-;-;-;-;-;-;-
1513509903324;-;-;1.8500061;-1.2974701;-2.1888123;-;-;-;-;-;-;-;-;-;-;-;-;-;-;-
1513509903343;-;-;-0.12161255;-1.3788757;-2.2618408;-;-;-;-;-;-;-;-;-;-;-;-;-;-;-
1513509903363;-;-;-0.8219147;-1.1179047;-1.6872253;-;-;-;-;-;-;-;-;-;-;-;-;-;-;-
1513509903384;-;-;2.1289368;-0.0069885254;-0.8384857;-;-;-;-;-;-;-;-;-;-;-;-;-;-;-
1513509903404;-;-;5.5155334;-0.02255249;0.3023529;-;-;-;-;-;-;-;-;-;-;-;-;-;-;-
1513509903423;-;-;8.7213745;-0.8964386;0.75605774;-;-;-;-;-;-;-;-;-;-;-;-;-;-;-
1513509903443;-;-;12.6909485;-3.1697388;0.01625061;-;-;-;-;-;-;-;-;-;-;-;-;-;-;-
1513509903463;-;-;13.733627;-4.1465607;-1.5304108;-;-;-;-;-;-;-;-;-;-;-;-;-;-;-
1513509903484;-;-;11.332245;-3.5923004;-2.7059631;-;-;-;-;-;-;-;-;-;-;-;-;-;-;-
1513509903505;-;-;8.1719055;-2.2371826;-2.9573517;-;-;-;-;-;-;-;-;-;-;-;-;-;-;-
1513509903525;-;-;4.3363953;-1.4183655;-6.7198486;-;-;-;-;-;-;-;-;-;-;-;-;-;-;-
1513509903545;-;-;7.3315277;0.94470215;-4.472885;-;-;-;-;-;-;-;-;-;-;-;-;-;-;-
1513509903566;-;-;9.603638;4.1756744;0.5944519;-;-;-;-;-;-;-;-;-;-;-;-;-;-;-
1513509903586;-;-;16.145782;5.782196;-3.528366;-;-;-;-;-;-;-;-;-;-;-;-;-;-;-
1513509903606;-;-;26.067368;4.447418;-8.551407;-;-;-;-;-;-;-;-;-;-;-;-;-;-;-
1513509903626;-;-;34.10948;0.5077667;-8.250931;-;-;-;-;-;-;-;-;-;-;-;-;-;-;-
1513509903646;-;-;20.053131;-2.7866516;-2.3480225;-;-;-;-;-;-;-;-;-;-;-;-;-;-;-
1513509903667;-;-;7.415329;-3.0272827;-0.81933594;-;-;-;-;-;-;-;-;-;-;-;-;-;-;-
1513509903687;-;-;1.7482605;-2.0432587;-1.1497345;-;-;-;-;-;-;-;-;-;-;-;-;-;-;-
1513509903707;-;-;-0.83029175;-0.48223877;-0.037628174;-;-;-;-;-;-;-;-;-;-;-;-;-;-;-
1513509903728;-;-;0.17407227;1.0955353;-0.3620453;-;-;-;-;-;-;-;-;-;-;-;-;-;-;-
1513509903748;-;-;2.0726776;0.3712921;-1.6082153;-;-;-;-;-;-;-;-;-;-;-;-;-;-;-
1513509903768;-;-;3.4828491;-0.6043396;-0.8935547;-;-;-;-;-;-;-;-;-;-;-;-;-;-;-
1513509903788;-;-;6.0326843;-1.186142;0.03300476;-;-;-;-;-;-;-;-;-;-;-;-;-;-;-
1513509903809;-;-;7.296814;-1.1777496;0.56811523;-;-;-;-;-;-;-;-;-;-;-;-;-;-;-
1513509903829;-;-;7.6032715;0.22164917;-0.7774353;-;-;-;-;-;-;-;-;-;-;-;-;-;-;-
1513509903849;-;-;6.1056976;2.505722;-2.8544006;-;-;-;-;-;-;-;-;-;-;-;-;-;-;-
1513509903870;-;-;5.0307007;4.3349;-3.6684265;-;-;-;-;-;-;-;-;-;-;-;-;-;-;-
1513509903890;-;-;5.0223236;3.4981232;-2.4198608;-;-;-;-;-;-;-;-;-;-;-;-;-;-;-
1513509903910;-;-;8.679474;0.37010193;-1.7171631;-;-;-;-;-;-;-;-;-;-;-;-;-;-;-
1513509903930;-;-;9.876572;1.303833;-3.9641113;-;-;-;-;-;-;-;-;-;-;-;-;-;-;-
1513509903951;-;-;8.699814;1.0536346;-7.9456787;-;-;-;-;-;-;-;-;-;-;-;-;-;-;-
1513509903971;-;-;6.6695404;-0.957489;-8.856659;-;-;-;-;-;-;-;-;-;-;-;-;-;-;-
1513509903991;-;-;7.3662567;-4.309372;-4.077835;-;-;-;-;-;-;-;-;-;-;-;-;-;-;-
1513509904012;-;-;12.336609;-5.9278564;-6.80484;-;-;-;-;-;-;-;-;-;-;-;-;-;-;-
1513509904032;-;-;20.752228;-7.6073914;-8.825546;-;-;-;-;-;-;-;-;-;-;-;-;-;-;-
1513509904053;-;-;33.461853;-6.3480377;-4.902649;-;-;-;-;-;-;-;-;-;-;-;-;-;-;-
1513509904073;-;-;22.986023;0.59754944;-2.6269531;-;-;-;-;-;-;-;-;-;-;-;-;-;-;-
1513509904093;-;-;11.851791;0.3461609;-2.7107544;-;-;-;-;-;-;-;-;-;-;-;-;-;-;-
1513509904113;-;-;7.063385;-2.230011;-1.1892395;-;-;-;-;-;-;-;-;-;-;-;-;-;-;-
1513509904134;-;-;3.5558777;-4.142975;0.35502625;-;-;-;-;-;-;-;-;-;-;-;-;-;-;-
1513509904154;-;-;1.0838623;-4.899536;-0.078323364;-;-;-;-;-;-;-;-;-;-;-;-;-;-;-
1513509904174;-;-;1.5243988;-4.115448;-1.9697418;-;-;-;-;-;-;-;-;-;-;-;-;-;-;-
1513509904195;-;-;4.6332703;-2.0791779;-2.8460236;-;-;-;-;-;-;-;-;-;-;-;-;-;-;-
1513509904216;-;-;6.1128845;0.8525238;-2.673645;-;-;-;-;-;-;-;-;-;-;-;-;-;-;-
1513509904236;-;-;6.4253235;1.0189209;-1.9769287;-;-;-;-;-;-;-;-;-;-;-;-;-;-;-
1513509904256;-;-;5.2832947;0.012161255;-2.444992;-;-;-;-;-;-;-;-;-;-;-;-;-;-;-
1513509904277;-;-;4.355545;-1.6087189;-2.1169891;-;-;-;-;-;-;-;-;-;-;-;-;-;-;-
1513509904297;-;-;6.229004;-2.4742126;-2.132553;-;-;-;-;-;-;-;-;-;-;-;-;-;-;-
1513509904318;-;-;8.538208;-2.4430847;-1.9613647;-;-;-;-;-;-;-;-;-;-;-;-;-;-;-
1513509904338;-;-;10.539764;-1.961853;0.09764099;-;-;-;-;-;-;-;-;-;-;-;-;-;-;-
1513509904358;-;-;11.817078;-2.5915375;1.8142853;-;-;-;-;-;-;-;-;-;-;-;-;-;-;-
1513509904378;-;-;12.329437;-3.4749908;1.1654663;-;-;-;-;-;-;-;-;-;-;-;-;-;-;-
1513509904399;-;-;12.6754;-4.6206207;0.31671143;-;-;-;-;-;-;-;-;-;-;-;-;-;-;-
1513509904419;-;-;13.112335;-4.75589;-0.98812866;-;-;-;-;-;-;-;-;-;-;-;-;-;-;-
1513509904440;-;-;12.870514;-3.3504944;-2.9106598;-;-;-;-;-;-;-;-;-;-;-;-;-;-;-
1513509904460;-;-;10.670242;-2.6657562;-6.2972717;-;-;-;-;-;-;-;-;-;-;-;-;-;-;-
1513509904480;-;-;8.996704;-1.7942657;-7.3674774;-;-;-;-;-;-;-;-;-;-;-;-;-;-;-
1513509904500;-;-;7.541031;0.378479;-6.7389984;-;-;-;-;-;-;-;-;-;-;-;-;-;-;-
1513509904520;-;-;6.3738556;2.7619019;-3.614563;-;-;-;-;-;-;-;-;-;-;-;-;-;-;-
1513509904541;-;-;7.9983215;1.7850647;-2.728714;-;-;-;-;-;-;-;-;-;-;-;-;-;-;-
1513509904560;-;-;10.906082;-0.1769867;-2.8125;-;-;-;-;-;-;-;-;-;-;-;-;-;-;-
1513509904580;-;-;14.824188;-3.8987732;-4.123337;-;-;-;-;-;-;-;-;-;-;-;-;-;-;-
1513509904601;-;-;14.541672;-4.448242;-4.3328247;-;-;-;-;-;-;-;-;-;-;-;-;-;-;-
1513509904621;-;-;10.734894;-3.0440369;-3.863556;-;-;-;-;-;-;-;-;-;-;-;-;-;-;-
1513509904641;-;-;7.4967346;-1.7368011;-3.0220032;-;-;-;-;-;-;-;-;-;-;-;-;-;-;-
1513509904662;-;-;5.248581;-0.5049896;-3.0782623;-;-;-;-;-;-;-;-;-;-;-;-;-;-;-
1513509904682;-;-;2.9525452;0.5460663;-3.7210999;-;-;-;-;-;-;-;-;-;-;-;-;-;-;-
1513509904702;-;-;2.4341888;1.2200317;-4.416626;-;-;-;-;-;-;-;-;-;-;-;-;-;-;-
1513509904722;-;-;3.457718;1.3684845;-4.172409;-;-;-;-;-;-;-;-;-;-;-;-;-;-;-
1513509904743;-;-;6.11409;1.1470184;-3.6001892;-;-;-;-;-;-;-;-;-;-;-;-;-;-;-
1513509904763;-;-;9.583282;1.169754;-3.7594147;-;-;-;-;-;-;-;-;-;-;-;-;-;-;-
1513509904783;-;-;11.258026;1.8161926;-4.9337616;-;-;-;-;-;-;-;-;-;-;-;-;-;-;-
1513509904804;-;-;10.722916;2.4279175;-3.997635;-;-;-;-;-;-;-;-;-;-;-;-;-;-;-
1513509904824;-;-;9.337875;1.9933624;-2.883133;-;-;-;-;-;-;-;-;-;-;-;-;-;-;-
1513509904845;-;-;8.546585;1.0285034;-2.7742004;-;-;-;-;-;-;-;-;-;-;-;-;-;-;-
1513509904864;-;-;7.6870728;1.0691986;-3.5391388;-;-;-;-;-;-;-;-;-;-;-;-;-;-;-
1513509904884;-;-;7.3387146;2.0137177;-3.5882263;-;-;-;-;-;-;-;-;-;-;-;-;-;-;-
1513509904905;-;-;6.912552;2.746338;-3.6732178;-;-;-;-;-;-;-;-;-;-;-;-;-;-;-
1513509904924;-;-;8.040222;2.69487;-2.8699646;-;-;-;-;-;-;-;-;-;-;-;-;-;-;-
1513509904944;-;-;7.7696686;1.4367065;-3.6804047;-;-;-;-;-;-;-;-;-;-;-;-;-;-;-
1513509904964;-;-;7.3818207;-0.2392273;-4.6560364;-;-;-;-;-;-;-;-;-;-;-;-;-;-;-
1513509904985;-;-;9.294785;-2.981781;-4.3831024;-;-;-;-;-;-;-;-;-;-;-;-;-;-;-
1513509905005;-;-;11.697357;-5.8488464;-1.5926514;-;-;-;-;-;-;-;-;-;-;-;-;-;-;-
1513509905025;-;-;11.169434;-5.178467;-4.049103;-;-;-;-;-;-;-;-;-;-;-;-;-;-;-
1513509905046;-;-;11.790741;-3.3409119;-5.373108;-;-;-;-;-;-;-;-;-;-;-;-;-;-;-
1513509905066;-;-;12.395279;-0.2859192;-4.864334;-;-;-;-;-;-;-;-;-;-;-;-;-;-;-
1513509905086;-;-;11.984665;2.897171;-4.9481354;-;-;-;-;-;-;-;-;-;-;-;-;-;-;-
1513509905107;-;-;9.683838;2.2806702;-3.8863068;-;-;-;-;-;-;-;-;-;-;-;-;-;-;-
1513509905127;-;-;9.014664;-0.095581055;-2.8747559;-;-;-;-;-;-;-;-;-;-;-;-;-;-;-
1513509905147;-;-;7.825943;-2.320984;-1.9541779;-;-;-;-;-;-;-;-;-;-;-;-;-;-;-
1513509905167;-;-;6.6384125;-3.170929;-1.5280151;-;-;-;-;-;-;-;-;-;-;-;-;-;-;-
1513509905187;-;-;5.200699;-3.029663;-1.7578583;-;-;-;-;-;-;-;-;-;-;-;-;-;-;-
1513509905208;-;-;4.2501984;-2.1102905;-1.753067;-;-;-;-;-;-;-;-;-;-;-;-;-;-;-
1513509905228;-;-;4.33519;-0.7922821;-2.1744537;-;-;-;-;-;-;-;-;-;-;-;-;-;-;-
1513509905248;-;-;4.818817;0.43354797;-2.819687;-;-;-;-;-;-;-;-;-;-;-;-;-;-;-
1513509905269;-;-;6.1715393;1.1410217;-3.2446594;-;-;-;-;-;-;-;-;-;-;-;-;-;-;-
1513509905288;-;-;9.583282;1.5097351;-2.594635;-;-;-;-;-;-;-;-;-;-;-;-;-;-;-
1513509905308;-;-;11.715317;2.2902527;-1.8488312;-;-;-;-;-;-;-;-;-;-;-;-;-;-;-
1513509905328;-;-;12.718491;1.3960114;-0.5799103;-;-;-;-;-;-;-;-;-;-;-;-;-;-;-
1513509905348;-;-;11.656662;-0.86172485;-0.34169006;-;-;-;-;-;-;-;-;-;-;-;-;-;-;-
1513509905369;-;-;9.629974;-3.179306;-0.5858917;-;-;-;-;-;-;-;-;-;-;-;-;-;-;-
1513509905389;-;-;8.2712555;-4.602661;-2.776596;-;-;-;-;-;-;-;-;-;-;-;-;-;-;-
1513509905409;-;-;7.399765;-6.380356;-8.667526;-;-;-;-;-;-;-;-;-;-;-;-;-;-;-
1513509905430;-;-;9.681442;-5.739914;-9.511475;-;-;-;-;-;-;-;-;-;-;-;-;-;-;-
1513509905450;-;-;12.327042;-1.0951538;-4.43338;-;-;-;-;-;-;-;-;-;-;-;-;-;-;-
1513509905470;-;-;11.969101;3.2383423;-3.8216553;-;-;-;-;-;-;-;-;-;-;-;-;-;-;-
1513509905490;-;-;9.764038;3.0743408;-7.501541;-;-;-;-;-;-;-;-;-;-;-;-;-;-;-
1513509905511;-;-;12.957916;-0.9957886;-7.283676;-;-;-;-;-;-;-;-;-;-;-;-;-;-;-
1513509905531;-;-;14.692505;-3.625824;-3.6408997;-;-;-;-;-;-;-;-;-;-;-;-;-;-;-
1513509905551;-;-;12.026566;-1.5787811;-2.1409302;-;-;-;-;-;-;-;-;-;-;-;-;-;-;-
1513509905571;-;-;7.557785;0.2743225;-1.7470856;-;-;-;-;-;-;-;-;-;-;-;-;-;-;-
1513509905591;-;-;4.6177063;0.9650574;-1.2000122;-;-;-;-;-;-;-;-;-;-;-;-;-;-;-
1513509905612;-;-;0.80015564;0.809433;-1.0324097;-;-;-;-;-;-;-;-;-;-;-;-;-;-;-
1513509905633;-;-;-1.3869476;0.4084015;-0.9354553;-;-;-;-;-;-;-;-;-;-;-;-;-;-;-
1513509905653;-;-;-0.07852173;-0.5456848;-0.35125732;-;-;-;-;-;-;-;-;-;-;-;-;-;-;-
1513509905673;-;-;2.2953339;-0.32901;0.16468811;-;-;-;-;-;-;-;-;-;-;-;-;-;-;-
1513509905693;-;-;5.0211334;0.44311523;0.6171875;-;-;-;-;-;-;-;-;-;-;-;-;-;-;-
1513509905713;-;-;7.138809;0.95188904;-0.41351318;-;-;-;-;-;-;-;-;-;-;-;-;-;-;-
1513509905733;-;-;8.01268;1.0871582;-1.7123718;-;-;-;-;-;-;-;-;-;-;-;-;-;-;-
1513509905753;-;-;8.753693;-0.33140564;-2.0307922;-;-;-;-;-;-;-;-;-;-;-;-;-;-;-
1513509905773;-;-;9.647919;-1.2651367;-1.1545258;-;-;-;-;-;-;-;-;-;-;-;-;-;-;-
1513509905793;-;-;9.650314;0.06124878;-0.89953613;-;-;-;-;-;-;-;-;-;-;-;-;-;-;-
1513509905813;-;-;9.301956;1.5252991;-2.1385345;-;-;-;-;-;-;-;-;-;-;-;-;-;-;-
1513509905833;-;-;9.026627;0.7735138;-2.2761993;-;-;-;-;-;-;-;-;-;-;-;-;-;-;-
1513509905853;-;-;8.337097;1.398407;-3.3547974;-;-;-;-;-;-;-;-;-;-;-;-;-;-;-
1513509905874;-;-;9.815521;1.5635986;-4.417816;-;-;-;-;-;-;-;-;-;-;-;-;-;-;-
1513509905893;-;-;6.467224;1.422348;-7.7170258;-;-;-;-;-;-;-;-;-;-;-;-;-;-;-
1513509905913;-;-;2.9669037;-1.1873322;-11.0737;-;-;-;-;-;-;-;-;-;-;-;-;-;-;-
1513509905933;-;-;6.2433777;-4.527237;-9.126007;-;-;-;-;-;-;-;-;-;-;-;-;-;-;-
1513509905953;-;-;15.89679;-4.9522095;-3.2506409;-;-;-;-;-;-;-;-;-;-;-;-;-;-;-
1513509905974;-;-;20.223114;-1.8457336;-4.2406464;-;-;-;-;-;-;-;-;-;-;-;-;-;-;-
1513509905994;-;-;19.625763;-0.8856659;-5.8507385;-;-;-;-;-;-;-;-;-;-;-;-;-;-;-
1513509906014;-;-;18.319717;-3.404358;-1.9458008;-;-;-;-;-;-;-;-;-;-;-;-;-;-;-
1513509906034;-;-;15.319794;-4.4961243;-1.5998383;-;-;-;-;-;-;-;-;-;-;-;-;-;-;-
1513509906055;-;-;11.663849;-3.321762;-0.966568;-;-;-;-;-;-;-;-;-;-;-;-;-;-;-
1513509906074;-;-;8.593277;-1.9271393;-1.7506714;-;-;-;-;-;-;-;-;-;-;-;-;-;-;-
1513509906094;-;-;5.656784;-0.42237854;-2.7454681;-;-;-;-;-;-;-;-;-;-;-;-;-;-;-
1513509906114;-;-;3.0494995;0.43115234;-2.6760406;-;-;-;-;-;-;-;-;-;-;-;-;-;-;-
1513509906135;-;-;0.6972046;0.6933136;-2.247467;-;-;-;-;-;-;-;-;-;-;-;-;-;-;-
1513509906155;-;-;1.2311096;-0.3182373;-0.50090027;-;-;-;-;-;-;-;-;-;-;-;-;-;-;-
1513509906175;-;-;4.521942;-1.9762268;-0.20402527;-;-;-;-;-;-;-;-;-;-;-;-;-;-;-
1513509906196;-;-;6.4049835;-2.6621552;-1.5579376;-;-;-;-;-;-;-;-;-;-;-;-;-;-;-
1513509906216;-;-;6.3211823;-2.1713562;-2.3635864;-;-;-;-;-;-;-;-;-;-;-;-;-;-;-
1513509906236;-;-;6.999939;-1.3836517;-0.91989136;-;-;-;-;-;-;-;-;-;-;-;-;-;-;-
1513509906257;-;-;8.343079;-0.7671509;1.373764;-;-;-;-;-;-;-;-;-;-;-;-;-;-;-
1513509906277;-;-;10.020218;0.2815094;-0.17170715;-;-;-;-;-;-;-;-;-;-;-;-;-;-;-
1513509906297;-;-;8.624405;-0.19732666;-1.7231445;-;-;-;-;-;-;-;-;-;-;-;-;-;-;-
1513509906317;-;-;7.8211517;-1.1047363;-2.4090881;-;-;-;-;-;-;-;-;-;-;-;-;-;-;-
1513509906338;-;-;5.892624;-1.0640259;-2.06073;-;-;-;-;-;-;-;-;-;-;-;-;-;-;-
1513509906358;-;-;4.453705;-0.5636444;-5.140869;-;-;-;-;-;-;-;-;-;-;-;-;-;-;-
1513509906378;-;-;6.2158356;0.8561249;-6.654007;-;-;-;-;-;-;-;-;-;-;-;-;-;-;-
1513509906399;-;-;9.548569;2.998932;-5.0271454;-;-;-;-;-;-;-;-;-;-;-;-;-;-;-
1513509906420;-;-;11.62793;3.3544617;-1.7734222;-;-;-;-;-;-;-;-;-;-;-;-;-;-;-
1513509906440;-;-;16.887985;2.3608704;-1.3831635;-;-;-;-;-;-;-;-;-;-;-;-;-;-;-
1513509906460;-;-;26.601273;1.6761322;-5.2964935;-;-;-;-;-;-;-;-;-;-;-;-;-;-;-
1513509906481;-;-;29.900482;-1.6386414;-6.1356506;-;-;-;-;-;-;-;-;-;-;-;-;-;-;-
1513509906501;-;-;16.142197;-1.5332947;-2.2438812;-;-;-;-;-;-;-;-;-;-;-;-;-;-;-
1513509906521;-;-;8.331116;-0.7886963;-1.8237;-;-;-;-;-;-;-;-;-;-;-;-;-;-;-
1513509906542;-;-;2.501236;0.48143005;-1.3316956;-;-;-;-;-;-;-;-;-;-;-;-;-;-;-
1513509906562;-;-;-2.178238;1.789856;-0.26387024;-;-;-;-;-;-;-;-;-;-;-;-;-;-;-
1513509906583;-;-;-3.3262482;2.686493;0.34783936;-;-;-;-;-;-;-;-;-;-;-;-;-;-;-
1513509906602;-;-;-0.28082275;2.449463;-0.013687134;-;-;-;-;-;-;-;-;-;-;-;-;-;-;-
1513509906622;-;-;3.8539581;0.93273926;0.32389832;-;-;-;-;-;-;-;-;-;-;-;-;-;-;-
1513509906643;-;-;5.4808197;-0.33021545;0.38974;-;-;-;-;-;-;-;-;-;-;-;-;-;-;-
1513509906662;-;-;5.501175;-1.2795105;-0.01966858;-;-;-;-;-;-;-;-;-;-;-;-;-;-;-
1513509906682;-;-;5.5035553;-1.9714355;0.101242065;-;-;-;-;-;-;-;-;-;-;-;-;-;-;-
1513509906702;-;-;6.84671;-1.9091797;0.5920563;-;-;-;-;-;-;-;-;-;-;-;-;-;-;-
1513509906722;-;-;8.031845;-1.0029755;0.81829834;-;-;-;-;-;-;-;-;-;-;-;-;-;-;-
1513509906742;-;-;8.437653;0.59036255;-1.9613647;-;-;-;-;-;-;-;-;-;-;-;-;-;-;-
1513509906762;-;-;10.388931;3.323349;-4.833206;-;-;-;-;-;-;-;-;-;-;-;-;-;-;-
1513509906782;-;-;10.069305;3.6070557;-1.832077;-;-;-;-;-;-;-;-;-;-;-;-;-;-;-
1513509906802;-;-;7.8319244;2.2351837;-4.7194824;-;-;-;-;-;-;-;-;-;-;-;-;-;-;-
1513509906822;-;-;7.3854065;-0.878479;-8.187485;-;-;-;-;-;-;-;-;-;-;-;-;-;-;-
1513509906842;-;-;9.203796;-4.048401;-10.045395;-;-;-;-;-;-;-;-;-;-;-;-;-;-;-
1513509906862;-;-;14.169373;-4.855255;-2.0894623;-;-;-;-;-;-;-;-;-;-;-;-;-;-;-
1513509906882;-;-;18.496887;-2.7663116;0.009063721;-;-;-;-;-;-;-;-;-;-;-;-;-;-;-
1513509906902;-;-;20.308105;-2.3401337;-1.1066284;-;-;-;-;-;-;-;-;-;-;-;-;-;-;-
1513509906922;-;-;21.808075;-2.573578;-0.90193176;-;-;-;-;-;-;-;-;-;-;-;-;-;-;-
1513509906943;-;-;17.214798;-1.9678345;-2.8172913;-;-;-;-;-;-;-;-;-;-;-;-;-;-;-
1513509906963;-;-;12.69455;-0.8928528;-2.389923;-;-;-;-;-;-;-;-;-;-;-;-;-;-;-
1513509906984;-;-;9.072113;0.06602478;-3.112976;-;-;-;-;-;-;-;-;-;-;-;-;-;-;-
1513509907003;-;-;5.794464;0.14863586;-3.2506409;-;-;-;-;-;-;-;-;-;-;-;-;-;-;-
1513509907024;-;-;3.1309052;-0.8018646;-1.5124512;-;-;-;-;-;-;-;-;-;-;-;-;-;-;-
1513509907045;-;-;2.0894318;-1.6338501;0.115600586;-;-;-;-;-;-;-;-;-;-;-;-;-;-;-
1513509907065;-;-;2.7633972;-1.7583466;0.3777771;-;-;-;-;-;-;-;-;-;-;-;-;-;-;-
1513509907085;-;-;5.237808;-1.9403076;-0.8600311;-;-;-;-;-;-;-;-;-;-;-;-;-;-;-
1513509907106;-;-;5.501175;-1.7296143;-2.6281433;-;-;-;-;-;-;-;-;-;-;-;-;-;-;-
1513509907126;-;-;4.075424;-1.0185394;-2.8017273;-;-;-;-;-;-;-;-;-;-;-;-;-;-;-
1513509907146;-;-;3.150055;-0.17338562;-1.8248901;-;-;-;-;-;-;-;-;-;-;-;-;-;-;-
1513509907167;-;-;4.031128;0.6741638;-0.33570862;-;-;-;-;-;-;-;-;-;-;-;-;-;-;-
1513509907187;-;-;6.3223724;0.63705444;0.16827393;-;-;-;-;-;-;-;-;-;-;-;-;-;-;-
1513509907208;-;-;7.356674;-0.7192688;-0.19683838;-;-;-;-;-;-;-;-;-;-;-;-;-;-;-
1513509907227;-;-;8.050995;-3.2116241;0.24249268;-;-;-;-;-;-;-;-;-;-;-;-;-;-;-
1513509907247;-;-;7.724182;-3.917923;-0.83369446;-;-;-;-;-;-;-;-;-;-;-;-;-;-;-
1513509907268;-;-;7.5625763;-2.1306458;-3.4816895;-;-;-;-;-;-;-;-;-;-;-;-;-;-;-
1513509907288;-;-;9.723343;0.59036255;-8.491547;-;-;-;-;-;-;-;-;-;-;-;-;-;-;-
1513509907309;-;-;12.435974;3.0276642;-4.0203857;-;-;-;-;-;-;-;-;-;-;-;-;-;-;-
1513509907330;-;-;15.344925;2.9594269;-1.0862885;-;-;-;-;-;-;-;-;-;-;-;-;-;-;-
1513509907351;-;-;20.09024;2.8061981;-1.7518768;-;-;-;-;-;-;-;-;-;-;-;-;-;-;-
1513509907370;-;-;29.790344;5.7019806;-6.563019;-;-;-;-;-;-;-;-;-;-;-;-;-;-;-
1513509907390;-;-;25.035461;1.0943451;-6.7126617;-;-;-;-;-;-;-;-;-;-;-;-;-;-;-
1513509907410;-;-;11.738068;-2.0528412;-0.8360901;-;-;-;-;-;-;-;-;-;-;-;-;-;-;-
1513509907431;-;-;5.1994934;-2.5209045;-0.46618652;-;-;-;-;-;-;-;-;-;-;-;-;-;-;-
1513509907451;-;-;0.6576996;-1.1358643;-0.61582947;-;-;-;-;-;-;-;-;-;-;-;-;-;-;-
1513509907471;-;-;-1.3510437;0.7471771;-0.46499634;-;-;-;-;-;-;-;-;-;-;-;-;-;-;-
1513509907492;-;-;-0.7584686;1.9730072;0.6447296;-;-;-;-;-;-;-;-;-;-;-;-;-;-;-
1513509907512;-;-;0.9677429;1.7264099;0.39453125;-;-;-;-;-;-;-;-;-;-;-;-;-;-;-
1513509907532;-;-;2.9704895;1.461853;0.44480896;-;-;-;-;-;-;-;-;-;-;-;-;-;-;-
1513509907553;-;-;4.293289;1.0093536;0.19221497;-;-;-;-;-;-;-;-;-;-;-;-;-;-;-
1513509907573;-;-;5.759735;0.34376526;-0.5918884;-;-;-;-;-;-;-;-;-;-;-;-;-;-;-
1513509907593;-;-;7.7912292;0.2013092;-1.3855591;-;-;-;-;-;-;-;-;-;-;-;-;-;-;-
1513509907614;-;-;10.665466;0.43354797;-2.0499573;-;-;-;-;-;-;-;-;-;-;-;-;-;-;-
1513509907635;-;-;12.731659;0.76034546;-2.017624;-;-;-;-;-;-;-;-;-;-;-;-;-;-;-
1513509907655;-;-;12.743622;1.0847626;-2.0463562;-;-;-;-;-;-;-;-;-;-;-;-;-;-;-
1513509907675;-;-;9.911285;2.9582214;-2.836441;-;-;-;-;-;-;-;-;-;-;-;-;-;-;-
1513509907696;-;-;5.71904;4.358841;-3.135727;-;-;-;-;-;-;-;-;-;-;-;-;-;-;-
1513509907716;-;-;3.7893066;3.244339;-5.607727;-;-;-;-;-;-;-;-;-;-;-;-;-;-;-
1513509907736;-;-;5.217453;0.5077667;-6.5139465;-;-;-;-;-;-;-;-;-;-;-;-;-;-;-
1513509907756;-;-;6.9951477;-2.605896;-6.5426636;-;-;-;-;-;-;-;-;-;-;-;-;-;-;-
1513509907777;-;-;10.827072;-4.479355;-4.1903687;-;-;-;-;-;-;-;-;-;-;-;-;-;-;-
1513509907797;-;-;14.846939;-5.775818;-2.9597473;-;-;-;-;-;-;-;-;-;-;-;-;-;-;-
1513509907818;-;-;20.687592;-4.767868;-0.79299927;-;-;-;-;-;-;-;-;-;-;-;-;-;-;-
1513509907838;-;-;25.300018;-3.6437836;-0.511673;-;-;-;-;-;-;-;-;-;-;-;-;-;-;-
1513509907858;-;-;19.077484;-1.5297089;-2.2606354;-;-;-;-;-;-;-;-;-;-;-;-;-;-;-
1513509907878;-;-;13.872498;-1.234024;0.37417603;-;-;-;-;-;-;-;-;-;-;-;-;-;-;-
1513509907898;-;-;10.041779;-1.2819061;-0.5858917;-;-;-;-;-;-;-;-;-;-;-;-;-;-;-
1513509907919;-;-;7.9205017;-1.9127808;-1.5818787;-;-;-;-;-;-;-;-;-;-;-;-;-;-;-
1513509907939;-;-;6.075775;-1.9438934;-1.3005676;-;-;-;-;-;-;-;-;-;-;-;-;-;-;-
1513509907959;-;-;4.3208313;-1.2424011;-1.808136;-;-;-;-;-;-;-;-;-;-;-;-;-;-;-
1513509907980;-;-;3.2314606;-0.48582458;-1.1210022;-;-;-;-;-;-;-;-;-;-;-;-;-;-;-
1513509908000;-;-;3.6839752;0.036102295;-0.33929443;-;-;-;-;-;-;-;-;-;-;-;-;-;-;-
1513509908020;-;-;4.451309;-0.25239563;-0.75109863;-;-;-;-;-;-;-;-;-;-;-;-;-;-;-
1513509908040;-;-;5.320404;-1.7499695;-1.5591431;-;-;-;-;-;-;-;-;-;-;-;-;-;-;-
1513509908061;-;-;5.766922;-2.348526;-1.887146;-;-;-;-;-;-;-;-;-;-;-;-;-;-;-
1513509908081;-;-;5.9979706;-2.356903;-2.1301575;-;-;-;-;-;-;-;-;-;-;-;-;-;-;-
1513509908102;-;-;6.1296387;-2.1617737;-1.555542;-;-;-;-;-;-;-;-;-;-;-;-;-;-;-
1513509908121;-;-;7.0526123;-1.6194916;-0.08192444;-;-;-;-;-;-;-;-;-;-;-;-;-;-;-
1513509908142;-;-;8.520264;-1.6853333;0.77401733;-;-;-;-;-;-;-;-;-;-;-;-;-;-;-
1513509908163;-;-;7.969589;-2.6645508;0.33348083;-;-;-;-;-;-;-;-;-;-;-;-;-;-;-
1513509908183;-;-;7.166336;-3.7156067;-0.4278717;-;-;-;-;-;-;-;-;-;-;-;-;-;-;-
1513509908203;-;-;8.135986;-2.230011;-0.18008423;-;-;-;-;-;-;-;-;-;-;-;-;-;-;-
1513509908224;-;-;9.668274;-1.1609955;0.24609375;-;-;-;-;-;-;-;-;-;-;-;-;-;-;-
1513509908243;-;-;9.566528;-1.506958;-2.6221619;-;-;-;-;-;-;-;-;-;-;-;-;-;-;-
1513509908263;-;-;7.1795044;-1.8900299;-6.821594;-;-;-;-;-;-;-;-;-;-;-;-;-;-;-
1513509908284;-;-;7.881012;-0.02973938;-5.397049;-;-;-;-;-;-;-;-;-;-;-;-;-;-;-
1513509908304;-;-;10.002274;3.0935059;-2.3839417;-;-;-;-;-;-;-;-;-;-;-;-;-;-;-
1513509908323;-;-;12.028961;5.7450714;-1.0491791;-;-;-;-;-;-;-;-;-;-;-;-;-;-;-
1513509908343;-;-;13.7695465;5.1213837;-0.123809814;-;-;-;-;-;-;-;-;-;-;-;-;-;-;-
1513509908363;-;-;18.342468;5.0639343;-2.452179;-;-;-;-;-;-;-;-;-;-;-;-;-;-;-
1513509908384;-;-;26.51268;2.825348;-4.43338;-;-;-;-;-;-;-;-;-;-;-;-;-;-;-
1513509908404;-;-;19.859192;-0.90242004;-1.7039948;-;-;-;-;-;-;-;-;-;-;-;-;-;-;-
1513509908425;-;-;11.693771;-2.0684052;-0.073532104;-;-;-;-;-;-;-;-;-;-;-;-;-;-;-
1513509908445;-;-;7.5793304;-1.4997711;-0.23634338;-;-;-;-;-;-;-;-;-;-;-;-;-;-;-
1513509908466;-;-;3.6839752;0.28271484;-0.20281982;-;-;-;-;-;-;-;-;-;-;-;-;-;-;-
1513509908486;-;-;0.971344;1.7778931;0.22813416;-;-;-;-;-;-;-;-;-;-;-;-;-;-;-
1513509908507;-;-;0.5715027;1.6629639;0.6495056;-;-;-;-;-;-;-;-;-;-;-;-;-;-;-
1513509908527;-;-;1.4202576;0.6166992;0.94400024;-;-;-;-;-;-;-;-;-;-;-;-;-;-;-
1513509908547;-;-;4.8643036;-0.8246155;0.43762207;-;-;-;-;-;-;-;-;-;-;-;-;-;-;-
1513509908566;-;-;5.8902283;-1.278305;-0.3153534;-;-;-;-;-;-;-;-;-;-;-;-;-;-;-
1513509908586;-;-;5.97641;-0.71447754;-1.5244293;-;-;-;-;-;-;-;-;-;-;-;-;-;-;-
1513509908606;-;-;5.5562286;0.5987396;-1.9553833;-;-;-;-;-;-;-;-;-;-;-;-;-;-;-
1513509908627;-;-;5.7693176;0.5269165;-2.6078033;-;-;-;-;-;-;-;-;-;-;-;-;-;-;-
1513509908647;-;-;7.494339;0.045684814;-1.8284912;-;-;-;-;-;-;-;-;-;-;-;-;-;-;-
1513509908667;-;-;8.787216;0.7435913;-0.41471863;-;-;-;-;-;-;-;-;-;-;-;-;-;-;-
1513509908688;-;-;8.5633545;3.4490356;0.74887085;-;-;-;-;-;-;-;-;-;-;-;-;-;-;-
1513509908708;-;-;7.659546;6.2310944;-2.2247314;-;-;-;-;-;-;-;-;-;-;-;-;-;-;-
1513509908728;-;-;6.1883087;4.932251;-4.11734;-;-;-;-;-;-;-;-;-;-;-;-;-;-;-
1513509908748;-;-;5.8519135;1.2954559;-4.189163;-;-;-;-;-;-;-;-;-;-;-;-;-;-;-
1513509908769;-;-;7.849884;-4.1130524;-6.0997467;-;-;-;-;-;-;-;-;-;-;-;-;-;-;-
1513509908789;-;-;12.437164;-7.010025;-7.5218964;-;-;-;-;-;-;-;-;-;-;-;-;-;-;-
1513509908809;-;-;19.531189;-8.98645;-5.0079803;-;-;-;-;-;-;-;-;-;-;-;-;-;-;-
1513509908830;-;-;30.858154;-9.100174;1.081665;-;-;-;-;-;-;-;-;-;-;-;-;-;-;-
1513509908850;-;-;27.180664;-6.551544;-3.4002838;-;-;-;-;-;-;-;-;-;-;-;-;-;-;-
1513509908870;-;-;19.075089;-1.5009766;-1.6070251;-;-;-;-;-;-;-;-;-;-;-;-;-;-;-
1513509908891;-;-;11.208939;1.7778931;0.45558167;-;-;-;-;-;-;-;-;-;-;-;-;-;-;-
1513509908911;-;-;4.9421234;2.4877625;-0.05319214;-;-;-;-;-;-;-;-;-;-;-;-;-;-;-
1513509908931;-;-;1.8895111;1.1972961;-0.37521362;-;-;-;-;-;-;-;-;-;-;-;-;-;-;-
1513509908952;-;-;-0.44483948;-0.65940857;-1.069519;-;-;-;-;-;-;-;-;-;-;-;-;-;-;-
1513509908972;-;-;-0.6938324;-1.6745453;-2.6844177;-;-;-;-;-;-;-;-;-;-;-;-;-;-;-
1513509908992;-;-;2.5527039;-0.973053;-3.2650146;-;-;-;-;-;-;-;-;-;-;-;-;-;-;-
1513509909013;-;-;6.070984;-0.2715454;-2.6078033;-;-;-;-;-;-;-;-;-;-;-;-;-;-;-
1513509909033;-;-;7.574539;-0.5169525;-2.938202;-;-;-;-;-;-;-;-;-;-;-;-;-;-;-
1513509909053;-;-;7.9420624;-2.0348816;-2.6484985;-;-;-;-;-;-;-;-;-;-;-;-;-;-;-
1513509909074;-;-;6.888611;-3.4881592;-1.5830841;-;-;-;-;-;-;-;-;-;-;-;-;-;-;-
1513509909094;-;-;4.906204;-3.3624573;-1.5818787;-;-;-;-;-;-;-;-;-;-;-;-;-;-;-
1513509909114;-;-;4.6931305;-3.1062775;0.03779602;-;-;-;-;-;-;-;-;-;-;-;-;-;-;-
1513509909135;-;-;6.70665;-2.9674225;2.022583;-;-;-;-;-;-;-;-;-;-;-;-;-;-;-
1513509909155;-;-;8.394562;-3.1972656;1.789154;-;-;-;-;-;-;-;-;-;-;-;-;-;-;-
1513509909175;-;-;7.6068726;-4.10347;-0.49012756;-;-;-;-;-;-;-;-;-;-;-;-;-;-;-
1513509909195;-;-;7.007126;-4.1896667;-1.6237793;-;-;-;-;-;-;-;-;-;-;-;-;-;-;-
1513509909216;-;-;6.090149;-2.6992645;-2.3611908;-;-;-;-;-;-;-;-;-;-;-;-;-;-;-
1513509909235;-;-;7.20105;-0.43196106;-6.394226;-;-;-;-;-;-;-;-;-;-;-;-;-;-;-
1513509909255;-;-;10.241684;2.7798615;-7.0873566;-;-;-;-;-;-;-;-;-;-;-;-;-;-;-
1513509909276;-;-;13.601944;6.071884;-2.796936;-;-;-;-;-;-;-;-;-;-;-;-;-;-;-
1513509909296;-;-;15.710037;5.754654;-1.6213837;-;-;-;-;-;-;-;-;-;-;-;-;-;-;-
1513509909316;-;-;21.761383;5.998871;-3.9533386;-;-;-;-;-;-;-;-;-;-;-;-;-;-;-
1513509909336;-;-;31.632675;3.7926025;-6.176361;-;-;-;-;-;-;-;-;-;-;-;-;-;-;-
1513509909357;-;-;18.810532;-1.091568;-2.0272064;-;-;-;-;-;-;-;-;-;-;-;-;-;-;-
1513509909377;-;-;12.007416;-4.139389;-1.0527649;-;-;-;-;-;-;-;-;-;-;-;-;-;-;-
1513509909397;-;-;6.692276;-5.1150208;-1.6453247;-;-;-;-;-;-;-;-;-;-;-;-;-;-;-
1513509909417;-;-;2.7945251;-3.1733246;-1.5016785;-;-;-;-;-;-;-;-;-;-;-;-;-;-;-
1513509909438;-;-;0.79296875;-0.3433838;-1.0336151;-;-;-;-;-;-;-;-;-;-;-;-;-;-;-
1513509909462;-;-;0.77500916;1.5731812;-0.5942688;-;-;-;-;-;-;-;-;-;-;-;-;-;-;-
1513509909478;-;-;2.2282867;1.2739105;-0.961792;-;-;-;-;-;-;-;-;-;-;-;-;-;-;-
1513509909499;-;-;5.004364;0.8297882;-0.8899536;-;-;-;-;-;-;-;-;-;-;-;-;-;-;-
1513509909519;-;-;6.675522;0.6849365;-0.7391205;-;-;-;-;-;-;-;-;-;-;-;-;-;-;-
1513509909539;-;-;5.781296;0.9363251;-1.5423737;-;-;-;-;-;-;-;-;-;-;-;-;-;-;-
1513509909559;-;-;4.466873;1.3948212;-1.6848297;-;-;-;-;-;-;-;-;-;-;-;-;-;-;-
1513509909580;-;-;3.569046;1.5240936;-1.9529877;-;-;-;-;-;-;-;-;-;-;-;-;-;-;-
1513509909600;-;-;3.8240356;0.7256317;-1.4382324;-;-;-;-;-;-;-;-;-;-;-;-;-;-;-
1513509909620;-;-;5.9297333;-0.2033081;-1.784195;-;-;-;-;-;-;-;-;-;-;-;-;-;-;-
1513509909641;-;-;8.814743;0.29588318;-1.2095795;-;-;-;-;-;-;-;-;-;-;-;-;-;-;-
1513509909661;-;-;12.810669;1.853302;0.3430481;-;-;-;-;-;-;-;-;-;-;-;-;-;-;-
1513509909681;-;-;13.362534;2.4374847;-1.3664093;-;-;-;-;-;-;-;-;-;-;-;-;-;-;-
1513509909702;-;-;9.704193;2.1801147;-5.8459625;-;-;-;-;-;-;-;-;-;-;-;-;-;-;-
1513509909723;-;-;4.866699;-1.146637;-9.9735565;-;-;-;-;-;-;-;-;-;-;-;-;-;-;-
1513509909744;-;-;10.769608;-7.262619;-8.000732;-;-;-;-;-;-;-;-;-;-;-;-;-;-;-
1513509909765;-;-;19.367188;-8.3076935;-5.956085;-;-;-;-;-;-;-;-;-;-;-;-;-;-;-
1513509909786;-;-;29.961533;-7.678009;-5.8064575;-;-;-;-;-;-;-;-;-;-;-;-;-;-;-
1513509909807;-;-;24.029892;0.09715271;-6.863495;-;-;-;-;-;-;-;-;-;-;-;-;-;-;-
1513509909827;-;-;16.066772;4.186447;-2.9322205;-;-;-;-;-;-;-;-;-;-;-;-;-;-;-
1513509909847;-;-;11.03656;1.6821136;-1.377182;-;-;-;-;-;-;-;-;-;-;-;-;-;-;-
1513509909868;-;-;7.490753;-1.2483826;-0.91270447;-;-;-;-;-;-;-;-;-;-;-;-;-;-;-
1513509909888;-;-;3.8252258;-3.146988;-0.3620453;-;-;-;-;-;-;-;-;-;-;-;-;-;-;-
1513509909908;-;-;2.1468964;-3.9119263;-1.1712799;-;-;-;-;-;-;-;-;-;-;-;-;-;-;-
1513509909928;-;-;2.1720276;-3.4977417;-2.120575;-;-;-;-;-;-;-;-;-;-;-;-;-;-;-
1513509909951;-;-;2.3180695;-1.4506989;-1.8943329;-;-;-;-;-;-;-;-;-;-;-;-;-;-;-
1513509909970;-;-;1.5974274;0.5855713;-1.629776;-;-;-;-;-;-;-;-;-;-;-;-;-;-;-
1513509909990;-;-;2.0343628;1.030899;-0.41830444;-;-;-;-;-;-;-;-;-;-;-;-;-;-;-
1513509910010;-;-;4.5985565;0.25875854;-0.57032776;-;-;-;-;-;-;-;-;-;-;-;-;-;-;-
1513509910031;-;-;7.007126;-0.3577423;-0.85284424;-;-;-;-;-;-;-;-;-;-;-;-;-;-;-
1513509910051;-;-;8.673492;-1.1693726;-2.4461975;-;-;-;-;-;-;-;-;-;-;-;-;-;-;-
1513509910071;-;-;10.944382;-2.7052612;-3.1189575;-;-;-;-;-;-;-;-;-;-;-;-;-;-;-
1513509910092;-;-;13.537308;-4.747513;-1.5483704;-;-;-;-;-;-;-;-;-;-;-;-;-;-;-
1513509910111;-;-;15.945877;-5.2012177;2.271576;-;-;-;-;-;-;-;-;-;-;-;-;-;-;-
1513509910131;-;-;13.8485565;-4.1022797;1.3462219;-;-;-;-;-;-;-;-;-;-;-;-;-;-;-
1513509910152;-;-;9.594055;-4.73674;-6.3643036;-;-;-;-;-;-;-;-;-;-;-;-;-;-;-
1513509910172;-;-;9.102051;-3.0141144;-8.699844;-;-;-;-;-;-;-;-;-;-;-;-;-;-;-
1513509910192;-;-;10.084869;1.6928864;-7.4859924;-;-;-;-;-;-;-;-;-;-;-;-;-;-;-
1513509910212;-;-;10.229721;6.075485;-6.373886;-;-;-;-;-;-;-;-;-;-;-;-;-;-;-
1513509910232;-;-;8.930862;6.405884;-5.83638;-;-;-;-;-;-;-;-;-;-;-;-;-;-;-
1513509910253;-;-;9.245697;0.72802734;-4.4740753;-;-;-;-;-;-;-;-;-;-;-;-;-;-;-
1513509910273;-;-;13.740814;-6.6556854;-3.8982697;-;-;-;-;-;-;-;-;-;-;-;-;-;-;-
1513509910293;-;-;17.874405;-11.040665;-2.5766754;-;-;-;-;-;-;-;-;-;-;-;-;-;-;-
1513509910313;-;-;17.40155;-7.0207977;-3.9868622;-;-;-;-;-;-;-;-;-;-;-;-;-;-;-
1513509910334;-;-;10.400894;-1.3680878;-4.3052826;-;-;-;-;-;-;-;-;-;-;-;-;-;-;-
1513509910354;-;-;5.703476;-0.12789917;-3.4314117;-;-;-;-;-;-;-;-;-;-;-;-;-;-;-
1513509910374;-;-;0.6780548;-0.3002777;-3.9689026;-;-;-;-;-;-;-;-;-;-;-;-;-;-;-
1513509910394;-;-;-1.3426514;-1.1214905;-3.6875916;-;-;-;-;-;-;-;-;-;-;-;-;-;-;-
1513509910415;-;-;-0.22337341;-1.3537292;-3.5235748;-;-;-;-;-;-;-;-;-;-;-;-;-;-;-
1513509910435;-;-;4.735016;-0.17936707;-3.6923676;-;-;-;-;-;-;-;-;-;-;-;-;-;-;-
1513509910455;-;-;9.171478;1.7407837;-4.5411224;-;-;-;-;-;-;-;-;-;-;-;-;-;-;-
1513509910475;-;-;10.18782;3.1425781;-5.230652;-;-;-;-;-;-;-;-;-;-;-;-;-;-;-
1513509910495;-;-;8.349075;3.316162;-5.2031097;-;-;-;-;-;-;-;-;-;-;-;-;-;-;-
1513509910516;-;-;5.739395;2.5631866;-3.468521;-;-;-;-;-;-;-;-;-;-;-;-;-;-;-
1513509910536;-;-;3.6612244;1.9023895;-1.5938568;-;-;-;-;-;-;-;-;-;-;-;-;-;-;-
1513509910556;-;-;5.7058716;1.7707062;-2.9286194;-;-;-;-;-;-;-;-;-;-;-;-;-;-;-
1513509910577;-;-;9.835876;3.2503204;-4.184387;-;-;-;-;-;-;-;-;-;-;-;-;-;-;-
1513509910597;-;-;12.070862;3.5711365;-3.3248596;-;-;-;-;-;-;-;-;-;-;-;-;-;-;-
1513509910618;-;-;12.00502;2.2710876;-3.2506409;-;-;-;-;-;-;-;-;-;-;-;-;-;-;-
1513509910638;-;-;11.231689;0.51135254;-0.9294586;-;-;-;-;-;-;-;-;-;-;-;-;-;-;-
1513509910658;-;-;10.945587;-2.2790833;0.78118896;-;-;-;-;-;-;-;-;-;-;-;-;-;-;-
1513509910678;-;-;10.051346;-2.016922;-2.3743591;-;-;-;-;-;-;-;-;-;-;-;-;-;-;-
1513509910699;-;-;7.9384613;-0.89164734;-5.398239;-;-;-;-;-;-;-;-;-;-;-;-;-;-;-
1513509910719;-;-;8.319138;-3.498932;-6.3092346;-;-;-;-;-;-;-;-;-;-;-;-;-;-;-
1513509910739;-;-;9.117615;-5.104248;-7.39859;-;-;-;-;-;-;-;-;-;-;-;-;-;-;-
1513509910760;-;-;9.604828;-4.356064;-6.226639;-;-;-;-;-;-;-;-;-;-;-;-;-;-;-
1513509910780;-;-;9.893326;-3.148178;-4.92778;-;-;-;-;-;-;-;-;-;-;-;-;-;-;-
1513509910801;-;-;11.90686;-0.45710754;-3.6804047;-;-;-;-;-;-;-;-;-;-;-;-;-;-;-
1513509910821;-;-;12.497025;0.57240295;-4.9373627;-;-;-;-;-;-;-;-;-;-;-;-;-;-;-
1513509910841;-;-;10.884537;0.49220276;-4.7087097;-;-;-;-;-;-;-;-;-;-;-;-;-;-;-
1513509910861;-;-;10.135147;-0.03930664;-3.5451355;-;-;-;-;-;-;-;-;-;-;-;-;-;-;-
1513509910882;-;-;8.60405;-0.8533478;-3.3308563;-;-;-;-;-;-;-;-;-;-;-;-;-;-;-
1513509910902;-;-;7.380615;-1.8337708;-2.7861633;-;-;-;-;-;-;-;-;-;-;-;-;-;-;-
1513509910922;-;-;5.814804;-2.1557922;-2.570694;-;-;-;-;-;-;-;-;-;-;-;-;-;-;-
1513509910943;-;-;3.3487854;-2.4155579;-2.124176;-;-;-;-;-;-;-;-;-;-;-;-;-;-;-
1513509910963;-;-;2.7646027;-2.317398;-1.9912872;-;-;-;-;-;-;-;-;-;-;-;-;-;-;-
1513509910984;-;-;3.8240356;-1.0113525;-1.4502106;-;-;-;-;-;-;-;-;-;-;-;-;-;-;-
1513509911003;-;-;5.455673;-0.33021545;-1.3017578;-;-;-;-;-;-;-;-;-;-;-;-;-;-;-
1513509911024;-;-;6.826355;-0.621109;-1.574707;-;-;-;-;-;-;-;-;-;-;-;-;-;-;-
1513509911044;-;-;7.605667;-1.1993103;-1.8596191;-;-;-;-;-;-;-;-;-;-;-;-;-;-;-
1513509911064;-;-;8.554977;-1.6685638;-2.3647919;-;-;-;-;-;-;-;-;-;-;-;-;-;-;-
1513509911085;-;-;10.42485;-0.973053;-1.8883362;-;-;-;-;-;-;-;-;-;-;-;-;-;-;-
1513509911105;-;-;11.9272;1.1541901;-2.5718842;-;-;-;-;-;-;-;-;-;-;-;-;-;-;-
1513509911125;-;-;11.471115;1.1817322;-3.3116913;-;-;-;-;-;-;-;-;-;-;-;-;-;-;-
1513509911146;-;-;12.961502;-2.9746094;0.6351471;-;-;-;-;-;-;-;-;-;-;-;-;-;-;-
1513509911166;-;-;13.737228;-4.5751343;0.49388123;-;-;-;-;-;-;-;-;-;-;-;-;-;-;-
1513509911186;-;-;13.481049;-3.697647;-2.2067719;-;-;-;-;-;-;-;-;-;-;-;-;-;-;-
1513509911206;-;-;10.132751;-1.522522;-7.7421722;-;-;-;-;-;-;-;-;-;-;-;-;-;-;-
1513509911226;-;-;7.9420624;-1.5955505;-10.3051605;-;-;-;-;-;-;-;-;-;-;-;-;-;-;-
1513509911246;-;-;6.703064;-0.5756073;-9.437256;-;-;-;-;-;-;-;-;-;-;-;-;-;-;-
1513509911266;-;-;6.522293;2.6804962;-6.0075684;-;-;-;-;-;-;-;-;-;-;-;-;-;-;-
1513509911287;-;-;7.763687;3.2610931;-2.843628;-;-;-;-;-;-;-;-;-;-;-;-;-;-;-
1513509911307;-;-;9.924454;-0.33859253;-5.231842;-;-;-;-;-;-;-;-;-;-;-;-;-;-;-
1513509911327;-;-;13.441544;-4.0184784;-6.5773926;-;-;-;-;-;-;-;-;-;-;-;-;-;-;-
1513509911347;-;-;15.228806;-4.0711517;-3.0638885;-;-;-;-;-;-;-;-;-;-;-;-;-;-;-
1513509911368;-;-;10.451187;0.27192688;-3.322464;-;-;-;-;-;-;-;-;-;-;-;-;-;-;-
1513509911388;-;-;6.600113;1.6605682;-2.3228912;-;-;-;-;-;-;-;-;-;-;-;-;-;-;-
1513509911408;-;-;4.2549896;2.4650269;-2.2654266;-;-;-;-;-;-;-;-;-;-;-;-;-;-;-
1513509911428;-;-;2.1840057;2.0364532;-1.808136;-;-;-;-;-;-;-;-;-;-;-;-;-;-;-
1513509911449;-;-;2.3803253;1.2727051;-1.495697;-;-;-;-;-;-;-;-;-;-;-;-;-;-;-
1513509911469;-;-;4.154434;0.7447815;-1.3699951;-;-;-;-;-;-;-;-;-;-;-;-;-;-;-
1513509911490;-;-;5.6747437;0.5736084;-0.85165405;-;-;-;-;-;-;-;-;-;-;-;-;-;-;-
1513509911510;-;-;6.4851837;0.3509369;-0.075927734;-;-;-;-;-;-;-;-;-;-;-;-;-;-;-
1513509911530;-;-;7.161545;-0.9000244;0.26763916;-;-;-;-;-;-;-;-;-;-;-;-;-;-;-
1513509911550;-;-;6.4959564;-1.4961853;0.067718506;-;-;-;-;-;-;-;-;-;-;-;-;-;-;-
1513509911571;-;-;5.932129;-1.819397;0.0030822754;-;-;-;-;-;-;-;-;-;-;-;-;-;-;-
1513509911591;-;-;6.2242126;-1.6913147;-0.44104004;-;-;-;-;-;-;-;-;-;-;-;-;-;-;-
1513509911611;-;-;7.3219604;0.14624023;-1.2778168;-;-;-;-;-;-;-;-;-;-;-;-;-;-;-
1513509911632;-;-;7.851074;2.706833;-2.5443573;-;-;-;-;-;-;-;-;-;-;-;-;-;-;-
1513509911652;-;-;8.74292;4.59227;-2.8615875;-;-;-;-;-;-;-;-;-;-;-;-;-;-;-
1513509911672;-;-;9.355835;3.651352;-5.745407;-;-;-;-;-;-;-;-;-;-;-;-;-;-;-
1513509911692;-;-;10.197388;1.0739899;-4.883484;-;-;-;-;-;-;-;-;-;-;-;-;-;-;-
1513509911713;-;-;9.487518;-0.5827942;-2.1588898;-;-;-;-;-;-;-;-;-;-;-;-;-;-;-
1513509911732;-;-;7.4895477;-0.34217834;-1.6728668;-;-;-;-;-;-;-;-;-;-;-;-;-;-;-
1513509911752;-;-;4.324417;0.4119873;-3.0662842;-;-;-;-;-;-;-;-;-;-;-;-;-;-;-
1513509911773;-;-;2.1205597;-0.87968445;-5.0056;-;-;-;-;-;-;-;-;-;-;-;-;-;-;-
1513509911793;-;-;4.8631134;-3.1661377;-8.163544;-;-;-;-;-;-;-;-;-;-;-;-;-;-;-
1513509911813;-;-;8.455612;-3.139801;-6.2170563;-;-;-;-;-;-;-;-;-;-;-;-;-;-;-
1513509911833;-;-;17.83609;-2.1964874;-11.043762;-;-;-;-;-;-;-;-;-;-;-;-;-;-;-
1513509911854;-;-;32.134262;-3.9849548;0.20419312;-;-;-;-;-;-;-;-;-;-;-;-;-;-;-
1513509911874;-;-;25.084534;-3.9322815;-4.9050293;-;-;-;-;-;-;-;-;-;-;-;-;-;-;-
1513509911894;-;-;18.452606;-1.6134949;-4.220291;-;-;-;-;-;-;-;-;-;-;-;-;-;-;-
1513509911915;-;-;10.920441;-2.3712616;-0.37521362;-;-;-;-;-;-;-;-;-;-;-;-;-;-;-
1513509911935;-;-;2.6209412;-1.6482086;-1.1425476;-;-;-;-;-;-;-;-;-;-;-;-;-;-;-
1513509911955;-;-;-2.1758423;-0.7024994;-1.8548279;-;-;-;-;-;-;-;-;-;-;-;-;-;-;-
1513509911975;-;-;-3.1490784;-0.85214233;-2.0715027;-;-;-;-;-;-;-;-;-;-;-;-;-;-;-
1513509911995;-;-;0.43144226;-0.064453125;-1.8153229;-;-;-;-;-;-;-;-;-;-;-;-;-;-;-
1513509912016;-;-;3.9317627;0.96266174;-0.9749603;-;-;-;-;-;-;-;-;-;-;-;-;-;-;-
1513509912036;-;-;4.4249725;0.8896332;-1.1461334;-;-;-;-;-;-;-;-;-;-;-;-;-;-;-
1513509912056;-;-;2.4186401;0.39523315;-1.2550812;-;-;-;-;-;-;-;-;-;-;-;-;-;-;-
1513509912077;-;-;3.162033;-0.6402588;-1.4585876;-;-;-;-;-;-;-;-;-;-;-;-;-;-;-
1513509912096;-;-;6.418152;-1.546463;-0.6194153;-;-;-;-;-;-;-;-;-;-;-;-;-;-;-
1513509912118;-;-;9.536591;0.18334961;-0.030441284;-;-;-;-;-;-;-;-;-;-;-;-;-;-;-
1513509912137;-;-;11.946365;-0.28352356;0.95835876;-;-;-;-;-;-;-;-;-;-;-;-;-;-;-
1513509912157;-;-;11.78714;-3.5013275;1.4790955;-;-;-;-;-;-;-;-;-;-;-;-;-;-;-
1513509912177;-;-;8.759674;-5.8021545;-2.3611908;-;-;-;-;-;-;-;-;-;-;-;-;-;-;-
1513509912197;-;-;4.6296844;-4.277054;-5.10495;-;-;-;-;-;-;-;-;-;-;-;-;-;-;-
1513509912217;-;-;2.533554;0.3138275;-8.956024;-;-;-;-;-;-;-;-;-;-;-;-;-;-;-
1513509912237;-;-;8.079727;5.0962524;-4.745819;-;-;-;-;-;-;-;-;-;-;-;-;-;-;-
1513509912258;-;-;14.230423;6.5782623;-2.3540192;-;-;-;-;-;-;-;-;-;-;-;-;-;-;-
1513509912278;-;-;27.149536;6.1987762;-5.160019;-;-;-;-;-;-;-;-;-;-;-;-;-;-;-
1513509912298;-;-;35.871613;1.0285034;-4.183182;-;-;-;-;-;-;-;-;-;-;-;-;-;-;-
1513509912319;-;-;22.417404;-5.17128;-2.7107544;-;-;-;-;-;-;-;-;-;-;-;-;-;-;-
1513509912339;-;-;11.605179;-4.49852;-0.49850464;-;-;-;-;-;-;-;-;-;-;-;-;-;-;-
1513509912359;-;-;4.7445984;-2.143814;0.28559875;-;-;-;-;-;-;-;-;-;-;-;-;-;-;-
1513509912380;-;-;-0.0868988;0.6968994;0.8877411;-;-;-;-;-;-;-;-;-;-;-;-;-;-;-
1513509912400;-;-;-2.4619446;2.782257;2.007019;-;-;-;-;-;-;-;-;-;-;-;-;-;-;-
1513509912420;-;-;0.06034851;3.8368988;1.0218048;-;-;-;-;-;-;-;-;-;-;-;-;-;-;-
1513509912440;-;-;2.5850372;1.8628845;-1.1186066;-;-;-;-;-;-;-;-;-;-;-;-;-;-;-
1513509912461;-;-;5.011551;-1.0329132;-1.574707;-;-;-;-;-;-;-;-;-;-;-;-;-;-;-
1513509912481;-;-;7.0502167;-2.5915375;-0.60266113;-;-;-;-;-;-;-;-;-;-;-;-;-;-;-
1513509912501;-;-;6.5079346;-2.0684052;-0.78341675;-;-;-;-;-;-;-;-;-;-;-;-;-;-;-
1513509912522;-;-;5.039093;-0.46548462;-1.2466888;-;-;-;-;-;-;-;-;-;-;-;-;-;-;-
1513509912543;-;-;3.0686646;0.19770813;-0.6625061;-;-;-;-;-;-;-;-;-;-;-;-;-;-;-
1513509912564;-;-;5.3970184;1.0572357;0.51065063;-;-;-;-;-;-;-;-;-;-;-;-;-;-;-
1513509912585;-;-;8.127609;2.002945;-2.093048;-;-;-;-;-;-;-;-;-;-;-;-;-;-;-
1513509912606;-;-;10.04776;3.2491302;-3.9377747;-;-;-;-;-;-;-;-;-;-;-;-;-;-;-
1513509912627;-;-;9.924454;2.8061981;-2.7945404;-;-;-;-;-;-;-;-;-;-;-;-;-;-;-
1513509912647;-;-;8.443649;1.5384674;-6.658783;-;-;-;-;-;-;-;-;-;-;-;-;-;-;-
1513509912666;-;-;7.5948944;-1.0879669;-6.9484863;-;-;-;-;-;-;-;-;-;-;-;-;-;-;-
1513509912686;-;-;9.402527;-4.0352325;-3.3571777;-;-;-;-;-;-;-;-;-;-;-;-;-;-;-
1513509912706;-;-;13.111145;-5.9278564;-4.483658;-;-;-;-;-;-;-;-;-;-;-;-;-;-;-
1513509912727;-;-;23.970047;-6.47612;-0.06036377;-;-;-;-;-;-;-;-;-;-;-;-;-;-;-
1513509912747;-;-;31.325027;-6.1349487;-4.7637787;-;-;-;-;-;-;-;-;-;-;-;-;-;-;-
1513509912767;-;-;24.87146;-0.09197998;-4.7625885;-;-;-;-;-;-;-;-;-;-;-;-;-;-;-
1513509912788;-;-;17.79419;1.4019928;-2.467743;-;-;-;-;-;-;-;-;-;-;-;-;-;-;-
1513509912808;-;-;11.167053;0.36410522;-0.7020111;-;-;-;-;-;-;-;-;-;-;-;-;-;-;-
1513509912828;-;-;4.4165955;-0.2607727;0.40769958;-;-;-;-;-;-;-;-;-;-;-;-;-;-;-
1513509912849;-;-;-0.041412354;-1.2723236;0.41607666;-;-;-;-;-;-;-;-;-;-;-;-;-;-;-
1513509912869;-;-;-2.7061615;-2.080368;0.04975891;-;-;-;-;-;-;-;-;-;-;-;-;-;-;-
1513509912889;-;-;-2.6822205;-2.3784485;-0.44822693;-;-;-;-;-;-;-;-;-;-;-;-;-;-;-
1513509912909;-;-;0.15969849;-0.27394104;0.11680603;-;-;-;-;-;-;-;-;-;-;-;-;-;-;-
1513509912930;-;-;2.3707428;1.0919495;-0.8791809;-;-;-;-;-;-;-;-;-;-;-;-;-;-;-
1513509912950;-;-;1.4190521;1.0057526;-1.2000122;-;-;-;-;-;-;-;-;-;-;-;-;-;-;-
1513509912970;-;-;1.9840851;0.338974;-1.7051849;-;-;-;-;-;-;-;-;-;-;-;-;-;-;-
1513509912991;-;-;4.513565;-0.24043274;-0.41351318;-;-;-;-;-;-;-;-;-;-;-;-;-;-;-
1513509913011;-;-;7.573349;0.5161438;-0.17887878;-;-;-;-;-;-;-;-;-;-;-;-;-;-;-
1513509913031;-;-;9.858612;0.43952942;-1.0874786;-;-;-;-;-;-;-;-;-;-;-;-;-;-;-
1513509913051;-;-;10.907272;-2.2766876;-2.2462769;-;-;-;-;-;-;-;-;-;-;-;-;-;-;-
1513509913072;-;-;8.660324;-4.195648;-3.5235748;-;-;-;-;-;-;-;-;-;-;-;-;-;-;-
1513509913092;-;-;8.32991;-2.4526672;-8.503525;-;-;-;-;-;-;-;-;-;-;-;-;-;-;-
1513509913112;-;-;14.4135895;0.9303436;-4.5530853;-;-;-;-;-;-;-;-;-;-;-;-;-;-;-
1513509913133;-;-;20.765396;2.5931091;-0.52005005;-;-;-;-;-;-;-;-;-;-;-;-;-;-;-
1513509913153;-;-;24.846313;3.1126556;-3.7306824;-;-;-;-;-;-;-;-;-;-;-;-;-;-;-
1513509913173;-;-;31.386078;3.826126;-5.161209;-;-;-;-;-;-;-;-;-;-;-;-;-;-;-
1513509913193;-;-;15.723206;0.38327026;-1.8536224;-;-;-;-;-;-;-;-;-;-;-;-;-;-;-
1513509913214;-;-;8.417313;-0.47146606;-0.15614319;-;-;-;-;-;-;-;-;-;-;-;-;-;-;-
