TimeStamp[ms];Prox[Cm];Lux[lux];AccX[m/s^2];AccY[m/s^2];AccZ[m/s^2];GyroX[rad/s];GyroY[rad/s];GyroZ[rad/s];MagnX[uT];MagnY[uT];MagnZ[uT];OrienYaw[degrees];OrienPitch[degrees];OrienRoll[degrees];Press[Pa];Temp[C°];Batt[%];Lat;Lng;Speed[m/s]
1513509938698;-;-;9.007477;-0.8473511;-1.3161316;-;-;-;-;-;-;-;-;-;-;-;-;-;-;-
1513509938699;-;-;9.007477;-0.8473511;-1.3161316;-;-;-;-;-;-;-;-;-;-;-;-;-;-;-
1513509938716;-;-;9.002686;-0.86172485;-1.322113;-;-;-;-;-;-;-;-;-;-;-;-;-;-;-
1513509938736;-;-;9.106842;-0.9167938;-1.0802917;-;-;-;-;-;-;-;-;-;-;-;-;-;-;-
1513509938757;-;-;9.188232;-1.0317078;-1.1976166;-;-;-;-;-;-;-;-;-;-;-;-;-;-;-
1513509938778;-;-;9.188232;-0.9934082;-1.3975372;-;-;-;-;-;-;-;-;-;-;-;-;-;-;-
1513509938798;-;-;9.244507;-0.97184753;-1.4202728;-;-;-;-;-;-;-;-;-;-;-;-;-;-;-
1513509938818;-;-;9.046982;-0.7886963;-1.2562714;-;-;-;-;-;-;-;-;-;-;-;-;-;-;-
1513509938838;-;-;9.069733;-0.8569336;-1.0515747;-;-;-;-;-;-;-;-;-;-;-;-;-;-;-
1513509938859;-;-;9.221756;-0.46188354;-1.1916351;-;-;-;-;-;-;-;-;-;-;-;-;-;-;-
1513509938879;-;-;9.5282135;-0.636673;-0.44703674;-;-;-;-;-;-;-;-;-;-;-;-;-;-;-
1513509938899;-;-;8.973953;-0.8892517;-0.9546051;-;-;-;-;-;-;-;-;-;-;-;-;-;-;-
1513509938920;-;-;9.21817;-1.0352936;-0.68644714;-;-;-;-;-;-;-;-;-;-;-;-;-;-;-
1513509938954;-;-;9.170288;-0.9143982;-0.44343567;-;-;-;-;-;-;-;-;-;-;-;-;-;-;-
1513509938960;-;-;8.657928;-1.6039276;0.57289124;-;-;-;-;-;-;-;-;-;-;-;-;-;-;-
1513509938980;-;-;9.003891;-0.56843567;-1.0288239;-;-;-;-;-;-;-;-;-;-;-;-;-;-;-
1513509939001;-;-;8.569336;-1.4483032;0.33467102;-;-;-;-;-;-;-;-;-;-;-;-;-;-;-
1513509939021;-;-;9.597641;-0.9036255;-7.2298126;-;-;-;-;-;-;-;-;-;-;-;-;-;-;-
1513509939041;-;-;10.160278;-1.0831909;-0.012481689;-;-;-;-;-;-;-;-;-;-;-;-;-;-;-
1513509939062;-;-;9.674255;-0.12789917;-0.36323547;-;-;-;-;-;-;-;-;-;-;-;-;-;-;-
1513509939082;-;-;9.656311;0.6609955;-1.5519562;-;-;-;-;-;-;-;-;-;-;-;-;-;-;-
1513509939102;-;-;10.022614;1.3134155;-1.8213043;-;-;-;-;-;-;-;-;-;-;-;-;-;-;-
1513509939122;-;-;9.82869;1.6617737;-2.4976654;-;-;-;-;-;-;-;-;-;-;-;-;-;-;-
1513509939143;-;-;9.121201;1.264328;-1.5866699;-;-;-;-;-;-;-;-;-;-;-;-;-;-;-
1513509939163;-;-;8.119232;0.9459076;-0.74272156;-;-;-;-;-;-;-;-;-;-;-;-;-;-;-
1513509939183;-;-;7.6260223;0.9099884;-0.7666626;-;-;-;-;-;-;-;-;-;-;-;-;-;-;-
1513509939204;-;-;7.988739;0.7579498;0.017440796;-;-;-;-;-;-;-;-;-;-;-;-;-;-;-
1513509939224;-;-;9.102051;0.24559021;-0.3189392;-;-;-;-;-;-;-;-;-;-;-;-;-;-;-
1513509939245;-;-;9.689819;-0.45231628;-0.107055664;-;-;-;-;-;-;-;-;-;-;-;-;-;-;-
1513509939265;-;-;10.429626;-0.20690918;-0.24113464;-;-;-;-;-;-;-;-;-;-;-;-;-;-;-
1513509939286;-;-;9.767639;0.7627411;-1.0156555;-;-;-;-;-;-;-;-;-;-;-;-;-;-;-
1513509939306;-;-;9.258865;1.3660889;-1.3903503;-;-;-;-;-;-;-;-;-;-;-;-;-;-;-
1513509939327;-;-;8.509476;1.3708649;-2.5922394;-;-;-;-;-;-;-;-;-;-;-;-;-;-;-
1513509939347;-;-;8.627991;1.4582672;-1.5052643;-;-;-;-;-;-;-;-;-;-;-;-;-;-;-
1513509939367;-;-;8.522644;0.48501587;-0.6661072;-;-;-;-;-;-;-;-;-;-;-;-;-;-;-
1513509939388;-;-;8.589691;0.1845398;-0.9043274;-;-;-;-;-;-;-;-;-;-;-;-;-;-;-
1513509939407;-;-;8.167114;0.67655945;-0.4673767;-;-;-;-;-;-;-;-;-;-;-;-;-;-;-
1513509939427;-;-;8.454422;0.769928;0.32868958;-;-;-;-;-;-;-;-;-;-;-;-;-;-;-
1513509939448;-;-;10.245285;2.1873016;-0.7977905;-;-;-;-;-;-;-;-;-;-;-;-;-;-;-
1513509939468;-;-;10.886917;1.3972015;-1.0144653;-;-;-;-;-;-;-;-;-;-;-;-;-;-;-
1513509939488;-;-;8.72377;-0.06564331;0.17904663;-;-;-;-;-;-;-;-;-;-;-;-;-;-;-
1513509939508;-;-;7.699051;0.2803192;0.13835144;-;-;-;-;-;-;-;-;-;-;-;-;-;-;-
1513509939528;-;-;8.76207;0.5281067;-0.45420837;-;-;-;-;-;-;-;-;-;-;-;-;-;-;-
1513509939549;-;-;8.480759;0.37608337;0.050964355;-;-;-;-;-;-;-;-;-;-;-;-;-;-;-
1513509939568;-;-;7.83432;0.18693542;-0.09388733;-;-;-;-;-;-;-;-;-;-;-;-;-;-;-
1513509939588;-;-;9.137955;-0.04170227;-1.1784668;-;-;-;-;-;-;-;-;-;-;-;-;-;-;-
1513509939609;-;-;9.527023;1.1745453;-0.09867859;-;-;-;-;-;-;-;-;-;-;-;-;-;-;-
1513509939628;-;-;10.633133;0.6968994;0.04258728;-;-;-;-;-;-;-;-;-;-;-;-;-;-;-
1513509939648;-;-;11.438782;1.2679291;-1.1664886;-;-;-;-;-;-;-;-;-;-;-;-;-;-;-
1513509939668;-;-;13.42717;1.477417;-3.480484;-;-;-;-;-;-;-;-;-;-;-;-;-;-;-
1513509939689;-;-;12.046921;0.27671814;-6.041092;-;-;-;-;-;-;-;-;-;-;-;-;-;-;-
1513509939709;-;-;11.479492;-0.7695465;-5.523941;-;-;-;-;-;-;-;-;-;-;-;-;-;-;-
1513509939729;-;-;10.962341;0.2420044;-6.3882446;-;-;-;-;-;-;-;-;-;-;-;-;-;-;-
1513509939750;-;-;9.251678;0.8740692;-4.2921143;-;-;-;-;-;-;-;-;-;-;-;-;-;-;-
1513509939770;-;-;7.209427;0.2922821;-4.3747253;-;-;-;-;-;-;-;-;-;-;-;-;-;-;-
1513509939791;-;-;7.375824;-0.11352539;-3.5583038;-;-;-;-;-;-;-;-;-;-;-;-;-;-;-
1513509939810;-;-;7.569763;-0.625885;-2.8891144;-;-;-;-;-;-;-;-;-;-;-;-;-;-;-
1513509939830;-;-;6.794037;-0.621109;-3.0004425;-;-;-;-;-;-;-;-;-;-;-;-;-;-;-
1513509939851;-;-;7.980362;-0.25598145;-3.7067413;-;-;-;-;-;-;-;-;-;-;-;-;-;-;-
1513509939871;-;-;9.737701;-0.50138855;-3.0746765;-;-;-;-;-;-;-;-;-;-;-;-;-;-;-
1513509939891;-;-;9.359421;-0.23324585;-2.4809113;-;-;-;-;-;-;-;-;-;-;-;-;-;-;-
1513509939911;-;-;7.4201202;-0.4666748;-3.3727417;-;-;-;-;-;-;-;-;-;-;-;-;-;-;-
1513509939931;-;-;5.8040314;-0.3589325;-2.9824982;-;-;-;-;-;-;-;-;-;-;-;-;-;-;-
1513509939952;-;-;6.221817;-0.40322876;-2.357605;-;-;-;-;-;-;-;-;-;-;-;-;-;-;-
1513509939971;-;-;6.015915;-0.5636444;-1.5399933;-;-;-;-;-;-;-;-;-;-;-;-;-;-;-
1513509939991;-;-;6.3259735;-0.45350647;-0.93904114;-;-;-;-;-;-;-;-;-;-;-;-;-;-;-
1513509940012;-;-;6.2553406;-0.5540619;-1.0874786;-;-;-;-;-;-;-;-;-;-;-;-;-;-;-
1513509940032;-;-;5.833969;-0.4259796;-0.8564453;-;-;-;-;-;-;-;-;-;-;-;-;-;-;-
1513509940053;-;-;6.651581;-0.32302856;-0.5428009;-;-;-;-;-;-;-;-;-;-;-;-;-;-;-
1513509940073;-;-;8.0138855;-2.151001;-1.9936829;-;-;-;-;-;-;-;-;-;-;-;-;-;-;-
1513509940093;-;-;10.06691;-1.7523651;-0.12980652;-;-;-;-;-;-;-;-;-;-;-;-;-;-;-
1513509940114;-;-;15.931503;-2.6178741;-4.441757;-;-;-;-;-;-;-;-;-;-;-;-;-;-;-
1513509940134;-;-;17.174103;-0.093185425;-1.3999176;-;-;-;-;-;-;-;-;-;-;-;-;-;-;-
1513509940153;-;-;9.819107;2.9857635;0.88653564;-;-;-;-;-;-;-;-;-;-;-;-;-;-;-
1513509940173;-;-;6.414551;0.2922821;-0.23394775;-;-;-;-;-;-;-;-;-;-;-;-;-;-;-
1513509940193;-;-;11.060501;-4.2160034;-5.6292877;-;-;-;-;-;-;-;-;-;-;-;-;-;-;-
1513509940213;-;-;13.673782;-6.625763;-6.7940674;-;-;-;-;-;-;-;-;-;-;-;-;-;-;-
1513509940234;-;-;12.531738;-2.7746887;-5.0199585;-;-;-;-;-;-;-;-;-;-;-;-;-;-;-
1513509940254;-;-;9.092468;1.7060547;-2.780182;-;-;-;-;-;-;-;-;-;-;-;-;-;-;-
1513509940274;-;-;8.698624;3.5268555;-4.148468;-;-;-;-;-;-;-;-;-;-;-;-;-;-;-
1513509940295;-;-;9.254074;1.5097351;-5.1001587;-;-;-;-;-;-;-;-;-;-;-;-;-;-;-
1513509940315;-;-;11.208939;-1.3561249;-4.250229;-;-;-;-;-;-;-;-;-;-;-;-;-;-;-
1513509940335;-;-;12.007416;-2.2802887;-2.4473877;-;-;-;-;-;-;-;-;-;-;-;-;-;-;-
1513509940355;-;-;11.327454;-1.3537292;-1.7087708;-;-;-;-;-;-;-;-;-;-;-;-;-;-;-
1513509940376;-;-;9.5677185;0.014556885;-2.8113098;-;-;-;-;-;-;-;-;-;-;-;-;-;-;-
1513509940396;-;-;7.995926;1.0943451;-2.3037415;-;-;-;-;-;-;-;-;-;-;-;-;-;-;-
1513509940416;-;-;6.486389;1.1338501;-2.0283966;-;-;-;-;-;-;-;-;-;-;-;-;-;-;-
1513509940437;-;-;4.924164;0.7842865;-1.5591431;-;-;-;-;-;-;-;-;-;-;-;-;-;-;-
1513509940457;-;-;3.24823;-0.09197998;-0.946228;-;-;-;-;-;-;-;-;-;-;-;-;-;-;-
1513509940477;-;-;4.4728546;-0.49780273;-0.5140686;-;-;-;-;-;-;-;-;-;-;-;-;-;-;-
1513509940497;-;-;6.8000183;-0.08720398;-0.7810211;-;-;-;-;-;-;-;-;-;-;-;-;-;-;-
1513509940518;-;-;7.9396667;0.9866028;-1.5411835;-;-;-;-;-;-;-;-;-;-;-;-;-;-;-
1513509940538;-;-;7.9899445;1.8509064;-1.0946655;-;-;-;-;-;-;-;-;-;-;-;-;-;-;-
1513509940558;-;-;8.1479645;1.9754028;-1.0156555;-;-;-;-;-;-;-;-;-;-;-;-;-;-;-
1513509940579;-;-;8.292801;1.5240936;-1.6812439;-;-;-;-;-;-;-;-;-;-;-;-;-;-;-
1513509940599;-;-;8.452026;1.2906647;-2.4162598;-;-;-;-;-;-;-;-;-;-;-;-;-;-;-
1513509940619;-;-;9.163101;1.319397;-2.3073273;-;-;-;-;-;-;-;-;-;-;-;-;-;-;-
1513509940640;-;-;11.405273;1.5205078;0.4388275;-;-;-;-;-;-;-;-;-;-;-;-;-;-;-
1513509940660;-;-;13.215286;0.70648193;1.9220276;-;-;-;-;-;-;-;-;-;-;-;-;-;-;-
1513509940680;-;-;11.667435;-0.3984375;-2.0858612;-;-;-;-;-;-;-;-;-;-;-;-;-;-;-
1513509940701;-;-;9.043396;-1.7703247;-5.2809296;-;-;-;-;-;-;-;-;-;-;-;-;-;-;-
1513509940721;-;-;10.0776825;-4.582306;-3.8815155;-;-;-;-;-;-;-;-;-;-;-;-;-;-;-
1513509940741;-;-;12.063675;-6.06192;-3.0710754;-;-;-;-;-;-;-;-;-;-;-;-;-;-;-
1513509940762;-;-;12.996216;-6.0583344;-6.6121063;-;-;-;-;-;-;-;-;-;-;-;-;-;-;-
1513509940781;-;-;11.151489;-4.277054;-4.6201324;-;-;-;-;-;-;-;-;-;-;-;-;-;-;-
1513509940801;-;-;8.392166;0.38565063;-4.8655396;-;-;-;-;-;-;-;-;-;-;-;-;-;-;-
1513509940821;-;-;6.94368;3.6585388;-3.7773743;-;-;-;-;-;-;-;-;-;-;-;-;-;-;-
1513509940842;-;-;5.806427;4.861618;-3.3308563;-;-;-;-;-;-;-;-;-;-;-;-;-;-;-
1513509940861;-;-;6.858673;2.2339783;-2.9477692;-;-;-;-;-;-;-;-;-;-;-;-;-;-;-
1513509940881;-;-;8.985931;-1.4734344;-2.3863373;-;-;-;-;-;-;-;-;-;-;-;-;-;-;-
1513509940901;-;-;9.821503;-3.617447;-2.2342987;-;-;-;-;-;-;-;-;-;-;-;-;-;-;-
1513509940922;-;-;9.778412;-4.26268;-1.7458801;-;-;-;-;-;-;-;-;-;-;-;-;-;-;-
1513509940943;-;-;8.07373;-4.1465607;-1.0240326;-;-;-;-;-;-;-;-;-;-;-;-;-;-;-
1513509940963;-;-;6.695877;-3.4941406;-0.8612366;-;-;-;-;-;-;-;-;-;-;-;-;-;-;-
1513509940983;-;-;5.189926;-2.1450195;-1.2071991;-;-;-;-;-;-;-;-;-;-;-;-;-;-;-
1513509941004;-;-;5.6101074;-0.71447754;-2.163681;-;-;-;-;-;-;-;-;-;-;-;-;-;-;-
1513509941025;-;-;7.367447;0.82618713;-2.2761993;-;-;-;-;-;-;-;-;-;-;-;-;-;-;-
1513509941045;-;-;8.747711;2.4626312;-2.076294;-;-;-;-;-;-;-;-;-;-;-;-;-;-;-
1513509941064;-;-;9.464767;2.8301392;-2.172058;-;-;-;-;-;-;-;-;-;-;-;-;-;-;-
1513509941084;-;-;10.052551;1.3732605;-2.5012512;-;-;-;-;-;-;-;-;-;-;-;-;-;-;-
1513509941104;-;-;10.847427;-0.5732269;-2.266632;-;-;-;-;-;-;-;-;-;-;-;-;-;-;-
1513509941124;-;-;10.803131;-1.5021667;-0.81333923;-;-;-;-;-;-;-;-;-;-;-;-;-;-;-
1513509941144;-;-;9.668274;-1.6817322;0.15270996;-;-;-;-;-;-;-;-;-;-;-;-;-;-;-
1513509941165;-;-;8.984726;-2.0755768;-0.18725586;-;-;-;-;-;-;-;-;-;-;-;-;-;-;-
1513509941184;-;-;8.216187;-2.6394196;-0.7379303;-;-;-;-;-;-;-;-;-;-;-;-;-;-;-
1513509941204;-;-;8.243729;-3.4103546;-4.602173;-;-;-;-;-;-;-;-;-;-;-;-;-;-;-
1513509941224;-;-;9.307953;-3.732376;-4.706314;-;-;-;-;-;-;-;-;-;-;-;-;-;-;-
1513509941244;-;-;8.970367;-2.135437;-4.990036;-;-;-;-;-;-;-;-;-;-;-;-;-;-;-
1513509941265;-;-;9.49231;0.72802734;-3.6564636;-;-;-;-;-;-;-;-;-;-;-;-;-;-;-
1513509941284;-;-;9.482727;3.690857;-2.428238;-;-;-;-;-;-;-;-;-;-;-;-;-;-;-
1513509941304;-;-;9.090073;4.25589;-2.986084;-;-;-;-;-;-;-;-;-;-;-;-;-;-;-
1513509941324;-;-;10.793549;1.9371033;-3.7270966;-;-;-;-;-;-;-;-;-;-;-;-;-;-;-
1513509941345;-;-;12.443161;-1.6158905;-3.0615082;-;-;-;-;-;-;-;-;-;-;-;-;-;-;-
1513509941365;-;-;13.194931;-2.6813202;-1.8452454;-;-;-;-;-;-;-;-;-;-;-;-;-;-;-
1513509941385;-;-;12.323441;-1.7368011;-1.942215;-;-;-;-;-;-;-;-;-;-;-;-;-;-;-
1513509941405;-;-;10.506241;-0.6127167;-2.151703;-;-;-;-;-;-;-;-;-;-;-;-;-;-;-
1513509941426;-;-;7.224991;0.3509369;-2.0559387;-;-;-;-;-;-;-;-;-;-;-;-;-;-;-
1513509941446;-;-;4.149643;0.42636108;-1.195221;-;-;-;-;-;-;-;-;-;-;-;-;-;-;-
1513509941467;-;-;2.1804047;-0.042907715;-0.19204712;-;-;-;-;-;-;-;-;-;-;-;-;-;-;-
1513509941487;-;-;1.6788177;-0.25;0.21975708;-;-;-;-;-;-;-;-;-;-;-;-;-;-;-
1513509941507;-;-;3.138092;0.0061798096;0.21736145;-;-;-;-;-;-;-;-;-;-;-;-;-;-;-
1513509941528;-;-;4.900223;0.38446045;0.006668091;-;-;-;-;-;-;-;-;-;-;-;-;-;-;-
1513509941549;-;-;6.074585;0.3509369;-0.4278717;-;-;-;-;-;-;-;-;-;-;-;-;-;-;-
1513509941569;-;-;7.1172485;-0.083602905;-0.70440674;-;-;-;-;-;-;-;-;-;-;-;-;-;-;-
1513509941589;-;-;7.6942596;-0.54689026;-1.1054382;-;-;-;-;-;-;-;-;-;-;-;-;-;-;-
1513509941609;-;-;8.061768;-0.7671509;-1.188034;-;-;-;-;-;-;-;-;-;-;-;-;-;-;-
1513509941630;-;-;8.370621;-0.29309082;-0.788208;-;-;-;-;-;-;-;-;-;-;-;-;-;-;-
1513509941651;-;-;8.685455;0.6717682;-0.90193176;-;-;-;-;-;-;-;-;-;-;-;-;-;-;-
1513509941672;-;-;9.263657;1.6629639;-1.9697418;-;-;-;-;-;-;-;-;-;-;-;-;-;-;-
1513509941692;-;-;9.251678;2.0292816;-3.5056305;-;-;-;-;-;-;-;-;-;-;-;-;-;-;-
1513509941712;-;-;9.7413025;1.5217133;-2.5335846;-;-;-;-;-;-;-;-;-;-;-;-;-;-;-
1513509941732;-;-;10.713348;1.2667236;-2.0224152;-;-;-;-;-;-;-;-;-;-;-;-;-;-;-
1513509941753;-;-;10.257248;1.8281708;-4.593796;-;-;-;-;-;-;-;-;-;-;-;-;-;-;-
1513509941773;-;-;7.4320984;0.90400696;-7.0873566;-;-;-;-;-;-;-;-;-;-;-;-;-;-;-
1513509941793;-;-;6.9891663;-1.7655334;-5.9572906;-;-;-;-;-;-;-;-;-;-;-;-;-;-;-
1513509941814;-;-;8.305969;-3.9310913;-2.8843231;-;-;-;-;-;-;-;-;-;-;-;-;-;-;-
1513509941835;-;-;10.781586;-3.8424988;-4.171219;-;-;-;-;-;-;-;-;-;-;-;-;-;-;-
1513509941855;-;-;16.72638;-5.1497345;-2.2366943;-;-;-;-;-;-;-;-;-;-;-;-;-;-;-
1513509941875;-;-;22.474854;-5.9793243;0.110809326;-;-;-;-;-;-;-;-;-;-;-;-;-;-;-
1513509941895;-;-;21.68956;-1.9642487;-1.2095795;-;-;-;-;-;-;-;-;-;-;-;-;-;-;-
1513509941916;-;-;14.948685;1.3361511;-0.8468628;-;-;-;-;-;-;-;-;-;-;-;-;-;-;-
1513509941936;-;-;10.71814;1.6689453;-1.3209229;-;-;-;-;-;-;-;-;-;-;-;-;-;-;-
1513509941957;-;-;6.2864685;1.1781464;-2.1193848;-;-;-;-;-;-;-;-;-;-;-;-;-;-;-
1513509941977;-;-;3.0076141;-0.028533936;-2.2438812;-;-;-;-;-;-;-;-;-;-;-;-;-;-;-
1513509941997;-;-;1.3508148;-1.0580444;-1.4238739;-;-;-;-;-;-;-;-;-;-;-;-;-;-;-
1513509942017;-;-;2.2031555;-1.4339294;-0.6481476;-;-;-;-;-;-;-;-;-;-;-;-;-;-;-
1513509942037;-;-;4.4920044;-0.8677063;0.072509766;-;-;-;-;-;-;-;-;-;-;-;-;-;-;-
1513509942058;-;-;5.7717133;-0.34576416;-0.44822693;-;-;-;-;-;-;-;-;-;-;-;-;-;-;-
1513509942078;-;-;5.414978;0.057647705;-0.9450226;-;-;-;-;-;-;-;-;-;-;-;-;-;-;-
1513509942098;-;-;5.3311768;-0.625885;-0.19085693;-;-;-;-;-;-;-;-;-;-;-;-;-;-;-
1513509942118;-;-;6.649185;-1.9833984;1.0086365;-;-;-;-;-;-;-;-;-;-;-;-;-;-;-
1513509942139;-;-;7.61644;-3.028473;1.1391296;-;-;-;-;-;-;-;-;-;-;-;-;-;-;-
1513509942159;-;-;8.831497;-2.3126068;-0.70680237;-;-;-;-;-;-;-;-;-;-;-;-;-;-;-
1513509942179;-;-;7.8546753;-1.0424805;-0.97135925;-;-;-;-;-;-;-;-;-;-;-;-;-;-;-
1513509942200;-;-;8.074936;-1.6553955;-0.4063263;-;-;-;-;-;-;-;-;-;-;-;-;-;-;-
1513509942220;-;-;7.10408;-2.8620758;-2.3384552;-;-;-;-;-;-;-;-;-;-;-;-;-;-;-
1513509942240;-;-;6.1667633;-2.0671997;-3.4637299;-;-;-;-;-;-;-;-;-;-;-;-;-;-;-
1513509942261;-;-;7.174713;-0.25120544;-7.505142;-;-;-;-;-;-;-;-;-;-;-;-;-;-;-
1513509942281;-;-;10.315903;1.9598389;-5.2533875;-;-;-;-;-;-;-;-;-;-;-;-;-;-;-
1513509942301;-;-;13.801865;2.725998;0.4807129;-;-;-;-;-;-;-;-;-;-;-;-;-;-;-
1513509942322;-;-;14.4375305;1.9897766;-0.05558777;-;-;-;-;-;-;-;-;-;-;-;-;-;-;-
1513509942341;-;-;19.25586;4.963379;-2.2498627;-;-;-;-;-;-;-;-;-;-;-;-;-;-;-
1513509942361;-;-;27.185455;8.261383;-5.2091064;-;-;-;-;-;-;-;-;-;-;-;-;-;-;-
1513509942381;-;-;18.064743;0.0037841797;-1.6525116;-;-;-;-;-;-;-;-;-;-;-;-;-;-;-
1513509942402;-;-;10.420059;-2.7842712;-0.2566986;-;-;-;-;-;-;-;-;-;-;-;-;-;-;-
1513509942421;-;-;6.005142;-2.985382;-0.27464294;-;-;-;-;-;-;-;-;-;-;-;-;-;-;-
1513509942441;-;-;3.734253;-1.5165405;0.15750122;-;-;-;-;-;-;-;-;-;-;-;-;-;-;-
1513509942461;-;-;2.9657135;0.32460022;0.48431396;-;-;-;-;-;-;-;-;-;-;-;-;-;-;-
1513509942482;-;-;3.0531006;1.0201263;0.5226135;-;-;-;-;-;-;-;-;-;-;-;-;-;-;-
1513509942503;-;-;3.3703308;0.32460022;1.0708923;-;-;-;-;-;-;-;-;-;-;-;-;-;-;-
1513509942523;-;-;3.8599396;-0.22605896;1.5054321;-;-;-;-;-;-;-;-;-;-;-;-;-;-;-
1513509942543;-;-;5.04747;-0.39604187;0.22453308;-;-;-;-;-;-;-;-;-;-;-;-;-;-;-
1513509942564;-;-;5.086975;0.02772522;-0.75349426;-;-;-;-;-;-;-;-;-;-;-;-;-;-;-
1513509942584;-;-;4.7721405;0.86569214;0.16708374;-;-;-;-;-;-;-;-;-;-;-;-;-;-;-
1513509942604;-;-;6.2230225;1.7946472;-0.19683838;-;-;-;-;-;-;-;-;-;-;-;-;-;-;-
1513509942624;-;-;6.7808685;2.1430054;-2.7083588;-;-;-;-;-;-;-;-;-;-;-;-;-;-;-
1513509942644;-;-;8.745316;1.8952026;-3.0698853;-;-;-;-;-;-;-;-;-;-;-;-;-;-;-
1513509942664;-;-;10.4535675;1.7299957;1.6610565;-;-;-;-;-;-;-;-;-;-;-;-;-;-;-
1513509942684;-;-;10.329071;3.541214;1.3605957;-;-;-;-;-;-;-;-;-;-;-;-;-;-;-
1513509942704;-;-;10.412872;3.8165436;-6.294876;-;-;-;-;-;-;-;-;-;-;-;-;-;-;-
1513509942724;-;-;9.650314;0.4299469;-13.317062;-;-;-;-;-;-;-;-;-;-;-;-;-;-;-
1513509942744;-;-;12.595184;-4.467392;-3.4948578;-;-;-;-;-;-;-;-;-;-;-;-;-;-;-
1513509942764;-;-;12.531738;-7.2338867;0.7907715;-;-;-;-;-;-;-;-;-;-;-;-;-;-;-
1513509942784;-;-;12.811859;-7.757019;-0.32014465;-;-;-;-;-;-;-;-;-;-;-;-;-;-;-
1513509942804;-;-;19.167267;-8.504013;2.2129211;-;-;-;-;-;-;-;-;-;-;-;-;-;-;-
1513509942825;-;-;23.001587;-3.7862396;-0.669693;-;-;-;-;-;-;-;-;-;-;-;-;-;-;-
1513509942845;-;-;15.407181;1.7084503;0.108428955;-;-;-;-;-;-;-;-;-;-;-;-;-;-;-
1513509942865;-;-;10.900085;3.2395477;-0.9629822;-;-;-;-;-;-;-;-;-;-;-;-;-;-;-
1513509942886;-;-;7.0023346;2.6900787;-1.9446106;-;-;-;-;-;-;-;-;-;-;-;-;-;-;-
1513509942906;-;-;4.09816;0.99139404;-2.115799;-;-;-;-;-;-;-;-;-;-;-;-;-;-;-
1513509942926;-;-;2.3563843;-1.1262817;-1.2526855;-;-;-;-;-;-;-;-;-;-;-;-;-;-;-
1513509942946;-;-;2.789734;-2.2132416;-0.04840088;-;-;-;-;-;-;-;-;-;-;-;-;-;-;-
1513509942967;-;-;4.106552;-1.1214905;0.40290833;-;-;-;-;-;-;-;-;-;-;-;-;-;-;-
1513509942986;-;-;5.055847;0.033706665;0.45318604;-;-;-;-;-;-;-;-;-;-;-;-;-;-;-
1513509943006;-;-;5.6172943;0.80345154;0.14193726;-;-;-;-;-;-;-;-;-;-;-;-;-;-;-
1513509943026;-;-;4.8403625;-0.19013977;-0.8061676;-;-;-;-;-;-;-;-;-;-;-;-;-;-;-
1513509943047;-;-;5.1719666;-1.8924255;-0.827713;-;-;-;-;-;-;-;-;-;-;-;-;-;-;-
1513509943067;-;-;6.633621;-2.6202545;-0.9761505;-;-;-;-;-;-;-;-;-;-;-;-;-;-;-
1513509943087;-;-;8.945221;-1.4878082;-0.104660034;-;-;-;-;-;-;-;-;-;-;-;-;-;-;-
1513509943108;-;-;10.308731;-0.74679565;0.7979584;-;-;-;-;-;-;-;-;-;-;-;-;-;-;-
1513509943129;-;-;10.2357025;-0.91200256;-0.6253967;-;-;-;-;-;-;-;-;-;-;-;-;-;-;-
1513509943149;-;-;6.4995575;-1.3297882;-3.7917328;-;-;-;-;-;-;-;-;-;-;-;-;-;-;-
1513509943169;-;-;5.319214;-1.8265839;-4.7829285;-;-;-;-;-;-;-;-;-;-;-;-;-;-;-
1513509943189;-;-;4.4788513;-1.1777496;-4.9996033;-;-;-;-;-;-;-;-;-;-;-;-;-;-;-
1513509943210;-;-;5.8112183;0.9782257;-2.7634277;-;-;-;-;-;-;-;-;-;-;-;-;-;-;-
1513509943230;-;-;6.7688904;2.4769897;-0.109451294;-;-;-;-;-;-;-;-;-;-;-;-;-;-;-
1513509943250;-;-;9.6862335;2.5164948;-2.2522583;-;-;-;-;-;-;-;-;-;-;-;-;-;-;-
1513509943271;-;-;18.038406;2.3189697;-2.16008;-;-;-;-;-;-;-;-;-;-;-;-;-;-;-
1513509943291;-;-;30.90364;3.2563019;-1.2610626;-;-;-;-;-;-;-;-;-;-;-;-;-;-;-
1513509943311;-;-;34.850494;0.13186646;-6.697098;-;-;-;-;-;-;-;-;-;-;-;-;-;-;-
1513509943331;-;-;17.065155;-1.6470184;-3.4038696;-;-;-;-;-;-;-;-;-;-;-;-;-;-;-
1513509943352;-;-;6.8215637;0.5556488;-1.432251;-;-;-;-;-;-;-;-;-;-;-;-;-;-;-
1513509943372;-;-;0.5415802;1.5911407;-1.6465302;-;-;-;-;-;-;-;-;-;-;-;-;-;-;-
1513509943393;-;-;-2.8593903;1.8880157;1.7676086;-;-;-;-;-;-;-;-;-;-;-;-;-;-;-
1513509943414;-;-;-2.056137;0.83218384;2.816269;-;-;-;-;-;-;-;-;-;-;-;-;-;-;-
1513509943434;-;-;2.9788818;-1.5081482;1.6155701;-;-;-;-;-;-;-;-;-;-;-;-;-;-;-
1513509943454;-;-;5.473633;-2.7543335;-0.2004242;-;-;-;-;-;-;-;-;-;-;-;-;-;-;-
1513509943474;-;-;7.6415863;-2.9362946;-0.3548584;-;-;-;-;-;-;-;-;-;-;-;-;-;-;-
1513509943495;-;-;6.6192627;-1.1657867;-0.5320282;-;-;-;-;-;-;-;-;-;-;-;-;-;-;-
1513509943516;-;-;6.4444885;0.82499695;-0.43026733;-;-;-;-;-;-;-;-;-;-;-;-;-;-;-
1513509943535;-;-;7.1088715;2.2220154;-1.516037;-;-;-;-;-;-;-;-;-;-;-;-;-;-;-
1513509943556;-;-;8.052185;2.2854614;-2.3564148;-;-;-;-;-;-;-;-;-;-;-;-;-;-;-
1513509943576;-;-;8.163513;1.4271393;-1.5304108;-;-;-;-;-;-;-;-;-;-;-;-;-;-;-
1513509943596;-;-;8.028244;1.7407837;-1.5052643;-;-;-;-;-;-;-;-;-;-;-;-;-;-;-
1513509943616;-;-;8.035431;2.2196198;-4.8451843;-;-;-;-;-;-;-;-;-;-;-;-;-;-;-
1513509943637;-;-;6.075775;0.9925842;-7.4165497;-;-;-;-;-;-;-;-;-;-;-;-;-;-;-
1513509943657;-;-;5.3311768;-1.7727203;-3.9246063;-;-;-;-;-;-;-;-;-;-;-;-;-;-;-
1513509943677;-;-;7.3662567;-3.313385;-2.2223358;-;-;-;-;-;-;-;-;-;-;-;-;-;-;-
1513509943698;-;-;9.685028;-2.969818;-4.250229;-;-;-;-;-;-;-;-;-;-;-;-;-;-;-
1513509943718;-;-;16.4738;-3.360077;-4.76976;-;-;-;-;-;-;-;-;-;-;-;-;-;-;-
1513509943738;-;-;30.300308;-5.610626;3.2855225;-;-;-;-;-;-;-;-;-;-;-;-;-;-;-
1513509943758;-;-;34.569168;-6.826874;-4.45253;-;-;-;-;-;-;-;-;-;-;-;-;-;-;-
1513509943779;-;-;19.465347;-0.54689026;-1.7171631;-;-;-;-;-;-;-;-;-;-;-;-;-;-;-
1513509943799;-;-;9.465973;1.2595367;1.9974518;-;-;-;-;-;-;-;-;-;-;-;-;-;-;-
1513509943819;-;-;5.1731567;0.5065613;-0.2866211;-;-;-;-;-;-;-;-;-;-;-;-;-;-;-
1513509943840;-;-;1.9314117;-0.19374084;-0.5834961;-;-;-;-;-;-;-;-;-;-;-;-;-;-;-
1513509943860;-;-;0.14892578;-1.210083;-1.8847504;-;-;-;-;-;-;-;-;-;-;-;-;-;-;-
1513509943880;-;-;0.14294434;-1.5488586;-2.6413116;-;-;-;-;-;-;-;-;-;-;-;-;-;-;-
1513509943901;-;-;3.3978577;-0.2859192;-1.5699158;-;-;-;-;-;-;-;-;-;-;-;-;-;-;-
1513509943922;-;-;6.260132;1.2523651;-0.2686615;-;-;-;-;-;-;-;-;-;-;-;-;-;-;-
1513509943942;-;-;5.8399506;1.3517151;-0.8887634;-;-;-;-;-;-;-;-;-;-;-;-;-;-;-
1513509943962;-;-;5.1803436;-0.34936523;-1.535202;-;-;-;-;-;-;-;-;-;-;-;-;-;-;-
1513509943983;-;-;5.241394;-2.159378;-1.4346466;-;-;-;-;-;-;-;-;-;-;-;-;-;-;-
1513509944003;-;-;5.8088226;-2.8082123;-0.047195435;-;-;-;-;-;-;-;-;-;-;-;-;-;-;-
1513509944023;-;-;6.2194214;-2.265915;0.35144043;-;-;-;-;-;-;-;-;-;-;-;-;-;-;-
1513509944044;-;-;7.5470123;-1.8062286;1.0936432;-;-;-;-;-;-;-;-;-;-;-;-;-;-;-
1513509944064;-;-;9.025436;-2.0193176;1.4695282;-;-;-;-;-;-;-;-;-;-;-;-;-;-;-
1513509944084;-;-;8.707001;-2.795044;-0.54519653;-;-;-;-;-;-;-;-;-;-;-;-;-;-;-
1513509944104;-;-;6.8515015;-3.3277435;-4.1388855;-;-;-;-;-;-;-;-;-;-;-;-;-;-;-
1513509944125;-;-;5.6831207;-1.8373566;-7.484787;-;-;-;-;-;-;-;-;-;-;-;-;-;-;-
1513509944145;-;-;7.319565;1.5444489;-7.1304474;-;-;-;-;-;-;-;-;-;-;-;-;-;-;-
1513509944165;-;-;12.145081;4.1086426;-1.0000916;-;-;-;-;-;-;-;-;-;-;-;-;-;-;-
1513509944186;-;-;14.421967;3.912323;0.43762207;-;-;-;-;-;-;-;-;-;-;-;-;-;-;-
1513509944206;-;-;16.722794;3.1270142;-4.258606;-;-;-;-;-;-;-;-;-;-;-;-;-;-;-
1513509944226;-;-;26.5905;4.447418;-6.619278;-;-;-;-;-;-;-;-;-;-;-;-;-;-;-
1513509944246;-;-;30.420013;1.4606476;-5.385071;-;-;-;-;-;-;-;-;-;-;-;-;-;-;-
1513509944266;-;-;16.184097;-1.175354;-2.2438812;-;-;-;-;-;-;-;-;-;-;-;-;-;-;-
1513509944286;-;-;8.369415;-1.6853333;-1.5076599;-;-;-;-;-;-;-;-;-;-;-;-;-;-;-
1513509944307;-;-;3.4481354;0.13186646;-1.7267303;-;-;-;-;-;-;-;-;-;-;-;-;-;-;-
1513509944327;-;-;-0.16351318;1.3146057;-1.1976166;-;-;-;-;-;-;-;-;-;-;-;-;-;-;-
1513509944347;-;-;-1.7472839;1.7599335;0.38494873;-;-;-;-;-;-;-;-;-;-;-;-;-;-;-
1513509944368;-;-;-0.76086426;1.1709595;0.58366394;-;-;-;-;-;-;-;-;-;-;-;-;-;-;-
1513509944387;-;-;1.6907959;-0.35534668;-0.040023804;-;-;-;-;-;-;-;-;-;-;-;-;-;-;-
1513509944407;-;-;5.1121063;-1.9355164;-0.14297485;-;-;-;-;-;-;-;-;-;-;-;-;-;-;-
1513509944427;-;-;7.5039215;-2.4047852;-0.20162964;-;-;-;-;-;-;-;-;-;-;-;-;-;-;-
1513509944448;-;-;7.8558655;-1.6685638;-0.20402527;-;-;-;-;-;-;-;-;-;-;-;-;-;-;-
1513509944468;-;-;7.2273865;-1.0855713;-0.43026733;-;-;-;-;-;-;-;-;-;-;-;-;-;-;-
1513509944488;-;-;7.1399994;-1.443512;-1.8919373;-;-;-;-;-;-;-;-;-;-;-;-;-;-;-
1513509944508;-;-;7.2992096;-1.2591553;-2.4246368;-;-;-;-;-;-;-;-;-;-;-;-;-;-;-
1513509944529;-;-;8.351471;0.5376892;-1.3592224;-;-;-;-;-;-;-;-;-;-;-;-;-;-;-
1513509944549;-;-;8.692642;3.8105621;-1.6154022;-;-;-;-;-;-;-;-;-;-;-;-;-;-;-
1513509944570;-;-;8.110855;5.584671;-3.001648;-;-;-;-;-;-;-;-;-;-;-;-;-;-;-
1513509944590;-;-;6.8203735;4.647339;-5.946518;-;-;-;-;-;-;-;-;-;-;-;-;-;-;-
1513509944610;-;-;6.798828;0.8621063;-9.43367;-;-;-;-;-;-;-;-;-;-;-;-;-;-;-
1513509944630;-;-;9.304352;-2.7351837;-6.248184;-;-;-;-;-;-;-;-;-;-;-;-;-;-;-
1513509944651;-;-;14.005371;-3.895172;-7.7170258;-;-;-;-;-;-;-;-;-;-;-;-;-;-;-
1513509944671;-;-;24.98877;-6.8101196;-4.5506897;-;-;-;-;-;-;-;-;-;-;-;-;-;-;-
1513509944691;-;-;33.923935;-9.883072;-5.367111;-;-;-;-;-;-;-;-;-;-;-;-;-;-;-
1513509944712;-;-;23.833572;-3.1302338;-4.191559;-;-;-;-;-;-;-;-;-;-;-;-;-;-;-
1513509944732;-;-;12.797501;1.3840332;-0.6625061;-;-;-;-;-;-;-;-;-;-;-;-;-;-;-
1513509944752;-;-;5.564621;1.3349609;0.59085083;-;-;-;-;-;-;-;-;-;-;-;-;-;-;-
1513509944772;-;-;0.7905731;-1.234024;-0.120224;-;-;-;-;-;-;-;-;-;-;-;-;-;-;-
1513509944793;-;-;-1.776001;-3.1601563;-1.2993622;-;-;-;-;-;-;-;-;-;-;-;-;-;-;-
1513509944813;-;-;1.6165771;-3.146988;-2.1469116;-;-;-;-;-;-;-;-;-;-;-;-;-;-;-
1513509944833;-;-;6.163162;-1.3321838;-2.3157043;-;-;-;-;-;-;-;-;-;-;-;-;-;-;-
1513509944854;-;-;7.683487;0.5352936;-2.3600006;-;-;-;-;-;-;-;-;-;-;-;-;-;-;-
1513509944874;-;-;7.0933075;1.0416718;-2.0343933;-;-;-;-;-;-;-;-;-;-;-;-;-;-;-
1513509944894;-;-;6.043457;0.55085754;-2.0260162;-;-;-;-;-;-;-;-;-;-;-;-;-;-;-
1513509944914;-;-;5.644821;-0.8317871;-2.1828308;-;-;-;-;-;-;-;-;-;-;-;-;-;-;-
1513509944935;-;-;4.624893;-2.329361;-2.603012;-;-;-;-;-;-;-;-;-;-;-;-;-;-;-
1513509944954;-;-;3.521164;-2.8764343;-1.9733429;-;-;-;-;-;-;-;-;-;-;-;-;-;-;-
1513509944974;-;-;4.39505;-1.6147003;-0.085510254;-;-;-;-;-;-;-;-;-;-;-;-;-;-;-
1513509944995;-;-;6.7581177;-0.40203857;2.014206;-;-;-;-;-;-;-;-;-;-;-;-;-;-;-
1513509945015;-;-;6.905365;-1.155014;0.30116272;-;-;-;-;-;-;-;-;-;-;-;-;-;-;-
1513509945035;-;-;7.6104584;-2.4921722;-0.30577087;-;-;-;-;-;-;-;-;-;-;-;-;-;-;-
1513509945055;-;-;9.013458;-3.0033417;-0.7953949;-;-;-;-;-;-;-;-;-;-;-;-;-;-;-
1513509945076;-;-;10.138733;-1.6386414;-1.9529877;-;-;-;-;-;-;-;-;-;-;-;-;-;-;-
1513509945096;-;-;8.010284;-0.7408142;-7.9803925;-;-;-;-;-;-;-;-;-;-;-;-;-;-;-
1513509945116;-;-;9.9388275;0.27552795;-7.859482;-;-;-;-;-;-;-;-;-;-;-;-;-;-;-
1513509945137;-;-;11.621948;1.3517151;-2.1505127;-;-;-;-;-;-;-;-;-;-;-;-;-;-;-
1513509945156;-;-;11.644684;2.0998993;-0.67807007;-;-;-;-;-;-;-;-;-;-;-;-;-;-;-
1513509945176;-;-;13.985016;3.0084991;-3.4828796;-;-;-;-;-;-;-;-;-;-;-;-;-;-;-
1513509945196;-;-;26.038635;6.5866394;-2.8352509;-;-;-;-;-;-;-;-;-;-;-;-;-;-;-
1513509945217;-;-;22.875885;1.9706268;-3.2793732;-;-;-;-;-;-;-;-;-;-;-;-;-;-;-
1513509945237;-;-;14.590759;-2.0851593;-1.0814972;-;-;-;-;-;-;-;-;-;-;-;-;-;-;-
1513509945257;-;-;8.224579;-3.3552856;-2.0248108;-;-;-;-;-;-;-;-;-;-;-;-;-;-;-
1513509945277;-;-;3.861145;-2.3712616;-2.0619202;-;-;-;-;-;-;-;-;-;-;-;-;-;-;-
1513509945298;-;-;2.2498474;-0.5097656;-1.2012024;-;-;-;-;-;-;-;-;-;-;-;-;-;-;-
1513509945318;-;-;1.5243988;0.91238403;-1.729126;-;-;-;-;-;-;-;-;-;-;-;-;-;-;-
1513509945338;-;-;1.9278259;1.185318;-1.0419922;-;-;-;-;-;-;-;-;-;-;-;-;-;-;-
1513509945359;-;-;3.3009033;-0.038116455;0.41726685;-;-;-;-;-;-;-;-;-;-;-;-;-;-;-
1513509945379;-;-;4.7685394;-0.92277527;-0.09269714;-;-;-;-;-;-;-;-;-;-;-;-;-;-;-
1513509945399;-;-;6.4875793;-1.0783997;-1.2371216;-;-;-;-;-;-;-;-;-;-;-;-;-;-;-
1513509945420;-;-;7.3387146;-0.0069885254;-1.7398987;-;-;-;-;-;-;-;-;-;-;-;-;-;-;-
1513509945439;-;-;8.141968;1.0883636;-1.0000916;-;-;-;-;-;-;-;-;-;-;-;-;-;-;-
1513509945459;-;-;9.884949;1.209259;0.65789795;-;-;-;-;-;-;-;-;-;-;-;-;-;-;-
1513509945479;-;-;10.594833;0.3964386;0.8614044;-;-;-;-;-;-;-;-;-;-;-;-;-;-;-
1513509945499;-;-;9.856216;-0.66778564;-1.8979187;-;-;-;-;-;-;-;-;-;-;-;-;-;-;-
1513509945520;-;-;8.83989;-0.21528625;-3.6480865;-;-;-;-;-;-;-;-;-;-;-;-;-;-;-
1513509945539;-;-;7.530258;1.635437;-1.6405487;-;-;-;-;-;-;-;-;-;-;-;-;-;-;-
1513509945559;-;-;6.2325897;2.8301392;-1.1928253;-;-;-;-;-;-;-;-;-;-;-;-;-;-;-
1513509945580;-;-;6.3606873;0.6322632;-5.4892273;-;-;-;-;-;-;-;-;-;-;-;-;-;-;-
1513509945599;-;-;9.340271;-2.309021;-9.613235;-;-;-;-;-;-;-;-;-;-;-;-;-;-;-
1513509945619;-;-;14.805038;-3.8041992;-7.013138;-;-;-;-;-;-;-;-;-;-;-;-;-;-;-
1513509945639;-;-;19.142136;-3.5959015;-2.8927155;-;-;-;-;-;-;-;-;-;-;-;-;-;-;-
1513509945660;-;-;23.983215;-4.764267;-4.057495;-;-;-;-;-;-;-;-;-;-;-;-;-;-;-
1513509945680;-;-;22.691544;-5.2610626;-5.171997;-;-;-;-;-;-;-;-;-;-;-;-;-;-;-
1513509945700;-;-;16.085938;-1.7272186;-3.3751373;-;-;-;-;-;-;-;-;-;-;-;-;-;-;-
1513509945720;-;-;9.898117;-0.097976685;-2.6724396;-;-;-;-;-;-;-;-;-;-;-;-;-;-;-
1513509945741;-;-;5.455673;0.7411957;-2.7239227;-;-;-;-;-;-;-;-;-;-;-;-;-;-;-
1513509945761;-;-;2.9824677;-0.081207275;-2.4821014;-;-;-;-;-;-;-;-;-;-;-;-;-;-;-
1513509945781;-;-;2.6065826;-1.8792572;-2.4222565;-;-;-;-;-;-;-;-;-;-;-;-;-;-;-
1513509945802;-;-;5.12648;-2.427536;-2.2295227;-;-;-;-;-;-;-;-;-;-;-;-;-;-;-
1513509945822;-;-;6.5953217;-2.1462097;-2.5455475;-;-;-;-;-;-;-;-;-;-;-;-;-;-;-
1513509945842;-;-;7.240555;-2.0372772;-2.1110077;-;-;-;-;-;-;-;-;-;-;-;-;-;-;-
1513509945863;-;-;6.4061737;-1.7571564;-1.3951416;-;-;-;-;-;-;-;-;-;-;-;-;-;-;-
1513509945883;-;-;6.415756;-1.2016907;-0.89234924;-;-;-;-;-;-;-;-;-;-;-;-;-;-;-
1513509945903;-;-;6.474411;-1.091568;-0.2794342;-;-;-;-;-;-;-;-;-;-;-;-;-;-;-
1513509945923;-;-;7.447647;-2.2240143;0.9775238;-;-;-;-;-;-;-;-;-;-;-;-;-;-;-
1513509945944;-;-;8.393356;-3.6940613;0.79556274;-;-;-;-;-;-;-;-;-;-;-;-;-;-;-
1513509945963;-;-;10.210556;-4.561966;-0.6002655;-;-;-;-;-;-;-;-;-;-;-;-;-;-;-
1513509945983;-;-;10.615189;-4.3045807;-1.0276337;-;-;-;-;-;-;-;-;-;-;-;-;-;-;-
1513509946003;-;-;12.073257;-3.3277435;-0.26986694;-;-;-;-;-;-;-;-;-;-;-;-;-;-;-
1513509946023;-;-;12.650253;-1.1238861;0.78118896;-;-;-;-;-;-;-;-;-;-;-;-;-;-;-
1513509946043;-;-;9.947205;-0.34936523;-3.725891;-;-;-;-;-;-;-;-;-;-;-;-;-;-;-
1513509946064;-;-;8.42569;-1.9031982;-11.302338;-;-;-;-;-;-;-;-;-;-;-;-;-;-;-
1513509946084;-;-;10.16507;-1.7499695;-9.070953;-;-;-;-;-;-;-;-;-;-;-;-;-;-;-
1513509946104;-;-;11.03537;-0.74679565;-4.307678;-;-;-;-;-;-;-;-;-;-;-;-;-;-;-
1513509946124;-;-;10.332672;1.0751953;-2.8783417;-;-;-;-;-;-;-;-;-;-;-;-;-;-;-
1513509946145;-;-;10.240494;0.44911194;-3.1213531;-;-;-;-;-;-;-;-;-;-;-;-;-;-;-
1513509946165;-;-;10.944382;-2.676529;-3.7558136;-;-;-;-;-;-;-;-;-;-;-;-;-;-;-
1513509946185;-;-;11.820663;-5.8524323;-3.5630798;-;-;-;-;-;-;-;-;-;-;-;-;-;-;-
1513509946206;-;-;10.76123;-4.056778;-3.1584625;-;-;-;-;-;-;-;-;-;-;-;-;-;-;-
1513509946226;-;-;8.812347;-1.2112732;-3.724701;-;-;-;-;-;-;-;-;-;-;-;-;-;-;-
1513509946246;-;-;7.383011;0.3138275;-3.856369;-;-;-;-;-;-;-;-;-;-;-;-;-;-;-
1513509946266;-;-;6.1332397;1.3816528;-3.9210205;-;-;-;-;-;-;-;-;-;-;-;-;-;-;-
1513509946287;-;-;5.3216095;2.0101166;-3.7618103;-;-;-;-;-;-;-;-;-;-;-;-;-;-;-
1513509946307;-;-;4.7888947;2.3620758;-3.1644592;-;-;-;-;-;-;-;-;-;-;-;-;-;-;-
1513509946327;-;-;4.521942;2.1908875;-2.3480225;-;-;-;-;-;-;-;-;-;-;-;-;-;-;-
1513509946348;-;-;5.873459;2.2662964;-2.036789;-;-;-;-;-;-;-;-;-;-;-;-;-;-;-
1513509946368;-;-;7.858261;3.0731506;-2.388733;-;-;-;-;-;-;-;-;-;-;-;-;-;-;-
1513509946388;-;-;8.8602295;3.7207794;-3.0004425;-;-;-;-;-;-;-;-;-;-;-;-;-;-;-
1513509946408;-;-;7.2836456;3.117447;-2.3252869;-;-;-;-;-;-;-;-;-;-;-;-;-;-;-
1513509946429;-;-;5.818405;0.9566803;-1.471756;-;-;-;-;-;-;-;-;-;-;-;-;-;-;-
1513509946449;-;-;6.181122;-0.02015686;-1.1186066;-;-;-;-;-;-;-;-;-;-;-;-;-;-;-
1513509946469;-;-;7.5470123;0.68733215;-1.7339172;-;-;-;-;-;-;-;-;-;-;-;-;-;-;-
1513509946490;-;-;9.6467285;1.0524445;-2.9106598;-;-;-;-;-;-;-;-;-;-;-;-;-;-;-
1513509946509;-;-;11.653076;1.5971222;-2.1732483;-;-;-;-;-;-;-;-;-;-;-;-;-;-;-
1513509946530;-;-;10.411682;1.3972015;-3.551117;-;-;-;-;-;-;-;-;-;-;-;-;-;-;-
1513509946550;-;-;8.72377;-0.5744171;-11.485504;-;-;-;-;-;-;-;-;-;-;-;-;-;-;-
1513509946570;-;-;12.91481;-5.1305847;-3.808487;-;-;-;-;-;-;-;-;-;-;-;-;-;-;-
1513509946590;-;-;15.749542;-9.828003;-4.006012;-;-;-;-;-;-;-;-;-;-;-;-;-;-;-
1513509946611;-;-;13.6510315;-6.764618;-4.6249084;-;-;-;-;-;-;-;-;-;-;-;-;-;-;-
1513509946631;-;-;11.17543;-2.6717377;-5.7226563;-;-;-;-;-;-;-;-;-;-;-;-;-;-;-
1513509946651;-;-;10.084869;0.6166992;-5.2725525;-;-;-;-;-;-;-;-;-;-;-;-;-;-;-
1513509946672;-;-;8.532227;1.4127655;-5.334793;-;-;-;-;-;-;-;-;-;-;-;-;-;-;-
1513509946693;-;-;7.7529144;0.4945984;-3.2015686;-;-;-;-;-;-;-;-;-;-;-;-;-;-;-
1513509946713;-;-;7.9935303;-0.81503296;-2.2750092;-;-;-;-;-;-;-;-;-;-;-;-;-;-;-
1513509946734;-;-;7.530258;-1.8756714;-2.9729156;-;-;-;-;-;-;-;-;-;-;-;-;-;-;-
1513509946754;-;-;5.9632416;-2.5963135;-2.053543;-;-;-;-;-;-;-;-;-;-;-;-;-;-;-
1513509946774;-;-;4.035919;-3.218811;-1.3903503;-;-;-;-;-;-;-;-;-;-;-;-;-;-;-
1513509946795;-;-;3.3284302;-3.3660583;-1.3628082;-;-;-;-;-;-;-;-;-;-;-;-;-;-;-
1513509946815;-;-;3.24823;-2.1521912;-2.4952698;-;-;-;-;-;-;-;-;-;-;-;-;-;-;-
1513509946835;-;-;4.782913;-0.12669373;-2.6113892;-;-;-;-;-;-;-;-;-;-;-;-;-;-;-
1513509946855;-;-;7.4404755;1.6091003;-2.8927155;-;-;-;-;-;-;-;-;-;-;-;-;-;-;-
1513509946876;-;-;10.058533;1.8365479;-3.0148163;-;-;-;-;-;-;-;-;-;-;-;-;-;-;-
1513509946896;-;-;11.0030365;1.0189209;-2.467743;-;-;-;-;-;-;-;-;-;-;-;-;-;-;-
1513509946916;-;-;12.470688;-0.4918213;-1.2538757;-;-;-;-;-;-;-;-;-;-;-;-;-;-;-
1513509946937;-;-;12.837006;-2.210846;-0.022064209;-;-;-;-;-;-;-;-;-;-;-;-;-;-;-
1513509946957;-;-;11.675812;-3.8664398;-0.22198486;-;-;-;-;-;-;-;-;-;-;-;-;-;-;-
1513509946978;-;-;10.264435;-4.5571747;-0.52005005;-;-;-;-;-;-;-;-;-;-;-;-;-;-;-
1513509946998;-;-;8.777634;-3.4366913;-1.1497345;-;-;-;-;-;-;-;-;-;-;-;-;-;-;-
1513509947018;-;-;7.4656067;-3.0775604;-6.784485;-;-;-;-;-;-;-;-;-;-;-;-;-;-;-
1513509947038;-;-;6.498352;-3.957428;-10.2261505;-;-;-;-;-;-;-;-;-;-;-;-;-;-;-
1513509947059;-;-;9.343857;-2.8560944;-7.204666;-;-;-;-;-;-;-;-;-;-;-;-;-;-;-
1513509947079;-;-;12.57843;0.47782898;-3.1943817;-;-;-;-;-;-;-;-;-;-;-;-;-;-;-
1513509947099;-;-;10.60202;2.5188904;-6.377472;-;-;-;-;-;-;-;-;-;-;-;-;-;-;-
1513509947120;-;-;10.619965;2.205246;-7.37825;-;-;-;-;-;-;-;-;-;-;-;-;-;-;-
1513509947140;-;-;11.614761;1.0476532;-4.68956;-;-;-;-;-;-;-;-;-;-;-;-;-;-;-
1513509947160;-;-;11.305908;-0.22964478;-2.7598267;-;-;-;-;-;-;-;-;-;-;-;-;-;-;-
1513509947180;-;-;9.181061;-0.3146515;-2.278595;-;-;-;-;-;-;-;-;-;-;-;-;-;-;-
1513509947201;-;-;7.2082367;-1.1023407;-2.242691;-;-;-;-;-;-;-;-;-;-;-;-;-;-;-
1513509947221;-;-;5.7453766;-1.0592499;-2.5144196;-;-;-;-;-;-;-;-;-;-;-;-;-;-;-
1513509947241;-;-;5.399414;-0.36372375;-2.3372498;-;-;-;-;-;-;-;-;-;-;-;-;-;-;-
1513509947262;-;-;5.806427;0.44311523;-1.9685516;-;-;-;-;-;-;-;-;-;-;-;-;-;-;-
1513509947282;-;-;6.170349;0.62028503;-1.6788483;-;-;-;-;-;-;-;-;-;-;-;-;-;-;-
1513509947302;-;-;6.6707306;0.08039856;-1.2526855;-;-;-;-;-;-;-;-;-;-;-;-;-;-;-
1513509947322;-;-;7.228592;-0.46548462;-0.99890137;-;-;-;-;-;-;-;-;-;-;-;-;-;-;-
1513509947343;-;-;7.1914673;-0.40322876;-1.832077;-;-;-;-;-;-;-;-;-;-;-;-;-;-;-
1513509947363;-;-;6.636017;0.556839;-2.4270325;-;-;-;-;-;-;-;-;-;-;-;-;-;-;-
1513509947383;-;-;5.0223236;1.3361511;-1.8883362;-;-;-;-;-;-;-;-;-;-;-;-;-;-;-
1513509947404;-;-;4.0502777;1.3505249;-0.50927734;-;-;-;-;-;-;-;-;-;-;-;-;-;-;-
1513509947423;-;-;4.5710144;0.7986603;0.16827393;-;-;-;-;-;-;-;-;-;-;-;-;-;-;-
1513509947443;-;-;6.4085693;0.15222168;-0.6373749;-;-;-;-;-;-;-;-;-;-;-;-;-;-;-
1513509947464;-;-;7.236969;-0.25837708;-2.508438;-;-;-;-;-;-;-;-;-;-;-;-;-;-;-
1513509947484;-;-;8.649536;-0.15184021;-3.1476898;-;-;-;-;-;-;-;-;-;-;-;-;-;-;-
1513509947504;-;-;8.836288;0.9195709;-3.5140076;-;-;-;-;-;-;-;-;-;-;-;-;-;-;-
1513509947525;-;-;9.635956;1.8952026;-1.7973633;-;-;-;-;-;-;-;-;-;-;-;-;-;-;-
1513509947545;-;-;9.702988;1.4798126;-1.8464508;-;-;-;-;-;-;-;-;-;-;-;-;-;-;-
1513509947565;-;-;9.797562;0.16539001;-1.4178772;-;-;-;-;-;-;-;-;-;-;-;-;-;-;-
1513509947585;-;-;9.056564;-0.32182312;-2.342041;-;-;-;-;-;-;-;-;-;-;-;-;-;-;-
1513509947605;-;-;7.621231;-0.41160583;-4.8619385;-;-;-;-;-;-;-;-;-;-;-;-;-;-;-
1513509947626;-;-;6.1452026;-1.585968;-7.9839783;-;-;-;-;-;-;-;-;-;-;-;-;-;-;-
1513509947646;-;-;9.230133;-3.6761017;-7.330368;-;-;-;-;-;-;-;-;-;-;-;-;-;-;-
1513509947666;-;-;12.956711;-3.893982;-2.9429932;-;-;-;-;-;-;-;-;-;-;-;-;-;-;-
1513509947687;-;-;14.857712;-2.063614;-3.8851013;-;-;-;-;-;-;-;-;-;-;-;-;-;-;-
1513509947707;-;-;15.848907;0.36650085;-4.578232;-;-;-;-;-;-;-;-;-;-;-;-;-;-;-
1513509947727;-;-;17.664917;-3.0596008;-1.7063904;-;-;-;-;-;-;-;-;-;-;-;-;-;-;-
1513509947748;-;-;17.482956;-4.8229218;-2.309723;-;-;-;-;-;-;-;-;-;-;-;-;-;-;-
1513509947767;-;-;12.628708;-3.163742;-0.8468628;-;-;-;-;-;-;-;-;-;-;-;-;-;-;-
1513509947787;-;-;8.282028;-1.6925049;-0.19204712;-;-;-;-;-;-;-;-;-;-;-;-;-;-;-
1513509947807;-;-;3.7019196;0.06124878;-0.7738342;-;-;-;-;-;-;-;-;-;-;-;-;-;-;-
1513509947828;-;-;0.6648865;0.8309784;-1.1197968;-;-;-;-;-;-;-;-;-;-;-;-;-;-;-
1513509947848;-;-;0.5894623;-0.009384155;-1.6992035;-;-;-;-;-;-;-;-;-;-;-;-;-;-;-
1513509947868;-;-;3.3739166;-1.0005798;-1.5519562;-;-;-;-;-;-;-;-;-;-;-;-;-;-;-
1513509947889;-;-;6.9556427;-0.9766388;-1.832077;-;-;-;-;-;-;-;-;-;-;-;-;-;-;-
1513509947908;-;-;7.699051;-0.65582275;-2.0475616;-;-;-;-;-;-;-;-;-;-;-;-;-;-;-
1513509947928;-;-;5.981201;0.83576965;-2.3085175;-;-;-;-;-;-;-;-;-;-;-;-;-;-;-
1513509947948;-;-;4.304062;0.6178894;-0.9043274;-;-;-;-;-;-;-;-;-;-;-;-;-;-;-
1513509947969;-;-;4.640457;-0.19972229;0.20658875;-;-;-;-;-;-;-;-;-;-;-;-;-;-;-
1513509947989;-;-;7.198654;-0.83299255;1.2743988;-;-;-;-;-;-;-;-;-;-;-;-;-;-;-
1513509948009;-;-;9.426468;-1.2411957;1.1080017;-;-;-;-;-;-;-;-;-;-;-;-;-;-;-
1513509948030;-;-;9.384567;-2.8285522;-1.3664093;-;-;-;-;-;-;-;-;-;-;-;-;-;-;-
1513509948051;-;-;8.2712555;-5.463379;-2.9238281;-;-;-;-;-;-;-;-;-;-;-;-;-;-;-
1513509948071;-;-;6.536667;-4.5930786;-6.5414734;-;-;-;-;-;-;-;-;-;-;-;-;-;-;-
1513509948091;-;-;8.519058;1.2834778;-6.2888794;-;-;-;-;-;-;-;-;-;-;-;-;-;-;-
1513509948111;-;-;10.945587;4.358841;-1.3005676;-;-;-;-;-;-;-;-;-;-;-;-;-;-;-
1513509948132;-;-;11.123947;5.3656006;-5.946518;-;-;-;-;-;-;-;-;-;-;-;-;-;-;-
1513509948152;-;-;18.933838;7.662842;-9.422897;-;-;-;-;-;-;-;-;-;-;-;-;-;-;-
1513509948173;-;-;29.40129;2.4566498;-4.4656982;-;-;-;-;-;-;-;-;-;-;-;-;-;-;-
1513509948192;-;-;21.544708;-5.0300293;-1.0886841;-;-;-;-;-;-;-;-;-;-;-;-;-;-;-
1513509948212;-;-;13.206909;-4.5248566;-2.579071;-;-;-;-;-;-;-;-;-;-;-;-;-;-;-
1513509948233;-;-;6.96402;-1.1609955;-3.1213531;-;-;-;-;-;-;-;-;-;-;-;-;-;-;-
1513509948252;-;-;3.3583527;3.0803375;-1.9350281;-;-;-;-;-;-;-;-;-;-;-;-;-;-;-
1513509948272;-;-;2.6939697;4.9705505;-0.7953949;-;-;-;-;-;-;-;-;-;-;-;-;-;-;-
1513509948292;-;-;4.4082184;2.9378815;-0.11663818;-;-;-;-;-;-;-;-;-;-;-;-;-;-;-
1513509948313;-;-;5.3730774;-1.0029755;1.6299438;-;-;-;-;-;-;-;-;-;-;-;-;-;-;-
1513509948333;-;-;5.8327637;-4.2722626;2.4906464;-;-;-;-;-;-;-;-;-;-;-;-;-;-;-
1513509948353;-;-;6.0542297;-5.0300293;-0.26268005;-;-;-;-;-;-;-;-;-;-;-;-;-;-;-
1513509948374;-;-;6.1356354;-2.8620758;-2.270218;-;-;-;-;-;-;-;-;-;-;-;-;-;-;-
1513509948394;-;-;4.975647;-0.83657837;-1.6920166;-;-;-;-;-;-;-;-;-;-;-;-;-;-;-
1513509948415;-;-;4.6572113;0.8740692;1.4288177;-;-;-;-;-;-;-;-;-;-;-;-;-;-;-
1513509948435;-;-;5.960861;2.0687866;0.023422241;-;-;-;-;-;-;-;-;-;-;-;-;-;-;-
1513509948455;-;-;8.990723;2.0615997;-5.812439;-;-;-;-;-;-;-;-;-;-;-;-;-;-;-
1513509948475;-;-;7.9755707;1.6701508;-4.484848;-;-;-;-;-;-;-;-;-;-;-;-;-;-;-
1513509948496;-;-;6.6216583;1.288269;-0.45541382;-;-;-;-;-;-;-;-;-;-;-;-;-;-;-
1513509948516;-;-;6.03508;2.236374;-1.2443085;-;-;-;-;-;-;-;-;-;-;-;-;-;-;-
1513509948536;-;-;5.7058716;2.189682;-7.936096;-;-;-;-;-;-;-;-;-;-;-;-;-;-;-
1513509948557;-;-;7.1016846;0.14503479;-13.182983;-;-;-;-;-;-;-;-;-;-;-;-;-;-;-
1513509948578;-;-;12.02298;-3.3229675;-2.6006165;-;-;-;-;-;-;-;-;-;-;-;-;-;-;-
1513509948598;-;-;17.789413;-6.547943;-6.8862457;-;-;-;-;-;-;-;-;-;-;-;-;-;-;-
1513509948618;-;-;28.800339;-9.64006;-0.54878235;-;-;-;-;-;-;-;-;-;-;-;-;-;-;-
1513509948639;-;-;30.80429;-6.0188293;-5.2210693;-;-;-;-;-;-;-;-;-;-;-;-;-;-;-
1513509948659;-;-;18.698013;-1.1885223;-2.223526;-;-;-;-;-;-;-;-;-;-;-;-;-;-;-
1513509948679;-;-;10.106415;0.1725769;2.1111755;-;-;-;-;-;-;-;-;-;-;-;-;-;-;-
1513509948700;-;-;3.9617004;0.3461609;-0.16331482;-;-;-;-;-;-;-;-;-;-;-;-;-;-;-
1513509948719;-;-;0.466156;-0.069244385;-0.70680237;-;-;-;-;-;-;-;-;-;-;-;-;-;-;-
1513509948739;-;-;0.89712524;-0.97065735;-1.4849243;-;-;-;-;-;-;-;-;-;-;-;-;-;-;-
1513509948760;-;-;4.1795654;-1.427948;-2.0894623;-;-;-;-;-;-;-;-;-;-;-;-;-;-;-
1513509948780;-;-;6.343933;-0.0069885254;-2.5168152;-;-;-;-;-;-;-;-;-;-;-;-;-;-;-
1513509948800;-;-;5.8171997;0.7519684;-1.8224945;-;-;-;-;-;-;-;-;-;-;-;-;-;-;-
1513509948821;-;-;4.96846;0.50297546;-1.2682495;-;-;-;-;-;-;-;-;-;-;-;-;-;-;-
1513509948840;-;-;4.683548;-0.38049316;-1.4693604;-;-;-;-;-;-;-;-;-;-;-;-;-;-;-
1513509948860;-;-;5.051056;-1.6039276;-0.9845276;-;-;-;-;-;-;-;-;-;-;-;-;-;-;-
1513509948881;-;-;5.497574;-2.4861908;-0.8564453;-;-;-;-;-;-;-;-;-;-;-;-;-;-;-
1513509948900;-;-;6.750946;-2.9901733;-0.36802673;-;-;-;-;-;-;-;-;-;-;-;-;-;-;-
1513509948920;-;-;7.0777435;-2.1497955;-0.41949463;-;-;-;-;-;-;-;-;-;-;-;-;-;-;-
1513509948941;-;-;7.174713;-0.10635376;0.19700623;-;-;-;-;-;-;-;-;-;-;-;-;-;-;-
1513509948960;-;-;7.640381;0.22045898;1.4312134;-;-;-;-;-;-;-;-;-;-;-;-;-;-;-
1513509948980;-;-;7.7265778;-1.0891724;-1.8823547;-;-;-;-;-;-;-;-;-;-;-;-;-;-;-
1513509949000;-;-;6.1835175;-2.1521912;-5.875885;-;-;-;-;-;-;-;-;-;-;-;-;-;-;-
1513509949021;-;-;5.6615753;-0.16500854;-7.8702545;-;-;-;-;-;-;-;-;-;-;-;-;-;-;-
1513509949041;-;-;8.88298;2.6338196;-5.9022217;-;-;-;-;-;-;-;-;-;-;-;-;-;-;-
1513509949061;-;-;13.349365;2.4937592;-1.8584137;-;-;-;-;-;-;-;-;-;-;-;-;-;-;-
1513509949082;-;-;17.626602;0.22644043;-3.519989;-;-;-;-;-;-;-;-;-;-;-;-;-;-;-
1513509949102;-;-;21.577042;-2.4861908;-3.4457703;-;-;-;-;-;-;-;-;-;-;-;-;-;-;-
1513509949123;-;-;24.675125;-0.92037964;-3.7031403;-;-;-;-;-;-;-;-;-;-;-;-;-;-;-
1513509949143;-;-;19.710754;-0.5744171;-2.820877;-;-;-;-;-;-;-;-;-;-;-;-;-;-;-
1513509949164;-;-;10.685806;-0.3936615;-0.2578888;-;-;-;-;-;-;-;-;-;-;-;-;-;-;-
1513509949183;-;-;3.968872;1.2068634;0.5118408;-;-;-;-;-;-;-;-;-;-;-;-;-;-;-
1513509949204;-;-;0.016052246;2.6529694;-1.531601;-;-;-;-;-;-;-;-;-;-;-;-;-;-;-
1513509949224;-;-;0.30455017;2.8061981;-2.3923187;-;-;-;-;-;-;-;-;-;-;-;-;-;-;-
1513509949244;-;-;3.952118;2.4865723;-2.342041;-;-;-;-;-;-;-;-;-;-;-;-;-;-;-
1513509949264;-;-;7.119644;1.477417;-1.0946655;-;-;-;-;-;-;-;-;-;-;-;-;-;-;-
1513509949284;-;-;8.173096;-0.38168335;-0.3620453;-;-;-;-;-;-;-;-;-;-;-;-;-;-;-
1513509949305;-;-;7.4560394;-2.2970428;-1.1066284;-;-;-;-;-;-;-;-;-;-;-;-;-;-;-
1513509949325;-;-;6.1368256;-2.7064514;-1.6070251;-;-;-;-;-;-;-;-;-;-;-;-;-;-;-
1513509949345;-;-;4.272949;-1.5763855;-0.61343384;-;-;-;-;-;-;-;-;-;-;-;-;-;-;-
1513509949366;-;-;3.806076;-0.23443604;0.9451904;-;-;-;-;-;-;-;-;-;-;-;-;-;-;-
1513509949386;-;-;6.4995575;0.99497986;0.5489502;-;-;-;-;-;-;-;-;-;-;-;-;-;-;-
1513509949406;-;-;8.8003845;2.1525726;-4.100586;-;-;-;-;-;-;-;-;-;-;-;-;-;-;-
1513509949426;-;-;8.735733;1.9406891;-6.949692;-;-;-;-;-;-;-;-;-;-;-;-;-;-;-
1513509949447;-;-;7.5278625;1.710846;-4.8451843;-;-;-;-;-;-;-;-;-;-;-;-;-;-;-
1513509949467;-;-;6.0147247;1.7395782;-4.871521;-;-;-;-;-;-;-;-;-;-;-;-;-;-;-
1513509949488;-;-;7.198654;0.55804443;-6.986801;-;-;-;-;-;-;-;-;-;-;-;-;-;-;-
1513509949508;-;-;9.171478;-1.2579651;-10.871384;-;-;-;-;-;-;-;-;-;-;-;-;-;-;-
1513509949528;-;-;23.286499;-6.3001556;-3.820465;-;-;-;-;-;-;-;-;-;-;-;-;-;-;-
1513509949551;-;-;37.42546;-10.07341;4.236023;-;-;-;-;-;-;-;-;-;-;-;-;-;-;-
1513509949572;-;-;26.635986;-4.391968;-1.531601;-;-;-;-;-;-;-;-;-;-;-;-;-;-;-
1513509949592;-;-;13.88446;0.53289795;0.7249298;-;-;-;-;-;-;-;-;-;-;-;-;-;-;-
1513509949612;-;-;5.568207;-0.84017944;1.9699097;-;-;-;-;-;-;-;-;-;-;-;-;-;-;-
1513509949633;-;-;0.35961914;-1.5249176;0.47833252;-;-;-;-;-;-;-;-;-;-;-;-;-;-;-
1513509949652;-;-;-1.6000366;-1.249588;-1.8895416;-;-;-;-;-;-;-;-;-;-;-;-;-;-;-
1513509949672;-;-;2.1157684;-2.0624084;-3.341629;-;-;-;-;-;-;-;-;-;-;-;-;-;-;-
1513509949693;-;-;5.4999695;-0.18536377;-3.0136108;-;-;-;-;-;-;-;-;-;-;-;-;-;-;-
1513509949712;-;-;5.3730774;2.7283783;-3.36557;-;-;-;-;-;-;-;-;-;-;-;-;-;-;-
1513509949732;-;-;4.2106934;3.165329;-3.2578278;-;-;-;-;-;-;-;-;-;-;-;-;-;-;-
1513509949752;-;-;4.5758057;1.789856;-2.5766754;-;-;-;-;-;-;-;-;-;-;-;-;-;-;-
1513509949773;-;-;6.1883087;-0.6246948;-1.7650452;-;-;-;-;-;-;-;-;-;-;-;-;-;-;-
1513509949793;-;-;7.177109;-2.870453;-1.0168457;-;-;-;-;-;-;-;-;-;-;-;-;-;-;-
1513509949813;-;-;6.062607;-4.6876526;-0.79299927;-;-;-;-;-;-;-;-;-;-;-;-;-;-;-
1513509949833;-;-;6.4648285;-5.1641083;1.1929932;-;-;-;-;-;-;-;-;-;-;-;-;-;-;-
1513509949854;-;-;7.063385;-3.8209534;1.9172363;-;-;-;-;-;-;-;-;-;-;-;-;-;-;-
1513509949875;-;-;7.0286713;-1.0305176;0.53338623;-;-;-;-;-;-;-;-;-;-;-;-;-;-;-
1513509949896;-;-;6.398987;-0.89164734;-0.8468628;-;-;-;-;-;-;-;-;-;-;-;-;-;-;-
1513509949917;-;-;6.7964325;-1.7080688;-3.176422;-;-;-;-;-;-;-;-;-;-;-;-;-;-;-
1513509949936;-;-;6.319992;-1.4902039;-3.4613342;-;-;-;-;-;-;-;-;-;-;-;-;-;-;-
1513509949957;-;-;6.877838;0.41079712;-6.9568634;-;-;-;-;-;-;-;-;-;-;-;-;-;-;-
1513509949977;-;-;9.8645935;1.1123047;-4.9158173;-;-;-;-;-;-;-;-;-;-;-;-;-;-;-
1513509949997;-;-;13.433151;0.7807007;-0.29859924;-;-;-;-;-;-;-;-;-;-;-;-;-;-;-
1513509950018;-;-;14.056854;3.3424988;-8.1276245;-;-;-;-;-;-;-;-;-;-;-;-;-;-;-
1513509950038;-;-;35.392776;8.776138;-2.2774048;-;-;-;-;-;-;-;-;-;-;-;-;-;-;-
1513509950059;-;-;28.260452;0.8190155;-6.2014923;-;-;-;-;-;-;-;-;-;-;-;-;-;-;-
1513509950079;-;-;13.700119;-4.4901276;-2.8891144;-;-;-;-;-;-;-;-;-;-;-;-;-;-;-
1513509950099;-;-;6.494766;-2.2204285;-2.5096436;-;-;-;-;-;-;-;-;-;-;-;-;-;-;-
1513509950120;-;-;1.1880188;0.50177;-4.050308;-;-;-;-;-;-;-;-;-;-;-;-;-;-;-
1513509950140;-;-;1.5315857;1.4163666;-0.9629822;-;-;-;-;-;-;-;-;-;-;-;-;-;-;-
1513509950160;-;-;4.1233063;2.3417206;0.4867096;-;-;-;-;-;-;-;-;-;-;-;-;-;-;-
1513509950180;-;-;3.7845306;2.1046906;-0.15254211;-;-;-;-;-;-;-;-;-;-;-;-;-;-;-
1513509950200;-;-;3.0937958;0.8453522;-0.15014648;-;-;-;-;-;-;-;-;-;-;-;-;-;-;-
1513509950221;-;-;3.457718;-0.64624023;0.15631104;-;-;-;-;-;-;-;-;-;-;-;-;-;-;-
1513509950241;-;-;4.5782013;-2.1653595;0.65908813;-;-;-;-;-;-;-;-;-;-;-;-;-;-;-
1513509950261;-;-;5.363495;-1.8469391;-0.5834961;-;-;-;-;-;-;-;-;-;-;-;-;-;-;-
1513509950281;-;-;4.900223;-0.64863586;-0.05079651;-;-;-;-;-;-;-;-;-;-;-;-;-;-;-
1513509950302;-;-;4.0454865;-0.11114502;0.41726685;-;-;-;-;-;-;-;-;-;-;-;-;-;-;-
1513509950322;-;-;4.7757263;0.3712921;-0.52604675;-;-;-;-;-;-;-;-;-;-;-;-;-;-;-
1513509950342;-;-;6.3774414;1.4678345;-2.8651733;-;-;-;-;-;-;-;-;-;-;-;-;-;-;-
1513509950363;-;-;8.825516;2.778656;-0.7893982;-;-;-;-;-;-;-;-;-;-;-;-;-;-;-
1513509950383;-;-;9.021835;3.1078644;-1.0264282;-;-;-;-;-;-;-;-;-;-;-;-;-;-;-
1513509950403;-;-;7.2549133;2.9881592;-7.831955;-;-;-;-;-;-;-;-;-;-;-;-;-;-;-
1513509950424;-;-;9.307953;0.38327026;-11.654297;-;-;-;-;-;-;-;-;-;-;-;-;-;-;-
1513509950443;-;-;14.1214905;-2.906372;-6.718643;-;-;-;-;-;-;-;-;-;-;-;-;-;-;-
1513509950463;-;-;24.100525;-6.3600006;-4.615341;-;-;-;-;-;-;-;-;-;-;-;-;-;-;-
1513509950483;-;-;32.037308;-8.982849;-3.4433746;-;-;-;-;-;-;-;-;-;-;-;-;-;-;-
1513509950504;-;-;29.388123;-6.1996;-7.244171;-;-;-;-;-;-;-;-;-;-;-;-;-;-;-
1513509950524;-;-;16.74913;-0.76834106;0.029418945;-;-;-;-;-;-;-;-;-;-;-;-;-;-;-
1513509950544;-;-;6.4480743;2.0927277;1.0792694;-;-;-;-;-;-;-;-;-;-;-;-;-;-;-
1513509950565;-;-;1.5315857;2.165741;0.6555023;-;-;-;-;-;-;-;-;-;-;-;-;-;-;-
1513509950585;-;-;-1.795166;1.4307251;0.036590576;-;-;-;-;-;-;-;-;-;-;-;-;-;-;-
1513509950605;-;-;-1.819107;-0.21170044;-1.9984741;-;-;-;-;-;-;-;-;-;-;-;-;-;-;-
1513509950626;-;-;1.6764374;-2.324585;-3.748642;-;-;-;-;-;-;-;-;-;-;-;-;-;-;-
1513509950646;-;-;4.5207367;-0.91200256;-4.1736145;-;-;-;-;-;-;-;-;-;-;-;-;-;-;-
1513509950666;-;-;6.584549;-0.22845459;-3.4266205;-;-;-;-;-;-;-;-;-;-;-;-;-;-;-
1513509950686;-;-;7.952835;0.29109192;-3.2650146;-;-;-;-;-;-;-;-;-;-;-;-;-;-;-
1513509950707;-;-;8.313156;-0.3469696;-1.8296814;-;-;-;-;-;-;-;-;-;-;-;-;-;-;-
1513509950727;-;-;8.141968;-2.032486;-1.7722168;-;-;-;-;-;-;-;-;-;-;-;-;-;-;-
1513509950747;-;-;7.015503;-4.0507965;-2.0248108;-;-;-;-;-;-;-;-;-;-;-;-;-;-;-
1513509950767;-;-;7.020294;-5.0000916;0.20777893;-;-;-;-;-;-;-;-;-;-;-;-;-;-;-
1513509950788;-;-;7.4847565;-4.3153534;1.3186951;-;-;-;-;-;-;-;-;-;-;-;-;-;-;-
1513509950807;-;-;5.7405853;-3.8269348;1.6407166;-;-;-;-;-;-;-;-;-;-;-;-;-;-;-
1513509950827;-;-;5.0139465;-3.399582;0.09764099;-;-;-;-;-;-;-;-;-;-;-;-;-;-;-
1513509950848;-;-;5.30365;-2.5687866;-0.20281982;-;-;-;-;-;-;-;-;-;-;-;-;-;-;-
1513509950867;-;-;6.941284;-1.028122;-1.4370422;-;-;-;-;-;-;-;-;-;-;-;-;-;-;-
1513509950887;-;-;7.0382385;0.30065918;-5.4712677;-;-;-;-;-;-;-;-;-;-;-;-;-;-;-
1513509950908;-;-;8.297592;1.4630432;-10.34346;-;-;-;-;-;-;-;-;-;-;-;-;-;-;-
1513509950928;-;-;11.753632;2.746338;-3.8623657;-;-;-;-;-;-;-;-;-;-;-;-;-;-;-
1513509950949;-;-;14.250778;4.4127045;1.3258667;-;-;-;-;-;-;-;-;-;-;-;-;-;-;-
1513509950969;-;-;18.205994;7.4246063;-3.361969;-;-;-;-;-;-;-;-;-;-;-;-;-;-;-
1513509950989;-;-;32.227646;7.975281;-8.727386;-;-;-;-;-;-;-;-;-;-;-;-;-;-;-
1513509951009;-;-;24.013138;-3.8879852;-3.361969;-;-;-;-;-;-;-;-;-;-;-;-;-;-;-
1513509951030;-;-;13.648636;-7.333252;-0.6768799;-;-;-;-;-;-;-;-;-;-;-;-;-;-;-
1513509951050;-;-;5.6220703;-5.7985687;0.006668091;-;-;-;-;-;-;-;-;-;-;-;-;-;-;-
1513509951070;-;-;0.19082642;-2.5328674;-0.89953613;-;-;-;-;-;-;-;-;-;-;-;-;-;-;-
1513509951091;-;-;-0.78240967;0.091171265;-0.87319946;-;-;-;-;-;-;-;-;-;-;-;-;-;-;-
1513509951111;-;-;-0.11204529;2.4997406;-0.72595215;-;-;-;-;-;-;-;-;-;-;-;-;-;-;-
1513509951131;-;-;1.5028534;3.1054688;-1.1150208;-;-;-;-;-;-;-;-;-;-;-;-;-;-;-
1513509951152;-;-;3.790512;1.516922;-1.0515747;-;-;-;-;-;-;-;-;-;-;-;-;-;-;-
1513509951172;-;-;5.30484;0.35453796;-1.1150208;-;-;-;-;-;-;-;-;-;-;-;-;-;-;-
1513509951192;-;-;4.9540863;-0.1697998;-1.9230652;-;-;-;-;-;-;-;-;-;-;-;-;-;-;-
1513509951213;-;-;4.1711884;0.008575439;-2.9896698;-;-;-;-;-;-;-;-;-;-;-;-;-;-;-
1513509951234;-;-;4.466873;0.51135254;-2.282196;-;-;-;-;-;-;-;-;-;-;-;-;-;-;-
1513509951254;-;-;6.340332;0.512558;0.77879333;-;-;-;-;-;-;-;-;-;-;-;-;-;-;-
1513509951274;-;-;8.356247;0.60832214;1.7939453;-;-;-;-;-;-;-;-;-;-;-;-;-;-;-
1513509951294;-;-;8.668701;1.4391022;-2.491684;-;-;-;-;-;-;-;-;-;-;-;-;-;-;-
1513509951315;-;-;8.419693;2.667328;-4.672806;-;-;-;-;-;-;-;-;-;-;-;-;-;-;-
1513509951335;-;-;8.023453;3.738739;-1.3412628;-;-;-;-;-;-;-;-;-;-;-;-;-;-;-
1513509951355;-;-;8.60405;3.2886353;-0.7451172;-;-;-;-;-;-;-;-;-;-;-;-;-;-;-
1513509951376;-;-;7.7732697;1.2152557;-5.8818665;-;-;-;-;-;-;-;-;-;-;-;-;-;-;-
1513509951396;-;-;7.738556;-2.451477;-7.294449;-;-;-;-;-;-;-;-;-;-;-;-;-;-;-
1513509951416;-;-;10.150711;-5.1844482;-4.7266693;-;-;-;-;-;-;-;-;-;-;-;-;-;-;-
1513509951437;-;-;13.4379425;-5.727936;-7.5853424;-;-;-;-;-;-;-;-;-;-;-;-;-;-;-
1513509951457;-;-;30.045334;-9.936935;-2.7825775;-;-;-;-;-;-;-;-;-;-;-;-;-;-;-
1513509951478;-;-;38.87874;-7.2889557;-7.7194214;-;-;-;-;-;-;-;-;-;-;-;-;-;-;-
1513509951497;-;-;19.461761;2.5117035;-5.887863;-;-;-;-;-;-;-;-;-;-;-;-;-;-;-
1513509951517;-;-;6.5558167;3.8165436;0.33946228;-;-;-;-;-;-;-;-;-;-;-;-;-;-;-
1513509951537;-;-;1.7698059;-0.26197815;1.0768738;-;-;-;-;-;-;-;-;-;-;-;-;-;-;-
1513509951557;-;-;0.023239136;-4.0855103;1.0409698;-;-;-;-;-;-;-;-;-;-;-;-;-;-;-
1513509951577;-;-;-0.46038818;-6.0032654;-2.2187347;-;-;-;-;-;-;-;-;-;-;-;-;-;-;-
1513509951598;-;-;5.095352;-6.103821;-3.5235748;-;-;-;-;-;-;-;-;-;-;-;-;-;-;-
1513509951618;-;-;7.827133;-3.7850342;-2.2163544;-;-;-;-;-;-;-;-;-;-;-;-;-;-;-
1513509951639;-;-;7.67511;-1.285492;-2.5252075;-;-;-;-;-;-;-;-;-;-;-;-;-;-;-
1513509951658;-;-;6.2421722;-0.69651794;-1.3185272;-;-;-;-;-;-;-;-;-;-;-;-;-;-;-
1513509951678;-;-;4.17717;-1.309433;-0.9079132;-;-;-;-;-;-;-;-;-;-;-;-;-;-;-
1513509951698;-;-;5.308441;-2.3616943;-0.16212463;-;-;-;-;-;-;-;-;-;-;-;-;-;-;-
1513509951719;-;-;7.509903;-3.6605377;-0.16452026;-;-;-;-;-;-;-;-;-;-;-;-;-;-;-
1513509951739;-;-;8.667496;-4.709198;0.51423645;-;-;-;-;-;-;-;-;-;-;-;-;-;-;-
1513509951759;-;-;8.863831;-5.6477356;0.12397766;-;-;-;-;-;-;-;-;-;-;-;-;-;-;-
1513509951780;-;-;9.322311;-5.5854797;-0.8947449;-;-;-;-;-;-;-;-;-;-;-;-;-;-;-
1513509951800;-;-;9.363022;-3.2774658;-0.006500244;-;-;-;-;-;-;-;-;-;-;-;-;-;-;-
1513509951820;-;-;11.145493;-0.720459;1.8310547;-;-;-;-;-;-;-;-;-;-;-;-;-;-;-
1513509951840;-;-;10.970718;-0.5564575;-2.4821014;-;-;-;-;-;-;-;-;-;-;-;-;-;-;-
1513509951861;-;-;10.338654;-3.1589508;-11.101227;-;-;-;-;-;-;-;-;-;-;-;-;-;-;-
1513509951881;-;-;10.440399;-0.93833923;-9.675476;-;-;-;-;-;-;-;-;-;-;-;-;-;-;-
1513509951901;-;-;11.53096;2.6493835;-3.2422638;-;-;-;-;-;-;-;-;-;-;-;-;-;-;-
1513509951922;-;-;12.3940735;4.315735;-3.7031403;-;-;-;-;-;-;-;-;-;-;-;-;-;-;-
1513509951942;-;-;11.682999;0.8118286;-5.5071716;-;-;-;-;-;-;-;-;-;-;-;-;-;-;-
1513509951962;-;-;11.712921;-4.139389;-6.0997467;-;-;-;-;-;-;-;-;-;-;-;-;-;-;-
1513509951983;-;-;12.222885;-8.712311;-4.425003;-;-;-;-;-;-;-;-;-;-;-;-;-;-;-
1513509952003;-;-;9.781998;-7.5798492;-2.3181;-;-;-;-;-;-;-;-;-;-;-;-;-;-;-
1513509952023;-;-;8.223373;-2.854889;-2.7071533;-;-;-;-;-;-;-;-;-;-;-;-;-;-;-
1513509952043;-;-;6.576172;0.31143188;-4.0119934;-;-;-;-;-;-;-;-;-;-;-;-;-;-;-
1513509952064;-;-;4.8391724;1.7395782;-4.5494995;-;-;-;-;-;-;-;-;-;-;-;-;-;-;-
1513509952084;-;-;5.055847;2.474594;-5.191147;-;-;-;-;-;-;-;-;-;-;-;-;-;-;-
1513509952104;-;-;5.95726;2.4530487;-4.4656982;-;-;-;-;-;-;-;-;-;-;-;-;-;-;-
1513509952125;-;-;6.201477;1.7431641;-3.9964294;-;-;-;-;-;-;-;-;-;-;-;-;-;-;-
1513509952145;-;-;7.384201;0.9710388;-3.504425;-;-;-;-;-;-;-;-;-;-;-;-;-;-;-
1513509952165;-;-;8.60405;1.303833;-3.3368378;-;-;-;-;-;-;-;-;-;-;-;-;-;-;-
1513509952186;-;-;7.916916;2.1765137;-3.2602234;-;-;-;-;-;-;-;-;-;-;-;-;-;-;-
1513509952206;-;-;6.319992;2.3991852;-2.2989502;-;-;-;-;-;-;-;-;-;-;-;-;-;-;-
1513509952226;-;-;5.2473755;1.9586487;-1.5938568;-;-;-;-;-;-;-;-;-;-;-;-;-;-;-
1513509952247;-;-;5.2425995;1.7718964;-2.1265717;-;-;-;-;-;-;-;-;-;-;-;-;-;-;-
1513509952267;-;-;6.414551;1.4941711;-3.1572723;-;-;-;-;-;-;-;-;-;-;-;-;-;-;-
1513509952288;-;-;8.580109;1.2260284;-3.5140076;-;-;-;-;-;-;-;-;-;-;-;-;-;-;-
1513509952307;-;-;10.502655;1.9622345;-3.1417084;-;-;-;-;-;-;-;-;-;-;-;-;-;-;-
1513509952327;-;-;9.814316;2.1860962;-5.1588287;-;-;-;-;-;-;-;-;-;-;-;-;-;-;-
1513509952348;-;-;10.657074;-0.3541565;-13.689362;-;-;-;-;-;-;-;-;-;-;-;-;-;-;-
1513509952367;-;-;15.531677;-5.3269043;-2.5850525;-;-;-;-;-;-;-;-;-;-;-;-;-;-;-
1513509952387;-;-;18.197617;-7.4745026;-1.8667908;-;-;-;-;-;-;-;-;-;-;-;-;-;-;-
1513509952408;-;-;13.23204;-7.2207184;-4.123337;-;-;-;-;-;-;-;-;-;-;-;-;-;-;-
1513509952427;-;-;10.197388;-5.7782135;-4.496826;-;-;-;-;-;-;-;-;-;-;-;-;-;-;-
1513509952447;-;-;7.9348755;-2.6597595;-4.35318;-;-;-;-;-;-;-;-;-;-;-;-;-;-;-
1513509952467;-;-;7.5290527;-1.2902832;-4.3591614;-;-;-;-;-;-;-;-;-;-;-;-;-;-;-
1513509952488;-;-;7.4488525;-0.53012085;-4.5351257;-;-;-;-;-;-;-;-;-;-;-;-;-;-;-
1513509952508;-;-;6.932907;-0.24641418;-3.472107;-;-;-;-;-;-;-;-;-;-;-;-;-;-;-
1513509952528;-;-;6.1595764;-1.0017853;-2.7873688;-;-;-;-;-;-;-;-;-;-;-;-;-;-;-
1513509952549;-;-;4.7182617;-1.6470184;-2.2067719;-;-;-;-;-;-;-;-;-;-;-;-;-;-;-
1513509952569;-;-;3.6696014;-2.0863495;-1.7159576;-;-;-;-;-;-;-;-;-;-;-;-;-;-;-
1513509952589;-;-;2.5239716;-2.9518585;-1.7339172;-;-;-;-;-;-;-;-;-;-;-;-;-;-;-
1513509952609;-;-;2.1708374;-2.6741333;-2.9717255;-;-;-;-;-;-;-;-;-;-;-;-;-;-;-
1513509952630;-;-;4.6069336;-1.1981049;-3.4768982;-;-;-;-;-;-;-;-;-;-;-;-;-;-;-
1513509952650;-;-;8.094086;-0.14704895;-2.3803558;-;-;-;-;-;-;-;-;-;-;-;-;-;-;-
1513509952670;-;-;11.424423;0.2707367;-0.9450226;-;-;-;-;-;-;-;-;-;-;-;-;-;-;-
1513509952691;-;-;13.252396;-0.3146515;-0.77264404;-;-;-;-;-;-;-;-;-;-;-;-;-;-;-
1513509952711;-;-;13.133881;-1.5009766;-1.274231;-;-;-;-;-;-;-;-;-;-;-;-;-;-;-
1513509952731;-;-;12.465897;-1.5189362;-0.535614;-;-;-;-;-;-;-;-;-;-;-;-;-;-;-
1513509952752;-;-;11.065292;-0.1925354;0.33946228;-;-;-;-;-;-;-;-;-;-;-;-;-;-;-
1513509952772;-;-;8.399353;-0.36611938;0.065322876;-;-;-;-;-;-;-;-;-;-;-;-;-;-;-
1513509952792;-;-;6.0853577;-2.9710083;-2.6113892;-;-;-;-;-;-;-;-;-;-;-;-;-;-;-
1513509952812;-;-;5.7765045;-6.7586365;-12.018204;-;-;-;-;-;-;-;-;-;-;-;-;-;-;-
1513509952832;-;-;8.587296;-6.5335846;-9.428879;-;-;-;-;-;-;-;-;-;-;-;-;-;-;-
1513509952853;-;-;14.559631;-2.8297577;-0.23275757;-;-;-;-;-;-;-;-;-;-;-;-;-;-;-
1513509952873;-;-;12.945938;0.03491211;-4.627304;-;-;-;-;-;-;-;-;-;-;-;-;-;-;-
1513509952893;-;-;10.969528;-0.07762146;-8.013901;-;-;-;-;-;-;-;-;-;-;-;-;-;-;-
1513509952914;-;-;12.470688;-1.3716888;-5.4197845;-;-;-;-;-;-;-;-;-;-;-;-;-;-;-
1513509952933;-;-;12.712509;-3.8508759;-2.6556854;-;-;-;-;-;-;-;-;-;-;-;-;-;-;-
1513509952954;-;-;10.906082;-2.6573792;-2.8232727;-;-;-;-;-;-;-;-;-;-;-;-;-;-;-
1513509952974;-;-;8.689041;-1.6063232;-2.2917633;-;-;-;-;-;-;-;-;-;-;-;-;-;-;-
1513509952994;-;-;6.515106;-1.0233307;-2.1121979;-;-;-;-;-;-;-;-;-;-;-;-;-;-;-
1513509953014;-;-;4.7122803;-0.038116455;-2.8891144;-;-;-;-;-;-;-;-;-;-;-;-;-;-;-
1513509953035;-;-;3.7988892;1.3732605;-2.7430725;-;-;-;-;-;-;-;-;-;-;-;-;-;-;-
1513509953055;-;-;3.7438202;2.3596802;-2.084671;-;-;-;-;-;-;-;-;-;-;-;-;-;-;-
1513509953075;-;-;3.9329681;1.7419739;-1.4909058;-;-;-;-;-;-;-;-;-;-;-;-;-;-;-
1513509953096;-;-;5.379059;0.7531738;-0.8492584;-;-;-;-;-;-;-;-;-;-;-;-;-;-;-
1513509953116;-;-;8.712982;0.4119873;-0.46020508;-;-;-;-;-;-;-;-;-;-;-;-;-;-;-
1513509953136;-;-;10.901291;0.7400055;-1.030014;-;-;-;-;-;-;-;-;-;-;-;-;-;-;-
1513509953156;-;-;11.929596;1.5492401;-1.6728668;-;-;-;-;-;-;-;-;-;-;-;-;-;-;-
1513509953177;-;-;10.257248;2.2016602;-1.6692657;-;-;-;-;-;-;-;-;-;-;-;-;-;-;-
1513509953197;-;-;9.0733185;2.1741333;-3.2769775;-;-;-;-;-;-;-;-;-;-;-;-;-;-;-
1513509953217;-;-;6.4923706;0.96266174;-4.062271;-;-;-;-;-;-;-;-;-;-;-;-;-;-;-
1513509953237;-;-;6.834732;0.13186646;-2.1744537;-;-;-;-;-;-;-;-;-;-;-;-;-;-;-
1513509953257;-;-;7.971985;0.5783844;-0.91030884;-;-;-;-;-;-;-;-;-;-;-;-;-;-;-
1513509953278;-;-;6.814392;0.38446045;-4.227478;-;-;-;-;-;-;-;-;-;-;-;-;-;-;-
1513509953297;-;-;8.015076;-0.32182312;-11.1072235;-;-;-;-;-;-;-;-;-;-;-;-;-;-;-
1513509953317;-;-;11.924805;-0.6905365;-6.0602417;-;-;-;-;-;-;-;-;-;-;-;-;-;-;-
1513509953338;-;-;14.953476;-3.870041;-3.3883057;-;-;-;-;-;-;-;-;-;-;-;-;-;-;-
1513509953358;-;-;13.2200775;-4.00531;-5.7082977;-;-;-;-;-;-;-;-;-;-;-;-;-;-;-
1513509953378;-;-;11.909256;-4.808563;-5.2486115;-;-;-;-;-;-;-;-;-;-;-;-;-;-;-
1513509953399;-;-;11.813477;-2.8644714;-4.0826263;-;-;-;-;-;-;-;-;-;-;-;-;-;-;-
1513509953419;-;-;11.260422;-0.26556396;-4.3196564;-;-;-;-;-;-;-;-;-;-;-;-;-;-;-
1513509953439;-;-;9.342667;1.6078949;-4.179596;-;-;-;-;-;-;-;-;-;-;-;-;-;-;-
1513509953460;-;-;7.550598;2.2196198;-3.2410736;-;-;-;-;-;-;-;-;-;-;-;-;-;-;-
1513509953479;-;-;6.474411;0.8453522;-2.211563;-;-;-;-;-;-;-;-;-;-;-;-;-;-;-
1513509953499;-;-;5.4042053;-0.9610748;-1.2945862;-;-;-;-;-;-;-;-;-;-;-;-;-;-;-
1513509953519;-;-;4.3806763;-2.313797;-0.6289978;-;-;-;-;-;-;-;-;-;-;-;-;-;-;-
1513509953540;-;-;4.0167694;-2.4897766;-0.47935486;-;-;-;-;-;-;-;-;-;-;-;-;-;-;-
1513509953559;-;-;3.718689;-1.4782257;-1.2059937;-;-;-;-;-;-;-;-;-;-;-;-;-;-;-
1513509953579;-;-;3.8359985;-0.24880981;-2.1169891;-;-;-;-;-;-;-;-;-;-;-;-;-;-;-
1513509953599;-;-;4.1125336;0.8716736;-2.16008;-;-;-;-;-;-;-;-;-;-;-;-;-;-;-
1513509953619;-;-;4.4177856;1.2774963;-1.1652985;-;-;-;-;-;-;-;-;-;-;-;-;-;-;-
1513509953640;-;-;5.5717926;0.30784607;0.15631104;-;-;-;-;-;-;-;-;-;-;-;-;-;-;-
1513509953660;-;-;7.055008;-0.49061584;1.5940247;-;-;-;-;-;-;-;-;-;-;-;-;-;-;-
1513509953680;-;-;8.168304;-0.4379425;1.8657684;-;-;-;-;-;-;-;-;-;-;-;-;-;-;-
1513509953701;-;-;8.450821;-1.3908386;0.4112854;-;-;-;-;-;-;-;-;-;-;-;-;-;-;-
1513509953721;-;-;9.054169;-3.9741821;-1.887146;-;-;-;-;-;-;-;-;-;-;-;-;-;-;-
1513509953741;-;-;9.465973;-3.823349;-2.7191315;-;-;-;-;-;-;-;-;-;-;-;-;-;-;-
1513509953762;-;-;9.694611;-1.9630585;-2.5443573;-;-;-;-;-;-;-;-;-;-;-;-;-;-;-
1513509953782;-;-;8.460403;-1.5488586;-3.9916534;-;-;-;-;-;-;-;-;-;-;-;-;-;-;-
1513509953802;-;-;7.890579;-0.5384979;-7.7505493;-;-;-;-;-;-;-;-;-;-;-;-;-;-;-
1513509953823;-;-;9.066132;2.3177795;-5.464081;-;-;-;-;-;-;-;-;-;-;-;-;-;-;-
1513509953843;-;-;8.788406;3.76268;-4.073044;-;-;-;-;-;-;-;-;-;-;-;-;-;-;-
1513509953863;-;-;10.696579;3.9697723;-5.477249;-;-;-;-;-;-;-;-;-;-;-;-;-;-;-
1513509953884;-;-;20.650482;5.0292053;-1.8021545;-;-;-;-;-;-;-;-;-;-;-;-;-;-;-
1513509953904;-;-;28.595642;3.5076904;-2.4737244;-;-;-;-;-;-;-;-;-;-;-;-;-;-;-
1513509953924;-;-;19.744278;-3.2607117;-4.1137543;-;-;-;-;-;-;-;-;-;-;-;-;-;-;-
1513509953944;-;-;11.434006;-4.1884613;-2.1098022;-;-;-;-;-;-;-;-;-;-;-;-;-;-;-
1513509953965;-;-;4.3603363;-1.1334686;-1.6405487;-;-;-;-;-;-;-;-;-;-;-;-;-;-;-
