TimeStamp[ms];Prox[Cm];Lux[lux];AccX[m/s^2];AccY[m/s^2];AccZ[m/s^2];GyroX[rad/s];GyroY[rad/s];GyroZ[rad/s];MagnX[uT];MagnY[uT];MagnZ[uT];OrienYaw[degrees];OrienPitch[degrees];OrienRoll[degrees];Press[Pa];Temp[C°];Batt[%];Lat;Lng;Speed[m/s]
1513510016439;-;-;9.220566;-0.0069885254;-0.7666626;-;-;-;-;-;-;-;-;-;-;-;-;-;-;-
1513510016447;-;-;9.3103485;-0.009384155;-0.7965851;-;-;-;-;-;-;-;-;-;-;-;-;-;-;-
1513510016467;-;-;9.06134;-0.08241272;-0.6253967;-;-;-;-;-;-;-;-;-;-;-;-;-;-;-
1513510016487;-;-;9.122391;-0.19134521;-0.73194885;-;-;-;-;-;-;-;-;-;-;-;-;-;-;-
1513510016507;-;-;9.146347;-0.11831665;-0.85884094;-;-;-;-;-;-;-;-;-;-;-;-;-;-;-
1513510016528;-;-;9.2313385;-0.074035645;-0.84207153;-;-;-;-;-;-;-;-;-;-;-;-;-;-;-
1513510016548;-;-;9.37738;0.12828064;-0.7080078;-;-;-;-;-;-;-;-;-;-;-;-;-;-;-
1513510016568;-;-;9.269638;0.13665771;-0.66729736;-;-;-;-;-;-;-;-;-;-;-;-;-;-;-
1513510016589;-;-;9.183456;0.22764587;-0.74391174;-;-;-;-;-;-;-;-;-;-;-;-;-;-;-
1513510016608;-;-;9.106842;0.25398254;-0.80856323;-;-;-;-;-;-;-;-;-;-;-;-;-;-;-
1513510016628;-;-;9.007477;0.19172668;-0.6517334;-;-;-;-;-;-;-;-;-;-;-;-;-;-;-
1513510016649;-;-;8.825516;1.2954559;-0.8325043;-;-;-;-;-;-;-;-;-;-;-;-;-;-;-
1513510016669;-;-;9.604828;0.33776855;-1.1928253;-;-;-;-;-;-;-;-;-;-;-;-;-;-;-
1513510016692;-;-;9.744888;0.2013092;-0.89953613;-;-;-;-;-;-;-;-;-;-;-;-;-;-;-
1513510016709;-;-;9.419281;0.0181427;-0.74391174;-;-;-;-;-;-;-;-;-;-;-;-;-;-;-
1513510016730;-;-;8.97995;-0.210495;-0.81095886;-;-;-;-;-;-;-;-;-;-;-;-;-;-;-
1513510016750;-;-;8.815933;0.055252075;-0.3955536;-;-;-;-;-;-;-;-;-;-;-;-;-;-;-
1513510016770;-;-;8.420898;0.41079712;-0.5691376;-;-;-;-;-;-;-;-;-;-;-;-;-;-;-
1513510016791;-;-;8.323929;0.5556488;-1.0683289;-;-;-;-;-;-;-;-;-;-;-;-;-;-;-
1513510016811;-;-;8.969162;0.8237915;-1.061142;-;-;-;-;-;-;-;-;-;-;-;-;-;-;-
1513510016831;-;-;9.115219;0.8848419;-1.6465302;-;-;-;-;-;-;-;-;-;-;-;-;-;-;-
1513510016852;-;-;9.068527;0.6897278;-1.8584137;-;-;-;-;-;-;-;-;-;-;-;-;-;-;-
1513510016872;-;-;8.782425;0.35932922;-1.3819733;-;-;-;-;-;-;-;-;-;-;-;-;-;-;-
1513510016892;-;-;8.872208;0.7842865;-1.1736755;-;-;-;-;-;-;-;-;-;-;-;-;-;-;-
1513510016913;-;-;9.00029;1.130249;-1.2012024;-;-;-;-;-;-;-;-;-;-;-;-;-;-;-
1513510016933;-;-;8.801575;1.1206818;-1.0264282;-;-;-;-;-;-;-;-;-;-;-;-;-;-;-
1513510016953;-;-;8.98114;0.967453;-0.92108154;-;-;-;-;-;-;-;-;-;-;-;-;-;-;-
1513510016973;-;-;9.582092;1.2224274;-0.9079132;-;-;-;-;-;-;-;-;-;-;-;-;-;-;-
1513510016993;-;-;9.602432;0.98420715;-1.4274597;-;-;-;-;-;-;-;-;-;-;-;-;-;-;-
1513510017013;-;-;9.471954;0.6849365;-1.4394226;-;-;-;-;-;-;-;-;-;-;-;-;-;-;-
1513510017034;-;-;10.30513;0.30186462;-1.5663147;-;-;-;-;-;-;-;-;-;-;-;-;-;-;-
1513510017054;-;-;7.916916;0.27911377;-0.9809418;-;-;-;-;-;-;-;-;-;-;-;-;-;-;-
1513510017074;-;-;8.764465;0.56881714;-1.0599518;-;-;-;-;-;-;-;-;-;-;-;-;-;-;-
1513510017094;-;-;8.677078;2.0520172;-1.4813232;-;-;-;-;-;-;-;-;-;-;-;-;-;-;-
1513510017115;-;-;7.985153;2.4374847;-1.7279358;-;-;-;-;-;-;-;-;-;-;-;-;-;-;-
1513510017135;-;-;9.046982;0.73161316;-1.7339172;-;-;-;-;-;-;-;-;-;-;-;-;-;-;-
1513510017155;-;-;10.708557;0.63705444;-1.8524323;-;-;-;-;-;-;-;-;-;-;-;-;-;-;-
1513510017175;-;-;7.866638;0.41319275;-0.38957214;-;-;-;-;-;-;-;-;-;-;-;-;-;-;-
1513510017196;-;-;10.268021;-0.82221985;-0.4745636;-;-;-;-;-;-;-;-;-;-;-;-;-;-;-
1513510017217;-;-;6.268509;1.161377;-0.46618652;-;-;-;-;-;-;-;-;-;-;-;-;-;-;-
1513510017237;-;-;9.178665;0.4000244;-1.0826874;-;-;-;-;-;-;-;-;-;-;-;-;-;-;-
1513510017257;-;-;9.151123;1.0763855;-1.3759766;-;-;-;-;-;-;-;-;-;-;-;-;-;-;-
1513510017277;-;-;7.0454254;1.4474792;-1.74469;-;-;-;-;-;-;-;-;-;-;-;-;-;-;-
1513510017298;-;-;8.155136;0.09954834;-2.828064;-;-;-;-;-;-;-;-;-;-;-;-;-;-;-
1513510017318;-;-;9.704193;1.2942505;-4.4465485;-;-;-;-;-;-;-;-;-;-;-;-;-;-;-
1513510017338;-;-;10.973114;1.3768616;-3.6217499;-;-;-;-;-;-;-;-;-;-;-;-;-;-;-
1513510017359;-;-;9.486313;1.0177307;-4.0431213;-;-;-;-;-;-;-;-;-;-;-;-;-;-;-
1513510017379;-;-;6.8287506;-0.2571869;-3.5104065;-;-;-;-;-;-;-;-;-;-;-;-;-;-;-
1513510017399;-;-;7.6703186;-0.30506897;-3.4505615;-;-;-;-;-;-;-;-;-;-;-;-;-;-;-
1513510017419;-;-;8.513077;1.1446228;-3.4936523;-;-;-;-;-;-;-;-;-;-;-;-;-;-;-
1513510017440;-;-;6.275696;-0.17817688;-3.2949371;-;-;-;-;-;-;-;-;-;-;-;-;-;-;-
1513510017460;-;-;6.331955;-1.2902832;-3.4002838;-;-;-;-;-;-;-;-;-;-;-;-;-;-;-
1513510017480;-;-;8.624405;-0.71328735;-5.092987;-;-;-;-;-;-;-;-;-;-;-;-;-;-;-
1513510017501;-;-;10.218948;-0.9191742;-5.2138824;-;-;-;-;-;-;-;-;-;-;-;-;-;-;-
1513510017521;-;-;10.95755;-0.31584167;-4.171219;-;-;-;-;-;-;-;-;-;-;-;-;-;-;-
1513510017541;-;-;11.023392;-0.62709045;-2.63414;-;-;-;-;-;-;-;-;-;-;-;-;-;-;-
1513510017562;-;-;10.264435;-0.973053;-3.2099457;-;-;-;-;-;-;-;-;-;-;-;-;-;-;-
1513510017582;-;-;9.753265;-2.0863495;-2.524002;-;-;-;-;-;-;-;-;-;-;-;-;-;-;-
1513510017602;-;-;6.0338745;0.33418274;-2.8148956;-;-;-;-;-;-;-;-;-;-;-;-;-;-;-
1513510017623;-;-;7.0526123;-1.1406403;-4.128113;-;-;-;-;-;-;-;-;-;-;-;-;-;-;-
1513510017643;-;-;7.9624023;-1.9606628;-1.887146;-;-;-;-;-;-;-;-;-;-;-;-;-;-;-
1513510017663;-;-;7.4763794;-0.9622803;-1.6836395;-;-;-;-;-;-;-;-;-;-;-;-;-;-;-
1513510017684;-;-;9.264847;-0.8976288;-1.8009491;-;-;-;-;-;-;-;-;-;-;-;-;-;-;-
1513510017704;-;-;9.971146;-0.24760437;-2.0643158;-;-;-;-;-;-;-;-;-;-;-;-;-;-;-
1513510017724;-;-;9.7017975;-0.49421692;-2.1217804;-;-;-;-;-;-;-;-;-;-;-;-;-;-;-
1513510017744;-;-;9.5737;-1.625473;-2.00206;-;-;-;-;-;-;-;-;-;-;-;-;-;-;-
1513510017765;-;-;9.142746;-2.2072601;-1.7063904;-;-;-;-;-;-;-;-;-;-;-;-;-;-;-
1513510017785;-;-;8.600464;-2.2743073;-1.3005676;-;-;-;-;-;-;-;-;-;-;-;-;-;-;-
1513510017806;-;-;8.134796;-1.9822083;-1.1605072;-;-;-;-;-;-;-;-;-;-;-;-;-;-;-
1513510017826;-;-;7.9815674;-1.2914734;-0.8899536;-;-;-;-;-;-;-;-;-;-;-;-;-;-;-
1513510017847;-;-;7.928894;-0.85214233;-0.85884094;-;-;-;-;-;-;-;-;-;-;-;-;-;-;-
1513510017867;-;-;8.538208;-0.90960693;-0.9330597;-;-;-;-;-;-;-;-;-;-;-;-;-;-;-
1513510017887;-;-;9.327103;-1.2950745;-0.9641876;-;-;-;-;-;-;-;-;-;-;-;-;-;-;-
1513510017907;-;-;9.876572;-2.1366272;-1.0659332;-;-;-;-;-;-;-;-;-;-;-;-;-;-;-
1513510017928;-;-;10.102829;-2.906372;-1.3903503;-;-;-;-;-;-;-;-;-;-;-;-;-;-;-
1513510017948;-;-;10.992264;-3.1972656;-1.634552;-;-;-;-;-;-;-;-;-;-;-;-;-;-;-
1513510017969;-;-;12.463501;-2.8213806;-2.132553;-;-;-;-;-;-;-;-;-;-;-;-;-;-;-
1513510017989;-;-;13.300278;-2.4550629;-3.8192596;-;-;-;-;-;-;-;-;-;-;-;-;-;-;-
1513510018009;-;-;14.479431;-3.4462585;-5.464081;-;-;-;-;-;-;-;-;-;-;-;-;-;-;-
1513510018030;-;-;16.935883;-3.0883331;-2.709549;-;-;-;-;-;-;-;-;-;-;-;-;-;-;-
1513510018050;-;-;13.436752;-2.7770844;-5.2102966;-;-;-;-;-;-;-;-;-;-;-;-;-;-;-
1513510018070;-;-;8.162323;-2.4263306;-6.4672546;-;-;-;-;-;-;-;-;-;-;-;-;-;-;-
1513510018090;-;-;4.7410126;-1.6158905;-8.323959;-;-;-;-;-;-;-;-;-;-;-;-;-;-;-
1513510018111;-;-;3.873108;-0.7875061;-9.278046;-;-;-;-;-;-;-;-;-;-;-;-;-;-;-
1513510018130;-;-;5.4532776;1.0763855;-5.884262;-;-;-;-;-;-;-;-;-;-;-;-;-;-;-
1513510018150;-;-;7.2309723;1.0380707;-3.1776276;-;-;-;-;-;-;-;-;-;-;-;-;-;-;-
1513510018171;-;-;10.335068;0.34136963;-4.19635;-;-;-;-;-;-;-;-;-;-;-;-;-;-;-
1513510018191;-;-;12.088821;-0.66778564;-6.56781;-;-;-;-;-;-;-;-;-;-;-;-;-;-;-
1513510018211;-;-;11.339432;-1.5871582;-7.4560547;-;-;-;-;-;-;-;-;-;-;-;-;-;-;-
1513510018231;-;-;10.544556;-1.4159851;-5.3204346;-;-;-;-;-;-;-;-;-;-;-;-;-;-;-
1513510018252;-;-;8.141968;-0.8317871;-3.468521;-;-;-;-;-;-;-;-;-;-;-;-;-;-;-
1513510018271;-;-;5.3970184;0.22525024;-2.6772308;-;-;-;-;-;-;-;-;-;-;-;-;-;-;-
1513510018291;-;-;3.9497223;1.3397522;-2.1768494;-;-;-;-;-;-;-;-;-;-;-;-;-;-;-
1513510018312;-;-;2.9262085;2.4925537;-1.8069458;-;-;-;-;-;-;-;-;-;-;-;-;-;-;-
1513510018332;-;-;3.0483093;2.8205566;-1.1892395;-;-;-;-;-;-;-;-;-;-;-;-;-;-;-
1513510018352;-;-;4.331604;2.5464325;-0.8384857;-;-;-;-;-;-;-;-;-;-;-;-;-;-;-
1513510018373;-;-;5.5622253;1.4881897;-1.6728668;-;-;-;-;-;-;-;-;-;-;-;-;-;-;-
1513510018393;-;-;7.561386;0.5460663;-2.867569;-;-;-;-;-;-;-;-;-;-;-;-;-;-;-
1513510018413;-;-;9.540192;0.730423;-3.7953186;-;-;-;-;-;-;-;-;-;-;-;-;-;-;-
1513510018433;-;-;10.727707;1.5229034;-4.45253;-;-;-;-;-;-;-;-;-;-;-;-;-;-;-
1513510018454;-;-;10.436813;2.5967102;-4.4716797;-;-;-;-;-;-;-;-;-;-;-;-;-;-;-
1513510018474;-;-;10.42485;3.5196686;-4.3519745;-;-;-;-;-;-;-;-;-;-;-;-;-;-;-
1513510018494;-;-;9.914871;3.3580627;-4.0826263;-;-;-;-;-;-;-;-;-;-;-;-;-;-;-
1513510018514;-;-;9.23851;2.409958;-5.2569885;-;-;-;-;-;-;-;-;-;-;-;-;-;-;-
1513510018535;-;-;8.414917;1.8090057;-6.5534515;-;-;-;-;-;-;-;-;-;-;-;-;-;-;-
1513510018555;-;-;8.730942;1.3265839;-5.966858;-;-;-;-;-;-;-;-;-;-;-;-;-;-;-
1513510018576;-;-;9.159515;0.2695465;-6.7150574;-;-;-;-;-;-;-;-;-;-;-;-;-;-;-
1513510018596;-;-;8.399353;-0.76834106;-7.6643524;-;-;-;-;-;-;-;-;-;-;-;-;-;-;-
1513510018617;-;-;7.9516296;-1.2531738;-8.606476;-;-;-;-;-;-;-;-;-;-;-;-;-;-;-
1513510018638;-;-;8.201828;-0.6438446;-7.705063;-;-;-;-;-;-;-;-;-;-;-;-;-;-;-
1513510018658;-;-;7.8833923;0.06364441;-5.429367;-;-;-;-;-;-;-;-;-;-;-;-;-;-;-
1513510018678;-;-;7.5158844;1.0237122;-2.333664;-;-;-;-;-;-;-;-;-;-;-;-;-;-;-
1513510018699;-;-;6.8945923;1.1242676;-1.5543518;-;-;-;-;-;-;-;-;-;-;-;-;-;-;-
1513510018719;-;-;6.798828;-0.4738617;-2.527588;-;-;-;-;-;-;-;-;-;-;-;-;-;-;-
1513510018739;-;-;6.8239594;-1.9031982;-3.4026794;-;-;-;-;-;-;-;-;-;-;-;-;-;-;-
1513510018759;-;-;5.7609406;-3.2870483;-3.8096924;-;-;-;-;-;-;-;-;-;-;-;-;-;-;-
1513510018780;-;-;5.1731567;-3.5360413;-2.7981415;-;-;-;-;-;-;-;-;-;-;-;-;-;-;-
1513510018800;-;-;5.370682;-2.9590454;-1.9254456;-;-;-;-;-;-;-;-;-;-;-;-;-;-;-
1513510018820;-;-;6.0290833;-2.3078156;-1.9769287;-;-;-;-;-;-;-;-;-;-;-;-;-;-;-
1513510018841;-;-;5.849518;-1.7068787;-2.6532898;-;-;-;-;-;-;-;-;-;-;-;-;-;-;-
1513510018861;-;-;5.197098;-1.0448761;-3.974884;-;-;-;-;-;-;-;-;-;-;-;-;-;-;-
1513510018881;-;-;6.8036194;-0.8186188;-4.3124695;-;-;-;-;-;-;-;-;-;-;-;-;-;-;-
1513510018902;-;-;9.111618;-0.8964386;-4.0479126;-;-;-;-;-;-;-;-;-;-;-;-;-;-;-
1513510018921;-;-;10.641525;-1.7080688;-4.3435974;-;-;-;-;-;-;-;-;-;-;-;-;-;-;-
1513510018941;-;-;10.612793;-2.669342;-4.131714;-;-;-;-;-;-;-;-;-;-;-;-;-;-;-
1513510018962;-;-;12.406052;-3.1374054;-4.1376953;-;-;-;-;-;-;-;-;-;-;-;-;-;-;-
1513510018982;-;-;15.191696;-2.4335175;-4.7326508;-;-;-;-;-;-;-;-;-;-;-;-;-;-;-
1513510019002;-;-;15.074387;-0.7851105;-6.0075684;-;-;-;-;-;-;-;-;-;-;-;-;-;-;-
1513510019023;-;-;9.934036;-0.9000244;-10.967148;-;-;-;-;-;-;-;-;-;-;-;-;-;-;-
1513510019043;-;-;7.3937836;-2.190506;-9.938843;-;-;-;-;-;-;-;-;-;-;-;-;-;-;-
1513510019063;-;-;10.530182;-2.2683105;-3.9126434;-;-;-;-;-;-;-;-;-;-;-;-;-;-;-
1513510019084;-;-;8.477158;-0.43315125;-5.030731;-;-;-;-;-;-;-;-;-;-;-;-;-;-;-
1513510019104;-;-;5.063034;0.42277527;-9.446838;-;-;-;-;-;-;-;-;-;-;-;-;-;-;-
1513510019125;-;-;7.3375244;0.8585205;-8.32515;-;-;-;-;-;-;-;-;-;-;-;-;-;-;-
1513510019145;-;-;7.841507;0.17018127;-4.361557;-;-;-;-;-;-;-;-;-;-;-;-;-;-;-
1513510019165;-;-;7.4009705;-0.8066559;0.29756165;-;-;-;-;-;-;-;-;-;-;-;-;-;-;-
1513510019185;-;-;6.8550873;-1.9750214;-0.0041046143;-;-;-;-;-;-;-;-;-;-;-;-;-;-;-
1513510019206;-;-;7.0538025;-2.4299164;-2.4701385;-;-;-;-;-;-;-;-;-;-;-;-;-;-;-
1513510019225;-;-;6.644394;-1.6147003;-4.3675385;-;-;-;-;-;-;-;-;-;-;-;-;-;-;-
1513510019245;-;-;5.6424255;-0.5325165;-3.7079315;-;-;-;-;-;-;-;-;-;-;-;-;-;-;-
1513510019265;-;-;3.6049652;1.4271393;-3.8168793;-;-;-;-;-;-;-;-;-;-;-;-;-;-;-
1513510019286;-;-;3.2278748;3.6585388;-3.3009186;-;-;-;-;-;-;-;-;-;-;-;-;-;-;-
1513510019306;-;-;3.3176575;4.98732;-3.1476898;-;-;-;-;-;-;-;-;-;-;-;-;-;-;-
1513510019326;-;-;4.9301453;4.4749603;-3.5690765;-;-;-;-;-;-;-;-;-;-;-;-;-;-;-
1513510019347;-;-;7.501526;3.3245392;-3.2099457;-;-;-;-;-;-;-;-;-;-;-;-;-;-;-
1513510019368;-;-;9.443222;1.0261078;-2.8747559;-;-;-;-;-;-;-;-;-;-;-;-;-;-;-
1513510019388;-;-;10.952759;-0.062057495;-3.2171173;-;-;-;-;-;-;-;-;-;-;-;-;-;-;-
1513510019408;-;-;11.442383;0.26115417;-4.6141357;-;-;-;-;-;-;-;-;-;-;-;-;-;-;-
1513510019429;-;-;11.491455;1.3517151;-4.2143097;-;-;-;-;-;-;-;-;-;-;-;-;-;-;-
1513510019449;-;-;11.322662;1.1805267;-3.440979;-;-;-;-;-;-;-;-;-;-;-;-;-;-;-
1513510019469;-;-;10.569687;1.0045624;-3.6109772;-;-;-;-;-;-;-;-;-;-;-;-;-;-;-
1513510019490;-;-;8.204224;1.248764;-7.979187;-;-;-;-;-;-;-;-;-;-;-;-;-;-;-
1513510019510;-;-;8.872208;2.6601563;-6.2206573;-;-;-;-;-;-;-;-;-;-;-;-;-;-;-
1513510019530;-;-;11.11438;3.5076904;-5.4161987;-;-;-;-;-;-;-;-;-;-;-;-;-;-;-
1513510019550;-;-;9.699402;2.904358;-9.307968;-;-;-;-;-;-;-;-;-;-;-;-;-;-;-
1513510019570;-;-;8.637573;1.9406891;-9.398956;-;-;-;-;-;-;-;-;-;-;-;-;-;-;-
1513510019591;-;-;6.070984;0.61190796;-8.175522;-;-;-;-;-;-;-;-;-;-;-;-;-;-;-
1513510019611;-;-;6.209854;-0.6330719;-6.2290344;-;-;-;-;-;-;-;-;-;-;-;-;-;-;-
1513510019631;-;-;8.553772;-1.8577118;-3.5140076;-;-;-;-;-;-;-;-;-;-;-;-;-;-;-
1513510019652;-;-;7.877411;-1.0556488;-2.1169891;-;-;-;-;-;-;-;-;-;-;-;-;-;-;-
1513510019672;-;-;6.8431244;0.62028503;-2.586258;-;-;-;-;-;-;-;-;-;-;-;-;-;-;-
1513510019692;-;-;6.3654785;0.9075928;-5.0079803;-;-;-;-;-;-;-;-;-;-;-;-;-;-;-
1513510019713;-;-;5.3970184;0.49699402;-4.808075;-;-;-;-;-;-;-;-;-;-;-;-;-;-;-
1513510019733;-;-;4.6787567;-0.040512085;-3.361969;-;-;-;-;-;-;-;-;-;-;-;-;-;-;-
1513510019753;-;-;3.9820404;-0.6821594;-2.429428;-;-;-;-;-;-;-;-;-;-;-;-;-;-;-
1513510019773;-;-;3.988037;-1.5763855;-2.522812;-;-;-;-;-;-;-;-;-;-;-;-;-;-;-
1513510019793;-;-;4.721863;-1.898407;-3.0686798;-;-;-;-;-;-;-;-;-;-;-;-;-;-;-
1513510019813;-;-;5.189926;-1.8493347;-3.1093903;-;-;-;-;-;-;-;-;-;-;-;-;-;-;-
1513510019833;-;-;5.742981;-1.7607422;-3.0543213;-;-;-;-;-;-;-;-;-;-;-;-;-;-;-
1513510019853;-;-;6.7617188;-1.8732758;-3.1081848;-;-;-;-;-;-;-;-;-;-;-;-;-;-;-
1513510019874;-;-;8.100067;-2.025299;-3.4242249;-;-;-;-;-;-;-;-;-;-;-;-;-;-;-
1513510019894;-;-;9.585678;-1.7499695;-3.377533;-;-;-;-;-;-;-;-;-;-;-;-;-;-;-
1513510019914;-;-;10.222534;-1.696106;-3.8420105;-;-;-;-;-;-;-;-;-;-;-;-;-;-;-
1513510019935;-;-;10.861786;-2.0157318;-4.5806274;-;-;-;-;-;-;-;-;-;-;-;-;-;-;-
1513510019955;-;-;12.808273;-1.4447021;-4.775757;-;-;-;-;-;-;-;-;-;-;-;-;-;-;-
1513510019976;-;-;13.448715;-0.81144714;-5.6568146;-;-;-;-;-;-;-;-;-;-;-;-;-;-;-
1513510019996;-;-;12.534134;-0.18536377;-8.235367;-;-;-;-;-;-;-;-;-;-;-;-;-;-;-
1513510020016;-;-;10.876144;-0.60913086;-10.017853;-;-;-;-;-;-;-;-;-;-;-;-;-;-;-
1513510020037;-;-;10.406891;-2.2395782;-7.037079;-;-;-;-;-;-;-;-;-;-;-;-;-;-;-
1513510020057;-;-;11.231689;-2.3796387;-4.9493256;-;-;-;-;-;-;-;-;-;-;-;-;-;-;-
1513510020078;-;-;7.916916;-1.5033722;-7.2764893;-;-;-;-;-;-;-;-;-;-;-;-;-;-;-
1513510020098;-;-;6.0171204;-0.996994;-9.377411;-;-;-;-;-;-;-;-;-;-;-;-;-;-;-
1513510020117;-;-;7.794815;-0.81144714;-6.870682;-;-;-;-;-;-;-;-;-;-;-;-;-;-;-
1513510020137;-;-;8.191055;-0.38407898;-4.199951;-;-;-;-;-;-;-;-;-;-;-;-;-;-;-
1513510020158;-;-;7.4332886;-0.0440979;-2.3516235;-;-;-;-;-;-;-;-;-;-;-;-;-;-;-
1513510020178;-;-;7.003525;0.3210144;-2.7993317;-;-;-;-;-;-;-;-;-;-;-;-;-;-;-
1513510020198;-;-;5.987198;0.5855713;-4.3005066;-;-;-;-;-;-;-;-;-;-;-;-;-;-;-
1513510020219;-;-;5.6531982;0.81781006;-4.922989;-;-;-;-;-;-;-;-;-;-;-;-;-;-;-
1513510020239;-;-;4.8942413;1.0213165;-4.323242;-;-;-;-;-;-;-;-;-;-;-;-;-;-;-
1513510020259;-;-;4.130493;1.3780518;-4.1185455;-;-;-;-;-;-;-;-;-;-;-;-;-;-;-
1513510020280;-;-;3.6684113;1.7635193;-3.472107;-;-;-;-;-;-;-;-;-;-;-;-;-;-;-
1513510020300;-;-;4.2549896;1.5025482;-2.8089142;-;-;-;-;-;-;-;-;-;-;-;-;-;-;-
1513510020320;-;-;5.2856903;1.2751007;-2.5838623;-;-;-;-;-;-;-;-;-;-;-;-;-;-;-
1513510020341;-;-;5.434128;1.3481293;-2.8855286;-;-;-;-;-;-;-;-;-;-;-;-;-;-;-
1513510020360;-;-;6.7054443;0.9303436;-3.1249542;-;-;-;-;-;-;-;-;-;-;-;-;-;-;-
1513510020380;-;-;8.284424;1.8054199;-1.6441345;-;-;-;-;-;-;-;-;-;-;-;-;-;-;-
1513510020401;-;-;9.303162;2.6110687;-1.5519562;-;-;-;-;-;-;-;-;-;-;-;-;-;-;-
1513510020421;-;-;9.895721;2.272293;-3.0112305;-;-;-;-;-;-;-;-;-;-;-;-;-;-;-
1513510020441;-;-;10.388931;1.9825897;-3.740265;-;-;-;-;-;-;-;-;-;-;-;-;-;-;-
1513510020461;-;-;11.065292;2.011322;-4.289734;-;-;-;-;-;-;-;-;-;-;-;-;-;-;-
1513510020482;-;-;11.651871;2.2279968;-4.4621124;-;-;-;-;-;-;-;-;-;-;-;-;-;-;-
1513510020502;-;-;10.440399;2.129837;-5.369507;-;-;-;-;-;-;-;-;-;-;-;-;-;-;-
1513510020522;-;-;9.054169;2.5344543;-8.906952;-;-;-;-;-;-;-;-;-;-;-;-;-;-;-
1513510020543;-;-;11.611176;3.4681854;-6.1835327;-;-;-;-;-;-;-;-;-;-;-;-;-;-;-
1513510020563;-;-;11.909256;4.106247;-7.819977;-;-;-;-;-;-;-;-;-;-;-;-;-;-;-
1513510020583;-;-;8.662704;2.6625366;-10.495499;-;-;-;-;-;-;-;-;-;-;-;-;-;-;-
1513510020604;-;-;5.647217;1.0644073;-7.8774414;-;-;-;-;-;-;-;-;-;-;-;-;-;-;-
1513510020624;-;-;4.4788513;-1.0508575;-5.1264954;-;-;-;-;-;-;-;-;-;-;-;-;-;-;-
1513510020644;-;-;6.7257996;-2.399994;-3.4122467;-;-;-;-;-;-;-;-;-;-;-;-;-;-;-
1513510020665;-;-;8.213791;-2.5388641;-2.6808167;-;-;-;-;-;-;-;-;-;-;-;-;-;-;-
1513510020685;-;-;6.908966;-0.33021545;-2.938202;-;-;-;-;-;-;-;-;-;-;-;-;-;-;-
1513510020705;-;-;6.8239594;1.2080688;-4.0275574;-;-;-;-;-;-;-;-;-;-;-;-;-;-;-
1513510020725;-;-;6.667145;1.4343262;-5.152832;-;-;-;-;-;-;-;-;-;-;-;-;-;-;-
1513510020746;-;-;5.565811;1.0428619;-4.4776764;-;-;-;-;-;-;-;-;-;-;-;-;-;-;-
1513510020765;-;-;4.545883;-0.27394104;-3.073471;-;-;-;-;-;-;-;-;-;-;-;-;-;-;-
1513510020785;-;-;4.055069;-2.056427;-2.2414856;-;-;-;-;-;-;-;-;-;-;-;-;-;-;-
1513510020805;-;-;4.9660645;-2.5711823;-2.3635864;-;-;-;-;-;-;-;-;-;-;-;-;-;-;-
1513510020826;-;-;6.458847;-2.4095764;-2.7047577;-;-;-;-;-;-;-;-;-;-;-;-;-;-;-
1513510020846;-;-;6.9783936;-1.7368011;-2.728714;-;-;-;-;-;-;-;-;-;-;-;-;-;-;-
1513510020866;-;-;6.8682556;-1.190918;-2.7718048;-;-;-;-;-;-;-;-;-;-;-;-;-;-;-
1513510020887;-;-;6.857483;-1.5739899;-3.3452148;-;-;-;-;-;-;-;-;-;-;-;-;-;-;-
1513510020907;-;-;7.8043976;-2.6322327;-3.856369;-;-;-;-;-;-;-;-;-;-;-;-;-;-;-
1513510020928;-;-;9.695816;-2.9518585;-4.4980164;-;-;-;-;-;-;-;-;-;-;-;-;-;-;-
1513510020947;-;-;11.495056;-2.4143677;-5.453308;-;-;-;-;-;-;-;-;-;-;-;-;-;-;-
1513510020967;-;-;12.562866;-1.5344849;-6.2613525;-;-;-;-;-;-;-;-;-;-;-;-;-;-;-
1513510020988;-;-;13.803055;-0.28831482;-6.995178;-;-;-;-;-;-;-;-;-;-;-;-;-;-;-
1513510021007;-;-;11.847;0.16897583;-7.895401;-;-;-;-;-;-;-;-;-;-;-;-;-;-;-
1513510021027;-;-;9.476746;0.13546753;-8.656754;-;-;-;-;-;-;-;-;-;-;-;-;-;-;-
1513510021048;-;-;9.121201;-0.973053;-6.129669;-;-;-;-;-;-;-;-;-;-;-;-;-;-;-
1513510021068;-;-;9.432449;-3.2930298;-3.6349182;-;-;-;-;-;-;-;-;-;-;-;-;-;-;-
1513510021088;-;-;10.190216;-3.6641388;-4.9996033;-;-;-;-;-;-;-;-;-;-;-;-;-;-;-
1513510021109;-;-;7.0382385;-3.3241577;-9.840683;-;-;-;-;-;-;-;-;-;-;-;-;-;-;-
1513510021129;-;-;5.9907837;-2.1809235;-11.730911;-;-;-;-;-;-;-;-;-;-;-;-;-;-;-
1513510021149;-;-;7.7134094;0.093566895;-8.270081;-;-;-;-;-;-;-;-;-;-;-;-;-;-;-
1513510021169;-;-;8.826721;1.8126068;-4.6249084;-;-;-;-;-;-;-;-;-;-;-;-;-;-;-
1513510021190;-;-;8.314362;1.6234589;-4.641678;-;-;-;-;-;-;-;-;-;-;-;-;-;-;-
1513510021210;-;-;7.8391113;0.7819061;-4.8535614;-;-;-;-;-;-;-;-;-;-;-;-;-;-;-
1513510021230;-;-;6.8610687;-0.41160583;-5.088196;-;-;-;-;-;-;-;-;-;-;-;-;-;-;-
1513510021251;-;-;5.391037;-1.3417511;-4.5339355;-;-;-;-;-;-;-;-;-;-;-;-;-;-;-
1513510021271;-;-;3.8168488;-1.4016113;-3.4828796;-;-;-;-;-;-;-;-;-;-;-;-;-;-;-
1513510021291;-;-;2.9058533;-0.6330719;-3.302124;-;-;-;-;-;-;-;-;-;-;-;-;-;-;-
1513510021312;-;-;2.470108;1.6569824;-3.6109772;-;-;-;-;-;-;-;-;-;-;-;-;-;-;-
1513510021332;-;-;2.5898132;2.9546356;-2.9178467;-;-;-;-;-;-;-;-;-;-;-;-;-;-;-
1513510021352;-;-;4.25618;3.0659637;-2.6916046;-;-;-;-;-;-;-;-;-;-;-;-;-;-;-
1513510021374;-;-;5.7226257;2.8265533;-2.8711548;-;-;-;-;-;-;-;-;-;-;-;-;-;-;-
1513510021394;-;-;6.395401;2.7487335;-3.1488953;-;-;-;-;-;-;-;-;-;-;-;-;-;-;-
1513510021414;-;-;7.6547546;2.418335;-2.7849731;-;-;-;-;-;-;-;-;-;-;-;-;-;-;-
1513510021435;-;-;9.610809;2.035263;-2.7322998;-;-;-;-;-;-;-;-;-;-;-;-;-;-;-
1513510021454;-;-;10.921646;1.3313751;-3.140503;-;-;-;-;-;-;-;-;-;-;-;-;-;-;-
1513510021474;-;-;12.3390045;1.1793365;-3.9293976;-;-;-;-;-;-;-;-;-;-;-;-;-;-;-
1513510021495;-;-;13.044098;2.1669464;-5.073822;-;-;-;-;-;-;-;-;-;-;-;-;-;-;-
1513510021515;-;-;12.43956;2.5823364;-3.740265;-;-;-;-;-;-;-;-;-;-;-;-;-;-;-
1513510021535;-;-;9.679047;2.189682;-4.8427887;-;-;-;-;-;-;-;-;-;-;-;-;-;-;-
1513510021555;-;-;6.436096;2.315384;-7.275299;-;-;-;-;-;-;-;-;-;-;-;-;-;-;-
1513510021576;-;-;9.631165;2.4518585;-3.1297302;-;-;-;-;-;-;-;-;-;-;-;-;-;-;-
1513510021596;-;-;12.250427;2.5823364;-9.732941;-;-;-;-;-;-;-;-;-;-;-;-;-;-;-
1513510021616;-;-;10.438019;1.5671997;-10.582886;-;-;-;-;-;-;-;-;-;-;-;-;-;-;-
1513510021637;-;-;6.8036194;1.0572357;-9.424088;-;-;-;-;-;-;-;-;-;-;-;-;-;-;-
1513510021657;-;-;6.379837;-0.38049316;-7.2166443;-;-;-;-;-;-;-;-;-;-;-;-;-;-;-
1513510021678;-;-;8.969162;-1.7176514;-4.128113;-;-;-;-;-;-;-;-;-;-;-;-;-;-;-
1513510021698;-;-;9.406113;-1.902008;-3.0220032;-;-;-;-;-;-;-;-;-;-;-;-;-;-;-
1513510021718;-;-;5.9907837;-0.21528625;-3.0363617;-;-;-;-;-;-;-;-;-;-;-;-;-;-;-
1513510021738;-;-;4.5434875;1.1206818;-3.3200684;-;-;-;-;-;-;-;-;-;-;-;-;-;-;-
1513510021759;-;-;4.65123;1.703659;-4.602173;-;-;-;-;-;-;-;-;-;-;-;-;-;-;-
1513510021779;-;-;4.0658417;1.0081482;-4.840393;-;-;-;-;-;-;-;-;-;-;-;-;-;-;-
1513510021799;-;-;3.2913208;-0.9610748;-3.3739471;-;-;-;-;-;-;-;-;-;-;-;-;-;-;-
1513510021819;-;-;3.1524506;-2.8321533;-2.840042;-;-;-;-;-;-;-;-;-;-;-;-;-;-;-
1513510021840;-;-;4.609329;-3.507309;-2.986084;-;-;-;-;-;-;-;-;-;-;-;-;-;-;-
1513510021860;-;-;6.715027;-2.8800354;-3.748642;-;-;-;-;-;-;-;-;-;-;-;-;-;-;-
1513510021880;-;-;7.9983215;-1.6206818;-3.8839111;-;-;-;-;-;-;-;-;-;-;-;-;-;-;-
1513510021901;-;-;7.7601013;-0.34457397;-3.151291;-;-;-;-;-;-;-;-;-;-;-;-;-;-;-
1513510021921;-;-;6.8407288;0.39404297;-2.6927948;-;-;-;-;-;-;-;-;-;-;-;-;-;-;-
1513510021941;-;-;6.3451233;-1.3585205;-3.152481;-;-;-;-;-;-;-;-;-;-;-;-;-;-;-
1513510021962;-;-;7.810379;-2.9195404;-3.8096924;-;-;-;-;-;-;-;-;-;-;-;-;-;-;-
1513510021982;-;-;9.313934;-3.2128296;-4.641678;-;-;-;-;-;-;-;-;-;-;-;-;-;-;-
1513510022002;-;-;11.521393;-3.0572052;-5.681961;-;-;-;-;-;-;-;-;-;-;-;-;-;-;-
1513510022023;-;-;14.697296;-2.3377533;-6.033905;-;-;-;-;-;-;-;-;-;-;-;-;-;-;-
1513510022043;-;-;17.412323;-1.3740845;-5.85553;-;-;-;-;-;-;-;-;-;-;-;-;-;-;-
1513510022063;-;-;16.4738;-0.5337219;-5.2378235;-;-;-;-;-;-;-;-;-;-;-;-;-;-;-
1513510022084;-;-;13.40802;0.5556488;-4.1592407;-;-;-;-;-;-;-;-;-;-;-;-;-;-;-
1513510022104;-;-;5.56102;-0.9586792;-7.5889435;-;-;-;-;-;-;-;-;-;-;-;-;-;-;-
1513510022124;-;-;2.0894318;-2.7172241;-6.0542603;-;-;-;-;-;-;-;-;-;-;-;-;-;-;-
1513510022145;-;-;1.7350922;-2.8896027;-0.111846924;-;-;-;-;-;-;-;-;-;-;-;-;-;-;-
1513510022165;-;-;4.1676025;-2.0432587;-3.1105804;-;-;-;-;-;-;-;-;-;-;-;-;-;-;-
1513510022185;-;-;8.898544;-1.214859;-8.163544;-;-;-;-;-;-;-;-;-;-;-;-;-;-;-
1513510022206;-;-;12.431183;0.031311035;-9.606049;-;-;-;-;-;-;-;-;-;-;-;-;-;-;-
1513510022226;-;-;10.862976;1.0045624;-8.549011;-;-;-;-;-;-;-;-;-;-;-;-;-;-;-
1513510022246;-;-;10.059723;1.3912201;-3.7953186;-;-;-;-;-;-;-;-;-;-;-;-;-;-;-
1513510022267;-;-;8.783615;0.9782257;-3.2183228;-;-;-;-;-;-;-;-;-;-;-;-;-;-;-
1513510022287;-;-;7.614044;0.9997711;-4.9289856;-;-;-;-;-;-;-;-;-;-;-;-;-;-;-
1513510022307;-;-;5.8112183;0.56881714;-5.8423615;-;-;-;-;-;-;-;-;-;-;-;-;-;-;-
1513510022328;-;-;3.865921;0.9782257;-5.737015;-;-;-;-;-;-;-;-;-;-;-;-;-;-;-
1513510022348;-;-;2.6029816;2.2543335;-5.2737427;-;-;-;-;-;-;-;-;-;-;-;-;-;-;-
1513510022368;-;-;2.6903687;3.2826385;-4.833206;-;-;-;-;-;-;-;-;-;-;-;-;-;-;-
1513510022389;-;-;3.8958588;3.470581;-4.7637787;-;-;-;-;-;-;-;-;-;-;-;-;-;-;-
1513510022409;-;-;4.738617;2.576355;-4.9600983;-;-;-;-;-;-;-;-;-;-;-;-;-;-;-
1513510022429;-;-;6.585739;1.0763855;-4.7075195;-;-;-;-;-;-;-;-;-;-;-;-;-;-;-
1513510022449;-;-;7.135208;-0.030929565;-4.1101685;-;-;-;-;-;-;-;-;-;-;-;-;-;-;-
1513510022469;-;-;7.2513275;-0.5756073;-3.2961273;-;-;-;-;-;-;-;-;-;-;-;-;-;-;-
1513510022490;-;-;7.110077;-0.5456848;-1.9098969;-;-;-;-;-;-;-;-;-;-;-;-;-;-;-
1513510022510;-;-;6.517502;-0.41281128;-0.9581909;-;-;-;-;-;-;-;-;-;-;-;-;-;-;-
1513510022530;-;-;7.18309;-0.018966675;-0.5834961;-;-;-;-;-;-;-;-;-;-;-;-;-;-;-
1513510022551;-;-;7.734955;0.37368774;-1.5687103;-;-;-;-;-;-;-;-;-;-;-;-;-;-;-
1513510022571;-;-;9.045776;0.9111786;-1.729126;-;-;-;-;-;-;-;-;-;-;-;-;-;-;-
1513510022591;-;-;10.271622;1.3876343;-1.8177185;-;-;-;-;-;-;-;-;-;-;-;-;-;-;-
1513510022611;-;-;10.459564;1.3900299;-2.4066925;-;-;-;-;-;-;-;-;-;-;-;-;-;-;-
1513510022633;-;-;9.985504;0.6789551;-2.4270325;-;-;-;-;-;-;-;-;-;-;-;-;-;-;-
1513510022652;-;-;9.9831085;0.0181427;-1.4681549;-;-;-;-;-;-;-;-;-;-;-;-;-;-;-
1513510022672;-;-;9.893326;-0.70610046;-0.5966644;-;-;-;-;-;-;-;-;-;-;-;-;-;-;-
1513510022693;-;-;8.780029;-0.36611938;-4.4872437;-;-;-;-;-;-;-;-;-;-;-;-;-;-;-
1513510022713;-;-;7.778061;1.7395782;-8.7908325;-;-;-;-;-;-;-;-;-;-;-;-;-;-;-
1513510022733;-;-;10.111206;3.5555878;-9.6766815;-;-;-;-;-;-;-;-;-;-;-;-;-;-;-
1513510022754;-;-;13.380493;5.141739;-10.958771;-;-;-;-;-;-;-;-;-;-;-;-;-;-;-
1513510022773;-;-;10.7851715;6.249054;-9.797592;-;-;-;-;-;-;-;-;-;-;-;-;-;-;-
1513510022793;-;-;5.574188;4.6664886;-8.455643;-;-;-;-;-;-;-;-;-;-;-;-;-;-;-
1513510022814;-;-;4.453705;1.1242676;-6.3367615;-;-;-;-;-;-;-;-;-;-;-;-;-;-;-
1513510022834;-;-;3.3727264;-1.3573151;-4.101776;-;-;-;-;-;-;-;-;-;-;-;-;-;-;-
1513510022854;-;-;4.2466125;-2.38443;-2.7358856;-;-;-;-;-;-;-;-;-;-;-;-;-;-;-
1513510022875;-;-;7.85347;-2.2036743;-4.9553223;-;-;-;-;-;-;-;-;-;-;-;-;-;-;-
1513510022895;-;-;10.694199;-0.76356506;-7.268112;-;-;-;-;-;-;-;-;-;-;-;-;-;-;-
1513510022915;-;-;10.455963;0.42037964;-7.1543884;-;-;-;-;-;-;-;-;-;-;-;-;-;-;-
1513510022936;-;-;7.478775;0.6729584;-5.709488;-;-;-;-;-;-;-;-;-;-;-;-;-;-;-
1513510022956;-;-;4.802063;0.40242004;-4.675186;-;-;-;-;-;-;-;-;-;-;-;-;-;-;-
1513510022976;-;-;3.873108;-0.22366333;-4.5662537;-;-;-;-;-;-;-;-;-;-;-;-;-;-;-
1513510022997;-;-;4.4489136;-1.1681824;-4.816452;-;-;-;-;-;-;-;-;-;-;-;-;-;-;-
1513510023017;-;-;6.996353;-1.9570618;-5.327606;-;-;-;-;-;-;-;-;-;-;-;-;-;-;-
1513510023037;-;-;7.739746;-2.613083;-5.604141;-;-;-;-;-;-;-;-;-;-;-;-;-;-;-
1513510023057;-;-;8.344284;-3.281067;-4.895462;-;-;-;-;-;-;-;-;-;-;-;-;-;-;-
1513510023078;-;-;9.565323;-3.8999634;-3.9617157;-;-;-;-;-;-;-;-;-;-;-;-;-;-;-
1513510023098;-;-;10.500259;-3.988556;-3.5642853;-;-;-;-;-;-;-;-;-;-;-;-;-;-;-
1513510023118;-;-;10.333862;-3.0332642;-3.6025848;-;-;-;-;-;-;-;-;-;-;-;-;-;-;-
1513510023138;-;-;8.766861;-0.92996216;-3.2410736;-;-;-;-;-;-;-;-;-;-;-;-;-;-;-
1513510023159;-;-;7.6906586;0.0061798096;-2.6137848;-;-;-;-;-;-;-;-;-;-;-;-;-;-;-
1513510023179;-;-;7.344696;-0.2571869;-2.6437073;-;-;-;-;-;-;-;-;-;-;-;-;-;-;-
1513510023199;-;-;8.157532;-1.4147797;-2.8029327;-;-;-;-;-;-;-;-;-;-;-;-;-;-;-
1513510023219;-;-;8.447235;-2.2491608;-3.8934937;-;-;-;-;-;-;-;-;-;-;-;-;-;-;-
1513510023240;-;-;8.339493;-1.8888397;-5.464081;-;-;-;-;-;-;-;-;-;-;-;-;-;-;-
1513510023260;-;-;7.0741577;-1.8074341;-6.0434723;-;-;-;-;-;-;-;-;-;-;-;-;-;-;-
1513510023280;-;-;6.8479004;0.1797638;-7.659561;-;-;-;-;-;-;-;-;-;-;-;-;-;-;-
1513510023301;-;-;8.301193;4.1828613;-9.376205;-;-;-;-;-;-;-;-;-;-;-;-;-;-;-
1513510023321;-;-;11.772781;5.761841;-6.689911;-;-;-;-;-;-;-;-;-;-;-;-;-;-;-
1513510023341;-;-;12.487442;2.208847;-6.729416;-;-;-;-;-;-;-;-;-;-;-;-;-;-;-
1513510023362;-;-;12.282745;-1.020935;-6.0434723;-;-;-;-;-;-;-;-;-;-;-;-;-;-;-
1513510023382;-;-;11.248444;-3.35289;-5.795685;-;-;-;-;-;-;-;-;-;-;-;-;-;-;-
1513510023402;-;-;10.552933;-2.918335;-5.444931;-;-;-;-;-;-;-;-;-;-;-;-;-;-;-
1513510023423;-;-;9.291183;-0.45231628;-3.8539886;-;-;-;-;-;-;-;-;-;-;-;-;-;-;-
1513510023443;-;-;6.735382;1.7323914;-3.6217499;-;-;-;-;-;-;-;-;-;-;-;-;-;-;-
1513510023463;-;-;4.134079;3.307785;-3.8312378;-;-;-;-;-;-;-;-;-;-;-;-;-;-;-
1513510023483;-;-;3.8407898;3.706421;-2.852005;-;-;-;-;-;-;-;-;-;-;-;-;-;-;-
1513510023504;-;-;4.9229736;3.4346771;-2.3863373;-;-;-;-;-;-;-;-;-;-;-;-;-;-;-
1513510023524;-;-;6.8083954;2.7236023;-1.8021545;-;-;-;-;-;-;-;-;-;-;-;-;-;-;-
1513510023544;-;-;8.766861;1.2679291;-1.8823547;-;-;-;-;-;-;-;-;-;-;-;-;-;-;-
1513510023565;-;-;9.355835;-0.014175415;-2.3983002;-;-;-;-;-;-;-;-;-;-;-;-;-;-;-
1513510023585;-;-;9.623978;-0.7875061;-2.1134033;-;-;-;-;-;-;-;-;-;-;-;-;-;-;-
1513510023605;-;-;9.813126;-0.4271698;-1.5148468;-;-;-;-;-;-;-;-;-;-;-;-;-;-;-
1513510023625;-;-;7.956421;1.9945679;-1.0348053;-;-;-;-;-;-;-;-;-;-;-;-;-;-;-
1513510023645;-;-;6.319992;2.4877625;-1.1844482;-;-;-;-;-;-;-;-;-;-;-;-;-;-;-
1513510023666;-;-;5.8076324;2.1250458;-0.93185425;-;-;-;-;-;-;-;-;-;-;-;-;-;-;-
1513510023686;-;-;6.0219116;1.7922516;-0.89834595;-;-;-;-;-;-;-;-;-;-;-;-;-;-;-
1513510023706;-;-;7.6511536;1.5312805;-0.35006714;-;-;-;-;-;-;-;-;-;-;-;-;-;-;-
1513510023726;-;-;9.761642;1.6904907;-0.48773193;-;-;-;-;-;-;-;-;-;-;-;-;-;-;-
1513510023747;-;-;11.565674;1.9263306;-1.040802;-;-;-;-;-;-;-;-;-;-;-;-;-;-;-
1513510023767;-;-;13.265564;2.2675018;-1.689621;-;-;-;-;-;-;-;-;-;-;-;-;-;-;-
1513510023788;-;-;14.447098;3.7100067;-2.6784363;-;-;-;-;-;-;-;-;-;-;-;-;-;-;-
1513510023808;-;-;12.925583;4.679657;-8.452042;-;-;-;-;-;-;-;-;-;-;-;-;-;-;-
1513510023828;-;-;12.655045;8.290115;-8.027069;-;-;-;-;-;-;-;-;-;-;-;-;-;-;-
1513510023849;-;-;11.969101;7.7933197;-7.294449;-;-;-;-;-;-;-;-;-;-;-;-;-;-;-
1513510023870;-;-;10.04895;3.5603638;-6.9652405;-;-;-;-;-;-;-;-;-;-;-;-;-;-;-
1513510023890;-;-;6.35231;2.292633;-6.0782013;-;-;-;-;-;-;-;-;-;-;-;-;-;-;-
1513510023910;-;-;3.1728058;1.9574585;-6.4672546;-;-;-;-;-;-;-;-;-;-;-;-;-;-;-
1513510023931;-;-;4.0574646;1.5707855;-6.7042847;-;-;-;-;-;-;-;-;-;-;-;-;-;-;-
1513510023950;-;-;7.928894;0.08758545;-6.7198486;-;-;-;-;-;-;-;-;-;-;-;-;-;-;-
1513510023970;-;-;9.837067;-1.0592499;-6.6923065;-;-;-;-;-;-;-;-;-;-;-;-;-;-;-
1513510023990;-;-;9.398926;-0.3182373;-6.602524;-;-;-;-;-;-;-;-;-;-;-;-;-;-;-
1513510024011;-;-;8.401749;0.26594543;-5.7226563;-;-;-;-;-;-;-;-;-;-;-;-;-;-;-
1513510024031;-;-;7.301605;0.87527466;-5.6687927;-;-;-;-;-;-;-;-;-;-;-;-;-;-;-
1513510024051;-;-;5.774109;1.492981;-5.167206;-;-;-;-;-;-;-;-;-;-;-;-;-;-;-
1513510024071;-;-;4.561447;1.2667236;-4.2813416;-;-;-;-;-;-;-;-;-;-;-;-;-;-;-
1513510024091;-;-;3.7593842;0.28390503;-3.5499115;-;-;-;-;-;-;-;-;-;-;-;-;-;-;-
1513510024112;-;-;3.7258606;-0.7910919;-2.831665;-;-;-;-;-;-;-;-;-;-;-;-;-;-;-
1513510024132;-;-;4.7290344;-1.992981;-2.776596;-;-;-;-;-;-;-;-;-;-;-;-;-;-;-
1513510024152;-;-;7.055008;-2.1126862;-2.5575256;-;-;-;-;-;-;-;-;-;-;-;-;-;-;-
1513510024173;-;-;7.635605;-1.5572357;-2.3911285;-;-;-;-;-;-;-;-;-;-;-;-;-;-;-
1513510024193;-;-;5.6771393;-0.91200256;-3.6289215;-;-;-;-;-;-;-;-;-;-;-;-;-;-;-
1513510024213;-;-;5.7561493;-0.28231812;-4.68956;-;-;-;-;-;-;-;-;-;-;-;-;-;-;-
1513510024233;-;-;6.3187866;-0.9467163;-4.219101;-;-;-;-;-;-;-;-;-;-;-;-;-;-;-
1513510024253;-;-;7.508713;-1.5201263;-2.939392;-;-;-;-;-;-;-;-;-;-;-;-;-;-;-
1513510024274;-;-;8.387375;-2.1079102;-3.254242;-;-;-;-;-;-;-;-;-;-;-;-;-;-;-
1513510024294;-;-;9.038605;-2.637024;-4.2777557;-;-;-;-;-;-;-;-;-;-;-;-;-;-;-
1513510024314;-;-;10.460754;-2.3916168;-5.015167;-;-;-;-;-;-;-;-;-;-;-;-;-;-;-
1513510024334;-;-;12.582016;-2.0767822;-5.492813;-;-;-;-;-;-;-;-;-;-;-;-;-;-;-
1513510024355;-;-;12.990234;-0.80067444;-7.1112976;-;-;-;-;-;-;-;-;-;-;-;-;-;-;-
1513510024375;-;-;12.67659;0.6466217;-8.487961;-;-;-;-;-;-;-;-;-;-;-;-;-;-;-
1513510024395;-;-;10.138733;0.9207611;-10.883362;-;-;-;-;-;-;-;-;-;-;-;-;-;-;-
1513510024415;-;-;9.746094;0.17376709;-12.446777;-;-;-;-;-;-;-;-;-;-;-;-;-;-;-
1513510024435;-;-;14.670959;-1.8313751;-5.6244965;-;-;-;-;-;-;-;-;-;-;-;-;-;-;-
1513510024456;-;-;11.941574;-3.0655823;-8.938065;-;-;-;-;-;-;-;-;-;-;-;-;-;-;-
1513510024476;-;-;9.594055;-2.930313;-11.396912;-;-;-;-;-;-;-;-;-;-;-;-;-;-;-
1513510024496;-;-;7.8558655;-2.1079102;-9.57254;-;-;-;-;-;-;-;-;-;-;-;-;-;-;-
1513510024516;-;-;4.6811523;-0.06803894;-6.4624634;-;-;-;-;-;-;-;-;-;-;-;-;-;-;-
1513510024537;-;-;2.1049957;0.6166992;-1.8643951;-;-;-;-;-;-;-;-;-;-;-;-;-;-;-
1513510024556;-;-;1.2203369;0.3509369;0.46875;-;-;-;-;-;-;-;-;-;-;-;-;-;-;-
1513510024576;-;-;4.611725;0.14503479;-2.0511475;-;-;-;-;-;-;-;-;-;-;-;-;-;-;-
1513510024596;-;-;5.889023;-0.1769867;-5.1396637;-;-;-;-;-;-;-;-;-;-;-;-;-;-;-
1513510024617;-;-;6.1523895;-0.18536377;-6.555832;-;-;-;-;-;-;-;-;-;-;-;-;-;-;-
1513510024637;-;-;5.4353333;0.5736084;-5.9967957;-;-;-;-;-;-;-;-;-;-;-;-;-;-;-
1513510024657;-;-;4.23822;2.081955;-4.824829;-;-;-;-;-;-;-;-;-;-;-;-;-;-;-
1513510024678;-;-;3.9305725;2.9630127;-4.0910034;-;-;-;-;-;-;-;-;-;-;-;-;-;-;-
1513510024698;-;-;5.011551;2.940277;-4.186783;-;-;-;-;-;-;-;-;-;-;-;-;-;-;-
1513510024718;-;-;6.7257996;2.0855408;-4.760193;-;-;-;-;-;-;-;-;-;-;-;-;-;-;-
1513510024739;-;-;6.2421722;1.0572357;-5.4748535;-;-;-;-;-;-;-;-;-;-;-;-;-;-;-
1513510024759;-;-;5.367096;0.49339294;-4.1029816;-;-;-;-;-;-;-;-;-;-;-;-;-;-;-
1513510024779;-;-;8.478363;-0.021362305;-3.152481;-;-;-;-;-;-;-;-;-;-;-;-;-;-;-
1513510024799;-;-;9.193024;0.98301697;-3.361969;-;-;-;-;-;-;-;-;-;-;-;-;-;-;-
1513510024820;-;-;9.550964;2.292633;-4.0562897;-;-;-;-;-;-;-;-;-;-;-;-;-;-;-
1513510024840;-;-;10.228516;2.7223969;-4.6596375;-;-;-;-;-;-;-;-;-;-;-;-;-;-;-
1513510024860;-;-;10.891708;2.4135437;-5.911804;-;-;-;-;-;-;-;-;-;-;-;-;-;-;-
1513510024881;-;-;9.29718;2.0615997;-4.7518005;-;-;-;-;-;-;-;-;-;-;-;-;-;-;-
1513510024901;-;-;7.051407;1.1709595;-7.410568;-;-;-;-;-;-;-;-;-;-;-;-;-;-;-
1513510024921;-;-;6.704254;2.189682;-7.5697784;-;-;-;-;-;-;-;-;-;-;-;-;-;-;-
1513510024942;-;-;7.5194855;4.0775146;-5.5071716;-;-;-;-;-;-;-;-;-;-;-;-;-;-;-
1513510024962;-;-;7.969589;3.2479248;-8.759705;-;-;-;-;-;-;-;-;-;-;-;-;-;-;-
1513510024983;-;-;8.18866;1.1374359;-8.12883;-;-;-;-;-;-;-;-;-;-;-;-;-;-;-
1513510025003;-;-;5.403;-0.7408142;-9.074539;-;-;-;-;-;-;-;-;-;-;-;-;-;-;-
1513510025023;-;-;6.0973206;-2.0372772;-7.623657;-;-;-;-;-;-;-;-;-;-;-;-;-;-;-
1513510025044;-;-;7.51828;-2.7423706;-4.456131;-;-;-;-;-;-;-;-;-;-;-;-;-;-;-
1513510025064;-;-;8.679474;-1.5129395;-3.6504822;-;-;-;-;-;-;-;-;-;-;-;-;-;-;-
1513510025084;-;-;7.6224365;0.9351349;-5.0630493;-;-;-;-;-;-;-;-;-;-;-;-;-;-;-
1513510025105;-;-;6.546234;1.6916962;-6.1153107;-;-;-;-;-;-;-;-;-;-;-;-;-;-;-
1513510025125;-;-;6.201477;1.5061493;-5.9812317;-;-;-;-;-;-;-;-;-;-;-;-;-;-;-
1513510025145;-;-;5.4592743;0.3317871;-4.675186;-;-;-;-;-;-;-;-;-;-;-;-;-;-;-
1513510025166;-;-;5.244995;-2.1725464;-3.638504;-;-;-;-;-;-;-;-;-;-;-;-;-;-;-
1513510025186;-;-;6.1356354;-3.241562;-3.5690765;-;-;-;-;-;-;-;-;-;-;-;-;-;-;-
1513510025206;-;-;6.849106;-2.8369446;-3.2949371;-;-;-;-;-;-;-;-;-;-;-;-;-;-;-
1513510025226;-;-;7.0262756;-1.827774;-3.4852753;-;-;-;-;-;-;-;-;-;-;-;-;-;-;-
1513510025247;-;-;6.715027;-0.625885;-3.954544;-;-;-;-;-;-;-;-;-;-;-;-;-;-;-
1513510025267;-;-;6.260132;-0.028533936;-4.5255585;-;-;-;-;-;-;-;-;-;-;-;-;-;-;-
1513510025287;-;-;7.2465363;-0.064453125;-4.936157;-;-;-;-;-;-;-;-;-;-;-;-;-;-;-
1513510025308;-;-;8.544205;-0.50019836;-4.8822937;-;-;-;-;-;-;-;-;-;-;-;-;-;-;-
1513510025328;-;-;7.9073334;-1.4937897;-4.6955414;-;-;-;-;-;-;-;-;-;-;-;-;-;-;-
1513510025348;-;-;9.114014;-2.5891418;-4.7577972;-;-;-;-;-;-;-;-;-;-;-;-;-;-;-
1513510025369;-;-;12.49942;-2.1246643;-5.3766937;-;-;-;-;-;-;-;-;-;-;-;-;-;-;-
1513510025389;-;-;13.917984;-0.82580566;-6.722229;-;-;-;-;-;-;-;-;-;-;-;-;-;-;-
1513510025409;-;-;11.214935;-0.2392273;-8.50592;-;-;-;-;-;-;-;-;-;-;-;-;-;-;-
1513510025429;-;-;9.811935;-1.5943451;-9.795197;-;-;-;-;-;-;-;-;-;-;-;-;-;-;-
1513510025449;-;-;11.522583;-2.4035797;-6.816803;-;-;-;-;-;-;-;-;-;-;-;-;-;-;-
1513510025470;-;-;11.682999;-2.025299;-4.19635;-;-;-;-;-;-;-;-;-;-;-;-;-;-;-
1513510025490;-;-;7.4297028;-0.86291504;-6.966446;-;-;-;-;-;-;-;-;-;-;-;-;-;-;-
1513510025510;-;-;3.8910675;-0.7312317;-10.070526;-;-;-;-;-;-;-;-;-;-;-;-;-;-;-
1513510025530;-;-;5.1911163;-0.21528625;-7.6571655;-;-;-;-;-;-;-;-;-;-;-;-;-;-;-
1513510025551;-;-;6.9891663;-0.5349121;-4.492035;-;-;-;-;-;-;-;-;-;-;-;-;-;-;-
1513510025571;-;-;8.156342;0.062438965;-2.915451;-;-;-;-;-;-;-;-;-;-;-;-;-;-;-
1513510025591;-;-;7.2908325;1.0931396;-3.6636505;-;-;-;-;-;-;-;-;-;-;-;-;-;-;-
1513510025612;-;-;5.8710785;1.5312805;-5.1696014;-;-;-;-;-;-;-;-;-;-;-;-;-;-;-
1513510025632;-;-;5.1839294;1.367279;-5.4389496;-;-;-;-;-;-;-;-;-;-;-;-;-;-;-
1513510025652;-;-;4.3806763;0.98062134;-4.9972076;-;-;-;-;-;-;-;-;-;-;-;-;-;-;-
1513510025673;-;-;3.8096619;0.8154144;-4.27536;-;-;-;-;-;-;-;-;-;-;-;-;-;-;-
1513510025692;-;-;3.6133423;0.64183044;-3.796524;-;-;-;-;-;-;-;-;-;-;-;-;-;-;-
1513510025712;-;-;4.6236877;0.27313232;-3.0040436;-;-;-;-;-;-;-;-;-;-;-;-;-;-;-
1513510025732;-;-;5.711853;0.44911194;-2.5192108;-;-;-;-;-;-;-;-;-;-;-;-;-;-;-
1513510025753;-;-;6.062607;1.1446228;-3.0064392;-;-;-;-;-;-;-;-;-;-;-;-;-;-;-
1513510025773;-;-;6.829956;2.1621552;-3.5235748;-;-;-;-;-;-;-;-;-;-;-;-;-;-;-
1513510025793;-;-;8.844666;1.9790039;-4.3723297;-;-;-;-;-;-;-;-;-;-;-;-;-;-;-
1513510025814;-;-;9.4887085;2.3345337;-5.1420593;-;-;-;-;-;-;-;-;-;-;-;-;-;-;-
1513510025834;-;-;9.172684;2.8480988;-4.499222;-;-;-;-;-;-;-;-;-;-;-;-;-;-;-
1513510025854;-;-;10.112396;2.842102;-4.1197357;-;-;-;-;-;-;-;-;-;-;-;-;-;-;-
1513510025875;-;-;10.709747;3.0851135;-4.8427887;-;-;-;-;-;-;-;-;-;-;-;-;-;-;-
1513510025895;-;-;10.28479;2.232788;-5.0187683;-;-;-;-;-;-;-;-;-;-;-;-;-;-;-
1513510025915;-;-;8.44603;1.8760529;-6.741394;-;-;-;-;-;-;-;-;-;-;-;-;-;-;-
1513510025936;-;-;8.24971;2.6565552;-8.1623535;-;-;-;-;-;-;-;-;-;-;-;-;-;-;-
1513510025955;-;-;10.160278;4.071533;-5.903412;-;-;-;-;-;-;-;-;-;-;-;-;-;-;-
1513510025975;-;-;8.763275;3.7519073;-8.757309;-;-;-;-;-;-;-;-;-;-;-;-;-;-;-
1513510025996;-;-;8.004303;1.9622345;-8.595703;-;-;-;-;-;-;-;-;-;-;-;-;-;-;-
1513510026015;-;-;6.4648285;1.0404663;-8.173126;-;-;-;-;-;-;-;-;-;-;-;-;-;-;-
1513510026036;-;-;5.0462646;-0.67497253;-7.3674774;-;-;-;-;-;-;-;-;-;-;-;-;-;-;-
1513510026056;-;-;5.734604;-1.953476;-5.7753296;-;-;-;-;-;-;-;-;-;-;-;-;-;-;-
1513510026076;-;-;6.8526917;-1.7942657;-4.6536407;-;-;-;-;-;-;-;-;-;-;-;-;-;-;-
1513510026097;-;-;7.574539;-0.083602905;-4.4980164;-;-;-;-;-;-;-;-;-;-;-;-;-;-;-
1513510026117;-;-;7.064575;1.4833984;-4.931366;-;-;-;-;-;-;-;-;-;-;-;-;-;-;-
1513510026137;-;-;6.4612427;2.0256805;-5.7753296;-;-;-;-;-;-;-;-;-;-;-;-;-;-;-
1513510026157;-;-;4.9708557;1.3768616;-5.4341583;-;-;-;-;-;-;-;-;-;-;-;-;-;-;-
1513510026178;-;-;3.9197998;-0.53970337;-4.0562897;-;-;-;-;-;-;-;-;-;-;-;-;-;-;-
1513510026198;-;-;3.9545135;-2.5316772;-2.685608;-;-;-;-;-;-;-;-;-;-;-;-;-;-;-
1513510026218;-;-;5.367096;-3.5827332;-2.780182;-;-;-;-;-;-;-;-;-;-;-;-;-;-;-
1513510026238;-;-;6.6970673;-2.6430054;-3.9293976;-;-;-;-;-;-;-;-;-;-;-;-;-;-;-
1513510026259;-;-;7.4799805;-1.0257263;-4.428589;-;-;-;-;-;-;-;-;-;-;-;-;-;-;-
1513510026279;-;-;7.356674;0.5819855;-4.235855;-;-;-;-;-;-;-;-;-;-;-;-;-;-;-
1513510026299;-;-;6.521103;0.9566803;-3.9293976;-;-;-;-;-;-;-;-;-;-;-;-;-;-;-
1513510026319;-;-;7.811569;0.8908386;-4.207123;-;-;-;-;-;-;-;-;-;-;-;-;-;-;-
1513510026340;-;-;8.368225;-0.1410675;-4.3244476;-;-;-;-;-;-;-;-;-;-;-;-;-;-;-
1513510026360;-;-;8.592087;-1.2352142;-4.45253;-;-;-;-;-;-;-;-;-;-;-;-;-;-;-
1513510026380;-;-;9.003891;-1.6147003;-4.4980164;-;-;-;-;-;-;-;-;-;-;-;-;-;-;-
1513510026401;-;-;10.556519;-1.7296143;-5.230652;-;-;-;-;-;-;-;-;-;-;-;-;-;-;-
1513510026421;-;-;11.682999;-1.5584412;-5.67836;-;-;-;-;-;-;-;-;-;-;-;-;-;-;-
1513510026441;-;-;12.273163;-0.8581238;-7.1304474;-;-;-;-;-;-;-;-;-;-;-;-;-;-;-
1513510026462;-;-;9.629974;-0.6510315;-12.334244;-;-;-;-;-;-;-;-;-;-;-;-;-;-;-
1513510026482;-;-;10.636734;-2.2072601;-9.481552;-;-;-;-;-;-;-;-;-;-;-;-;-;-;-
1513510026502;-;-;14.313034;-3.5480194;-3.598999;-;-;-;-;-;-;-;-;-;-;-;-;-;-;-
1513510026522;-;-;11.407669;-3.0308685;-8.405365;-;-;-;-;-;-;-;-;-;-;-;-;-;-;-
1513510026542;-;-;8.139572;-2.5807648;-12.104401;-;-;-;-;-;-;-;-;-;-;-;-;-;-;-
1513510026563;-;-;6.118866;-0.9586792;-9.942444;-;-;-;-;-;-;-;-;-;-;-;-;-;-;-
1513510026582;-;-;4.214279;0.5819855;-6.3044434;-;-;-;-;-;-;-;-;-;-;-;-;-;-;-
1513510026603;-;-;5.0845795;0.13546753;-1.5088654;-;-;-;-;-;-;-;-;-;-;-;-;-;-;-
1513510026622;-;-;6.090149;-0.20930481;-1.9446106;-;-;-;-;-;-;-;-;-;-;-;-;-;-;-
1513510026642;-;-;6.941284;-0.26316833;-4.180786;-;-;-;-;-;-;-;-;-;-;-;-;-;-;-
1513510026663;-;-;6.6432037;-0.6761627;-6.472046;-;-;-;-;-;-;-;-;-;-;-;-;-;-;-
1513510026683;-;-;6.276886;-1.0736084;-5.7861023;-;-;-;-;-;-;-;-;-;-;-;-;-;-;-
1513510026703;-;-;4.984024;-0.40322876;-4.4513397;-;-;-;-;-;-;-;-;-;-;-;-;-;-;-
1513510026724;-;-;3.845581;0.9854126;-4.2454376;-;-;-;-;-;-;-;-;-;-;-;-;-;-;-
1513510026744;-;-;3.7162933;2.2136383;-4.1029816;-;-;-;-;-;-;-;-;-;-;-;-;-;-;-
1513510026764;-;-;4.4967957;2.512909;-3.8779297;-;-;-;-;-;-;-;-;-;-;-;-;-;-;-
1513510026785;-;-;5.015152;2.7798615;-3.796524;-;-;-;-;-;-;-;-;-;-;-;-;-;-;-
1513510026805;-;-;5.097748;1.8150024;-3.6432953;-;-;-;-;-;-;-;-;-;-;-;-;-;-;-
1513510026825;-;-;6.1643677;1.1541901;-2.796936;-;-;-;-;-;-;-;-;-;-;-;-;-;-;-
1513510026845;-;-;7.4368744;1.2152557;-2.1529083;-;-;-;-;-;-;-;-;-;-;-;-;-;-;-
1513510026866;-;-;8.771652;1.7120514;-3.3368378;-;-;-;-;-;-;-;-;-;-;-;-;-;-;-
1513510026886;-;-;7.5446167;2.0400543;-3.38591;-;-;-;-;-;-;-;-;-;-;-;-;-;-;-
1513510026906;-;-;8.909317;1.2451782;-3.405075;-;-;-;-;-;-;-;-;-;-;-;-;-;-;-
1513510026927;-;-;9.706589;1.2044678;-3.8372192;-;-;-;-;-;-;-;-;-;-;-;-;-;-;-
1513510026947;-;-;10.356613;1.2379913;-3.8767242;-;-;-;-;-;-;-;-;-;-;-;-;-;-;-
1513510026968;-;-;9.106842;1.3385468;-5.274948;-;-;-;-;-;-;-;-;-;-;-;-;-;-;-
1513510026988;-;-;8.819534;1.7958374;-11.424454;-;-;-;-;-;-;-;-;-;-;-;-;-;-;-
1513510027008;-;-;15.695679;3.8512726;-8.490356;-;-;-;-;-;-;-;-;-;-;-;-;-;-;-
1513510027028;-;-;10.105225;8.116531;-11.655487;-;-;-;-;-;-;-;-;-;-;-;-;-;-;-
1513510027049;-;-;8.039017;5.7175446;-11.888916;-;-;-;-;-;-;-;-;-;-;-;-;-;-;-
1513510027069;-;-;6.153595;2.813385;-8.9691925;-;-;-;-;-;-;-;-;-;-;-;-;-;-;-
1513510027089;-;-;4.7170715;-0.34457397;-6.1260834;-;-;-;-;-;-;-;-;-;-;-;-;-;-;-
1513510027110;-;-;5.823181;-2.8357391;-5.374298;-;-;-;-;-;-;-;-;-;-;-;-;-;-;-
1513510027130;-;-;7.5841217;-3.000946;-4.8667297;-;-;-;-;-;-;-;-;-;-;-;-;-;-;-
1513510027150;-;-;8.410126;-0.4439392;-5.1971283;-;-;-;-;-;-;-;-;-;-;-;-;-;-;-
1513510027171;-;-;7.1567535;1.9071808;-5.015167;-;-;-;-;-;-;-;-;-;-;-;-;-;-;-
1513510027191;-;-;6.094925;2.9390717;-5.4473267;-;-;-;-;-;-;-;-;-;-;-;-;-;-;-
1513510027211;-;-;4.4836273;2.473404;-4.678787;-;-;-;-;-;-;-;-;-;-;-;-;-;-;-
1513510027232;-;-;3.2218933;0.2803192;-2.9334106;-;-;-;-;-;-;-;-;-;-;-;-;-;-;-
1513510027251;-;-;3.3679352;-2.8237762;-1.610611;-;-;-;-;-;-;-;-;-;-;-;-;-;-;-
1513510027271;-;-;4.328003;-4.73674;-1.3831635;-;-;-;-;-;-;-;-;-;-;-;-;-;-;-
1513510027292;-;-;5.72023;-4.585907;-2.2929688;-;-;-;-;-;-;-;-;-;-;-;-;-;-;-
1513510027312;-;-;6.316391;-2.795044;-3.5523071;-;-;-;-;-;-;-;-;-;-;-;-;-;-;-
1513510027332;-;-;5.9824066;-0.98023987;-4.662018;-;-;-;-;-;-;-;-;-;-;-;-;-;-;-
1513510027352;-;-;5.3024445;0.06364441;-5.081009;-;-;-;-;-;-;-;-;-;-;-;-;-;-;-
1513510027373;-;-;6.5953217;0.8166199;-5.1456604;-;-;-;-;-;-;-;-;-;-;-;-;-;-;-
1513510027393;-;-;9.182251;-0.39006042;-4.6165314;-;-;-;-;-;-;-;-;-;-;-;-;-;-;-
1513510027414;-;-;10.501465;-2.04805;-4.441757;-;-;-;-;-;-;-;-;-;-;-;-;-;-;-
1513510027433;-;-;9.910095;-2.676529;-4.7087097;-;-;-;-;-;-;-;-;-;-;-;-;-;-;-
1513510027453;-;-;10.385345;-2.4143677;-5.3359985;-;-;-;-;-;-;-;-;-;-;-;-;-;-;-
1513510027473;-;-;11.716522;-2.0552368;-6.1308746;-;-;-;-;-;-;-;-;-;-;-;-;-;-;-
1513510027494;-;-;11.320282;-2.368866;-7.8271637;-;-;-;-;-;-;-;-;-;-;-;-;-;-;-
1513510027514;-;-;8.679474;-3.5516052;-12.176224;-;-;-;-;-;-;-;-;-;-;-;-;-;-;-
1513510027534;-;-;12.377319;-4.628998;-6.5654144;-;-;-;-;-;-;-;-;-;-;-;-;-;-;-
1513510027555;-;-;15.062408;-3.498932;-4.638077;-;-;-;-;-;-;-;-;-;-;-;-;-;-;-
1513510027575;-;-;12.743622;-0.44992065;-10.837875;-;-;-;-;-;-;-;-;-;-;-;-;-;-;-
1513510027595;-;-;8.422089;0.4467163;-12.544937;-;-;-;-;-;-;-;-;-;-;-;-;-;-;-
1513510027616;-;-;4.585388;1.853302;-10.488312;-;-;-;-;-;-;-;-;-;-;-;-;-;-;-
1513510027636;-;-;3.5056;3.5232544;-5.461685;-;-;-;-;-;-;-;-;-;-;-;-;-;-;-
1513510027656;-;-;2.3372345;0.50057983;-1.6393433;-;-;-;-;-;-;-;-;-;-;-;-;-;-;-
1513510027677;-;-;5.5753937;-0.65940857;-3.2973328;-;-;-;-;-;-;-;-;-;-;-;-;-;-;-
1513510027697;-;-;8.165909;-0.8461609;-4.651245;-;-;-;-;-;-;-;-;-;-;-;-;-;-;-
1513510027717;-;-;8.861435;-0.4774475;-5.891449;-;-;-;-;-;-;-;-;-;-;-;-;-;-;-
1513510027737;-;-;7.391388;0.050476074;-5.8651123;-;-;-;-;-;-;-;-;-;-;-;-;-;-;-
1513510027758;-;-;5.5825653;0.8597107;-4.5506897;-;-;-;-;-;-;-;-;-;-;-;-;-;-;-
1513510027778;-;-;4.0502777;1.6150818;-4.179596;-;-;-;-;-;-;-;-;-;-;-;-;-;-;-
1513510027798;-;-;2.6484833;1.7156372;-4.8344116;-;-;-;-;-;-;-;-;-;-;-;-;-;-;-
1513510027818;-;-;3.2949066;0.7735138;-4.548294;-;-;-;-;-;-;-;-;-;-;-;-;-;-;-
1513510027839;-;-;5.0917664;0.2886963;-4.2921143;-;-;-;-;-;-;-;-;-;-;-;-;-;-;-
1513510027859;-;-;5.87706;-0.71687317;-4.5818176;-;-;-;-;-;-;-;-;-;-;-;-;-;-;-
1513510027879;-;-;6.1332397;0.32939148;-3.911438;-;-;-;-;-;-;-;-;-;-;-;-;-;-;-
1513510027900;-;-;6.877838;1.3325653;-3.314087;-;-;-;-;-;-;-;-;-;-;-;-;-;-;-
1513510027919;-;-;7.9779663;2.1154633;-3.152481;-;-;-;-;-;-;-;-;-;-;-;-;-;-;-
1513510027939;-;-;8.238937;2.3800354;-3.5187988;-;-;-;-;-;-;-;-;-;-;-;-;-;-;-
1513510027960;-;-;7.078949;2.059204;-3.46492;-;-;-;-;-;-;-;-;-;-;-;-;-;-;-
1513510027979;-;-;7.375824;1.4031982;-3.1333313;-;-;-;-;-;-;-;-;-;-;-;-;-;-;-
1513510027999;-;-;7.8391113;1.6234589;-2.7718048;-;-;-;-;-;-;-;-;-;-;-;-;-;-;-
1513510028020;-;-;8.639969;1.6138763;-3.1824036;-;-;-;-;-;-;-;-;-;-;-;-;-;-;-
1513510028040;-;-;9.700592;2.2938385;-4.6835785;-;-;-;-;-;-;-;-;-;-;-;-;-;-;-
1513510028060;-;-;10.730103;2.6529694;-5.393448;-;-;-;-;-;-;-;-;-;-;-;-;-;-;-
1513510028080;-;-;11.410065;1.9430847;-5.1420593;-;-;-;-;-;-;-;-;-;-;-;-;-;-;-
1513510028101;-;-;11.262817;1.4726257;-7.699066;-;-;-;-;-;-;-;-;-;-;-;-;-;-;-
1513510028122;-;-;11.198166;2.6014862;-8.108475;-;-;-;-;-;-;-;-;-;-;-;-;-;-;-
1513510028142;-;-;12.930374;4.707199;-5.2186737;-;-;-;-;-;-;-;-;-;-;-;-;-;-;-
1513510028162;-;-;11.951141;5.7163544;-7.6607666;-;-;-;-;-;-;-;-;-;-;-;-;-;-;-
1513510028182;-;-;7.5961;5.0411835;-7.8582916;-;-;-;-;-;-;-;-;-;-;-;-;-;-;-
1513510028202;-;-;2.2270966;2.497345;-7.041855;-;-;-;-;-;-;-;-;-;-;-;-;-;-;-
1513510028223;-;-;1.6309357;-0.2571869;-5.1947327;-;-;-;-;-;-;-;-;-;-;-;-;-;-;-
1513510028243;-;-;4.848755;-2.2312012;-3.6983643;-;-;-;-;-;-;-;-;-;-;-;-;-;-;-
1513510028264;-;-;8.84108;-1.8577118;-3.1692352;-;-;-;-;-;-;-;-;-;-;-;-;-;-;-
1513510028284;-;-;10.312317;0.20370483;-3.827652;-;-;-;-;-;-;-;-;-;-;-;-;-;-;-
1513510028304;-;-;10.035782;2.1549683;-5.686737;-;-;-;-;-;-;-;-;-;-;-;-;-;-;-
1513510028325;-;-;9.260071;2.651764;-6.0877686;-;-;-;-;-;-;-;-;-;-;-;-;-;-;-
1513510028345;-;-;6.770096;2.1873016;-5.4987946;-;-;-;-;-;-;-;-;-;-;-;-;-;-;-
1513510028365;-;-;4.070633;0.12709045;-3.4421844;-;-;-;-;-;-;-;-;-;-;-;-;-;-;-
1513510028385;-;-;4.501587;-1.937912;-2.1038208;-;-;-;-;-;-;-;-;-;-;-;-;-;-;-
1513510028406;-;-;4.803253;-3.5994873;-2.4904785;-;-;-;-;-;-;-;-;-;-;-;-;-;-;-
1513510028425;-;-;6.196686;-3.052414;-2.9765015;-;-;-;-;-;-;-;-;-;-;-;-;-;-;-
1513510028445;-;-;6.3977966;-1.9941711;-3.8970795;-;-;-;-;-;-;-;-;-;-;-;-;-;-;-
1513510028466;-;-;6.462433;-1.3226013;-3.4421844;-;-;-;-;-;-;-;-;-;-;-;-;-;-;-
1513510028485;-;-;6.8957977;-1.0484619;-3.12854;-;-;-;-;-;-;-;-;-;-;-;-;-;-;-
1513510028506;-;-;7.2046356;-1.2280273;-2.6484985;-;-;-;-;-;-;-;-;-;-;-;-;-;-;-
1513510028527;-;-;7.0765533;-1.5524445;-2.3204956;-;-;-;-;-;-;-;-;-;-;-;-;-;-;-
1513510028547;-;-;6.9424744;-1.6230774;-1.7973633;-;-;-;-;-;-;-;-;-;-;-;-;-;-;-
1513510028567;-;-;7.4297028;-1.0460815;-1.7853851;-;-;-;-;-;-;-;-;-;-;-;-;-;-;-
1513510028588;-;-;8.149155;-0.49301147;-1.7231445;-;-;-;-;-;-;-;-;-;-;-;-;-;-;-
1513510028607;-;-;8.9392395;-0.34936523;-1.7674408;-;-;-;-;-;-;-;-;-;-;-;-;-;-;-
1513510028627;-;-;10.046555;-0.17219543;-2.63414;-;-;-;-;-;-;-;-;-;-;-;-;-;-;-
1513510028648;-;-;10.672638;0.41438293;-3.433792;-;-;-;-;-;-;-;-;-;-;-;-;-;-;-
1513510028668;-;-;8.165909;-0.74679565;-3.733078;-;-;-;-;-;-;-;-;-;-;-;-;-;-;-
1513510028688;-;-;6.959244;-3.491745;-3.1668396;-;-;-;-;-;-;-;-;-;-;-;-;-;-;-
1513510028707;-;-;9.431244;-3.5887146;-1.6237793;-;-;-;-;-;-;-;-;-;-;-;-;-;-;-
1513510028727;-;-;10.892914;-1.4506989;-3.566681;-;-;-;-;-;-;-;-;-;-;-;-;-;-;-
1513510028747;-;-;9.985504;0.8609009;-7.1627655;-;-;-;-;-;-;-;-;-;-;-;-;-;-;-
1513510028768;-;-;10.648697;1.9287262;-10.3051605;-;-;-;-;-;-;-;-;-;-;-;-;-;-;-
1513510028788;-;-;13.133881;1.4163666;-8.94046;-;-;-;-;-;-;-;-;-;-;-;-;-;-;-
1513510028808;-;-;11.981079;1.4786072;-7.517105;-;-;-;-;-;-;-;-;-;-;-;-;-;-;-
1513510028828;-;-;10.14473;2.102295;-6.995178;-;-;-;-;-;-;-;-;-;-;-;-;-;-;-
1513510028849;-;-;7.509903;2.5236816;-7.0646057;-;-;-;-;-;-;-;-;-;-;-;-;-;-;-
1513510028869;-;-;4.7338257;2.6924744;-6.741394;-;-;-;-;-;-;-;-;-;-;-;-;-;-;-
1513510028889;-;-;3.3966675;2.2339783;-5.67836;-;-;-;-;-;-;-;-;-;-;-;-;-;-;-
1513510028910;-;-;2.8627625;1.5252991;-4.222687;-;-;-;-;-;-;-;-;-;-;-;-;-;-;-
1513510028930;-;-;4.952896;0.8118286;-3.5570984;-;-;-;-;-;-;-;-;-;-;-;-;-;-;-
1513510028950;-;-;9.103241;0.19891357;-4.444153;-;-;-;-;-;-;-;-;-;-;-;-;-;-;-
1513510028971;-;-;9.697006;-0.3649292;-5.0558777;-;-;-;-;-;-;-;-;-;-;-;-;-;-;-
1513510028991;-;-;9.183456;-0.8018646;-4.2083282;-;-;-;-;-;-;-;-;-;-;-;-;-;-;-
1513510029011;-;-;8.844666;-0.124313354;-2.9908752;-;-;-;-;-;-;-;-;-;-;-;-;-;-;-
1513510029031;-;-;7.660736;0.79985046;-2.3396454;-;-;-;-;-;-;-;-;-;-;-;-;-;-;-
1513510029052;-;-;6.1045074;1.1374359;-2.0990295;-;-;-;-;-;-;-;-;-;-;-;-;-;-;-
1513510029073;-;-;5.158798;1.4211578;-1.535202;-;-;-;-;-;-;-;-;-;-;-;-;-;-;-
1513510029094;-;-;5.4089966;1.6186676;-0.5499878;-;-;-;-;-;-;-;-;-;-;-;-;-;-;-
1513510029114;-;-;6.9580383;0.417984;-0.28781128;-;-;-;-;-;-;-;-;-;-;-;-;-;-;-
1513510029134;-;-;8.764465;-1.3848572;-1.0779114;-;-;-;-;-;-;-;-;-;-;-;-;-;-;-
1513510029155;-;-;9.940018;-2.46344;-1.7554626;-;-;-;-;-;-;-;-;-;-;-;-;-;-;-
1513510029176;-;-;10.657074;-2.2862701;-1.2407074;-;-;-;-;-;-;-;-;-;-;-;-;-;-;-
1513510029196;-;-;10.239288;-1.0065765;-0.37161255;-;-;-;-;-;-;-;-;-;-;-;-;-;-;-
1513510029216;-;-;10.347031;-0.43675232;0.21496582;-;-;-;-;-;-;-;-;-;-;-;-;-;-;-
1513510029237;-;-;9.682648;1.3289795;-7.307617;-;-;-;-;-;-;-;-;-;-;-;-;-;-;-
1513510029257;-;-;9.325912;5.217163;-9.337906;-;-;-;-;-;-;-;-;-;-;-;-;-;-;-
1513510029278;-;-;10.356613;7.541931;-9.139175;-;-;-;-;-;-;-;-;-;-;-;-;-;-;-
1513510029297;-;-;10.04776;5.615799;-7.254944;-;-;-;-;-;-;-;-;-;-;-;-;-;-;-
1513510029317;-;-;9.47554;1.0105438;-7.955246;-;-;-;-;-;-;-;-;-;-;-;-;-;-;-
1513510029337;-;-;9.17627;-2.320984;-9.102066;-;-;-;-;-;-;-;-;-;-;-;-;-;-;-
1513510029358;-;-;8.537018;-2.432312;-6.305649;-;-;-;-;-;-;-;-;-;-;-;-;-;-;-
1513510029378;-;-;7.845093;0.7627411;-3.8132782;-;-;-;-;-;-;-;-;-;-;-;-;-;-;-
1513510029398;-;-;7.463211;2.3932037;-3.4984436;-;-;-;-;-;-;-;-;-;-;-;-;-;-;-
1513510029418;-;-;8.228165;1.7910614;-4.302902;-;-;-;-;-;-;-;-;-;-;-;-;-;-;-
1513510029439;-;-;8.587296;-0.08480835;-4.991226;-;-;-;-;-;-;-;-;-;-;-;-;-;-;-
1513510029459;-;-;7.383011;-1.7966614;-4.282547;-;-;-;-;-;-;-;-;-;-;-;-;-;-;-
1513510029480;-;-;5.933319;-3.2523346;-3.6791992;-;-;-;-;-;-;-;-;-;-;-;-;-;-;-
1513510029501;-;-;5.079788;-3.673706;-3.4002838;-;-;-;-;-;-;-;-;-;-;-;-;-;-;-
1513510029521;-;-;4.928955;-2.7890472;-2.97052;-;-;-;-;-;-;-;-;-;-;-;-;-;-;-
1513510029541;-;-;5.6891174;-1.2986603;-2.4976654;-;-;-;-;-;-;-;-;-;-;-;-;-;-;-
1513510029561;-;-;7.408142;-0.542099;-2.302536;-;-;-;-;-;-;-;-;-;-;-;-;-;-;-
1513510029582;-;-;8.863831;-0.68814087;-2.7119446;-;-;-;-;-;-;-;-;-;-;-;-;-;-;-
1513510029602;-;-;9.9783325;-0.85453796;-2.7406769;-;-;-;-;-;-;-;-;-;-;-;-;-;-;-
1513510029622;-;-;9.984314;-1.2567596;-2.860382;-;-;-;-;-;-;-;-;-;-;-;-;-;-;-
1513510029642;-;-;9.694611;-2.0372772;-2.9872742;-;-;-;-;-;-;-;-;-;-;-;-;-;-;-
1513510029663;-;-;8.650742;-2.7734985;-3.8420105;-;-;-;-;-;-;-;-;-;-;-;-;-;-;-
1513510029682;-;-;7.9264984;-3.6988525;-3.2398682;-;-;-;-;-;-;-;-;-;-;-;-;-;-;-
1513510029702;-;-;7.8750153;-3.2236023;-1.6477203;-;-;-;-;-;-;-;-;-;-;-;-;-;-;-
1513510029723;-;-;8.747711;-1.254364;-3.3583832;-;-;-;-;-;-;-;-;-;-;-;-;-;-;-
1513510029743;-;-;7.9576263;1.971817;-8.486755;-;-;-;-;-;-;-;-;-;-;-;-;-;-;-
1513510029763;-;-;9.214569;5.786972;-14.729645;-;-;-;-;-;-;-;-;-;-;-;-;-;-;-
1513510029784;-;-;13.247604;6.41066;-5.9501038;-;-;-;-;-;-;-;-;-;-;-;-;-;-;-
1513510029805;-;-;11.170639;2.9725952;-5.6651917;-;-;-;-;-;-;-;-;-;-;-;-;-;-;-
1513510029826;-;-;10.566101;-0.1985321;-6.516327;-;-;-;-;-;-;-;-;-;-;-;-;-;-;-
1513510029845;-;-;10.220139;-2.0552368;-6.9688416;-;-;-;-;-;-;-;-;-;-;-;-;-;-;-
1513510029866;-;-;10.190216;-2.5999146;-4.714691;-;-;-;-;-;-;-;-;-;-;-;-;-;-;-
1513510029886;-;-;9.337875;-1.1921234;-3.9677124;-;-;-;-;-;-;-;-;-;-;-;-;-;-;-
1513510029907;-;-;7.9588165;0.8213959;-3.3308563;-;-;-;-;-;-;-;-;-;-;-;-;-;-;-
1513510029927;-;-;6.956848;2.5081177;-2.780182;-;-;-;-;-;-;-;-;-;-;-;-;-;-;-
1513510029947;-;-;6.3582916;3.6429749;-2.1672668;-;-;-;-;-;-;-;-;-;-;-;-;-;-;-
1513510029967;-;-;5.7142487;3.972168;-1.7566681;-;-;-;-;-;-;-;-;-;-;-;-;-;-;-
1513510029988;-;-;5.368286;3.1126556;-1.2443085;-;-;-;-;-;-;-;-;-;-;-;-;-;-;-
1513510030008;-;-;5.528702;1.6102905;-1.4071045;-;-;-;-;-;-;-;-;-;-;-;-;-;-;-
1513510030028;-;-;6.2744904;0.33537292;-1.7015991;-;-;-;-;-;-;-;-;-;-;-;-;-;-;-
1513510030049;-;-;8.01268;-0.542099;-1.7961731;-;-;-;-;-;-;-;-;-;-;-;-;-;-;-
1513510030069;-;-;8.759674;0.012161255;-1.9326324;-;-;-;-;-;-;-;-;-;-;-;-;-;-;-
1513510030089;-;-;8.207809;1.1577911;-2.2402954;-;-;-;-;-;-;-;-;-;-;-;-;-;-;-
1513510030109;-;-;8.150345;2.097519;-1.9122772;-;-;-;-;-;-;-;-;-;-;-;-;-;-;-
1513510030130;-;-;9.128387;2.2962341;-1.2897949;-;-;-;-;-;-;-;-;-;-;-;-;-;-;-
1513510030150;-;-;10.008255;2.356079;-1.0312195;-;-;-;-;-;-;-;-;-;-;-;-;-;-;-
1513510030170;-;-;12.106766;2.8361206;-1.234726;-;-;-;-;-;-;-;-;-;-;-;-;-;-;-
1513510030191;-;-;13.033325;3.1545563;-2.2893677;-;-;-;-;-;-;-;-;-;-;-;-;-;-;-
1513510030211;-;-;10.076492;3.6465607;-9.3450775;-;-;-;-;-;-;-;-;-;-;-;-;-;-;-
1513510030231;-;-;12.048111;5.810913;-7.9576416;-;-;-;-;-;-;-;-;-;-;-;-;-;-;-
1513510030252;-;-;9.628769;5.619385;-8.624435;-;-;-;-;-;-;-;-;-;-;-;-;-;-;-
1513510030273;-;-;7.238159;3.4490356;-9.003906;-;-;-;-;-;-;-;-;-;-;-;-;-;-;-
1513510030293;-;-;4.269348;1.5229034;-8.291641;-;-;-;-;-;-;-;-;-;-;-;-;-;-;-
1513510030314;-;-;3.7845306;-0.3182373;-5.7525787;-;-;-;-;-;-;-;-;-;-;-;-;-;-;-
1513510030334;-;-;6.1918945;-0.6713867;-5.8579254;-;-;-;-;-;-;-;-;-;-;-;-;-;-;-
1513510030355;-;-;8.515472;-0.2272644;-6.3044434;-;-;-;-;-;-;-;-;-;-;-;-;-;-;-
1513510030375;-;-;9.945999;0.47184753;-7.1436157;-;-;-;-;-;-;-;-;-;-;-;-;-;-;-
1513510030395;-;-;9.863403;1.5899353;-6.765335;-;-;-;-;-;-;-;-;-;-;-;-;-;-;-
1513510030416;-;-;9.137955;1.710846;-6.050659;-;-;-;-;-;-;-;-;-;-;-;-;-;-;-
1513510030436;-;-;7.892975;1.1949005;-5.325226;-;-;-;-;-;-;-;-;-;-;-;-;-;-;-
1513510030456;-;-;6.7928467;-0.17936707;-4.1903687;-;-;-;-;-;-;-;-;-;-;-;-;-;-;-
1513510030477;-;-;5.765732;-2.1737366;-2.3863373;-;-;-;-;-;-;-;-;-;-;-;-;-;-;-
1513510030497;-;-;5.5586243;-3.1852875;-2.0403748;-;-;-;-;-;-;-;-;-;-;-;-;-;-;-
1513510030517;-;-;6.5510254;-3.076355;-2.5407562;-;-;-;-;-;-;-;-;-;-;-;-;-;-;-
1513510030537;-;-;6.849106;-1.9546814;-2.977707;-;-;-;-;-;-;-;-;-;-;-;-;-;-;-
1513510030558;-;-;6.5594025;-0.6402588;-3.812088;-;-;-;-;-;-;-;-;-;-;-;-;-;-;-
1513510030579;-;-;6.45166;0.5448761;-4.290924;-;-;-;-;-;-;-;-;-;-;-;-;-;-;-
1513510030599;-;-;7.6260223;0.8154144;-3.4589386;-;-;-;-;-;-;-;-;-;-;-;-;-;-;-
1513510030619;-;-;7.256119;-1.8325653;-3.8503876;-;-;-;-;-;-;-;-;-;-;-;-;-;-;-
1513510030640;-;-;8.814743;-3.4414673;-3.4697113;-;-;-;-;-;-;-;-;-;-;-;-;-;-;-
1513510030660;-;-;10.613983;-4.4937286;-4.4633026;-;-;-;-;-;-;-;-;-;-;-;-;-;-;-
1513510030680;-;-;12.53772;-5.792572;-6.1548157;-;-;-;-;-;-;-;-;-;-;-;-;-;-;-
1513510030700;-;-;14.421967;-4.7977905;-7.23938;-;-;-;-;-;-;-;-;-;-;-;-;-;-;-
1513510030720;-;-;11.973892;-2.2527466;-10.5182495;-;-;-;-;-;-;-;-;-;-;-;-;-;-;-
1513510030740;-;-;8.684265;-0.85453796;-13.185379;-;-;-;-;-;-;-;-;-;-;-;-;-;-;-
1513510030761;-;-;9.941208;0.6095123;-4.3507843;-;-;-;-;-;-;-;-;-;-;-;-;-;-;-
1513510030781;-;-;9.468353;1.9131622;-5.204315;-;-;-;-;-;-;-;-;-;-;-;-;-;-;-
1513510030801;-;-;5.0881653;1.4869843;-8.118057;-;-;-;-;-;-;-;-;-;-;-;-;-;-;-
1513510030821;-;-;3.0566864;0.8740692;-8.1671295;-;-;-;-;-;-;-;-;-;-;-;-;-;-;-
1513510030842;-;-;3.4038544;-0.13627625;-4.3675385;-;-;-;-;-;-;-;-;-;-;-;-;-;-;-
1513510030862;-;-;4.9947968;-1.5596313;-2.6987762;-;-;-;-;-;-;-;-;-;-;-;-;-;-;-
1513510030882;-;-;8.019867;-1.9247437;-2.3516235;-;-;-;-;-;-;-;-;-;-;-;-;-;-;-
1513510030903;-;-;8.784821;-1.6446228;-4.6799774;-;-;-;-;-;-;-;-;-;-;-;-;-;-;-
1513510030923;-;-;8.922485;-0.6474457;-6.6911163;-;-;-;-;-;-;-;-;-;-;-;-;-;-;-
1513510030943;-;-;8.062958;0.8621063;-6.9616547;-;-;-;-;-;-;-;-;-;-;-;-;-;-;-
1513510030963;-;-;5.916565;2.2794647;-5.168396;-;-;-;-;-;-;-;-;-;-;-;-;-;-;-
1513510030983;-;-;3.5786285;3.3963623;-4.2645874;-;-;-;-;-;-;-;-;-;-;-;-;-;-;-
1513510031004;-;-;3.284134;3.024063;-4.2023315;-;-;-;-;-;-;-;-;-;-;-;-;-;-;-
1513510031023;-;-;4.3806763;1.2679291;-3.5427399;-;-;-;-;-;-;-;-;-;-;-;-;-;-;-
1513510031043;-;-;5.564621;0.20968628;-3.7462463;-;-;-;-;-;-;-;-;-;-;-;-;-;-;-
1513510031063;-;-;5.495178;0.048080444;-3.9605255;-;-;-;-;-;-;-;-;-;-;-;-;-;-;-
1513510031084;-;-;7.1819;0.7723236;-3.168045;-;-;-;-;-;-;-;-;-;-;-;-;-;-;-
1513510031104;-;-;9.882553;1.3325653;-3.812088;-;-;-;-;-;-;-;-;-;-;-;-;-;-;-
1513510031124;-;-;9.579697;3.046814;-4.969681;-;-;-;-;-;-;-;-;-;-;-;-;-;-;-
1513510031144;-;-;9.434845;3.4801636;-5.4473267;-;-;-;-;-;-;-;-;-;-;-;-;-;-;-
1513510031166;-;-;10.357803;2.4781952;-5.556259;-;-;-;-;-;-;-;-;-;-;-;-;-;-;-
1513510031186;-;-;10.570892;1.611496;-5.556259;-;-;-;-;-;-;-;-;-;-;-;-;-;-;-
1513510031207;-;-;8.684265;0.92196655;-7.117279;-;-;-;-;-;-;-;-;-;-;-;-;-;-;-
1513510031227;-;-;8.443649;2.797821;-7.697876;-;-;-;-;-;-;-;-;-;-;-;-;-;-;-
1513510031247;-;-;8.963181;3.706421;-6.914963;-;-;-;-;-;-;-;-;-;-;-;-;-;-;-
1513510031268;-;-;9.483917;2.1765137;-8.137207;-;-;-;-;-;-;-;-;-;-;-;-;-;-;-
1513510031287;-;-;8.418503;0.77111816;-8.395782;-;-;-;-;-;-;-;-;-;-;-;-;-;-;-
1513510031307;-;-;7.2513275;0.03730774;-7.9887695;-;-;-;-;-;-;-;-;-;-;-;-;-;-;-
1513510031328;-;-;5.6029205;-0.29309082;-7.144806;-;-;-;-;-;-;-;-;-;-;-;-;-;-;-
1513510031347;-;-;4.501587;-0.502594;-5.9297485;-;-;-;-;-;-;-;-;-;-;-;-;-;-;-
1513510031367;-;-;5.1671753;-0.088394165;-3.8934937;-;-;-;-;-;-;-;-;-;-;-;-;-;-;-
1513510031388;-;-;6.0015564;0.5783844;-3.7522278;-;-;-;-;-;-;-;-;-;-;-;-;-;-;-
1513510031407;-;-;6.5342712;1.0416718;-4.4621124;-;-;-;-;-;-;-;-;-;-;-;-;-;-;-
1513510031428;-;-;6.5091248;0.8800659;-5.283325;-;-;-;-;-;-;-;-;-;-;-;-;-;-;-
1513510031447;-;-;5.909378;0.19412231;-4.6871643;-;-;-;-;-;-;-;-;-;-;-;-;-;-;-
1513510031467;-;-;4.872696;-1.1358643;-3.8384247;-;-;-;-;-;-;-;-;-;-;-;-;-;-;-
1513510031488;-;-;5.1647797;-2.5244904;-3.0854492;-;-;-;-;-;-;-;-;-;-;-;-;-;-;-
1513510031507;-;-;6.4169464;-3.124237;-3.2877502;-;-;-;-;-;-;-;-;-;-;-;-;-;-;-
1513510031527;-;-;7.348297;-2.5041504;-3.851593;-;-;-;-;-;-;-;-;-;-;-;-;-;-;-
1513510031548;-;-;7.327942;-1.2819061;-4.2178955;-;-;-;-;-;-;-;-;-;-;-;-;-;-;-
1513510031568;-;-;6.6108856;-0.42477417;-3.9928436;-;-;-;-;-;-;-;-;-;-;-;-;-;-;-
1513510031588;-;-;6.4061737;-0.19972229;-3.8108826;-;-;-;-;-;-;-;-;-;-;-;-;-;-;-
1513510031609;-;-;8.066559;-0.91319275;-4.27536;-;-;-;-;-;-;-;-;-;-;-;-;-;-;-
1513510031629;-;-;8.611237;-1.6721649;-4.219101;-;-;-;-;-;-;-;-;-;-;-;-;-;-;-
1513510031649;-;-;8.356247;-2.6513824;-4.5494995;-;-;-;-;-;-;-;-;-;-;-;-;-;-;-
1513510031669;-;-;9.616806;-3.4330902;-5.690338;-;-;-;-;-;-;-;-;-;-;-;-;-;-;-
1513510031690;-;-;12.080429;-3.3301392;-6.4229584;-;-;-;-;-;-;-;-;-;-;-;-;-;-;-
1513510031710;-;-;11.836227;-2.3616943;-9.183472;-;-;-;-;-;-;-;-;-;-;-;-;-;-;-
1513510031731;-;-;10.283585;-1.7212372;-12.268402;-;-;-;-;-;-;-;-;-;-;-;-;-;-;-
1513510031751;-;-;12.975861;-1.8948212;-8.8111725;-;-;-;-;-;-;-;-;-;-;-;-;-;-;-
1513510031771;-;-;13.8090515;-1.0412903;-8.308395;-;-;-;-;-;-;-;-;-;-;-;-;-;-;-
1513510031791;-;-;9.378571;-0.46548462;-10.989899;-;-;-;-;-;-;-;-;-;-;-;-;-;-;-
1513510031811;-;-;5.509552;-0.4379425;-9.77005;-;-;-;-;-;-;-;-;-;-;-;-;-;-;-
