TimeStamp[ms];Prox[Cm];Lux[lux];AccX[m/s^2];AccY[m/s^2];AccZ[m/s^2];GyroX[rad/s];GyroY[rad/s];GyroZ[rad/s];MagnX[uT];MagnY[uT];MagnZ[uT];OrienYaw[degrees];OrienPitch[degrees];OrienRoll[degrees];Press[Pa];Temp[C°];Batt[%];Lat;Lng;Speed[m/s]
1513510058295;-;-;9.210983;-0.08480835;-0.9581909;-;-;-;-;-;-;-;-;-;-;-;-;-;-;-
1513510058297;-;-;9.185837;-0.047698975;-1.0539703;-;-;-;-;-;-;-;-;-;-;-;-;-;-;-
1513510058318;-;-;8.934448;0.03251648;-1.203598;-;-;-;-;-;-;-;-;-;-;-;-;-;-;-
1513510058338;-;-;8.837494;0.2192688;-1.4238739;-;-;-;-;-;-;-;-;-;-;-;-;-;-;-
1513510058358;-;-;9.170288;0.5592346;-1.2000122;-;-;-;-;-;-;-;-;-;-;-;-;-;-;-
1513510058379;-;-;9.324707;1.0584259;-1.100647;-;-;-;-;-;-;-;-;-;-;-;-;-;-;-
1513510058399;-;-;9.357025;1.5240936;-1.0503693;-;-;-;-;-;-;-;-;-;-;-;-;-;-;-
1513510058419;-;-;9.106842;1.3493195;-0.29380798;-;-;-;-;-;-;-;-;-;-;-;-;-;-;-
1513510058439;-;-;8.996704;0.8668976;-0.15014648;-;-;-;-;-;-;-;-;-;-;-;-;-;-;-
1513510058459;-;-;9.052963;0.5281067;0.21376038;-;-;-;-;-;-;-;-;-;-;-;-;-;-;-
1513510058480;-;-;9.175064;0.9243469;-1.1988068;-;-;-;-;-;-;-;-;-;-;-;-;-;-;-
1513510058500;-;-;9.464767;1.2954559;-0.28901672;-;-;-;-;-;-;-;-;-;-;-;-;-;-;-
1513510058520;-;-;9.0577545;2.3309479;-0.30577087;-;-;-;-;-;-;-;-;-;-;-;-;-;-;-
1513510058540;-;-;6.752136;2.6254272;-0.1884613;-;-;-;-;-;-;-;-;-;-;-;-;-;-;-
1513510058560;-;-;8.085709;0.6250763;-0.5128784;-;-;-;-;-;-;-;-;-;-;-;-;-;-;-
1513510058581;-;-;9.896927;0.1953125;-0.9725647;-;-;-;-;-;-;-;-;-;-;-;-;-;-;-
1513510058600;-;-;10.017822;-0.109939575;-0.102264404;-;-;-;-;-;-;-;-;-;-;-;-;-;-;-
1513510058620;-;-;8.454422;0.32341003;-0.4446411;-;-;-;-;-;-;-;-;-;-;-;-;-;-;-
1513510058641;-;-;8.6651;1.1996918;-0.25309753;-;-;-;-;-;-;-;-;-;-;-;-;-;-;-
1513510058660;-;-;9.224152;1.4247437;-0.32373047;-;-;-;-;-;-;-;-;-;-;-;-;-;-;-
1513510058680;-;-;9.785599;1.5815582;0.041381836;-;-;-;-;-;-;-;-;-;-;-;-;-;-;-
1513510058700;-;-;11.0820465;2.018509;-3.4110565;-;-;-;-;-;-;-;-;-;-;-;-;-;-;-
1513510058721;-;-;10.7456665;1.3816528;0.9056854;-;-;-;-;-;-;-;-;-;-;-;-;-;-;-
1513510058741;-;-;10.218948;1.0452576;-0.59547424;-;-;-;-;-;-;-;-;-;-;-;-;-;-;-
1513510058761;-;-;8.667496;0.6107178;0.28799438;-;-;-;-;-;-;-;-;-;-;-;-;-;-;-
1513510058782;-;-;8.595673;2.1825104;-2.5838623;-;-;-;-;-;-;-;-;-;-;-;-;-;-;-
1513510058802;-;-;10.605606;2.7247925;-1.7411041;-;-;-;-;-;-;-;-;-;-;-;-;-;-;-
1513510058822;-;-;11.3909;3.0719452;-2.5886536;-;-;-;-;-;-;-;-;-;-;-;-;-;-;-
1513510058843;-;-;10.646301;0.3605194;-4.381897;-;-;-;-;-;-;-;-;-;-;-;-;-;-;-
1513510058863;-;-;10.812698;-1.1011353;-3.8683472;-;-;-;-;-;-;-;-;-;-;-;-;-;-;-
1513510058883;-;-;9.365402;-1.3405609;-3.5810394;-;-;-;-;-;-;-;-;-;-;-;-;-;-;-
1513510058903;-;-;8.960785;-2.0121307;-4.2957153;-;-;-;-;-;-;-;-;-;-;-;-;-;-;-
1513510058924;-;-;8.143173;-1.1250763;-4.7087097;-;-;-;-;-;-;-;-;-;-;-;-;-;-;-
1513510058944;-;-;8.398148;0.048080444;-4.5267487;-;-;-;-;-;-;-;-;-;-;-;-;-;-;-
1513510058964;-;-;6.9628296;1.1541901;-3.7558136;-;-;-;-;-;-;-;-;-;-;-;-;-;-;-
1513510058985;-;-;7.1603546;1.9945679;-3.0279846;-;-;-;-;-;-;-;-;-;-;-;-;-;-;-
1513510059005;-;-;8.994308;0.1510315;-3.0064392;-;-;-;-;-;-;-;-;-;-;-;-;-;-;-
1513510059025;-;-;9.953186;0.067230225;-2.4809113;-;-;-;-;-;-;-;-;-;-;-;-;-;-;-
1513510059046;-;-;10.552933;-1.3621063;-1.495697;-;-;-;-;-;-;-;-;-;-;-;-;-;-;-
1513510059066;-;-;6.123657;-1.867279;-0.04840088;-;-;-;-;-;-;-;-;-;-;-;-;-;-;-
1513510059086;-;-;9.145142;-3.1565704;-3.1895905;-;-;-;-;-;-;-;-;-;-;-;-;-;-;-
1513510059107;-;-;8.617218;-0.73243713;-2.6987762;-;-;-;-;-;-;-;-;-;-;-;-;-;-;-
1513510059127;-;-;6.5246887;-0.16619873;-1.6453247;-;-;-;-;-;-;-;-;-;-;-;-;-;-;-
1513510059147;-;-;6.319992;-0.0045928955;-1.531601;-;-;-;-;-;-;-;-;-;-;-;-;-;-;-
1513510059168;-;-;7.088516;-0.6187134;-1.6417389;-;-;-;-;-;-;-;-;-;-;-;-;-;-;-
1513510059188;-;-;9.610809;-1.3070374;-1.4382324;-;-;-;-;-;-;-;-;-;-;-;-;-;-;-
1513510059208;-;-;11.095215;-0.82341003;-1.2215576;-;-;-;-;-;-;-;-;-;-;-;-;-;-;-
1513510059229;-;-;7.9743805;-0.27514648;0.070114136;-;-;-;-;-;-;-;-;-;-;-;-;-;-;-
1513510059248;-;-;8.4687805;0.064834595;0.41368103;-;-;-;-;-;-;-;-;-;-;-;-;-;-;-
1513510059268;-;-;9.462372;-0.1925354;-0.5523834;-;-;-;-;-;-;-;-;-;-;-;-;-;-;-
1513510059289;-;-;8.333511;-0.8186188;0.29397583;-;-;-;-;-;-;-;-;-;-;-;-;-;-;-
1513510059309;-;-;10.060928;-1.0771942;-0.3764038;-;-;-;-;-;-;-;-;-;-;-;-;-;-;-
1513510059329;-;-;9.883759;-1.2220459;-0.98931885;-;-;-;-;-;-;-;-;-;-;-;-;-;-;-
1513510059350;-;-;10.604416;-0.25479126;-1.7518768;-;-;-;-;-;-;-;-;-;-;-;-;-;-;-
1513510059370;-;-;8.532227;0.91477966;-2.6173706;-;-;-;-;-;-;-;-;-;-;-;-;-;-;-
1513510059390;-;-;6.9556427;2.0771637;-6.7713165;-;-;-;-;-;-;-;-;-;-;-;-;-;-;-
1513510059411;-;-;8.607651;2.1956787;-8.625626;-;-;-;-;-;-;-;-;-;-;-;-;-;-;-
1513510059431;-;-;9.8598175;0.91477966;-7.7002716;-;-;-;-;-;-;-;-;-;-;-;-;-;-;-
1513510059451;-;-;13.961075;1.5001526;-4.1149445;-;-;-;-;-;-;-;-;-;-;-;-;-;-;-
1513510059472;-;-;14.80983;0.6609955;-5.5502777;-;-;-;-;-;-;-;-;-;-;-;-;-;-;-
1513510059492;-;-;12.822632;-1.9151764;-6.6276703;-;-;-;-;-;-;-;-;-;-;-;-;-;-;-
1513510059512;-;-;11.21373;-3.2774658;-4.922989;-;-;-;-;-;-;-;-;-;-;-;-;-;-;-
1513510059532;-;-;11.733276;-2.1126862;-2.3372498;-;-;-;-;-;-;-;-;-;-;-;-;-;-;-
1513510059552;-;-;9.537796;0.596344;-2.7694092;-;-;-;-;-;-;-;-;-;-;-;-;-;-;-
1513510059573;-;-;7.7253876;2.474594;-2.3516235;-;-;-;-;-;-;-;-;-;-;-;-;-;-;-
1513510059593;-;-;5.8315735;2.754715;-2.0008698;-;-;-;-;-;-;-;-;-;-;-;-;-;-;-
1513510059613;-;-;4.8439636;1.908371;-1.1317749;-;-;-;-;-;-;-;-;-;-;-;-;-;-;-
1513510059634;-;-;5.0522614;1.0165253;-0.64575195;-;-;-;-;-;-;-;-;-;-;-;-;-;-;-
1513510059653;-;-;6.2313995;0.5676117;-0.412323;-;-;-;-;-;-;-;-;-;-;-;-;-;-;-
1513510059673;-;-;8.0928955;0.7256317;-0.44104004;-;-;-;-;-;-;-;-;-;-;-;-;-;-;-
1513510059693;-;-;8.680664;1.2535553;-1.3484497;-;-;-;-;-;-;-;-;-;-;-;-;-;-;-
1513510059713;-;-;7.849884;1.4115753;-2.0044556;-;-;-;-;-;-;-;-;-;-;-;-;-;-;-
1513510059734;-;-;7.0693665;0.7914734;-1.5974426;-;-;-;-;-;-;-;-;-;-;-;-;-;-;-
1513510059754;-;-;6.264923;0.4802246;-0.5284424;-;-;-;-;-;-;-;-;-;-;-;-;-;-;-
1513510059774;-;-;6.474411;0.5376892;0.6136017;-;-;-;-;-;-;-;-;-;-;-;-;-;-;-
1513510059795;-;-;8.1766815;0.84654236;1.1774292;-;-;-;-;-;-;-;-;-;-;-;-;-;-;-
1513510059815;-;-;10.385345;1.4857941;0.79556274;-;-;-;-;-;-;-;-;-;-;-;-;-;-;-
1513510059835;-;-;12.847778;2.402771;-0.72476196;-;-;-;-;-;-;-;-;-;-;-;-;-;-;-
1513510059856;-;-;15.253952;4.043991;-1.5292053;-;-;-;-;-;-;-;-;-;-;-;-;-;-;-
1513510059876;-;-;12.446747;4.008087;-5.3132477;-;-;-;-;-;-;-;-;-;-;-;-;-;-;-
1513510059896;-;-;11.660248;5.7331085;-5.532318;-;-;-;-;-;-;-;-;-;-;-;-;-;-;-
1513510059917;-;-;12.082825;7.4437714;-3.2686005;-;-;-;-;-;-;-;-;-;-;-;-;-;-;-
1513510059937;-;-;10.215347;4.0068817;-4.7589874;-;-;-;-;-;-;-;-;-;-;-;-;-;-;-
1513510059957;-;-;7.8917847;1.5336761;-6.9173584;-;-;-;-;-;-;-;-;-;-;-;-;-;-;-
1513510059977;-;-;5.170761;0.63105774;-8.831528;-;-;-;-;-;-;-;-;-;-;-;-;-;-;-
1513510059998;-;-;2.4904633;-1.0819855;-9.41571;-;-;-;-;-;-;-;-;-;-;-;-;-;-;-
1513510060018;-;-;8.629196;-1.7715149;-7.8894043;-;-;-;-;-;-;-;-;-;-;-;-;-;-;-
1513510060038;-;-;12.333023;-2.159378;-4.986435;-;-;-;-;-;-;-;-;-;-;-;-;-;-;-
1513510060059;-;-;11.931992;-0.37091064;-4.5854034;-;-;-;-;-;-;-;-;-;-;-;-;-;-;-
1513510060079;-;-;9.625183;0.8501282;-4.9720764;-;-;-;-;-;-;-;-;-;-;-;-;-;-;-
1513510060099;-;-;7.7098236;0.9207611;-5.330002;-;-;-;-;-;-;-;-;-;-;-;-;-;-;-
1513510060120;-;-;6.3415375;0.67655945;-4.0550995;-;-;-;-;-;-;-;-;-;-;-;-;-;-;-
1513510060141;-;-;5.233017;-0.34217834;-2.7753906;-;-;-;-;-;-;-;-;-;-;-;-;-;-;-
1513510060161;-;-;4.7026978;-1.3764801;-1.8919373;-;-;-;-;-;-;-;-;-;-;-;-;-;-;-
1513510060181;-;-;5.297653;-2.2910614;-2.0032654;-;-;-;-;-;-;-;-;-;-;-;-;-;-;-
1513510060201;-;-;7.384201;-2.5472412;-2.7945404;-;-;-;-;-;-;-;-;-;-;-;-;-;-;-
1513510060221;-;-;7.714615;-2.0157318;-2.7502594;-;-;-;-;-;-;-;-;-;-;-;-;-;-;-
1513510060242;-;-;7.901352;-1.1095276;-2.6113892;-;-;-;-;-;-;-;-;-;-;-;-;-;-;-
1513510060262;-;-;6.826355;-0.5744171;-2.9405975;-;-;-;-;-;-;-;-;-;-;-;-;-;-;-
1513510060282;-;-;6.196686;-0.42118835;-3.168045;-;-;-;-;-;-;-;-;-;-;-;-;-;-;-
1513510060302;-;-;6.5677795;-0.064453125;-3.12854;-;-;-;-;-;-;-;-;-;-;-;-;-;-;-
1513510060322;-;-;7.475189;-0.038116455;-2.5048523;-;-;-;-;-;-;-;-;-;-;-;-;-;-;-
1513510060343;-;-;9.373795;-0.54089355;-2.1936035;-;-;-;-;-;-;-;-;-;-;-;-;-;-;-
1513510060362;-;-;10.254852;-2.0205078;-3.322464;-;-;-;-;-;-;-;-;-;-;-;-;-;-;-
1513510060382;-;-;11.184998;-3.4426727;-3.9557343;-;-;-;-;-;-;-;-;-;-;-;-;-;-;-
1513510060403;-;-;13.393646;-3.1278381;-4.301697;-;-;-;-;-;-;-;-;-;-;-;-;-;-;-
1513510060423;-;-;12.524551;-1.7774963;-5.8076477;-;-;-;-;-;-;-;-;-;-;-;-;-;-;-
1513510060443;-;-;9.14035;-1.4016113;-11.383743;-;-;-;-;-;-;-;-;-;-;-;-;-;-;-
1513510060464;-;-;6.2709045;-2.320984;-10.291992;-;-;-;-;-;-;-;-;-;-;-;-;-;-;-
1513510060484;-;-;9.866989;-3.495346;-3.607376;-;-;-;-;-;-;-;-;-;-;-;-;-;-;-
1513510060504;-;-;11.437592;-1.8876343;-6.768921;-;-;-;-;-;-;-;-;-;-;-;-;-;-;-
1513510060524;-;-;7.8211517;-0.93833923;-13.619934;-;-;-;-;-;-;-;-;-;-;-;-;-;-;-
1513510060545;-;-;6.742569;-0.48582458;-10.576904;-;-;-;-;-;-;-;-;-;-;-;-;-;-;-
1513510060565;-;-;7.351883;0.62028503;-6.315216;-;-;-;-;-;-;-;-;-;-;-;-;-;-;-
1513510060585;-;-;9.562927;0.14982605;0.19342041;-;-;-;-;-;-;-;-;-;-;-;-;-;-;-
1513510060606;-;-;8.653137;-0.45111084;-1.7590485;-;-;-;-;-;-;-;-;-;-;-;-;-;-;-
1513510060626;-;-;7.224991;-1.1083221;-3.9210205;-;-;-;-;-;-;-;-;-;-;-;-;-;-;-
1513510060646;-;-;5.921356;-1.2914734;-4.268173;-;-;-;-;-;-;-;-;-;-;-;-;-;-;-
1513510060666;-;-;4.193939;-0.24760437;-3.5606995;-;-;-;-;-;-;-;-;-;-;-;-;-;-;-
1513510060686;-;-;3.1249237;2.5943146;-2.693985;-;-;-;-;-;-;-;-;-;-;-;-;-;-;-
1513510060706;-;-;2.1468964;4.825699;-2.1349487;-;-;-;-;-;-;-;-;-;-;-;-;-;-;-
1513510060726;-;-;2.6389008;4.767044;-2.5144196;-;-;-;-;-;-;-;-;-;-;-;-;-;-;-
1513510060746;-;-;5.0534515;3.410736;-3.9317932;-;-;-;-;-;-;-;-;-;-;-;-;-;-;-
1513510060766;-;-;6.908966;2.2579193;-4.69075;-;-;-;-;-;-;-;-;-;-;-;-;-;-;-
1513510060787;-;-;8.838684;0.18574524;-4.144882;-;-;-;-;-;-;-;-;-;-;-;-;-;-;-
1513510060807;-;-;10.599625;-0.41760254;-3.5559082;-;-;-;-;-;-;-;-;-;-;-;-;-;-;-
1513510060827;-;-;9.184647;2.8708344;-5.6125183;-;-;-;-;-;-;-;-;-;-;-;-;-;-;-
1513510060848;-;-;12.021774;3.494522;-4.6296997;-;-;-;-;-;-;-;-;-;-;-;-;-;-;-
1513510060868;-;-;12.613144;2.569168;-3.689972;-;-;-;-;-;-;-;-;-;-;-;-;-;-;-
1513510060888;-;-;10.786362;0.77830505;-1.768631;-;-;-;-;-;-;-;-;-;-;-;-;-;-;-
1513510060908;-;-;7.861847;0.2240448;-9.607254;-;-;-;-;-;-;-;-;-;-;-;-;-;-;-
1513510060929;-;-;4.299286;2.0244904;-11.684219;-;-;-;-;-;-;-;-;-;-;-;-;-;-;-
1513510060949;-;-;9.47435;4.145752;-2.4425964;-;-;-;-;-;-;-;-;-;-;-;-;-;-;-
1513510060969;-;-;10.113602;1.9969635;-12.923218;-;-;-;-;-;-;-;-;-;-;-;-;-;-;-
1513510060989;-;-;7.4368744;-0.24401855;-7.9887695;-;-;-;-;-;-;-;-;-;-;-;-;-;-;-
1513510061010;-;-;4.834381;-0.94911194;-7.991165;-;-;-;-;-;-;-;-;-;-;-;-;-;-;-
1513510061030;-;-;6.4720154;-2.9291077;-3.254242;-;-;-;-;-;-;-;-;-;-;-;-;-;-;-
1513510061050;-;-;8.116837;-2.8692627;-2.9585571;-;-;-;-;-;-;-;-;-;-;-;-;-;-;-
1513510061071;-;-;7.3578644;-0.54808044;-4.3962708;-;-;-;-;-;-;-;-;-;-;-;-;-;-;-
1513510061090;-;-;4.9624786;1.1170807;-4.345993;-;-;-;-;-;-;-;-;-;-;-;-;-;-;-
1513510061111;-;-;3.5630646;1.5528259;-4.2382507;-;-;-;-;-;-;-;-;-;-;-;-;-;-;-
1513510061131;-;-;3.1129456;0.7184448;-3.2027588;-;-;-;-;-;-;-;-;-;-;-;-;-;-;-
1513510061151;-;-;2.746643;-2.0839539;-3.5235748;-;-;-;-;-;-;-;-;-;-;-;-;-;-;-
1513510061171;-;-;4.5949554;-3.1529694;-3.4302063;-;-;-;-;-;-;-;-;-;-;-;-;-;-;-
1513510061192;-;-;6.067398;-3.084732;-3.377533;-;-;-;-;-;-;-;-;-;-;-;-;-;-;-
1513510061212;-;-;6.2230225;-2.2982483;-3.5211945;-;-;-;-;-;-;-;-;-;-;-;-;-;-;-
1513510061233;-;-;5.908188;-2.1318512;-5.853134;-;-;-;-;-;-;-;-;-;-;-;-;-;-;-
1513510061253;-;-;6.0099335;-2.261139;-7.3016357;-;-;-;-;-;-;-;-;-;-;-;-;-;-;-
1513510061274;-;-;8.84227;-1.5500488;-5.5419006;-;-;-;-;-;-;-;-;-;-;-;-;-;-;-
1513510061294;-;-;12.368942;-1.1250763;-5.1312866;-;-;-;-;-;-;-;-;-;-;-;-;-;-;-
1513510061314;-;-;13.447525;-1.2986603;-6.9017944;-;-;-;-;-;-;-;-;-;-;-;-;-;-;-
1513510061334;-;-;14.241196;-0.8066559;-7.0490417;-;-;-;-;-;-;-;-;-;-;-;-;-;-;-
1513510061355;-;-;12.570053;0.03730774;-7.0322876;-;-;-;-;-;-;-;-;-;-;-;-;-;-;-
1513510061374;-;-;7.7182007;-1.3321838;-11.8745575;-;-;-;-;-;-;-;-;-;-;-;-;-;-;-
1513510061394;-;-;4.09816;-4.7223663;-12.702957;-;-;-;-;-;-;-;-;-;-;-;-;-;-;-
1513510061415;-;-;11.392105;-6.340851;0.52381897;-;-;-;-;-;-;-;-;-;-;-;-;-;-;-
1513510061434;-;-;13.459488;-2.0133362;-3.765396;-;-;-;-;-;-;-;-;-;-;-;-;-;-;-
1513510061454;-;-;6.1056976;-0.29071045;-13.2655945;-;-;-;-;-;-;-;-;-;-;-;-;-;-;-
1513510061474;-;-;4.73143;0.47184753;-13.4678955;-;-;-;-;-;-;-;-;-;-;-;-;-;-;-
1513510061495;-;-;5.604126;1.4211578;-6.655197;-;-;-;-;-;-;-;-;-;-;-;-;-;-;-
1513510061515;-;-;5.489197;1.0871582;1.1427155;-;-;-;-;-;-;-;-;-;-;-;-;-;-;-
1513510061535;-;-;4.422577;-0.40083313;-1.3101501;-;-;-;-;-;-;-;-;-;-;-;-;-;-;-
1513510061555;-;-;4.8750916;-1.2807007;-5.1935425;-;-;-;-;-;-;-;-;-;-;-;-;-;-;-
1513510061576;-;-;6.2589264;-1.6769409;-7.8582916;-;-;-;-;-;-;-;-;-;-;-;-;-;-;-
1513510061596;-;-;6.795227;-1.5261078;-6.4983826;-;-;-;-;-;-;-;-;-;-;-;-;-;-;-
1513510061616;-;-;6.1320343;0.56881714;-4.729065;-;-;-;-;-;-;-;-;-;-;-;-;-;-;-
1513510061637;-;-;4.679962;2.813385;-4.322052;-;-;-;-;-;-;-;-;-;-;-;-;-;-;-
1513510061657;-;-;4.4752502;3.355667;-4.0802307;-;-;-;-;-;-;-;-;-;-;-;-;-;-;-
1513510061678;-;-;6.1559753;2.126236;-4.0646667;-;-;-;-;-;-;-;-;-;-;-;-;-;-;-
1513510061697;-;-;6.2469635;1.0356903;-4.3435974;-;-;-;-;-;-;-;-;-;-;-;-;-;-;-
1513510061718;-;-;6.2122498;0.6549988;-3.135727;-;-;-;-;-;-;-;-;-;-;-;-;-;-;-
1513510061738;-;-;8.886566;0.84654236;-2.670044;-;-;-;-;-;-;-;-;-;-;-;-;-;-;-
1513510061759;-;-;10.125565;0.8273926;-3.1943817;-;-;-;-;-;-;-;-;-;-;-;-;-;-;-
1513510061779;-;-;10.518219;1.7228241;-4.086212;-;-;-;-;-;-;-;-;-;-;-;-;-;-;-
1513510061799;-;-;11.246048;2.8959808;-5.228256;-;-;-;-;-;-;-;-;-;-;-;-;-;-;-
1513510061819;-;-;11.192184;3.062378;-4.132904;-;-;-;-;-;-;-;-;-;-;-;-;-;-;-
1513510061839;-;-;9.90889;2.426712;-2.2726135;-;-;-;-;-;-;-;-;-;-;-;-;-;-;-
1513510061859;-;-;8.199432;1.9155579;-6.6061096;-;-;-;-;-;-;-;-;-;-;-;-;-;-;-
1513510061879;-;-;6.078171;2.9067535;-10.02623;-;-;-;-;-;-;-;-;-;-;-;-;-;-;-
1513510061900;-;-;10.497864;2.9713898;-7.7744904;-;-;-;-;-;-;-;-;-;-;-;-;-;-;-
1513510061920;-;-;10.181839;0.81781006;-11.355011;-;-;-;-;-;-;-;-;-;-;-;-;-;-;-
1513510061940;-;-;8.890167;0.31982422;-8.644775;-;-;-;-;-;-;-;-;-;-;-;-;-;-;-
1513510061961;-;-;4.1687927;0.5269165;-7.855896;-;-;-;-;-;-;-;-;-;-;-;-;-;-;-
1513510061981;-;-;3.4780731;-0.9658661;-3.9521484;-;-;-;-;-;-;-;-;-;-;-;-;-;-;-
1513510062001;-;-;5.9848022;-2.5460358;-2.005661;-;-;-;-;-;-;-;-;-;-;-;-;-;-;-
1513510062022;-;-;7.884598;-1.902008;-2.1074066;-;-;-;-;-;-;-;-;-;-;-;-;-;-;-
1513510062042;-;-;5.686722;-0.3577423;-4.026367;-;-;-;-;-;-;-;-;-;-;-;-;-;-;-
1513510062063;-;-;4.924164;0.14624023;-3.9282074;-;-;-;-;-;-;-;-;-;-;-;-;-;-;-
1513510062082;-;-;4.39505;-0.660614;-3.6157532;-;-;-;-;-;-;-;-;-;-;-;-;-;-;-
1513510062102;-;-;4.118515;-2.1701508;-3.3009186;-;-;-;-;-;-;-;-;-;-;-;-;-;-;-
1513510062122;-;-;4.477646;-3.384018;-4.1376953;-;-;-;-;-;-;-;-;-;-;-;-;-;-;-
1513510062142;-;-;5.671158;-3.5767517;-4.5183716;-;-;-;-;-;-;-;-;-;-;-;-;-;-;-
1513510062162;-;-;6.937683;-2.4825897;-4.3902893;-;-;-;-;-;-;-;-;-;-;-;-;-;-;-
1513510062182;-;-;7.470398;-1.1633911;-4.013199;-;-;-;-;-;-;-;-;-;-;-;-;-;-;-
1513510062202;-;-;7.1878815;-0.1985321;-3.9689026;-;-;-;-;-;-;-;-;-;-;-;-;-;-;-
1513510062222;-;-;7.69545;0.5257263;-4.2933197;-;-;-;-;-;-;-;-;-;-;-;-;-;-;-
1513510062242;-;-;9.426468;0.21566772;-4.219101;-;-;-;-;-;-;-;-;-;-;-;-;-;-;-
1513510062262;-;-;12.592789;-0.8090515;-4.124527;-;-;-;-;-;-;-;-;-;-;-;-;-;-;-
1513510062283;-;-;12.157043;-3.4738007;-5.1240997;-;-;-;-;-;-;-;-;-;-;-;-;-;-;-
1513510062303;-;-;14.196915;-3.3038025;-5.769348;-;-;-;-;-;-;-;-;-;-;-;-;-;-;-
1513510062323;-;-;12.312668;-2.5077362;-8.393387;-;-;-;-;-;-;-;-;-;-;-;-;-;-;-
1513510062344;-;-;9.030228;-2.7256012;-13.094406;-;-;-;-;-;-;-;-;-;-;-;-;-;-;-
1513510062364;-;-;11.778763;-3.040451;-7.1268616;-;-;-;-;-;-;-;-;-;-;-;-;-;-;-
1513510062384;-;-;13.508575;-1.0628357;-4.571045;-;-;-;-;-;-;-;-;-;-;-;-;-;-;-
1513510062404;-;-;7.9121246;0.8597107;-9.341492;-;-;-;-;-;-;-;-;-;-;-;-;-;-;-
1513510062424;-;-;5.4281464;1.1386414;-10.461975;-;-;-;-;-;-;-;-;-;-;-;-;-;-;-
1513510062445;-;-;5.8674774;0.63705444;-6.5259094;-;-;-;-;-;-;-;-;-;-;-;-;-;-;-
1513510062465;-;-;5.604126;-0.5217438;-2.388733;-;-;-;-;-;-;-;-;-;-;-;-;-;-;-
1513510062485;-;-;6.050644;-1.9211578;-0.45541382;-;-;-;-;-;-;-;-;-;-;-;-;-;-;-
1513510062506;-;-;5.782486;-2.7806702;-1.9374237;-;-;-;-;-;-;-;-;-;-;-;-;-;-;-
1513510062525;-;-;5.600525;-2.4682312;-3.535553;-;-;-;-;-;-;-;-;-;-;-;-;-;-;-
1513510062545;-;-;5.568207;-1.3932343;-5.3312073;-;-;-;-;-;-;-;-;-;-;-;-;-;-;-
1513510062566;-;-;4.872696;0.0181427;-5.2210693;-;-;-;-;-;-;-;-;-;-;-;-;-;-;-
1513510062586;-;-;4.0251465;2.5416412;-5.204315;-;-;-;-;-;-;-;-;-;-;-;-;-;-;-
1513510062606;-;-;4.070633;4.089493;-5.0522766;-;-;-;-;-;-;-;-;-;-;-;-;-;-;-
1513510062627;-;-;5.485611;3.4645996;-4.986435;-;-;-;-;-;-;-;-;-;-;-;-;-;-;-
1513510062648;-;-;6.987961;1.6091003;-5.741806;-;-;-;-;-;-;-;-;-;-;-;-;-;-;-
1513510062667;-;-;6.407379;0.97224426;-4.5854034;-;-;-;-;-;-;-;-;-;-;-;-;-;-;-
1513510062687;-;-;7.3303375;1.3481293;-2.9441833;-;-;-;-;-;-;-;-;-;-;-;-;-;-;-
1513510062708;-;-;7.7098236;1.030899;-2.8496094;-;-;-;-;-;-;-;-;-;-;-;-;-;-;-
1513510062728;-;-;7.427307;1.6306458;-3.2506409;-;-;-;-;-;-;-;-;-;-;-;-;-;-;-
1513510062749;-;-;8.589691;1.4582672;-3.6444855;-;-;-;-;-;-;-;-;-;-;-;-;-;-;-
1513510062769;-;-;9.347458;1.5612183;-5.041504;-;-;-;-;-;-;-;-;-;-;-;-;-;-;-
1513510062789;-;-;10.054947;1.616272;-5.3527527;-;-;-;-;-;-;-;-;-;-;-;-;-;-;-
1513510062810;-;-;8.990723;1.7731018;-3.6804047;-;-;-;-;-;-;-;-;-;-;-;-;-;-;-
1513510062829;-;-;6.378647;1.5240936;-9.765259;-;-;-;-;-;-;-;-;-;-;-;-;-;-;-
1513510062849;-;-;9.225342;3.5029144;-8.855469;-;-;-;-;-;-;-;-;-;-;-;-;-;-;-
1513510062869;-;-;12.24205;5.585861;-9.19545;-;-;-;-;-;-;-;-;-;-;-;-;-;-;-
1513510062890;-;-;8.489136;3.470581;-10.807938;-;-;-;-;-;-;-;-;-;-;-;-;-;-;-
1513510062910;-;-;7.6152496;1.1925049;-9.190659;-;-;-;-;-;-;-;-;-;-;-;-;-;-;-
1513510062930;-;-;3.4696808;-0.052474976;-8.323959;-;-;-;-;-;-;-;-;-;-;-;-;-;-;-
1513510062951;-;-;3.6851654;-1.8158112;-5.3120575;-;-;-;-;-;-;-;-;-;-;-;-;-;-;-
1513510062971;-;-;6.6791077;-2.9949493;-2.4713287;-;-;-;-;-;-;-;-;-;-;-;-;-;-;-
1513510062992;-;-;8.420898;-1.5715942;-3.254242;-;-;-;-;-;-;-;-;-;-;-;-;-;-;-
1513510063012;-;-;6.9077606;1.6091003;-4.4633026;-;-;-;-;-;-;-;-;-;-;-;-;-;-;-
1513510063032;-;-;6.0542297;2.8229523;-5.7669525;-;-;-;-;-;-;-;-;-;-;-;-;-;-;-
1513510063052;-;-;4.6727753;2.4470673;-5.310852;-;-;-;-;-;-;-;-;-;-;-;-;-;-;-
1513510063073;-;-;3.2182922;-0.18655396;-3.5702667;-;-;-;-;-;-;-;-;-;-;-;-;-;-;-
1513510063093;-;-;4.5231323;-3.3983765;-3.0004425;-;-;-;-;-;-;-;-;-;-;-;-;-;-;-
1513510063113;-;-;5.6807404;-4.6984253;-3.6205444;-;-;-;-;-;-;-;-;-;-;-;-;-;-;-
1513510063134;-;-;7.3267517;-4.5284424;-4.6320953;-;-;-;-;-;-;-;-;-;-;-;-;-;-;-
1513510063154;-;-;7.841507;-3.079956;-5.298889;-;-;-;-;-;-;-;-;-;-;-;-;-;-;-
1513510063174;-;-;7.269287;-1.7104645;-4.9481354;-;-;-;-;-;-;-;-;-;-;-;-;-;-;-
1513510063195;-;-;6.888611;-0.41879272;-4.472885;-;-;-;-;-;-;-;-;-;-;-;-;-;-;-
1513510063215;-;-;7.734955;0.38804626;-4.1221313;-;-;-;-;-;-;-;-;-;-;-;-;-;-;-
1513510063235;-;-;8.7608795;0.8585205;-3.998825;-;-;-;-;-;-;-;-;-;-;-;-;-;-;-
1513510063256;-;-;8.465195;-0.059661865;-3.243454;-;-;-;-;-;-;-;-;-;-;-;-;-;-;-
1513510063276;-;-;9.289993;-2.0468445;-3.867157;-;-;-;-;-;-;-;-;-;-;-;-;-;-;-
1513510063296;-;-;10.892914;-2.660965;-4.712311;-;-;-;-;-;-;-;-;-;-;-;-;-;-;-
1513510063317;-;-;13.827011;-1.8840485;-5.26297;-;-;-;-;-;-;-;-;-;-;-;-;-;-;-
1513510063337;-;-;10.54335;-1.5476532;-11.181442;-;-;-;-;-;-;-;-;-;-;-;-;-;-;-
1513510063357;-;-;11.343018;-2.890808;-11.563309;-;-;-;-;-;-;-;-;-;-;-;-;-;-;-
1513510063378;-;-;18.159317;-4.7068024;-1.1293793;-;-;-;-;-;-;-;-;-;-;-;-;-;-;-
1513510063398;-;-;12.396469;-3.2092285;-7.9923553;-;-;-;-;-;-;-;-;-;-;-;-;-;-;-
1513510063418;-;-;6.6156616;-2.1557922;-11.515427;-;-;-;-;-;-;-;-;-;-;-;-;-;-;-
1513510063439;-;-;5.018738;-1.7715149;-10.372192;-;-;-;-;-;-;-;-;-;-;-;-;-;-;-
1513510063459;-;-;5.763336;-0.19374084;-7.365082;-;-;-;-;-;-;-;-;-;-;-;-;-;-;-
1513510063479;-;-;5.6412354;0.1725769;-2.8867188;-;-;-;-;-;-;-;-;-;-;-;-;-;-;-
1513510063499;-;-;6.3068237;-0.06803894;-1.9122772;-;-;-;-;-;-;-;-;-;-;-;-;-;-;-
1513510063520;-;-;7.28125;-0.77552795;-2.9992523;-;-;-;-;-;-;-;-;-;-;-;-;-;-;-
1513510063540;-;-;6.7329865;-1.3704834;-3.906662;-;-;-;-;-;-;-;-;-;-;-;-;-;-;-
1513510063560;-;-;5.7800903;-1.6589966;-4.199951;-;-;-;-;-;-;-;-;-;-;-;-;-;-;-
1513510063581;-;-;4.956482;-0.67855835;-3.6169586;-;-;-;-;-;-;-;-;-;-;-;-;-;-;-
1513510063601;-;-;3.4337769;0.9530792;-3.057907;-;-;-;-;-;-;-;-;-;-;-;-;-;-;-
1513510063621;-;-;1.9864807;2.4781952;-3.0028381;-;-;-;-;-;-;-;-;-;-;-;-;-;-;-
1513510063641;-;-;1.702774;2.4721985;-3.44458;-;-;-;-;-;-;-;-;-;-;-;-;-;-;-
1513510063662;-;-;3.5068054;1.719223;-3.7701874;-;-;-;-;-;-;-;-;-;-;-;-;-;-;-
1513510063682;-;-;5.6699524;1.1506042;-3.966507;-;-;-;-;-;-;-;-;-;-;-;-;-;-;-
1513510063702;-;-;7.889389;1.2427826;-3.9892578;-;-;-;-;-;-;-;-;-;-;-;-;-;-;-
1513510063723;-;-;9.594055;2.0807495;-3.9521484;-;-;-;-;-;-;-;-;-;-;-;-;-;-;-
1513510063742;-;-;9.510254;2.749939;-3.7941284;-;-;-;-;-;-;-;-;-;-;-;-;-;-;-
1513510063762;-;-;9.852631;2.6996613;-3.6085815;-;-;-;-;-;-;-;-;-;-;-;-;-;-;-
1513510063783;-;-;10.252457;2.7044373;-3.338028;-;-;-;-;-;-;-;-;-;-;-;-;-;-;-
1513510063803;-;-;9.529419;2.904358;-2.7430725;-;-;-;-;-;-;-;-;-;-;-;-;-;-;-
1513510063823;-;-;8.250916;2.8588715;-2.7155457;-;-;-;-;-;-;-;-;-;-;-;-;-;-;-
1513510063844;-;-;7.18309;3.1820831;-2.3204956;-;-;-;-;-;-;-;-;-;-;-;-;-;-;-
1513510063864;-;-;6.5091248;3.0108948;-1.9075012;-;-;-;-;-;-;-;-;-;-;-;-;-;-;-
1513510063884;-;-;6.553421;2.114273;-1.4897003;-;-;-;-;-;-;-;-;-;-;-;-;-;-;-
1513510063904;-;-;7.3973694;0.9064026;-0.5523834;-;-;-;-;-;-;-;-;-;-;-;-;-;-;-
1513510063924;-;-;8.977554;0.07081604;-0.22077942;-;-;-;-;-;-;-;-;-;-;-;-;-;-;-
1513510063944;-;-;9.380966;0.3222046;-7.0035553;-;-;-;-;-;-;-;-;-;-;-;-;-;-;-
1513510063964;-;-;12.978256;2.991745;-9.029053;-;-;-;-;-;-;-;-;-;-;-;-;-;-;-
1513510063984;-;-;15.953049;6.533966;-7.433319;-;-;-;-;-;-;-;-;-;-;-;-;-;-;-
1513510064004;-;-;15.504135;6.723114;-8.693863;-;-;-;-;-;-;-;-;-;-;-;-;-;-;-
1513510064024;-;-;10.720535;4.173279;-8.873428;-;-;-;-;-;-;-;-;-;-;-;-;-;-;-
1513510064044;-;-;8.455612;2.4638214;-6.9855957;-;-;-;-;-;-;-;-;-;-;-;-;-;-;-
1513510064064;-;-;5.130066;1.406784;-5.8256073;-;-;-;-;-;-;-;-;-;-;-;-;-;-;-
1513510064084;-;-;3.6923523;-0.35055542;-2.749054;-;-;-;-;-;-;-;-;-;-;-;-;-;-;-
1513510064105;-;-;4.8942413;-0.9898071;-2.780182;-;-;-;-;-;-;-;-;-;-;-;-;-;-;-
1513510064125;-;-;7.4572296;0.27792358;-4.014389;-;-;-;-;-;-;-;-;-;-;-;-;-;-;-
1513510064145;-;-;8.873398;1.0739899;-4.5854034;-;-;-;-;-;-;-;-;-;-;-;-;-;-;-
1513510064166;-;-;9.148727;1.5336761;-4.835602;-;-;-;-;-;-;-;-;-;-;-;-;-;-;-
1513510064186;-;-;7.632004;1.7299957;-4.630905;-;-;-;-;-;-;-;-;-;-;-;-;-;-;-
1513510064207;-;-;5.5382843;0.81062317;-4.2562103;-;-;-;-;-;-;-;-;-;-;-;-;-;-;-
1513510064227;-;-;4.3818817;-1.4842072;-2.5838623;-;-;-;-;-;-;-;-;-;-;-;-;-;-;-
1513510064247;-;-;5.696289;-4.6720886;-1.3316956;-;-;-;-;-;-;-;-;-;-;-;-;-;-;-
1513510064267;-;-;7.256119;-5.456192;-2.9489746;-;-;-;-;-;-;-;-;-;-;-;-;-;-;-
1513510064288;-;-;7.1759186;-4.053192;-4.1772003;-;-;-;-;-;-;-;-;-;-;-;-;-;-;-
1513510064308;-;-;6.5797577;-2.1761322;-4.594986;-;-;-;-;-;-;-;-;-;-;-;-;-;-;-
1513510064329;-;-;6.498352;-0.68455505;-3.8587646;-;-;-;-;-;-;-;-;-;-;-;-;-;-;-
1513510064349;-;-;6.7772827;0.3030548;-3.0950165;-;-;-;-;-;-;-;-;-;-;-;-;-;-;-
1513510064368;-;-;7.1316223;0.38446045;-2.551529;-;-;-;-;-;-;-;-;-;-;-;-;-;-;-
1513510064388;-;-;7.415329;-0.095581055;-2.203186;-;-;-;-;-;-;-;-;-;-;-;-;-;-;-
1513510064409;-;-;7.837906;-0.51216125;-1.8380585;-;-;-;-;-;-;-;-;-;-;-;-;-;-;-
1513510064429;-;-;8.418503;-0.59477234;-1.737503;-;-;-;-;-;-;-;-;-;-;-;-;-;-;-
1513510064449;-;-;9.045776;-0.80545044;-1.6656799;-;-;-;-;-;-;-;-;-;-;-;-;-;-;-
1513510064469;-;-;9.1918335;-1.0987396;-1.8691864;-;-;-;-;-;-;-;-;-;-;-;-;-;-;-
1513510064490;-;-;9.183456;-1.4530945;-1.6764526;-;-;-;-;-;-;-;-;-;-;-;-;-;-;-
1513510064510;-;-;9.5677185;-1.1789551;-1.8572235;-;-;-;-;-;-;-;-;-;-;-;-;-;-;-
1513510064530;-;-;8.582504;-0.5133667;-2.594635;-;-;-;-;-;-;-;-;-;-;-;-;-;-;-
1513510064551;-;-;6.0410614;-1.1394501;-4.1927643;-;-;-;-;-;-;-;-;-;-;-;-;-;-;-
1513510064572;-;-;6.1356354;-3.0943146;-2.7634277;-;-;-;-;-;-;-;-;-;-;-;-;-;-;-
1513510064591;-;-;10.70018;-1.3908386;-0.77622986;-;-;-;-;-;-;-;-;-;-;-;-;-;-;-
1513510064611;-;-;11.890091;2.639801;-6.3355713;-;-;-;-;-;-;-;-;-;-;-;-;-;-;-
1513510064631;-;-;13.09198;4.190048;-10.9539795;-;-;-;-;-;-;-;-;-;-;-;-;-;-;-
1513510064652;-;-;13.909607;3.5926971;-9.176285;-;-;-;-;-;-;-;-;-;-;-;-;-;-;-
1513510064673;-;-;9.29837;3.3724213;-7.9743958;-;-;-;-;-;-;-;-;-;-;-;-;-;-;-
1513510064694;-;-;7.7684784;2.679306;-8.137207;-;-;-;-;-;-;-;-;-;-;-;-;-;-;-
1513510064714;-;-;7.5362396;2.2950287;-6.7629395;-;-;-;-;-;-;-;-;-;-;-;-;-;-;-
1513510064734;-;-;5.5119476;0.9638519;-4.425003;-;-;-;-;-;-;-;-;-;-;-;-;-;-;-
1513510064755;-;-;5.810013;-0.42477417;-2.2331085;-;-;-;-;-;-;-;-;-;-;-;-;-;-;-
1513510064775;-;-;7.213028;-2.095932;-2.128952;-;-;-;-;-;-;-;-;-;-;-;-;-;-;-
1513510064795;-;-;9.966354;-2.3664703;-3.195572;-;-;-;-;-;-;-;-;-;-;-;-;-;-;-
1513510064816;-;-;12.061279;-0.65582275;-3.7342682;-;-;-;-;-;-;-;-;-;-;-;-;-;-;-
1513510064836;-;-;10.238098;0.49699402;-2.9250336;-;-;-;-;-;-;-;-;-;-;-;-;-;-;-
1513510064856;-;-;7.963608;0.76394653;-1.5531616;-;-;-;-;-;-;-;-;-;-;-;-;-;-;-
1513510064877;-;-;6.158371;0.56521606;-1.2107849;-;-;-;-;-;-;-;-;-;-;-;-;-;-;-
1513510064897;-;-;4.8595276;0.7902832;-0.8779907;-;-;-;-;-;-;-;-;-;-;-;-;-;-;-
1513510064917;-;-;4.430954;1.303833;-0.4159088;-;-;-;-;-;-;-;-;-;-;-;-;-;-;-
1513510064938;-;-;5.316818;2.0699768;-0.38478088;-;-;-;-;-;-;-;-;-;-;-;-;-;-;-
1513510064958;-;-;6.4648285;2.4003754;-0.57032776;-;-;-;-;-;-;-;-;-;-;-;-;-;-;-
1513510064979;-;-;7.6080627;2.2040558;-0.82292175;-;-;-;-;-;-;-;-;-;-;-;-;-;-;-
1513510064999;-;-;7.6906586;1.4522705;-0.7235565;-;-;-;-;-;-;-;-;-;-;-;-;-;-;-
1513510065020;-;-;7.446457;-0.16261292;-0.18008423;-;-;-;-;-;-;-;-;-;-;-;-;-;-;-
1513510065040;-;-;8.994308;-1.2459869;0.8039398;-;-;-;-;-;-;-;-;-;-;-;-;-;-;-
1513510065060;-;-;11.580048;-1.2579651;-1.5052643;-;-;-;-;-;-;-;-;-;-;-;-;-;-;-
1513510065080;-;-;12.893265;0.9291382;-4.6883545;-;-;-;-;-;-;-;-;-;-;-;-;-;-;-
1513510065101;-;-;9.197815;3.264679;-8.528656;-;-;-;-;-;-;-;-;-;-;-;-;-;-;-
1513510065121;-;-;4.691925;4.4965057;-7.3135986;-;-;-;-;-;-;-;-;-;-;-;-;-;-;-
1513510065141;-;-;5.493988;2.8899994;-8.56218;-;-;-;-;-;-;-;-;-;-;-;-;-;-;-
1513510065162;-;-;10.200989;-1.427948;-11.564514;-;-;-;-;-;-;-;-;-;-;-;-;-;-;-
1513510065182;-;-;16.612656;-3.8437042;-10.5230255;-;-;-;-;-;-;-;-;-;-;-;-;-;-;-
1513510065202;-;-;16.621033;-0.011779785;-5.50119;-;-;-;-;-;-;-;-;-;-;-;-;-;-;-
1513510065222;-;-;11.392105;4.561142;-4.3316193;-;-;-;-;-;-;-;-;-;-;-;-;-;-;-
1513510065242;-;-;8.5238495;3.9398499;-3.661255;-;-;-;-;-;-;-;-;-;-;-;-;-;-;-
1513510065263;-;-;7.521881;-0.057266235;-4.5099945;-;-;-;-;-;-;-;-;-;-;-;-;-;-;-
1513510065283;-;-;7.02388;-3.3947906;-5.010376;-;-;-;-;-;-;-;-;-;-;-;-;-;-;-
1513510065304;-;-;5.5586243;-4.4805603;-4.4788666;-;-;-;-;-;-;-;-;-;-;-;-;-;-;-
1513510065324;-;-;3.6672058;-3.831726;-3.1931763;-;-;-;-;-;-;-;-;-;-;-;-;-;-;-
1513510065343;-;-;3.019577;-2.645401;-2.3528137;-;-;-;-;-;-;-;-;-;-;-;-;-;-;-
1513510065364;-;-;4.25618;-1.6901093;-2.282196;-;-;-;-;-;-;-;-;-;-;-;-;-;-;-
1513510065385;-;-;7.055008;-2.1952972;-1.9434052;-;-;-;-;-;-;-;-;-;-;-;-;-;-;-
1513510065405;-;-;9.195419;-3.491745;-2.163681;-;-;-;-;-;-;-;-;-;-;-;-;-;-;-
1513510065425;-;-;10.487091;-4.7582855;-2.350418;-;-;-;-;-;-;-;-;-;-;-;-;-;-;-
1513510065446;-;-;9.4887085;-4.2686768;-2.5096436;-;-;-;-;-;-;-;-;-;-;-;-;-;-;-
1513510065465;-;-;8.1371765;-3.4606323;-2.2881775;-;-;-;-;-;-;-;-;-;-;-;-;-;-;-
1513510065485;-;-;7.9360657;-2.3904114;-1.7542725;-;-;-;-;-;-;-;-;-;-;-;-;-;-;-
1513510065506;-;-;8.471176;-1.7930603;-1.6956024;-;-;-;-;-;-;-;-;-;-;-;-;-;-;-
1513510065526;-;-;9.931641;-1.9786224;-2.8939056;-;-;-;-;-;-;-;-;-;-;-;-;-;-;-
1513510065546;-;-;9.875381;-2.9315033;-3.346405;-;-;-;-;-;-;-;-;-;-;-;-;-;-;-
1513510065566;-;-;10.5242;-3.2068481;-1.729126;-;-;-;-;-;-;-;-;-;-;-;-;-;-;-
1513510065587;-;-;11.418442;-1.7188416;-2.467743;-;-;-;-;-;-;-;-;-;-;-;-;-;-;-
1513510065607;-;-;11.157471;0.3317871;-7.8391266;-;-;-;-;-;-;-;-;-;-;-;-;-;-;-
1513510065628;-;-;11.4136505;2.936676;-10.381775;-;-;-;-;-;-;-;-;-;-;-;-;-;-;-
1513510065648;-;-;9.658707;4.3731995;-9.930466;-;-;-;-;-;-;-;-;-;-;-;-;-;-;-
1513510065668;-;-;6.4803925;4.190048;-4.8212433;-;-;-;-;-;-;-;-;-;-;-;-;-;-;-
1513510065688;-;-;5.842346;1.8185883;-5.7669525;-;-;-;-;-;-;-;-;-;-;-;-;-;-;-
1513510065709;-;-;6.37027;-1.3118286;-7.235794;-;-;-;-;-;-;-;-;-;-;-;-;-;-;-
1513510065728;-;-;8.647156;-2.2000732;-6.6444244;-;-;-;-;-;-;-;-;-;-;-;-;-;-;-
1513510065748;-;-;10.926422;-1.874466;-3.7905426;-;-;-;-;-;-;-;-;-;-;-;-;-;-;-
1513510065768;-;-;12.778351;-0.6079407;-2.5934296;-;-;-;-;-;-;-;-;-;-;-;-;-;-;-
1513510065788;-;-;12.626312;0.76034546;-4.0275574;-;-;-;-;-;-;-;-;-;-;-;-;-;-;-
1513510065809;-;-;11.303513;1.1553955;-3.998825;-;-;-;-;-;-;-;-;-;-;-;-;-;-;-
1513510065829;-;-;8.553772;1.2763062;-2.721527;-;-;-;-;-;-;-;-;-;-;-;-;-;-;-
1513510065849;-;-;4.762558;1.7647247;-1.1856384;-;-;-;-;-;-;-;-;-;-;-;-;-;-;-
1513510065870;-;-;2.9657135;1.6342316;-0.3548584;-;-;-;-;-;-;-;-;-;-;-;-;-;-;-
1513510065890;-;-;2.8878937;1.0141296;-0.5224457;-;-;-;-;-;-;-;-;-;-;-;-;-;-;-
1513510065910;-;-;4.4561005;0.23721313;-1.5148468;-;-;-;-;-;-;-;-;-;-;-;-;-;-;-
1513510065931;-;-;6.743759;0.57121277;-1.847641;-;-;-;-;-;-;-;-;-;-;-;-;-;-;-
1513510065950;-;-;8.125214;1.8341522;-1.7303314;-;-;-;-;-;-;-;-;-;-;-;-;-;-;-
1513510065970;-;-;8.378998;2.5177002;-1.6465302;-;-;-;-;-;-;-;-;-;-;-;-;-;-;-
1513510065991;-;-;9.374985;2.2148285;-1.7123718;-;-;-;-;-;-;-;-;-;-;-;-;-;-;-
1513510066011;-;-;11.17543;1.5935364;-1.7494812;-;-;-;-;-;-;-;-;-;-;-;-;-;-;-
1513510066031;-;-;11.1167755;1.8832245;-2.3600006;-;-;-;-;-;-;-;-;-;-;-;-;-;-;-
1513510066052;-;-;12.682571;0.73521423;-1.911087;-;-;-;-;-;-;-;-;-;-;-;-;-;-;-
1513510066071;-;-;10.806717;1.2164459;-3.6408997;-;-;-;-;-;-;-;-;-;-;-;-;-;-;-
1513510066091;-;-;10.624756;3.3293304;-8.097702;-;-;-;-;-;-;-;-;-;-;-;-;-;-;-
1513510066112;-;-;15.851303;6.137726;-5.2426147;-;-;-;-;-;-;-;-;-;-;-;-;-;-;-
1513510066132;-;-;8.938049;7.1756134;-9.61203;-;-;-;-;-;-;-;-;-;-;-;-;-;-;-
1513510066152;-;-;5.754959;4.4127045;-8.174316;-;-;-;-;-;-;-;-;-;-;-;-;-;-;-
1513510066172;-;-;3.5953827;1.6473999;-6.4780273;-;-;-;-;-;-;-;-;-;-;-;-;-;-;-
1513510066193;-;-;2.8268433;-1.0652313;-6.756958;-;-;-;-;-;-;-;-;-;-;-;-;-;-;-
1513510066213;-;-;5.7848816;-3.8927765;-6.863495;-;-;-;-;-;-;-;-;-;-;-;-;-;-;-
1513510066233;-;-;10.683411;-3.5372467;-6.053055;-;-;-;-;-;-;-;-;-;-;-;-;-;-;-
1513510066254;-;-;10.895309;-1.5536499;-6.413391;-;-;-;-;-;-;-;-;-;-;-;-;-;-;-
1513510066273;-;-;10.375763;0.9423065;-6.0793915;-;-;-;-;-;-;-;-;-;-;-;-;-;-;-
1513510066294;-;-;8.702209;2.5619812;-5.907013;-;-;-;-;-;-;-;-;-;-;-;-;-;-;-
1513510066314;-;-;5.95726;3.1054688;-4.199951;-;-;-;-;-;-;-;-;-;-;-;-;-;-;-
1513510066334;-;-;4.31723;1.1949005;-2.2845764;-;-;-;-;-;-;-;-;-;-;-;-;-;-;-
1513510066355;-;-;4.1831665;-1.7739105;-1.5974426;-;-;-;-;-;-;-;-;-;-;-;-;-;-;-
1513510066374;-;-;5.2665405;-3.6006927;-2.345642;-;-;-;-;-;-;-;-;-;-;-;-;-;-;-
1513510066394;-;-;6.4049835;-4.1106567;-3.0387573;-;-;-;-;-;-;-;-;-;-;-;-;-;-;-
1513510066414;-;-;7.1088715;-3.1182556;-3.5535126;-;-;-;-;-;-;-;-;-;-;-;-;-;-;-
1513510066434;-;-;7.2680817;-1.1059265;-4.0347443;-;-;-;-;-;-;-;-;-;-;-;-;-;-;-
1513510066454;-;-;7.408142;-0.00819397;-4.6201324;-;-;-;-;-;-;-;-;-;-;-;-;-;-;-
1513510066474;-;-;7.7050323;0.5460663;-5.338394;-;-;-;-;-;-;-;-;-;-;-;-;-;-;-
1513510066495;-;-;7.3052063;-0.31225586;-6.4864044;-;-;-;-;-;-;-;-;-;-;-;-;-;-;-
1513510066517;-;-;8.910507;-2.5831451;-5.681961;-;-;-;-;-;-;-;-;-;-;-;-;-;-;-
1513510066537;-;-;10.933609;-3.9263;-6.2577667;-;-;-;-;-;-;-;-;-;-;-;-;-;-;-
1513510066557;-;-;11.917633;-3.519287;-6.337967;-;-;-;-;-;-;-;-;-;-;-;-;-;-;-
1513510066578;-;-;14.050858;-1.3525391;-5.804062;-;-;-;-;-;-;-;-;-;-;-;-;-;-;-
1513510066598;-;-;12.28035;-0.11831665;-7.8822327;-;-;-;-;-;-;-;-;-;-;-;-;-;-;-
1513510066618;-;-;6.6551666;-0.77433777;-14.720062;-;-;-;-;-;-;-;-;-;-;-;-;-;-;-
1513510066638;-;-;5.3503265;-3.258316;-7.548233;-;-;-;-;-;-;-;-;-;-;-;-;-;-;-
1513510066659;-;-;11.428009;-3.4642181;-0.09269714;-;-;-;-;-;-;-;-;-;-;-;-;-;-;-
1513510066679;-;-;6.153595;-1.4399261;-6.9329224;-;-;-;-;-;-;-;-;-;-;-;-;-;-;-
1513510066699;-;-;3.8826904;0.45509338;-10.062149;-;-;-;-;-;-;-;-;-;-;-;-;-;-;-
1513510066720;-;-;5.407791;1.719223;-7.6404114;-;-;-;-;-;-;-;-;-;-;-;-;-;-;-
1513510066740;-;-;4.7015076;1.1529999;-4.0514984;-;-;-;-;-;-;-;-;-;-;-;-;-;-;-
1513510066760;-;-;6.0542297;0.31982422;-1.3161316;-;-;-;-;-;-;-;-;-;-;-;-;-;-;-
1513510066780;-;-;6.58934;-0.069244385;-3.267395;-;-;-;-;-;-;-;-;-;-;-;-;-;-;-
1513510066801;-;-;6.2828674;0.83576965;-5.8818665;-;-;-;-;-;-;-;-;-;-;-;-;-;-;-
1513510066820;-;-;6.3139954;1.4163666;-7.4632416;-;-;-;-;-;-;-;-;-;-;-;-;-;-;-
1513510066840;-;-;6.000366;2.0173035;-6.5929413;-;-;-;-;-;-;-;-;-;-;-;-;-;-;-
1513510066860;-;-;4.6308746;3.3137665;-4.800888;-;-;-;-;-;-;-;-;-;-;-;-;-;-;-
1513510066881;-;-;4.782913;3.3820038;-4.29451;-;-;-;-;-;-;-;-;-;-;-;-;-;-;-
1513510066900;-;-;6.000366;2.2160187;-4.1436768;-;-;-;-;-;-;-;-;-;-;-;-;-;-;-
1513510066920;-;-;7.6308136;0.8213959;-4.6141357;-;-;-;-;-;-;-;-;-;-;-;-;-;-;-
1513510066940;-;-;8.441254;0.58078;-4.167618;-;-;-;-;-;-;-;-;-;-;-;-;-;-;-
1513510066961;-;-;8.545395;1.4690399;-3.3954926;-;-;-;-;-;-;-;-;-;-;-;-;-;-;-
1513510066981;-;-;9.030228;2.12146;-3.9377747;-;-;-;-;-;-;-;-;-;-;-;-;-;-;-
1513510067002;-;-;9.161896;3.264679;-5.334793;-;-;-;-;-;-;-;-;-;-;-;-;-;-;-
1513510067022;-;-;9.617996;4.071533;-4.6955414;-;-;-;-;-;-;-;-;-;-;-;-;-;-;-
1513510067043;-;-;9.319916;3.395172;-3.3344421;-;-;-;-;-;-;-;-;-;-;-;-;-;-;-
1513510067062;-;-;8.941635;2.469818;-3.214737;-;-;-;-;-;-;-;-;-;-;-;-;-;-;-
1513510067082;-;-;5.6855164;1.8389435;-11.698578;-;-;-;-;-;-;-;-;-;-;-;-;-;-;-
1513510067102;-;-;8.145569;2.9785767;-5.5526733;-;-;-;-;-;-;-;-;-;-;-;-;-;-;-
1513510067123;-;-;11.7668;1.8473206;-6.991577;-;-;-;-;-;-;-;-;-;-;-;-;-;-;-
1513510067143;-;-;11.187393;0.2707367;-8.924896;-;-;-;-;-;-;-;-;-;-;-;-;-;-;-
1513510067163;-;-;5.1994934;0.9470978;-8.152771;-;-;-;-;-;-;-;-;-;-;-;-;-;-;-
1513510067184;-;-;1.21315;-0.43196106;-6.950882;-;-;-;-;-;-;-;-;-;-;-;-;-;-;-
1513510067204;-;-;3.0483093;-2.1545868;-2.9824982;-;-;-;-;-;-;-;-;-;-;-;-;-;-;-
1513510067224;-;-;6.7054443;-2.5041504;-1.5244293;-;-;-;-;-;-;-;-;-;-;-;-;-;-;-
1513510067245;-;-;8.094086;-0.3972473;-5.1145325;-;-;-;-;-;-;-;-;-;-;-;-;-;-;-
1513510067264;-;-;7.1723175;0.48980713;-5.3048706;-;-;-;-;-;-;-;-;-;-;-;-;-;-;-
1513510067284;-;-;6.4133606;0.96624756;-5.7202606;-;-;-;-;-;-;-;-;-;-;-;-;-;-;-
1513510067304;-;-;5.5382843;0.417984;-5.3479614;-;-;-;-;-;-;-;-;-;-;-;-;-;-;-
1513510067325;-;-;5.9153595;-1.0077667;-4.131714;-;-;-;-;-;-;-;-;-;-;-;-;-;-;-
1513510067345;-;-;6.7677;-2.0731812;-3.689972;-;-;-;-;-;-;-;-;-;-;-;-;-;-;-
1513510067365;-;-;6.4600525;-1.9917908;-3.3488007;-;-;-;-;-;-;-;-;-;-;-;-;-;-;-
1513510067386;-;-;5.604126;-1.190918;-3.001648;-;-;-;-;-;-;-;-;-;-;-;-;-;-;-
1513510067407;-;-;6.079361;-0.0069885254;-3.152481;-;-;-;-;-;-;-;-;-;-;-;-;-;-;-
1513510067427;-;-;7.7529144;0.7735138;-3.768982;-;-;-;-;-;-;-;-;-;-;-;-;-;-;-
1513510067447;-;-;9.481522;0.32341003;-4.709915;-;-;-;-;-;-;-;-;-;-;-;-;-;-;-
1513510067468;-;-;10.68103;-2.969818;-5.101364;-;-;-;-;-;-;-;-;-;-;-;-;-;-;-
1513510067488;-;-;11.973892;-5.396332;-5.4161987;-;-;-;-;-;-;-;-;-;-;-;-;-;-;-
1513510067508;-;-;15.853699;-5.447815;-5.0989685;-;-;-;-;-;-;-;-;-;-;-;-;-;-;-
1513510067528;-;-;15.702866;-3.005722;-7.2764893;-;-;-;-;-;-;-;-;-;-;-;-;-;-;-
1513510067548;-;-;12.384491;-1.759552;-9.9687805;-;-;-;-;-;-;-;-;-;-;-;-;-;-;-
1513510067569;-;-;11.6315155;-1.3980255;-8.745331;-;-;-;-;-;-;-;-;-;-;-;-;-;-;-
1513510067589;-;-;8.74292;-1.107132;-9.873001;-;-;-;-;-;-;-;-;-;-;-;-;-;-;-
1513510067609;-;-;6.6024933;-0.114730835;-9.714981;-;-;-;-;-;-;-;-;-;-;-;-;-;-;-
1513510067629;-;-;6.78566;0.91596985;-8.522675;-;-;-;-;-;-;-;-;-;-;-;-;-;-;-
1513510067649;-;-;6.922119;1.6940918;-5.556259;-;-;-;-;-;-;-;-;-;-;-;-;-;-;-
1513510067670;-;-;5.271332;0.6166992;-3.025589;-;-;-;-;-;-;-;-;-;-;-;-;-;-;-
1513510067689;-;-;4.0047913;-1.2998657;-2.2570496;-;-;-;-;-;-;-;-;-;-;-;-;-;-;-
1513510067709;-;-;4.524338;-1.8349609;-2.342041;-;-;-;-;-;-;-;-;-;-;-;-;-;-;-
1513510067729;-;-;6.5163116;-1.4219666;-1.8428497;-;-;-;-;-;-;-;-;-;-;-;-;-;-;-
1513510067750;-;-;7.8546753;-0.9167938;-3.997635;-;-;-;-;-;-;-;-;-;-;-;-;-;-;-
1513510067770;-;-;7.1519775;-0.14346313;-4.832016;-;-;-;-;-;-;-;-;-;-;-;-;-;-;-
1513510067790;-;-;4.817627;1.789856;-4.7087097;-;-;-;-;-;-;-;-;-;-;-;-;-;-;-
1513510067811;-;-;3.569046;3.9817505;-3.5738678;-;-;-;-;-;-;-;-;-;-;-;-;-;-;-
1513510067831;-;-;4.3854675;3.355667;-3.6181488;-;-;-;-;-;-;-;-;-;-;-;-;-;-;-
1513510067851;-;-;4.65242;2.0125122;-4.0910034;-;-;-;-;-;-;-;-;-;-;-;-;-;-;-
1513510067871;-;-;4.6021423;1.5061493;-3.8539886;-;-;-;-;-;-;-;-;-;-;-;-;-;-;-
1513510067891;-;-;5.3503265;1.8556976;-3.1261444;-;-;-;-;-;-;-;-;-;-;-;-;-;-;-
1513510067912;-;-;7.525467;1.1446228;-2.4342194;-;-;-;-;-;-;-;-;-;-;-;-;-;-;-
1513510067932;-;-;6.647995;2.2303925;-2.546753;-;-;-;-;-;-;-;-;-;-;-;-;-;-;-
1513510067952;-;-;6.2146454;3.2742615;-2.7023773;-;-;-;-;-;-;-;-;-;-;-;-;-;-;-
1513510067973;-;-;7.830719;2.9235077;-2.6664581;-;-;-;-;-;-;-;-;-;-;-;-;-;-;-
1513510067993;-;-;9.729324;3.3460846;-3.7366638;-;-;-;-;-;-;-;-;-;-;-;-;-;-;-
1513510068013;-;-;11.280777;3.9207;-5.4712677;-;-;-;-;-;-;-;-;-;-;-;-;-;-;-
1513510068033;-;-;12.061279;3.441864;-6.911377;-;-;-;-;-;-;-;-;-;-;-;-;-;-;-
1513510068054;-;-;11.553711;1.877243;-5.26416;-;-;-;-;-;-;-;-;-;-;-;-;-;-;-
1513510068074;-;-;9.3941345;1.4989624;-9.148758;-;-;-;-;-;-;-;-;-;-;-;-;-;-;-
1513510068094;-;-;11.7105255;3.316162;-7.2333984;-;-;-;-;-;-;-;-;-;-;-;-;-;-;-
1513510068115;-;-;13.897629;5.99527;-4.563858;-;-;-;-;-;-;-;-;-;-;-;-;-;-;-
1513510068135;-;-;8.859039;4.8005676;-9.986725;-;-;-;-;-;-;-;-;-;-;-;-;-;-;-
1513510068156;-;-;5.564621;1.5851593;-9.603653;-;-;-;-;-;-;-;-;-;-;-;-;-;-;-
1513510068176;-;-;2.8160706;-1.5189362;-6.3092346;-;-;-;-;-;-;-;-;-;-;-;-;-;-;-
1513510068196;-;-;2.7370605;-4.6361847;-4.7589874;-;-;-;-;-;-;-;-;-;-;-;-;-;-;-
1513510068217;-;-;7.541031;-3.6054688;-3.6444855;-;-;-;-;-;-;-;-;-;-;-;-;-;-;-
1513510068236;-;-;7.1711273;-0.5935669;-4.9481354;-;-;-;-;-;-;-;-;-;-;-;-;-;-;-
1513510068256;-;-;6.118866;2.06279;-4.8224335;-;-;-;-;-;-;-;-;-;-;-;-;-;-;-
1513510068277;-;-;6.3906097;3.556778;-4.7865295;-;-;-;-;-;-;-;-;-;-;-;-;-;-;-
1513510068296;-;-;5.763336;3.225174;-4.8846893;-;-;-;-;-;-;-;-;-;-;-;-;-;-;-
1513510068316;-;-;4.9540863;1.2236328;-4.11734;-;-;-;-;-;-;-;-;-;-;-;-;-;-;-
1513510068337;-;-;4.524338;-2.9590454;-2.6556854;-;-;-;-;-;-;-;-;-;-;-;-;-;-;-
1513510068357;-;-;4.204712;-4.9474335;-2.452179;-;-;-;-;-;-;-;-;-;-;-;-;-;-;-
1513510068378;-;-;5.965637;-5.0120697;-2.6197662;-;-;-;-;-;-;-;-;-;-;-;-;-;-;-
1513510068398;-;-;7.5601807;-3.4738007;-3.480484;-;-;-;-;-;-;-;-;-;-;-;-;-;-;-
1513510068418;-;-;8.717773;-1.5871582;-4.2167053;-;-;-;-;-;-;-;-;-;-;-;-;-;-;-
1513510068439;-;-;8.460403;0.06842041;-4.3950653;-;-;-;-;-;-;-;-;-;-;-;-;-;-;-
1513510068459;-;-;7.26091;0.9901886;-4.982849;-;-;-;-;-;-;-;-;-;-;-;-;-;-;-
1513510068479;-;-;8.097687;0.52931213;-5.34198;-;-;-;-;-;-;-;-;-;-;-;-;-;-;-
1513510068499;-;-;9.963959;-0.85572815;-5.899826;-;-;-;-;-;-;-;-;-;-;-;-;-;-;-
1513510068520;-;-;9.402527;-3.384018;-5.338394;-;-;-;-;-;-;-;-;-;-;-;-;-;-;-
1513510068540;-;-;10.791153;-3.5695648;-4.484848;-;-;-;-;-;-;-;-;-;-;-;-;-;-;-
1513510068560;-;-;12.249222;-2.913559;-4.828415;-;-;-;-;-;-;-;-;-;-;-;-;-;-;-
1513510068581;-;-;12.274368;-1.5440674;-6.081787;-;-;-;-;-;-;-;-;-;-;-;-;-;-;-
1513510068601;-;-;9.45639;-0.8760834;-8.441269;-;-;-;-;-;-;-;-;-;-;-;-;-;-;-
1513510068621;-;-;6.3115997;-1.9343262;-11.887726;-;-;-;-;-;-;-;-;-;-;-;-;-;-;-
1513510068642;-;-;12.85376;-4.1262207;-2.00206;-;-;-;-;-;-;-;-;-;-;-;-;-;-;-
1513510068662;-;-;13.791092;-3.0871277;-5.4317627;-;-;-;-;-;-;-;-;-;-;-;-;-;-;-
1513510068682;-;-;5.7226257;-2.9386902;-14.381287;-;-;-;-;-;-;-;-;-;-;-;-;-;-;-
1513510068702;-;-;6.4253235;-2.3126068;-12.596405;-;-;-;-;-;-;-;-;-;-;-;-;-;-;-
1513510068723;-;-;7.5961;0.2695465;-8.382614;-;-;-;-;-;-;-;-;-;-;-;-;-;-;-
1513510068742;-;-;6.8718414;1.327774;-3.997635;-;-;-;-;-;-;-;-;-;-;-;-;-;-;-
1513510068763;-;-;5.2629395;1.611496;-2.1169891;-;-;-;-;-;-;-;-;-;-;-;-;-;-;-
1513510068784;-;-;3.687561;0.9135742;-2.8651733;-;-;-;-;-;-;-;-;-;-;-;-;-;-;-
1513510068804;-;-;1.5148163;0.34016418;-3.9557343;-;-;-;-;-;-;-;-;-;-;-;-;-;-;-
1513510068824;-;-;2.0523224;-0.7707367;-4.441757;-;-;-;-;-;-;-;-;-;-;-;-;-;-;-
1513510068844;-;-;3.608551;0.008575439;-3.7115326;-;-;-;-;-;-;-;-;-;-;-;-;-;-;-
1513510068865;-;-;4.1759796;1.7551422;-3.4756927;-;-;-;-;-;-;-;-;-;-;-;-;-;-;-
1513510068885;-;-;4.9708557;2.4386902;-3.7498322;-;-;-;-;-;-;-;-;-;-;-;-;-;-;-
1513510068905;-;-;6.3977966;1.5899353;-4.014389;-;-;-;-;-;-;-;-;-;-;-;-;-;-;-
1513510068926;-;-;9.29718;0.4909973;-4.7230835;-;-;-;-;-;-;-;-;-;-;-;-;-;-;-
1513510068947;-;-;8.656723;-0.14225769;-5.963272;-;-;-;-;-;-;-;-;-;-;-;-;-;-;-
1513510068968;-;-;8.304779;-0.083602905;-5.0127716;-;-;-;-;-;-;-;-;-;-;-;-;-;-;-
1513510068988;-;-;9.058945;1.2966461;-4.405838;-;-;-;-;-;-;-;-;-;-;-;-;-;-;-
1513510069008;-;-;8.825516;3.5603638;-4.049103;-;-;-;-;-;-;-;-;-;-;-;-;-;-;-
1513510069029;-;-;8.938049;4.2427216;-3.9928436;-;-;-;-;-;-;-;-;-;-;-;-;-;-;-
1513510069048;-;-;9.463577;4.777817;-4.0586853;-;-;-;-;-;-;-;-;-;-;-;-;-;-;-
1513510069068;-;-;10.28479;4.9585876;-3.9485474;-;-;-;-;-;-;-;-;-;-;-;-;-;-;-
1513510069089;-;-;10.0298;3.8345032;-4.4776764;-;-;-;-;-;-;-;-;-;-;-;-;-;-;-
1513510069108;-;-;8.661514;2.114273;-7.524292;-;-;-;-;-;-;-;-;-;-;-;-;-;-;-
1513510069129;-;-;10.750458;2.196869;-8.363464;-;-;-;-;-;-;-;-;-;-;-;-;-;-;-
1513510069149;-;-;8.770447;2.37883;-7.1268616;-;-;-;-;-;-;-;-;-;-;-;-;-;-;-
1513510069169;-;-;8.333511;0.086380005;-5.4820404;-;-;-;-;-;-;-;-;-;-;-;-;-;-;-
1513510069189;-;-;5.6184845;0.07800293;-7.4321136;-;-;-;-;-;-;-;-;-;-;-;-;-;-;-
1513510069209;-;-;3.3368073;0.3904419;-7.7673035;-;-;-;-;-;-;-;-;-;-;-;-;-;-;-
1513510069230;-;-;2.6819916;-0.28352356;-7.4716187;-;-;-;-;-;-;-;-;-;-;-;-;-;-;-
1513510069250;-;-;6.4959564;-1.3070374;-5.4233856;-;-;-;-;-;-;-;-;-;-;-;-;-;-;-
1513510069270;-;-;9.054169;-1.7631378;-4.6919556;-;-;-;-;-;-;-;-;-;-;-;-;-;-;-
1513510069291;-;-;8.807556;0.15820313;-5.3922577;-;-;-;-;-;-;-;-;-;-;-;-;-;-;-
1513510069311;-;-;7.6427765;1.2942505;-5.9967957;-;-;-;-;-;-;-;-;-;-;-;-;-;-;-
1513510069331;-;-;5.7333984;1.3205872;-6.2841034;-;-;-;-;-;-;-;-;-;-;-;-;-;-;-
1513510069352;-;-;4.3100586;0.03012085;-5.136078;-;-;-;-;-;-;-;-;-;-;-;-;-;-;-
1513510069372;-;-;3.9269867;-2.1186829;-3.666031;-;-;-;-;-;-;-;-;-;-;-;-;-;-;-
1513510069392;-;-;3.9952087;-3.5324554;-2.8496094;-;-;-;-;-;-;-;-;-;-;-;-;-;-;-
1513510069413;-;-;5.3144226;-3.1445923;-2.986084;-;-;-;-;-;-;-;-;-;-;-;-;-;-;-
1513510069433;-;-;6.5977173;-2.3042297;-3.638504;-;-;-;-;-;-;-;-;-;-;-;-;-;-;-
1513510069454;-;-;7.178299;-1.2232513;-4.3950653;-;-;-;-;-;-;-;-;-;-;-;-;-;-;-
1513510069474;-;-;7.2477417;0.02293396;-5.235443;-;-;-;-;-;-;-;-;-;-;-;-;-;-;-
1513510069494;-;-;8.428085;-0.10874939;-4.943344;-;-;-;-;-;-;-;-;-;-;-;-;-;-;-
1513510069514;-;-;10.211761;-0.72406006;-4.385498;-;-;-;-;-;-;-;-;-;-;-;-;-;-;-
1513510069535;-;-;10.477524;-2.5292816;-4.863144;-;-;-;-;-;-;-;-;-;-;-;-;-;-;-
1513510069555;-;-;11.261612;-3.9693909;-4.824829;-;-;-;-;-;-;-;-;-;-;-;-;-;-;-
1513510069575;-;-;12.599976;-4.3273315;-4.1939545;-;-;-;-;-;-;-;-;-;-;-;-;-;-;-
1513510069595;-;-;14.261551;-3.5252686;-3.9605255;-;-;-;-;-;-;-;-;-;-;-;-;-;-;-
1513510069616;-;-;13.912003;-1.7906647;-5.398239;-;-;-;-;-;-;-;-;-;-;-;-;-;-;-
1513510069636;-;-;8.386185;-1.0891724;-12.992645;-;-;-;-;-;-;-;-;-;-;-;-;-;-;-
1513510069656;-;-;6.173935;-1.6506042;-7.993561;-;-;-;-;-;-;-;-;-;-;-;-;-;-;-
1513510069676;-;-;10.573288;-2.4969635;2.6786041;-;-;-;-;-;-;-;-;-;-;-;-;-;-;-
1513510069697;-;-;9.084091;-1.4722443;-4.7865295;-;-;-;-;-;-;-;-;-;-;-;-;-;-;-
1513510069717;-;-;6.2158356;-0.7958832;-13.736053;-;-;-;-;-;-;-;-;-;-;-;-;-;-;-
1513510069737;-;-;7.7804413;-0.52293396;-14.286713;-;-;-;-;-;-;-;-;-;-;-;-;-;-;-
1513510069758;-;-;9.133179;-0.054870605;-8.045029;-;-;-;-;-;-;-;-;-;-;-;-;-;-;-
1513510069779;-;-;8.181473;-0.085998535;-1.6237793;-;-;-;-;-;-;-;-;-;-;-;-;-;-;-
1513510069799;-;-;7.67749;-0.3002777;0.19342041;-;-;-;-;-;-;-;-;-;-;-;-;-;-;-
1513510069818;-;-;5.8950195;-1.3692932;-2.6293488;-;-;-;-;-;-;-;-;-;-;-;-;-;-;-
1513510069838;-;-;4.007187;-1.7846832;-4.6716003;-;-;-;-;-;-;-;-;-;-;-;-;-;-;-
1513510069858;-;-;3.727066;-1.9307251;-4.404648;-;-;-;-;-;-;-;-;-;-;-;-;-;-;-
1513510069879;-;-;2.9202118;0.31982422;-3.8156738;-;-;-;-;-;-;-;-;-;-;-;-;-;-;-
1513510069900;-;-;2.4138489;3.4681854;-2.819687;-;-;-;-;-;-;-;-;-;-;-;-;-;-;-
1513510069921;-;-;2.494049;5.0579376;-2.5036469;-;-;-;-;-;-;-;-;-;-;-;-;-;-;-
1513510069942;-;-;3.0926056;3.4921417;-2.151703;-;-;-;-;-;-;-;-;-;-;-;-;-;-;-
1513510069962;-;-;6.388214;2.3680573;-3.2793732;-;-;-;-;-;-;-;-;-;-;-;-;-;-;-
1513510069982;-;-;8.496307;1.3409424;-4.7326508;-;-;-;-;-;-;-;-;-;-;-;-;-;-;-
1513510070003;-;-;9.374985;0.872879;-4.8140564;-;-;-;-;-;-;-;-;-;-;-;-;-;-;-
1513510070024;-;-;9.336685;2.0675812;-3.1979675;-;-;-;-;-;-;-;-;-;-;-;-;-;-;-
1513510070044;-;-;10.390121;3.26828;-1.2227478;-;-;-;-;-;-;-;-;-;-;-;-;-;-;-
1513510070065;-;-;9.747284;2.754715;-1.9302368;-;-;-;-;-;-;-;-;-;-;-;-;-;-;-
1513510070085;-;-;10.193802;1.971817;-1.9003143;-;-;-;-;-;-;-;-;-;-;-;-;-;-;-
1513510070105;-;-;10.702576;3.0288544;-1.0324097;-;-;-;-;-;-;-;-;-;-;-;-;-;-;-
1513510070125;-;-;9.984314;5.138153;0.14433289;-;-;-;-;-;-;-;-;-;-;-;-;-;-;-
1513510070146;-;-;7.6176453;5.919861;-2.8747559;-;-;-;-;-;-;-;-;-;-;-;-;-;-;-
1513510070166;-;-;8.01149;6.3783417;-6.7066803;-;-;-;-;-;-;-;-;-;-;-;-;-;-;-
1513510070186;-;-;13.537308;4.7287445;-3.4505615;-;-;-;-;-;-;-;-;-;-;-;-;-;-;-
1513510070207;-;-;15.996155;1.7946472;-6.7557526;-;-;-;-;-;-;-;-;-;-;-;-;-;-;-
1513510070227;-;-;8.983536;0.69929504;-9.228958;-;-;-;-;-;-;-;-;-;-;-;-;-;-;-
1513510070247;-;-;3.7869263;1.8245697;-8.039047;-;-;-;-;-;-;-;-;-;-;-;-;-;-;-
1513510070267;-;-;2.7574158;1.6521912;-5.3707123;-;-;-;-;-;-;-;-;-;-;-;-;-;-;-
1513510070288;-;-;7.229782;0.6502228;-2.6592712;-;-;-;-;-;-;-;-;-;-;-;-;-;-;-
1513510070308;-;-;10.892914;-1.8696747;-3.4948578;-;-;-;-;-;-;-;-;-;-;-;-;-;-;-
1513510070328;-;-;10.279999;-2.0336761;-4.7350464;-;-;-;-;-;-;-;-;-;-;-;-;-;-;-
1513510070348;-;-;8.922485;-0.50857544;-5.116928;-;-;-;-;-;-;-;-;-;-;-;-;-;-;-
1513510070369;-;-;8.040222;0.040893555;-4.9481354;-;-;-;-;-;-;-;-;-;-;-;-;-;-;-
1513510070388;-;-;5.7573547;0.80584717;-4.1987457;-;-;-;-;-;-;-;-;-;-;-;-;-;-;-
1513510070408;-;-;4.4010315;0.338974;-3.4469604;-;-;-;-;-;-;-;-;-;-;-;-;-;-;-
1513510070429;-;-;3.7857208;-0.8413696;-2.8340454;-;-;-;-;-;-;-;-;-;-;-;-;-;-;-
1513510070449;-;-;3.4253998;-1.8541107;-2.867569;-;-;-;-;-;-;-;-;-;-;-;-;-;-;-
1513510070469;-;-;4.6536255;-1.8864441;-4.1065674;-;-;-;-;-;-;-;-;-;-;-;-;-;-;-
1513510070490;-;-;6.7485504;-1.5608215;-4.9481354;-;-;-;-;-;-;-;-;-;-;-;-;-;-;-
1513510070510;-;-;6.704254;-0.45829773;-5.2521973;-;-;-;-;-;-;-;-;-;-;-;-;-;-;-
1513510070530;-;-;6.7677;0.45388794;-4.563858;-;-;-;-;-;-;-;-;-;-;-;-;-;-;-
1513510070550;-;-;6.8838196;0.32939148;-3.863556;-;-;-;-;-;-;-;-;-;-;-;-;-;-;-
1513510070571;-;-;6.8515015;-0.40682983;-3.5307617;-;-;-;-;-;-;-;-;-;-;-;-;-;-;-
1513510070590;-;-;7.118454;-1.4159851;-3.1464996;-;-;-;-;-;-;-;-;-;-;-;-;-;-;-
1513510070610;-;-;7.6188354;-2.3736572;-2.6903992;-;-;-;-;-;-;-;-;-;-;-;-;-;-;-
1513510070630;-;-;7.9504395;-2.9901733;-2.1385345;-;-;-;-;-;-;-;-;-;-;-;-;-;-;-
1513510070651;-;-;8.835098;-2.8405304;-2.069107;-;-;-;-;-;-;-;-;-;-;-;-;-;-;-
1513510070671;-;-;9.663483;-1.6446228;-2.1145935;-;-;-;-;-;-;-;-;-;-;-;-;-;-;-
1513510070691;-;-;10.113602;-0.45710754;-1.9948883;-;-;-;-;-;-;-;-;-;-;-;-;-;-;-
1513510070712;-;-;10.252457;0.14863586;-1.653717;-;-;-;-;-;-;-;-;-;-;-;-;-;-;-
1513510070732;-;-;9.523422;0.42636108;-1.7219391;-;-;-;-;-;-;-;-;-;-;-;-;-;-;-
1513510070752;-;-;8.159927;-0.36132813;-3.3799286;-;-;-;-;-;-;-;-;-;-;-;-;-;-;-
1513510070773;-;-;6.4373016;-1.8098297;-5.6879425;-;-;-;-;-;-;-;-;-;-;-;-;-;-;-
1513510070793;-;-;6.157181;-3.266693;-4.4357758;-;-;-;-;-;-;-;-;-;-;-;-;-;-;-
1513510070813;-;-;8.728546;-1.4554901;-5.907013;-;-;-;-;-;-;-;-;-;-;-;-;-;-;-
1513510070833;-;-;10.199783;0.5352936;-9.152344;-;-;-;-;-;-;-;-;-;-;-;-;-;-;-
1513510070854;-;-;13.64505;1.9526672;-7.663162;-;-;-;-;-;-;-;-;-;-;-;-;-;-;-
1513510070874;-;-;14.899612;3.2551117;-7.9923553;-;-;-;-;-;-;-;-;-;-;-;-;-;-;-
1513510070894;-;-;10.270416;4.825699;-7.907364;-;-;-;-;-;-;-;-;-;-;-;-;-;-;-
1513510070915;-;-;8.191055;4.1481476;-6.560623;-;-;-;-;-;-;-;-;-;-;-;-;-;-;-
1513510070935;-;-;7.016693;2.6685333;-6.6085052;-;-;-;-;-;-;-;-;-;-;-;-;-;-;-
1513510070955;-;-;5.8638916;0.6107178;-5.9920044;-;-;-;-;-;-;-;-;-;-;-;-;-;-;-
1513510070976;-;-;5.502365;-0.5169525;-4.4477386;-;-;-;-;-;-;-;-;-;-;-;-;-;-;-
1513510070996;-;-;5.885437;-1.0424805;-3.6373138;-;-;-;-;-;-;-;-;-;-;-;-;-;-;-
1513510071016;-;-;6.9185333;-0.4547119;-3.7713776;-;-;-;-;-;-;-;-;-;-;-;-;-;-;-
1513510071037;-;-;8.8997345;0.36650085;-3.7103271;-;-;-;-;-;-;-;-;-;-;-;-;-;-;-
1513510071057;-;-;9.220566;0.8561249;-3.7187042;-;-;-;-;-;-;-;-;-;-;-;-;-;-;-
1513510071077;-;-;7.9396667;1.1362457;-3.1273346;-;-;-;-;-;-;-;-;-;-;-;-;-;-;-
1513510071098;-;-;6.3271637;1.0285034;-2.3875275;-;-;-;-;-;-;-;-;-;-;-;-;-;-;-
1513510071117;-;-;5.9105835;0.9087982;-2.0272064;-;-;-;-;-;-;-;-;-;-;-;-;-;-;-
1513510071137;-;-;5.69989;1.3768616;-1.5962524;-;-;-;-;-;-;-;-;-;-;-;-;-;-;-
1513510071157;-;-;6.163162;2.0089264;-1.5435791;-;-;-;-;-;-;-;-;-;-;-;-;-;-;-
1513510071178;-;-;6.6611633;2.2890472;-1.2778168;-;-;-;-;-;-;-;-;-;-;-;-;-;-;-
1513510071198;-;-;7.502716;2.1011047;-0.47695923;-;-;-;-;-;-;-;-;-;-;-;-;-;-;-
1513510071218;-;-;8.881775;0.98301697;-0.73553467;-;-;-;-;-;-;-;-;-;-;-;-;-;-;-
1513510071238;-;-;10.46315;-0.033325195;-1.2610626;-;-;-;-;-;-;-;-;-;-;-;-;-;-;-
1513510071259;-;-;11.316681;-0.37809753;-1.6812439;-;-;-;-;-;-;-;-;-;-;-;-;-;-;-
1513510071281;-;-;10.999451;1.4857941;-1.6776581;-;-;-;-;-;-;-;-;-;-;-;-;-;-;-
1513510071301;-;-;8.756088;2.9881592;-2.2067719;-;-;-;-;-;-;-;-;-;-;-;-;-;-;-
1513510071321;-;-;6.6611633;4.236725;-5.7705383;-;-;-;-;-;-;-;-;-;-;-;-;-;-;-
1513510071342;-;-;5.9752197;4.6353607;-7.962433;-;-;-;-;-;-;-;-;-;-;-;-;-;-;-
1513510071362;-;-;7.315979;2.0400543;-6.887436;-;-;-;-;-;-;-;-;-;-;-;-;-;-;-
1513510071382;-;-;11.949951;-1.9211578;-8.335922;-;-;-;-;-;-;-;-;-;-;-;-;-;-;-
1513510071403;-;-;14.210083;-3.2690887;-8.655548;-;-;-;-;-;-;-;-;-;-;-;-;-;-;-
1513510071423;-;-;8.891357;0.0049743652;-7.45726;-;-;-;-;-;-;-;-;-;-;-;-;-;-;-
1513510071443;-;-;7.93367;2.71521;-4.6320953;-;-;-;-;-;-;-;-;-;-;-;-;-;-;-
1513510071464;-;-;8.03064;2.943863;-4.4704895;-;-;-;-;-;-;-;-;-;-;-;-;-;-;-
1513510071483;-;-;10.245285;0.6645813;-5.918976;-;-;-;-;-;-;-;-;-;-;-;-;-;-;-
1513510071503;-;-;10.0776825;-0.26316833;-6.7114563;-;-;-;-;-;-;-;-;-;-;-;-;-;-;-
1513510071523;-;-;8.46759;-1.3680878;-5.693924;-;-;-;-;-;-;-;-;-;-;-;-;-;-;-
1513510071544;-;-;6.5079346;-3.1517792;-4.5806274;-;-;-;-;-;-;-;-;-;-;-;-;-;-;-
1513510071564;-;-;4.9157867;-4.02446;-4.1149445;-;-;-;-;-;-;-;-;-;-;-;-;-;-;-
1513510071585;-;-;3.8276215;-3.823349;-3.0112305;-;-;-;-;-;-;-;-;-;-;-;-;-;-;-
1513510071605;-;-;3.8790894;-2.7687073;-2.3037415;-;-;-;-;-;-;-;-;-;-;-;-;-;-;-
1513510071625;-;-;5.741791;-2.056427;-2.3228912;-;-;-;-;-;-;-;-;-;-;-;-;-;-;-
1513510071645;-;-;7.620041;-2.1474;-2.3552094;-;-;-;-;-;-;-;-;-;-;-;-;-;-;-
1513510071666;-;-;9.169083;-2.281479;-2.4378052;-;-;-;-;-;-;-;-;-;-;-;-;-;-;-
1513510071685;-;-;10.307526;-2.4622498;-2.6209717;-;-;-;-;-;-;-;-;-;-;-;-;-;-;-
1513510071705;-;-;10.052551;-2.9518585;-2.7394867;-;-;-;-;-;-;-;-;-;-;-;-;-;-;-
1513510071726;-;-;9.448013;-3.6054688;-3.7163086;-;-;-;-;-;-;-;-;-;-;-;-;-;-;-
1513510071745;-;-;10.309921;-3.6641388;-3.111786;-;-;-;-;-;-;-;-;-;-;-;-;-;-;-
1513510071765;-;-;9.846649;-3.2882385;-3.2135315;-;-;-;-;-;-;-;-;-;-;-;-;-;-;-
1513510071786;-;-;8.654327;-3.7311707;-3.5702667;-;-;-;-;-;-;-;-;-;-;-;-;-;-;-
1513510071806;-;-;8.056976;-3.8257446;-2.9022827;-;-;-;-;-;-;-;-;-;-;-;-;-;-;-
1513510071827;-;-;8.157532;-2.009735;-6.1021423;-;-;-;-;-;-;-;-;-;-;-;-;-;-;-
1513510071847;-;-;10.002274;1.4750214;-10.387756;-;-;-;-;-;-;-;-;-;-;-;-;-;-;-
1513510071867;-;-;12.189377;4.678467;-7.737381;-;-;-;-;-;-;-;-;-;-;-;-;-;-;-
1513510071887;-;-;11.521393;5.4709473;-3.2650146;-;-;-;-;-;-;-;-;-;-;-;-;-;-;-
1513510071908;-;-;8.613632;4.401932;-5.9441223;-;-;-;-;-;-;-;-;-;-;-;-;-;-;-
1513510071928;-;-;8.100067;1.9969635;-6.5175323;-;-;-;-;-;-;-;-;-;-;-;-;-;-;-
1513510071948;-;-;9.358231;-0.045303345;-5.0235443;-;-;-;-;-;-;-;-;-;-;-;-;-;-;-
1513510071969;-;-;10.4930725;-1.3106384;-3.473297;-;-;-;-;-;-;-;-;-;-;-;-;-;-;-
1513510071988;-;-;9.840652;-1.2411957;-3.6349182;-;-;-;-;-;-;-;-;-;-;-;-;-;-;-
1513510072008;-;-;8.675873;-0.0728302;-3.8455963;-;-;-;-;-;-;-;-;-;-;-;-;-;-;-
1513510072028;-;-;7.987549;1.7299957;-3.472107;-;-;-;-;-;-;-;-;-;-;-;-;-;-;-
1513510072049;-;-;5.775299;3.5663605;-2.4150696;-;-;-;-;-;-;-;-;-;-;-;-;-;-;-
1513510072069;-;-;4.2501984;3.936264;-1.9529877;-;-;-;-;-;-;-;-;-;-;-;-;-;-;-
1513510072089;-;-;3.5570831;2.998932;-1.7782135;-;-;-;-;-;-;-;-;-;-;-;-;-;-;-
1513510072110;-;-;4.1604156;1.3445435;-1.9075012;-;-;-;-;-;-;-;-;-;-;-;-;-;-;-
1513510072130;-;-;6.2828674;0.10673523;-1.8500366;-;-;-;-;-;-;-;-;-;-;-;-;-;-;-
1513510072150;-;-;7.8127747;0.17616272;-1.9601746;-;-;-;-;-;-;-;-;-;-;-;-;-;-;-
1513510072171;-;-;8.736938;1.5181122;-2.172058;-;-;-;-;-;-;-;-;-;-;-;-;-;-;-
1513510072191;-;-;9.740097;3.893158;-1.8452454;-;-;-;-;-;-;-;-;-;-;-;-;-;-;-
1513510072211;-;-;9.923264;4.011673;-2.2534637;-;-;-;-;-;-;-;-;-;-;-;-;-;-;-
1513510072231;-;-;9.322311;3.0324554;-2.5730896;-;-;-;-;-;-;-;-;-;-;-;-;-;-;-
1513510072251;-;-;10.5481415;2.4207306;-1.9912872;-;-;-;-;-;-;-;-;-;-;-;-;-;-;-
1513510072272;-;-;11.847;3.4263;-1.8224945;-;-;-;-;-;-;-;-;-;-;-;-;-;-;-
1513510072292;-;-;12.086426;4.480942;-1.6321564;-;-;-;-;-;-;-;-;-;-;-;-;-;-;-
1513510072312;-;-;11.345413;3.383194;-5.357544;-;-;-;-;-;-;-;-;-;-;-;-;-;-;-
1513510072332;-;-;13.771942;3.125824;-8.210236;-;-;-;-;-;-;-;-;-;-;-;-;-;-;-
1513510072353;-;-;12.744827;3.991333;-8.179108;-;-;-;-;-;-;-;-;-;-;-;-;-;-;-
1513510072373;-;-;7.7541046;5.7007904;-10.296783;-;-;-;-;-;-;-;-;-;-;-;-;-;-;-
1513510072393;-;-;4.508774;3.6214294;-8.094116;-;-;-;-;-;-;-;-;-;-;-;-;-;-;-
1513510072414;-;-;3.4062347;1.2679291;-8.613647;-;-;-;-;-;-;-;-;-;-;-;-;-;-;-
1513510072434;-;-;4.462082;-1.348938;-9.313965;-;-;-;-;-;-;-;-;-;-;-;-;-;-;-
1513510072454;-;-;7.1172485;-1.6302643;-6.7114563;-;-;-;-;-;-;-;-;-;-;-;-;-;-;-
1513510072475;-;-;8.294006;-0.32421875;-4.8775024;-;-;-;-;-;-;-;-;-;-;-;-;-;-;-
1513510072495;-;-;6.3271637;1.5432587;-4.3507843;-;-;-;-;-;-;-;-;-;-;-;-;-;-;-
1513510072515;-;-;5.040283;2.2651062;-4.7314606;-;-;-;-;-;-;-;-;-;-;-;-;-;-;-
1513510072535;-;-;4.9086;1.1170807;-4.9086304;-;-;-;-;-;-;-;-;-;-;-;-;-;-;-
1513510072556;-;-;5.392227;-0.7300415;-4.0562897;-;-;-;-;-;-;-;-;-;-;-;-;-;-;-
1513510072576;-;-;5.6460114;-2.775879;-3.4745026;-;-;-;-;-;-;-;-;-;-;-;-;-;-;-
1513510072596;-;-;6.118866;-3.9263;-3.2099457;-;-;-;-;-;-;-;-;-;-;-;-;-;-;-
1513510072616;-;-;7.6810913;-4.0699463;-3.2171173;-;-;-;-;-;-;-;-;-;-;-;-;-;-;-
1513510072636;-;-;8.42688;-3.3504944;-3.100998;-;-;-;-;-;-;-;-;-;-;-;-;-;-;-
1513510072656;-;-;8.469971;-1.9714355;-3.089035;-;-;-;-;-;-;-;-;-;-;-;-;-;-;-
1513510072676;-;-;7.9348755;-0.2571869;-3.7797546;-;-;-;-;-;-;-;-;-;-;-;-;-;-;-
1513510072696;-;-;7.10289;0.4874115;-4.298111;-;-;-;-;-;-;-;-;-;-;-;-;-;-;-
1513510072716;-;-;7.0142975;0.02293396;-4.641678;-;-;-;-;-;-;-;-;-;-;-;-;-;-;-
1513510072736;-;-;8.650742;-1.036499;-3.551117;-;-;-;-;-;-;-;-;-;-;-;-;-;-;-
1513510072756;-;-;10.025009;-3.337326;-3.6241455;-;-;-;-;-;-;-;-;-;-;-;-;-;-;-
1513510072776;-;-;10.169861;-5.5411835;-4.6045685;-;-;-;-;-;-;-;-;-;-;-;-;-;-;-
1513510072797;-;-;12.859741;-4.939041;-4.1819916;-;-;-;-;-;-;-;-;-;-;-;-;-;-;-
1513510072818;-;-;13.035721;-1.9438934;-6.0243225;-;-;-;-;-;-;-;-;-;-;-;-;-;-;-
1513510072839;-;-;10.643906;-0.7731323;-12.773575;-;-;-;-;-;-;-;-;-;-;-;-;-;-;-
1513510072859;-;-;10.098038;0.9506836;-15.238419;-;-;-;-;-;-;-;-;-;-;-;-;-;-;-
1513510072879;-;-;16.721588;-3.024887;-1.0491791;-;-;-;-;-;-;-;-;-;-;-;-;-;-;-
1513510072899;-;-;10.408081;-2.1150818;-9.992722;-;-;-;-;-;-;-;-;-;-;-;-;-;-;-
1513510072919;-;-;5.8363495;-1.2364197;-12.595215;-;-;-;-;-;-;-;-;-;-;-;-;-;-;-
1513510072940;-;-;4.442932;0.45988464;-9.425293;-;-;-;-;-;-;-;-;-;-;-;-;-;-;-
1513510072959;-;-;3.490036;2.3932037;-5.2976837;-;-;-;-;-;-;-;-;-;-;-;-;-;-;-
1513510072979;-;-;2.571869;1.789856;-2.3611908;-;-;-;-;-;-;-;-;-;-;-;-;-;-;-
1513510072999;-;-;4.1077423;0.6538086;-1.7075806;-;-;-;-;-;-;-;-;-;-;-;-;-;-;-
1513510073020;-;-;6.348709;-0.5432892;-3.0854492;-;-;-;-;-;-;-;-;-;-;-;-;-;-;-
1513510073040;-;-;6.7485504;-0.71687317;-4.9577026;-;-;-;-;-;-;-;-;-;-;-;-;-;-;-
1513510073060;-;-;6.9496613;-0.5959625;-5.883072;-;-;-;-;-;-;-;-;-;-;-;-;-;-;-
1513510073081;-;-;5.370682;-0.636673;-5.195938;-;-;-;-;-;-;-;-;-;-;-;-;-;-;-
1513510073101;-;-;4.6452484;0.3222046;-3.8192596;-;-;-;-;-;-;-;-;-;-;-;-;-;-;-
1513510073121;-;-;5.600525;1.4055939;-3.409851;-;-;-;-;-;-;-;-;-;-;-;-;-;-;-
1513510073141;-;-;6.309204;1.3217926;-4.3878937;-;-;-;-;-;-;-;-;-;-;-;-;-;-;-
1513510073162;-;-;5.3694916;1.2344055;-5.1851654;-;-;-;-;-;-;-;-;-;-;-;-;-;-;-
1513510073182;-;-;6.130844;1.3995972;-4.6883545;-;-;-;-;-;-;-;-;-;-;-;-;-;-;-
1513510073202;-;-;6.76651;1.789856;-3.5463257;-;-;-;-;-;-;-;-;-;-;-;-;-;-;-
1513510073223;-;-;7.04303;2.4398804;-2.3348541;-;-;-;-;-;-;-;-;-;-;-;-;-;-;-
1513510073243;-;-;8.819534;2.8564758;-2.069107;-;-;-;-;-;-;-;-;-;-;-;-;-;-;-
1513510073263;-;-;11.200562;2.433899;-3.112976;-;-;-;-;-;-;-;-;-;-;-;-;-;-;-
1513510073284;-;-;9.919662;0.34854126;-5.365921;-;-;-;-;-;-;-;-;-;-;-;-;-;-;-
1513510073304;-;-;7.980362;-0.8928528;-9.528244;-;-;-;-;-;-;-;-;-;-;-;-;-;-;-
1513510073324;-;-;9.3546295;1.185318;-9.916107;-;-;-;-;-;-;-;-;-;-;-;-;-;-;-
1513510073345;-;-;9.024231;4.7048035;-7.9408875;-;-;-;-;-;-;-;-;-;-;-;-;-;-;-
1513510073364;-;-;8.206619;3.6010742;-9.025452;-;-;-;-;-;-;-;-;-;-;-;-;-;-;-
1513510073384;-;-;7.6224365;2.018509;-7.707443;-;-;-;-;-;-;-;-;-;-;-;-;-;-;-
1513510073405;-;-;5.3970184;0.714859;-9.304382;-;-;-;-;-;-;-;-;-;-;-;-;-;-;-
1513510073424;-;-;3.8072662;-0.33738708;-8.3479;-;-;-;-;-;-;-;-;-;-;-;-;-;-;-
1513510073444;-;-;5.0378876;-0.8820648;-5.726242;-;-;-;-;-;-;-;-;-;-;-;-;-;-;-
1513510073465;-;-;7.6966553;-0.8712921;-3.5978088;-;-;-;-;-;-;-;-;-;-;-;-;-;-;-
1513510073485;-;-;8.067749;-0.39126587;-3.7043457;-;-;-;-;-;-;-;-;-;-;-;-;-;-;-
1513510073505;-;-;6.9951477;0.11152649;-5.161209;-;-;-;-;-;-;-;-;-;-;-;-;-;-;-
1513510073525;-;-;5.821991;-0.026138306;-5.345566;-;-;-;-;-;-;-;-;-;-;-;-;-;-;-
1513510073546;-;-;4.2430115;-0.9263611;-3.832428;-;-;-;-;-;-;-;-;-;-;-;-;-;-;-
1513510073566;-;-;3.656433;-2.6944885;-2.7634277;-;-;-;-;-;-;-;-;-;-;-;-;-;-;-
1513510073586;-;-;4.853531;-3.8101807;-2.5024567;-;-;-;-;-;-;-;-;-;-;-;-;-;-;-
1513510073607;-;-;6.616867;-3.3720398;-3.3368378;-;-;-;-;-;-;-;-;-;-;-;-;-;-;-
1513510073627;-;-;7.2070313;-2.4215393;-4.9170074;-;-;-;-;-;-;-;-;-;-;-;-;-;-;-
1513510073647;-;-;6.929306;-1.2723236;-5.7597656;-;-;-;-;-;-;-;-;-;-;-;-;-;-;-
