TimeStamp[ms];Prox[Cm];Lux[lux];AccX[m/s^2];AccY[m/s^2];AccZ[m/s^2];GyroX[rad/s];GyroY[rad/s];GyroZ[rad/s];MagnX[uT];MagnY[uT];MagnZ[uT];OrienYaw[degrees];OrienPitch[degrees];OrienRoll[degrees];Press[Pa];Temp[C°];Batt[%];Lat;Lng;Speed[m/s]
1512459794958;-;-;9.49231;-1.4315338;-0.104660034;-;-;-;-;-;-;-;-;-;-;-;-;-;-;-
1512459794987;-;-;8.811157;-1.4902039;-0.18965149;-;-;-;-;-;-;-;-;-;-;-;-;-;-;-
1512459794996;-;-;9.031418;-1.4734344;-0.2866211;-;-;-;-;-;-;-;-;-;-;-;-;-;-;-
1512459795016;-;-;9.285202;-1.5141449;-0.4051361;-;-;-;-;-;-;-;-;-;-;-;-;-;-;-
1512459795037;-;-;9.287598;-1.4770355;-0.40992737;-;-;-;-;-;-;-;-;-;-;-;-;-;-;-
1512459795057;-;-;9.242111;-1.4961853;-0.36323547;-;-;-;-;-;-;-;-;-;-;-;-;-;-;-
1512459795077;-;-;9.322311;-1.5500488;-0.47576904;-;-;-;-;-;-;-;-;-;-;-;-;-;-;-
1512459795097;-;-;9.051773;-1.6087189;-0.2686615;-;-;-;-;-;-;-;-;-;-;-;-;-;-;-
1512459795117;-;-;9.093674;-1.5751953;-0.26268005;-;-;-;-;-;-;-;-;-;-;-;-;-;-;-
1512459795138;-;-;9.1523285;-1.4878082;-0.29141235;-;-;-;-;-;-;-;-;-;-;-;-;-;-;-
1512459795158;-;-;9.323517;-1.4351349;-0.31414795;-;-;-;-;-;-;-;-;-;-;-;-;-;-;-
1512459795179;-;-;9.285202;-1.4602661;-0.41471863;-;-;-;-;-;-;-;-;-;-;-;-;-;-;-
1512459795199;-;-;9.195419;-1.5548401;-0.56555176;-;-;-;-;-;-;-;-;-;-;-;-;-;-;-
1512459795219;-;-;9.093674;-1.6206818;-0.5834961;-;-;-;-;-;-;-;-;-;-;-;-;-;-;-
1512459795239;-;-;8.98233;-1.6110992;-0.43266296;-;-;-;-;-;-;-;-;-;-;-;-;-;-;-
1512459795260;-;-;9.032608;-1.546463;-0.43745422;-;-;-;-;-;-;-;-;-;-;-;-;-;-;-
1512459795280;-;-;9.33429;-1.3980255;-0.39675903;-;-;-;-;-;-;-;-;-;-;-;-;-;-;-
1512459795301;-;-;9.133179;-1.451889;-0.65293884;-;-;-;-;-;-;-;-;-;-;-;-;-;-;-
1512459795322;-;-;9.133179;-1.7679291;-0.7020111;-;-;-;-;-;-;-;-;-;-;-;-;-;-;-
1512459795342;-;-;9.273239;-1.8577118;-0.6110382;-;-;-;-;-;-;-;-;-;-;-;-;-;-;-
1512459795361;-;-;9.136765;-1.7763062;-0.511673;-;-;-;-;-;-;-;-;-;-;-;-;-;-;-
1512459795381;-;-;9.348648;-1.8900299;-0.58709717;-;-;-;-;-;-;-;-;-;-;-;-;-;-;-
1512459795402;-;-;9.075714;-1.5751953;-0.6253967;-;-;-;-;-;-;-;-;-;-;-;-;-;-;-
1512459795422;-;-;9.129578;-1.3022614;-0.50927734;-;-;-;-;-;-;-;-;-;-;-;-;-;-;-
1512459795443;-;-;10.38295;-1.4530945;-0.6266022;-;-;-;-;-;-;-;-;-;-;-;-;-;-;-
1512459795464;-;-;9.388153;-1.1334686;-0.67567444;-;-;-;-;-;-;-;-;-;-;-;-;-;-;-
1512459795484;-;-;9.036209;-1.1993103;-0.61701965;-;-;-;-;-;-;-;-;-;-;-;-;-;-;-
1512459795504;-;-;8.990723;-1.2759247;-0.6828613;-;-;-;-;-;-;-;-;-;-;-;-;-;-;-
1512459795525;-;-;9.292389;-1.4686584;-0.5966644;-;-;-;-;-;-;-;-;-;-;-;-;-;-;-
1512459795545;-;-;9.062546;-1.4099884;-0.62420654;-;-;-;-;-;-;-;-;-;-;-;-;-;-;-
1512459795565;-;-;9.239716;-1.6206818;-0.8061676;-;-;-;-;-;-;-;-;-;-;-;-;-;-;-
1512459795586;-;-;9.193024;-1.3609161;-0.6601105;-;-;-;-;-;-;-;-;-;-;-;-;-;-;-
1512459795607;-;-;9.14035;-1.309433;-0.69602966;-;-;-;-;-;-;-;-;-;-;-;-;-;-;-
1512459795627;-;-;8.989517;-1.3657074;-1.1102295;-;-;-;-;-;-;-;-;-;-;-;-;-;-;-
1512459795648;-;-;9.29718;-1.4016113;-1.0443878;-;-;-;-;-;-;-;-;-;-;-;-;-;-;-
1512459795668;-;-;9.232529;-1.700882;-1.0395966;-;-;-;-;-;-;-;-;-;-;-;-;-;-;-
1512459795688;-;-;8.922485;-1.5512543;-1.0312195;-;-;-;-;-;-;-;-;-;-;-;-;-;-;-
1512459795709;-;-;9.142746;-1.3848572;-1.006073;-;-;-;-;-;-;-;-;-;-;-;-;-;-;-
1512459795728;-;-;8.990723;-2.0336761;-1.4370422;-;-;-;-;-;-;-;-;-;-;-;-;-;-;-
1512459795749;-;-;8.649536;-1.625473;-1.274231;-;-;-;-;-;-;-;-;-;-;-;-;-;-;-
1512459795771;-;-;9.342667;-1.1358643;-1.2909851;-;-;-;-;-;-;-;-;-;-;-;-;-;-;-
1512459795791;-;-;10.060928;-1.4447021;-1.3664093;-;-;-;-;-;-;-;-;-;-;-;-;-;-;-
1512459795812;-;-;9.3701935;-1.1490326;-1.5363922;-;-;-;-;-;-;-;-;-;-;-;-;-;-;-
1512459795832;-;-;9.151123;-0.064453125;-1.2706451;-;-;-;-;-;-;-;-;-;-;-;-;-;-;-
1512459795852;-;-;9.761642;-0.15782166;-0.8325043;-;-;-;-;-;-;-;-;-;-;-;-;-;-;-
1512459795872;-;-;8.627991;-0.5504761;-1.9649506;-;-;-;-;-;-;-;-;-;-;-;-;-;-;-
1512459795893;-;-;8.770447;0.03491211;-1.9086914;-;-;-;-;-;-;-;-;-;-;-;-;-;-;-
1512459795913;-;-;9.147537;-0.20211792;-1.9075012;-;-;-;-;-;-;-;-;-;-;-;-;-;-;-
1512459795934;-;-;9.106842;0.28988647;-1.8799591;-;-;-;-;-;-;-;-;-;-;-;-;-;-;-
1512459795954;-;-;9.117615;0.03970337;-1.9769287;-;-;-;-;-;-;-;-;-;-;-;-;-;-;-
1512459795974;-;-;8.715378;-0.08480835;-2.546753;-;-;-;-;-;-;-;-;-;-;-;-;-;-;-
1512459795995;-;-;8.911713;-0.090789795;-2.2833862;-;-;-;-;-;-;-;-;-;-;-;-;-;-;-
1512459796015;-;-;9.131973;0.3509369;-1.1521301;-;-;-;-;-;-;-;-;-;-;-;-;-;-;-
1512459796036;-;-;9.125992;0.3605194;-0.93185425;-;-;-;-;-;-;-;-;-;-;-;-;-;-;-
1512459796056;-;-;7.554199;0.4586792;-2.3863373;-;-;-;-;-;-;-;-;-;-;-;-;-;-;-
1512459796077;-;-;8.716583;0.36291504;-2.883133;-;-;-;-;-;-;-;-;-;-;-;-;-;-;-
1512459796096;-;-;9.346252;0.48143005;-2.6042023;-;-;-;-;-;-;-;-;-;-;-;-;-;-;-
1512459796117;-;-;9.359421;0.65141296;-2.108612;-;-;-;-;-;-;-;-;-;-;-;-;-;-;-
1512459796138;-;-;8.598068;0.34735107;-2.3276825;-;-;-;-;-;-;-;-;-;-;-;-;-;-;-
1512459796158;-;-;8.942825;0.39881897;-2.8065186;-;-;-;-;-;-;-;-;-;-;-;-;-;-;-
1512459796179;-;-;9.501877;0.11631775;-3.3990784;-;-;-;-;-;-;-;-;-;-;-;-;-;-;-
1512459796198;-;-;7.550598;1.0691986;-3.4792938;-;-;-;-;-;-;-;-;-;-;-;-;-;-;-
1512459796218;-;-;8.531036;0.95428467;-3.7630005;-;-;-;-;-;-;-;-;-;-;-;-;-;-;-
1512459796239;-;-;8.195847;-0.09197998;-3.867157;-;-;-;-;-;-;-;-;-;-;-;-;-;-;-
1512459796259;-;-;9.516251;-0.51097107;-2.978897;-;-;-;-;-;-;-;-;-;-;-;-;-;-;-
1512459796280;-;-;9.550964;0.16897583;-2.9214478;-;-;-;-;-;-;-;-;-;-;-;-;-;-;-
1512459796300;-;-;8.594482;0.66937256;-3.0220032;-;-;-;-;-;-;-;-;-;-;-;-;-;-;-
1512459796321;-;-;8.390976;0.33299255;-3.1417084;-;-;-;-;-;-;-;-;-;-;-;-;-;-;-
1512459796341;-;-;8.542999;0.3569336;-3.2697906;-;-;-;-;-;-;-;-;-;-;-;-;-;-;-
1512459796362;-;-;8.853058;0.24320984;-3.678009;-;-;-;-;-;-;-;-;-;-;-;-;-;-;-
1512459796382;-;-;8.80397;0.16897583;-2.405487;-;-;-;-;-;-;-;-;-;-;-;-;-;-;-
1512459796403;-;-;8.315552;0.5352936;-2.3947144;-;-;-;-;-;-;-;-;-;-;-;-;-;-;-
1512459796424;-;-;8.40892;0.2348175;-2.199585;-;-;-;-;-;-;-;-;-;-;-;-;-;-;-
1512459796444;-;-;8.600464;-0.00819397;-1.377182;-;-;-;-;-;-;-;-;-;-;-;-;-;-;-
1512459796465;-;-;7.253723;1.382843;-2.1277618;-;-;-;-;-;-;-;-;-;-;-;-;-;-;-
1512459796485;-;-;8.314362;0.89682007;-3.4972534;-;-;-;-;-;-;-;-;-;-;-;-;-;-;-
1512459796505;-;-;8.818329;1.4810028;-2.3695831;-;-;-;-;-;-;-;-;-;-;-;-;-;-;-
1512459796525;-;-;9.21817;1.4403076;-3.0231934;-;-;-;-;-;-;-;-;-;-;-;-;-;-;-
1512459796548;-;-;8.929672;0.9578705;-3.168045;-;-;-;-;-;-;-;-;-;-;-;-;-;-;-
1512459796565;-;-;8.587296;0.8273926;-3.0626984;-;-;-;-;-;-;-;-;-;-;-;-;-;-;-
1512459796586;-;-;8.5849;0.5484619;-2.9872742;-;-;-;-;-;-;-;-;-;-;-;-;-;-;-
1512459796606;-;-;8.316742;0.35812378;-3.0279846;-;-;-;-;-;-;-;-;-;-;-;-;-;-;-
1512459796626;-;-;7.829529;0.0037841797;-3.0447388;-;-;-;-;-;-;-;-;-;-;-;-;-;-;-
1512459796646;-;-;7.509903;-0.0069885254;-3.1716309;-;-;-;-;-;-;-;-;-;-;-;-;-;-;-
1512459796667;-;-;7.5075073;0.031311035;-3.4852753;-;-;-;-;-;-;-;-;-;-;-;-;-;-;-
1512459796687;-;-;7.509903;0.02053833;-3.8420105;-;-;-;-;-;-;-;-;-;-;-;-;-;-;-
1512459796707;-;-;7.344696;0.02772522;-4.3005066;-;-;-;-;-;-;-;-;-;-;-;-;-;-;-
1512459796728;-;-;7.256119;0.16539001;-4.808075;-;-;-;-;-;-;-;-;-;-;-;-;-;-;-
1512459796748;-;-;7.53743;0.31263733;-5.0834045;-;-;-;-;-;-;-;-;-;-;-;-;-;-;-
1512459796769;-;-;8.016281;0.5664215;-5.0750275;-;-;-;-;-;-;-;-;-;-;-;-;-;-;-
1512459796788;-;-;8.197037;0.7292328;-4.8379974;-;-;-;-;-;-;-;-;-;-;-;-;-;-;-
1512459796809;-;-;8.186264;0.81062317;-4.696747;-;-;-;-;-;-;-;-;-;-;-;-;-;-;-
1512459796829;-;-;7.221405;0.115112305;-4.0084076;-;-;-;-;-;-;-;-;-;-;-;-;-;-;-
1512459796849;-;-;6.221817;-0.63067627;-3.4673157;-;-;-;-;-;-;-;-;-;-;-;-;-;-;-
1512459796870;-;-;6.015915;-1.3381653;-3.7366638;-;-;-;-;-;-;-;-;-;-;-;-;-;-;-
1512459796890;-;-;6.671936;-2.044464;-4.2526093;-;-;-;-;-;-;-;-;-;-;-;-;-;-;-
1512459796911;-;-;7.7756653;-2.2348022;-5.3755035;-;-;-;-;-;-;-;-;-;-;-;-;-;-;-
1512459796932;-;-;8.98114;-1.7224426;-5.7525787;-;-;-;-;-;-;-;-;-;-;-;-;-;-;-
1512459796952;-;-;9.3893585;-0.8593292;-5.7992706;-;-;-;-;-;-;-;-;-;-;-;-;-;-;-
1512459796972;-;-;9.185837;-0.5217438;-5.8710938;-;-;-;-;-;-;-;-;-;-;-;-;-;-;-
1512459796993;-;-;8.532227;-0.4163971;-5.73822;-;-;-;-;-;-;-;-;-;-;-;-;-;-;-
1512459797012;-;-;7.719391;-0.45948792;-5.5466766;-;-;-;-;-;-;-;-;-;-;-;-;-;-;-
1512459797033;-;-;7.0334625;-0.65940857;-5.705902;-;-;-;-;-;-;-;-;-;-;-;-;-;-;-
1512459797052;-;-;7.0370483;-1.1203003;-5.5742188;-;-;-;-;-;-;-;-;-;-;-;-;-;-;-
1512459797073;-;-;6.649185;-1.4028168;-5.4652863;-;-;-;-;-;-;-;-;-;-;-;-;-;-;-
1512459797094;-;-;7.143585;-1.3968201;-5.772934;-;-;-;-;-;-;-;-;-;-;-;-;-;-;-
1512459797113;-;-;7.6104584;-1.1274719;-6.3750763;-;-;-;-;-;-;-;-;-;-;-;-;-;-;-
1512459797134;-;-;8.007904;-0.7982788;-6.9329224;-;-;-;-;-;-;-;-;-;-;-;-;-;-;-
1512459797154;-;-;7.585327;-0.7623596;-7.022705;-;-;-;-;-;-;-;-;-;-;-;-;-;-;-
1512459797174;-;-;7.396179;-0.99220276;-7.2094574;-;-;-;-;-;-;-;-;-;-;-;-;-;-;-
1512459797195;-;-;6.8239594;-0.93833923;-7.2956543;-;-;-;-;-;-;-;-;-;-;-;-;-;-;-
1512459797216;-;-;7.02388;-0.80067444;-7.3591003;-;-;-;-;-;-;-;-;-;-;-;-;-;-;-
1512459797237;-;-;7.044235;-0.77552795;-7.278885;-;-;-;-;-;-;-;-;-;-;-;-;-;-;-
1512459797257;-;-;6.984375;-1.0496674;-7.6487885;-;-;-;-;-;-;-;-;-;-;-;-;-;-;-
1512459797277;-;-;6.8203735;-1.2040863;-7.756531;-;-;-;-;-;-;-;-;-;-;-;-;-;-;-
1512459797297;-;-;6.5234985;-0.9323425;-7.8307495;-;-;-;-;-;-;-;-;-;-;-;-;-;-;-
1512459797318;-;-;6.620453;-0.45829773;-8.06897;-;-;-;-;-;-;-;-;-;-;-;-;-;-;-
1512459797338;-;-;6.6695404;-0.17578125;-7.97081;-;-;-;-;-;-;-;-;-;-;-;-;-;-;-
1512459797359;-;-;6.3810425;0.0013885498;-7.773285;-;-;-;-;-;-;-;-;-;-;-;-;-;-;-
1512459797379;-;-;5.988388;-0.16142273;-7.707443;-;-;-;-;-;-;-;-;-;-;-;-;-;-;-
1512459797399;-;-;5.72023;-0.71687317;-7.4345093;-;-;-;-;-;-;-;-;-;-;-;-;-;-;-
1512459797420;-;-;5.3647003;-1.5356903;-7.1280518;-;-;-;-;-;-;-;-;-;-;-;-;-;-;-
1512459797440;-;-;4.9469147;-2.0336761;-7.3124084;-;-;-;-;-;-;-;-;-;-;-;-;-;-;-
1512459797461;-;-;4.762558;-2.0540314;-7.6523895;-;-;-;-;-;-;-;-;-;-;-;-;-;-;-
1512459797480;-;-;5.0283203;-1.3022614;-7.548233;-;-;-;-;-;-;-;-;-;-;-;-;-;-;-
1512459797501;-;-;5.371887;-0.49301147;-7.6727295;-;-;-;-;-;-;-;-;-;-;-;-;-;-;-
1512459797521;-;-;5.8195953;-0.16142273;-7.852295;-;-;-;-;-;-;-;-;-;-;-;-;-;-;-
1512459797542;-;-;6.0338745;-0.15663147;-8.179108;-;-;-;-;-;-;-;-;-;-;-;-;-;-;-
1512459797562;-;-;5.5825653;-0.42956543;-8.180298;-;-;-;-;-;-;-;-;-;-;-;-;-;-;-
1512459797582;-;-;5.169571;-0.4774475;-7.9648285;-;-;-;-;-;-;-;-;-;-;-;-;-;-;-
1512459797602;-;-;4.6224976;-0.41760254;-7.639221;-;-;-;-;-;-;-;-;-;-;-;-;-;-;-
1512459797624;-;-;4.5422974;-0.42956543;-7.3016357;-;-;-;-;-;-;-;-;-;-;-;-;-;-;-
1512459797644;-;-;4.7206573;-0.51216125;-7.189102;-;-;-;-;-;-;-;-;-;-;-;-;-;-;-
1512459797664;-;-;5.289276;-0.63905334;-7.707443;-;-;-;-;-;-;-;-;-;-;-;-;-;-;-
1512459797685;-;-;5.5598297;-0.66659546;-8.441269;-;-;-;-;-;-;-;-;-;-;-;-;-;-;-
1512459797705;-;-;5.7298126;-0.6402588;-8.804001;-;-;-;-;-;-;-;-;-;-;-;-;-;-;-
1512459797725;-;-;5.750168;-0.5756073;-8.849487;-;-;-;-;-;-;-;-;-;-;-;-;-;-;-
1512459797746;-;-;5.7094574;-0.5241394;-8.669922;-;-;-;-;-;-;-;-;-;-;-;-;-;-;-
1512459797765;-;-;5.7525635;-0.50138855;-8.577744;-;-;-;-;-;-;-;-;-;-;-;-;-;-;-
1512459797785;-;-;5.6579895;-0.5708313;-8.618439;-;-;-;-;-;-;-;-;-;-;-;-;-;-;-
1512459797805;-;-;5.30484;-0.6007538;-8.278473;-;-;-;-;-;-;-;-;-;-;-;-;-;-;-
1512459797826;-;-;5.2629395;-0.704895;-8.138412;-;-;-;-;-;-;-;-;-;-;-;-;-;-;-
1512459797846;-;-;5.3311768;-0.8485565;-7.9169464;-;-;-;-;-;-;-;-;-;-;-;-;-;-;-
1512459797867;-;-;5.253372;-0.7156677;-7.8056183;-;-;-;-;-;-;-;-;-;-;-;-;-;-;-
1512459797886;-;-;5.1121063;-0.502594;-7.6009064;-;-;-;-;-;-;-;-;-;-;-;-;-;-;-
1512459797907;-;-;5.039093;-0.4738617;-7.254944;-;-;-;-;-;-;-;-;-;-;-;-;-;-;-
1512459797927;-;-;4.853531;-0.59835815;-7.013138;-;-;-;-;-;-;-;-;-;-;-;-;-;-;-
1512459797947;-;-;4.65242;-0.6079407;-6.9604645;-;-;-;-;-;-;-;-;-;-;-;-;-;-;-
1512459797968;-;-;4.6775665;-0.7013092;-6.916168;-;-;-;-;-;-;-;-;-;-;-;-;-;-;-
1512459797989;-;-;4.940918;-0.9263611;-7.034683;-;-;-;-;-;-;-;-;-;-;-;-;-;-;-
1512459798009;-;-;5.2821045;-1.1717682;-6.8515167;-;-;-;-;-;-;-;-;-;-;-;-;-;-;-
1512459798030;-;-;5.4006042;-1.3752747;-6.327194;-;-;-;-;-;-;-;-;-;-;-;-;-;-;-
1512459798050;-;-;4.762558;-1.5811768;-5.788498;-;-;-;-;-;-;-;-;-;-;-;-;-;-;-
1512459798071;-;-;3.9317627;-1.7763062;-5.7992706;-;-;-;-;-;-;-;-;-;-;-;-;-;-;-
1512459798091;-;-;3.4912415;-1.7236328;-6.1308746;-;-;-;-;-;-;-;-;-;-;-;-;-;-;-
1512459798112;-;-;3.4409637;-1.3082428;-6.418167;-;-;-;-;-;-;-;-;-;-;-;-;-;-;-
1512459798132;-;-;4.3256073;-0.8102417;-6.3643036;-;-;-;-;-;-;-;-;-;-;-;-;-;-;-
1512459798153;-;-;5.589752;-0.67378235;-5.9800262;-;-;-;-;-;-;-;-;-;-;-;-;-;-;-
1512459798173;-;-;6.3343506;-0.8162384;-5.6735687;-;-;-;-;-;-;-;-;-;-;-;-;-;-;-
1512459798194;-;-;6.612076;-0.6977234;-6.1990967;-;-;-;-;-;-;-;-;-;-;-;-;-;-;-
1512459798214;-;-;6.715027;-0.5504761;-6.4756317;-;-;-;-;-;-;-;-;-;-;-;-;-;-;-
1512459798235;-;-;6.427719;-0.700119;-6.291275;-;-;-;-;-;-;-;-;-;-;-;-;-;-;-
1512459798255;-;-;5.8004456;-0.7216644;-5.441345;-;-;-;-;-;-;-;-;-;-;-;-;-;-;-
1512459798276;-;-;5.501175;-0.86291504;-4.5351257;-;-;-;-;-;-;-;-;-;-;-;-;-;-;-
1512459798296;-;-;6.0494385;-1.2507782;-4.7326508;-;-;-;-;-;-;-;-;-;-;-;-;-;-;-
1512459798317;-;-;6.7736816;-1.6350555;-5.0786133;-;-;-;-;-;-;-;-;-;-;-;-;-;-;-
1512459798336;-;-;7.494339;-2.0731812;-5.041504;-;-;-;-;-;-;-;-;-;-;-;-;-;-;-
1512459798356;-;-;8.143173;-2.344925;-5.539505;-;-;-;-;-;-;-;-;-;-;-;-;-;-;-
1512459798378;-;-;8.553772;-2.1641693;-6.5857697;-;-;-;-;-;-;-;-;-;-;-;-;-;-;-
1512459798397;-;-;8.594482;-1.3357697;-6.736603;-;-;-;-;-;-;-;-;-;-;-;-;-;-;-
1512459798417;-;-;9.013458;-0.44273376;-5.3802795;-;-;-;-;-;-;-;-;-;-;-;-;-;-;-
1512459798438;-;-;8.874603;-0.83657837;-5.0642548;-;-;-;-;-;-;-;-;-;-;-;-;-;-;-
1512459798457;-;-;9.042191;-1.8493347;-5.240219;-;-;-;-;-;-;-;-;-;-;-;-;-;-;-
1512459798477;-;-;9.251678;-2.3078156;-4.8463745;-;-;-;-;-;-;-;-;-;-;-;-;-;-;-
1512459798497;-;-;9.596451;-2.2371826;-4.342392;-;-;-;-;-;-;-;-;-;-;-;-;-;-;-
1512459798518;-;-;9.992691;-2.0671997;-3.8420105;-;-;-;-;-;-;-;-;-;-;-;-;-;-;-
1512459798538;-;-;10.341049;-1.5955505;-3.5391388;-;-;-;-;-;-;-;-;-;-;-;-;-;-;-
1512459798559;-;-;10.867767;-0.9754486;-3.0543213;-;-;-;-;-;-;-;-;-;-;-;-;-;-;-
1512459798580;-;-;11.672226;-0.5504761;-2.725113;-;-;-;-;-;-;-;-;-;-;-;-;-;-;-
1512459798600;-;-;13.228455;-0.37809753;-3.12854;-;-;-;-;-;-;-;-;-;-;-;-;-;-;-
1512459798621;-;-;14.257965;-0.1817627;-3.8623657;-;-;-;-;-;-;-;-;-;-;-;-;-;-;-
1512459798641;-;-;14.47464;-0.081207275;-3.8216553;-;-;-;-;-;-;-;-;-;-;-;-;-;-;-
1512459798662;-;-;13.163803;-0.117126465;-2.508438;-;-;-;-;-;-;-;-;-;-;-;-;-;-;-
1512459798682;-;-;11.310699;-0.21170044;-1.0419922;-;-;-;-;-;-;-;-;-;-;-;-;-;-;-
1512459798703;-;-;9.130783;-0.48703003;-0.2111969;-;-;-;-;-;-;-;-;-;-;-;-;-;-;-
1512459798723;-;-;7.766083;-0.799469;0.45199585;-;-;-;-;-;-;-;-;-;-;-;-;-;-;-
1512459798744;-;-;6.2792816;-0.9036255;0.6052246;-;-;-;-;-;-;-;-;-;-;-;-;-;-;-
1512459798764;-;-;5.628067;-0.7875061;0.72612;-;-;-;-;-;-;-;-;-;-;-;-;-;-;-
1512459798785;-;-;6.218231;-0.4271698;0.6171875;-;-;-;-;-;-;-;-;-;-;-;-;-;-;-
1512459798806;-;-;7.590103;-0.2715454;0.06173706;-;-;-;-;-;-;-;-;-;-;-;-;-;-;-
1512459798827;-;-;9.020645;-0.34217834;-1.0970612;-;-;-;-;-;-;-;-;-;-;-;-;-;-;-
1512459798847;-;-;9.740097;-0.09197998;-1.5543518;-;-;-;-;-;-;-;-;-;-;-;-;-;-;-
1512459798867;-;-;10.359009;0.07321167;-1.1150208;-;-;-;-;-;-;-;-;-;-;-;-;-;-;-
1512459798888;-;-;10.992264;0.17616272;-0.49491882;-;-;-;-;-;-;-;-;-;-;-;-;-;-;-
1512459798908;-;-;11.27359;0.0025787354;-0.23753357;-;-;-;-;-;-;-;-;-;-;-;-;-;-;-
1512459798929;-;-;10.563705;-0.25120544;0.2927704;-;-;-;-;-;-;-;-;-;-;-;-;-;-;-
1512459798950;-;-;9.486313;-0.24162292;0.60162354;-;-;-;-;-;-;-;-;-;-;-;-;-;-;-
1512459798970;-;-;8.323929;0.07800293;0.7404938;-;-;-;-;-;-;-;-;-;-;-;-;-;-;-
1512459798990;-;-;7.5913086;0.33299255;0.70936584;-;-;-;-;-;-;-;-;-;-;-;-;-;-;-
1512459799010;-;-;7.2992096;0.35932922;0.6351471;-;-;-;-;-;-;-;-;-;-;-;-;-;-;-
1512459799031;-;-;7.8474884;0.25517273;0.2927704;-;-;-;-;-;-;-;-;-;-;-;-;-;-;-
1512459799051;-;-;9.293579;0.028915405;0.19342041;-;-;-;-;-;-;-;-;-;-;-;-;-;-;-
1512459799072;-;-;10.12677;0.0037841797;0.4986725;-;-;-;-;-;-;-;-;-;-;-;-;-;-;-
1512459799092;-;-;9.844254;0.036102295;0.6243744;-;-;-;-;-;-;-;-;-;-;-;-;-;-;-
1512459799112;-;-;9.307953;0.07800293;1.0876465;-;-;-;-;-;-;-;-;-;-;-;-;-;-;-
1512459799133;-;-;8.831497;0.103149414;1.2767944;-;-;-;-;-;-;-;-;-;-;-;-;-;-;-
1512459799154;-;-;8.80397;0.050476074;1.2660217;-;-;-;-;-;-;-;-;-;-;-;-;-;-;-
1512459799174;-;-;9.020645;-0.0728302;1.0684967;-;-;-;-;-;-;-;-;-;-;-;-;-;-;-
1512459799194;-;-;8.856644;-0.15542603;1.0289917;-;-;-;-;-;-;-;-;-;-;-;-;-;-;-
1512459799216;-;-;9.090073;-0.24281311;1.1187744;-;-;-;-;-;-;-;-;-;-;-;-;-;-;-
1512459799236;-;-;9.273239;0.08758545;1.0948334;-;-;-;-;-;-;-;-;-;-;-;-;-;-;-
1512459799256;-;-;9.036209;0.29707336;1.1870117;-;-;-;-;-;-;-;-;-;-;-;-;-;-;-
1512459799277;-;-;8.98233;0.08518982;1.725708;-;-;-;-;-;-;-;-;-;-;-;-;-;-;-
1512459799297;-;-;9.123596;-0.37449646;2.0980072;-;-;-;-;-;-;-;-;-;-;-;-;-;-;-
1512459799318;-;-;9.029022;-0.76356506;1.5329742;-;-;-;-;-;-;-;-;-;-;-;-;-;-;-
1512459799338;-;-;9.054169;-0.77552795;1.0541382;-;-;-;-;-;-;-;-;-;-;-;-;-;-;-
1512459799358;-;-;9.227737;-0.5564575;1.5090332;-;-;-;-;-;-;-;-;-;-;-;-;-;-;-
1512459799379;-;-;9.33548;-0.39126587;1.6275482;-;-;-;-;-;-;-;-;-;-;-;-;-;-;-
1512459799400;-;-;9.230133;-0.29190063;1.4838867;-;-;-;-;-;-;-;-;-;-;-;-;-;-;-
1512459799420;-;-;9.154724;-0.20570374;1.6239471;-;-;-;-;-;-;-;-;-;-;-;-;-;-;-
1512459799441;-;-;8.991913;-0.07762146;1.6407166;-;-;-;-;-;-;-;-;-;-;-;-;-;-;-
1512459799462;-;-;8.6423645;-0.27633667;1.8633728;-;-;-;-;-;-;-;-;-;-;-;-;-;-;-
1512459799482;-;-;8.4687805;-0.43315125;2.0357513;-;-;-;-;-;-;-;-;-;-;-;-;-;-;-
1512459799502;-;-;8.783615;-0.36132813;2.070465;-;-;-;-;-;-;-;-;-;-;-;-;-;-;-
1512459799523;-;-;9.457581;-0.040512085;2.1147614;-;-;-;-;-;-;-;-;-;-;-;-;-;-;-
1512459799544;-;-;9.985504;0.17137146;2.242859;-;-;-;-;-;-;-;-;-;-;-;-;-;-;-
1512459799564;-;-;9.940018;0.124694824;2.007019;-;-;-;-;-;-;-;-;-;-;-;-;-;-;-
1512459799585;-;-;9.489914;-0.13388062;1.6490936;-;-;-;-;-;-;-;-;-;-;-;-;-;-;-
1512459799605;-;-;9.453995;-0.4487152;1.765213;-;-;-;-;-;-;-;-;-;-;-;-;-;-;-
1512459799625;-;-;9.585678;-0.7527771;1.7484436;-;-;-;-;-;-;-;-;-;-;-;-;-;-;-
1512459799645;-;-;9.348648;-0.8605194;1.4874878;-;-;-;-;-;-;-;-;-;-;-;-;-;-;-
1512459799666;-;-;9.058945;-0.8760834;1.2372894;-;-;-;-;-;-;-;-;-;-;-;-;-;-;-
1512459799687;-;-;8.892548;-0.9107971;0.60162354;-;-;-;-;-;-;-;-;-;-;-;-;-;-;-
1512459799707;-;-;9.067337;-1.0747986;0.0054779053;-;-;-;-;-;-;-;-;-;-;-;-;-;-;-
1512459799728;-;-;9.778412;-1.4267578;-0.75109863;-;-;-;-;-;-;-;-;-;-;-;-;-;-;-
1512459799748;-;-;10.271622;-1.546463;-1.2131805;-;-;-;-;-;-;-;-;-;-;-;-;-;-;-
1512459799768;-;-;10.34584;-1.6075134;-1.3915405;-;-;-;-;-;-;-;-;-;-;-;-;-;-;-
1512459799788;-;-;10.004654;-1.7260284;-0.64456177;-;-;-;-;-;-;-;-;-;-;-;-;-;-;-
1512459799809;-;-;9.103241;-1.3226013;-0.40393066;-;-;-;-;-;-;-;-;-;-;-;-;-;-;-
1512459799829;-;-;8.679474;-0.93833923;0.5190277;-;-;-;-;-;-;-;-;-;-;-;-;-;-;-
1512459799849;-;-;8.288025;-0.6115265;1.1546936;-;-;-;-;-;-;-;-;-;-;-;-;-;-;-
1512459799870;-;-;8.247314;-0.9658661;1.3617859;-;-;-;-;-;-;-;-;-;-;-;-;-;-;-
1512459799890;-;-;9.021835;-1.5177307;1.0361786;-;-;-;-;-;-;-;-;-;-;-;-;-;-;-
1512459799910;-;-;9.784393;-1.3980255;1.0122375;-;-;-;-;-;-;-;-;-;-;-;-;-;-;-
1512459799931;-;-;10.040573;-0.9646759;0.7823944;-;-;-;-;-;-;-;-;-;-;-;-;-;-;-
1512459799951;-;-;10.115997;-0.5528717;0.3705902;-;-;-;-;-;-;-;-;-;-;-;-;-;-;-
1512459799972;-;-;9.816711;-0.1985321;0.2053833;-;-;-;-;-;-;-;-;-;-;-;-;-;-;-
1512459799993;-;-;9.481522;-0.58399963;0.32629395;-;-;-;-;-;-;-;-;-;-;-;-;-;-;-
1512459800013;-;-;9.355835;-1.1047363;0.19940186;-;-;-;-;-;-;-;-;-;-;-;-;-;-;-
1512459800033;-;-;9.307953;-1.6242676;0.38015747;-;-;-;-;-;-;-;-;-;-;-;-;-;-;-
1512459800054;-;-;9.026627;-1.9295349;0.5956421;-;-;-;-;-;-;-;-;-;-;-;-;-;-;-
1512459800074;-;-;8.754883;-1.5249176;0.32510376;-;-;-;-;-;-;-;-;-;-;-;-;-;-;-
1512459800095;-;-;8.569336;-1.0544586;0.70217896;-;-;-;-;-;-;-;-;-;-;-;-;-;-;-
1512459800116;-;-;8.679474;-0.23803711;1.2420807;-;-;-;-;-;-;-;-;-;-;-;-;-;-;-
1512459800136;-;-;8.56694;0.3138275;1.2420807;-;-;-;-;-;-;-;-;-;-;-;-;-;-;-
1512459800156;-;-;8.971558;0.8130188;1.0708923;-;-;-;-;-;-;-;-;-;-;-;-;-;-;-
1512459800177;-;-;9.398926;0.6346588;1.0086365;-;-;-;-;-;-;-;-;-;-;-;-;-;-;-
1512459800198;-;-;10.046555;0.44432068;1.1187744;-;-;-;-;-;-;-;-;-;-;-;-;-;-;-
1512459800218;-;-;10.177048;0.1953125;1.0637054;-;-;-;-;-;-;-;-;-;-;-;-;-;-;-
1512459800238;-;-;9.832275;0.17018127;1.2145386;-;-;-;-;-;-;-;-;-;-;-;-;-;-;-
1512459800258;-;-;9.294785;0.15820313;1.1199646;-;-;-;-;-;-;-;-;-;-;-;-;-;-;-
1512459800279;-;-;8.416107;0.069625854;0.7967529;-;-;-;-;-;-;-;-;-;-;-;-;-;-;-
1512459800299;-;-;7.9205017;0.067230225;0.75605774;-;-;-;-;-;-;-;-;-;-;-;-;-;-;-
1512459800319;-;-;7.904953;-0.0105896;0.77041626;-;-;-;-;-;-;-;-;-;-;-;-;-;-;-
1512459800340;-;-;8.5238495;-0.1590271;0.4220581;-;-;-;-;-;-;-;-;-;-;-;-;-;-;-
1512459800361;-;-;9.348648;-0.13269043;0.14433289;-;-;-;-;-;-;-;-;-;-;-;-;-;-;-
1512459800381;-;-;10.06691;-0.11831665;0.4472046;-;-;-;-;-;-;-;-;-;-;-;-;-;-;-
1512459800402;-;-;10.281189;0.36291504;1.3474274;-;-;-;-;-;-;-;-;-;-;-;-;-;-;-
1512459800422;-;-;9.931641;0.7244415;1.9028778;-;-;-;-;-;-;-;-;-;-;-;-;-;-;-
1512459800442;-;-;9.0577545;0.56163025;2.369751;-;-;-;-;-;-;-;-;-;-;-;-;-;-;-
1512459800463;-;-;8.431671;0.31861877;2.3398132;-;-;-;-;-;-;-;-;-;-;-;-;-;-;-
1512459800482;-;-;7.9037476;0.09715271;1.983078;-;-;-;-;-;-;-;-;-;-;-;-;-;-;-
1512459800503;-;-;7.9420624;-0.47146606;1.923233;-;-;-;-;-;-;-;-;-;-;-;-;-;-;-
1512459800524;-;-;8.693832;-0.5851898;1.9603424;-;-;-;-;-;-;-;-;-;-;-;-;-;-;-
1512459800544;-;-;9.9496;-0.99220276;1.512619;-;-;-;-;-;-;-;-;-;-;-;-;-;-;-
1512459800565;-;-;10.671448;-1.1203003;1.1714478;-;-;-;-;-;-;-;-;-;-;-;-;-;-;-
1512459800585;-;-;9.857422;-0.59117126;1.0625153;-;-;-;-;-;-;-;-;-;-;-;-;-;-;-
1512459800606;-;-;8.829102;-0.24760437;0.99546814;-;-;-;-;-;-;-;-;-;-;-;-;-;-;-
1512459800626;-;-;8.64595;0.10673523;1.7328949;-;-;-;-;-;-;-;-;-;-;-;-;-;-;-
1512459800647;-;-;8.159927;0.05645752;1.8777313;-;-;-;-;-;-;-;-;-;-;-;-;-;-;-
1512459800666;-;-;8.787216;-0.05128479;1.7759857;-;-;-;-;-;-;-;-;-;-;-;-;-;-;-
1512459800687;-;-;9.239716;0.10673523;1.899292;-;-;-;-;-;-;-;-;-;-;-;-;-;-;-
1512459800707;-;-;9.12001;0.0013885498;1.6490936;-;-;-;-;-;-;-;-;-;-;-;-;-;-;-
1512459800727;-;-;9.616806;-0.081207275;2.0561066;-;-;-;-;-;-;-;-;-;-;-;-;-;-;-
1512459800748;-;-;9.518631;-0.28112793;2.1758118;-;-;-;-;-;-;-;-;-;-;-;-;-;-;-
1512459800769;-;-;9.001495;-0.36611938;1.8226776;-;-;-;-;-;-;-;-;-;-;-;-;-;-;-
1512459800789;-;-;8.92009;-0.25;1.6694489;-;-;-;-;-;-;-;-;-;-;-;-;-;-;-
1512459800810;-;-;8.830307;-0.0021972656;1.8394318;-;-;-;-;-;-;-;-;-;-;-;-;-;-;-
1512459800830;-;-;8.869812;0.067230225;2.2189178;-;-;-;-;-;-;-;-;-;-;-;-;-;-;-
1512459800851;-;-;9.051773;-0.00340271;2.0908203;-;-;-;-;-;-;-;-;-;-;-;-;-;-;-
1512459800870;-;-;9.012268;-0.12669373;2.0237885;-;-;-;-;-;-;-;-;-;-;-;-;-;-;-
1512459800890;-;-;9.017059;-0.3074646;1.9878693;-;-;-;-;-;-;-;-;-;-;-;-;-;-;-
1512459800911;-;-;8.935654;-0.45948792;2.0896301;-;-;-;-;-;-;-;-;-;-;-;-;-;-;-
1512459800932;-;-;8.98233;-0.58758545;2.235672;-;-;-;-;-;-;-;-;-;-;-;-;-;-;-
1512459800951;-;-;8.9787445;-0.4882202;2.4308014;-;-;-;-;-;-;-;-;-;-;-;-;-;-;-
1512459800972;-;-;9.009872;-0.35534668;2.3649597;-;-;-;-;-;-;-;-;-;-;-;-;-;-;-
1512459800992;-;-;8.866211;-0.33380127;2.1219482;-;-;-;-;-;-;-;-;-;-;-;-;-;-;-
1512459801012;-;-;8.845871;-0.33499146;1.9603424;-;-;-;-;-;-;-;-;-;-;-;-;-;-;-
1512459801033;-;-;8.996704;-0.36732483;2.1399078;-;-;-;-;-;-;-;-;-;-;-;-;-;-;-
1512459801053;-;-;8.958389;-0.45111084;2.053711;-;-;-;-;-;-;-;-;-;-;-;-;-;-;-
1512459801074;-;-;8.605255;-0.5097656;2.022583;-;-;-;-;-;-;-;-;-;-;-;-;-;-;-
1512459801094;-;-;8.7812195;-0.36611938;2.2189178;-;-;-;-;-;-;-;-;-;-;-;-;-;-;-
1512459801115;-;-;9.023041;0.009765625;2.2703857;-;-;-;-;-;-;-;-;-;-;-;-;-;-;-
1512459801136;-;-;9.425262;0.35932922;2.1279297;-;-;-;-;-;-;-;-;-;-;-;-;-;-;-
1512459801155;-;-;9.457581;0.25517273;2.01062;-;-;-;-;-;-;-;-;-;-;-;-;-;-;-
1512459801175;-;-;9.299576;-0.014175415;1.9387817;-;-;-;-;-;-;-;-;-;-;-;-;-;-;-
1512459801196;-;-;9.12001;-0.18415833;2.1734161;-;-;-;-;-;-;-;-;-;-;-;-;-;-;-
1512459801217;-;-;8.936844;-0.18057251;2.3410187;-;-;-;-;-;-;-;-;-;-;-;-;-;-;-
1512459801238;-;-;9.026627;0.02293396;2.4703064;-;-;-;-;-;-;-;-;-;-;-;-;-;-;-
1512459801258;-;-;8.9991;0.18693542;2.5301514;-;-;-;-;-;-;-;-;-;-;-;-;-;-;-
1512459801278;-;-;8.944031;0.1953125;2.5780334;-;-;-;-;-;-;-;-;-;-;-;-;-;-;-
1512459801298;-;-;9.011063;0.15701294;2.5840302;-;-;-;-;-;-;-;-;-;-;-;-;-;-;-
1512459801319;-;-;8.964386;0.2300415;2.6367035;-;-;-;-;-;-;-;-;-;-;-;-;-;-;-
1512459801339;-;-;8.946426;0.43234253;2.7492218;-;-;-;-;-;-;-;-;-;-;-;-;-;-;-
1512459801360;-;-;8.954803;0.5305023;2.927597;-;-;-;-;-;-;-;-;-;-;-;-;-;-;-
1512459801380;-;-;9.041;0.40960693;2.8509827;-;-;-;-;-;-;-;-;-;-;-;-;-;-;-
1512459801401;-;-;9.0793;0.11631775;3.0042114;-;-;-;-;-;-;-;-;-;-;-;-;-;-;-
1512459801421;-;-;8.872208;0.27192688;2.7480316;-;-;-;-;-;-;-;-;-;-;-;-;-;-;-
1512459801441;-;-;8.319138;0.24559021;2.5624847;-;-;-;-;-;-;-;-;-;-;-;-;-;-;-
1512459801462;-;-;8.165909;0.112716675;2.0369568;-;-;-;-;-;-;-;-;-;-;-;-;-;-;-
1512459801482;-;-;8.218582;-0.1817627;2.3517914;-;-;-;-;-;-;-;-;-;-;-;-;-;-;-
1512459801503;-;-;8.74411;-0.5792084;2.3158722;-;-;-;-;-;-;-;-;-;-;-;-;-;-;-
1512459801523;-;-;9.5677185;-0.67497253;2.0788574;-;-;-;-;-;-;-;-;-;-;-;-;-;-;-
1512459801544;-;-;9.365402;-0.3768921;1.943573;-;-;-;-;-;-;-;-;-;-;-;-;-;-;-
1512459801565;-;-;8.896149;0.013366699;2.1423035;-;-;-;-;-;-;-;-;-;-;-;-;-;-;-
1512459801585;-;-;8.382584;0.34495544;2.311081;-;-;-;-;-;-;-;-;-;-;-;-;-;-;-
1512459801606;-;-;8.423294;0.17497253;2.4188232;-;-;-;-;-;-;-;-;-;-;-;-;-;-;-
1512459801627;-;-;9.134369;-0.3182373;2.5732574;-;-;-;-;-;-;-;-;-;-;-;-;-;-;-
1512459801647;-;-;9.550964;-0.7024994;2.6690216;-;-;-;-;-;-;-;-;-;-;-;-;-;-;-
1512459801667;-;-;9.3941345;-0.7767334;2.7444305;-;-;-;-;-;-;-;-;-;-;-;-;-;-;-
1512459801687;-;-;8.903336;-0.5600586;2.821045;-;-;-;-;-;-;-;-;-;-;-;-;-;-;-
1512459801708;-;-;8.323929;-0.32901;3.030548;-;-;-;-;-;-;-;-;-;-;-;-;-;-;-
1512459801727;-;-;8.0928955;-0.12669373;2.963501;-;-;-;-;-;-;-;-;-;-;-;-;-;-;-
1512459801748;-;-;8.26767;-0.25479126;3.01857;-;-;-;-;-;-;-;-;-;-;-;-;-;-;-
1512459801768;-;-;8.818329;-0.5540619;3.0101929;-;-;-;-;-;-;-;-;-;-;-;-;-;-;-
1512459801789;-;-;9.440826;-1.0496674;2.8354187;-;-;-;-;-;-;-;-;-;-;-;-;-;-;-
1512459801809;-;-;9.683838;-1.3992157;2.4762878;-;-;-;-;-;-;-;-;-;-;-;-;-;-;-
1512459801830;-;-;9.507858;-1.2208557;2.4068604;-;-;-;-;-;-;-;-;-;-;-;-;-;-;-
1512459801850;-;-;9.257675;-0.8712921;2.5337524;-;-;-;-;-;-;-;-;-;-;-;-;-;-;-
1512459801871;-;-;8.915298;-0.62828064;2.6726074;-;-;-;-;-;-;-;-;-;-;-;-;-;-;-
1512459801892;-;-;8.630386;-0.6246948;2.7516174;-;-;-;-;-;-;-;-;-;-;-;-;-;-;-
1512459801912;-;-;8.696228;-0.7803192;2.6606445;-;-;-;-;-;-;-;-;-;-;-;-;-;-;-
1512459801933;-;-;9.001495;-0.80784607;2.4798737;-;-;-;-;-;-;-;-;-;-;-;-;-;-;-
1512459801953;-;-;9.117615;-0.62350464;2.275177;-;-;-;-;-;-;-;-;-;-;-;-;-;-;-
1512459801974;-;-;9.025436;-0.38887024;2.1602478;-;-;-;-;-;-;-;-;-;-;-;-;-;-;-
1512459801994;-;-;8.910507;-0.4259796;2.3410187;-;-;-;-;-;-;-;-;-;-;-;-;-;-;-
1512459802014;-;-;8.7608795;-0.6618042;2.7324677;-;-;-;-;-;-;-;-;-;-;-;-;-;-;-
1512459802035;-;-;8.589691;-0.8988342;2.8198547;-;-;-;-;-;-;-;-;-;-;-;-;-;-;-
1512459802056;-;-;8.7608795;-1.1131134;2.8533783;-;-;-;-;-;-;-;-;-;-;-;-;-;-;-
1512459802076;-;-;8.917694;-1.0771942;2.912033;-;-;-;-;-;-;-;-;-;-;-;-;-;-;-
1512459802095;-;-;9.202606;-0.8988342;2.8617554;-;-;-;-;-;-;-;-;-;-;-;-;-;-;-
1512459802115;-;-;9.692215;-0.54927063;2.5540924;-;-;-;-;-;-;-;-;-;-;-;-;-;-;-
1512459802136;-;-;10.0381775;0.019348145;2.3529816;-;-;-;-;-;-;-;-;-;-;-;-;-;-;-
1512459802156;-;-;9.529419;0.29109192;2.0632935;-;-;-;-;-;-;-;-;-;-;-;-;-;-;-
1512459802176;-;-;8.556168;0.095962524;2.1434937;-;-;-;-;-;-;-;-;-;-;-;-;-;-;-
1512459802197;-;-;7.930084;-0.1410675;2.9479523;-;-;-;-;-;-;-;-;-;-;-;-;-;-;-
1512459802217;-;-;7.9827576;-0.18536377;3.3118591;-;-;-;-;-;-;-;-;-;-;-;-;-;-;-
1512459802238;-;-;8.34668;-0.04888916;3.773941;-;-;-;-;-;-;-;-;-;-;-;-;-;-;-
1512459802258;-;-;8.529831;-0.20211792;3.2807465;-;-;-;-;-;-;-;-;-;-;-;-;-;-;-
1512459802278;-;-;8.797989;-0.38887024;2.8749237;-;-;-;-;-;-;-;-;-;-;-;-;-;-;-
1512459802299;-;-;9.122391;-0.32302856;2.864151;-;-;-;-;-;-;-;-;-;-;-;-;-;-;-
1512459802319;-;-;9.17746;-0.02734375;3.0772247;-;-;-;-;-;-;-;-;-;-;-;-;-;-;-
1512459802340;-;-;9.175064;0.3461609;2.99823;-;-;-;-;-;-;-;-;-;-;-;-;-;-;-
1512459802360;-;-;8.957199;0.556839;2.635498;-;-;-;-;-;-;-;-;-;-;-;-;-;-;-
1512459802380;-;-;8.866211;0.71006775;2.5900116;-;-;-;-;-;-;-;-;-;-;-;-;-;-;-
1512459802401;-;-;8.748901;0.74957275;2.666626;-;-;-;-;-;-;-;-;-;-;-;-;-;-;-
1512459802422;-;-;8.472366;0.7447815;2.8473816;-;-;-;-;-;-;-;-;-;-;-;-;-;-;-
1512459802442;-;-;8.213791;0.79745483;2.9706879;-;-;-;-;-;-;-;-;-;-;-;-;-;-;-
1512459802463;-;-;8.119232;0.73161316;3.1598358;-;-;-;-;-;-;-;-;-;-;-;-;-;-;-
1512459802484;-;-;8.3107605;0.58917236;3.2544098;-;-;-;-;-;-;-;-;-;-;-;-;-;-;-
1512459802504;-;-;8.661514;0.24081421;3.152649;-;-;-;-;-;-;-;-;-;-;-;-;-;-;-
1512459802524;-;-;8.801575;0.026535034;3.192154;-;-;-;-;-;-;-;-;-;-;-;-;-;-;-
1512459802545;-;-;8.865021;-0.03930664;3.105957;-;-;-;-;-;-;-;-;-;-;-;-;-;-;-
1512459802565;-;-;8.929672;-0.014175415;3.1167297;-;-;-;-;-;-;-;-;-;-;-;-;-;-;-
1512459802586;-;-;8.793198;-0.04888916;3.200531;-;-;-;-;-;-;-;-;-;-;-;-;-;-;-
1512459802607;-;-;8.558563;0.031311035;3.2053223;-;-;-;-;-;-;-;-;-;-;-;-;-;-;-
1512459802627;-;-;8.473572;0.1845398;3.3202362;-;-;-;-;-;-;-;-;-;-;-;-;-;-;-
1512459802647;-;-;8.46759;0.25517273;3.4818573;-;-;-;-;-;-;-;-;-;-;-;-;-;-;-
1512459802668;-;-;8.548981;0.19770813;3.5105896;-;-;-;-;-;-;-;-;-;-;-;-;-;-;-
1512459802689;-;-;8.702209;0.13546753;3.5261383;-;-;-;-;-;-;-;-;-;-;-;-;-;-;-
1512459802709;-;-;8.843475;0.08998108;3.3693237;-;-;-;-;-;-;-;-;-;-;-;-;-;-;-
1512459802730;-;-;8.892548;0.05166626;3.247223;-;-;-;-;-;-;-;-;-;-;-;-;-;-;-
1512459802750;-;-;8.695038;0.19770813;3.33461;-;-;-;-;-;-;-;-;-;-;-;-;-;-;-
1512459802770;-;-;8.534622;0.32460022;3.4698792;-;-;-;-;-;-;-;-;-;-;-;-;-;-;-
1512459802791;-;-;8.458008;0.27792358;3.508194;-;-;-;-;-;-;-;-;-;-;-;-;-;-;-
1512459802810;-;-;8.554977;0.24081421;3.4986115;-;-;-;-;-;-;-;-;-;-;-;-;-;-;-
1512459802830;-;-;8.757278;0.08998108;3.3561554;-;-;-;-;-;-;-;-;-;-;-;-;-;-;-
1512459802851;-;-;8.806366;0.02772522;3.4184113;-;-;-;-;-;-;-;-;-;-;-;-;-;-;-
1512459802871;-;-;8.845871;-0.054870605;3.3848877;-;-;-;-;-;-;-;-;-;-;-;-;-;-;-
1512459802891;-;-;8.772842;-0.08958435;3.2448273;-;-;-;-;-;-;-;-;-;-;-;-;-;-;-
1512459802912;-;-;8.64476;-0.07522583;3.358551;-;-;-;-;-;-;-;-;-;-;-;-;-;-;-
1512459802932;-;-;8.568146;-0.09677124;3.4638977;-;-;-;-;-;-;-;-;-;-;-;-;-;-;-
1512459802953;-;-;8.539413;-0.13986206;3.508194;-;-;-;-;-;-;-;-;-;-;-;-;-;-;-
1512459802974;-;-;8.428085;-0.15542603;3.5548706;-;-;-;-;-;-;-;-;-;-;-;-;-;-;-
1512459802994;-;-;8.431671;-0.11831665;3.5692444;-;-;-;-;-;-;-;-;-;-;-;-;-;-;-
1512459803015;-;-;8.503494;-0.09197998;3.6039581;-;-;-;-;-;-;-;-;-;-;-;-;-;-;-
1512459803035;-;-;8.693832;-0.15542603;3.568039;-;-;-;-;-;-;-;-;-;-;-;-;-;-;-
1512459803056;-;-;8.722565;-0.20092773;3.5848083;-;-;-;-;-;-;-;-;-;-;-;-;-;-;-
1512459803076;-;-;8.648346;-0.14346313;3.4638977;-;-;-;-;-;-;-;-;-;-;-;-;-;-;-
1512459803097;-;-;8.531036;-0.13148499;3.523758;-;-;-;-;-;-;-;-;-;-;-;-;-;-;-
1512459803117;-;-;8.38858;-0.09677124;3.5105896;-;-;-;-;-;-;-;-;-;-;-;-;-;-;-
1512459803138;-;-;8.355057;-0.13986206;3.6207123;-;-;-;-;-;-;-;-;-;-;-;-;-;-;-
1512459803158;-;-;8.459198;-0.13508606;3.7631683;-;-;-;-;-;-;-;-;-;-;-;-;-;-;-
1512459803179;-;-;8.531036;-0.093185425;3.777542;-;-;-;-;-;-;-;-;-;-;-;-;-;-;-
1512459803198;-;-;8.568146;-0.05847168;3.7392273;-;-;-;-;-;-;-;-;-;-;-;-;-;-;-
1512459803218;-;-;8.562149;-0.17219543;3.7284546;-;-;-;-;-;-;-;-;-;-;-;-;-;-;-
1512459803239;-;-;8.495117;-0.17578125;3.7464142;-;-;-;-;-;-;-;-;-;-;-;-;-;-;-
1512459803260;-;-;8.4687805;-0.18296814;3.7440186;-;-;-;-;-;-;-;-;-;-;-;-;-;-;-
1512459803280;-;-;8.447235;-0.19613647;3.82901;-;-;-;-;-;-;-;-;-;-;-;-;-;-;-
1512459803301;-;-;8.394562;-0.1769867;3.923584;-;-;-;-;-;-;-;-;-;-;-;-;-;-;-
1512459803321;-;-;8.383789;-0.13508606;4.019348;-;-;-;-;-;-;-;-;-;-;-;-;-;-;-
1512459803342;-;-;8.400543;-0.16381836;4.003784;-;-;-;-;-;-;-;-;-;-;-;-;-;-;-
1512459803362;-;-;8.5047;-0.17459106;3.963089;-;-;-;-;-;-;-;-;-;-;-;-;-;-;-
1512459803383;-;-;8.516663;-0.19374084;3.9858246;-;-;-;-;-;-;-;-;-;-;-;-;-;-;-
1512459803404;-;-;8.442444;-0.1925354;4.0792084;-;-;-;-;-;-;-;-;-;-;-;-;-;-;-
1512459803424;-;-;8.479553;-0.15065002;3.9930115;-;-;-;-;-;-;-;-;-;-;-;-;-;-;-
1512459803444;-;-;8.383789;-0.12310791;3.955902;-;-;-;-;-;-;-;-;-;-;-;-;-;-;-
1512459803465;-;-;8.367035;-0.06086731;3.9726563;-;-;-;-;-;-;-;-;-;-;-;-;-;-;-
1512459803485;-;-;8.349075;0.046875;3.9834442;-;-;-;-;-;-;-;-;-;-;-;-;-;-;-
1512459803506;-;-;8.40773;0.07321167;4.0756073;-;-;-;-;-;-;-;-;-;-;-;-;-;-;-
1512459803526;-;-;8.30957;-0.016571045;4.026535;-;-;-;-;-;-;-;-;-;-;-;-;-;-;-
1512459803547;-;-;8.351471;-0.04170227;3.9403381;-;-;-;-;-;-;-;-;-;-;-;-;-;-;-
1512459803567;-;-;8.42569;-0.071640015;3.9259796;-;-;-;-;-;-;-;-;-;-;-;-;-;-;-
1512459803588;-;-;8.432861;-0.064453125;3.8888702;-;-;-;-;-;-;-;-;-;-;-;-;-;-;-
1512459803609;-;-;8.371811;-0.03691101;3.9463348;-;-;-;-;-;-;-;-;-;-;-;-;-;-;-
1512459803628;-;-;8.395752;-0.018966675;3.9966125;-;-;-;-;-;-;-;-;-;-;-;-;-;-;-
1512459803649;-;-;8.4292755;-0.00819397;3.98703;-;-;-;-;-;-;-;-;-;-;-;-;-;-;-
1512459803669;-;-;8.46759;-0.052474976;3.876892;-;-;-;-;-;-;-;-;-;-;-;-;-;-;-
1512459803690;-;-;8.441254;-0.0440979;3.8038788;-;-;-;-;-;-;-;-;-;-;-;-;-;-;-
1512459803710;-;-;8.422089;-0.052474976;3.7523956;-;-;-;-;-;-;-;-;-;-;-;-;-;-;-
1512459803731;-;-;8.399353;-0.00340271;3.82901;-;-;-;-;-;-;-;-;-;-;-;-;-;-;-
1512459803751;-;-;8.399353;-0.02973938;3.8565521;-;-;-;-;-;-;-;-;-;-;-;-;-;-;-
1512459803772;-;-;8.44603;-0.018966675;3.852951;-;-;-;-;-;-;-;-;-;-;-;-;-;-;-
1512459803793;-;-;8.463989;-0.06564331;3.837387;-;-;-;-;-;-;-;-;-;-;-;-;-;-;-
1512459803813;-;-;8.503494;-0.09916687;3.837387;-;-;-;-;-;-;-;-;-;-;-;-;-;-;-
1512459803833;-;-;8.471176;-0.10874939;3.8541565;-;-;-;-;-;-;-;-;-;-;-;-;-;-;-
1512459803854;-;-;8.458008;-0.11831665;3.8589325;-;-;-;-;-;-;-;-;-;-;-;-;-;-;-
1512459803875;-;-;8.384979;-0.09916687;3.8900604;-;-;-;-;-;-;-;-;-;-;-;-;-;-;-
1512459803895;-;-;8.447235;-0.021362305;3.915207;-;-;-;-;-;-;-;-;-;-;-;-;-;-;-
1512459803915;-;-;8.460403;-0.040512085;3.7727509;-;-;-;-;-;-;-;-;-;-;-;-;-;-;-
1512459803935;-;-;8.4448395;-0.023742676;3.7128906;-;-;-;-;-;-;-;-;-;-;-;-;-;-;-
1512459803956;-;-;8.481949;-0.0010070801;3.6326904;-;-;-;-;-;-;-;-;-;-;-;-;-;-;-
1512459803976;-;-;8.562149;0.026535034;3.4567108;-;-;-;-;-;-;-;-;-;-;-;-;-;-;-
1512459803997;-;-;8.56575;0.052871704;3.4866333;-;-;-;-;-;-;-;-;-;-;-;-;-;-;-
1512459804018;-;-;8.568146;0.03730774;3.6458588;-;-;-;-;-;-;-;-;-;-;-;-;-;-;-
1512459804038;-;-;8.553772;0.076812744;3.7631683;-;-;-;-;-;-;-;-;-;-;-;-;-;-;-
1512459804059;-;-;8.539413;0.12588501;3.8086548;-;-;-;-;-;-;-;-;-;-;-;-;-;-;-
1512459804079;-;-;8.483139;0.16419983;3.777542;-;-;-;-;-;-;-;-;-;-;-;-;-;-;-
1512459804098;-;-;8.471176;0.10913086;3.8074646;-;-;-;-;-;-;-;-;-;-;-;-;-;-;-
1512459804119;-;-;8.458008;0.079193115;3.813446;-;-;-;-;-;-;-;-;-;-;-;-;-;-;-
1512459804139;-;-;8.418503;-0.011779785;3.8637238;-;-;-;-;-;-;-;-;-;-;-;-;-;-;-
1512459804160;-;-;8.454422;-0.066848755;3.884079;-;-;-;-;-;-;-;-;-;-;-;-;-;-;-
1512459804179;-;-;8.452026;-0.15782166;3.8780975;-;-;-;-;-;-;-;-;-;-;-;-;-;-;-
1512459804201;-;-;8.50589;-0.1530304;3.923584;-;-;-;-;-;-;-;-;-;-;-;-;-;-;-
1512459804221;-;-;8.502304;-0.10395813;3.9032288;-;-;-;-;-;-;-;-;-;-;-;-;-;-;-
1512459804242;-;-;8.430481;-0.00819397;3.9056244;-;-;-;-;-;-;-;-;-;-;-;-;-;-;-
1512459804262;-;-;8.371811;-0.069244385;3.931961;-;-;-;-;-;-;-;-;-;-;-;-;-;-;-
1512459804283;-;-;8.359848;-0.074035645;3.954712;-;-;-;-;-;-;-;-;-;-;-;-;-;-;-
1512459804303;-;-;8.297592;-0.078811646;3.9451294;-;-;-;-;-;-;-;-;-;-;-;-;-;-;-
1512459804324;-;-;8.299988;-0.09677124;3.8936615;-;-;-;-;-;-;-;-;-;-;-;-;-;-;-
1512459804344;-;-;8.32872;-0.1015625;3.7835236;-;-;-;-;-;-;-;-;-;-;-;-;-;-;-
1512459804364;-;-;8.435257;-0.100372314;3.6721954;-;-;-;-;-;-;-;-;-;-;-;-;-;-;-
1512459804384;-;-;8.434067;0.031311035;3.7835236;-;-;-;-;-;-;-;-;-;-;-;-;-;-;-
1512459804405;-;-;8.473572;0.15701294;3.9032288;-;-;-;-;-;-;-;-;-;-;-;-;-;-;-
1512459804426;-;-;8.394562;0.117507935;4.0049896;-;-;-;-;-;-;-;-;-;-;-;-;-;-;-
1512459804446;-;-;8.404144;-0.02494812;3.9966125;-;-;-;-;-;-;-;-;-;-;-;-;-;-;-
1512459804467;-;-;8.362244;-0.14465332;3.9930115;-;-;-;-;-;-;-;-;-;-;-;-;-;-;-
1512459804487;-;-;8.382584;-0.15423584;3.994217;-;-;-;-;-;-;-;-;-;-;-;-;-;-;-
1512459804507;-;-;8.493927;-0.12669373;3.8864746;-;-;-;-;-;-;-;-;-;-;-;-;-;-;-
1512459804528;-;-;8.437653;-0.088394165;3.7871094;-;-;-;-;-;-;-;-;-;-;-;-;-;-;-
1512459804549;-;-;8.386185;-0.054870605;3.8744965;-;-;-;-;-;-;-;-;-;-;-;-;-;-;-
1512459804569;-;-;8.383789;0.05166626;3.8074646;-;-;-;-;-;-;-;-;-;-;-;-;-;-;-
1512459804590;-;-;8.390976;0.093566895;3.8385925;-;-;-;-;-;-;-;-;-;-;-;-;-;-;-
1512459804609;-;-;8.431671;0.1330719;3.8709106;-;-;-;-;-;-;-;-;-;-;-;-;-;-;-
1512459804630;-;-;8.461594;0.122299194;3.7679596;-;-;-;-;-;-;-;-;-;-;-;-;-;-;-
1512459804649;-;-;8.516663;0.1330719;3.655426;-;-;-;-;-;-;-;-;-;-;-;-;-;-;-
1512459804670;-;-;8.496307;0.14144897;3.4866333;-;-;-;-;-;-;-;-;-;-;-;-;-;-;-
1512459804689;-;-;8.438858;0.06124878;3.41362;-;-;-;-;-;-;-;-;-;-;-;-;-;-;-
1512459804710;-;-;8.479553;-0.050079346;3.2735596;-;-;-;-;-;-;-;-;-;-;-;-;-;-;-
1512459804730;-;-;8.545395;-0.2033081;3.2173004;-;-;-;-;-;-;-;-;-;-;-;-;-;-;-
1512459804751;-;-;8.574127;-0.26437378;3.169403;-;-;-;-;-;-;-;-;-;-;-;-;-;-;-
1512459804770;-;-;8.691437;-0.289505;3.2065125;-;-;-;-;-;-;-;-;-;-;-;-;-;-;-
1512459804791;-;-;8.786011;-0.26556396;3.2364502;-;-;-;-;-;-;-;-;-;-;-;-;-;-;-
1512459804811;-;-;8.770447;-0.088394165;3.2029266;-;-;-;-;-;-;-;-;-;-;-;-;-;-;-
1512459804831;-;-;8.708206;0.13786316;2.994629;-;-;-;-;-;-;-;-;-;-;-;-;-;-;-
1512459804852;-;-;8.654327;0.1330719;2.7899323;-;-;-;-;-;-;-;-;-;-;-;-;-;-;-
1512459804872;-;-;8.661514;0.12109375;2.9096375;-;-;-;-;-;-;-;-;-;-;-;-;-;-;-
1512459804892;-;-;8.690247;0.083984375;3.0317383;-;-;-;-;-;-;-;-;-;-;-;-;-;-;-
1512459804913;-;-;8.754883;0.1438446;3.0233612;-;-;-;-;-;-;-;-;-;-;-;-;-;-;-
1512459804934;-;-;8.951218;-0.085998535;2.8665466;-;-;-;-;-;-;-;-;-;-;-;-;-;-;-
1512459804953;-;-;9.035004;-0.38168335;2.651062;-;-;-;-;-;-;-;-;-;-;-;-;-;-;-
1512459804974;-;-;9.114014;-0.41879272;2.7599945;-;-;-;-;-;-;-;-;-;-;-;-;-;-;-
1512459804994;-;-;9.017059;-0.30506897;2.7444305;-;-;-;-;-;-;-;-;-;-;-;-;-;-;-
1512459805015;-;-;8.888962;-0.19013977;2.6893768;-;-;-;-;-;-;-;-;-;-;-;-;-;-;-
1512459805034;-;-;8.697433;-0.083602905;2.4978333;-;-;-;-;-;-;-;-;-;-;-;-;-;-;-
1512459805054;-;-;8.778824;0.012161255;2.2799683;-;-;-;-;-;-;-;-;-;-;-;-;-;-;-
1512459805075;-;-;8.790802;0.07321167;2.0872345;-;-;-;-;-;-;-;-;-;-;-;-;-;-;-
1512459805096;-;-;8.9787445;0.091171265;2.180603;-;-;-;-;-;-;-;-;-;-;-;-;-;-;-
1512459805116;-;-;9.123596;-0.023742676;2.28714;-;-;-;-;-;-;-;-;-;-;-;-;-;-;-
1512459805137;-;-;9.193024;-0.2859192;2.1159668;-;-;-;-;-;-;-;-;-;-;-;-;-;-;-
1512459805157;-;-;9.240906;-0.5169525;2.18779;-;-;-;-;-;-;-;-;-;-;-;-;-;-;-
1512459805178;-;-;9.070923;-0.4882202;2.1063843;-;-;-;-;-;-;-;-;-;-;-;-;-;-;-
1512459805199;-;-;8.955994;-0.38287354;2.046524;-;-;-;-;-;-;-;-;-;-;-;-;-;-;-
1512459805219;-;-;9.043396;-0.2775421;1.8729553;-;-;-;-;-;-;-;-;-;-;-;-;-;-;-
1512459805239;-;-;9.020645;-0.3194275;1.7436676;-;-;-;-;-;-;-;-;-;-;-;-;-;-;-
1512459805260;-;-;9.0182495;-0.41999817;1.6526794;-;-;-;-;-;-;-;-;-;-;-;-;-;-;-
1512459805280;-;-;9.155914;-0.31105042;1.5078278;-;-;-;-;-;-;-;-;-;-;-;-;-;-;-
1512459805300;-;-;9.246902;-0.19134521;1.3689728;-;-;-;-;-;-;-;-;-;-;-;-;-;-;-
1512459805321;-;-;9.242111;-0.12789917;1.5868378;-;-;-;-;-;-;-;-;-;-;-;-;-;-;-
1512459805342;-;-;8.975159;-0.21289063;1.7268982;-;-;-;-;-;-;-;-;-;-;-;-;-;-;-
1512459805361;-;-;8.929672;-0.3984375;1.7951355;-;-;-;-;-;-;-;-;-;-;-;-;-;-;-
1512459805382;-;-;9.12001;-0.80784607;1.7221069;-;-;-;-;-;-;-;-;-;-;-;-;-;-;-
1512459805401;-;-;9.324707;-1.0951538;1.5389557;-;-;-;-;-;-;-;-;-;-;-;-;-;-;-
1512459805422;-;-;9.355835;-1.1214905;1.334259;-;-;-;-;-;-;-;-;-;-;-;-;-;-;-
1512459805442;-;-;9.355835;-0.98501587;1.212143;-;-;-;-;-;-;-;-;-;-;-;-;-;-;-
1512459805463;-;-;9.307953;-0.8162384;1.3294678;-;-;-;-;-;-;-;-;-;-;-;-;-;-;-
1512459805484;-;-;9.111618;-0.77552795;1.3522034;-;-;-;-;-;-;-;-;-;-;-;-;-;-;-
1512459805504;-;-;8.973953;-0.88327026;1.4527588;-;-;-;-;-;-;-;-;-;-;-;-;-;-;-
1512459805524;-;-;9.058945;-0.98861694;1.4587555;-;-;-;-;-;-;-;-;-;-;-;-;-;-;-
1512459805544;-;-;9.15831;-1.0831909;1.310318;-;-;-;-;-;-;-;-;-;-;-;-;-;-;-
1512459805565;-;-;9.185837;-1.1645813;1.1738434;-;-;-;-;-;-;-;-;-;-;-;-;-;-;-
1512459805585;-;-;9.295975;-1.1262817;0.899704;-;-;-;-;-;-;-;-;-;-;-;-;-;-;-
1512459805605;-;-;9.403717;-1.2076874;0.67225647;-;-;-;-;-;-;-;-;-;-;-;-;-;-;-
1512459805626;-;-;9.385757;-1.3501434;0.6674652;-;-;-;-;-;-;-;-;-;-;-;-;-;-;-
1512459805646;-;-;9.228943;-1.5057678;0.78956604;-;-;-;-;-;-;-;-;-;-;-;-;-;-;-
1512459805667;-;-;9.091278;-1.7080688;0.80992126;-;-;-;-;-;-;-;-;-;-;-;-;-;-;-
1512459805687;-;-;8.98114;-1.8996124;0.63275146;-;-;-;-;-;-;-;-;-;-;-;-;-;-;-
1512459805708;-;-;8.959595;-1.7344055;0.45558167;-;-;-;-;-;-;-;-;-;-;-;-;-;-;-
1512459805728;-;-;9.085281;-1.2435913;0.45318604;-;-;-;-;-;-;-;-;-;-;-;-;-;-;-
1512459805749;-;-;9.355835;-0.636673;0.38734436;-;-;-;-;-;-;-;-;-;-;-;-;-;-;-
1512459805770;-;-;9.538986;-0.30387878;0.38615417;-;-;-;-;-;-;-;-;-;-;-;-;-;-;-
1512459805790;-;-;9.500687;-0.37449646;0.40530396;-;-;-;-;-;-;-;-;-;-;-;-;-;-;-
1512459805810;-;-;9.215775;-0.8605194;0.34664917;-;-;-;-;-;-;-;-;-;-;-;-;-;-;-
1512459805831;-;-;8.9991;-1.2400055;0.5453644;-;-;-;-;-;-;-;-;-;-;-;-;-;-;-
1512459805851;-;-;8.997894;-1.6901093;0.5776825;-;-;-;-;-;-;-;-;-;-;-;-;-;-;-
1512459805872;-;-;9.130783;-1.9450989;0.36819458;-;-;-;-;-;-;-;-;-;-;-;-;-;-;-
1512459805892;-;-;9.2708435;-1.9427032;0.06892395;-;-;-;-;-;-;-;-;-;-;-;-;-;-;-
1512459805913;-;-;9.358231;-1.609909;0.23532104;-;-;-;-;-;-;-;-;-;-;-;-;-;-;-
1512459805933;-;-;9.364212;-1.5991364;0.5860596;-;-;-;-;-;-;-;-;-;-;-;-;-;-;-
1512459805953;-;-;9.137955;-1.7296143;0.6602783;-;-;-;-;-;-;-;-;-;-;-;-;-;-;-
1512459805973;-;-;8.948822;-1.9450989;0.5657196;-;-;-;-;-;-;-;-;-;-;-;-;-;-;-
1512459805994;-;-;9.080505;-1.9355164;0.46516418;-;-;-;-;-;-;-;-;-;-;-;-;-;-;-
1512459806014;-;-;9.333084;-1.6529999;0.53338623;-;-;-;-;-;-;-;-;-;-;-;-;-;-;-
1512459806035;-;-;9.366608;-1.4387207;0.59085083;-;-;-;-;-;-;-;-;-;-;-;-;-;-;-
1512459806056;-;-;8.98114;-1.2819061;0.176651;-;-;-;-;-;-;-;-;-;-;-;-;-;-;-
1512459806076;-;-;9.190628;-1.1789551;0.16708374;-;-;-;-;-;-;-;-;-;-;-;-;-;-;-
1512459806097;-;-;9.23732;-0.80067444;-0.047195435;-;-;-;-;-;-;-;-;-;-;-;-;-;-;-
1512459806116;-;-;9.3701935;-0.46427917;0.23770142;-;-;-;-;-;-;-;-;-;-;-;-;-;-;-
1512459806137;-;-;9.416885;-0.46788025;0.34425354;-;-;-;-;-;-;-;-;-;-;-;-;-;-;-
1512459806157;-;-;9.250488;-0.4163971;0.14074707;-;-;-;-;-;-;-;-;-;-;-;-;-;-;-
1512459806178;-;-;9.205002;-0.06564331;0.17306519;-;-;-;-;-;-;-;-;-;-;-;-;-;-;-
1512459806198;-;-;9.576096;0.08039856;0.19700623;-;-;-;-;-;-;-;-;-;-;-;-;-;-;-
1512459806219;-;-;9.655106;-0.16381836;0.06173706;-;-;-;-;-;-;-;-;-;-;-;-;-;-;-
1512459806239;-;-;9.244507;-0.77194214;-0.47576904;-;-;-;-;-;-;-;-;-;-;-;-;-;-;-
1512459806259;-;-;8.635178;-1.9510803;0.041381836;-;-;-;-;-;-;-;-;-;-;-;-;-;-;-
1512459806279;-;-;8.770447;-2.1701508;-0.09628296;-;-;-;-;-;-;-;-;-;-;-;-;-;-;-
1512459806300;-;-;9.258865;-1.9846039;0.23770142;-;-;-;-;-;-;-;-;-;-;-;-;-;-;-
1512459806320;-;-;9.706589;-1.5189362;-0.17289734;-;-;-;-;-;-;-;-;-;-;-;-;-;-;-
1512459806341;-;-;9.687424;-1.3297882;-0.05319214;-;-;-;-;-;-;-;-;-;-;-;-;-;-;-
1512459806362;-;-;8.355057;-1.743988;0.24249268;-;-;-;-;-;-;-;-;-;-;-;-;-;-;-
1512459806381;-;-;8.288025;-1.9008026;0.642334;-;-;-;-;-;-;-;-;-;-;-;-;-;-;-
1512459806401;-;-;8.969162;-1.7774963;0.6542969;-;-;-;-;-;-;-;-;-;-;-;-;-;-;-
1512459806422;-;-;9.51265;-1.5129395;0.13356018;-;-;-;-;-;-;-;-;-;-;-;-;-;-;-
1512459806442;-;-;9.74968;-0.90242004;0.027023315;-;-;-;-;-;-;-;-;-;-;-;-;-;-;-
1512459806463;-;-;9.725739;-0.5169525;0.65190125;-;-;-;-;-;-;-;-;-;-;-;-;-;-;-
1512459806484;-;-;9.735321;-0.77433777;0.50227356;-;-;-;-;-;-;-;-;-;-;-;-;-;-;-
1512459806503;-;-;9.2756195;-1.1789551;0.24369812;-;-;-;-;-;-;-;-;-;-;-;-;-;-;-
1512459806524;-;-;10.072891;-2.0145264;1.6754303;-;-;-;-;-;-;-;-;-;-;-;-;-;-;-
1512459806544;-;-;8.48674;-3.2092285;0.4759369;-;-;-;-;-;-;-;-;-;-;-;-;-;-;-
1512459806564;-;-;8.540604;-3.4845734;-0.4051361;-;-;-;-;-;-;-;-;-;-;-;-;-;-;-
1512459806585;-;-;9.445618;-2.4706268;0.108428955;-;-;-;-;-;-;-;-;-;-;-;-;-;-;-
1512459806605;-;-;9.589264;-1.7571564;-0.1381836;-;-;-;-;-;-;-;-;-;-;-;-;-;-;-
1512459806626;-;-;9.45639;-0.9981842;0.14672852;-;-;-;-;-;-;-;-;-;-;-;-;-;-;-
1512459806648;-;-;8.845871;-0.8641205;1.2301025;-;-;-;-;-;-;-;-;-;-;-;-;-;-;-
1512459806666;-;-;8.420898;-1.6039276;1.1307526;-;-;-;-;-;-;-;-;-;-;-;-;-;-;-
1512459806686;-;-;9.228943;-1.9558716;0.9751282;-;-;-;-;-;-;-;-;-;-;-;-;-;-;-
1512459806707;-;-;9.725739;-1.6841278;0.30714417;-;-;-;-;-;-;-;-;-;-;-;-;-;-;-
1512459806726;-;-;9.847839;-1.131073;0.12997437;-;-;-;-;-;-;-;-;-;-;-;-;-;-;-
1512459806746;-;-;9.747284;-0.78630066;0.21975708;-;-;-;-;-;-;-;-;-;-;-;-;-;-;-
1512459806767;-;-;9.431244;-1.1047363;0.49150085;-;-;-;-;-;-;-;-;-;-;-;-;-;-;-
1512459806787;-;-;8.758484;-1.8636932;0.7644348;-;-;-;-;-;-;-;-;-;-;-;-;-;-;-
1512459806808;-;-;8.338303;-2.4742126;1.1068115;-;-;-;-;-;-;-;-;-;-;-;-;-;-;-
1512459806828;-;-;8.64595;-2.554428;1.0493469;-;-;-;-;-;-;-;-;-;-;-;-;-;-;-
1512459806849;-;-;9.167892;-2.4155579;0.98350525;-;-;-;-;-;-;-;-;-;-;-;-;-;-;-
1512459806868;-;-;9.762848;-1.9055939;0.09286499;-;-;-;-;-;-;-;-;-;-;-;-;-;-;-
1512459806889;-;-;9.826294;-1.7571564;0.017440796;-;-;-;-;-;-;-;-;-;-;-;-;-;-;-
1512459806909;-;-;9.470749;-1.5763855;0.13476563;-;-;-;-;-;-;-;-;-;-;-;-;-;-;-
1512459806929;-;-;9.020645;-1.3896484;0.32748413;-;-;-;-;-;-;-;-;-;-;-;-;-;-;-
1512459806950;-;-;8.637573;-1.6446228;0.77760315;-;-;-;-;-;-;-;-;-;-;-;-;-;-;-
1512459806970;-;-;8.625595;-1.506958;1.2540436;-;-;-;-;-;-;-;-;-;-;-;-;-;-;-
1512459806991;-;-;9.194229;-1.5368805;1.7364807;-;-;-;-;-;-;-;-;-;-;-;-;-;-;-
1512459807011;-;-;9.304352;-1.902008;1.1032104;-;-;-;-;-;-;-;-;-;-;-;-;-;-;-
1512459807032;-;-;9.571304;-2.04924;0.7692261;-;-;-;-;-;-;-;-;-;-;-;-;-;-;-
1512459807052;-;-;9.612015;-1.7571564;0.80513;-;-;-;-;-;-;-;-;-;-;-;-;-;-;-
1512459807072;-;-;9.222961;-1.249588;0.8889313;-;-;-;-;-;-;-;-;-;-;-;-;-;-;-
1512459807093;-;-;9.012268;-0.8018646;1.0098419;-;-;-;-;-;-;-;-;-;-;-;-;-;-;-
1512459807113;-;-;8.953613;-0.6989136;1.2456665;-;-;-;-;-;-;-;-;-;-;-;-;-;-;-
1512459807134;-;-;8.946426;-0.84495544;1.6287384;-;-;-;-;-;-;-;-;-;-;-;-;-;-;-
1512459807154;-;-;9.09845;-1.3046417;1.7209167;-;-;-;-;-;-;-;-;-;-;-;-;-;-;-
1512459807174;-;-;9.215775;-1.6745453;1.6119843;-;-;-;-;-;-;-;-;-;-;-;-;-;-;-
1512459807195;-;-;9.267242;-1.5991364;1.2983398;-;-;-;-;-;-;-;-;-;-;-;-;-;-;-
1512459807215;-;-;9.31633;-1.2843018;0.96195984;-;-;-;-;-;-;-;-;-;-;-;-;-;-;-
1512459807236;-;-;9.3546295;-0.88446045;0.61958313;-;-;-;-;-;-;-;-;-;-;-;-;-;-;-
1512459807256;-;-;9.116409;-0.58758545;0.6531067;-;-;-;-;-;-;-;-;-;-;-;-;-;-;-
1512459807277;-;-;8.966782;-0.5780029;0.87934875;-;-;-;-;-;-;-;-;-;-;-;-;-;-;-
1512459807297;-;-;9.172684;-0.58039856;1.1726379;-;-;-;-;-;-;-;-;-;-;-;-;-;-;-
1512459807318;-;-;9.391739;-0.5792084;1.3174896;-;-;-;-;-;-;-;-;-;-;-;-;-;-;-
1512459807338;-;-;9.482727;-0.6426544;1.231308;-;-;-;-;-;-;-;-;-;-;-;-;-;-;-
1512459807359;-;-;9.402527;-0.739624;0.939209;-;-;-;-;-;-;-;-;-;-;-;-;-;-;-
1512459807379;-;-;9.286407;-0.7563782;0.7321167;-;-;-;-;-;-;-;-;-;-;-;-;-;-;-
1512459807400;-;-;9.133179;-0.53970337;0.95835876;-;-;-;-;-;-;-;-;-;-;-;-;-;-;-
1512459807420;-;-;9.0793;-0.13986206;1.081665;-;-;-;-;-;-;-;-;-;-;-;-;-;-;-
1512459807441;-;-;9.149933;0.12109375;1.1020203;-;-;-;-;-;-;-;-;-;-;-;-;-;-;-
1512459807461;-;-;9.15831;0.29109192;1.0888519;-;-;-;-;-;-;-;-;-;-;-;-;-;-;-
1512459807482;-;-;9.17746;0.5089569;1.0780792;-;-;-;-;-;-;-;-;-;-;-;-;-;-;-
1512459807503;-;-;9.254074;0.9303436;1.207367;-;-;-;-;-;-;-;-;-;-;-;-;-;-;-
1512459807522;-;-;9.179855;1.3660889;1.4898834;-;-;-;-;-;-;-;-;-;-;-;-;-;-;-
1512459807542;-;-;8.940445;1.516922;1.5641022;-;-;-;-;-;-;-;-;-;-;-;-;-;-;-
1512459807563;-;-;8.710602;1.453476;1.6562805;-;-;-;-;-;-;-;-;-;-;-;-;-;-;-
1512459807583;-;-;8.675873;1.2894745;1.7173309;-;-;-;-;-;-;-;-;-;-;-;-;-;-;-
1512459807603;-;-;8.783615;1.161377;1.7556305;-;-;-;-;-;-;-;-;-;-;-;-;-;-;-
1512459807624;-;-;8.950012;1.0656128;1.9747009;-;-;-;-;-;-;-;-;-;-;-;-;-;-;-
1512459807644;-;-;8.90094;0.94470215;2.0561066;-;-;-;-;-;-;-;-;-;-;-;-;-;-;-
1512459807665;-;-;8.84227;0.7364044;2.070465;-;-;-;-;-;-;-;-;-;-;-;-;-;-;-
1512459807684;-;-;8.856644;0.5987396;2.1147614;-;-;-;-;-;-;-;-;-;-;-;-;-;-;-
1512459807705;-;-;8.983536;0.6035309;2.1195526;-;-;-;-;-;-;-;-;-;-;-;-;-;-;-
1512459807725;-;-;9.037399;0.7340088;2.2416534;-;-;-;-;-;-;-;-;-;-;-;-;-;-;-
1512459807746;-;-;9.030228;0.8597107;2.2105255;-;-;-;-;-;-;-;-;-;-;-;-;-;-;-
1512459807766;-;-;9.105637;0.89682007;2.1063843;-;-;-;-;-;-;-;-;-;-;-;-;-;-;-
1512459807787;-;-;8.9991;0.8190155;2.0094147;-;-;-;-;-;-;-;-;-;-;-;-;-;-;-
1512459807808;-;-;8.8602295;0.6214905;2.0872345;-;-;-;-;-;-;-;-;-;-;-;-;-;-;-
1512459807828;-;-;8.862625;0.56044006;2.0393524;-;-;-;-;-;-;-;-;-;-;-;-;-;-;-
1512459807849;-;-;8.912903;0.6178894;2.2392578;-;-;-;-;-;-;-;-;-;-;-;-;-;-;-
1512459807869;-;-;9.029022;0.80345154;2.3182678;-;-;-;-;-;-;-;-;-;-;-;-;-;-;-
1512459807890;-;-;8.977554;0.9566803;2.3984833;-;-;-;-;-;-;-;-;-;-;-;-;-;-;-
1512459807910;-;-;8.953613;0.8956299;2.271576;-;-;-;-;-;-;-;-;-;-;-;-;-;-;-
1512459807931;-;-;8.954803;0.62268066;2.1817932;-;-;-;-;-;-;-;-;-;-;-;-;-;-;-
1512459807952;-;-;8.893753;0.5855713;2.2811584;-;-;-;-;-;-;-;-;-;-;-;-;-;-;-
1512459807972;-;-;8.825516;0.7292328;2.3865051;-;-;-;-;-;-;-;-;-;-;-;-;-;-;-
1512459807992;-;-;8.68306;0.84654236;2.4750977;-;-;-;-;-;-;-;-;-;-;-;-;-;-;-
1512459808013;-;-;8.576523;0.86808777;2.5469208;-;-;-;-;-;-;-;-;-;-;-;-;-;-;-
1512459808034;-;-;8.661514;0.8345642;2.754013;-;-;-;-;-;-;-;-;-;-;-;-;-;-;-
1512459808053;-;-;8.74411;0.8345642;2.8378143;-;-;-;-;-;-;-;-;-;-;-;-;-;-;-
1512459808074;-;-;8.825516;0.6849365;2.871338;-;-;-;-;-;-;-;-;-;-;-;-;-;-;-
1512459808094;-;-;8.808762;0.49339294;2.8868866;-;-;-;-;-;-;-;-;-;-;-;-;-;-;-
1512459808115;-;-;8.772842;0.20370483;2.7815552;-;-;-;-;-;-;-;-;-;-;-;-;-;-;-
1512459808135;-;-;8.735733;0.076812744;2.8749237;-;-;-;-;-;-;-;-;-;-;-;-;-;-;-
1512459808156;-;-;8.668701;0.20249939;3.1478577;-;-;-;-;-;-;-;-;-;-;-;-;-;-;-
1512459808176;-;-;8.635178;0.31143188;3.2149048;-;-;-;-;-;-;-;-;-;-;-;-;-;-;-
1512459808197;-;-;8.606445;0.37727356;3.2268677;-;-;-;-;-;-;-;-;-;-;-;-;-;-;-
1512459808217;-;-;8.614822;0.38446045;3.1634216;-;-;-;-;-;-;-;-;-;-;-;-;-;-;-
1512459808237;-;-;8.649536;0.378479;3.1969452;-;-;-;-;-;-;-;-;-;-;-;-;-;-;-
1512459808258;-;-;8.687851;0.4299469;3.1825714;-;-;-;-;-;-;-;-;-;-;-;-;-;-;-
1512459808278;-;-;8.772842;0.36889648;3.1801758;-;-;-;-;-;-;-;-;-;-;-;-;-;-;-
1512459808299;-;-;8.946426;0.28749084;3.149063;-;-;-;-;-;-;-;-;-;-;-;-;-;-;-
1512459808320;-;-;8.929672;0.3461609;2.9575195;-;-;-;-;-;-;-;-;-;-;-;-;-;-;-
1512459808340;-;-;8.783615;0.36889648;2.93956;-;-;-;-;-;-;-;-;-;-;-;-;-;-;-
1512459808361;-;-;8.7417145;0.35453796;2.955124;-;-;-;-;-;-;-;-;-;-;-;-;-;-;-
1512459808381;-;-;8.710602;0.38804626;3.1035614;-;-;-;-;-;-;-;-;-;-;-;-;-;-;-
1512459808401;-;-;8.657928;0.35453796;3.2065125;-;-;-;-;-;-;-;-;-;-;-;-;-;-;-
1512459808422;-;-;8.599258;0.3605194;3.0796204;-;-;-;-;-;-;-;-;-;-;-;-;-;-;-
1512459808443;-;-;8.572922;0.45988464;2.9611206;-;-;-;-;-;-;-;-;-;-;-;-;-;-;-
1512459808463;-;-;8.605255;0.6502228;3.0880127;-;-;-;-;-;-;-;-;-;-;-;-;-;-;-
1512459808484;-;-;8.661514;0.8010559;3.3070679;-;-;-;-;-;-;-;-;-;-;-;-;-;-;-
1512459808504;-;-;8.610046;0.809433;3.3489685;-;-;-;-;-;-;-;-;-;-;-;-;-;-;-
1512459808524;-;-;8.4843445;0.58317566;3.3453827;-;-;-;-;-;-;-;-;-;-;-;-;-;-;-
1512459808545;-;-;8.343079;0.29826355;3.3956604;-;-;-;-;-;-;-;-;-;-;-;-;-;-;-
1512459808564;-;-;8.180283;0.12109375;3.6099396;-;-;-;-;-;-;-;-;-;-;-;-;-;-;-
1512459808585;-;-;8.229355;0.02293396;3.7248688;-;-;-;-;-;-;-;-;-;-;-;-;-;-;-
1512459808604;-;-;8.447235;0.03970337;3.8709106;-;-;-;-;-;-;-;-;-;-;-;-;-;-;-
1512459808625;-;-;8.601654;0.062438965;3.8505554;-;-;-;-;-;-;-;-;-;-;-;-;-;-;-
1512459808645;-;-;8.705811;-0.08001709;3.6243134;-;-;-;-;-;-;-;-;-;-;-;-;-;-;-
1512459808665;-;-;8.794388;-0.08001709;3.5979767;-;-;-;-;-;-;-;-;-;-;-;-;-;-;-
1512459808686;-;-;8.697433;0.18933105;3.544098;-;-;-;-;-;-;-;-;-;-;-;-;-;-;-
1512459808706;-;-;8.560959;0.41558838;3.4746704;-;-;-;-;-;-;-;-;-;-;-;-;-;-;-
1512459808727;-;-;8.498703;0.47184753;3.3992462;-;-;-;-;-;-;-;-;-;-;-;-;-;-;-
1512459808747;-;-;8.559753;0.42037964;3.2520142;-;-;-;-;-;-;-;-;-;-;-;-;-;-;-
1512459808768;-;-;8.660324;0.3605194;3.2496185;-;-;-;-;-;-;-;-;-;-;-;-;-;-;-
1512459808788;-;-;8.866211;0.2527771;3.2232819;-;-;-;-;-;-;-;-;-;-;-;-;-;-;-
1512459808808;-;-;9.048172;0.103149414;3.149063;-;-;-;-;-;-;-;-;-;-;-;-;-;-;-
1512459808829;-;-;8.945221;0.079193115;3.0413208;-;-;-;-;-;-;-;-;-;-;-;-;-;-;-
1512459808850;-;-;8.989517;0.11152649;2.9287872;-;-;-;-;-;-;-;-;-;-;-;-;-;-;-
1512459808869;-;-;9.069733;0.32341003;2.8354187;-;-;-;-;-;-;-;-;-;-;-;-;-;-;-
1512459808890;-;-;8.809952;0.41079712;2.8414001;-;-;-;-;-;-;-;-;-;-;-;-;-;-;-
1512459808910;-;-;8.424484;0.4467163;2.9611206;-;-;-;-;-;-;-;-;-;-;-;-;-;-;-
1512459808931;-;-;8.238937;0.46107483;3.1993408;-;-;-;-;-;-;-;-;-;-;-;-;-;-;-
1512459808951;-;-;8.340698;0.43952942;3.3370056;-;-;-;-;-;-;-;-;-;-;-;-;-;-;-
1512459808971;-;-;8.68306;0.44432068;3.2783508;-;-;-;-;-;-;-;-;-;-;-;-;-;-;-
1512459808990;-;-;9.014664;0.42277527;3.2232819;-;-;-;-;-;-;-;-;-;-;-;-;-;-;-
1512459809011;-;-;9.080505;0.32341003;3.1311035;-;-;-;-;-;-;-;-;-;-;-;-;-;-;-
1512459809031;-;-;8.918884;0.35572815;3.1275177;-;-;-;-;-;-;-;-;-;-;-;-;-;-;-
1512459809051;-;-;8.693832;0.34735107;3.2735596;-;-;-;-;-;-;-;-;-;-;-;-;-;-;-
1512459809072;-;-;8.519058;0.40600586;3.3908691;-;-;-;-;-;-;-;-;-;-;-;-;-;-;-
1512459809092;-;-;8.414917;0.4287567;3.4662933;-;-;-;-;-;-;-;-;-;-;-;-;-;-;-
1512459809113;-;-;8.496307;0.42277527;3.4399567;-;-;-;-;-;-;-;-;-;-;-;-;-;-;-
1512459809133;-;-;8.612427;0.40481567;3.342987;-;-;-;-;-;-;-;-;-;-;-;-;-;-;-
1512459809154;-;-;8.636368;0.3174286;3.4555206;-;-;-;-;-;-;-;-;-;-;-;-;-;-;-
1512459809174;-;-;8.627991;0.31861877;3.5536804;-;-;-;-;-;-;-;-;-;-;-;-;-;-;-
1512459809195;-;-;8.657928;0.34495544;3.5895844;-;-;-;-;-;-;-;-;-;-;-;-;-;-;-
1512459809215;-;-;8.598068;0.35932922;3.607544;-;-;-;-;-;-;-;-;-;-;-;-;-;-;-
1512459809236;-;-;8.546585;0.33776855;3.6733856;-;-;-;-;-;-;-;-;-;-;-;-;-;-;-
1512459809256;-;-;8.501099;0.299469;3.7308502;-;-;-;-;-;-;-;-;-;-;-;-;-;-;-
1512459809276;-;-;8.453217;0.31622314;3.6973267;-;-;-;-;-;-;-;-;-;-;-;-;-;-;-
1512459809297;-;-;8.412521;0.31622314;3.7452087;-;-;-;-;-;-;-;-;-;-;-;-;-;-;-
1512459809316;-;-;8.493927;0.3796692;3.7679596;-;-;-;-;-;-;-;-;-;-;-;-;-;-;-
1512459809336;-;-;8.554977;0.3222046;3.6805725;-;-;-;-;-;-;-;-;-;-;-;-;-;-;-
1512459809357;-;-;8.556168;0.2707367;3.6147308;-;-;-;-;-;-;-;-;-;-;-;-;-;-;-
1512459809378;-;-;8.475967;0.2240448;3.714096;-;-;-;-;-;-;-;-;-;-;-;-;-;-;-
1512459809398;-;-;8.552582;0.22285461;3.6266937;-;-;-;-;-;-;-;-;-;-;-;-;-;-;-
1512459809418;-;-;8.574127;0.20489502;3.5692444;-;-;-;-;-;-;-;-;-;-;-;-;-;-;-
1512459809438;-;-;8.510681;0.1510315;3.6661987;-;-;-;-;-;-;-;-;-;-;-;-;-;-;-
1512459809459;-;-;8.423294;0.074417114;3.67099;-;-;-;-;-;-;-;-;-;-;-;-;-;-;-
1512459809480;-;-;8.471176;0.19770813;3.6482544;-;-;-;-;-;-;-;-;-;-;-;-;-;-;-
1512459809500;-;-;8.532227;0.21687317;3.6961365;-;-;-;-;-;-;-;-;-;-;-;-;-;-;-
1512459809521;-;-;8.5633545;0.2515869;3.59198;-;-;-;-;-;-;-;-;-;-;-;-;-;-;-
1512459809541;-;-;8.522644;0.2743225;3.568039;-;-;-;-;-;-;-;-;-;-;-;-;-;-;-
1512459809562;-;-;8.455612;0.2695465;3.5979767;-;-;-;-;-;-;-;-;-;-;-;-;-;-;-
1512459809582;-;-;8.499908;0.2815094;3.6326904;-;-;-;-;-;-;-;-;-;-;-;-;-;-;-
1512459809603;-;-;8.551376;0.27792358;3.6410675;-;-;-;-;-;-;-;-;-;-;-;-;-;-;-
1512459809624;-;-;8.529831;0.27552795;3.6434631;-;-;-;-;-;-;-;-;-;-;-;-;-;-;-
1512459809644;-;-;8.5047;0.29467773;3.6434631;-;-;-;-;-;-;-;-;-;-;-;-;-;-;-
1512459809664;-;-;8.498703;0.34136963;3.6219177;-;-;-;-;-;-;-;-;-;-;-;-;-;-;-
1512459809685;-;-;8.501099;0.33299255;3.6374817;-;-;-;-;-;-;-;-;-;-;-;-;-;-;-
1512459809706;-;-;8.5238495;0.33657837;3.6099396;-;-;-;-;-;-;-;-;-;-;-;-;-;-;-
1512459809726;-;-;8.520264;0.31982422;3.6243134;-;-;-;-;-;-;-;-;-;-;-;-;-;-;-
1512459809747;-;-;8.5238495;0.259964;3.647049;-;-;-;-;-;-;-;-;-;-;-;-;-;-;-
1512459809768;-;-;8.5047;0.3138275;3.6446533;-;-;-;-;-;-;-;-;-;-;-;-;-;-;-
1512459809788;-;-;8.503494;0.26594543;3.6602173;-;-;-;-;-;-;-;-;-;-;-;-;-;-;-
1512459809809;-;-;8.502304;0.2850952;3.6530304;-;-;-;-;-;-;-;-;-;-;-;-;-;-;-
1512459809829;-;-;8.517868;0.3222046;3.6661987;-;-;-;-;-;-;-;-;-;-;-;-;-;-;-
1512459809850;-;-;8.498703;0.31861877;3.6913452;-;-;-;-;-;-;-;-;-;-;-;-;-;-;-
1512459809870;-;-;8.48674;0.29826355;3.6997223;-;-;-;-;-;-;-;-;-;-;-;-;-;-;-
1512459809891;-;-;8.507095;0.3102417;3.7200775;-;-;-;-;-;-;-;-;-;-;-;-;-;-;-
1512459809911;-;-;8.545395;0.34376526;3.7069092;-;-;-;-;-;-;-;-;-;-;-;-;-;-;-
1512459809932;-;-;8.501099;0.31263733;3.6650085;-;-;-;-;-;-;-;-;-;-;-;-;-;-;-
1512459809951;-;-;8.608841;0.2803192;3.6063538;-;-;-;-;-;-;-;-;-;-;-;-;-;-;-
1512459809972;-;-;8.564545;0.32460022;3.516571;-;-;-;-;-;-;-;-;-;-;-;-;-;-;-
1512459809992;-;-;8.469971;0.32580566;3.5608673;-;-;-;-;-;-;-;-;-;-;-;-;-;-;-
1512459810013;-;-;8.495117;0.29707336;3.6219177;-;-;-;-;-;-;-;-;-;-;-;-;-;-;-
1512459810032;-;-;8.510681;0.30186462;3.65065;-;-;-;-;-;-;-;-;-;-;-;-;-;-;-
1512459810052;-;-;8.538208;0.32580566;3.6757813;-;-;-;-;-;-;-;-;-;-;-;-;-;-;-
1512459810073;-;-;8.479553;0.3210144;3.6757813;-;-;-;-;-;-;-;-;-;-;-;-;-;-;-
1512459810094;-;-;8.526245;0.3497467;3.6530304;-;-;-;-;-;-;-;-;-;-;-;-;-;-;-
1512459810114;-;-;8.552582;0.378479;3.6674042;-;-;-;-;-;-;-;-;-;-;-;-;-;-;-
1512459810135;-;-;8.546585;0.29826355;3.714096;-;-;-;-;-;-;-;-;-;-;-;-;-;-;-
1512459810155;-;-;8.5047;0.24798584;3.738037;-;-;-;-;-;-;-;-;-;-;-;-;-;-;-
1512459810175;-;-;8.4687805;0.20610046;3.7356415;-;-;-;-;-;-;-;-;-;-;-;-;-;-;-
1512459810196;-;-;8.4843445;0.22285461;3.8014832;-;-;-;-;-;-;-;-;-;-;-;-;-;-;-
1512459810216;-;-;8.447235;0.2707367;3.8469696;-;-;-;-;-;-;-;-;-;-;-;-;-;-;-
1512459810237;-;-;8.4448395;0.33299255;3.8325958;-;-;-;-;-;-;-;-;-;-;-;-;-;-;-
1512459810258;-;-;8.469971;0.25398254;3.8649292;-;-;-;-;-;-;-;-;-;-;-;-;-;-;-
1512459810279;-;-;8.46759;0.20249939;3.8457642;-;-;-;-;-;-;-;-;-;-;-;-;-;-;-
1512459810299;-;-;8.447235;0.17497253;3.8565521;-;-;-;-;-;-;-;-;-;-;-;-;-;-;-
1512459810319;-;-;8.424484;0.15222168;3.9176025;-;-;-;-;-;-;-;-;-;-;-;-;-;-;-
1512459810339;-;-;8.402939;0.16659546;3.9199982;-;-;-;-;-;-;-;-;-;-;-;-;-;-;-
1512459810360;-;-;8.442444;0.19891357;3.9283752;-;-;-;-;-;-;-;-;-;-;-;-;-;-;-
1512459810380;-;-;8.431671;0.23123169;3.916397;-;-;-;-;-;-;-;-;-;-;-;-;-;-;-
1512459810401;-;-;8.416107;0.31263733;3.9355469;-;-;-;-;-;-;-;-;-;-;-;-;-;-;-
1512459810422;-;-;8.430481;0.26715088;3.892456;-;-;-;-;-;-;-;-;-;-;-;-;-;-;-
1512459810442;-;-;8.442444;0.26475525;3.8661194;-;-;-;-;-;-;-;-;-;-;-;-;-;-;-
1512459810462;-;-;8.453217;0.20370483;3.8649292;-;-;-;-;-;-;-;-;-;-;-;-;-;-;-
1512459810483;-;-;8.345474;0.22764587;3.9343567;-;-;-;-;-;-;-;-;-;-;-;-;-;-;-
