TimeStamp[ms];Prox[Cm];Lux[lux];AccX[m/s^2];AccY[m/s^2];AccZ[m/s^2];GyroX[rad/s];GyroY[rad/s];GyroZ[rad/s];MagnX[uT];MagnY[uT];MagnZ[uT];OrienYaw[degrees];OrienPitch[degrees];OrienRoll[degrees];Press[Pa];Temp[C°];Batt[%];Lat;Lng;Speed[m/s]
1512460221051;-;-;9.2313385;-1.570404;-1.0240326;-;-;-;-;-;-;-;-;-;-;-;-;-;-;-
1512460221072;-;-;8.963181;-1.6518097;-1.1988068;-;-;-;-;-;-;-;-;-;-;-;-;-;-;-
1512460221089;-;-;9.005081;-1.6817322;-1.2933807;-;-;-;-;-;-;-;-;-;-;-;-;-;-;-
1512460221110;-;-;8.918884;-1.6374359;-1.2778168;-;-;-;-;-;-;-;-;-;-;-;-;-;-;-
1512460221130;-;-;8.996704;-1.6625824;-1.2215576;-;-;-;-;-;-;-;-;-;-;-;-;-;-;-
1512460221150;-;-;9.051773;-1.7427826;-1.2490845;-;-;-;-;-;-;-;-;-;-;-;-;-;-;-
1512460221170;-;-;9.030228;-1.7703247;-1.2694397;-;-;-;-;-;-;-;-;-;-;-;-;-;-;-
1512460221191;-;-;9.048172;-1.7655334;-1.2658539;-;-;-;-;-;-;-;-;-;-;-;-;-;-;-
1512460221211;-;-;9.011063;-1.7391968;-1.2562714;-;-;-;-;-;-;-;-;-;-;-;-;-;-;-
1512460221231;-;-;9.044586;-1.7619476;-1.3017578;-;-;-;-;-;-;-;-;-;-;-;-;-;-;-
1512460221251;-;-;9.104446;-1.696106;-1.4083099;-;-;-;-;-;-;-;-;-;-;-;-;-;-;-
1512460221272;-;-;9.037399;-1.6829376;-1.6070251;-;-;-;-;-;-;-;-;-;-;-;-;-;-;-
1512460221292;-;-;9.154724;-1.7487793;-1.6010437;-;-;-;-;-;-;-;-;-;-;-;-;-;-;-
1512460221320;-;-;8.972763;-1.7655334;-1.4298553;-;-;-;-;-;-;-;-;-;-;-;-;-;-;-
1512460221333;-;-;8.938049;-1.7499695;-1.4585876;-;-;-;-;-;-;-;-;-;-;-;-;-;-;-
1512460221353;-;-;8.987122;-1.7272186;-1.5854797;-;-;-;-;-;-;-;-;-;-;-;-;-;-;-
1512460221373;-;-;8.783615;-1.5452728;-1.550766;-;-;-;-;-;-;-;-;-;-;-;-;-;-;-
1512460221394;-;-;9.123596;-1.7619476;-1.7327118;-;-;-;-;-;-;-;-;-;-;-;-;-;-;-
1512460221414;-;-;9.321121;-1.7451782;-1.0551605;-;-;-;-;-;-;-;-;-;-;-;-;-;-;-
1512460221435;-;-;9.2756195;-1.6087189;-1.9254456;-;-;-;-;-;-;-;-;-;-;-;-;-;-;-
1512460221455;-;-;9.216965;-1.9989624;-2.0523376;-;-;-;-;-;-;-;-;-;-;-;-;-;-;-
1512460221476;-;-;8.7417145;-1.8062286;-1.9326324;-;-;-;-;-;-;-;-;-;-;-;-;-;-;-
1512460221496;-;-;9.719757;-1.2507782;-2.057129;-;-;-;-;-;-;-;-;-;-;-;-;-;-;-
1512460221517;-;-;8.973953;-0.8820648;-2.0475616;-;-;-;-;-;-;-;-;-;-;-;-;-;-;-
1512460221538;-;-;8.161133;-0.878479;-1.5878754;-;-;-;-;-;-;-;-;-;-;-;-;-;-;-
1512460221558;-;-;9.082901;-1.2603607;-1.9757233;-;-;-;-;-;-;-;-;-;-;-;-;-;-;-
1512460221580;-;-;9.239716;-1.7679291;-1.5184326;-;-;-;-;-;-;-;-;-;-;-;-;-;-;-
1512460221599;-;-;9.75087;-2.103119;-1.5028687;-;-;-;-;-;-;-;-;-;-;-;-;-;-;-
1512460221619;-;-;9.3701935;-1.3453522;-1.1629028;-;-;-;-;-;-;-;-;-;-;-;-;-;-;-
1512460221640;-;-;8.313156;-1.0388947;-1.2131805;-;-;-;-;-;-;-;-;-;-;-;-;-;-;-
1512460221660;-;-;9.482727;-1.2424011;-3.1141663;-;-;-;-;-;-;-;-;-;-;-;-;-;-;-
1512460221681;-;-;9.282806;-1.8421478;-2.9369965;-;-;-;-;-;-;-;-;-;-;-;-;-;-;-
1512460221702;-;-;9.182251;-1.5596313;-1.8177185;-;-;-;-;-;-;-;-;-;-;-;-;-;-;-
1512460221722;-;-;8.878189;-1.4746399;-1.8248901;-;-;-;-;-;-;-;-;-;-;-;-;-;-;-
1512460221742;-;-;9.266052;-1.5572357;-2.6532898;-;-;-;-;-;-;-;-;-;-;-;-;-;-;-
1512460221763;-;-;9.232529;-1.0975494;-2.373169;-;-;-;-;-;-;-;-;-;-;-;-;-;-;-
1512460221783;-;-;7.845093;-0.76116943;-2.2750092;-;-;-;-;-;-;-;-;-;-;-;-;-;-;-
1512460221805;-;-;8.972763;0.22164917;-2.5263977;-;-;-;-;-;-;-;-;-;-;-;-;-;-;-
1512460221826;-;-;8.875793;-0.9143982;-3.001648;-;-;-;-;-;-;-;-;-;-;-;-;-;-;-
1512460221846;-;-;9.222961;-1.3501434;-2.5323792;-;-;-;-;-;-;-;-;-;-;-;-;-;-;-
1512460221866;-;-;8.247314;-0.43315125;-2.508438;-;-;-;-;-;-;-;-;-;-;-;-;-;-;-
1512460221888;-;-;6.612076;0.7124634;-3.2733917;-;-;-;-;-;-;-;-;-;-;-;-;-;-;-
1512460221907;-;-;7.10408;0.42515564;-4.0634766;-;-;-;-;-;-;-;-;-;-;-;-;-;-;-
1512460221927;-;-;8.100067;0.76753235;-4.583023;-;-;-;-;-;-;-;-;-;-;-;-;-;-;-
1512460221948;-;-;8.182678;1.3050385;-2.63414;-;-;-;-;-;-;-;-;-;-;-;-;-;-;-
1512460221968;-;-;8.260483;1.8952026;-2.012848;-;-;-;-;-;-;-;-;-;-;-;-;-;-;-
1512460221989;-;-;7.636795;2.5081177;-2.7849731;-;-;-;-;-;-;-;-;-;-;-;-;-;-;-
1512460222009;-;-;8.475967;1.1039124;-3.2171173;-;-;-;-;-;-;-;-;-;-;-;-;-;-;-
1512460222029;-;-;10.359009;3.7124023;-0.9258728;-;-;-;-;-;-;-;-;-;-;-;-;-;-;-
1512460222050;-;-;9.9831085;2.0807495;-3.151291;-;-;-;-;-;-;-;-;-;-;-;-;-;-;-
1512460222070;-;-;9.81073;0.80584717;-2.3480225;-;-;-;-;-;-;-;-;-;-;-;-;-;-;-
1512460222091;-;-;9.683838;1.3253784;-1.9206696;-;-;-;-;-;-;-;-;-;-;-;-;-;-;-
1512460222111;-;-;9.115219;1.2260284;-2.2055817;-;-;-;-;-;-;-;-;-;-;-;-;-;-;-
1512460222131;-;-;8.413712;0.67655945;-2.132553;-;-;-;-;-;-;-;-;-;-;-;-;-;-;-
1512460222152;-;-;8.521454;2.0556183;-2.6484985;-;-;-;-;-;-;-;-;-;-;-;-;-;-;-
1512460222172;-;-;8.90213;2.6110687;-3.9246063;-;-;-;-;-;-;-;-;-;-;-;-;-;-;-
1512460222193;-;-;8.985931;2.189682;-1.9362335;-;-;-;-;-;-;-;-;-;-;-;-;-;-;-
1512460222214;-;-;8.40773;1.8341522;-2.108612;-;-;-;-;-;-;-;-;-;-;-;-;-;-;-
1512460222234;-;-;7.865448;0.6669769;-1.4597778;-;-;-;-;-;-;-;-;-;-;-;-;-;-;-
1512460222255;-;-;7.6236267;1.3457336;0.098846436;-;-;-;-;-;-;-;-;-;-;-;-;-;-;-
1512460222275;-;-;9.931641;0.35333252;-2.3181;-;-;-;-;-;-;-;-;-;-;-;-;-;-;-
1512460222296;-;-;8.244919;1.2451782;-2.468933;-;-;-;-;-;-;-;-;-;-;-;-;-;-;-
1512460222315;-;-;8.193451;1.5707855;-2.2366943;-;-;-;-;-;-;-;-;-;-;-;-;-;-;-
1512460222335;-;-;8.108459;1.8365479;-2.5359802;-;-;-;-;-;-;-;-;-;-;-;-;-;-;-
1512460222356;-;-;8.143173;2.157364;-2.6508942;-;-;-;-;-;-;-;-;-;-;-;-;-;-;-
1512460222376;-;-;8.1479645;2.3608704;-2.8627777;-;-;-;-;-;-;-;-;-;-;-;-;-;-;-
1512460222397;-;-;8.570541;2.0939178;-2.9920654;-;-;-;-;-;-;-;-;-;-;-;-;-;-;-
1512460222416;-;-;8.261688;1.868866;-2.7550507;-;-;-;-;-;-;-;-;-;-;-;-;-;-;-
1512460222437;-;-;8.462799;1.5863495;-2.515625;-;-;-;-;-;-;-;-;-;-;-;-;-;-;-
1512460222457;-;-;8.406525;1.4474792;-2.4988708;-;-;-;-;-;-;-;-;-;-;-;-;-;-;-
1512460222478;-;-;8.320343;1.3732605;-2.9968567;-;-;-;-;-;-;-;-;-;-;-;-;-;-;-
1512460222497;-;-;8.400543;1.2368011;-3.3009186;-;-;-;-;-;-;-;-;-;-;-;-;-;-;-
1512460222518;-;-;8.10965;1.343338;-3.4864655;-;-;-;-;-;-;-;-;-;-;-;-;-;-;-
1512460222539;-;-;7.882202;1.3684845;-3.504425;-;-;-;-;-;-;-;-;-;-;-;-;-;-;-
1512460222559;-;-;6.987961;1.0943451;-4.559067;-;-;-;-;-;-;-;-;-;-;-;-;-;-;-
1512460222578;-;-;6.6348267;0.27792358;-6.2386017;-;-;-;-;-;-;-;-;-;-;-;-;-;-;-
1512460222599;-;-;8.386185;-1.309433;-4.6991425;-;-;-;-;-;-;-;-;-;-;-;-;-;-;-
1512460222619;-;-;8.772842;-0.94073486;-4.6632233;-;-;-;-;-;-;-;-;-;-;-;-;-;-;-
1512460222640;-;-;9.43364;0.064834595;-4.94693;-;-;-;-;-;-;-;-;-;-;-;-;-;-;-
1512460222659;-;-;9.075714;0.43832397;-5.453308;-;-;-;-;-;-;-;-;-;-;-;-;-;-;-
1512460222680;-;-;7.956421;-0.015365601;-5.349167;-;-;-;-;-;-;-;-;-;-;-;-;-;-;-
1512460222700;-;-;7.521881;-1.0400848;-3.8336334;-;-;-;-;-;-;-;-;-;-;-;-;-;-;-
1512460222721;-;-;8.614822;-2.7698975;-4.377121;-;-;-;-;-;-;-;-;-;-;-;-;-;-;-
1512460222741;-;-;9.348648;-3.2355652;-5.4305573;-;-;-;-;-;-;-;-;-;-;-;-;-;-;-
1512460222762;-;-;9.3701935;-2.5256958;-6.306839;-;-;-;-;-;-;-;-;-;-;-;-;-;-;-
1512460222782;-;-;8.212601;-1.2687378;-6.042282;-;-;-;-;-;-;-;-;-;-;-;-;-;-;-
1512460222802;-;-;7.066971;-0.17817688;-5.231842;-;-;-;-;-;-;-;-;-;-;-;-;-;-;-
1512460222822;-;-;6.141617;0.34136963;-4.5339355;-;-;-;-;-;-;-;-;-;-;-;-;-;-;-
1512460222843;-;-;5.72023;-0.05128479;-4.2957153;-;-;-;-;-;-;-;-;-;-;-;-;-;-;-
1512460222863;-;-;5.5227203;-0.7276459;-4.3088837;-;-;-;-;-;-;-;-;-;-;-;-;-;-;-
1512460222883;-;-;5.3658905;-1.3154297;-4.323242;-;-;-;-;-;-;-;-;-;-;-;-;-;-;-
1512460222904;-;-;5.786072;-1.6889191;-4.705124;-;-;-;-;-;-;-;-;-;-;-;-;-;-;-
1512460222925;-;-;6.1559753;-1.5177307;-5.1384735;-;-;-;-;-;-;-;-;-;-;-;-;-;-;-
1512460222946;-;-;6.4851837;-0.8701019;-5.211487;-;-;-;-;-;-;-;-;-;-;-;-;-;-;-
1512460222966;-;-;6.600113;0.045684814;-5.278534;-;-;-;-;-;-;-;-;-;-;-;-;-;-;-
1512460222986;-;-;6.84671;0.74838257;-5.7621613;-;-;-;-;-;-;-;-;-;-;-;-;-;-;-
1512460223006;-;-;7.1651306;0.9758301;-6.116501;-;-;-;-;-;-;-;-;-;-;-;-;-;-;-
1512460223026;-;-;6.888611;0.117507935;-7.0957336;-;-;-;-;-;-;-;-;-;-;-;-;-;-;-
1512460223047;-;-;7.0382385;-1.3633118;-8.145584;-;-;-;-;-;-;-;-;-;-;-;-;-;-;-
1512460223068;-;-;7.624832;-2.6477966;-8.417328;-;-;-;-;-;-;-;-;-;-;-;-;-;-;-
1512460223087;-;-;7.8630524;-2.399994;-5.839966;-;-;-;-;-;-;-;-;-;-;-;-;-;-;-
1512460223108;-;-;7.849884;-1.2316284;-4.8068695;-;-;-;-;-;-;-;-;-;-;-;-;-;-;-
1512460223127;-;-;8.26886;0.24679565;-5.9405212;-;-;-;-;-;-;-;-;-;-;-;-;-;-;-
1512460223148;-;-;8.150345;0.5700073;-7.464432;-;-;-;-;-;-;-;-;-;-;-;-;-;-;-
1512460223168;-;-;6.285263;0.17137146;-7.7792816;-;-;-;-;-;-;-;-;-;-;-;-;-;-;-
1512460223189;-;-;5.813614;0.2850952;-7.074188;-;-;-;-;-;-;-;-;-;-;-;-;-;-;-
1512460223209;-;-;5.909378;0.57240295;-6.574997;-;-;-;-;-;-;-;-;-;-;-;-;-;-;-
1512460223229;-;-;6.515106;0.50057983;-6.815613;-;-;-;-;-;-;-;-;-;-;-;-;-;-;-
1512460223250;-;-;7.3111877;-0.10635376;-7.2968445;-;-;-;-;-;-;-;-;-;-;-;-;-;-;-
1512460223271;-;-;8.102463;-1.0472717;-7.7397766;-;-;-;-;-;-;-;-;-;-;-;-;-;-;-
1512460223291;-;-;7.4320984;-1.2926788;-7.943283;-;-;-;-;-;-;-;-;-;-;-;-;-;-;-
1512460223312;-;-;6.7377777;-0.90122986;-7.8427277;-;-;-;-;-;-;-;-;-;-;-;-;-;-;-
1512460223332;-;-;5.6460114;-0.090789795;-7.314804;-;-;-;-;-;-;-;-;-;-;-;-;-;-;-
1512460223352;-;-;5.569397;0.43234253;-7.1148834;-;-;-;-;-;-;-;-;-;-;-;-;-;-;-
1512460223373;-;-;5.9848022;0.76753235;-7.3531036;-;-;-;-;-;-;-;-;-;-;-;-;-;-;-
1512460223393;-;-;6.644394;0.8740692;-7.954056;-;-;-;-;-;-;-;-;-;-;-;-;-;-;-
1512460223414;-;-;6.965225;0.6957092;-8.572952;-;-;-;-;-;-;-;-;-;-;-;-;-;-;-
1512460223434;-;-;6.5270844;0.33299255;-8.582535;-;-;-;-;-;-;-;-;-;-;-;-;-;-;-
1512460223455;-;-;6.4217377;0.1797638;-7.2812805;-;-;-;-;-;-;-;-;-;-;-;-;-;-;-
1512460223475;-;-;6.711441;-0.1925354;-7.307617;-;-;-;-;-;-;-;-;-;-;-;-;-;-;-
1512460223495;-;-;6.486389;-0.22486877;-7.651184;-;-;-;-;-;-;-;-;-;-;-;-;-;-;-
1512460223516;-;-;5.747772;-0.28352356;-7.659561;-;-;-;-;-;-;-;-;-;-;-;-;-;-;-
1512460223537;-;-;4.842758;-0.2966919;-6.9604645;-;-;-;-;-;-;-;-;-;-;-;-;-;-;-
1512460223557;-;-;4.07901;-0.33259583;-6.0087585;-;-;-;-;-;-;-;-;-;-;-;-;-;-;-
1512460223578;-;-;3.390686;-0.3589325;-5.515564;-;-;-;-;-;-;-;-;-;-;-;-;-;-;-
1512460223598;-;-;3.081833;-0.18655396;-5.314438;-;-;-;-;-;-;-;-;-;-;-;-;-;-;-
1512460223618;-;-;3.5630646;0.110321045;-5.381485;-;-;-;-;-;-;-;-;-;-;-;-;-;-;-
1512460223639;-;-;4.350754;0.15940857;-5.5694275;-;-;-;-;-;-;-;-;-;-;-;-;-;-;-
1512460223658;-;-;5.1097107;0.07081604;-5.6951294;-;-;-;-;-;-;-;-;-;-;-;-;-;-;-
1512460223678;-;-;5.359909;0.074417114;-5.611328;-;-;-;-;-;-;-;-;-;-;-;-;-;-;-
1512460223699;-;-;5.1564026;0.112716675;-4.9996033;-;-;-;-;-;-;-;-;-;-;-;-;-;-;-
1512460223719;-;-;4.73024;0.057647705;-4.3759155;-;-;-;-;-;-;-;-;-;-;-;-;-;-;-
1512460223740;-;-;4.3663177;0.076812744;-4.3124695;-;-;-;-;-;-;-;-;-;-;-;-;-;-;-
1512460223760;-;-;4.849945;-0.1530304;-5.001999;-;-;-;-;-;-;-;-;-;-;-;-;-;-;-
1512460223781;-;-;6.0542297;-0.0069885254;-5.693924;-;-;-;-;-;-;-;-;-;-;-;-;-;-;-
1512460223802;-;-;6.78566;0.59994507;-5.9680634;-;-;-;-;-;-;-;-;-;-;-;-;-;-;-
1512460223822;-;-;8.373016;0.057647705;-6.662384;-;-;-;-;-;-;-;-;-;-;-;-;-;-;-
1512460223843;-;-;6.9460754;0.73161316;-6.9460907;-;-;-;-;-;-;-;-;-;-;-;-;-;-;-
1512460223862;-;-;7.241745;0.20610046;-7.3602905;-;-;-;-;-;-;-;-;-;-;-;-;-;-;-
1512460223882;-;-;7.7457275;0.53889465;-7.3531036;-;-;-;-;-;-;-;-;-;-;-;-;-;-;-
1512460223902;-;-;7.3303375;0.5676117;-7.365082;-;-;-;-;-;-;-;-;-;-;-;-;-;-;-
1512460223923;-;-;7.3459015;0.18814087;-7.5973206;-;-;-;-;-;-;-;-;-;-;-;-;-;-;-
1512460223943;-;-;7.798401;0.62028503;-7.5817566;-;-;-;-;-;-;-;-;-;-;-;-;-;-;-
1512460223964;-;-;8.284424;1.1338501;-7.6487885;-;-;-;-;-;-;-;-;-;-;-;-;-;-;-
1512460223984;-;-;8.772842;1.1745453;-7.4512634;-;-;-;-;-;-;-;-;-;-;-;-;-;-;-
1512460224005;-;-;8.874603;0.6095123;-6.7988434;-;-;-;-;-;-;-;-;-;-;-;-;-;-;-
1512460224025;-;-;8.608841;0.3712921;-5.5778046;-;-;-;-;-;-;-;-;-;-;-;-;-;-;-
1512460224046;-;-;8.934448;0.44911194;-5.0319366;-;-;-;-;-;-;-;-;-;-;-;-;-;-;-
1512460224066;-;-;9.790375;0.02772522;-5.3359985;-;-;-;-;-;-;-;-;-;-;-;-;-;-;-
1512460224087;-;-;11.5477295;-0.40203857;-5.8375854;-;-;-;-;-;-;-;-;-;-;-;-;-;-;-
1512460224107;-;-;13.536102;-0.03213501;-6.0829773;-;-;-;-;-;-;-;-;-;-;-;-;-;-;-
1512460224128;-;-;13.1698;0.49938965;-6.1428375;-;-;-;-;-;-;-;-;-;-;-;-;-;-;-
1512460224149;-;-;10.931213;1.2020874;-5.7118835;-;-;-;-;-;-;-;-;-;-;-;-;-;-;-
1512460224169;-;-;11.290344;0.8345642;-3.7953186;-;-;-;-;-;-;-;-;-;-;-;-;-;-;-
1512460224189;-;-;11.167053;0.73880005;-2.0260162;-;-;-;-;-;-;-;-;-;-;-;-;-;-;-
1512460224210;-;-;10.388931;0.25517273;-1.2945862;-;-;-;-;-;-;-;-;-;-;-;-;-;-;-
1512460224231;-;-;9.410904;-0.11831665;-0.4350586;-;-;-;-;-;-;-;-;-;-;-;-;-;-;-
1512460224250;-;-;7.3818207;-0.18057251;-0.06994629;-;-;-;-;-;-;-;-;-;-;-;-;-;-;-
1512460224271;-;-;5.97641;-0.4487152;0.5118408;-;-;-;-;-;-;-;-;-;-;-;-;-;-;-
1512460224291;-;-;6.03508;-0.71687317;0.80033875;-;-;-;-;-;-;-;-;-;-;-;-;-;-;-
1512460224312;-;-;7.842697;-0.6067352;0.6315613;-;-;-;-;-;-;-;-;-;-;-;-;-;-;-
1512460224331;-;-;9.355835;0.09954834;0.17785645;-;-;-;-;-;-;-;-;-;-;-;-;-;-;-
1512460224351;-;-;10.130356;0.8848419;-0.72236633;-;-;-;-;-;-;-;-;-;-;-;-;-;-;-
1512460224372;-;-;10.040573;1.7000732;-1.2634583;-;-;-;-;-;-;-;-;-;-;-;-;-;-;-
1512460224392;-;-;9.9831085;1.8880157;-1.2131805;-;-;-;-;-;-;-;-;-;-;-;-;-;-;-
1512460224413;-;-;10.131561;1.1781464;-0.60505676;-;-;-;-;-;-;-;-;-;-;-;-;-;-;-
1512460224433;-;-;9.755661;0.5305023;-0.29859924;-;-;-;-;-;-;-;-;-;-;-;-;-;-;-
1512460224454;-;-;9.166687;0.4658661;0.05215454;-;-;-;-;-;-;-;-;-;-;-;-;-;-;-
1512460224474;-;-;8.435257;1.1362457;0.63275146;-;-;-;-;-;-;-;-;-;-;-;-;-;-;-
1512460224494;-;-;8.009094;1.6940918;0.93322754;-;-;-;-;-;-;-;-;-;-;-;-;-;-;-
1512460224514;-;-;7.7648926;1.9813995;1.2241211;-;-;-;-;-;-;-;-;-;-;-;-;-;-;-
1512460224535;-;-;7.7337646;1.6186676;1.176239;-;-;-;-;-;-;-;-;-;-;-;-;-;-;-
1512460224555;-;-;7.884598;0.675354;0.57888794;-;-;-;-;-;-;-;-;-;-;-;-;-;-;-
1512460224575;-;-;8.837494;-0.27394104;-0.15853882;-;-;-;-;-;-;-;-;-;-;-;-;-;-;-
1512460224596;-;-;9.887344;-0.289505;-0.15853882;-;-;-;-;-;-;-;-;-;-;-;-;-;-;-
1512460224616;-;-;10.792358;0.24320984;-0.075927734;-;-;-;-;-;-;-;-;-;-;-;-;-;-;-
1512460224636;-;-;10.306335;0.6633911;-0.20761108;-;-;-;-;-;-;-;-;-;-;-;-;-;-;-
1512460224657;-;-;9.148727;0.60832214;0.089263916;-;-;-;-;-;-;-;-;-;-;-;-;-;-;-
1512460224676;-;-;8.224579;0.30784607;0.50346375;-;-;-;-;-;-;-;-;-;-;-;-;-;-;-
1512460224696;-;-;7.6511536;-0.13986206;0.7177429;-;-;-;-;-;-;-;-;-;-;-;-;-;-;-
1512460224717;-;-;7.7301636;-0.4547119;0.7357025;-;-;-;-;-;-;-;-;-;-;-;-;-;-;-
1512460224737;-;-;8.286819;-0.51815796;0.6830292;-;-;-;-;-;-;-;-;-;-;-;-;-;-;-
1512460224758;-;-;9.258865;-0.32421875;0.5800781;-;-;-;-;-;-;-;-;-;-;-;-;-;-;-
1512460224778;-;-;9.783203;0.008575439;0.61839294;-;-;-;-;-;-;-;-;-;-;-;-;-;-;-
1512460224798;-;-;9.425262;0.36291504;0.7440796;-;-;-;-;-;-;-;-;-;-;-;-;-;-;-
1512460224819;-;-;9.329498;0.58078;0.9775238;-;-;-;-;-;-;-;-;-;-;-;-;-;-;-
1512460224839;-;-;9.7413025;0.8154144;0.88534546;-;-;-;-;-;-;-;-;-;-;-;-;-;-;-
1512460224862;-;-;9.714966;0.80703735;0.83984375;-;-;-;-;-;-;-;-;-;-;-;-;-;-;-
1512460224882;-;-;8.950012;0.63345337;0.03060913;-;-;-;-;-;-;-;-;-;-;-;-;-;-;-
1512460224901;-;-;9.128387;0.38206482;-0.06636047;-;-;-;-;-;-;-;-;-;-;-;-;-;-;-
1512460224921;-;-;9.910095;-0.2392273;-0.8767853;-;-;-;-;-;-;-;-;-;-;-;-;-;-;-
1512460224942;-;-;10.432022;-0.54927063;-1.3053589;-;-;-;-;-;-;-;-;-;-;-;-;-;-;-
1512460224962;-;-;9.521027;-0.1590271;-1.2203674;-;-;-;-;-;-;-;-;-;-;-;-;-;-;-
1512460224983;-;-;8.7261505;0.42156982;-1.5016785;-;-;-;-;-;-;-;-;-;-;-;-;-;-;-
1512460225004;-;-;8.541809;0.59155273;-1.792572;-;-;-;-;-;-;-;-;-;-;-;-;-;-;-
1512460225024;-;-;8.733337;0.11152649;-2.168457;-;-;-;-;-;-;-;-;-;-;-;-;-;-;-
1512460225045;-;-;9.1918335;-0.5780029;-1.6429291;-;-;-;-;-;-;-;-;-;-;-;-;-;-;-
1512460225065;-;-;9.679047;-0.6115265;-1.0743103;-;-;-;-;-;-;-;-;-;-;-;-;-;-;-
1512460225086;-;-;9.906494;-0.30506897;-0.94143677;-;-;-;-;-;-;-;-;-;-;-;-;-;-;-
1512460225106;-;-;9.380966;0.079193115;-1.4693604;-;-;-;-;-;-;-;-;-;-;-;-;-;-;-
1512460225127;-;-;9.321121;0.16539001;-2.2450714;-;-;-;-;-;-;-;-;-;-;-;-;-;-;-
1512460225148;-;-;9.629974;-0.07043457;-3.135727;-;-;-;-;-;-;-;-;-;-;-;-;-;-;-
1512460225168;-;-;9.837067;-0.07522583;-3.2266998;-;-;-;-;-;-;-;-;-;-;-;-;-;-;-
1512460225188;-;-;9.717361;-0.04170227;-3.0854492;-;-;-;-;-;-;-;-;-;-;-;-;-;-;-
1512460225208;-;-;9.391739;-0.009384155;-2.0786743;-;-;-;-;-;-;-;-;-;-;-;-;-;-;-
1512460225228;-;-;8.9392395;-0.3361969;-1.4442139;-;-;-;-;-;-;-;-;-;-;-;-;-;-;-
1512460225249;-;-;8.434067;-0.6869507;-0.98213196;-;-;-;-;-;-;-;-;-;-;-;-;-;-;-
1512460225269;-;-;8.225769;-0.739624;-0.85165405;-;-;-;-;-;-;-;-;-;-;-;-;-;-;-
1512460225290;-;-;8.66391;-0.50857544;-1.0132599;-;-;-;-;-;-;-;-;-;-;-;-;-;-;-
1512460225310;-;-;9.129578;0.08039856;-1.8727875;-;-;-;-;-;-;-;-;-;-;-;-;-;-;-
1512460225331;-;-;9.74968;0.65141296;-2.3157043;-;-;-;-;-;-;-;-;-;-;-;-;-;-;-
1512460225351;-;-;10.033386;1.2068634;-2.3647919;-;-;-;-;-;-;-;-;-;-;-;-;-;-;-
1512460225372;-;-;10.04895;1.7335968;-2.0547333;-;-;-;-;-;-;-;-;-;-;-;-;-;-;-
1512460225392;-;-;9.106842;1.8305664;-1.7830048;-;-;-;-;-;-;-;-;-;-;-;-;-;-;-
1512460225413;-;-;8.548981;1.4798126;-1.5328064;-;-;-;-;-;-;-;-;-;-;-;-;-;-;-
1512460225433;-;-;8.540604;0.7950592;-1.5818787;-;-;-;-;-;-;-;-;-;-;-;-;-;-;-
1512460225453;-;-;8.60405;0.80822754;-1.6285706;-;-;-;-;-;-;-;-;-;-;-;-;-;-;-
1512460225473;-;-;8.213791;1.0344849;-1.4621735;-;-;-;-;-;-;-;-;-;-;-;-;-;-;-
1512460225494;-;-;8.283234;0.8202057;-1.4549866;-;-;-;-;-;-;-;-;-;-;-;-;-;-;-
1512460225514;-;-;8.649536;0.4766388;-1.5052643;-;-;-;-;-;-;-;-;-;-;-;-;-;-;-
1512460225535;-;-;9.129578;0.16897583;-1.3963318;-;-;-;-;-;-;-;-;-;-;-;-;-;-;-
1512460225555;-;-;9.31752;0.2240448;-1.2598572;-;-;-;-;-;-;-;-;-;-;-;-;-;-;-
1512460225575;-;-;8.867416;0.41319275;-1.4633789;-;-;-;-;-;-;-;-;-;-;-;-;-;-;-
1512460225596;-;-;8.707001;0.4981842;-1.5567474;-;-;-;-;-;-;-;-;-;-;-;-;-;-;-
1512460225615;-;-;9.062546;0.6322632;-1.0503693;-;-;-;-;-;-;-;-;-;-;-;-;-;-;-
1512460225635;-;-;9.516251;0.4766388;-0.35365295;-;-;-;-;-;-;-;-;-;-;-;-;-;-;-
1512460225656;-;-;9.96875;0.5520477;-0.3476715;-;-;-;-;-;-;-;-;-;-;-;-;-;-;-
1512460225676;-;-;10.6271515;0.5460663;0.39692688;-;-;-;-;-;-;-;-;-;-;-;-;-;-;-
1512460225697;-;-;10.016632;0.5281067;0.46754456;-;-;-;-;-;-;-;-;-;-;-;-;-;-;-
1512460225717;-;-;7.787628;-0.18415833;-1.1856384;-;-;-;-;-;-;-;-;-;-;-;-;-;-;-
1512460225738;-;-;6.4396973;-1.3285828;-1.8296814;-;-;-;-;-;-;-;-;-;-;-;-;-;-;-
1512460225758;-;-;9.114014;-0.43914795;-1.0814972;-;-;-;-;-;-;-;-;-;-;-;-;-;-;-
1512460225778;-;-;10.70018;1.1769409;-0.16571045;-;-;-;-;-;-;-;-;-;-;-;-;-;-;-
1512460225799;-;-;10.02861;1.5588226;-0.43865967;-;-;-;-;-;-;-;-;-;-;-;-;-;-;-
1512460225819;-;-;9.386963;0.0037841797;-1.784195;-;-;-;-;-;-;-;-;-;-;-;-;-;-;-
1512460225840;-;-;9.51265;-1.2280273;-2.6796265;-;-;-;-;-;-;-;-;-;-;-;-;-;-;-
1512460225860;-;-;9.500687;-0.77552795;-1.4214783;-;-;-;-;-;-;-;-;-;-;-;-;-;-;-
1512460225881;-;-;9.023041;0.3796692;0.26524353;-;-;-;-;-;-;-;-;-;-;-;-;-;-;-
1512460225901;-;-;8.854248;0.7447815;0.5166321;-;-;-;-;-;-;-;-;-;-;-;-;-;-;-
1512460225921;-;-;9.300766;-0.1015625;-0.5811157;-;-;-;-;-;-;-;-;-;-;-;-;-;-;-
1512460225942;-;-;9.400131;-0.62828064;-1.3951416;-;-;-;-;-;-;-;-;-;-;-;-;-;-;-
1512460225963;-;-;9.452805;-0.32901;-1.495697;-;-;-;-;-;-;-;-;-;-;-;-;-;-;-
1512460225983;-;-;9.372589;0.27792358;-0.9629822;-;-;-;-;-;-;-;-;-;-;-;-;-;-;-
1512460226004;-;-;9.175064;0.42396545;-0.17289734;-;-;-;-;-;-;-;-;-;-;-;-;-;-;-
1512460226023;-;-;8.98114;0.13546753;-0.17408752;-;-;-;-;-;-;-;-;-;-;-;-;-;-;-
1512460226044;-;-;9.094864;-0.4259796;-0.56674194;-;-;-;-;-;-;-;-;-;-;-;-;-;-;-
1512460226064;-;-;9.347458;-0.43554688;-0.788208;-;-;-;-;-;-;-;-;-;-;-;-;-;-;-
1512460226084;-;-;9.537796;-0.08001709;-0.5104828;-;-;-;-;-;-;-;-;-;-;-;-;-;-;-
1512460226105;-;-;9.766434;0.08518982;-0.25190735;-;-;-;-;-;-;-;-;-;-;-;-;-;-;-
1512460226126;-;-;9.341461;0.08518982;-0.45062256;-;-;-;-;-;-;-;-;-;-;-;-;-;-;-
1512460226145;-;-;9.366608;0.03730774;-0.33210754;-;-;-;-;-;-;-;-;-;-;-;-;-;-;-
1512460226166;-;-;9.137955;-0.20809937;-0.57632446;-;-;-;-;-;-;-;-;-;-;-;-;-;-;-
1512460226185;-;-;8.873398;-0.16261292;-0.51527405;-;-;-;-;-;-;-;-;-;-;-;-;-;-;-
1512460226206;-;-;8.914108;-0.17098999;-0.24113464;-;-;-;-;-;-;-;-;-;-;-;-;-;-;-
1512460226226;-;-;8.680664;-0.32901;-0.14537048;-;-;-;-;-;-;-;-;-;-;-;-;-;-;-
1512460226246;-;-;8.637573;-0.29788208;-0.13937378;-;-;-;-;-;-;-;-;-;-;-;-;-;-;-
1512460226267;-;-;8.244919;-0.2679596;0.13476563;-;-;-;-;-;-;-;-;-;-;-;-;-;-;-
1512460226287;-;-;8.455612;-0.1817627;0.3215027;-;-;-;-;-;-;-;-;-;-;-;-;-;-;-
1512460226308;-;-;8.697433;-0.17219543;0.5704956;-;-;-;-;-;-;-;-;-;-;-;-;-;-;-
1512460226328;-;-;9.87059;-0.23443604;0.9811096;-;-;-;-;-;-;-;-;-;-;-;-;-;-;-
1512460226349;-;-;9.481522;-0.47146606;-0.22317505;-;-;-;-;-;-;-;-;-;-;-;-;-;-;-
1512460226369;-;-;9.657501;-0.03930664;-1.1509247;-;-;-;-;-;-;-;-;-;-;-;-;-;-;-
1512460226389;-;-;9.966354;0.378479;-1.2730255;-;-;-;-;-;-;-;-;-;-;-;-;-;-;-
1512460226410;-;-;10.189011;-0.021362305;-0.8025665;-;-;-;-;-;-;-;-;-;-;-;-;-;-;-
1512460226431;-;-;9.210983;-0.5720215;0.13116455;-;-;-;-;-;-;-;-;-;-;-;-;-;-;-
1512460226450;-;-;8.392166;-0.4487152;0.31671143;-;-;-;-;-;-;-;-;-;-;-;-;-;-;-
1512460226471;-;-;8.605255;0.088775635;0.6758423;-;-;-;-;-;-;-;-;-;-;-;-;-;-;-
1512460226491;-;-;8.926071;0.38327026;0.9523773;-;-;-;-;-;-;-;-;-;-;-;-;-;-;-
1512460226512;-;-;9.165497;-0.13148499;0.78479004;-;-;-;-;-;-;-;-;-;-;-;-;-;-;-
1512460226532;-;-;9.541382;-0.63427734;0.30474854;-;-;-;-;-;-;-;-;-;-;-;-;-;-;-
1512460226553;-;-;9.574905;-0.6821594;0.06892395;-;-;-;-;-;-;-;-;-;-;-;-;-;-;-
1512460226572;-;-;9.719757;-0.42956543;0.029418945;-;-;-;-;-;-;-;-;-;-;-;-;-;-;-
1512460226592;-;-;9.584473;-0.16500854;-0.14775085;-;-;-;-;-;-;-;-;-;-;-;-;-;-;-
1512460226613;-;-;9.199005;-0.23683167;-0.3943634;-;-;-;-;-;-;-;-;-;-;-;-;-;-;-
1512460226634;-;-;8.952408;-0.13269043;0.01625061;-;-;-;-;-;-;-;-;-;-;-;-;-;-;-
1512460226653;-;-;9.201401;-0.13269043;0.51065063;-;-;-;-;-;-;-;-;-;-;-;-;-;-;-
1512460226674;-;-;9.029022;-0.06564331;0.3598175;-;-;-;-;-;-;-;-;-;-;-;-;-;-;-
1512460226694;-;-;8.720169;-0.07043457;0.117996216;-;-;-;-;-;-;-;-;-;-;-;-;-;-;-
1512460226714;-;-;8.648346;-0.1015625;0.079696655;-;-;-;-;-;-;-;-;-;-;-;-;-;-;-
1512460226735;-;-;9.165497;-0.31584167;0.14074707;-;-;-;-;-;-;-;-;-;-;-;-;-;-;-
1512460226756;-;-;9.914871;-0.41160583;0.1479187;-;-;-;-;-;-;-;-;-;-;-;-;-;-;-
1512460226775;-;-;10.133942;-0.38887024;0.1479187;-;-;-;-;-;-;-;-;-;-;-;-;-;-;-
1512460226796;-;-;9.804749;-0.26675415;0.35144043;-;-;-;-;-;-;-;-;-;-;-;-;-;-;-
1512460226816;-;-;9.046982;-0.24760437;0.71055603;-;-;-;-;-;-;-;-;-;-;-;-;-;-;-
1512460226837;-;-;8.698624;-0.39964294;0.72732544;-;-;-;-;-;-;-;-;-;-;-;-;-;-;-
1512460226857;-;-;8.72377;-0.2571869;0.4986725;-;-;-;-;-;-;-;-;-;-;-;-;-;-;-
1512460226878;-;-;9.137955;-0.050079346;0.3310852;-;-;-;-;-;-;-;-;-;-;-;-;-;-;-
1512460226897;-;-;9.609619;0.11392212;0.37298584;-;-;-;-;-;-;-;-;-;-;-;-;-;-;-
1512460226918;-;-;9.531799;0.1797638;0.23890686;-;-;-;-;-;-;-;-;-;-;-;-;-;-;-
1512460226939;-;-;9.142746;0.095962524;0.12997437;-;-;-;-;-;-;-;-;-;-;-;-;-;-;-
1512460226958;-;-;9.109222;0.11152649;0.5657196;-;-;-;-;-;-;-;-;-;-;-;-;-;-;-
1512460226979;-;-;9.187042;0.09715271;1.1259613;-;-;-;-;-;-;-;-;-;-;-;-;-;-;-
1512460226998;-;-;9.017059;0.122299194;1.3162994;-;-;-;-;-;-;-;-;-;-;-;-;-;-;-
1512460227019;-;-;8.994308;-0.25837708;1.5401611;-;-;-;-;-;-;-;-;-;-;-;-;-;-;-
1512460227038;-;-;8.856644;-0.74320984;1.6586609;-;-;-;-;-;-;-;-;-;-;-;-;-;-;-
1512460227058;-;-;8.529831;-0.92396545;1.8370361;-;-;-;-;-;-;-;-;-;-;-;-;-;-;-
1512460227079;-;-;8.501099;-0.67497253;1.899292;-;-;-;-;-;-;-;-;-;-;-;-;-;-;-
1512460227099;-;-;8.849457;-0.25958252;1.8513947;-;-;-;-;-;-;-;-;-;-;-;-;-;-;-
1512460227120;-;-;9.143951;-0.1697998;1.5581055;-;-;-;-;-;-;-;-;-;-;-;-;-;-;-
1512460227140;-;-;9.3701935;-0.4152069;1.2456665;-;-;-;-;-;-;-;-;-;-;-;-;-;-;-
1512460227160;-;-;9.515045;-0.69651794;1.1642609;-;-;-;-;-;-;-;-;-;-;-;-;-;-;-
1512460227181;-;-;9.469559;-0.6522217;1.701767;-;-;-;-;-;-;-;-;-;-;-;-;-;-;-
1512460227201;-;-;9.294785;-0.52293396;1.3905182;-;-;-;-;-;-;-;-;-;-;-;-;-;-;-
1512460227222;-;-;9.291183;-0.23443604;0.75845337;-;-;-;-;-;-;-;-;-;-;-;-;-;-;-
1512460227243;-;-;9.682648;0.07321167;0.37657166;-;-;-;-;-;-;-;-;-;-;-;-;-;-;-
1512460227263;-;-;9.839462;0.72683716;0.33946228;-;-;-;-;-;-;-;-;-;-;-;-;-;-;-
1512460227284;-;-;9.205002;1.1529999;0.4507904;-;-;-;-;-;-;-;-;-;-;-;-;-;-;-
1512460227303;-;-;8.677078;0.36531067;0.6710663;-;-;-;-;-;-;-;-;-;-;-;-;-;-;-
1512460227324;-;-;8.311966;-0.38407898;0.66148376;-;-;-;-;-;-;-;-;-;-;-;-;-;-;-
1512460227344;-;-;8.748901;-0.80307007;0.721344;-;-;-;-;-;-;-;-;-;-;-;-;-;-;-
1512460227364;-;-;9.473145;-0.50019836;0.60043335;-;-;-;-;-;-;-;-;-;-;-;-;-;-;-
1512460227385;-;-;9.869385;0.20610046;0.21257019;-;-;-;-;-;-;-;-;-;-;-;-;-;-;-
1512460227405;-;-;9.87178;0.6035309;-0.0914917;-;-;-;-;-;-;-;-;-;-;-;-;-;-;-
1512460227426;-;-;9.544968;0.6466217;0.07849121;-;-;-;-;-;-;-;-;-;-;-;-;-;-;-
1512460227446;-;-;9.212173;0.5341034;0.43522644;-;-;-;-;-;-;-;-;-;-;-;-;-;-;-
1512460227466;-;-;8.918884;0.26475525;0.6159973;-;-;-;-;-;-;-;-;-;-;-;-;-;-;-
1512460227487;-;-;8.733337;0.021743774;0.60762024;-;-;-;-;-;-;-;-;-;-;-;-;-;-;-
1512460227507;-;-;8.637573;-0.06324768;0.844635;-;-;-;-;-;-;-;-;-;-;-;-;-;-;-
1512460227528;-;-;8.768051;-0.13269043;1.1750336;-;-;-;-;-;-;-;-;-;-;-;-;-;-;-
1512460227549;-;-;8.844666;-0.24880981;1.3713684;-;-;-;-;-;-;-;-;-;-;-;-;-;-;-
1512460227568;-;-;8.965576;-0.43315125;1.4084778;-;-;-;-;-;-;-;-;-;-;-;-;-;-;-
1512460227589;-;-;9.105637;-0.581604;1.5186005;-;-;-;-;-;-;-;-;-;-;-;-;-;-;-
1512460227609;-;-;9.333084;-0.48582458;1.8454132;-;-;-;-;-;-;-;-;-;-;-;-;-;-;-
1512460227630;-;-;9.426468;-0.33140564;1.725708;-;-;-;-;-;-;-;-;-;-;-;-;-;-;-
1512460227649;-;-;9.477936;-0.14465332;1.4587555;-;-;-;-;-;-;-;-;-;-;-;-;-;-;-
1512460227669;-;-;9.534195;-0.41160583;1.0984192;-;-;-;-;-;-;-;-;-;-;-;-;-;-;-
1512460227690;-;-;9.627579;-0.2787323;0.9176636;-;-;-;-;-;-;-;-;-;-;-;-;-;-;-
1512460227710;-;-;9.212173;0.14863586;0.8518219;-;-;-;-;-;-;-;-;-;-;-;-;-;-;-
1512460227731;-;-;8.660324;0.4479065;0.7823944;-;-;-;-;-;-;-;-;-;-;-;-;-;-;-
1512460227752;-;-;8.550186;0.18933105;0.6782379;-;-;-;-;-;-;-;-;-;-;-;-;-;-;-
1512460227772;-;-;9.046982;0.036102295;0.7249298;-;-;-;-;-;-;-;-;-;-;-;-;-;-;-
1512460227791;-;-;9.383362;0.14743042;0.73091125;-;-;-;-;-;-;-;-;-;-;-;-;-;-;-
1512460227811;-;-;9.527023;0.35453796;0.60043335;-;-;-;-;-;-;-;-;-;-;-;-;-;-;-
1512460227832;-;-;9.422867;0.32939148;0.5178375;-;-;-;-;-;-;-;-;-;-;-;-;-;-;-
1512460227853;-;-;9.458786;0.15820313;0.57528687;-;-;-;-;-;-;-;-;-;-;-;-;-;-;-
1512460227872;-;-;9.3893585;-0.03453064;0.602829;-;-;-;-;-;-;-;-;-;-;-;-;-;-;-
1512460227893;-;-;9.094864;-0.02255249;0.5992279;-;-;-;-;-;-;-;-;-;-;-;-;-;-;-
1512460227912;-;-;8.98114;0.076812744;0.5884552;-;-;-;-;-;-;-;-;-;-;-;-;-;-;-
1512460227933;-;-;8.970367;0.24081421;0.70217896;-;-;-;-;-;-;-;-;-;-;-;-;-;-;-
1512460227953;-;-;9.027832;0.1953125;0.8266754;-;-;-;-;-;-;-;-;-;-;-;-;-;-;-
1512460227973;-;-;9.137955;0.16059875;0.82907104;-;-;-;-;-;-;-;-;-;-;-;-;-;-;-
1512460227993;-;-;9.257675;0.12828064;0.8266754;-;-;-;-;-;-;-;-;-;-;-;-;-;-;-
1512460228014;-;-;9.305557;0.11631775;0.8123169;-;-;-;-;-;-;-;-;-;-;-;-;-;-;-
1512460228034;-;-;9.324707;0.055252075;0.77879333;-;-;-;-;-;-;-;-;-;-;-;-;-;-;-
1512460228055;-;-;9.225342;-0.05128479;0.89730835;-;-;-;-;-;-;-;-;-;-;-;-;-;-;-
1512460228075;-;-;9.143951;-0.121917725;1.0565186;-;-;-;-;-;-;-;-;-;-;-;-;-;-;-
1512460228096;-;-;9.108032;-0.11352539;1.0780792;-;-;-;-;-;-;-;-;-;-;-;-;-;-;-
1512460228115;-;-;9.06015;-0.06086731;1.0254059;-;-;-;-;-;-;-;-;-;-;-;-;-;-;-
1512460228136;-;-;9.07811;0.019348145;1.0445557;-;-;-;-;-;-;-;-;-;-;-;-;-;-;-
1512460228156;-;-;9.190628;0.06124878;0.96315;-;-;-;-;-;-;-;-;-;-;-;-;-;-;-
1512460228176;-;-;9.2313385;0.012161255;0.87934875;-;-;-;-;-;-;-;-;-;-;-;-;-;-;-
1512460228197;-;-;9.207397;0.014556885;0.8422394;-;-;-;-;-;-;-;-;-;-;-;-;-;-;-
1512460228217;-;-;9.194229;0.028915405;0.82907104;-;-;-;-;-;-;-;-;-;-;-;-;-;-;-
1512460228238;-;-;9.163101;-0.05128479;0.82429504;-;-;-;-;-;-;-;-;-;-;-;-;-;-;-
1512460228258;-;-;9.1523285;-0.04170227;0.8506317;-;-;-;-;-;-;-;-;-;-;-;-;-;-;-
1512460228279;-;-;9.184647;0.008575439;0.7943573;-;-;-;-;-;-;-;-;-;-;-;-;-;-;-
1512460228299;-;-;9.183456;0.055252075;0.7943573;-;-;-;-;-;-;-;-;-;-;-;-;-;-;-
1512460228320;-;-;9.205002;0.05885315;0.7716217;-;-;-;-;-;-;-;-;-;-;-;-;-;-;-
1512460228340;-;-;9.207397;0.0061798096;0.7464752;-;-;-;-;-;-;-;-;-;-;-;-;-;-;-
1512460228361;-;-;9.193024;-0.02973938;0.7536621;-;-;-;-;-;-;-;-;-;-;-;-;-;-;-
1512460228381;-;-;9.160706;-0.11831665;0.76683044;-;-;-;-;-;-;-;-;-;-;-;-;-;-;-
1512460228402;-;-;9.184647;-0.08958435;0.8135071;-;-;-;-;-;-;-;-;-;-;-;-;-;-;-
1512460228421;-;-;9.153519;-0.107543945;0.74168396;-;-;-;-;-;-;-;-;-;-;-;-;-;-;-
1512460228441;-;-;9.165497;-0.07043457;0.71055603;-;-;-;-;-;-;-;-;-;-;-;-;-;-;-
1512460228462;-;-;9.178665;-0.076416016;0.6447296;-;-;-;-;-;-;-;-;-;-;-;-;-;-;-
1512460228482;-;-;9.248093;0.031311035;0.6938019;-;-;-;-;-;-;-;-;-;-;-;-;-;-;-
1512460228503;-;-;9.245697;0.07800293;0.7177429;-;-;-;-;-;-;-;-;-;-;-;-;-;-;-
1512460228524;-;-;9.287598;0.08518982;0.66867065;-;-;-;-;-;-;-;-;-;-;-;-;-;-;-
1512460228544;-;-;9.125992;-0.076416016;0.860199;-;-;-;-;-;-;-;-;-;-;-;-;-;-;-
1512460228564;-;-;9.146347;-0.14465332;0.8482361;-;-;-;-;-;-;-;-;-;-;-;-;-;-;-
1512460228585;-;-;9.195419;-0.18655396;0.7692261;-;-;-;-;-;-;-;-;-;-;-;-;-;-;-
1512460228605;-;-;9.123596;-0.11592102;0.8302765;-;-;-;-;-;-;-;-;-;-;-;-;-;-;-
1512460228626;-;-;9.170288;-0.10395813;0.81710815;-;-;-;-;-;-;-;-;-;-;-;-;-;-;-
1512460228646;-;-;9.214569;-0.12550354;0.87815857;-;-;-;-;-;-;-;-;-;-;-;-;-;-;-
1512460228667;-;-;9.153519;-0.1590271;0.9416046;-;-;-;-;-;-;-;-;-;-;-;-;-;-;-
1512460228687;-;-;9.159515;-0.14944458;0.95835876;-;-;-;-;-;-;-;-;-;-;-;-;-;-;-
1512460228707;-;-;9.159515;-0.14585876;0.9535675;-;-;-;-;-;-;-;-;-;-;-;-;-;-;-
1512460228728;-;-;9.147537;-0.14704895;0.9427948;-;-;-;-;-;-;-;-;-;-;-;-;-;-;-
1512460228748;-;-;9.15831;-0.08958435;0.923645;-;-;-;-;-;-;-;-;-;-;-;-;-;-;-
1512460228769;-;-;9.213379;-0.03213501;0.8769531;-;-;-;-;-;-;-;-;-;-;-;-;-;-;-
1512460228789;-;-;9.230133;-0.05128479;0.9092865;-;-;-;-;-;-;-;-;-;-;-;-;-;-;-
1512460228810;-;-;9.199005;-0.100372314;0.88653564;-;-;-;-;-;-;-;-;-;-;-;-;-;-;-
1512460228830;-;-;9.136765;-0.12310791;0.90689087;-;-;-;-;-;-;-;-;-;-;-;-;-;-;-
1512460228851;-;-;9.136765;-0.112335205;0.9499817;-;-;-;-;-;-;-;-;-;-;-;-;-;-;-
1512460228871;-;-;9.123596;-0.109939575;0.9176636;-;-;-;-;-;-;-;-;-;-;-;-;-;-;-
1512460228892;-;-;9.153519;-0.10395813;0.9176636;-;-;-;-;-;-;-;-;-;-;-;-;-;-;-
1512460228912;-;-;9.149933;-0.090789795;0.9308319;-;-;-;-;-;-;-;-;-;-;-;-;-;-;-
1512460228933;-;-;9.184647;-0.11352539;0.92245483;-;-;-;-;-;-;-;-;-;-;-;-;-;-;-
1512460228953;-;-;9.2313385;-0.088394165;0.9116821;-;-;-;-;-;-;-;-;-;-;-;-;-;-;-
1512460228974;-;-;9.213379;-0.10635376;0.89730835;-;-;-;-;-;-;-;-;-;-;-;-;-;-;-
1512460228994;-;-;9.200211;-0.071640015;0.9104767;-;-;-;-;-;-;-;-;-;-;-;-;-;-;-
1512460229015;-;-;9.151123;-0.088394165;0.91885376;-;-;-;-;-;-;-;-;-;-;-;-;-;-;-
1512460229035;-;-;9.169083;-0.050079346;0.95477295;-;-;-;-;-;-;-;-;-;-;-;-;-;-;-
1512460229056;-;-;9.160706;-0.062057495;0.97273254;-;-;-;-;-;-;-;-;-;-;-;-;-;-;-
1512460229075;-;-;9.153519;-0.08958435;0.9535675;-;-;-;-;-;-;-;-;-;-;-;-;-;-;-
1512460229095;-;-;9.173874;-0.093185425;1.0002594;-;-;-;-;-;-;-;-;-;-;-;-;-;-;-
1512460229116;-;-;9.155914;-0.083602905;1.002655;-;-;-;-;-;-;-;-;-;-;-;-;-;-;-
1512460229136;-;-;9.143951;-0.08958435;0.96554565;-;-;-;-;-;-;-;-;-;-;-;-;-;-;-
1512460229157;-;-;9.137955;-0.093185425;0.9822998;-;-;-;-;-;-;-;-;-;-;-;-;-;-;-
1512460229177;-;-;9.172684;-0.090789795;1.0146332;-;-;-;-;-;-;-;-;-;-;-;-;-;-;-
1512460229197;-;-;9.179855;-0.121917725;1.018219;-;-;-;-;-;-;-;-;-;-;-;-;-;-;-
1512460229218;-;-;9.163101;-0.13508606;1.0254059;-;-;-;-;-;-;-;-;-;-;-;-;-;-;-
1512460229238;-;-;9.085281;-0.1590271;1.0661011;-;-;-;-;-;-;-;-;-;-;-;-;-;-;-
1512460229259;-;-;9.182251;-0.1410675;1.0242004;-;-;-;-;-;-;-;-;-;-;-;-;-;-;-
1512460229279;-;-;9.164291;-0.14585876;0.9751282;-;-;-;-;-;-;-;-;-;-;-;-;-;-;-
1512460229300;-;-;9.13916;-0.13269043;0.9775238;-;-;-;-;-;-;-;-;-;-;-;-;-;-;-
1512460229319;-;-;9.151123;-0.1530304;1.0301971;-;-;-;-;-;-;-;-;-;-;-;-;-;-;-
1512460229340;-;-;9.188232;-0.18057251;1.0768738;-;-;-;-;-;-;-;-;-;-;-;-;-;-;-
1512460229359;-;-;9.163101;-0.17817688;1.1044159;-;-;-;-;-;-;-;-;-;-;-;-;-;-;-
1512460229379;-;-;9.173874;-0.1817627;1.0433502;-;-;-;-;-;-;-;-;-;-;-;-;-;-;-
1512460229400;-;-;9.135559;-0.19493103;1.0505371;-;-;-;-;-;-;-;-;-;-;-;-;-;-;-
1512460229420;-;-;9.142746;-0.22007751;1.0601196;-;-;-;-;-;-;-;-;-;-;-;-;-;-;-
1512460229441;-;-;9.131973;-0.23085022;1.0361786;-;-;-;-;-;-;-;-;-;-;-;-;-;-;-
1512460229461;-;-;9.1523285;-0.15065002;1.0565186;-;-;-;-;-;-;-;-;-;-;-;-;-;-;-
1512460229482;-;-;9.171478;-0.17817688;1.0529327;-;-;-;-;-;-;-;-;-;-;-;-;-;-;-
1512460229502;-;-;9.1918335;-0.17098999;1.0661011;-;-;-;-;-;-;-;-;-;-;-;-;-;-;-
1512460229522;-;-;9.1918335;-0.117126465;1.0062408;-;-;-;-;-;-;-;-;-;-;-;-;-;-;-
1512460229543;-;-;9.17746;-0.10635376;1.0289917;-;-;-;-;-;-;-;-;-;-;-;-;-;-;-
1512460229562;-;-;9.155914;-0.12669373;1.0828552;-;-;-;-;-;-;-;-;-;-;-;-;-;-;-
1512460229582;-;-;9.161896;-0.16142273;1.0661011;-;-;-;-;-;-;-;-;-;-;-;-;-;-;-
1512460229603;-;-;9.123596;-0.15423584;1.0936432;-;-;-;-;-;-;-;-;-;-;-;-;-;-;-
1512460229622;-;-;9.103241;-0.17459106;1.1690521;-;-;-;-;-;-;-;-;-;-;-;-;-;-;-
1512460229642;-;-;9.12001;-0.1302948;1.1056061;-;-;-;-;-;-;-;-;-;-;-;-;-;-;-
1512460229663;-;-;9.146347;-0.119522095;1.1080017;-;-;-;-;-;-;-;-;-;-;-;-;-;-;-
1512460229683;-;-;9.183456;-0.12789917;1.0744781;-;-;-;-;-;-;-;-;-;-;-;-;-;-;-
1512460229704;-;-;9.189438;-0.1482544;1.0469513;-;-;-;-;-;-;-;-;-;-;-;-;-;-;-
1512460229725;-;-;9.206192;-0.13508606;1.0301971;-;-;-;-;-;-;-;-;-;-;-;-;-;-;-
1512460229745;-;-;9.183456;-0.12908936;1.081665;-;-;-;-;-;-;-;-;-;-;-;-;-;-;-
1512460229765;-;-;9.14035;-0.19613647;1.0708923;-;-;-;-;-;-;-;-;-;-;-;-;-;-;-
1512460229786;-;-;9.170288;-0.19613647;1.0744781;-;-;-;-;-;-;-;-;-;-;-;-;-;-;-
1512460229807;-;-;9.172684;-0.18536377;1.0649109;-;-;-;-;-;-;-;-;-;-;-;-;-;-;-
1512460229827;-;-;9.148727;-0.1877594;1.0720825;-;-;-;-;-;-;-;-;-;-;-;-;-;-;-
1512460229848;-;-;9.14035;-0.1817627;1.0673065;-;-;-;-;-;-;-;-;-;-;-;-;-;-;-
1512460229867;-;-;9.151123;-0.17936707;1.0278015;-;-;-;-;-;-;-;-;-;-;-;-;-;-;-
1512460229888;-;-;9.145142;-0.14346313;1.0912476;-;-;-;-;-;-;-;-;-;-;-;-;-;-;-
1512460229908;-;-;9.170288;-0.11592102;1.0673065;-;-;-;-;-;-;-;-;-;-;-;-;-;-;-
1512460229928;-;-;9.183456;-0.14225769;1.0206146;-;-;-;-;-;-;-;-;-;-;-;-;-;-;-
1512460229948;-;-;9.167892;-0.14465332;1.0301971;-;-;-;-;-;-;-;-;-;-;-;-;-;-;-
1512460229969;-;-;9.127182;-0.13986206;1.0900421;-;-;-;-;-;-;-;-;-;-;-;-;-;-;-
1512460229988;-;-;9.179855;-0.12310791;1.0696869;-;-;-;-;-;-;-;-;-;-;-;-;-;-;-
1512460230008;-;-;9.160706;-0.088394165;1.0433502;-;-;-;-;-;-;-;-;-;-;-;-;-;-;-
1512460230029;-;-;9.137955;-0.10635376;1.112793;-;-;-;-;-;-;-;-;-;-;-;-;-;-;-
1512460230048;-;-;9.193024;-0.093185425;1.0744781;-;-;-;-;-;-;-;-;-;-;-;-;-;-;-
1512460230069;-;-;9.149933;-0.11592102;1.0708923;-;-;-;-;-;-;-;-;-;-;-;-;-;-;-
1512460230089;-;-;9.122391;-0.090789795;1.0912476;-;-;-;-;-;-;-;-;-;-;-;-;-;-;-
1512460230109;-;-;9.167892;-0.064453125;1.0649109;-;-;-;-;-;-;-;-;-;-;-;-;-;-;-
1512460230130;-;-;9.170288;-0.078811646;1.0673065;-;-;-;-;-;-;-;-;-;-;-;-;-;-;-
1512460230150;-;-;9.141556;-0.121917725;1.0493469;-;-;-;-;-;-;-;-;-;-;-;-;-;-;-
1512460230171;-;-;9.147537;-0.12071228;1.0194092;-;-;-;-;-;-;-;-;-;-;-;-;-;-;-
1512460230192;-;-;9.165497;-0.10395813;1.0433502;-;-;-;-;-;-;-;-;-;-;-;-;-;-;-
1512460230212;-;-;9.205002;-0.13986206;1.0852509;-;-;-;-;-;-;-;-;-;-;-;-;-;-;-
1512460230233;-;-;9.17627;-0.112335205;1.0361786;-;-;-;-;-;-;-;-;-;-;-;-;-;-;-
1512460230253;-;-;9.163101;-0.11352539;1.0194092;-;-;-;-;-;-;-;-;-;-;-;-;-;-;-
1512460230274;-;-;9.128387;-0.10395813;1.0601196;-;-;-;-;-;-;-;-;-;-;-;-;-;-;-
1512460230293;-;-;9.137955;-0.13986206;1.0301971;-;-;-;-;-;-;-;-;-;-;-;-;-;-;-
1512460230314;-;-;9.193024;-0.15423584;1.0792694;-;-;-;-;-;-;-;-;-;-;-;-;-;-;-
1512460230334;-;-;9.171478;-0.13748169;1.0852509;-;-;-;-;-;-;-;-;-;-;-;-;-;-;-
1512460230355;-;-;9.153519;-0.17338562;1.0912476;-;-;-;-;-;-;-;-;-;-;-;-;-;-;-
1512460230374;-;-;9.17746;-0.14346313;1.1163788;-;-;-;-;-;-;-;-;-;-;-;-;-;-;-
1512460230395;-;-;9.125992;-0.09677124;1.0349731;-;-;-;-;-;-;-;-;-;-;-;-;-;-;-
1512460230414;-;-;9.167892;-0.107543945;1.0194092;-;-;-;-;-;-;-;-;-;-;-;-;-;-;-
1512460230434;-;-;9.171478;-0.13148499;1.0541382;-;-;-;-;-;-;-;-;-;-;-;-;-;-;-
1512460230455;-;-;9.181061;-0.17219543;1.04216;-;-;-;-;-;-;-;-;-;-;-;-;-;-;-
1512460230475;-;-;9.169083;-0.14704895;1.0074463;-;-;-;-;-;-;-;-;-;-;-;-;-;-;-
1512460230496;-;-;9.148727;-0.13148499;1.0409698;-;-;-;-;-;-;-;-;-;-;-;-;-;-;-
1512460230516;-;-;9.13916;-0.13748169;1.0254059;-;-;-;-;-;-;-;-;-;-;-;-;-;-;-
1512460230537;-;-;9.137955;-0.1530304;1.0409698;-;-;-;-;-;-;-;-;-;-;-;-;-;-;-
1512460230557;-;-;9.136765;-0.1530304;1.0433502;-;-;-;-;-;-;-;-;-;-;-;-;-;-;-
1512460230578;-;-;9.163101;-0.119522095;0.9703369;-;-;-;-;-;-;-;-;-;-;-;-;-;-;-
1512460230598;-;-;9.17627;-0.107543945;1.0122375;-;-;-;-;-;-;-;-;-;-;-;-;-;-;-
1512460230618;-;-;9.170288;-0.1015625;1.0265961;-;-;-;-;-;-;-;-;-;-;-;-;-;-;-
1512460230639;-;-;9.124786;-0.10874939;1.0673065;-;-;-;-;-;-;-;-;-;-;-;-;-;-;-
1512460230659;-;-;9.179855;-0.124313354;1.0086365;-;-;-;-;-;-;-;-;-;-;-;-;-;-;-
1512460230679;-;-;9.189438;-0.1697998;0.9607544;-;-;-;-;-;-;-;-;-;-;-;-;-;-;-
1512460230700;-;-;9.110428;-0.15184021;1.0038605;-;-;-;-;-;-;-;-;-;-;-;-;-;-;-
1512460230720;-;-;9.1523285;-0.1302948;1.0301971;-;-;-;-;-;-;-;-;-;-;-;-;-;-;-
1512460230740;-;-;9.133179;-0.14346313;0.9272461;-;-;-;-;-;-;-;-;-;-;-;-;-;-;-
1512460230761;-;-;9.153519;-0.090789795;0.9571686;-;-;-;-;-;-;-;-;-;-;-;-;-;-;-
1512460230781;-;-;9.208588;-0.124313354;0.9930725;-;-;-;-;-;-;-;-;-;-;-;-;-;-;-
1512460230802;-;-;9.184647;-0.11592102;1.0038605;-;-;-;-;-;-;-;-;-;-;-;-;-;-;-
1512460230823;-;-;9.135559;-0.11831665;0.97273254;-;-;-;-;-;-;-;-;-;-;-;-;-;-;-
1512460230843;-;-;9.12001;-0.14346313;0.9775238;-;-;-;-;-;-;-;-;-;-;-;-;-;-;-
1512460230863;-;-;9.102051;-0.1530304;0.9284363;-;-;-;-;-;-;-;-;-;-;-;-;-;-;-
1512460230884;-;-;9.164291;-0.19972229;0.9056854;-;-;-;-;-;-;-;-;-;-;-;-;-;-;-
1512460230905;-;-;9.21936;-0.18894958;0.92962646;-;-;-;-;-;-;-;-;-;-;-;-;-;-;-
1512460230925;-;-;9.163101;-0.12908936;0.98709106;-;-;-;-;-;-;-;-;-;-;-;-;-;-;-
1512460230946;-;-;9.179855;-0.12908936;0.99786377;-;-;-;-;-;-;-;-;-;-;-;-;-;-;-
1512460230965;-;-;9.179855;-0.100372314;0.96673584;-;-;-;-;-;-;-;-;-;-;-;-;-;-;-
1512460230985;-;-;9.141556;-0.114730835;0.9451904;-;-;-;-;-;-;-;-;-;-;-;-;-;-;-
1512460231006;-;-;9.17627;-0.11114502;0.9703369;-;-;-;-;-;-;-;-;-;-;-;-;-;-;-
1512460231026;-;-;9.128387;-0.14585876;0.97273254;-;-;-;-;-;-;-;-;-;-;-;-;-;-;-
1512460231047;-;-;9.159515;-0.17578125;1.0278015;-;-;-;-;-;-;-;-;-;-;-;-;-;-;-
1512460231068;-;-;9.159515;-0.16381836;1.0325775;-;-;-;-;-;-;-;-;-;-;-;-;-;-;-
1512460231087;-;-;9.155914;-0.18536377;1.0074463;-;-;-;-;-;-;-;-;-;-;-;-;-;-;-
1512460231108;-;-;9.153519;-0.17459106;1.0218048;-;-;-;-;-;-;-;-;-;-;-;-;-;-;-
1512460231128;-;-;9.154724;-0.16381836;0.9859009;-;-;-;-;-;-;-;-;-;-;-;-;-;-;-
1512460231149;-;-;9.154724;-0.1530304;1.0206146;-;-;-;-;-;-;-;-;-;-;-;-;-;-;-
1512460231169;-;-;9.13916;-0.12908936;1.0230103;-;-;-;-;-;-;-;-;-;-;-;-;-;-;-
1512460231189;-;-;9.154724;-0.16740417;1.0194092;-;-;-;-;-;-;-;-;-;-;-;-;-;-;-
1512460231210;-;-;9.184647;-0.17338562;1.0457458;-;-;-;-;-;-;-;-;-;-;-;-;-;-;-
1512460231230;-;-;9.164291;-0.1877594;1.0409698;-;-;-;-;-;-;-;-;-;-;-;-;-;-;-
1512460231251;-;-;9.193024;-0.14465332;1.0804749;-;-;-;-;-;-;-;-;-;-;-;-;-;-;-
1512460231271;-;-;9.163101;-0.15423584;1.0661011;-;-;-;-;-;-;-;-;-;-;-;-;-;-;-
1512460231291;-;-;9.194229;-0.13627625;0.9882965;-;-;-;-;-;-;-;-;-;-;-;-;-;-;-
1512460231312;-;-;9.155914;-0.21768188;1.0194092;-;-;-;-;-;-;-;-;-;-;-;-;-;-;-
1512460231332;-;-;9.149933;-0.19732666;1.057724;-;-;-;-;-;-;-;-;-;-;-;-;-;-;-
1512460231353;-;-;9.194229;-0.109939575;1.0397644;-;-;-;-;-;-;-;-;-;-;-;-;-;-;-
1512460231373;-;-;9.171478;-0.15542603;0.9930725;-;-;-;-;-;-;-;-;-;-;-;-;-;-;-
1512460231394;-;-;9.14035;-0.1302948;1.0984192;-;-;-;-;-;-;-;-;-;-;-;-;-;-;-
1512460231414;-;-;9.171478;-0.119522095;1.0864563;-;-;-;-;-;-;-;-;-;-;-;-;-;-;-
1512460231434;-;-;9.15831;-0.08958435;1.0373688;-;-;-;-;-;-;-;-;-;-;-;-;-;-;-
1512460231455;-;-;9.109222;-0.04170227;1.0409698;-;-;-;-;-;-;-;-;-;-;-;-;-;-;-
1512460231476;-;-;9.175064;-0.05368042;1.0780792;-;-;-;-;-;-;-;-;-;-;-;-;-;-;-
1512460231496;-;-;9.175064;-0.09916687;1.1295471;-;-;-;-;-;-;-;-;-;-;-;-;-;-;-
1512460231517;-;-;9.151123;-0.08480835;1.1463013;-;-;-;-;-;-;-;-;-;-;-;-;-;-;-
1512460231536;-;-;9.165497;-0.08480835;1.1510925;-;-;-;-;-;-;-;-;-;-;-;-;-;-;-
1512460231556;-;-;9.110428;-0.102752686;1.1331329;-;-;-;-;-;-;-;-;-;-;-;-;-;-;-
1512460231576;-;-;9.108032;-0.16619873;1.1008148;-;-;-;-;-;-;-;-;-;-;-;-;-;-;-
1512460231597;-;-;9.179855;-0.16859436;1.0481415;-;-;-;-;-;-;-;-;-;-;-;-;-;-;-
1512460231618;-;-;9.161896;-0.15423584;1.0661011;-;-;-;-;-;-;-;-;-;-;-;-;-;-;-
1512460231638;-;-;9.208588;-0.14346313;1.0948334;-;-;-;-;-;-;-;-;-;-;-;-;-;-;-
1512460231659;-;-;9.189438;-0.11592102;1.0206146;-;-;-;-;-;-;-;-;-;-;-;-;-;-;-
1512460231679;-;-;9.134369;-0.107543945;0.99786377;-;-;-;-;-;-;-;-;-;-;-;-;-;-;-
1512460231700;-;-;9.123596;-0.083602905;0.99427795;-;-;-;-;-;-;-;-;-;-;-;-;-;-;-
1512460231719;-;-;9.128387;-0.14225769;1.0541382;-;-;-;-;-;-;-;-;-;-;-;-;-;-;-
1512460231739;-;-;9.1523285;-0.1590271;1.0625153;-;-;-;-;-;-;-;-;-;-;-;-;-;-;-
1512460231760;-;-;9.165497;-0.1877594;1.0684967;-;-;-;-;-;-;-;-;-;-;-;-;-;-;-
1512460231781;-;-;9.169083;-0.16740417;1.081665;-;-;-;-;-;-;-;-;-;-;-;-;-;-;-
1512460231801;-;-;9.17627;-0.121917725;1.081665;-;-;-;-;-;-;-;-;-;-;-;-;-;-;-
1512460231822;-;-;9.155914;-0.13508606;1.0601196;-;-;-;-;-;-;-;-;-;-;-;-;-;-;-
1512460231842;-;-;9.151123;-0.09437561;1.0888519;-;-;-;-;-;-;-;-;-;-;-;-;-;-;-
1512460231862;-;-;9.143951;-0.11831665;1.12117;-;-;-;-;-;-;-;-;-;-;-;-;-;-;-
1512460231883;-;-;9.129578;-0.114730835;1.073288;-;-;-;-;-;-;-;-;-;-;-;-;-;-;-
1512460231904;-;-;9.143951;-0.105148315;1.0936432;-;-;-;-;-;-;-;-;-;-;-;-;-;-;-
1512460231924;-;-;9.134369;-0.105148315;1.1032104;-;-;-;-;-;-;-;-;-;-;-;-;-;-;-
1512460231945;-;-;9.164291;-0.100372314;1.0840607;-;-;-;-;-;-;-;-;-;-;-;-;-;-;-
1512460231965;-;-;9.145142;-0.090789795;1.0469513;-;-;-;-;-;-;-;-;-;-;-;-;-;-;-
1512460231985;-;-;9.173874;-0.11114502;1.0960236;-;-;-;-;-;-;-;-;-;-;-;-;-;-;-
1512460232006;-;-;9.149933;-0.114730835;1.0924377;-;-;-;-;-;-;-;-;-;-;-;-;-;-;-
1512460232027;-;-;9.133179;-0.09916687;1.057724;-;-;-;-;-;-;-;-;-;-;-;-;-;-;-
1512460232047;-;-;9.124786;-0.13508606;1.1080017;-;-;-;-;-;-;-;-;-;-;-;-;-;-;-
1512460232068;-;-;9.172684;-0.16740417;0.99546814;-;-;-;-;-;-;-;-;-;-;-;-;-;-;-
1512460232088;-;-;9.100845;-0.15663147;1.1103973;-;-;-;-;-;-;-;-;-;-;-;-;-;-;-
1512460232108;-;-;9.15831;-0.13269043;1.0828552;-;-;-;-;-;-;-;-;-;-;-;-;-;-;-
1512460232129;-;-;9.161896;-0.14585876;0.9451904;-;-;-;-;-;-;-;-;-;-;-;-;-;-;-
1512460232149;-;-;9.134369;-0.109939575;0.9811096;-;-;-;-;-;-;-;-;-;-;-;-;-;-;-
1512460232170;-;-;9.184647;-0.13867188;1.0218048;-;-;-;-;-;-;-;-;-;-;-;-;-;-;-
1512460232190;-;-;9.178665;-0.15782166;1.0780792;-;-;-;-;-;-;-;-;-;-;-;-;-;-;-
1512460232210;-;-;9.136765;-0.12071228;1.0840607;-;-;-;-;-;-;-;-;-;-;-;-;-;-;-
1512460232231;-;-;9.130783;-0.11114502;1.0481415;-;-;-;-;-;-;-;-;-;-;-;-;-;-;-
1512460232251;-;-;9.137955;-0.105148315;1.0505371;-;-;-;-;-;-;-;-;-;-;-;-;-;-;-
1512460232272;-;-;9.115219;-0.14704895;1.0289917;-;-;-;-;-;-;-;-;-;-;-;-;-;-;-
1512460232292;-;-;9.149933;-0.16381836;1.057724;-;-;-;-;-;-;-;-;-;-;-;-;-;-;-
1512460232313;-;-;9.171478;-0.16500854;1.073288;-;-;-;-;-;-;-;-;-;-;-;-;-;-;-
1512460232333;-;-;9.181061;-0.13748169;1.0529327;-;-;-;-;-;-;-;-;-;-;-;-;-;-;-
1512460232354;-;-;9.203796;-0.121917725;1.0613098;-;-;-;-;-;-;-;-;-;-;-;-;-;-;-
1512460232374;-;-;9.15712;-0.12550354;1.057724;-;-;-;-;-;-;-;-;-;-;-;-;-;-;-
1512460232394;-;-;9.121201;-0.105148315;1.0589142;-;-;-;-;-;-;-;-;-;-;-;-;-;-;-
1512460232415;-;-;9.131973;-0.114730835;1.1091919;-;-;-;-;-;-;-;-;-;-;-;-;-;-;-
1512460232435;-;-;9.135559;-0.16859436;1.0649109;-;-;-;-;-;-;-;-;-;-;-;-;-;-;-
1512460232456;-;-;9.147537;-0.14944458;1.0505371;-;-;-;-;-;-;-;-;-;-;-;-;-;-;-
1512460232476;-;-;9.167892;-0.15065002;1.0720825;-;-;-;-;-;-;-;-;-;-;-;-;-;-;-
1512460232497;-;-;9.202606;-0.117126465;1.0505371;-;-;-;-;-;-;-;-;-;-;-;-;-;-;-
1512460232517;-;-;9.200211;-0.15423584;1.0254059;-;-;-;-;-;-;-;-;-;-;-;-;-;-;-
1512460232538;-;-;9.208588;-0.16142273;1.073288;-;-;-;-;-;-;-;-;-;-;-;-;-;-;-
1512460232557;-;-;9.167892;-0.14944458;1.0625153;-;-;-;-;-;-;-;-;-;-;-;-;-;-;-
1512460232578;-;-;9.170288;-0.13388062;1.0361786;-;-;-;-;-;-;-;-;-;-;-;-;-;-;-
1512460232598;-;-;9.160706;-0.13148499;1.04216;-;-;-;-;-;-;-;-;-;-;-;-;-;-;-
1512460232619;-;-;9.142746;-0.124313354;1.0696869;-;-;-;-;-;-;-;-;-;-;-;-;-;-;-
1512460232639;-;-;9.165497;-0.16261292;1.0409698;-;-;-;-;-;-;-;-;-;-;-;-;-;-;-
1512460232660;-;-;9.210983;-0.17219543;0.9679413;-;-;-;-;-;-;-;-;-;-;-;-;-;-;-
1512460232680;-;-;9.181061;-0.14465332;1.0014648;-;-;-;-;-;-;-;-;-;-;-;-;-;-;-
1512460232701;-;-;9.151123;-0.1590271;1.0218048;-;-;-;-;-;-;-;-;-;-;-;-;-;-;-
1512460232721;-;-;9.166687;-0.119522095;1.0780792;-;-;-;-;-;-;-;-;-;-;-;-;-;-;-
1512460232742;-;-;9.202606;-0.15423584;1.0385742;-;-;-;-;-;-;-;-;-;-;-;-;-;-;-
1512460232762;-;-;9.175064;-0.20451355;1.0361786;-;-;-;-;-;-;-;-;-;-;-;-;-;-;-
1512460232783;-;-;9.114014;-0.17459106;1.1139832;-;-;-;-;-;-;-;-;-;-;-;-;-;-;-
1512460232802;-;-;9.206192;-0.1530304;1.073288;-;-;-;-;-;-;-;-;-;-;-;-;-;-;-
1512460232822;-;-;9.134369;-0.15542603;1.0062408;-;-;-;-;-;-;-;-;-;-;-;-;-;-;-
1512460232843;-;-;9.161896;-0.12908936;1.0385742;-;-;-;-;-;-;-;-;-;-;-;-;-;-;-
1512460232863;-;-;9.209793;-0.17219543;1.0625153;-;-;-;-;-;-;-;-;-;-;-;-;-;-;-
1512460232883;-;-;9.193024;-0.14704895;1.073288;-;-;-;-;-;-;-;-;-;-;-;-;-;-;-
1512460232905;-;-;9.121201;-0.12908936;1.0684967;-;-;-;-;-;-;-;-;-;-;-;-;-;-;-
1512460232924;-;-;9.122391;-0.13269043;1.0565186;-;-;-;-;-;-;-;-;-;-;-;-;-;-;-
1512460232944;-;-;9.07811;-0.17578125;1.0074463;-;-;-;-;-;-;-;-;-;-;-;-;-;-;-
1512460232965;-;-;9.149933;-0.17459106;1.0325775;-;-;-;-;-;-;-;-;-;-;-;-;-;-;-
1512460232985;-;-;9.159515;-0.1877594;1.0301971;-;-;-;-;-;-;-;-;-;-;-;-;-;-;-
1512460233005;-;-;9.185837;-0.1590271;1.0804749;-;-;-;-;-;-;-;-;-;-;-;-;-;-;-
1512460233026;-;-;9.208588;-0.13148499;1.033783;-;-;-;-;-;-;-;-;-;-;-;-;-;-;-
1512460233047;-;-;9.206192;-0.16021729;1.0278015;-;-;-;-;-;-;-;-;-;-;-;-;-;-;-
1512460233067;-;-;9.175064;-0.1530304;0.95596313;-;-;-;-;-;-;-;-;-;-;-;-;-;-;-
1512460233088;-;-;9.170288;-0.1817627;0.9595642;-;-;-;-;-;-;-;-;-;-;-;-;-;-;-
1512460233108;-;-;9.151123;-0.15663147;1.0325775;-;-;-;-;-;-;-;-;-;-;-;-;-;-;-
1512460233129;-;-;9.12001;-0.13748169;1.0661011;-;-;-;-;-;-;-;-;-;-;-;-;-;-;-
1512460233149;-;-;9.127182;-0.112335205;1.0397644;-;-;-;-;-;-;-;-;-;-;-;-;-;-;-
1512460233170;-;-;9.136765;-0.16021729;1.0565186;-;-;-;-;-;-;-;-;-;-;-;-;-;-;-
1512460233190;-;-;9.166687;-0.19374084;1.0134277;-;-;-;-;-;-;-;-;-;-;-;-;-;-;-
1512460233211;-;-;9.163101;-0.16619873;1.0098419;-;-;-;-;-;-;-;-;-;-;-;-;-;-;-
1512460233230;-;-;9.1918335;-0.16021729;1.0289917;-;-;-;-;-;-;-;-;-;-;-;-;-;-;-
1512460233251;-;-;9.184647;-0.14346313;1.0230103;-;-;-;-;-;-;-;-;-;-;-;-;-;-;-
1512460233271;-;-;9.145142;-0.13986206;1.0050507;-;-;-;-;-;-;-;-;-;-;-;-;-;-;-
1512460233292;-;-;9.151123;-0.09437561;1.0170288;-;-;-;-;-;-;-;-;-;-;-;-;-;-;-
1512460233312;-;-;9.17746;-0.102752686;1.0385742;-;-;-;-;-;-;-;-;-;-;-;-;-;-;-
1512460233333;-;-;9.163101;-0.15184021;0.99069214;-;-;-;-;-;-;-;-;-;-;-;-;-;-;-
1512460233353;-;-;9.153519;-0.13627625;1.0206146;-;-;-;-;-;-;-;-;-;-;-;-;-;-;-
1512460233373;-;-;9.125992;-0.11831665;1.0373688;-;-;-;-;-;-;-;-;-;-;-;-;-;-;-
1512460233394;-;-;9.187042;-0.15663147;1.0122375;-;-;-;-;-;-;-;-;-;-;-;-;-;-;-
1512460233415;-;-;9.185837;-0.1530304;0.9990692;-;-;-;-;-;-;-;-;-;-;-;-;-;-;-
1512460233436;-;-;9.122391;-0.09677124;1.0325775;-;-;-;-;-;-;-;-;-;-;-;-;-;-;-
1512460233456;-;-;9.210983;-0.12669373;1.0673065;-;-;-;-;-;-;-;-;-;-;-;-;-;-;-
1512460233476;-;-;9.147537;-0.13748169;1.0170288;-;-;-;-;-;-;-;-;-;-;-;-;-;-;-
1512460233497;-;-;9.103241;-0.13627625;1.0649109;-;-;-;-;-;-;-;-;-;-;-;-;-;-;-
1512460233518;-;-;9.182251;-0.121917725;1.1103973;-;-;-;-;-;-;-;-;-;-;-;-;-;-;-
1512460233538;-;-;9.159515;-0.1482544;1.152298;-;-;-;-;-;-;-;-;-;-;-;-;-;-;-
1512460233559;-;-;9.161896;-0.16021729;1.1223602;-;-;-;-;-;-;-;-;-;-;-;-;-;-;-
1512460233579;-;-;9.175064;-0.13269043;1.0553284;-;-;-;-;-;-;-;-;-;-;-;-;-;-;-
1512460233599;-;-;9.135559;-0.102752686;1.0361786;-;-;-;-;-;-;-;-;-;-;-;-;-;-;-
1512460233620;-;-;9.128387;-0.13508606;1.0002594;-;-;-;-;-;-;-;-;-;-;-;-;-;-;-
1512460233640;-;-;9.194229;-0.15065002;0.9595642;-;-;-;-;-;-;-;-;-;-;-;-;-;-;-
1512460233661;-;-;9.200211;-0.13508606;0.93322754;-;-;-;-;-;-;-;-;-;-;-;-;-;-;-
1512460233681;-;-;9.197815;-0.09677124;0.9775238;-;-;-;-;-;-;-;-;-;-;-;-;-;-;-
1512460233702;-;-;9.175064;-0.1302948;1.0170288;-;-;-;-;-;-;-;-;-;-;-;-;-;-;-
1512460233722;-;-;9.145142;-0.10635376;1.0158234;-;-;-;-;-;-;-;-;-;-;-;-;-;-;-
1512460233742;-;-;9.133179;-0.114730835;1.033783;-;-;-;-;-;-;-;-;-;-;-;-;-;-;-
1512460233763;-;-;9.143951;-0.112335205;1.0265961;-;-;-;-;-;-;-;-;-;-;-;-;-;-;-
1512460233784;-;-;9.172684;-0.114730835;1.0098419;-;-;-;-;-;-;-;-;-;-;-;-;-;-;-
1512460233804;-;-;9.148727;-0.12669373;1.0218048;-;-;-;-;-;-;-;-;-;-;-;-;-;-;-
1512460233824;-;-;9.17746;-0.13148499;1.0553284;-;-;-;-;-;-;-;-;-;-;-;-;-;-;-
1512460233845;-;-;9.188232;-0.11114502;1.0744781;-;-;-;-;-;-;-;-;-;-;-;-;-;-;-
1512460233865;-;-;9.15712;-0.11831665;1.0996246;-;-;-;-;-;-;-;-;-;-;-;-;-;-;-
1512460233887;-;-;9.145142;-0.109939575;1.0493469;-;-;-;-;-;-;-;-;-;-;-;-;-;-;-
1512460233907;-;-;9.167892;-0.109939575;1.0385742;-;-;-;-;-;-;-;-;-;-;-;-;-;-;-
1512460233928;-;-;9.154724;-0.121917725;1.0457458;-;-;-;-;-;-;-;-;-;-;-;-;-;-;-
1512460233947;-;-;9.188232;-0.09197998;1.0409698;-;-;-;-;-;-;-;-;-;-;-;-;-;-;-
1512460233967;-;-;9.159515;-0.09197998;1.0098419;-;-;-;-;-;-;-;-;-;-;-;-;-;-;-
1512460233987;-;-;9.141556;-0.12550354;1.0146332;-;-;-;-;-;-;-;-;-;-;-;-;-;-;-
1512460234008;-;-;9.148727;-0.08480835;1.0074463;-;-;-;-;-;-;-;-;-;-;-;-;-;-;-
1512460234028;-;-;9.17746;-0.08958435;1.0541382;-;-;-;-;-;-;-;-;-;-;-;-;-;-;-
1512460234049;-;-;9.197815;-0.12789917;0.99069214;-;-;-;-;-;-;-;-;-;-;-;-;-;-;-
1512460234069;-;-;9.173874;-0.15663147;0.98350525;-;-;-;-;-;-;-;-;-;-;-;-;-;-;-
1512460234090;-;-;9.115219;-0.14585876;1.0804749;-;-;-;-;-;-;-;-;-;-;-;-;-;-;-
1512460234110;-;-;9.205002;-0.121917725;1.0062408;-;-;-;-;-;-;-;-;-;-;-;-;-;-;-
1512460234131;-;-;9.103241;-0.069244385;1.0122375;-;-;-;-;-;-;-;-;-;-;-;-;-;-;-
1512460234151;-;-;9.167892;-0.078811646;1.0278015;-;-;-;-;-;-;-;-;-;-;-;-;-;-;-
1512460234172;-;-;9.199005;-0.14585876;1.0744781;-;-;-;-;-;-;-;-;-;-;-;-;-;-;-
1512460234193;-;-;9.170288;-0.14944458;1.081665;-;-;-;-;-;-;-;-;-;-;-;-;-;-;-
1512460234213;-;-;9.135559;-0.1302948;1.0792694;-;-;-;-;-;-;-;-;-;-;-;-;-;-;-
1512460234234;-;-;9.145142;-0.100372314;1.0565186;-;-;-;-;-;-;-;-;-;-;-;-;-;-;-
1512460234253;-;-;9.106842;-0.083602905;1.0206146;-;-;-;-;-;-;-;-;-;-;-;-;-;-;-
1512460234273;-;-;9.151123;-0.088394165;0.99546814;-;-;-;-;-;-;-;-;-;-;-;-;-;-;-
1512460234294;-;-;9.212173;-0.11352539;1.0074463;-;-;-;-;-;-;-;-;-;-;-;-;-;-;-
1512460234314;-;-;9.214569;-0.15782166;1.018219;-;-;-;-;-;-;-;-;-;-;-;-;-;-;-
1512460234335;-;-;9.232529;-0.09677124;1.0349731;-;-;-;-;-;-;-;-;-;-;-;-;-;-;-
1512460234355;-;-;9.154724;-0.095581055;1.0038605;-;-;-;-;-;-;-;-;-;-;-;-;-;-;-
1512460234376;-;-;9.099655;-0.08241272;1.0720825;-;-;-;-;-;-;-;-;-;-;-;-;-;-;-
1512460234396;-;-;9.135559;-0.13748169;1.081665;-;-;-;-;-;-;-;-;-;-;-;-;-;-;-
1512460234416;-;-;9.15831;-0.1530304;1.0996246;-;-;-;-;-;-;-;-;-;-;-;-;-;-;-
1512460234437;-;-;9.1523285;-0.1410675;1.0708923;-;-;-;-;-;-;-;-;-;-;-;-;-;-;-
1512460234457;-;-;9.145142;-0.09197998;1.097229;-;-;-;-;-;-;-;-;-;-;-;-;-;-;-
1512460234478;-;-;9.183456;-0.08001709;1.04216;-;-;-;-;-;-;-;-;-;-;-;-;-;-;-
1512460234499;-;-;9.171478;-0.11114502;1.0756836;-;-;-;-;-;-;-;-;-;-;-;-;-;-;-
1512460234518;-;-;9.146347;-0.13148499;1.0469513;-;-;-;-;-;-;-;-;-;-;-;-;-;-;-
1512460234539;-;-;9.1523285;-0.12908936;1.0792694;-;-;-;-;-;-;-;-;-;-;-;-;-;-;-
1512460234559;-;-;9.142746;-0.11114502;1.0661011;-;-;-;-;-;-;-;-;-;-;-;-;-;-;-
1512460234580;-;-;9.131973;-0.1015625;1.0433502;-;-;-;-;-;-;-;-;-;-;-;-;-;-;-
1512460234600;-;-;9.155914;-0.109939575;1.0505371;-;-;-;-;-;-;-;-;-;-;-;-;-;-;-
1512460234621;-;-;9.187042;-0.10874939;1.0254059;-;-;-;-;-;-;-;-;-;-;-;-;-;-;-
1512460234642;-;-;9.143951;-0.09437561;1.0409698;-;-;-;-;-;-;-;-;-;-;-;-;-;-;-
1512460234662;-;-;9.15831;-0.117126465;1.0170288;-;-;-;-;-;-;-;-;-;-;-;-;-;-;-
1512460234682;-;-;9.127182;-0.117126465;1.0469513;-;-;-;-;-;-;-;-;-;-;-;-;-;-;-
1512460234703;-;-;9.189438;-0.11114502;1.0744781;-;-;-;-;-;-;-;-;-;-;-;-;-;-;-
1512460234724;-;-;9.155914;-0.15423584;1.0301971;-;-;-;-;-;-;-;-;-;-;-;-;-;-;-
1512460234744;-;-;9.116409;-0.1530304;1.0289917;-;-;-;-;-;-;-;-;-;-;-;-;-;-;-
1512460234764;-;-;9.205002;-0.14465332;1.057724;-;-;-;-;-;-;-;-;-;-;-;-;-;-;-
1512460234785;-;-;9.137955;-0.11114502;1.0146332;-;-;-;-;-;-;-;-;-;-;-;-;-;-;-
1512460234805;-;-;9.166687;-0.13986206;1.0313873;-;-;-;-;-;-;-;-;-;-;-;-;-;-;-
1512460234825;-;-;9.215775;-0.15184021;1.0756836;-;-;-;-;-;-;-;-;-;-;-;-;-;-;-
1512460234846;-;-;9.202606;-0.13269043;1.0529327;-;-;-;-;-;-;-;-;-;-;-;-;-;-;-
1512460234867;-;-;9.205002;-0.12071228;1.1139832;-;-;-;-;-;-;-;-;-;-;-;-;-;-;-
1512460234886;-;-;9.164291;-0.11831665;1.0840607;-;-;-;-;-;-;-;-;-;-;-;-;-;-;-
1512460234907;-;-;9.108032;-0.10874939;1.057724;-;-;-;-;-;-;-;-;-;-;-;-;-;-;-
1512460234927;-;-;9.124786;-0.08001709;1.0457458;-;-;-;-;-;-;-;-;-;-;-;-;-;-;-
1512460234948;-;-;9.164291;-0.09197998;1.0397644;-;-;-;-;-;-;-;-;-;-;-;-;-;-;-
1512460234968;-;-;9.188232;-0.093185425;1.0601196;-;-;-;-;-;-;-;-;-;-;-;-;-;-;-
1512460234988;-;-;9.201401;-0.083602905;1.0541382;-;-;-;-;-;-;-;-;-;-;-;-;-;-;-
1512460235009;-;-;9.164291;-0.08720398;1.0457458;-;-;-;-;-;-;-;-;-;-;-;-;-;-;-
1512460235029;-;-;9.135559;-0.059661865;1.0780792;-;-;-;-;-;-;-;-;-;-;-;-;-;-;-
1512460235049;-;-;9.135559;-0.06803894;1.0445557;-;-;-;-;-;-;-;-;-;-;-;-;-;-;-
1512460235070;-;-;9.100845;-0.06324768;1.0553284;-;-;-;-;-;-;-;-;-;-;-;-;-;-;-
1512460235089;-;-;9.123596;-0.071640015;1.0661011;-;-;-;-;-;-;-;-;-;-;-;-;-;-;-
1512460235110;-;-;9.163101;-0.09437561;1.0852509;-;-;-;-;-;-;-;-;-;-;-;-;-;-;-
1512460235130;-;-;9.1918335;-0.1015625;1.0517426;-;-;-;-;-;-;-;-;-;-;-;-;-;-;-
1512460235150;-;-;9.203796;-0.10874939;1.0254059;-;-;-;-;-;-;-;-;-;-;-;-;-;-;-
1512460235171;-;-;9.154724;-0.09916687;1.0122375;-;-;-;-;-;-;-;-;-;-;-;-;-;-;-
1512460235191;-;-;9.122391;-0.09677124;1.1056061;-;-;-;-;-;-;-;-;-;-;-;-;-;-;-
1512460235212;-;-;9.142746;-0.1015625;1.0529327;-;-;-;-;-;-;-;-;-;-;-;-;-;-;-
1512460235232;-;-;9.160706;-0.12908936;1.0625153;-;-;-;-;-;-;-;-;-;-;-;-;-;-;-
1512460235253;-;-;9.1523285;-0.09677124;0.9859009;-;-;-;-;-;-;-;-;-;-;-;-;-;-;-
1512460235273;-;-;9.170288;-0.08720398;1.0242004;-;-;-;-;-;-;-;-;-;-;-;-;-;-;-
1512460235294;-;-;9.173874;-0.074035645;1.0278015;-;-;-;-;-;-;-;-;-;-;-;-;-;-;-
1512460235314;-;-;9.14035;-0.102752686;1.0589142;-;-;-;-;-;-;-;-;-;-;-;-;-;-;-
1512460235335;-;-;9.13916;-0.09197998;1.0325775;-;-;-;-;-;-;-;-;-;-;-;-;-;-;-
1512460235354;-;-;9.200211;-0.06324768;1.0349731;-;-;-;-;-;-;-;-;-;-;-;-;-;-;-
1512460235375;-;-;9.182251;-0.12550354;1.0170288;-;-;-;-;-;-;-;-;-;-;-;-;-;-;-
1512460235394;-;-;9.103241;-0.102752686;1.0158234;-;-;-;-;-;-;-;-;-;-;-;-;-;-;-
1512460235414;-;-;9.178665;-0.109939575;1.033783;-;-;-;-;-;-;-;-;-;-;-;-;-;-;-
1512460235435;-;-;9.145142;-0.12550354;1.0313873;-;-;-;-;-;-;-;-;-;-;-;-;-;-;-
1512460235455;-;-;9.151123;-0.093185425;1.0601196;-;-;-;-;-;-;-;-;-;-;-;-;-;-;-
1512460235476;-;-;9.205002;-0.05368042;1.0493469;-;-;-;-;-;-;-;-;-;-;-;-;-;-;-
1512460235497;-;-;9.163101;-0.085998535;1.0313873;-;-;-;-;-;-;-;-;-;-;-;-;-;-;-
1512460235516;-;-;9.136765;-0.081207275;0.97631836;-;-;-;-;-;-;-;-;-;-;-;-;-;-;-
1512460235537;-;-;9.163101;-0.09437561;0.9859009;-;-;-;-;-;-;-;-;-;-;-;-;-;-;-
1512460235557;-;-;9.125992;-0.09197998;0.96554565;-;-;-;-;-;-;-;-;-;-;-;-;-;-;-
1512460235578;-;-;9.15831;-0.10395813;0.9451904;-;-;-;-;-;-;-;-;-;-;-;-;-;-;-
1512460235597;-;-;9.175064;-0.11592102;1.002655;-;-;-;-;-;-;-;-;-;-;-;-;-;-;-
1512460235617;-;-;9.172684;-0.117126465;0.9859009;-;-;-;-;-;-;-;-;-;-;-;-;-;-;-
1512460235638;-;-;9.185837;-0.10395813;0.9416046;-;-;-;-;-;-;-;-;-;-;-;-;-;-;-
1512460235659;-;-;9.194229;-0.097976685;0.93322754;-;-;-;-;-;-;-;-;-;-;-;-;-;-;-
1512460235679;-;-;9.121201;-0.11114502;0.978714;-;-;-;-;-;-;-;-;-;-;-;-;-;-;-
1512460235699;-;-;9.103241;-0.1410675;1.0050507;-;-;-;-;-;-;-;-;-;-;-;-;-;-;-
1512460235720;-;-;9.15712;-0.119522095;1.0230103;-;-;-;-;-;-;-;-;-;-;-;-;-;-;-
1512460235740;-;-;9.153519;-0.09916687;1.0349731;-;-;-;-;-;-;-;-;-;-;-;-;-;-;-
1512460235760;-;-;9.184647;-0.12908936;1.0349731;-;-;-;-;-;-;-;-;-;-;-;-;-;-;-
1512460235781;-;-;9.182251;-0.078811646;1.0457458;-;-;-;-;-;-;-;-;-;-;-;-;-;-;-
1512460235802;-;-;9.161896;-0.10635376;1.0170288;-;-;-;-;-;-;-;-;-;-;-;-;-;-;-
1512460235822;-;-;9.15712;-0.117126465;1.0529327;-;-;-;-;-;-;-;-;-;-;-;-;-;-;-
1512460235843;-;-;9.145142;-0.11831665;1.0661011;-;-;-;-;-;-;-;-;-;-;-;-;-;-;-
1512460235863;-;-;9.128387;-0.114730835;1.0936432;-;-;-;-;-;-;-;-;-;-;-;-;-;-;-
1512460235883;-;-;9.155914;-0.11831665;1.0457458;-;-;-;-;-;-;-;-;-;-;-;-;-;-;-
1512460235904;-;-;9.163101;-0.08720398;1.0553284;-;-;-;-;-;-;-;-;-;-;-;-;-;-;-
1512460235924;-;-;9.167892;-0.14944458;1.0278015;-;-;-;-;-;-;-;-;-;-;-;-;-;-;-
1512460235945;-;-;9.164291;-0.14585876;1.0768738;-;-;-;-;-;-;-;-;-;-;-;-;-;-;-
1512460235965;-;-;9.146347;-0.11831665;1.0744781;-;-;-;-;-;-;-;-;-;-;-;-;-;-;-
1512460235986;-;-;9.201401;-0.112335205;1.0756836;-;-;-;-;-;-;-;-;-;-;-;-;-;-;-
1512460236006;-;-;9.17746;-0.14346313;1.0170288;-;-;-;-;-;-;-;-;-;-;-;-;-;-;-
1512460236026;-;-;9.125992;-0.1590271;1.0601196;-;-;-;-;-;-;-;-;-;-;-;-;-;-;-
1512460236047;-;-;9.128387;-0.12310791;1.1199646;-;-;-;-;-;-;-;-;-;-;-;-;-;-;-
1512460236067;-;-;9.187042;-0.11114502;1.0014648;-;-;-;-;-;-;-;-;-;-;-;-;-;-;-
1512460236088;-;-;9.15831;-0.08480835;1.0445557;-;-;-;-;-;-;-;-;-;-;-;-;-;-;-
1512460236108;-;-;9.199005;-0.10635376;1.0684967;-;-;-;-;-;-;-;-;-;-;-;-;-;-;-
1512460236129;-;-;9.188232;-0.1817627;1.1247559;-;-;-;-;-;-;-;-;-;-;-;-;-;-;-
1512460236149;-;-;9.160706;-0.15663147;1.1451111;-;-;-;-;-;-;-;-;-;-;-;-;-;-;-
1512460236170;-;-;9.141556;-0.14225769;1.1080017;-;-;-;-;-;-;-;-;-;-;-;-;-;-;-
1512460236189;-;-;9.134369;-0.109939575;1.12117;-;-;-;-;-;-;-;-;-;-;-;-;-;-;-
1512460236210;-;-;9.122391;-0.10395813;1.0661011;-;-;-;-;-;-;-;-;-;-;-;-;-;-;-
1512460236231;-;-;9.17627;-0.107543945;1.0469513;-;-;-;-;-;-;-;-;-;-;-;-;-;-;-
1512460236251;-;-;9.178665;-0.102752686;1.0289917;-;-;-;-;-;-;-;-;-;-;-;-;-;-;-
1512460236271;-;-;9.207397;-0.12310791;1.0289917;-;-;-;-;-;-;-;-;-;-;-;-;-;-;-
1512460236291;-;-;9.1918335;-0.11114502;1.0445557;-;-;-;-;-;-;-;-;-;-;-;-;-;-;-
1512460236312;-;-;9.133179;-0.14944458;1.0673065;-;-;-;-;-;-;-;-;-;-;-;-;-;-;-
1512460236332;-;-;9.135559;-0.1697998;1.1020203;-;-;-;-;-;-;-;-;-;-;-;-;-;-;-
1512460236353;-;-;9.134369;-0.13508606;1.1235657;-;-;-;-;-;-;-;-;-;-;-;-;-;-;-
1512460236373;-;-;9.147537;-0.1015625;1.1032104;-;-;-;-;-;-;-;-;-;-;-;-;-;-;-
1512460236394;-;-;9.136765;-0.13627625;1.12117;-;-;-;-;-;-;-;-;-;-;-;-;-;-;-
1512460236414;-;-;9.127182;-0.14704895;1.1475067;-;-;-;-;-;-;-;-;-;-;-;-;-;-;-
1512460236435;-;-;9.159515;-0.13986206;1.1139832;-;-;-;-;-;-;-;-;-;-;-;-;-;-;-
