TimeStamp[ms];Prox[Cm];Lux[lux];AccX[m/s^2];AccY[m/s^2];AccZ[m/s^2];GyroX[rad/s];GyroY[rad/s];GyroZ[rad/s];MagnX[uT];MagnY[uT];MagnZ[uT];OrienYaw[degrees];OrienPitch[degrees];OrienRoll[degrees];Press[Pa];Temp[C°];Batt[%];Lat;Lng;Speed[m/s]
1512464160157;-;-;9.135559;0.25875854;-0.5499878;-;-;-;-;-;-;-;-;-;-;-;-;-;-;-
1512464160193;-;-;9.108032;0.41438293;-0.62060547;-;-;-;-;-;-;-;-;-;-;-;-;-;-;-
1512464160196;-;-;9.108032;0.41438293;-0.62060547;-;-;-;-;-;-;-;-;-;-;-;-;-;-;-
1512464160216;-;-;9.224152;0.32580566;-0.7415161;-;-;-;-;-;-;-;-;-;-;-;-;-;-;-
1512464160236;-;-;9.245697;0.35214233;-0.6876526;-;-;-;-;-;-;-;-;-;-;-;-;-;-;-
1512464160257;-;-;9.251678;0.34495544;-0.6888428;-;-;-;-;-;-;-;-;-;-;-;-;-;-;-
1512464160277;-;-;9.166687;0.338974;-0.63856506;-;-;-;-;-;-;-;-;-;-;-;-;-;-;-
1512464160297;-;-;9.154724;0.32460022;-0.64575195;-;-;-;-;-;-;-;-;-;-;-;-;-;-;-
1512464160318;-;-;9.188232;0.32699585;-0.7127838;-;-;-;-;-;-;-;-;-;-;-;-;-;-;-
1512464160338;-;-;9.208588;0.28390503;-0.7379303;-;-;-;-;-;-;-;-;-;-;-;-;-;-;-
1512464160359;-;-;9.25528;0.29348755;-0.6888428;-;-;-;-;-;-;-;-;-;-;-;-;-;-;-
1512464160379;-;-;9.199005;0.30065918;-0.6038513;-;-;-;-;-;-;-;-;-;-;-;-;-;-;-
1512464160399;-;-;9.12001;0.26715088;-0.5416107;-;-;-;-;-;-;-;-;-;-;-;-;-;-;-
1512464160420;-;-;9.171478;0.30545044;-0.44822693;-;-;-;-;-;-;-;-;-;-;-;-;-;-;-
1512464160439;-;-;9.188232;0.2803192;-0.49971008;-;-;-;-;-;-;-;-;-;-;-;-;-;-;-
1512464160459;-;-;9.266052;0.31503296;-0.54759216;-;-;-;-;-;-;-;-;-;-;-;-;-;-;-
1512464160479;-;-;9.29718;0.30665588;-0.5607605;-;-;-;-;-;-;-;-;-;-;-;-;-;-;-
1512464160500;-;-;9.339081;0.30545044;-0.5978699;-;-;-;-;-;-;-;-;-;-;-;-;-;-;-
1512464160522;-;-;9.330688;0.33418274;-0.62420654;-;-;-;-;-;-;-;-;-;-;-;-;-;-;-
1512464160543;-;-;9.268448;0.49938965;-0.5858917;-;-;-;-;-;-;-;-;-;-;-;-;-;-;-
1512464160563;-;-;9.159515;0.6035309;-0.5858917;-;-;-;-;-;-;-;-;-;-;-;-;-;-;-
1512464160584;-;-;9.130783;0.73760986;-0.5236511;-;-;-;-;-;-;-;-;-;-;-;-;-;-;-
1512464160605;-;-;9.130783;0.73161316;-0.5212555;-;-;-;-;-;-;-;-;-;-;-;-;-;-;-
1512464160625;-;-;9.13916;0.8417511;-0.5535736;-;-;-;-;-;-;-;-;-;-;-;-;-;-;-
1512464160646;-;-;9.205002;0.8154144;-0.6325836;-;-;-;-;-;-;-;-;-;-;-;-;-;-;-
1512464160666;-;-;9.348648;0.71606445;-0.67807007;-;-;-;-;-;-;-;-;-;-;-;-;-;-;-
1512464160686;-;-;9.476746;0.62268066;-0.6397705;-;-;-;-;-;-;-;-;-;-;-;-;-;-;-
1512464160707;-;-;9.39653;0.5065613;-0.5918884;-;-;-;-;-;-;-;-;-;-;-;-;-;-;-
1512464160727;-;-;9.2708435;0.457489;-0.39196777;-;-;-;-;-;-;-;-;-;-;-;-;-;-;-
1512464160748;-;-;9.110428;0.32460022;-0.32254028;-;-;-;-;-;-;-;-;-;-;-;-;-;-;-
1512464160769;-;-;8.930862;0.12948608;-0.4015503;-;-;-;-;-;-;-;-;-;-;-;-;-;-;-
1512464160789;-;-;9.039795;0.18334961;-0.590683;-;-;-;-;-;-;-;-;-;-;-;-;-;-;-
1512464160809;-;-;9.214569;0.34016418;-0.7774353;-;-;-;-;-;-;-;-;-;-;-;-;-;-;-
1512464160830;-;-;9.392944;0.33537292;-0.84207153;-;-;-;-;-;-;-;-;-;-;-;-;-;-;-
1512464160851;-;-;9.425262;0.24679565;-0.89834595;-;-;-;-;-;-;-;-;-;-;-;-;-;-;-
1512464160871;-;-;9.403717;0.115112305;-0.8073578;-;-;-;-;-;-;-;-;-;-;-;-;-;-;-
1512464160891;-;-;9.251678;0.081588745;-0.6182251;-;-;-;-;-;-;-;-;-;-;-;-;-;-;-
1512464160912;-;-;8.769257;0.103149414;-0.071136475;-;-;-;-;-;-;-;-;-;-;-;-;-;-;-
1512464160932;-;-;8.910507;0.2300415;-0.61701965;-;-;-;-;-;-;-;-;-;-;-;-;-;-;-
1512464160953;-;-;8.90094;0.19412231;-0.52723694;-;-;-;-;-;-;-;-;-;-;-;-;-;-;-
1512464160974;-;-;8.92128;0.1725769;-0.5894928;-;-;-;-;-;-;-;-;-;-;-;-;-;-;-
1512464160994;-;-;9.0972595;0.16778564;-0.7163849;-;-;-;-;-;-;-;-;-;-;-;-;-;-;-
1512464161013;-;-;9.246902;0.29588318;-0.85165405;-;-;-;-;-;-;-;-;-;-;-;-;-;-;-
1512464161033;-;-;9.257675;0.4874115;-1.0000916;-;-;-;-;-;-;-;-;-;-;-;-;-;-;-
1512464161054;-;-;9.09845;0.596344;-1.124588;-;-;-;-;-;-;-;-;-;-;-;-;-;-;-
1512464161074;-;-;8.888962;0.6107178;-1.109024;-;-;-;-;-;-;-;-;-;-;-;-;-;-;-
1512464161095;-;-;8.866211;0.48501587;-0.9510193;-;-;-;-;-;-;-;-;-;-;-;-;-;-;-
1512464161115;-;-;9.355835;0.12948608;-0.8863678;-;-;-;-;-;-;-;-;-;-;-;-;-;-;-
1512464161136;-;-;9.252884;0.30186462;-0.8073578;-;-;-;-;-;-;-;-;-;-;-;-;-;-;-
1512464161156;-;-;9.272034;0.40600586;-0.88397217;-;-;-;-;-;-;-;-;-;-;-;-;-;-;-
1512464161177;-;-;9.329498;0.34016418;-0.70440674;-;-;-;-;-;-;-;-;-;-;-;-;-;-;-
1512464161196;-;-;9.161896;0.18574524;-0.81933594;-;-;-;-;-;-;-;-;-;-;-;-;-;-;-
1512464161216;-;-;9.046982;-0.11114502;-0.6218109;-;-;-;-;-;-;-;-;-;-;-;-;-;-;-
1512464161237;-;-;9.012268;-0.65940857;-0.7582855;-;-;-;-;-;-;-;-;-;-;-;-;-;-;-
1512464161258;-;-;10.107605;-1.3273926;-1.109024;-;-;-;-;-;-;-;-;-;-;-;-;-;-;-
1512464161278;-;-;8.313156;1.2332001;-0.69244385;-;-;-;-;-;-;-;-;-;-;-;-;-;-;-
1512464161299;-;-;9.692215;0.9099884;-1.1904297;-;-;-;-;-;-;-;-;-;-;-;-;-;-;-
1512464161319;-;-;8.922485;0.81422424;-0.4673767;-;-;-;-;-;-;-;-;-;-;-;-;-;-;-
1512464161340;-;-;9.609619;0.031311035;-0.13697815;-;-;-;-;-;-;-;-;-;-;-;-;-;-;-
1512464161360;-;-;8.928467;-0.13627625;-0.9905243;-;-;-;-;-;-;-;-;-;-;-;-;-;-;-
1512464161381;-;-;9.029022;0.3174286;-0.30937195;-;-;-;-;-;-;-;-;-;-;-;-;-;-;-
1512464161401;-;-;8.357452;0.457489;0.37417603;-;-;-;-;-;-;-;-;-;-;-;-;-;-;-
1512464161422;-;-;10.094437;0.05645752;0.048568726;-;-;-;-;-;-;-;-;-;-;-;-;-;-;-
1512464161442;-;-;9.784393;-0.25360107;0.50227356;-;-;-;-;-;-;-;-;-;-;-;-;-;-;-
1512464161463;-;-;9.261261;-0.34936523;0.5262146;-;-;-;-;-;-;-;-;-;-;-;-;-;-;-
1512464161483;-;-;8.378998;0.22285461;-0.16091919;-;-;-;-;-;-;-;-;-;-;-;-;-;-;-
1512464161503;-;-;8.311966;0.5161438;0.060531616;-;-;-;-;-;-;-;-;-;-;-;-;-;-;-
1512464161524;-;-;9.5282135;0.13067627;0.96435547;-;-;-;-;-;-;-;-;-;-;-;-;-;-;-
1512464161544;-;-;10.174652;0.11869812;1.2013702;-;-;-;-;-;-;-;-;-;-;-;-;-;-;-
1512464161565;-;-;9.898117;0.15222168;0.5561371;-;-;-;-;-;-;-;-;-;-;-;-;-;-;-
1512464161585;-;-;9.207397;-0.0010070801;-0.12501526;-;-;-;-;-;-;-;-;-;-;-;-;-;-;-
1512464161606;-;-;8.648346;-0.03930664;0.6770477;-;-;-;-;-;-;-;-;-;-;-;-;-;-;-
1512464161626;-;-;8.693832;-0.16381836;1.1151886;-;-;-;-;-;-;-;-;-;-;-;-;-;-;-
1512464161646;-;-;9.203796;-0.13508606;0.9499817;-;-;-;-;-;-;-;-;-;-;-;-;-;-;-
1512464161667;-;-;9.623978;-0.32421875;1.196579;-;-;-;-;-;-;-;-;-;-;-;-;-;-;-
1512464161688;-;-;9.43364;-0.28231812;0.75605774;-;-;-;-;-;-;-;-;-;-;-;-;-;-;-
1512464161708;-;-;10.331467;-0.17098999;0.899704;-;-;-;-;-;-;-;-;-;-;-;-;-;-;-
1512464161729;-;-;9.4133;-0.40083313;0.79914856;-;-;-;-;-;-;-;-;-;-;-;-;-;-;-
1512464161749;-;-;9.210983;-0.21768188;0.9859009;-;-;-;-;-;-;-;-;-;-;-;-;-;-;-
1512464161769;-;-;9.164291;-0.24880981;1.0529327;-;-;-;-;-;-;-;-;-;-;-;-;-;-;-
1512464161790;-;-;8.897339;-0.34936523;0.53938293;-;-;-;-;-;-;-;-;-;-;-;-;-;-;-
1512464161809;-;-;9.625183;-0.35653687;0.75006104;-;-;-;-;-;-;-;-;-;-;-;-;-;-;-
1512464161830;-;-;9.23732;-0.3254242;1.2564392;-;-;-;-;-;-;-;-;-;-;-;-;-;-;-
1512464161850;-;-;9.17746;-0.23803711;1.8861237;-;-;-;-;-;-;-;-;-;-;-;-;-;-;-
1512464161871;-;-;9.336685;-0.61631775;0.38734436;-;-;-;-;-;-;-;-;-;-;-;-;-;-;-
1512464161891;-;-;8.874603;-0.44631958;0.9918823;-;-;-;-;-;-;-;-;-;-;-;-;-;-;-
1512464161912;-;-;8.650742;-0.42837524;1.0014648;-;-;-;-;-;-;-;-;-;-;-;-;-;-;-
1512464161931;-;-;8.74411;-0.3086548;1.2827759;-;-;-;-;-;-;-;-;-;-;-;-;-;-;-
1512464161951;-;-;9.244507;-0.20809937;1.5868378;-;-;-;-;-;-;-;-;-;-;-;-;-;-;-
1512464161972;-;-;9.519836;-0.3936615;1.4001007;-;-;-;-;-;-;-;-;-;-;-;-;-;-;-
1512464161993;-;-;9.4133;-0.25598145;1.0265961;-;-;-;-;-;-;-;-;-;-;-;-;-;-;-
1512464162013;-;-;9.261261;-0.22964478;1.0002594;-;-;-;-;-;-;-;-;-;-;-;-;-;-;-
1512464162034;-;-;9.443222;-0.15542603;1.1642609;-;-;-;-;-;-;-;-;-;-;-;-;-;-;-
1512464162054;-;-;9.161896;-0.23564148;1.2253113;-;-;-;-;-;-;-;-;-;-;-;-;-;-;-
1512464162074;-;-;9.366608;-0.47146606;0.83984375;-;-;-;-;-;-;-;-;-;-;-;-;-;-;-
1512464162095;-;-;9.331894;-0.2607727;1.5497284;-;-;-;-;-;-;-;-;-;-;-;-;-;-;-
1512464162116;-;-;9.67067;-0.45111084;1.0218048;-;-;-;-;-;-;-;-;-;-;-;-;-;-;-
1512464162135;-;-;9.540192;-0.42237854;0.006668091;-;-;-;-;-;-;-;-;-;-;-;-;-;-;-
1512464162156;-;-;8.825516;-0.27633667;-0.159729;-;-;-;-;-;-;-;-;-;-;-;-;-;-;-
1512464162176;-;-;8.656723;0.25398254;1.9016724;-;-;-;-;-;-;-;-;-;-;-;-;-;-;-
1512464162197;-;-;8.819534;0.20610046;2.0549011;-;-;-;-;-;-;-;-;-;-;-;-;-;-;-
1512464162217;-;-;9.127182;-0.105148315;1.9483643;-;-;-;-;-;-;-;-;-;-;-;-;-;-;-
1512464162237;-;-;9.092468;-0.35653687;1.5078278;-;-;-;-;-;-;-;-;-;-;-;-;-;-;-
1512464162258;-;-;9.207397;-0.5037842;1.4683228;-;-;-;-;-;-;-;-;-;-;-;-;-;-;-
1512464162279;-;-;8.942825;-0.6534271;1.1283569;-;-;-;-;-;-;-;-;-;-;-;-;-;-;-
1512464162299;-;-;8.966782;-0.3481598;1.3534088;-;-;-;-;-;-;-;-;-;-;-;-;-;-;-
1512464162319;-;-;9.263657;-0.3254242;1.883728;-;-;-;-;-;-;-;-;-;-;-;-;-;-;-
1512464162340;-;-;9.111618;-0.30625916;1.8968964;-;-;-;-;-;-;-;-;-;-;-;-;-;-;-
1512464162361;-;-;9.197815;-0.3074646;1.983078;-;-;-;-;-;-;-;-;-;-;-;-;-;-;-
1512464162382;-;-;9.023041;-0.32901;1.7999268;-;-;-;-;-;-;-;-;-;-;-;-;-;-;-
1512464162402;-;-;9.001495;-0.26316833;1.7999268;-;-;-;-;-;-;-;-;-;-;-;-;-;-;-
1512464162421;-;-;8.960785;-0.17338562;2.2093353;-;-;-;-;-;-;-;-;-;-;-;-;-;-;-
1512464162442;-;-;8.808762;-0.30986023;1.7484436;-;-;-;-;-;-;-;-;-;-;-;-;-;-;-
1512464162462;-;-;8.924881;-0.30625916;2.165039;-;-;-;-;-;-;-;-;-;-;-;-;-;-;-
1512464162483;-;-;8.948822;-0.34936523;2.5145874;-;-;-;-;-;-;-;-;-;-;-;-;-;-;-
1512464162502;-;-;8.951218;-0.49301147;2.3517914;-;-;-;-;-;-;-;-;-;-;-;-;-;-;-
1512464162523;-;-;8.866211;-0.52893066;2.3673553;-;-;-;-;-;-;-;-;-;-;-;-;-;-;-
1512464162543;-;-;8.791992;-0.55166626;2.259613;-;-;-;-;-;-;-;-;-;-;-;-;-;-;-
1512464162563;-;-;9.221756;-0.4451294;2.3254547;-;-;-;-;-;-;-;-;-;-;-;-;-;-;-
1512464162583;-;-;9.29837;-0.38526917;2.1865845;-;-;-;-;-;-;-;-;-;-;-;-;-;-;-
1512464162605;-;-;9.072113;-0.34457397;2.0716705;-;-;-;-;-;-;-;-;-;-;-;-;-;-;-
1512464162625;-;-;9.173874;-0.29788208;2.2979126;-;-;-;-;-;-;-;-;-;-;-;-;-;-;-
1512464162646;-;-;9.082901;-0.22845459;2.3158722;-;-;-;-;-;-;-;-;-;-;-;-;-;-;-
1512464162667;-;-;8.969162;-0.27275085;2.3338318;-;-;-;-;-;-;-;-;-;-;-;-;-;-;-
1512464162686;-;-;8.988327;-0.21768188;2.393692;-;-;-;-;-;-;-;-;-;-;-;-;-;-;-
1512464162707;-;-;8.873398;-0.2392273;2.385315;-;-;-;-;-;-;-;-;-;-;-;-;-;-;-
1512464162727;-;-;8.947617;-0.33738708;2.2931366;-;-;-;-;-;-;-;-;-;-;-;-;-;-;-
1512464162748;-;-;8.788406;-0.40682983;2.4152374;-;-;-;-;-;-;-;-;-;-;-;-;-;-;-
1512464162768;-;-;8.7764435;-0.3757019;2.6893768;-;-;-;-;-;-;-;-;-;-;-;-;-;-;-
1512464162788;-;-;8.618423;-0.3469696;2.5576935;-;-;-;-;-;-;-;-;-;-;-;-;-;-;-
1512464162809;-;-;8.753693;-0.32182312;2.4655151;-;-;-;-;-;-;-;-;-;-;-;-;-;-;-
1512464162830;-;-;9.159515;-0.26675415;2.5050201;-;-;-;-;-;-;-;-;-;-;-;-;-;-;-
1512464162850;-;-;9.072113;-0.23803711;2.4918518;-;-;-;-;-;-;-;-;-;-;-;-;-;-;-
1512464162871;-;-;8.867416;-0.24401855;2.3673553;-;-;-;-;-;-;-;-;-;-;-;-;-;-;-
1512464162891;-;-;9.115219;-0.3469696;2.6809845;-;-;-;-;-;-;-;-;-;-;-;-;-;-;-
1512464162911;-;-;8.948822;-0.42956543;2.429596;-;-;-;-;-;-;-;-;-;-;-;-;-;-;-
1512464162932;-;-;9.068527;-0.2859192;2.4260101;-;-;-;-;-;-;-;-;-;-;-;-;-;-;-
1512464162953;-;-;8.764465;-0.13269043;2.283554;-;-;-;-;-;-;-;-;-;-;-;-;-;-;-
1512464162973;-;-;8.932053;-0.100372314;2.2859497;-;-;-;-;-;-;-;-;-;-;-;-;-;-;-
1512464162994;-;-;8.881775;-0.012969971;2.2644043;-;-;-;-;-;-;-;-;-;-;-;-;-;-;-
1512464163014;-;-;9.195419;-0.04888916;2.3374176;-;-;-;-;-;-;-;-;-;-;-;-;-;-;-
1512464163035;-;-;8.892548;-0.102752686;2.3865051;-;-;-;-;-;-;-;-;-;-;-;-;-;-;-
1512464163055;-;-;8.679474;-0.081207275;2.0046234;-;-;-;-;-;-;-;-;-;-;-;-;-;-;-
1512464163076;-;-;8.64595;0.13067627;1.785553;-;-;-;-;-;-;-;-;-;-;-;-;-;-;-
1512464163095;-;-;8.898544;0.064834595;2.2452545;-;-;-;-;-;-;-;-;-;-;-;-;-;-;-
1512464163116;-;-;9.188232;0.03251648;2.4319916;-;-;-;-;-;-;-;-;-;-;-;-;-;-;-
1512464163136;-;-;9.092468;-0.057266235;2.2009583;-;-;-;-;-;-;-;-;-;-;-;-;-;-;-
1512464163157;-;-;9.151123;-0.00579834;2.1303253;-;-;-;-;-;-;-;-;-;-;-;-;-;-;-
1512464163177;-;-;8.960785;0.013366699;2.141098;-;-;-;-;-;-;-;-;-;-;-;-;-;-;-
1512464163198;-;-;8.83989;0.107925415;2.2524261;-;-;-;-;-;-;-;-;-;-;-;-;-;-;-
1512464163219;-;-;8.924881;0.076812744;2.3003082;-;-;-;-;-;-;-;-;-;-;-;-;-;-;-
1512464163239;-;-;8.916504;0.052871704;2.2452545;-;-;-;-;-;-;-;-;-;-;-;-;-;-;-
1512464163260;-;-;8.97995;0.08998108;2.1458893;-;-;-;-;-;-;-;-;-;-;-;-;-;-;-
1512464163279;-;-;9.062546;0.13067627;2.1674347;-;-;-;-;-;-;-;-;-;-;-;-;-;-;-
1512464163300;-;-;8.98233;0.028915405;2.211731;-;-;-;-;-;-;-;-;-;-;-;-;-;-;-
1512464163319;-;-;9.017059;-0.00340271;2.227295;-;-;-;-;-;-;-;-;-;-;-;-;-;-;-
1512464163340;-;-;8.965576;0.0013885498;2.1698303;-;-;-;-;-;-;-;-;-;-;-;-;-;-;-
1512464163361;-;-;8.8997345;0.010971069;2.1662445;-;-;-;-;-;-;-;-;-;-;-;-;-;-;-
1512464163381;-;-;9.031418;0.069625854;2.1470795;-;-;-;-;-;-;-;-;-;-;-;-;-;-;-
1512464163401;-;-;9.181061;0.036102295;2.1423035;-;-;-;-;-;-;-;-;-;-;-;-;-;-;-
1512464163422;-;-;9.122391;0.043289185;2.0884247;-;-;-;-;-;-;-;-;-;-;-;-;-;-;-
1512464163442;-;-;9.088882;0.03251648;2.0788574;-;-;-;-;-;-;-;-;-;-;-;-;-;-;-
1512464163463;-;-;8.92009;0.11392212;2.0824432;-;-;-;-;-;-;-;-;-;-;-;-;-;-;-
1512464163483;-;-;8.958389;0.23960876;2.1363068;-;-;-;-;-;-;-;-;-;-;-;-;-;-;-
1512464163504;-;-;8.865021;0.27313232;2.1578522;-;-;-;-;-;-;-;-;-;-;-;-;-;-;-
1512464163524;-;-;8.891357;0.16059875;2.1865845;-;-;-;-;-;-;-;-;-;-;-;-;-;-;-
1512464163545;-;-;8.7261505;0.18214417;2.0393524;-;-;-;-;-;-;-;-;-;-;-;-;-;-;-
1512464163565;-;-;8.775238;0.28988647;1.7065582;-;-;-;-;-;-;-;-;-;-;-;-;-;-;-
1512464163586;-;-;8.8003845;0.47184753;1.8178864;-;-;-;-;-;-;-;-;-;-;-;-;-;-;-
1512464163605;-;-;8.428085;0.8381653;1.9543457;-;-;-;-;-;-;-;-;-;-;-;-;-;-;-
1512464163626;-;-;9.5737;0.5352936;2.6618347;-;-;-;-;-;-;-;-;-;-;-;-;-;-;-
1512464163647;-;-;8.341888;0.9686432;1.7376709;-;-;-;-;-;-;-;-;-;-;-;-;-;-;-
1512464163667;-;-;8.159927;-0.1925354;1.1403198;-;-;-;-;-;-;-;-;-;-;-;-;-;-;-
1512464163688;-;-;7.973175;0.28749084;0.7153473;-;-;-;-;-;-;-;-;-;-;-;-;-;-;-
1512464163708;-;-;8.502304;-0.114730835;0.9571686;-;-;-;-;-;-;-;-;-;-;-;-;-;-;-
1512464163729;-;-;9.498291;-0.26675415;0.53100586;-;-;-;-;-;-;-;-;-;-;-;-;-;-;-
1512464163749;-;-;10.7456665;-0.33738708;0.91407776;-;-;-;-;-;-;-;-;-;-;-;-;-;-;-
1512464163770;-;-;10.466736;0.112716675;1.928009;-;-;-;-;-;-;-;-;-;-;-;-;-;-;-
1512464163790;-;-;9.740097;-0.17219543;1.0134277;-;-;-;-;-;-;-;-;-;-;-;-;-;-;-
1512464163811;-;-;9.424072;-0.14465332;0.09046936;-;-;-;-;-;-;-;-;-;-;-;-;-;-;-
1512464163830;-;-;9.995087;-0.31105042;-0.27703857;-;-;-;-;-;-;-;-;-;-;-;-;-;-;-
1512464163851;-;-;9.589264;-0.12550354;1.4982605;-;-;-;-;-;-;-;-;-;-;-;-;-;-;-
1512464163872;-;-;9.868195;-0.45350647;-0.05079651;-;-;-;-;-;-;-;-;-;-;-;-;-;-;-
1512464163892;-;-;10.105225;-0.6043396;0.14433289;-;-;-;-;-;-;-;-;-;-;-;-;-;-;-
1512464163912;-;-;9.868195;-0.12071228;-0.059173584;-;-;-;-;-;-;-;-;-;-;-;-;-;-;-
1512464163932;-;-;9.840652;0.6502228;-0.2866211;-;-;-;-;-;-;-;-;-;-;-;-;-;-;-
1512464163953;-;-;9.055359;0.7220459;-0.9976959;-;-;-;-;-;-;-;-;-;-;-;-;-;-;-
1512464163973;-;-;7.67749;1.0811768;-0.17887878;-;-;-;-;-;-;-;-;-;-;-;-;-;-;-
1512464163994;-;-;8.662704;1.6043091;-0.81933594;-;-;-;-;-;-;-;-;-;-;-;-;-;-;-
1512464164015;-;-;9.035004;0.8776703;-1.2095795;-;-;-;-;-;-;-;-;-;-;-;-;-;-;-
1512464164035;-;-;9.468353;0.2300415;-0.7008209;-;-;-;-;-;-;-;-;-;-;-;-;-;-;-
1512464164056;-;-;9.400131;-0.17219543;-0.55477905;-;-;-;-;-;-;-;-;-;-;-;-;-;-;-
1512464164076;-;-;9.687424;0.16299438;0.35144043;-;-;-;-;-;-;-;-;-;-;-;-;-;-;-
1512464164097;-;-;9.264847;-0.40802002;0.45439148;-;-;-;-;-;-;-;-;-;-;-;-;-;-;-
1512464164117;-;-;9.068527;0.3425598;0.10722351;-;-;-;-;-;-;-;-;-;-;-;-;-;-;-
1512464164138;-;-;8.243729;1.3517151;0.103637695;-;-;-;-;-;-;-;-;-;-;-;-;-;-;-
1512464164159;-;-;8.206619;1.8640747;-0.21479797;-;-;-;-;-;-;-;-;-;-;-;-;-;-;-
1512464164179;-;-;8.373016;2.0137177;-1.2275391;-;-;-;-;-;-;-;-;-;-;-;-;-;-;-
1512464164199;-;-;8.606445;1.537262;-1.0659332;-;-;-;-;-;-;-;-;-;-;-;-;-;-;-
1512464164220;-;-;9.042191;1.671341;-1.0886841;-;-;-;-;-;-;-;-;-;-;-;-;-;-;-
1512464164240;-;-;9.239716;1.5037537;-0.86361694;-;-;-;-;-;-;-;-;-;-;-;-;-;-;-
1512464164260;-;-;9.309143;1.3217926;-1.2993622;-;-;-;-;-;-;-;-;-;-;-;-;-;-;-
1512464164281;-;-;9.706589;1.4031982;-1.6201935;-;-;-;-;-;-;-;-;-;-;-;-;-;-;-
1512464164301;-;-;9.328293;1.0249176;-2.0990295;-;-;-;-;-;-;-;-;-;-;-;-;-;-;-
1512464164322;-;-;11.345413;0.6933136;-2.6796265;-;-;-;-;-;-;-;-;-;-;-;-;-;-;-
1512464164342;-;-;9.0733185;-0.05847168;-2.036789;-;-;-;-;-;-;-;-;-;-;-;-;-;-;-
1512464164363;-;-;9.274429;0.028915405;-2.036789;-;-;-;-;-;-;-;-;-;-;-;-;-;-;-
1512464164383;-;-;9.31752;-0.5145569;-1.8189087;-;-;-;-;-;-;-;-;-;-;-;-;-;-;-
1512464164403;-;-;7.672714;-0.009384155;-2.2450714;-;-;-;-;-;-;-;-;-;-;-;-;-;-;-
1512464164424;-;-;8.313156;-1.9498901;-1.7506714;-;-;-;-;-;-;-;-;-;-;-;-;-;-;-
1512464164444;-;-;9.360626;-2.423935;-2.357605;-;-;-;-;-;-;-;-;-;-;-;-;-;-;-
1512464164465;-;-;10.16507;-2.4646454;-3.808487;-;-;-;-;-;-;-;-;-;-;-;-;-;-;-
1512464164485;-;-;9.923264;-2.6262512;-3.2853546;-;-;-;-;-;-;-;-;-;-;-;-;-;-;-
1512464164505;-;-;9.73053;-1.7822876;-2.5503387;-;-;-;-;-;-;-;-;-;-;-;-;-;-;-
1512464164526;-;-;8.619614;-1.5488586;-3.1452942;-;-;-;-;-;-;-;-;-;-;-;-;-;-;-
1512464164546;-;-;9.677856;-2.166565;-3.0938263;-;-;-;-;-;-;-;-;-;-;-;-;-;-;-
1512464164567;-;-;8.035431;-1.5632172;-3.0674896;-;-;-;-;-;-;-;-;-;-;-;-;-;-;-
1512464164588;-;-;8.294006;-1.1645813;-3.1931763;-;-;-;-;-;-;-;-;-;-;-;-;-;-;-
1512464164608;-;-;8.60405;-1.9307251;-2.4557648;-;-;-;-;-;-;-;-;-;-;-;-;-;-;-
1512464164629;-;-;8.7764435;-1.9343262;-2.1852264;-;-;-;-;-;-;-;-;-;-;-;-;-;-;-
1512464164650;-;-;8.707001;-1.7930603;-2.693985;-;-;-;-;-;-;-;-;-;-;-;-;-;-;-
1512464164670;-;-;8.558563;-2.1641693;-3.1081848;-;-;-;-;-;-;-;-;-;-;-;-;-;-;-
1512464164690;-;-;8.095291;-1.8086243;-3.2015686;-;-;-;-;-;-;-;-;-;-;-;-;-;-;-
1512464164711;-;-;8.01149;-1.5656128;-2.788559;-;-;-;-;-;-;-;-;-;-;-;-;-;-;-
1512464164731;-;-;8.483139;-0.8533478;-2.7957458;-;-;-;-;-;-;-;-;-;-;-;-;-;-;-
1512464164752;-;-;8.058182;-1.3836517;-3.8132782;-;-;-;-;-;-;-;-;-;-;-;-;-;-;-
1512464164772;-;-;7.020294;-1.0448761;-3.3188782;-;-;-;-;-;-;-;-;-;-;-;-;-;-;-
1512464164793;-;-;8.56694;-0.8593292;-3.6085815;-;-;-;-;-;-;-;-;-;-;-;-;-;-;-
1512464164813;-;-;9.303162;-0.85214233;-3.4146423;-;-;-;-;-;-;-;-;-;-;-;-;-;-;-
1512464164833;-;-;9.001495;-1.028122;-3.0303802;-;-;-;-;-;-;-;-;-;-;-;-;-;-;-
1512464164854;-;-;8.844666;-1.2388;-2.9358063;-;-;-;-;-;-;-;-;-;-;-;-;-;-;-
1512464164874;-;-;8.811157;-0.704895;-2.6808167;-;-;-;-;-;-;-;-;-;-;-;-;-;-;-
1512464164894;-;-;8.735733;-0.3074646;-2.1349487;-;-;-;-;-;-;-;-;-;-;-;-;-;-;-
1512464164915;-;-;8.581314;-0.23803711;-2.0164337;-;-;-;-;-;-;-;-;-;-;-;-;-;-;-
1512464164936;-;-;7.9396667;-0.59477234;-1.7794037;-;-;-;-;-;-;-;-;-;-;-;-;-;-;-
1512464164956;-;-;7.83432;-1.1095276;-1.9589691;-;-;-;-;-;-;-;-;-;-;-;-;-;-;-
1512464164976;-;-;7.6380005;-1.2447968;-2.4737244;-;-;-;-;-;-;-;-;-;-;-;-;-;-;-
1512464164997;-;-;8.165909;-2.2156372;-2.5048523;-;-;-;-;-;-;-;-;-;-;-;-;-;-;-
1512464165017;-;-;9.339081;-2.3796387;-4.092209;-;-;-;-;-;-;-;-;-;-;-;-;-;-;-
1512464165038;-;-;11.188599;-1.3070374;-2.649704;-;-;-;-;-;-;-;-;-;-;-;-;-;-;-
1512464165058;-;-;11.344223;-0.4918213;-2.79216;-;-;-;-;-;-;-;-;-;-;-;-;-;-;-
1512464165078;-;-;7.5841217;0.22525024;-3.0818481;-;-;-;-;-;-;-;-;-;-;-;-;-;-;-
1512464165099;-;-;8.213791;0.32580566;-1.9553833;-;-;-;-;-;-;-;-;-;-;-;-;-;-;-
1512464165119;-;-;9.480331;-0.46188354;-3.1237488;-;-;-;-;-;-;-;-;-;-;-;-;-;-;-
1512464165140;-;-;7.5829315;0.016952515;-2.5347748;-;-;-;-;-;-;-;-;-;-;-;-;-;-;-
1512464165159;-;-;8.892548;-0.35653687;-1.7506714;-;-;-;-;-;-;-;-;-;-;-;-;-;-;-
1512464165179;-;-;9.419281;-0.6917267;-2.4952698;-;-;-;-;-;-;-;-;-;-;-;-;-;-;-
1512464165200;-;-;9.252884;-0.3757019;-2.5036469;-;-;-;-;-;-;-;-;-;-;-;-;-;-;-
1512464165219;-;-;8.479553;0.019348145;-2.2091675;-;-;-;-;-;-;-;-;-;-;-;-;-;-;-
1512464165240;-;-;8.247314;0.2013092;-1.9853058;-;-;-;-;-;-;-;-;-;-;-;-;-;-;-
1512464165259;-;-;7.7253876;0.18214417;-2.2247314;-;-;-;-;-;-;-;-;-;-;-;-;-;-;-
1512464165280;-;-;9.221756;-0.23443604;-1.4537964;-;-;-;-;-;-;-;-;-;-;-;-;-;-;-
1512464165300;-;-;10.131561;-0.40203857;-2.2295227;-;-;-;-;-;-;-;-;-;-;-;-;-;-;-
1512464165320;-;-;9.628769;0.12348938;-2.3408508;-;-;-;-;-;-;-;-;-;-;-;-;-;-;-
1512464165341;-;-;9.313934;0.15461731;-2.4701385;-;-;-;-;-;-;-;-;-;-;-;-;-;-;-
1512464165360;-;-;9.529419;0.4407196;-1.634552;-;-;-;-;-;-;-;-;-;-;-;-;-;-;-
1512464165381;-;-;8.673492;0.29467773;-2.0272064;-;-;-;-;-;-;-;-;-;-;-;-;-;-;-
1512464165401;-;-;8.353867;-0.16261292;-2.6197662;-;-;-;-;-;-;-;-;-;-;-;-;-;-;-
1512464165421;-;-;8.460403;-0.6187134;-2.3252869;-;-;-;-;-;-;-;-;-;-;-;-;-;-;-
1512464165442;-;-;9.816711;-0.3146515;-2.187622;-;-;-;-;-;-;-;-;-;-;-;-;-;-;-
1512464165462;-;-;9.051773;0.093566895;-2.867569;-;-;-;-;-;-;-;-;-;-;-;-;-;-;-
1512464165483;-;-;8.284424;0.417984;-2.2199402;-;-;-;-;-;-;-;-;-;-;-;-;-;-;-
1512464165503;-;-;9.155914;0.5819855;-1.2107849;-;-;-;-;-;-;-;-;-;-;-;-;-;-;-
1512464165523;-;-;9.477936;0.7914734;-2.1552887;-;-;-;-;-;-;-;-;-;-;-;-;-;-;-
1512464165544;-;-;8.528641;0.635849;-1.4705505;-;-;-;-;-;-;-;-;-;-;-;-;-;-;-
1512464165563;-;-;8.1766815;0.29588318;-1.693222;-;-;-;-;-;-;-;-;-;-;-;-;-;-;-
1512464165583;-;-;9.430054;-0.680954;-2.6808167;-;-;-;-;-;-;-;-;-;-;-;-;-;-;-
1512464165604;-;-;9.509064;-0.48703003;-1.6357574;-;-;-;-;-;-;-;-;-;-;-;-;-;-;-
1512464165623;-;-;8.557373;-0.15184021;-1.6046295;-;-;-;-;-;-;-;-;-;-;-;-;-;-;-
1512464165644;-;-;8.319138;0.14025879;-2.0726929;-;-;-;-;-;-;-;-;-;-;-;-;-;-;-
1512464165664;-;-;10.3302765;-0.2392273;-1.5076599;-;-;-;-;-;-;-;-;-;-;-;-;-;-;-
1512464165684;-;-;9.75087;-0.1877594;-1.5483704;-;-;-;-;-;-;-;-;-;-;-;-;-;-;-
1512464165705;-;-;10.387741;-0.035720825;-2.3204956;-;-;-;-;-;-;-;-;-;-;-;-;-;-;-
1512464165725;-;-;7.2680817;0.5065613;-1.0743103;-;-;-;-;-;-;-;-;-;-;-;-;-;-;-
1512464165745;-;-;7.6810913;0.4084015;-0.44943237;-;-;-;-;-;-;-;-;-;-;-;-;-;-;-
1512464165766;-;-;9.710175;0.417984;-1.8524323;-;-;-;-;-;-;-;-;-;-;-;-;-;-;-
1512464165786;-;-;10.360199;-0.37091064;-1.4729462;-;-;-;-;-;-;-;-;-;-;-;-;-;-;-
1512464165807;-;-;9.463577;0.8668976;-0.7594757;-;-;-;-;-;-;-;-;-;-;-;-;-;-;-
1512464165827;-;-;10.212952;0.06124878;-0.7295532;-;-;-;-;-;-;-;-;-;-;-;-;-;-;-
1512464165848;-;-;9.773621;-0.289505;-1.6273804;-;-;-;-;-;-;-;-;-;-;-;-;-;-;-
1512464165870;-;-;9.3103485;-0.22845459;-1.4537964;-;-;-;-;-;-;-;-;-;-;-;-;-;-;-
1512464165890;-;-;8.940445;-0.09677124;-1.5782928;-;-;-;-;-;-;-;-;-;-;-;-;-;-;-
1512464165911;-;-;8.660324;0.6143036;-1.3604279;-;-;-;-;-;-;-;-;-;-;-;-;-;-;-
1512464165931;-;-;8.161133;0.15701294;-1.4346466;-;-;-;-;-;-;-;-;-;-;-;-;-;-;-
1512464165951;-;-;8.544205;0.41079712;-2.5742798;-;-;-;-;-;-;-;-;-;-;-;-;-;-;-
1512464165972;-;-;9.801147;0.31861877;-2.3384552;-;-;-;-;-;-;-;-;-;-;-;-;-;-;-
1512464165993;-;-;9.41449;0.38685608;-2.242691;-;-;-;-;-;-;-;-;-;-;-;-;-;-;-
1512464166013;-;-;7.221405;-0.45948792;-1.610611;-;-;-;-;-;-;-;-;-;-;-;-;-;-;-
1512464166034;-;-;9.823898;0.32341003;-2.5287933;-;-;-;-;-;-;-;-;-;-;-;-;-;-;-
1512464166055;-;-;9.288788;0.28749084;-2.1134033;-;-;-;-;-;-;-;-;-;-;-;-;-;-;-
1512464166075;-;-;8.917694;0.18814087;-2.0990295;-;-;-;-;-;-;-;-;-;-;-;-;-;-;-
1512464166095;-;-;8.827911;0.057647705;-2.500061;-;-;-;-;-;-;-;-;-;-;-;-;-;-;-
1512464166116;-;-;8.829102;-0.0728302;-2.468933;-;-;-;-;-;-;-;-;-;-;-;-;-;-;-
1512464166137;-;-;8.678268;-0.062057495;-2.5491486;-;-;-;-;-;-;-;-;-;-;-;-;-;-;-
1512464166157;-;-;8.668701;-0.11352539;-2.6078033;-;-;-;-;-;-;-;-;-;-;-;-;-;-;-
1512464166176;-;-;8.806366;-0.23085022;-2.6473083;-;-;-;-;-;-;-;-;-;-;-;-;-;-;-
1512464166197;-;-;9.019455;-0.3768921;-2.6209717;-;-;-;-;-;-;-;-;-;-;-;-;-;-;-
1512464166216;-;-;9.130783;-0.5253296;-2.7310944;-;-;-;-;-;-;-;-;-;-;-;-;-;-;-
1512464166237;-;-;9.131973;-0.5923767;-2.63414;-;-;-;-;-;-;-;-;-;-;-;-;-;-;-
1512464166257;-;-;9.122391;-0.5456848;-2.673645;-;-;-;-;-;-;-;-;-;-;-;-;-;-;-
1512464166277;-;-;9.062546;-0.47146606;-2.6628723;-;-;-;-;-;-;-;-;-;-;-;-;-;-;-
1512464166298;-;-;8.909317;-0.42237854;-2.673645;-;-;-;-;-;-;-;-;-;-;-;-;-;-;-
1512464166319;-;-;8.7656555;-0.46548462;-2.625763;-;-;-;-;-;-;-;-;-;-;-;-;-;-;-
1512464166339;-;-;8.754883;-0.5540619;-2.586258;-;-;-;-;-;-;-;-;-;-;-;-;-;-;-
1512464166359;-;-;8.88298;-0.7096863;-2.5216064;-;-;-;-;-;-;-;-;-;-;-;-;-;-;-
1512464166380;-;-;9.011063;-0.87368774;-2.4485931;-;-;-;-;-;-;-;-;-;-;-;-;-;-;-
1512464166400;-;-;9.009872;-0.9622803;-2.3564148;-;-;-;-;-;-;-;-;-;-;-;-;-;-;-
1512464166421;-;-;8.938049;-1.107132;-2.3935242;-;-;-;-;-;-;-;-;-;-;-;-;-;-;-
1512464166441;-;-;9.019455;-1.2962646;-2.4629517;-;-;-;-;-;-;-;-;-;-;-;-;-;-;-
1512464166462;-;-;9.179855;-1.3573151;-2.5371704;-;-;-;-;-;-;-;-;-;-;-;-;-;-;-
1512464166483;-;-;9.190628;-1.2328186;-2.3408508;-;-;-;-;-;-;-;-;-;-;-;-;-;-;-
1512464166503;-;-;9.008667;-0.92396545;-2.3300781;-;-;-;-;-;-;-;-;-;-;-;-;-;-;-
1512464166523;-;-;8.7417145;-0.86291504;-2.3516235;-;-;-;-;-;-;-;-;-;-;-;-;-;-;-
1512464166544;-;-;8.56694;-1.0532532;-2.737091;-;-;-;-;-;-;-;-;-;-;-;-;-;-;-
1512464166563;-;-;8.693832;-1.0460815;-2.630539;-;-;-;-;-;-;-;-;-;-;-;-;-;-;-
1512464166584;-;-;8.732147;-0.8090515;-2.488083;-;-;-;-;-;-;-;-;-;-;-;-;-;-;-
1512464166605;-;-;8.918884;-0.54689026;-2.6772308;-;-;-;-;-;-;-;-;-;-;-;-;-;-;-
1512464166625;-;-;9.09845;-0.23443604;-2.8484192;-;-;-;-;-;-;-;-;-;-;-;-;-;-;-
1512464166646;-;-;9.109222;0.031311035;-2.8627777;-;-;-;-;-;-;-;-;-;-;-;-;-;-;-
1512464166666;-;-;9.17627;0.3425598;-3.0447388;-;-;-;-;-;-;-;-;-;-;-;-;-;-;-
1512464166686;-;-;9.148727;0.62268066;-3.2243042;-;-;-;-;-;-;-;-;-;-;-;-;-;-;-
1512464166707;-;-;8.88298;0.7986603;-3.4517517;-;-;-;-;-;-;-;-;-;-;-;-;-;-;-
1512464166728;-;-;8.736938;0.5484619;-3.3715515;-;-;-;-;-;-;-;-;-;-;-;-;-;-;-
1512464166749;-;-;8.791992;-0.076416016;-2.8627777;-;-;-;-;-;-;-;-;-;-;-;-;-;-;-
1512464166769;-;-;8.908112;-0.5145569;-2.4976654;-;-;-;-;-;-;-;-;-;-;-;-;-;-;-
1512464166788;-;-;9.014664;-0.74320984;-2.5359802;-;-;-;-;-;-;-;-;-;-;-;-;-;-;-
1512464166809;-;-;8.950012;-0.6917267;-2.71315;-;-;-;-;-;-;-;-;-;-;-;-;-;-;-
1512464166828;-;-;8.843475;-0.40802002;-2.9022827;-;-;-;-;-;-;-;-;-;-;-;-;-;-;-
1512464166848;-;-;8.693832;-0.21768188;-2.8843231;-;-;-;-;-;-;-;-;-;-;-;-;-;-;-
1512464166869;-;-;8.611237;-0.1410675;-2.8232727;-;-;-;-;-;-;-;-;-;-;-;-;-;-;-
1512464166890;-;-;8.614822;-0.18296814;-2.7694092;-;-;-;-;-;-;-;-;-;-;-;-;-;-;-
1512464166910;-;-;8.709396;-0.33140564;-2.89151;-;-;-;-;-;-;-;-;-;-;-;-;-;-;-
1512464166930;-;-;8.712982;-0.3577423;-2.9812927;-;-;-;-;-;-;-;-;-;-;-;-;-;-;-
1512464166951;-;-;8.778824;-0.33380127;-2.8963013;-;-;-;-;-;-;-;-;-;-;-;-;-;-;-
1512464166970;-;-;8.896149;-0.3074646;-2.946579;-;-;-;-;-;-;-;-;-;-;-;-;-;-;-
1512464166990;-;-;8.932053;-0.24281311;-3.0160065;-;-;-;-;-;-;-;-;-;-;-;-;-;-;-
1512464167011;-;-;8.829102;-0.105148315;-3.0830536;-;-;-;-;-;-;-;-;-;-;-;-;-;-;-
1512464167031;-;-;8.651932;-0.016571045;-3.04953;-;-;-;-;-;-;-;-;-;-;-;-;-;-;-
1512464167052;-;-;8.516663;0.0181427;-2.9932709;-;-;-;-;-;-;-;-;-;-;-;-;-;-;-
1512464167073;-;-;8.607651;0.02532959;-2.9178467;-;-;-;-;-;-;-;-;-;-;-;-;-;-;-
1512464167093;-;-;8.847061;-0.05847168;-2.883133;-;-;-;-;-;-;-;-;-;-;-;-;-;-;-
1512464167112;-;-;9.009872;-0.11114502;-2.8077087;-;-;-;-;-;-;-;-;-;-;-;-;-;-;-
1512464167133;-;-;9.167892;-0.26437378;-2.7837677;-;-;-;-;-;-;-;-;-;-;-;-;-;-;-
1512464167152;-;-;9.103241;-0.29309082;-2.8496094;-;-;-;-;-;-;-;-;-;-;-;-;-;-;-
1512464167172;-;-;8.941635;-0.26556396;-2.8723602;-;-;-;-;-;-;-;-;-;-;-;-;-;-;-
1512464167193;-;-;8.7656555;-0.114730835;-2.7059631;-;-;-;-;-;-;-;-;-;-;-;-;-;-;-
1512464167213;-;-;8.669891;0.0025787354;-2.6712494;-;-;-;-;-;-;-;-;-;-;-;-;-;-;-
1512464167233;-;-;8.673492;0.045684814;-2.5694885;-;-;-;-;-;-;-;-;-;-;-;-;-;-;-
1512464167254;-;-;8.777634;0.012161255;-2.531189;-;-;-;-;-;-;-;-;-;-;-;-;-;-;-
1512464167275;-;-;8.975159;-0.0010070801;-2.594635;-;-;-;-;-;-;-;-;-;-;-;-;-;-;-
1512464167295;-;-;9.075714;0.083984375;-2.5503387;-;-;-;-;-;-;-;-;-;-;-;-;-;-;-
1512464167316;-;-;9.068527;0.22164917;-2.852005;-;-;-;-;-;-;-;-;-;-;-;-;-;-;-
1512464167336;-;-;8.885376;0.29348755;-2.8113098;-;-;-;-;-;-;-;-;-;-;-;-;-;-;-
1512464167357;-;-;8.812347;0.4191742;-2.7155457;-;-;-;-;-;-;-;-;-;-;-;-;-;-;-
1512464167377;-;-;8.82193;0.55804443;-2.6209717;-;-;-;-;-;-;-;-;-;-;-;-;-;-;-
1512464167398;-;-;8.880585;0.6849365;-2.6006165;-;-;-;-;-;-;-;-;-;-;-;-;-;-;-
1512464167417;-;-;8.888962;0.80822754;-2.6377258;-;-;-;-;-;-;-;-;-;-;-;-;-;-;-
1512464167438;-;-;8.970367;0.7364044;-2.5599213;-;-;-;-;-;-;-;-;-;-;-;-;-;-;-
1512464167457;-;-;9.031418;0.5747986;-2.4438019;-;-;-;-;-;-;-;-;-;-;-;-;-;-;-
1512464167477;-;-;8.941635;0.4766388;-2.2642365;-;-;-;-;-;-;-;-;-;-;-;-;-;-;-
1512464167498;-;-;8.829102;0.43832397;-2.1457214;-;-;-;-;-;-;-;-;-;-;-;-;-;-;-
1512464167518;-;-;8.7812195;0.64064026;-2.227127;-;-;-;-;-;-;-;-;-;-;-;-;-;-;-
1512464167539;-;-;8.908112;1.0105438;-2.4425964;-;-;-;-;-;-;-;-;-;-;-;-;-;-;-
1512464167560;-;-;9.076904;1.3696747;-2.508438;-;-;-;-;-;-;-;-;-;-;-;-;-;-;-
1512464167579;-;-;9.2313385;1.5743866;-2.5419617;-;-;-;-;-;-;-;-;-;-;-;-;-;-;-
1512464167600;-;-;9.287598;1.5588226;-2.5359802;-;-;-;-;-;-;-;-;-;-;-;-;-;-;-
1512464167620;-;-;9.124786;1.5839539;-2.522812;-;-;-;-;-;-;-;-;-;-;-;-;-;-;-
1512464167641;-;-;8.735733;1.7443695;-2.326477;-;-;-;-;-;-;-;-;-;-;-;-;-;-;-
1512464167661;-;-;8.396957;1.7228241;-2.2738037;-;-;-;-;-;-;-;-;-;-;-;-;-;-;-
1512464167682;-;-;8.242523;1.5049438;-2.2295227;-;-;-;-;-;-;-;-;-;-;-;-;-;-;-
1512464167703;-;-;8.313156;1.2583466;-2.247467;-;-;-;-;-;-;-;-;-;-;-;-;-;-;-
1512464167723;-;-;8.622009;1.0835724;-2.2977448;-;-;-;-;-;-;-;-;-;-;-;-;-;-;-
1512464167743;-;-;8.837494;1.0296936;-2.3947144;-;-;-;-;-;-;-;-;-;-;-;-;-;-;-
1512464167764;-;-;8.880585;1.0261078;-2.2845764;-;-;-;-;-;-;-;-;-;-;-;-;-;-;-
1512464167783;-;-;8.815933;1.0081482;-2.2295227;-;-;-;-;-;-;-;-;-;-;-;-;-;-;-
1512464167804;-;-;8.778824;1.0356903;-2.230713;-;-;-;-;-;-;-;-;-;-;-;-;-;-;-
1512464167824;-;-;8.916504;1.1230774;-2.1505127;-;-;-;-;-;-;-;-;-;-;-;-;-;-;-
1512464167845;-;-;9.109222;1.1565857;-2.014038;-;-;-;-;-;-;-;-;-;-;-;-;-;-;-
1512464167865;-;-;9.216965;1.0799713;-1.8991089;-;-;-;-;-;-;-;-;-;-;-;-;-;-;-
1512464167886;-;-;9.076904;0.8297882;-1.6177979;-;-;-;-;-;-;-;-;-;-;-;-;-;-;-
1512464167906;-;-;8.786011;0.6562042;-1.5375977;-;-;-;-;-;-;-;-;-;-;-;-;-;-;-
1512464167927;-;-;8.5238495;0.77111816;-1.3963318;-;-;-;-;-;-;-;-;-;-;-;-;-;-;-
1512464167946;-;-;8.376602;0.7986603;-1.7267303;-;-;-;-;-;-;-;-;-;-;-;-;-;-;-
1512464167967;-;-;8.72496;0.833374;-2.5263977;-;-;-;-;-;-;-;-;-;-;-;-;-;-;-
1512464167986;-;-;9.099655;0.7124634;-3.7210999;-;-;-;-;-;-;-;-;-;-;-;-;-;-;-
1512464168007;-;-;9.716156;0.05645752;-4.278946;-;-;-;-;-;-;-;-;-;-;-;-;-;-;-
1512464168027;-;-;9.301956;-0.23324585;-4.2083282;-;-;-;-;-;-;-;-;-;-;-;-;-;-;-
1512464168048;-;-;7.8391113;0.14503479;-4.0431213;-;-;-;-;-;-;-;-;-;-;-;-;-;-;-
1512464168068;-;-;7.0921173;0.4514923;-3.6085815;-;-;-;-;-;-;-;-;-;-;-;-;-;-;-
1512464168089;-;-;6.7880554;0.75675964;-2.9896698;-;-;-;-;-;-;-;-;-;-;-;-;-;-;-
1512464168109;-;-;7.561386;0.69810486;-2.302536;-;-;-;-;-;-;-;-;-;-;-;-;-;-;-
1512464168129;-;-;8.801575;0.5065613;-2.444992;-;-;-;-;-;-;-;-;-;-;-;-;-;-;-
1512464168150;-;-;9.895721;0.536499;-2.5886536;-;-;-;-;-;-;-;-;-;-;-;-;-;-;-
1512464168171;-;-;10.574478;0.6549988;-2.3767548;-;-;-;-;-;-;-;-;-;-;-;-;-;-;-
1512464168191;-;-;10.619965;0.21447754;-2.6377258;-;-;-;-;-;-;-;-;-;-;-;-;-;-;-
1512464168212;-;-;9.843048;-0.1482544;-2.429428;-;-;-;-;-;-;-;-;-;-;-;-;-;-;-
1512464168232;-;-;9.145142;-0.32661438;-2.1576843;-;-;-;-;-;-;-;-;-;-;-;-;-;-;-
1512464168253;-;-;8.614822;-0.31704712;-2.1038208;-;-;-;-;-;-;-;-;-;-;-;-;-;-;-
1512464168273;-;-;8.364639;-0.21528625;-2.4019012;-;-;-;-;-;-;-;-;-;-;-;-;-;-;-
1512464168294;-;-;8.547791;-0.02734375;-2.594635;-;-;-;-;-;-;-;-;-;-;-;-;-;-;-
1512464168314;-;-;8.96199;0.11869812;-2.7478638;-;-;-;-;-;-;-;-;-;-;-;-;-;-;-
1512464168335;-;-;9.213379;0.119903564;-2.938202;-;-;-;-;-;-;-;-;-;-;-;-;-;-;-
1512464168355;-;-;9.15831;0.107925415;-3.1548767;-;-;-;-;-;-;-;-;-;-;-;-;-;-;-
1512464168376;-;-;8.957199;0.09236145;-3.2925415;-;-;-;-;-;-;-;-;-;-;-;-;-;-;-
1512464168397;-;-;9.041;0.30186462;-2.836441;-;-;-;-;-;-;-;-;-;-;-;-;-;-;-
1512464168417;-;-;8.990723;0.54966736;-2.2223358;-;-;-;-;-;-;-;-;-;-;-;-;-;-;-
1512464168437;-;-;8.1719055;0.3317871;-2.3995056;-;-;-;-;-;-;-;-;-;-;-;-;-;-;-
1512464168458;-;-;9.352234;-0.35653687;-2.5682983;-;-;-;-;-;-;-;-;-;-;-;-;-;-;-
1512464168479;-;-;8.853058;-0.33499146;-2.6844177;-;-;-;-;-;-;-;-;-;-;-;-;-;-;-
1512464168499;-;-;8.502304;-0.16859436;-2.6688538;-;-;-;-;-;-;-;-;-;-;-;-;-;-;-
1512464168520;-;-;8.362244;0.31263733;-2.7275085;-;-;-;-;-;-;-;-;-;-;-;-;-;-;-
1512464168540;-;-;8.173096;0.7400055;-2.752655;-;-;-;-;-;-;-;-;-;-;-;-;-;-;-
1512464168561;-;-;8.338303;0.70648193;-2.630539;-;-;-;-;-;-;-;-;-;-;-;-;-;-;-
1512464168581;-;-;9.027832;0.24798584;-2.507248;-;-;-;-;-;-;-;-;-;-;-;-;-;-;-
1512464168602;-;-;9.578491;-0.2715454;-2.3947144;-;-;-;-;-;-;-;-;-;-;-;-;-;-;-
1512464168621;-;-;9.729324;-0.71328735;-2.163681;-;-;-;-;-;-;-;-;-;-;-;-;-;-;-
1512464168642;-;-;9.473145;-0.94192505;-1.9853058;-;-;-;-;-;-;-;-;-;-;-;-;-;-;-
1512464168661;-;-;9.086487;-0.92037964;-1.9446106;-;-;-;-;-;-;-;-;-;-;-;-;-;-;-
1512464168682;-;-;8.763275;-0.61990356;-1.8775635;-;-;-;-;-;-;-;-;-;-;-;-;-;-;-
1512464168701;-;-;8.687851;-0.3876648;-2.00206;-;-;-;-;-;-;-;-;-;-;-;-;-;-;-
1512464168722;-;-;8.807556;-0.3757019;-2.1433258;-;-;-;-;-;-;-;-;-;-;-;-;-;-;-
1512464168742;-;-;8.959595;-0.3876648;-2.2977448;-;-;-;-;-;-;-;-;-;-;-;-;-;-;-
1512464168763;-;-;8.869812;-0.5361023;-2.0882568;-;-;-;-;-;-;-;-;-;-;-;-;-;-;-
1512464168782;-;-;8.851852;-0.7420044;-2.1253662;-;-;-;-;-;-;-;-;-;-;-;-;-;-;-
1512464168802;-;-;8.838684;-0.7767334;-1.9793243;-;-;-;-;-;-;-;-;-;-;-;-;-;-;-
1512464168823;-;-;8.876999;-0.65701294;-2.128952;-;-;-;-;-;-;-;-;-;-;-;-;-;-;-
1512464168844;-;-;8.88298;-0.3361969;-2.1816254;-;-;-;-;-;-;-;-;-;-;-;-;-;-;-
1512464168864;-;-;8.894943;-0.14225769;-2.3169098;-;-;-;-;-;-;-;-;-;-;-;-;-;-;-
1512464168885;-;-;8.965576;-0.10635376;-2.3600006;-;-;-;-;-;-;-;-;-;-;-;-;-;-;-
1512464168905;-;-;9.020645;-0.05368042;-2.2798004;-;-;-;-;-;-;-;-;-;-;-;-;-;-;-
1512464168925;-;-;9.069733;0.028915405;-2.2438812;-;-;-;-;-;-;-;-;-;-;-;-;-;-;-
1512464168945;-;-;9.067337;0.11152649;-2.3683777;-;-;-;-;-;-;-;-;-;-;-;-;-;-;-
1512464168965;-;-;8.989517;0.13426208;-2.326477;-;-;-;-;-;-;-;-;-;-;-;-;-;-;-
1512464168986;-;-;8.975159;0.086380005;-2.199585;-;-;-;-;-;-;-;-;-;-;-;-;-;-;-
1512464169006;-;-;9.042191;0.016952515;-2.3276825;-;-;-;-;-;-;-;-;-;-;-;-;-;-;-
1512464169026;-;-;8.990723;0.09715271;-2.2833862;-;-;-;-;-;-;-;-;-;-;-;-;-;-;-
1512464169047;-;-;8.912903;0.21806335;-2.3193054;-;-;-;-;-;-;-;-;-;-;-;-;-;-;-
1512464169068;-;-;8.963181;0.2348175;-2.3923187;-;-;-;-;-;-;-;-;-;-;-;-;-;-;-
1512464169088;-;-;9.017059;0.1953125;-2.515625;-;-;-;-;-;-;-;-;-;-;-;-;-;-;-
1512464169109;-;-;9.019455;0.091171265;-2.4078827;-;-;-;-;-;-;-;-;-;-;-;-;-;-;-
1512464169130;-;-;8.972763;-0.033325195;-2.3288727;-;-;-;-;-;-;-;-;-;-;-;-;-;-;-
1512464169150;-;-;8.830307;-0.15542603;-2.0116425;-;-;-;-;-;-;-;-;-;-;-;-;-;-;-
1512464169169;-;-;8.815933;-0.1697998;-1.9769287;-;-;-;-;-;-;-;-;-;-;-;-;-;-;-
1512464169190;-;-;8.941635;-0.08958435;-2.1409302;-;-;-;-;-;-;-;-;-;-;-;-;-;-;-
1512464169210;-;-;9.090073;0.038497925;-2.3851318;-;-;-;-;-;-;-;-;-;-;-;-;-;-;-
1512464169231;-;-;9.121201;0.14743042;-2.3947144;-;-;-;-;-;-;-;-;-;-;-;-;-;-;-
1512464169251;-;-;9.111618;0.21687317;-2.3468323;-;-;-;-;-;-;-;-;-;-;-;-;-;-;-
1512464169272;-;-;9.0182495;0.23242188;-2.2534637;-;-;-;-;-;-;-;-;-;-;-;-;-;-;-
1512464169292;-;-;8.935654;0.23242188;-2.1780396;-;-;-;-;-;-;-;-;-;-;-;-;-;-;-
1512464169313;-;-;8.866211;0.3317871;-2.2247314;-;-;-;-;-;-;-;-;-;-;-;-;-;-;-
1512464169333;-;-;8.942825;0.33657837;-2.1852264;-;-;-;-;-;-;-;-;-;-;-;-;-;-;-
1512464169354;-;-;8.783615;0.34854126;-2.4725342;-;-;-;-;-;-;-;-;-;-;-;-;-;-;-
1512464169375;-;-;8.997894;0.24559021;-2.47612;-;-;-;-;-;-;-;-;-;-;-;-;-;-;-
1512464169395;-;-;8.868607;0.013366699;-0.94262695;-;-;-;-;-;-;-;-;-;-;-;-;-;-;-
1512464169416;-;-;9.165497;0.70887756;-3.2099457;-;-;-;-;-;-;-;-;-;-;-;-;-;-;-
1512464169436;-;-;8.915298;0.6502228;-2.6987762;-;-;-;-;-;-;-;-;-;-;-;-;-;-;-
1512464169456;-;-;8.732147;0.37487793;-2.9561615;-;-;-;-;-;-;-;-;-;-;-;-;-;-;-
1512464169477;-;-;8.717773;-0.24043274;-2.47612;-;-;-;-;-;-;-;-;-;-;-;-;-;-;-
1512464169497;-;-;8.256897;-0.4487152;-1.689621;-;-;-;-;-;-;-;-;-;-;-;-;-;-;-
1512464169518;-;-;8.437653;-0.44752502;-1.571106;-;-;-;-;-;-;-;-;-;-;-;-;-;-;-
1512464169538;-;-;9.019455;-0.16619873;-2.0547333;-;-;-;-;-;-;-;-;-;-;-;-;-;-;-
1512464169559;-;-;9.379776;0.02293396;-2.591034;-;-;-;-;-;-;-;-;-;-;-;-;-;-;-
1512464169579;-;-;9.220566;0.1510315;-2.6772308;-;-;-;-;-;-;-;-;-;-;-;-;-;-;-
1512464169599;-;-;8.910507;0.0025787354;-2.6903992;-;-;-;-;-;-;-;-;-;-;-;-;-;-;-
1512464169620;-;-;8.746506;-0.17817688;-2.5659027;-;-;-;-;-;-;-;-;-;-;-;-;-;-;-
1512464169640;-;-;8.708206;-0.1925354;-2.610199;-;-;-;-;-;-;-;-;-;-;-;-;-;-;-
1512464169661;-;-;8.903336;-0.1590271;-2.3408508;-;-;-;-;-;-;-;-;-;-;-;-;-;-;-
1512464169681;-;-;9.181061;-0.19134521;-2.2798004;-;-;-;-;-;-;-;-;-;-;-;-;-;-;-
1512464169702;-;-;9.504272;-0.28352356;-2.1816254;-;-;-;-;-;-;-;-;-;-;-;-;-;-;-
1512464169723;-;-;9.164291;-0.36013794;-1.9865112;-;-;-;-;-;-;-;-;-;-;-;-;-;-;-
1512464169743;-;-;9.003891;-0.29788208;-2.1696625;-;-;-;-;-;-;-;-;-;-;-;-;-;-;-
1512464169764;-;-;9.049377;-0.24043274;-2.0858612;-;-;-;-;-;-;-;-;-;-;-;-;-;-;-
1512464169783;-;-;9.169083;-0.32302856;-2.096634;-;-;-;-;-;-;-;-;-;-;-;-;-;-;-
1512464169804;-;-;8.733337;-0.4259796;-1.9350281;-;-;-;-;-;-;-;-;-;-;-;-;-;-;-
1512464169824;-;-;8.857834;-0.38049316;-2.242691;-;-;-;-;-;-;-;-;-;-;-;-;-;-;-
1512464169844;-;-;8.872208;-0.17338562;-2.2594452;-;-;-;-;-;-;-;-;-;-;-;-;-;-;-
1512464169865;-;-;9.0972595;-0.13627625;-2.3228912;-;-;-;-;-;-;-;-;-;-;-;-;-;-;-
1512464169885;-;-;9.266052;-0.22247314;-2.4270325;-;-;-;-;-;-;-;-;-;-;-;-;-;-;-
1512464169906;-;-;9.226547;-0.24520874;-2.444992;-;-;-;-;-;-;-;-;-;-;-;-;-;-;-
1512464169926;-;-;9.306747;-0.35295105;-2.2606354;-;-;-;-;-;-;-;-;-;-;-;-;-;-;-
1512464169947;-;-;9.212173;-0.29548645;-2.302536;-;-;-;-;-;-;-;-;-;-;-;-;-;-;-
1512464169967;-;-;8.383789;-0.03453064;-2.4964752;-;-;-;-;-;-;-;-;-;-;-;-;-;-;-
1512464169987;-;-;8.534622;-0.105148315;-2.39711;-;-;-;-;-;-;-;-;-;-;-;-;-;-;-
1512464170008;-;-;8.732147;-0.3074646;-2.2582397;-;-;-;-;-;-;-;-;-;-;-;-;-;-;-
1512464170027;-;-;8.927277;-0.4559021;-2.3169098;-;-;-;-;-;-;-;-;-;-;-;-;-;-;-
1512464170047;-;-;9.036209;-0.42837524;-2.5838623;-;-;-;-;-;-;-;-;-;-;-;-;-;-;-
1512464170068;-;-;9.068527;-0.2966919;-2.601822;-;-;-;-;-;-;-;-;-;-;-;-;-;-;-
1512464170089;-;-;9.009872;-0.24760437;-2.546753;-;-;-;-;-;-;-;-;-;-;-;-;-;-;-
1512464170108;-;-;8.942825;-0.26914978;-2.4581604;-;-;-;-;-;-;-;-;-;-;-;-;-;-;-
1512464170129;-;-;8.92009;-0.2966919;-2.531189;-;-;-;-;-;-;-;-;-;-;-;-;-;-;-
1512464170149;-;-;8.911713;-0.3433838;-2.5419617;-;-;-;-;-;-;-;-;-;-;-;-;-;-;-
1512464170169;-;-;8.887772;-0.368515;-2.546753;-;-;-;-;-;-;-;-;-;-;-;-;-;-;-
1512464170190;-;-;8.875793;-0.289505;-2.6078033;-;-;-;-;-;-;-;-;-;-;-;-;-;-;-
1512464170211;-;-;8.868607;-0.20809937;-2.5419617;-;-;-;-;-;-;-;-;-;-;-;-;-;-;-
1512464170230;-;-;8.843475;-0.18415833;-2.4809113;-;-;-;-;-;-;-;-;-;-;-;-;-;-;-
1512464170251;-;-;8.869812;-0.19374084;-2.4485931;-;-;-;-;-;-;-;-;-;-;-;-;-;-;-
1512464170270;-;-;8.953613;-0.23564148;-2.4019012;-;-;-;-;-;-;-;-;-;-;-;-;-;-;-
1512464170291;-;-;9.011063;-0.2392273;-2.5012512;-;-;-;-;-;-;-;-;-;-;-;-;-;-;-
1512464170310;-;-;8.987122;-0.15542603;-2.725113;-;-;-;-;-;-;-;-;-;-;-;-;-;-;-
1512464170331;-;-;8.850662;-0.095581055;-2.7071533;-;-;-;-;-;-;-;-;-;-;-;-;-;-;-
1512464170351;-;-;8.824326;-0.050079346;-2.673645;-;-;-;-;-;-;-;-;-;-;-;-;-;-;-
1512464170372;-;-;8.845871;0.02053833;-2.6329346;-;-;-;-;-;-;-;-;-;-;-;-;-;-;-
1512464170392;-;-;8.946426;0.021743774;-2.658081;-;-;-;-;-;-;-;-;-;-;-;-;-;-;-
1512464170413;-;-;8.976349;0.04927063;-2.6688538;-;-;-;-;-;-;-;-;-;-;-;-;-;-;-
1512464170433;-;-;8.952408;0.06602478;-2.6724396;-;-;-;-;-;-;-;-;-;-;-;-;-;-;-
1512464170454;-;-;8.97995;0.08279419;-2.7191315;-;-;-;-;-;-;-;-;-;-;-;-;-;-;-
1512464170474;-;-;8.888962;0.10673523;-2.7155457;-;-;-;-;-;-;-;-;-;-;-;-;-;-;-
1512464170495;-;-;8.809952;0.0181427;-2.6844177;-;-;-;-;-;-;-;-;-;-;-;-;-;-;-
1512464170515;-;-;8.7764435;-0.021362305;-2.8304596;-;-;-;-;-;-;-;-;-;-;-;-;-;-;-
1512464170536;-;-;8.696228;-0.11831665;-2.6209717;-;-;-;-;-;-;-;-;-;-;-;-;-;-;-
1512464170556;-;-;8.763275;-0.29071045;-2.5814667;-;-;-;-;-;-;-;-;-;-;-;-;-;-;-
1512464170576;-;-;9.021835;-0.1985321;-2.7933502;-;-;-;-;-;-;-;-;-;-;-;-;-;-;-
1512464170597;-;-;9.056564;-0.13148499;-2.761032;-;-;-;-;-;-;-;-;-;-;-;-;-;-;-
1512464170618;-;-;8.916504;-0.085998535;-2.7933502;-;-;-;-;-;-;-;-;-;-;-;-;-;-;-
1512464170638;-;-;8.809952;-0.047698975;-2.6999817;-;-;-;-;-;-;-;-;-;-;-;-;-;-;-
1512464170658;-;-;8.8003845;-0.09197998;-2.757431;-;-;-;-;-;-;-;-;-;-;-;-;-;-;-
1512464170679;-;-;8.813553;-0.13148499;-2.7873688;-;-;-;-;-;-;-;-;-;-;-;-;-;-;-
1512464170700;-;-;8.806366;-0.12908936;-2.7849731;-;-;-;-;-;-;-;-;-;-;-;-;-;-;-
1512464170720;-;-;8.812347;-0.119522095;-2.7993317;-;-;-;-;-;-;-;-;-;-;-;-;-;-;-
1512464170741;-;-;8.814743;-0.11592102;-2.8484192;-;-;-;-;-;-;-;-;-;-;-;-;-;-;-
1512464170760;-;-;8.884171;-0.11831665;-2.860382;-;-;-;-;-;-;-;-;-;-;-;-;-;-;-
1512464170780;-;-;8.867416;-0.097976685;-2.8244781;-;-;-;-;-;-;-;-;-;-;-;-;-;-;-
1512464170801;-;-;8.876999;-0.14225769;-2.728714;-;-;-;-;-;-;-;-;-;-;-;-;-;-;-
1512464170821;-;-;8.916504;-0.088394165;-2.7670135;-;-;-;-;-;-;-;-;-;-;-;-;-;-;-
1512464170842;-;-;8.833893;-0.074035645;-2.7933502;-;-;-;-;-;-;-;-;-;-;-;-;-;-;-
1512464170863;-;-;8.861435;-0.08958435;-2.8352509;-;-;-;-;-;-;-;-;-;-;-;-;-;-;-
1512464170883;-;-;8.871002;-0.095581055;-2.840042;-;-;-;-;-;-;-;-;-;-;-;-;-;-;-
1512464170904;-;-;8.817139;0.0049743652;-2.8113098;-;-;-;-;-;-;-;-;-;-;-;-;-;-;-
1512464170924;-;-;8.829102;-0.02494812;-2.7418823;-;-;-;-;-;-;-;-;-;-;-;-;-;-;-
1512464170944;-;-;8.847061;-0.023742676;-2.7909546;-;-;-;-;-;-;-;-;-;-;-;-;-;-;-
1512464170965;-;-;8.867416;-0.06803894;-2.7897644;-;-;-;-;-;-;-;-;-;-;-;-;-;-;-
1512464170986;-;-;8.888962;-0.06086731;-2.7933502;-;-;-;-;-;-;-;-;-;-;-;-;-;-;-
1512464171005;-;-;8.871002;-0.07522583;-2.8232727;-;-;-;-;-;-;-;-;-;-;-;-;-;-;-
1512464171026;-;-;8.885376;-0.06803894;-2.8304596;-;-;-;-;-;-;-;-;-;-;-;-;-;-;-
1512464171046;-;-;8.849457;-0.071640015;-2.800537;-;-;-;-;-;-;-;-;-;-;-;-;-;-;-
1512464171067;-;-;8.814743;-0.07522583;-2.7430725;-;-;-;-;-;-;-;-;-;-;-;-;-;-;-
1512464171087;-;-;8.896149;-0.09916687;-2.7777863;-;-;-;-;-;-;-;-;-;-;-;-;-;-;-
1512464171108;-;-;8.817139;-0.08480835;-2.8412323;-;-;-;-;-;-;-;-;-;-;-;-;-;-;-
1512464171129;-;-;8.8003845;-0.13148499;-2.8304596;-;-;-;-;-;-;-;-;-;-;-;-;-;-;-
1512464171149;-;-;8.953613;-0.13627625;-2.7670135;-;-;-;-;-;-;-;-;-;-;-;-;-;-;-
1512464171169;-;-;8.7764435;-0.09197998;-2.630539;-;-;-;-;-;-;-;-;-;-;-;-;-;-;-
1512464171190;-;-;8.757278;-0.1410675;-2.7203217;-;-;-;-;-;-;-;-;-;-;-;-;-;-;-
1512464171210;-;-;8.815933;-0.16142273;-2.7837677;-;-;-;-;-;-;-;-;-;-;-;-;-;-;-
1512464171231;-;-;8.98114;-0.16261292;-2.7454681;-;-;-;-;-;-;-;-;-;-;-;-;-;-;-
1512464171251;-;-;8.963181;-0.16619873;-2.7622223;-;-;-;-;-;-;-;-;-;-;-;-;-;-;-
1512464171272;-;-;8.819534;-0.13627625;-2.7167358;-;-;-;-;-;-;-;-;-;-;-;-;-;-;-
1512464171293;-;-;8.7608795;-0.119522095;-2.7167358;-;-;-;-;-;-;-;-;-;-;-;-;-;-;-
1512464171312;-;-;8.80397;-0.13627625;-2.6868134;-;-;-;-;-;-;-;-;-;-;-;-;-;-;-
1512464171333;-;-;8.817139;-0.14585876;-2.780182;-;-;-;-;-;-;-;-;-;-;-;-;-;-;-
1512464171352;-;-;8.875793;-0.21409607;-2.7418823;-;-;-;-;-;-;-;-;-;-;-;-;-;-;-
1512464171373;-;-;8.92128;-0.23085022;-2.6329346;-;-;-;-;-;-;-;-;-;-;-;-;-;-;-
1512464171393;-;-;8.880585;-0.21647644;-2.665268;-;-;-;-;-;-;-;-;-;-;-;-;-;-;-
1512464171414;-;-;8.799179;-0.15542603;-2.73349;-;-;-;-;-;-;-;-;-;-;-;-;-;-;-
1512464171433;-;-;8.859039;-0.18655396;-2.6664581;-;-;-;-;-;-;-;-;-;-;-;-;-;-;-
1512464171454;-;-;8.933258;-0.18415833;-2.6437073;-;-;-;-;-;-;-;-;-;-;-;-;-;-;-
1512464171474;-;-;8.855438;-0.15184021;-2.7263184;-;-;-;-;-;-;-;-;-;-;-;-;-;-;-
1512464171495;-;-;8.845871;-0.13867188;-2.7406769;-;-;-;-;-;-;-;-;-;-;-;-;-;-;-
1512464171515;-;-;8.869812;-0.15782166;-2.6868134;-;-;-;-;-;-;-;-;-;-;-;-;-;-;-
1512464171535;-;-;8.873398;-0.16381836;-2.682022;-;-;-;-;-;-;-;-;-;-;-;-;-;-;-
1512464171556;-;-;8.873398;-0.17459106;-2.685608;-;-;-;-;-;-;-;-;-;-;-;-;-;-;-
1512464171576;-;-;8.878189;-0.17098999;-2.7059631;-;-;-;-;-;-;-;-;-;-;-;-;-;-;-
1512464171596;-;-;8.83989;-0.1697998;-2.7227173;-;-;-;-;-;-;-;-;-;-;-;-;-;-;-
1512464171617;-;-;8.833893;-0.18536377;-2.6916046;-;-;-;-;-;-;-;-;-;-;-;-;-;-;-
1512464171638;-;-;8.861435;-0.17219543;-2.689209;-;-;-;-;-;-;-;-;-;-;-;-;-;-;-
1512464171658;-;-;8.935654;-0.15542603;-2.6413116;-;-;-;-;-;-;-;-;-;-;-;-;-;-;-
1512464171678;-;-;8.854248;-0.10635376;-2.761032;-;-;-;-;-;-;-;-;-;-;-;-;-;-;-
1512464171700;-;-;8.84108;-0.19374084;-2.7191315;-;-;-;-;-;-;-;-;-;-;-;-;-;-;-
1512464171720;-;-;8.825516;-0.16500854;-2.7382813;-;-;-;-;-;-;-;-;-;-;-;-;-;-;-
1512464171740;-;-;8.833893;-0.15423584;-2.7382813;-;-;-;-;-;-;-;-;-;-;-;-;-;-;-
1512464171761;-;-;8.835098;-0.11831665;-2.761032;-;-;-;-;-;-;-;-;-;-;-;-;-;-;-
1512464171781;-;-;8.843475;-0.12669373;-2.819687;-;-;-;-;-;-;-;-;-;-;-;-;-;-;-
1512464171802;-;-;8.874603;-0.16142273;-2.764618;-;-;-;-;-;-;-;-;-;-;-;-;-;-;-
1512464171822;-;-;8.886566;-0.11592102;-2.757431;-;-;-;-;-;-;-;-;-;-;-;-;-;-;-
1512464171843;-;-;8.824326;-0.10635376;-2.7945404;-;-;-;-;-;-;-;-;-;-;-;-;-;-;-
1512464171863;-;-;8.738129;-0.09437561;-2.7466583;-;-;-;-;-;-;-;-;-;-;-;-;-;-;-
1512464171884;-;-;8.806366;-0.07522583;-2.8017273;-;-;-;-;-;-;-;-;-;-;-;-;-;-;-
1512464171905;-;-;8.866211;-0.088394165;-2.7933502;-;-;-;-;-;-;-;-;-;-;-;-;-;-;-
1512464171924;-;-;8.90213;-0.13867188;-2.7777863;-;-;-;-;-;-;-;-;-;-;-;-;-;-;-
1512464171945;-;-;8.873398;-0.17817688;-2.7167358;-;-;-;-;-;-;-;-;-;-;-;-;-;-;-
1512464171965;-;-;8.863831;-0.12908936;-2.79216;-;-;-;-;-;-;-;-;-;-;-;-;-;-;-
1512464171986;-;-;8.832703;-0.124313354;-2.7406769;-;-;-;-;-;-;-;-;-;-;-;-;-;-;-
1512464172006;-;-;8.829102;-0.093185425;-2.7742004;-;-;-;-;-;-;-;-;-;-;-;-;-;-;-
1512464172027;-;-;8.832703;-0.12310791;-2.7849731;-;-;-;-;-;-;-;-;-;-;-;-;-;-;-
1512464172047;-;-;8.873398;-0.062057495;-2.788559;-;-;-;-;-;-;-;-;-;-;-;-;-;-;-
1512464172068;-;-;8.867416;-0.08001709;-2.7502594;-;-;-;-;-;-;-;-;-;-;-;-;-;-;-
1512464172088;-;-;8.884171;-0.0728302;-2.737091;-;-;-;-;-;-;-;-;-;-;-;-;-;-;-
1512464172108;-;-;8.950012;-0.090789795;-2.7322998;-;-;-;-;-;-;-;-;-;-;-;-;-;-;-
1512464172129;-;-;8.897339;-0.066848755;-2.8077087;-;-;-;-;-;-;-;-;-;-;-;-;-;-;-
1512464172149;-;-;8.893753;-0.093185425;-2.816101;-;-;-;-;-;-;-;-;-;-;-;-;-;-;-
1512464172170;-;-;8.898544;-0.062057495;-2.7753906;-;-;-;-;-;-;-;-;-;-;-;-;-;-;-
1512464172190;-;-;8.847061;-0.052474976;-2.7466583;-;-;-;-;-;-;-;-;-;-;-;-;-;-;-
1512464172211;-;-;8.782425;-0.028533936;-2.749054;-;-;-;-;-;-;-;-;-;-;-;-;-;-;-
1512464172231;-;-;8.769257;0.0025787354;-2.752655;-;-;-;-;-;-;-;-;-;-;-;-;-;-;-
1512464172252;-;-;8.818329;0.0049743652;-2.7358856;-;-;-;-;-;-;-;-;-;-;-;-;-;-;-
1512464172273;-;-;8.82193;-0.02255249;-2.7263184;-;-;-;-;-;-;-;-;-;-;-;-;-;-;-
1512464172292;-;-;8.855438;-0.090789795;-2.7622223;-;-;-;-;-;-;-;-;-;-;-;-;-;-;-
1512464172313;-;-;8.84227;-0.07762146;-2.7430725;-;-;-;-;-;-;-;-;-;-;-;-;-;-;-
1512464172334;-;-;8.892548;-0.071640015;-2.6987762;-;-;-;-;-;-;-;-;-;-;-;-;-;-;-
1512464172354;-;-;8.879379;-0.06803894;-2.6987762;-;-;-;-;-;-;-;-;-;-;-;-;-;-;-
1512464172374;-;-;8.890167;-0.042907715;-2.6712494;-;-;-;-;-;-;-;-;-;-;-;-;-;-;-
1512464172394;-;-;8.881775;-0.035720825;-2.6473083;-;-;-;-;-;-;-;-;-;-;-;-;-;-;-
1512464172415;-;-;8.8207245;-0.03930664;-2.6796265;-;-;-;-;-;-;-;-;-;-;-;-;-;-;-
1512464172435;-;-;8.758484;-0.06086731;-2.6664581;-;-;-;-;-;-;-;-;-;-;-;-;-;-;-
1512464172456;-;-;8.82193;-0.0440979;-2.7047577;-;-;-;-;-;-;-;-;-;-;-;-;-;-;-
1512464172476;-;-;8.847061;-0.08001709;-2.6916046;-;-;-;-;-;-;-;-;-;-;-;-;-;-;-
1512464172497;-;-;8.930862;-0.13627625;-2.7071533;-;-;-;-;-;-;-;-;-;-;-;-;-;-;-
1512464172517;-;-;8.911713;-0.13748169;-2.658081;-;-;-;-;-;-;-;-;-;-;-;-;-;-;-
1512464172538;-;-;8.915298;-0.13627625;-2.6520996;-;-;-;-;-;-;-;-;-;-;-;-;-;-;-
1512464172557;-;-;8.844666;-0.08241272;-2.658081;-;-;-;-;-;-;-;-;-;-;-;-;-;-;-
1512464172578;-;-;8.838684;-0.09197998;-2.7191315;-;-;-;-;-;-;-;-;-;-;-;-;-;-;-
1512464172598;-;-;8.859039;-0.09437561;-2.7310944;-;-;-;-;-;-;-;-;-;-;-;-;-;-;-
1512464172619;-;-;8.826721;-0.1015625;-2.7382813;-;-;-;-;-;-;-;-;-;-;-;-;-;-;-
1512464172639;-;-;8.843475;-0.078811646;-2.7023773;-;-;-;-;-;-;-;-;-;-;-;-;-;-;-
1512464172660;-;-;8.862625;-0.078811646;-2.6832123;-;-;-;-;-;-;-;-;-;-;-;-;-;-;-
1512464172679;-;-;8.868607;-0.081207275;-2.721527;-;-;-;-;-;-;-;-;-;-;-;-;-;-;-
1512464172700;-;-;8.862625;-0.08480835;-2.717926;-;-;-;-;-;-;-;-;-;-;-;-;-;-;-
1512464172721;-;-;8.885376;-0.06324768;-2.682022;-;-;-;-;-;-;-;-;-;-;-;-;-;-;-
1512464172741;-;-;8.849457;-0.062057495;-2.709549;-;-;-;-;-;-;-;-;-;-;-;-;-;-;-
1512464172762;-;-;8.880585;-0.03691101;-2.6784363;-;-;-;-;-;-;-;-;-;-;-;-;-;-;-
1512464172782;-;-;8.894943;-0.05847168;-2.7011719;-;-;-;-;-;-;-;-;-;-;-;-;-;-;-
1512464172803;-;-;9.045776;-0.11114502;-2.531189;-;-;-;-;-;-;-;-;-;-;-;-;-;-;-
1512464172823;-;-;8.932053;-0.018966675;-2.8579865;-;-;-;-;-;-;-;-;-;-;-;-;-;-;-
1512464172844;-;-;8.806366;-0.057266235;-2.7083588;-;-;-;-;-;-;-;-;-;-;-;-;-;-;-
1512464172864;-;-;8.74292;-0.083602905;-2.610199;-;-;-;-;-;-;-;-;-;-;-;-;-;-;-
1512464172885;-;-;8.813553;-0.10635376;-2.682022;-;-;-;-;-;-;-;-;-;-;-;-;-;-;-
1512464172905;-;-;8.96199;-0.08720398;-2.6401215;-;-;-;-;-;-;-;-;-;-;-;-;-;-;-
1512464172925;-;-;9.003891;-0.12071228;-2.6353302;-;-;-;-;-;-;-;-;-;-;-;-;-;-;-
1512464172945;-;-;9.014664;-0.12908936;-2.614975;-;-;-;-;-;-;-;-;-;-;-;-;-;-;-
1512464172966;-;-;8.922485;-0.11831665;-2.594635;-;-;-;-;-;-;-;-;-;-;-;-;-;-;-
1512464172986;-;-;8.849457;-0.100372314;-2.6772308;-;-;-;-;-;-;-;-;-;-;-;-;-;-;-
1512464173007;-;-;8.747711;-0.06803894;-2.606598;-;-;-;-;-;-;-;-;-;-;-;-;-;-;-
1512464173027;-;-;8.707001;-0.00819397;-2.6688538;-;-;-;-;-;-;-;-;-;-;-;-;-;-;-
1512464173048;-;-;8.8207245;-0.081207275;-2.685608;-;-;-;-;-;-;-;-;-;-;-;-;-;-;-
1512464173069;-;-;8.90094;-0.09197998;-2.6784363;-;-;-;-;-;-;-;-;-;-;-;-;-;-;-
1512464173088;-;-;8.942825;-0.09677124;-2.6963806;-;-;-;-;-;-;-;-;-;-;-;-;-;-;-
1512464173109;-;-;8.930862;-0.09677124;-2.6173706;-;-;-;-;-;-;-;-;-;-;-;-;-;-;-
1512464173128;-;-;8.879379;-0.08480835;-2.6329346;-;-;-;-;-;-;-;-;-;-;-;-;-;-;-
1512464173149;-;-;8.817139;-0.07762146;-2.6927948;-;-;-;-;-;-;-;-;-;-;-;-;-;-;-
1512464173170;-;-;8.84108;-0.047698975;-2.6796265;-;-;-;-;-;-;-;-;-;-;-;-;-;-;-
1512464173190;-;-;8.872208;-0.059661865;-2.6556854;-;-;-;-;-;-;-;-;-;-;-;-;-;-;-
1512464173210;-;-;8.908112;-0.093185425;-2.6413116;-;-;-;-;-;-;-;-;-;-;-;-;-;-;-
1512464173231;-;-;8.872208;-0.054870605;-2.6616669;-;-;-;-;-;-;-;-;-;-;-;-;-;-;-
1512464173250;-;-;8.845871;-0.038116455;-2.6604767;-;-;-;-;-;-;-;-;-;-;-;-;-;-;-
1512464173270;-;-;8.84227;-0.03930664;-2.63414;-;-;-;-;-;-;-;-;-;-;-;-;-;-;-
1512464173290;-;-;8.849457;-0.093185425;-2.6377258;-;-;-;-;-;-;-;-;-;-;-;-;-;-;-
1512464173311;-;-;8.862625;-0.117126465;-2.6377258;-;-;-;-;-;-;-;-;-;-;-;-;-;-;-
1512464173332;-;-;8.890167;-0.12789917;-2.6377258;-;-;-;-;-;-;-;-;-;-;-;-;-;-;-
1512464173352;-;-;8.847061;-0.13986206;-2.6078033;-;-;-;-;-;-;-;-;-;-;-;-;-;-;-
1512464173373;-;-;8.82312;-0.078811646;-2.5934296;-;-;-;-;-;-;-;-;-;-;-;-;-;-;-
1512464173393;-;-;8.881775;-0.107543945;-2.6365356;-;-;-;-;-;-;-;-;-;-;-;-;-;-;-
1512464173414;-;-;8.898544;-0.13627625;-2.5898438;-;-;-;-;-;-;-;-;-;-;-;-;-;-;-
1512464173433;-;-;8.905716;-0.12669373;-2.5982208;-;-;-;-;-;-;-;-;-;-;-;-;-;-;-
1512464173454;-;-;8.971558;-0.0728302;-2.579071;-;-;-;-;-;-;-;-;-;-;-;-;-;-;-
1512464173474;-;-;8.947617;-0.13148499;-2.5407562;-;-;-;-;-;-;-;-;-;-;-;-;-;-;-
1512464173495;-;-;8.929672;-0.12908936;-2.5850525;-;-;-;-;-;-;-;-;-;-;-;-;-;-;-
1512464173516;-;-;8.9787445;-0.06564331;-2.5659027;-;-;-;-;-;-;-;-;-;-;-;-;-;-;-
1512464173535;-;-;8.922485;-0.088394165;-2.5575256;-;-;-;-;-;-;-;-;-;-;-;-;-;-;-
1512464173556;-;-;8.854248;-0.100372314;-2.5539246;-;-;-;-;-;-;-;-;-;-;-;-;-;-;-
1512464173576;-;-;8.851852;-0.064453125;-2.5814667;-;-;-;-;-;-;-;-;-;-;-;-;-;-;-
1512464173597;-;-;8.84227;-0.04649353;-2.6042023;-;-;-;-;-;-;-;-;-;-;-;-;-;-;-
1512464173617;-;-;8.90094;-0.097976685;-2.5850525;-;-;-;-;-;-;-;-;-;-;-;-;-;-;-
1512464173638;-;-;8.897339;-0.09916687;-2.6054077;-;-;-;-;-;-;-;-;-;-;-;-;-;-;-
1512464173657;-;-;8.879379;-0.109939575;-2.522812;-;-;-;-;-;-;-;-;-;-;-;-;-;-;-
1512464173678;-;-;8.836288;0.0025787354;-2.5970306;-;-;-;-;-;-;-;-;-;-;-;-;-;-;-
1512464173698;-;-;8.876999;-0.083602905;-2.3671875;-;-;-;-;-;-;-;-;-;-;-;-;-;-;-
1512464173718;-;-;8.806366;-0.13986206;-2.4246368;-;-;-;-;-;-;-;-;-;-;-;-;-;-;-
1512464173739;-;-;8.916504;-0.090789795;-2.6999817;-;-;-;-;-;-;-;-;-;-;-;-;-;-;-
1512464173760;-;-;8.938049;-0.03930664;-2.6640625;-;-;-;-;-;-;-;-;-;-;-;-;-;-;-
1512464173780;-;-;8.904526;-0.0440979;-2.6449127;-;-;-;-;-;-;-;-;-;-;-;-;-;-;-
1512464173800;-;-;8.813553;-0.04649353;-2.5455475;-;-;-;-;-;-;-;-;-;-;-;-;-;-;-
1512464173821;-;-;8.82312;-0.07522583;-2.5299835;-;-;-;-;-;-;-;-;-;-;-;-;-;-;-
1512464173841;-;-;8.908112;-0.0728302;-2.5646973;-;-;-;-;-;-;-;-;-;-;-;-;-;-;-
1512464173862;-;-;8.917694;-0.066848755;-2.55513;-;-;-;-;-;-;-;-;-;-;-;-;-;-;-
1512464173883;-;-;8.894943;-0.06324768;-2.5742798;-;-;-;-;-;-;-;-;-;-;-;-;-;-;-
1512464173903;-;-;8.8997345;-0.07043457;-2.5766754;-;-;-;-;-;-;-;-;-;-;-;-;-;-;-
1512464173923;-;-;8.881775;-0.03691101;-2.570694;-;-;-;-;-;-;-;-;-;-;-;-;-;-;-
1512464173944;-;-;8.915298;-0.0105896;-2.5682983;-;-;-;-;-;-;-;-;-;-;-;-;-;-;-
1512464173963;-;-;8.908112;-0.069244385;-2.6173706;-;-;-;-;-;-;-;-;-;-;-;-;-;-;-
1512464173983;-;-;8.848267;-0.05607605;-2.6293488;-;-;-;-;-;-;-;-;-;-;-;-;-;-;-
1512464174004;-;-;8.924881;-0.026138306;-2.5826569;-;-;-;-;-;-;-;-;-;-;-;-;-;-;-
1512464174024;-;-;8.926071;-0.076416016;-2.5371704;-;-;-;-;-;-;-;-;-;-;-;-;-;-;-
1512464174045;-;-;8.872208;-0.11114502;-2.5898438;-;-;-;-;-;-;-;-;-;-;-;-;-;-;-
1512464174064;-;-;8.904526;-0.076416016;-2.567093;-;-;-;-;-;-;-;-;-;-;-;-;-;-;-
1512464174085;-;-;8.887772;-0.02734375;-2.5347748;-;-;-;-;-;-;-;-;-;-;-;-;-;-;-
1512464174105;-;-;8.888962;-0.028533936;-2.5694885;-;-;-;-;-;-;-;-;-;-;-;-;-;-;-
1512464174126;-;-;8.886566;-0.097976685;-2.567093;-;-;-;-;-;-;-;-;-;-;-;-;-;-;-
1512464174146;-;-;8.890167;-0.06324768;-2.646103;-;-;-;-;-;-;-;-;-;-;-;-;-;-;-
1512464174166;-;-;8.905716;-0.0728302;-2.630539;-;-;-;-;-;-;-;-;-;-;-;-;-;-;-
1512464174187;-;-;8.942825;-0.102752686;-2.5826569;-;-;-;-;-;-;-;-;-;-;-;-;-;-;-
1512464174208;-;-;8.908112;-0.11114502;-2.5754852;-;-;-;-;-;-;-;-;-;-;-;-;-;-;-
1512464174228;-;-;8.90094;-0.08720398;-2.579071;-;-;-;-;-;-;-;-;-;-;-;-;-;-;-
1512464174249;-;-;8.881775;-0.064453125;-2.567093;-;-;-;-;-;-;-;-;-;-;-;-;-;-;-
1512464174269;-;-;8.875793;-0.08241272;-2.5874481;-;-;-;-;-;-;-;-;-;-;-;-;-;-;-
1512464174290;-;-;8.915298;-0.09437561;-2.5922394;-;-;-;-;-;-;-;-;-;-;-;-;-;-;-
1512464174310;-;-;8.892548;-0.06086731;-2.5838623;-;-;-;-;-;-;-;-;-;-;-;-;-;-;-
1512464174331;-;-;8.886566;-0.064453125;-2.6137848;-;-;-;-;-;-;-;-;-;-;-;-;-;-;-
1512464174352;-;-;8.888962;-0.040512085;-2.5407562;-;-;-;-;-;-;-;-;-;-;-;-;-;-;-
1512464174372;-;-;8.90213;-0.050079346;-2.5886536;-;-;-;-;-;-;-;-;-;-;-;-;-;-;-
1512464174392;-;-;8.906921;-0.07043457;-2.5970306;-;-;-;-;-;-;-;-;-;-;-;-;-;-;-
1512464174413;-;-;8.917694;-0.062057495;-2.6173706;-;-;-;-;-;-;-;-;-;-;-;-;-;-;-
1512464174432;-;-;8.915298;-0.06564331;-2.5838623;-;-;-;-;-;-;-;-;-;-;-;-;-;-;-
1512464174453;-;-;8.866211;-0.066848755;-2.5742798;-;-;-;-;-;-;-;-;-;-;-;-;-;-;-
1512464174473;-;-;8.827911;-0.07762146;-2.6113892;-;-;-;-;-;-;-;-;-;-;-;-;-;-;-
1512464174494;-;-;8.84227;-0.03691101;-2.630539;-;-;-;-;-;-;-;-;-;-;-;-;-;-;-
1512464174514;-;-;8.879379;-0.08958435;-2.63414;-;-;-;-;-;-;-;-;-;-;-;-;-;-;-
1512464174535;-;-;8.84227;-0.10874939;-2.614975;-;-;-;-;-;-;-;-;-;-;-;-;-;-;-
1512464174555;-;-;8.887772;-0.119522095;-2.63414;-;-;-;-;-;-;-;-;-;-;-;-;-;-;-
1512464174576;-;-;8.881775;-0.083602905;-2.562317;-;-;-;-;-;-;-;-;-;-;-;-;-;-;-
1512464174596;-;-;8.875793;-0.112335205;-2.5958252;-;-;-;-;-;-;-;-;-;-;-;-;-;-;-
1512464174617;-;-;8.891357;-0.081207275;-2.618576;-;-;-;-;-;-;-;-;-;-;-;-;-;-;-
1512464174637;-;-;8.904526;-0.08480835;-2.5994263;-;-;-;-;-;-;-;-;-;-;-;-;-;-;-
1512464174657;-;-;8.850662;-0.07522583;-2.610199;-;-;-;-;-;-;-;-;-;-;-;-;-;-;-
1512464174678;-;-;8.844666;-0.057266235;-2.6293488;-;-;-;-;-;-;-;-;-;-;-;-;-;-;-
1512464174699;-;-;8.853058;-0.071640015;-2.6137848;-;-;-;-;-;-;-;-;-;-;-;-;-;-;-
1512464174719;-;-;8.928467;-0.097976685;-2.665268;-;-;-;-;-;-;-;-;-;-;-;-;-;-;-
1512464174740;-;-;8.953613;-0.11592102;-2.618576;-;-;-;-;-;-;-;-;-;-;-;-;-;-;-
1512464174760;-;-;8.917694;-0.13388062;-2.6137848;-;-;-;-;-;-;-;-;-;-;-;-;-;-;-
1512464174781;-;-;8.910507;-0.1015625;-2.625763;-;-;-;-;-;-;-;-;-;-;-;-;-;-;-
1512464174801;-;-;8.835098;-0.07522583;-2.618576;-;-;-;-;-;-;-;-;-;-;-;-;-;-;-
1512464174822;-;-;8.833893;-0.13508606;-2.6209717;-;-;-;-;-;-;-;-;-;-;-;-;-;-;-
1512464174842;-;-;8.879379;-0.11352539;-2.63414;-;-;-;-;-;-;-;-;-;-;-;-;-;-;-
1512464174863;-;-;8.869812;-0.10874939;-2.586258;-;-;-;-;-;-;-;-;-;-;-;-;-;-;-
1512464174883;-;-;8.894943;-0.12550354;-2.6161804;-;-;-;-;-;-;-;-;-;-;-;-;-;-;-
1512464174904;-;-;8.885376;-0.12908936;-2.6245575;-;-;-;-;-;-;-;-;-;-;-;-;-;-;-
1512464174924;-;-;8.90094;-0.12550354;-2.6532898;-;-;-;-;-;-;-;-;-;-;-;-;-;-;-
1512464174945;-;-;8.874603;-0.095581055;-2.665268;-;-;-;-;-;-;-;-;-;-;-;-;-;-;-
1512464174966;-;-;8.865021;-0.08241272;-2.6413116;-;-;-;-;-;-;-;-;-;-;-;-;-;-;-
1512464174986;-;-;8.891357;-0.107543945;-2.6676483;-;-;-;-;-;-;-;-;-;-;-;-;-;-;-
1512464175007;-;-;8.847061;-0.105148315;-2.6353302;-;-;-;-;-;-;-;-;-;-;-;-;-;-;-
1512464175027;-;-;8.887772;-0.074035645;-2.658081;-;-;-;-;-;-;-;-;-;-;-;-;-;-;-
1512464175048;-;-;8.873398;-0.12071228;-2.6832123;-;-;-;-;-;-;-;-;-;-;-;-;-;-;-
1512464175068;-;-;8.829102;-0.095581055;-2.689209;-;-;-;-;-;-;-;-;-;-;-;-;-;-;-
1512464175088;-;-;8.867416;-0.081207275;-2.693985;-;-;-;-;-;-;-;-;-;-;-;-;-;-;-
1512464175109;-;-;8.935654;-0.09916687;-2.65448;-;-;-;-;-;-;-;-;-;-;-;-;-;-;-
1512464175129;-;-;8.914108;-0.11352539;-2.6377258;-;-;-;-;-;-;-;-;-;-;-;-;-;-;-
1512464175150;-;-;8.857834;-0.14346313;-2.7059631;-;-;-;-;-;-;-;-;-;-;-;-;-;-;-
1512464175170;-;-;8.922485;-0.083602905;-2.673645;-;-;-;-;-;-;-;-;-;-;-;-;-;-;-
1512464175191;-;-;8.865021;-0.107543945;-2.673645;-;-;-;-;-;-;-;-;-;-;-;-;-;-;-
1512464175211;-;-;8.807556;-0.08480835;-2.6760406;-;-;-;-;-;-;-;-;-;-;-;-;-;-;-
1512464175232;-;-;8.796783;-0.085998535;-2.6688538;-;-;-;-;-;-;-;-;-;-;-;-;-;-;-
1512464175252;-;-;8.872208;-0.095581055;-2.7023773;-;-;-;-;-;-;-;-;-;-;-;-;-;-;-
1512464175273;-;-;8.929672;-0.112335205;-2.6724396;-;-;-;-;-;-;-;-;-;-;-;-;-;-;-
1512464175292;-;-;8.8997345;-0.12310791;-2.6724396;-;-;-;-;-;-;-;-;-;-;-;-;-;-;-
1512464175313;-;-;8.887772;-0.117126465;-2.6676483;-;-;-;-;-;-;-;-;-;-;-;-;-;-;-
1512464175332;-;-;8.881775;-0.09437561;-2.6784363;-;-;-;-;-;-;-;-;-;-;-;-;-;-;-
1512464175353;-;-;8.848267;-0.09677124;-2.7143402;-;-;-;-;-;-;-;-;-;-;-;-;-;-;-
1512464175372;-;-;8.875793;-0.071640015;-2.7310944;-;-;-;-;-;-;-;-;-;-;-;-;-;-;-
1512464175393;-;-;8.863831;-0.07762146;-2.728714;-;-;-;-;-;-;-;-;-;-;-;-;-;-;-
1512464175414;-;-;8.84108;-0.07762146;-2.697586;-;-;-;-;-;-;-;-;-;-;-;-;-;-;-
1512464175433;-;-;8.844666;-0.114730835;-2.6664581;-;-;-;-;-;-;-;-;-;-;-;-;-;-;-
1512464175454;-;-;8.825516;-0.14225769;-2.7059631;-;-;-;-;-;-;-;-;-;-;-;-;-;-;-
1512464175474;-;-;8.869812;-0.11352539;-2.7119446;-;-;-;-;-;-;-;-;-;-;-;-;-;-;-
1512464175495;-;-;8.865021;-0.11831665;-2.689209;-;-;-;-;-;-;-;-;-;-;-;-;-;-;-
1512464175515;-;-;8.853058;-0.11831665;-2.6592712;-;-;-;-;-;-;-;-;-;-;-;-;-;-;-
