TimeStamp[ms];Prox[Cm];Lux[lux];AccX[m/s^2];AccY[m/s^2];AccZ[m/s^2];GyroX[rad/s];GyroY[rad/s];GyroZ[rad/s];MagnX[uT];MagnY[uT];MagnZ[uT];OrienYaw[degrees];OrienPitch[degrees];OrienRoll[degrees];Press[Pa];Temp[C°];Batt[%];Lat;Lng;Speed[m/s]
1512465132416;-;-;9.21817;-1.9031982;-0.10346985;-;-;-;-;-;-;-;-;-;-;-;-;-;-;-
1512465132417;-;-;9.21817;-1.9031982;-0.10346985;-;-;-;-;-;-;-;-;-;-;-;-;-;-;-
1512465132436;-;-;9.06134;-1.7810974;0.0030822754;-;-;-;-;-;-;-;-;-;-;-;-;-;-;-
1512465132457;-;-;9.025436;-1.7822876;-0.22436523;-;-;-;-;-;-;-;-;-;-;-;-;-;-;-
1512465132477;-;-;9.137955;-1.7763062;-0.29141235;-;-;-;-;-;-;-;-;-;-;-;-;-;-;-
1512465132498;-;-;9.133179;-1.8074341;-0.28182983;-;-;-;-;-;-;-;-;-;-;-;-;-;-;-
1512465132519;-;-;9.133179;-1.7930603;-0.28781128;-;-;-;-;-;-;-;-;-;-;-;-;-;-;-
1512465132540;-;-;9.201401;-1.8289795;-0.35604858;-;-;-;-;-;-;-;-;-;-;-;-;-;-;-
1512465132560;-;-;9.226547;-1.8445435;-0.33210754;-;-;-;-;-;-;-;-;-;-;-;-;-;-;-
1512465132580;-;-;9.172684;-1.7655334;-0.25430298;-;-;-;-;-;-;-;-;-;-;-;-;-;-;-
1512465132601;-;-;9.109222;-1.7571564;-0.1669159;-;-;-;-;-;-;-;-;-;-;-;-;-;-;-
1512465132621;-;-;9.117615;-1.7571564;-0.2064209;-;-;-;-;-;-;-;-;-;-;-;-;-;-;-
1512465132641;-;-;9.100845;-1.8337708;-0.19923401;-;-;-;-;-;-;-;-;-;-;-;-;-;-;-
1512465132669;-;-;9.129578;-1.8960114;-0.27345276;-;-;-;-;-;-;-;-;-;-;-;-;-;-;-
1512465132682;-;-;9.049377;-1.8792572;-0.2171936;-;-;-;-;-;-;-;-;-;-;-;-;-;-;-
1512465132703;-;-;9.118805;-1.9690399;-0.0687561;-;-;-;-;-;-;-;-;-;-;-;-;-;-;-
1512465132723;-;-;9.163101;-1.9857941;-0.15135193;-;-;-;-;-;-;-;-;-;-;-;-;-;-;-
1512465132744;-;-;9.148727;-1.9594574;-0.1381836;-;-;-;-;-;-;-;-;-;-;-;-;-;-;-
1512465132764;-;-;9.209793;-1.9055939;-0.22198486;-;-;-;-;-;-;-;-;-;-;-;-;-;-;-
1512465132786;-;-;9.224152;-1.8612976;-0.13578796;-;-;-;-;-;-;-;-;-;-;-;-;-;-;-
1512465132806;-;-;9.201401;-1.7056732;-0.03163147;-;-;-;-;-;-;-;-;-;-;-;-;-;-;-
1512465132827;-;-;8.989517;-1.4447021;-0.01008606;-;-;-;-;-;-;-;-;-;-;-;-;-;-;-
1512465132847;-;-;9.063736;-1.5321045;-0.50927734;-;-;-;-;-;-;-;-;-;-;-;-;-;-;-
1512465132868;-;-;9.206192;-1.6529999;0.4328308;-;-;-;-;-;-;-;-;-;-;-;-;-;-;-
1512465132888;-;-;8.98114;-1.664978;-0.29141235;-;-;-;-;-;-;-;-;-;-;-;-;-;-;-
1512465132909;-;-;9.049377;-1.5919495;-0.33570862;-;-;-;-;-;-;-;-;-;-;-;-;-;-;-
1512465132929;-;-;9.0793;-1.3908386;-0.21240234;-;-;-;-;-;-;-;-;-;-;-;-;-;-;-
1512465132950;-;-;9.148727;-1.1585999;-0.15014648;-;-;-;-;-;-;-;-;-;-;-;-;-;-;-
1512465132970;-;-;9.170288;-1.3273926;-0.19923401;-;-;-;-;-;-;-;-;-;-;-;-;-;-;-
1512465132990;-;-;9.352234;-1.6637726;-0.37400818;-;-;-;-;-;-;-;-;-;-;-;-;-;-;-
1512465133011;-;-;9.767639;-1.992981;-0.26268005;-;-;-;-;-;-;-;-;-;-;-;-;-;-;-
1512465133031;-;-;9.23851;-1.9438934;-0.19683838;-;-;-;-;-;-;-;-;-;-;-;-;-;-;-
1512465133052;-;-;9.239716;-1.9558716;-0.5248413;-;-;-;-;-;-;-;-;-;-;-;-;-;-;-
1512465133072;-;-;9.685028;-1.8852386;-0.012481689;-;-;-;-;-;-;-;-;-;-;-;-;-;-;-
1512465133093;-;-;10.0776825;-1.961853;-0.88157654;-;-;-;-;-;-;-;-;-;-;-;-;-;-;-
1512465133114;-;-;9.371399;-2.2132416;-0.79060364;-;-;-;-;-;-;-;-;-;-;-;-;-;-;-
1512465133134;-;-;10.258453;-2.3353577;-0.5679474;-;-;-;-;-;-;-;-;-;-;-;-;-;-;-
1512465133154;-;-;10.408081;-2.3521118;0.27243042;-;-;-;-;-;-;-;-;-;-;-;-;-;-;-
1512465133174;-;-;9.552155;-2.731598;0.923645;-;-;-;-;-;-;-;-;-;-;-;-;-;-;-
1512465133195;-;-;7.667923;-2.7423706;1.2564392;-;-;-;-;-;-;-;-;-;-;-;-;-;-;-
1512465133215;-;-;7.549408;-2.3281708;0.8254852;-;-;-;-;-;-;-;-;-;-;-;-;-;-;-
1512465133236;-;-;7.75531;-1.427948;0.9308319;-;-;-;-;-;-;-;-;-;-;-;-;-;-;-
1512465133256;-;-;8.370621;-1.2040863;0.3095398;-;-;-;-;-;-;-;-;-;-;-;-;-;-;-
1512465133277;-;-;9.911285;-1.6817322;0.01864624;-;-;-;-;-;-;-;-;-;-;-;-;-;-;-
1512465133297;-;-;10.118393;-2.174942;-0.16331482;-;-;-;-;-;-;-;-;-;-;-;-;-;-;-
1512465133318;-;-;9.710175;-2.2922516;0.44480896;-;-;-;-;-;-;-;-;-;-;-;-;-;-;-
1512465133338;-;-;9.276825;-1.7116699;0.47473145;-;-;-;-;-;-;-;-;-;-;-;-;-;-;-
1512465133358;-;-;8.732147;-1.5847626;0.23532104;-;-;-;-;-;-;-;-;-;-;-;-;-;-;-
1512465133379;-;-;7.463211;-1.5404816;0.04498291;-;-;-;-;-;-;-;-;-;-;-;-;-;-;-
1512465133399;-;-;8.74292;-1.8972168;0.24249268;-;-;-;-;-;-;-;-;-;-;-;-;-;-;-
1512465133420;-;-;8.8207245;-1.7703247;-0.09388733;-;-;-;-;-;-;-;-;-;-;-;-;-;-;-
1512465133439;-;-;9.258865;-0.68933105;0.56811523;-;-;-;-;-;-;-;-;-;-;-;-;-;-;-
1512465133460;-;-;8.461594;-0.7958832;0.46875;-;-;-;-;-;-;-;-;-;-;-;-;-;-;-
1512465133480;-;-;6.9819794;-1.2292328;0.26643372;-;-;-;-;-;-;-;-;-;-;-;-;-;-;-
1512465133501;-;-;11.483078;-2.9710083;-0.93066406;-;-;-;-;-;-;-;-;-;-;-;-;-;-;-
1512465133521;-;-;8.837494;-1.704483;-0.84088135;-;-;-;-;-;-;-;-;-;-;-;-;-;-;-
1512465133541;-;-;7.1052856;-0.0021972656;-0.11903381;-;-;-;-;-;-;-;-;-;-;-;-;-;-;-
1512465133562;-;-;9.562927;-0.9826355;-0.0687561;-;-;-;-;-;-;-;-;-;-;-;-;-;-;-
1512465133583;-;-;9.992691;-0.5959625;-1.2514801;-;-;-;-;-;-;-;-;-;-;-;-;-;-;-
1512465133602;-;-;8.319138;-2.190506;1.2013702;-;-;-;-;-;-;-;-;-;-;-;-;-;-;-
1512465133623;-;-;8.471176;-1.3860474;-0.11424255;-;-;-;-;-;-;-;-;-;-;-;-;-;-;-
1512465133644;-;-;8.778824;-2.2946472;-0.63497925;-;-;-;-;-;-;-;-;-;-;-;-;-;-;-
1512465133664;-;-;9.71257;-3.5959015;0.24369812;-;-;-;-;-;-;-;-;-;-;-;-;-;-;-
1512465133687;-;-;10.06572;-4.843277;1.6107788;-;-;-;-;-;-;-;-;-;-;-;-;-;-;-
1512465133707;-;-;9.825104;-4.5655518;1.9052734;-;-;-;-;-;-;-;-;-;-;-;-;-;-;-
1512465133728;-;-;8.831497;-3.028473;-1.4035187;-;-;-;-;-;-;-;-;-;-;-;-;-;-;-
1512465133748;-;-;8.246124;-4.5260468;1.5066376;-;-;-;-;-;-;-;-;-;-;-;-;-;-;-
1512465133769;-;-;8.542999;-2.7902527;-0.24832153;-;-;-;-;-;-;-;-;-;-;-;-;-;-;-
1512465133788;-;-;10.121979;-4.1094513;-0.5523834;-;-;-;-;-;-;-;-;-;-;-;-;-;-;-
1512465133809;-;-;8.005508;-4.044815;-2.2558594;-;-;-;-;-;-;-;-;-;-;-;-;-;-;-
1512465133829;-;-;9.359421;-2.3365479;-0.080718994;-;-;-;-;-;-;-;-;-;-;-;-;-;-;-
1512465133850;-;-;10.423645;-3.052414;-0.5499878;-;-;-;-;-;-;-;-;-;-;-;-;-;-;-
1512465133870;-;-;9.912491;-2.3461304;0.8422394;-;-;-;-;-;-;-;-;-;-;-;-;-;-;-
1512465133890;-;-;8.140778;-2.411972;-1.1066284;-;-;-;-;-;-;-;-;-;-;-;-;-;-;-
1512465133911;-;-;8.15155;-2.7064514;-0.44703674;-;-;-;-;-;-;-;-;-;-;-;-;-;-;-
1512465133932;-;-;8.541809;-2.4191437;-0.012481689;-;-;-;-;-;-;-;-;-;-;-;-;-;-;-
1512465133951;-;-;10.904877;-2.3784485;0.53338623;-;-;-;-;-;-;-;-;-;-;-;-;-;-;-
1512465133972;-;-;8.373016;-2.040863;-1.832077;-;-;-;-;-;-;-;-;-;-;-;-;-;-;-
1512465133991;-;-;6.8874054;-2.3102112;-0.22317505;-;-;-;-;-;-;-;-;-;-;-;-;-;-;-
1512465134012;-;-;9.862213;-3.728775;0.57289124;-;-;-;-;-;-;-;-;-;-;-;-;-;-;-
1512465134032;-;-;9.401321;-3.3397217;-0.2399292;-;-;-;-;-;-;-;-;-;-;-;-;-;-;-
1512465134053;-;-;9.190628;-2.9877777;-0.9007416;-;-;-;-;-;-;-;-;-;-;-;-;-;-;-
1512465134073;-;-;8.483139;-2.8082123;-0.9749603;-;-;-;-;-;-;-;-;-;-;-;-;-;-;-
1512465134094;-;-;9.400131;-2.6442108;-0.49731445;-;-;-;-;-;-;-;-;-;-;-;-;-;-;-
1512465134114;-;-;9.039795;-2.3832397;-1.729126;-;-;-;-;-;-;-;-;-;-;-;-;-;-;-
1512465134135;-;-;10.534973;-2.693283;-1.4298553;-;-;-;-;-;-;-;-;-;-;-;-;-;-;-
1512465134154;-;-;8.054581;-2.377243;-0.5691376;-;-;-;-;-;-;-;-;-;-;-;-;-;-;-
1512465134175;-;-;9.084091;-2.8716583;-0.48054504;-;-;-;-;-;-;-;-;-;-;-;-;-;-;-
1512465134195;-;-;8.557373;-3.0559998;-0.107055664;-;-;-;-;-;-;-;-;-;-;-;-;-;-;-
1512465134216;-;-;8.845871;-3.328949;0.022232056;-;-;-;-;-;-;-;-;-;-;-;-;-;-;-
1512465134235;-;-;8.610046;-3.0272827;-1.3053589;-;-;-;-;-;-;-;-;-;-;-;-;-;-;-
1512465134256;-;-;8.72496;-4.096283;-4.3926697;-;-;-;-;-;-;-;-;-;-;-;-;-;-;-
1512465134275;-;-;8.952408;-2.2527466;-0.18486023;-;-;-;-;-;-;-;-;-;-;-;-;-;-;-
1512465134296;-;-;10.792358;-2.5256958;-0.45780945;-;-;-;-;-;-;-;-;-;-;-;-;-;-;-
1512465134316;-;-;10.288376;-2.9398804;-1.0180511;-;-;-;-;-;-;-;-;-;-;-;-;-;-;-
1512465134337;-;-;9.230133;-3.3959808;0.024627686;-;-;-;-;-;-;-;-;-;-;-;-;-;-;-
1512465134357;-;-;8.483139;-3.7826538;-2.203186;-;-;-;-;-;-;-;-;-;-;-;-;-;-;-
1512465134378;-;-;8.119232;-2.6944885;-0.0627594;-;-;-;-;-;-;-;-;-;-;-;-;-;-;-
1512465134398;-;-;8.854248;-3.3385162;0.24728394;-;-;-;-;-;-;-;-;-;-;-;-;-;-;-
1512465134419;-;-;7.9384613;-2.6860962;-0.74391174;-;-;-;-;-;-;-;-;-;-;-;-;-;-;-
1512465134440;-;-;7.0609894;-1.5033722;-1.6058197;-;-;-;-;-;-;-;-;-;-;-;-;-;-;-
1512465134460;-;-;7.738556;-1.6494141;-0.44104004;-;-;-;-;-;-;-;-;-;-;-;-;-;-;-
1512465134480;-;-;9.082901;-2.408371;-0.96777344;-;-;-;-;-;-;-;-;-;-;-;-;-;-;-
1512465134501;-;-;8.952408;-1.5907593;-1.1940308;-;-;-;-;-;-;-;-;-;-;-;-;-;-;-
1512465134521;-;-;10.181839;-1.4339294;1.552124;-;-;-;-;-;-;-;-;-;-;-;-;-;-;-
1512465134542;-;-;10.916855;-2.0779724;6.4829865;-;-;-;-;-;-;-;-;-;-;-;-;-;-;-
1512465134563;-;-;9.620392;-2.8692627;0.41368103;-;-;-;-;-;-;-;-;-;-;-;-;-;-;-
1512465134583;-;-;5.691513;-5.909897;-7.8930054;-;-;-;-;-;-;-;-;-;-;-;-;-;-;-
1512465134603;-;-;8.496307;2.0089264;-0.4673767;-;-;-;-;-;-;-;-;-;-;-;-;-;-;-
1512465134624;-;-;9.984314;0.46228027;1.1415253;-;-;-;-;-;-;-;-;-;-;-;-;-;-;-
1512465134644;-;-;10.871368;-1.146637;2.2380676;-;-;-;-;-;-;-;-;-;-;-;-;-;-;-
1512465134665;-;-;10.011841;-0.7671509;-0.15853882;-;-;-;-;-;-;-;-;-;-;-;-;-;-;-
1512465134685;-;-;8.511871;-0.61750793;-1.3735962;-;-;-;-;-;-;-;-;-;-;-;-;-;-;-
1512465134706;-;-;8.74411;-2.5687866;-1.4071045;-;-;-;-;-;-;-;-;-;-;-;-;-;-;-
1512465134725;-;-;7.750519;-3.1146698;-0.412323;-;-;-;-;-;-;-;-;-;-;-;-;-;-;-
1512465134746;-;-;6.7677;-2.5652008;-0.91389465;-;-;-;-;-;-;-;-;-;-;-;-;-;-;-
1512465134766;-;-;9.778412;-4.044815;0.38136292;-;-;-;-;-;-;-;-;-;-;-;-;-;-;-
1512465134786;-;-;10.344635;-5.282608;0.39453125;-;-;-;-;-;-;-;-;-;-;-;-;-;-;-
1512465134807;-;-;9.901718;-4.7977905;-0.10346985;-;-;-;-;-;-;-;-;-;-;-;-;-;-;-
1512465134827;-;-;8.301193;-3.4618225;-0.1489563;-;-;-;-;-;-;-;-;-;-;-;-;-;-;-
1512465134847;-;-;8.229355;-2.7495422;-0.39196777;-;-;-;-;-;-;-;-;-;-;-;-;-;-;-
1512465134868;-;-;9.234924;-2.79982;-1.1616974;-;-;-;-;-;-;-;-;-;-;-;-;-;-;-
1512465134890;-;-;9.427658;-1.8445435;-1.8021545;-;-;-;-;-;-;-;-;-;-;-;-;-;-;-
1512465134910;-;-;8.673492;-2.0061493;-1.3304901;-;-;-;-;-;-;-;-;-;-;-;-;-;-;-
1512465134930;-;-;8.455612;-1.0496674;-1.0108643;-;-;-;-;-;-;-;-;-;-;-;-;-;-;-
1512465134951;-;-;8.438858;-1.7870789;-1.3520355;-;-;-;-;-;-;-;-;-;-;-;-;-;-;-
1512465134970;-;-;8.819534;-2.6202545;-1.3628082;-;-;-;-;-;-;-;-;-;-;-;-;-;-;-
1512465134991;-;-;8.205414;-3.0596008;-2.9920654;-;-;-;-;-;-;-;-;-;-;-;-;-;-;-
1512465135011;-;-;8.836288;-3.4785767;-1.9290466;-;-;-;-;-;-;-;-;-;-;-;-;-;-;-
1512465135032;-;-;8.8602295;-3.2056427;-1.8619995;-;-;-;-;-;-;-;-;-;-;-;-;-;-;-
1512465135053;-;-;8.833893;-3.2631073;-2.4186554;-;-;-;-;-;-;-;-;-;-;-;-;-;-;-
1512465135072;-;-;9.742493;-3.613861;-2.309723;-;-;-;-;-;-;-;-;-;-;-;-;-;-;-
1512465135092;-;-;8.298798;-3.2559204;-1.7315216;-;-;-;-;-;-;-;-;-;-;-;-;-;-;-
1512465135113;-;-;8.529831;-2.281479;-2.4749146;-;-;-;-;-;-;-;-;-;-;-;-;-;-;-
1512465135133;-;-;8.629196;-1.9905853;-2.5216064;-;-;-;-;-;-;-;-;-;-;-;-;-;-;-
1512465135154;-;-;8.418503;-1.1693726;-2.4318237;-;-;-;-;-;-;-;-;-;-;-;-;-;-;-
1512465135174;-;-;9.251678;-2.3497162;-3.3332367;-;-;-;-;-;-;-;-;-;-;-;-;-;-;-
1512465135195;-;-;8.32753;-1.1897278;-2.531189;-;-;-;-;-;-;-;-;-;-;-;-;-;-;-
1512465135215;-;-;9.172684;-0.2859192;-2.0882568;-;-;-;-;-;-;-;-;-;-;-;-;-;-;-
1512465135237;-;-;9.359421;-0.03930664;-3.0519257;-;-;-;-;-;-;-;-;-;-;-;-;-;-;-
1512465135257;-;-;9.127182;-0.32901;-4.0718536;-;-;-;-;-;-;-;-;-;-;-;-;-;-;-
1512465135277;-;-;8.7261505;0.88246155;-2.9202423;-;-;-;-;-;-;-;-;-;-;-;-;-;-;-
1512465135297;-;-;9.067337;0.556839;-2.5419617;-;-;-;-;-;-;-;-;-;-;-;-;-;-;-
1512465135318;-;-;8.8051605;0.8345642;-2.7550507;-;-;-;-;-;-;-;-;-;-;-;-;-;-;-
1512465135339;-;-;8.48674;0.6921234;-2.1816254;-;-;-;-;-;-;-;-;-;-;-;-;-;-;-
1512465135358;-;-;9.213379;-0.021362305;-2.2127533;-;-;-;-;-;-;-;-;-;-;-;-;-;-;-
1512465135379;-;-;10.135147;-0.67855835;-1.9230652;-;-;-;-;-;-;-;-;-;-;-;-;-;-;-
1512465135399;-;-;10.636734;-1.3956299;-2.3863373;-;-;-;-;-;-;-;-;-;-;-;-;-;-;-
1512465135420;-;-;10.2512665;0.47903442;-1.0814972;-;-;-;-;-;-;-;-;-;-;-;-;-;-;-
1512465135440;-;-;9.895721;-0.22964478;-1.3688049;-;-;-;-;-;-;-;-;-;-;-;-;-;-;-
1512465135460;-;-;9.87178;-0.24281311;-1.8584137;-;-;-;-;-;-;-;-;-;-;-;-;-;-;-
1512465135481;-;-;8.548981;0.06602478;-1.8619995;-;-;-;-;-;-;-;-;-;-;-;-;-;-;-
1512465135501;-;-;6.810791;0.31861877;-1.3472595;-;-;-;-;-;-;-;-;-;-;-;-;-;-;-
1512465135522;-;-;9.220566;0.24919128;-1.5603333;-;-;-;-;-;-;-;-;-;-;-;-;-;-;-
1512465135542;-;-;8.788406;0.02772522;-1.0156555;-;-;-;-;-;-;-;-;-;-;-;-;-;-;-
1512465135563;-;-;9.243301;0.007369995;-2.4318237;-;-;-;-;-;-;-;-;-;-;-;-;-;-;-
1512465135583;-;-;9.900513;-0.15065002;-2.4330292;-;-;-;-;-;-;-;-;-;-;-;-;-;-;-
1512465135603;-;-;10.460754;-0.29908752;-1.8560181;-;-;-;-;-;-;-;-;-;-;-;-;-;-;-
1512465135624;-;-;9.530609;0.378479;-1.9829102;-;-;-;-;-;-;-;-;-;-;-;-;-;-;-
1512465135645;-;-;9.445618;0.2527771;-2.0319977;-;-;-;-;-;-;-;-;-;-;-;-;-;-;-
1512465135664;-;-;9.499481;0.4514923;-1.9039001;-;-;-;-;-;-;-;-;-;-;-;-;-;-;-
1512465135684;-;-;9.422867;0.8920288;-1.0934601;-;-;-;-;-;-;-;-;-;-;-;-;-;-;-
1512465135705;-;-;8.689041;0.5448761;-1.8656006;-;-;-;-;-;-;-;-;-;-;-;-;-;-;-
1512465135725;-;-;8.121628;0.32939148;-1.7159576;-;-;-;-;-;-;-;-;-;-;-;-;-;-;-
1512465135746;-;-;7.7098236;0.47305298;-2.0319977;-;-;-;-;-;-;-;-;-;-;-;-;-;-;-
1512465135767;-;-;7.5386353;0.5053711;-2.2857819;-;-;-;-;-;-;-;-;-;-;-;-;-;-;-
1512465135787;-;-;10.017822;0.09236145;-1.4118958;-;-;-;-;-;-;-;-;-;-;-;-;-;-;-
1512465135808;-;-;11.250839;0.49699402;-1.6728668;-;-;-;-;-;-;-;-;-;-;-;-;-;-;-
1512465135828;-;-;8.72377;1.1949005;-1.9613647;-;-;-;-;-;-;-;-;-;-;-;-;-;-;-
1512465135848;-;-;10.951569;0.29588318;0.18862915;-;-;-;-;-;-;-;-;-;-;-;-;-;-;-
1512465135869;-;-;6.1667633;0.9111786;-1.4035187;-;-;-;-;-;-;-;-;-;-;-;-;-;-;-
1512465135889;-;-;8.832703;0.88723755;-0.81333923;-;-;-;-;-;-;-;-;-;-;-;-;-;-;-
1512465135909;-;-;6.1404266;0.9303436;-0.5930786;-;-;-;-;-;-;-;-;-;-;-;-;-;-;-
1512465135930;-;-;8.212601;0.42755127;-0.75109863;-;-;-;-;-;-;-;-;-;-;-;-;-;-;-
1512465135950;-;-;7.604477;0.5747986;-0.5284424;-;-;-;-;-;-;-;-;-;-;-;-;-;-;-
1512465135971;-;-;8.56694;1.1769409;-0.58709717;-;-;-;-;-;-;-;-;-;-;-;-;-;-;-
1512465135991;-;-;7.53743;2.7714844;-1.377182;-;-;-;-;-;-;-;-;-;-;-;-;-;-;-
1512465136011;-;-;9.468353;2.5488129;-2.06073;-;-;-;-;-;-;-;-;-;-;-;-;-;-;-
1512465136032;-;-;9.207397;3.0875092;-2.3851318;-;-;-;-;-;-;-;-;-;-;-;-;-;-;-
1512465136053;-;-;8.879379;3.628601;-2.8412323;-;-;-;-;-;-;-;-;-;-;-;-;-;-;-
1512465136073;-;-;9.020645;2.4255219;-2.5802612;-;-;-;-;-;-;-;-;-;-;-;-;-;-;-
1512465136093;-;-;8.378998;0.512558;-2.539566;-;-;-;-;-;-;-;-;-;-;-;-;-;-;-
1512465136114;-;-;7.4991302;-0.41999817;-2.4042969;-;-;-;-;-;-;-;-;-;-;-;-;-;-;-
1512465136134;-;-;6.7413635;-1.0293121;-1.7662354;-;-;-;-;-;-;-;-;-;-;-;-;-;-;-
1512465136155;-;-;6.37146;-1.2184601;-1.6549072;-;-;-;-;-;-;-;-;-;-;-;-;-;-;-
1512465136175;-;-;7.482376;-2.535263;-3.5930176;-;-;-;-;-;-;-;-;-;-;-;-;-;-;-
1512465136196;-;-;11.272385;-1.9462891;-2.5958252;-;-;-;-;-;-;-;-;-;-;-;-;-;-;-
1512465136216;-;-;13.859329;0.014556885;-1.7279358;-;-;-;-;-;-;-;-;-;-;-;-;-;-;-
1512465136236;-;-;13.832993;1.3026428;-1.2694397;-;-;-;-;-;-;-;-;-;-;-;-;-;-;-
1512465136257;-;-;12.28154;0.66218567;-0.74272156;-;-;-;-;-;-;-;-;-;-;-;-;-;-;-
1512465136276;-;-;9.578491;-0.76594543;0.106033325;-;-;-;-;-;-;-;-;-;-;-;-;-;-;-
1512465136296;-;-;7.6188354;-2.301834;0.048568726;-;-;-;-;-;-;-;-;-;-;-;-;-;-;-
1512465136317;-;-;7.2752686;-3.8293304;0.18504333;-;-;-;-;-;-;-;-;-;-;-;-;-;-;-
1512465136337;-;-;8.036621;-4.625412;-0.26148987;-;-;-;-;-;-;-;-;-;-;-;-;-;-;-
1512465136358;-;-;8.863831;-3.0380554;-0.76545715;-;-;-;-;-;-;-;-;-;-;-;-;-;-;-
1512465136379;-;-;9.115219;-1.0149536;-1.0898743;-;-;-;-;-;-;-;-;-;-;-;-;-;-;-
1512465136399;-;-;9.485123;0.71725464;-1.6070251;-;-;-;-;-;-;-;-;-;-;-;-;-;-;-
1512465136419;-;-;9.145142;1.3804474;-2.2809906;-;-;-;-;-;-;-;-;-;-;-;-;-;-;-
1512465136440;-;-;9.06015;1.1422272;-2.7358856;-;-;-;-;-;-;-;-;-;-;-;-;-;-;-
1512465136460;-;-;8.887772;0.2850952;-3.282959;-;-;-;-;-;-;-;-;-;-;-;-;-;-;-
1512465136481;-;-;9.324707;-0.40682983;-2.23909;-;-;-;-;-;-;-;-;-;-;-;-;-;-;-
1512465136500;-;-;9.87059;-0.7563782;-1.0072784;-;-;-;-;-;-;-;-;-;-;-;-;-;-;-
1512465136521;-;-;9.422867;-1.5344849;-1.610611;-;-;-;-;-;-;-;-;-;-;-;-;-;-;-
1512465136541;-;-;9.877762;-1.7583466;-1.6968079;-;-;-;-;-;-;-;-;-;-;-;-;-;-;-
1512465136561;-;-;9.6467285;-0.98143005;-1.8536224;-;-;-;-;-;-;-;-;-;-;-;-;-;-;-
1512465136582;-;-;8.7213745;-0.15184021;-2.5443573;-;-;-;-;-;-;-;-;-;-;-;-;-;-;-
1512465136601;-;-;7.5158844;0.55804443;-3.1177673;-;-;-;-;-;-;-;-;-;-;-;-;-;-;-
1512465136622;-;-;6.7581177;1.0715942;-2.9645386;-;-;-;-;-;-;-;-;-;-;-;-;-;-;-
1512465136642;-;-;7.2657013;1.2787018;-2.483307;-;-;-;-;-;-;-;-;-;-;-;-;-;-;-
1512465136663;-;-;8.540604;1.0428619;-2.0786743;-;-;-;-;-;-;-;-;-;-;-;-;-;-;-
1512465136683;-;-;9.597641;0.4287567;-2.0882568;-;-;-;-;-;-;-;-;-;-;-;-;-;-;-
1512465136704;-;-;10.54097;-0.53730774;-2.3875275;-;-;-;-;-;-;-;-;-;-;-;-;-;-;-
1512465136723;-;-;10.508636;-0.9431305;-2.421051;-;-;-;-;-;-;-;-;-;-;-;-;-;-;-
1512465136743;-;-;9.807144;-0.70370483;-2.108612;-;-;-;-;-;-;-;-;-;-;-;-;-;-;-
1512465136764;-;-;9.001495;-0.19972229;-1.9182739;-;-;-;-;-;-;-;-;-;-;-;-;-;-;-
1512465136784;-;-;8.223373;0.23242188;-2.16008;-;-;-;-;-;-;-;-;-;-;-;-;-;-;-
1512465136803;-;-;7.8355103;0.4407196;-2.4186554;-;-;-;-;-;-;-;-;-;-;-;-;-;-;-
1512465136824;-;-;8.127609;0.3497467;-2.2881775;-;-;-;-;-;-;-;-;-;-;-;-;-;-;-
1512465136844;-;-;8.617218;0.050476074;-2.2929688;-;-;-;-;-;-;-;-;-;-;-;-;-;-;-
1512465136865;-;-;9.187042;-0.34098816;-2.168457;-;-;-;-;-;-;-;-;-;-;-;-;-;-;-
1512465136886;-;-;9.501877;-0.55166626;-2.1505127;-;-;-;-;-;-;-;-;-;-;-;-;-;-;-
1512465136906;-;-;9.323517;-1.313034;-0.6912384;-;-;-;-;-;-;-;-;-;-;-;-;-;-;-
1512465136927;-;-;8.410126;-1.8170013;-0.5021057;-;-;-;-;-;-;-;-;-;-;-;-;-;-;-
1512465136947;-;-;9.401321;-2.151001;-1.8189087;-;-;-;-;-;-;-;-;-;-;-;-;-;-;-
1512465136968;-;-;9.906494;-2.1019135;-2.0547333;-;-;-;-;-;-;-;-;-;-;-;-;-;-;-
1512465136988;-;-;10.22612;-1.1442413;-2.9645386;-;-;-;-;-;-;-;-;-;-;-;-;-;-;-
1512465137009;-;-;9.564133;-0.042907715;-3.3679657;-;-;-;-;-;-;-;-;-;-;-;-;-;-;-
1512465137028;-;-;8.944031;0.4467163;-2.2283173;-;-;-;-;-;-;-;-;-;-;-;-;-;-;-
1512465137049;-;-;8.26767;0.417984;-1.9134827;-;-;-;-;-;-;-;-;-;-;-;-;-;-;-
1512465137069;-;-;8.359848;0.20729065;-2.2534637;-;-;-;-;-;-;-;-;-;-;-;-;-;-;-
1512465137090;-;-;8.993118;-0.25479126;-1.9733429;-;-;-;-;-;-;-;-;-;-;-;-;-;-;-
1512465137111;-;-;9.473145;-0.36732483;-1.6034393;-;-;-;-;-;-;-;-;-;-;-;-;-;-;-
1512465137132;-;-;9.384567;-0.08480835;-1.8033447;-;-;-;-;-;-;-;-;-;-;-;-;-;-;-
1512465137152;-;-;9.029022;0.1330719;-1.9912872;-;-;-;-;-;-;-;-;-;-;-;-;-;-;-
1512465137173;-;-;8.325134;0.062438965;-2.365982;-;-;-;-;-;-;-;-;-;-;-;-;-;-;-
1512465137193;-;-;7.8546753;-0.12789917;-2.977707;-;-;-;-;-;-;-;-;-;-;-;-;-;-;-
1512465137214;-;-;7.700241;-0.39245605;-3.203949;-;-;-;-;-;-;-;-;-;-;-;-;-;-;-
1512465137235;-;-;8.114441;-0.4343567;-3.1225586;-;-;-;-;-;-;-;-;-;-;-;-;-;-;-
1512465137255;-;-;8.448425;-0.40802002;-2.6113892;-;-;-;-;-;-;-;-;-;-;-;-;-;-;-
1512465137275;-;-;8.766861;-0.47027588;-2.0236206;-;-;-;-;-;-;-;-;-;-;-;-;-;-;-
1512465137296;-;-;9.035004;-0.45111084;-1.5890656;-;-;-;-;-;-;-;-;-;-;-;-;-;-;-
1512465137318;-;-;9.164291;-0.5277252;-2.3755646;-;-;-;-;-;-;-;-;-;-;-;-;-;-;-
1512465137338;-;-;10.281189;-0.42237854;-2.6568756;-;-;-;-;-;-;-;-;-;-;-;-;-;-;-
1512465137358;-;-;9.67067;-0.31344604;-3.3332367;-;-;-;-;-;-;-;-;-;-;-;-;-;-;-
1512465137379;-;-;9.980713;0.11869812;-2.9274292;-;-;-;-;-;-;-;-;-;-;-;-;-;-;-
1512465137399;-;-;9.160706;0.09715271;-2.6532898;-;-;-;-;-;-;-;-;-;-;-;-;-;-;-
1512465137420;-;-;8.690247;-0.06086731;-1.9553833;-;-;-;-;-;-;-;-;-;-;-;-;-;-;-
1512465137441;-;-;8.515472;-0.15663147;-1.8165131;-;-;-;-;-;-;-;-;-;-;-;-;-;-;-
1512465137462;-;-;8.381393;-0.41400146;-2.2522583;-;-;-;-;-;-;-;-;-;-;-;-;-;-;-
1512465137483;-;-;8.380188;-0.64624023;-2.1576843;-;-;-;-;-;-;-;-;-;-;-;-;-;-;-
1512465137504;-;-;8.554977;-0.7120819;-2.4078827;-;-;-;-;-;-;-;-;-;-;-;-;-;-;-
1512465137525;-;-;8.990723;-0.7312317;-2.6999817;-;-;-;-;-;-;-;-;-;-;-;-;-;-;-
1512465137546;-;-;9.536591;-0.38049316;-3.156067;-;-;-;-;-;-;-;-;-;-;-;-;-;-;-
1512465137566;-;-;9.134369;-0.19493103;-2.6916046;-;-;-;-;-;-;-;-;-;-;-;-;-;-;-
1512465137587;-;-;9.172684;-0.28231812;-2.934616;-;-;-;-;-;-;-;-;-;-;-;-;-;-;-
1512465137608;-;-;9.131973;-0.41041565;-2.483307;-;-;-;-;-;-;-;-;-;-;-;-;-;-;-
1512465137628;-;-;9.074509;-0.23324585;-2.9190521;-;-;-;-;-;-;-;-;-;-;-;-;-;-;-
1512465137648;-;-;9.161896;0.09715271;-2.8939056;-;-;-;-;-;-;-;-;-;-;-;-;-;-;-
1512465137667;-;-;9.056564;0.43234253;-2.828064;-;-;-;-;-;-;-;-;-;-;-;-;-;-;-
1512465137687;-;-;8.874603;0.33657837;-2.6880035;-;-;-;-;-;-;-;-;-;-;-;-;-;-;-
1512465137707;-;-;8.624405;-0.0021972656;-2.7107544;-;-;-;-;-;-;-;-;-;-;-;-;-;-;-
1512465137728;-;-;8.677078;-0.3433838;-2.820877;-;-;-;-;-;-;-;-;-;-;-;-;-;-;-
1512465137749;-;-;8.624405;-0.3146515;-2.8687744;-;-;-;-;-;-;-;-;-;-;-;-;-;-;-
1512465137770;-;-;8.74411;-0.2787323;-2.852005;-;-;-;-;-;-;-;-;-;-;-;-;-;-;-
1512465137791;-;-;8.542999;-0.19374084;-2.65448;-;-;-;-;-;-;-;-;-;-;-;-;-;-;-
1512465137812;-;-;8.873398;-0.24043274;-2.7299042;-;-;-;-;-;-;-;-;-;-;-;-;-;-;-
1512465137833;-;-;9.049377;-0.3876648;-2.1457214;-;-;-;-;-;-;-;-;-;-;-;-;-;-;-
1512465137853;-;-;9.286407;-0.45350647;-2.7227173;-;-;-;-;-;-;-;-;-;-;-;-;-;-;-
1512465137873;-;-;9.13916;-0.62350464;-2.3671875;-;-;-;-;-;-;-;-;-;-;-;-;-;-;-
1512465137892;-;-;9.099655;-0.6222992;-2.618576;-;-;-;-;-;-;-;-;-;-;-;-;-;-;-
1512465137913;-;-;8.844666;-0.5540619;-2.6568756;-;-;-;-;-;-;-;-;-;-;-;-;-;-;-
1512465137934;-;-;8.72377;-0.45948792;-2.6161804;-;-;-;-;-;-;-;-;-;-;-;-;-;-;-
1512465137954;-;-;8.72377;-0.39964294;-2.5431519;-;-;-;-;-;-;-;-;-;-;-;-;-;-;-
1512465137975;-;-;8.807556;-0.5277252;-2.5252075;-;-;-;-;-;-;-;-;-;-;-;-;-;-;-
1512465137996;-;-;8.915298;-0.58758545;-2.665268;-;-;-;-;-;-;-;-;-;-;-;-;-;-;-
1512465138017;-;-;8.934448;-0.58758545;-2.693985;-;-;-;-;-;-;-;-;-;-;-;-;-;-;-
1512465138038;-;-;8.867416;-0.6115265;-2.7502594;-;-;-;-;-;-;-;-;-;-;-;-;-;-;-
1512465138059;-;-;8.8602295;-0.5241394;-2.9369965;-;-;-;-;-;-;-;-;-;-;-;-;-;-;-
1512465138079;-;-;8.827911;-0.49661255;-2.7502594;-;-;-;-;-;-;-;-;-;-;-;-;-;-;-
1512465138100;-;-;8.717773;-0.38049316;-3.056717;-;-;-;-;-;-;-;-;-;-;-;-;-;-;-
1512465138121;-;-;8.878189;-0.41281128;-2.8807373;-;-;-;-;-;-;-;-;-;-;-;-;-;-;-
1512465138141;-;-;8.868607;-0.47625732;-2.938202;-;-;-;-;-;-;-;-;-;-;-;-;-;-;-
1512465138162;-;-;8.881775;-0.42237854;-2.9238281;-;-;-;-;-;-;-;-;-;-;-;-;-;-;-
1512465138182;-;-;8.772842;-0.4379425;-2.5850525;-;-;-;-;-;-;-;-;-;-;-;-;-;-;-
1512465138203;-;-;9.015854;-0.53012085;-2.591034;-;-;-;-;-;-;-;-;-;-;-;-;-;-;-
1512465138224;-;-;8.952408;-0.46188354;-2.6113892;-;-;-;-;-;-;-;-;-;-;-;-;-;-;-
1512465138245;-;-;8.769257;-0.47265625;-2.4725342;-;-;-;-;-;-;-;-;-;-;-;-;-;-;-
1512465138265;-;-;8.935654;-0.7276459;-2.4306335;-;-;-;-;-;-;-;-;-;-;-;-;-;-;-
1512465138286;-;-;9.127182;-0.72883606;-2.1959991;-;-;-;-;-;-;-;-;-;-;-;-;-;-;-
1512465138307;-;-;8.9787445;-0.49421692;-2.211563;-;-;-;-;-;-;-;-;-;-;-;-;-;-;-
1512465138328;-;-;8.766861;-0.5097656;-2.4425964;-;-;-;-;-;-;-;-;-;-;-;-;-;-;-
1512465138348;-;-;8.826721;-0.6318817;-2.7358856;-;-;-;-;-;-;-;-;-;-;-;-;-;-;-
1512465138369;-;-;8.990723;-0.52893066;-2.6389313;-;-;-;-;-;-;-;-;-;-;-;-;-;-;-
1512465138390;-;-;9.143951;-0.39485168;-2.6281433;-;-;-;-;-;-;-;-;-;-;-;-;-;-;-
1512465138411;-;-;9.160706;-0.2607727;-2.6269531;-;-;-;-;-;-;-;-;-;-;-;-;-;-;-
1512465138431;-;-;9.148727;-0.15542603;-2.5766754;-;-;-;-;-;-;-;-;-;-;-;-;-;-;-
1512465138452;-;-;8.944031;-0.1877594;-2.4809113;-;-;-;-;-;-;-;-;-;-;-;-;-;-;-
1512465138473;-;-;8.879379;-0.16381836;-2.483307;-;-;-;-;-;-;-;-;-;-;-;-;-;-;-
1512465138493;-;-;8.853058;-0.27514648;-2.4773102;-;-;-;-;-;-;-;-;-;-;-;-;-;-;-
1512465138514;-;-;8.871002;-0.37091064;-2.3959198;-;-;-;-;-;-;-;-;-;-;-;-;-;-;-
1512465138534;-;-;8.915298;-0.43554688;-2.4222565;-;-;-;-;-;-;-;-;-;-;-;-;-;-;-
1512465138555;-;-;8.946426;-0.4343567;-2.3384552;-;-;-;-;-;-;-;-;-;-;-;-;-;-;-
1512465138575;-;-;8.903336;-0.5145569;-2.3013458;-;-;-;-;-;-;-;-;-;-;-;-;-;-;-
1512465138596;-;-;8.819534;-0.5325165;-2.405487;-;-;-;-;-;-;-;-;-;-;-;-;-;-;-
1512465138616;-;-;8.866211;-0.63427734;-2.4785156;-;-;-;-;-;-;-;-;-;-;-;-;-;-;-
1512465138637;-;-;8.994308;-0.69651794;-2.4090881;-;-;-;-;-;-;-;-;-;-;-;-;-;-;-
1512465138657;-;-;9.012268;-0.71447754;-2.3791504;-;-;-;-;-;-;-;-;-;-;-;-;-;-;-
1512465138678;-;-;8.9392395;-0.720459;-2.3312683;-;-;-;-;-;-;-;-;-;-;-;-;-;-;-
1512465138698;-;-;8.815933;-0.62828064;-2.2953491;-;-;-;-;-;-;-;-;-;-;-;-;-;-;-
1512465138718;-;-;8.736938;-0.46548462;-2.271408;-;-;-;-;-;-;-;-;-;-;-;-;-;-;-
1512465138739;-;-;8.82312;-0.32302856;-2.3145142;-;-;-;-;-;-;-;-;-;-;-;-;-;-;-
1512465138760;-;-;8.984726;-0.15542603;-2.3791504;-;-;-;-;-;-;-;-;-;-;-;-;-;-;-
1512465138780;-;-;9.305557;-0.32182312;-2.436615;-;-;-;-;-;-;-;-;-;-;-;-;-;-;-
1512465138800;-;-;9.313934;-0.44154358;-2.4773102;-;-;-;-;-;-;-;-;-;-;-;-;-;-;-
1512465138821;-;-;9.045776;-0.5564575;-2.4306335;-;-;-;-;-;-;-;-;-;-;-;-;-;-;-
1512465138841;-;-;8.826721;-0.56962585;-2.3360596;-;-;-;-;-;-;-;-;-;-;-;-;-;-;-
1512465138862;-;-;8.7764435;-0.54927063;-2.3216858;-;-;-;-;-;-;-;-;-;-;-;-;-;-;-
1512465138882;-;-;8.751297;-0.56962585;-2.2833862;-;-;-;-;-;-;-;-;-;-;-;-;-;-;-
1512465138903;-;-;8.83989;-0.57681274;-2.3037415;-;-;-;-;-;-;-;-;-;-;-;-;-;-;-
1512465138922;-;-;8.845871;-0.5157623;-2.3755646;-;-;-;-;-;-;-;-;-;-;-;-;-;-;-
1512465138943;-;-;9.031418;-0.61631775;-2.531189;-;-;-;-;-;-;-;-;-;-;-;-;-;-;-
1512465138963;-;-;9.234924;-0.64624023;-2.4198608;-;-;-;-;-;-;-;-;-;-;-;-;-;-;-
1512465138983;-;-;9.279221;-0.5145569;-2.1768494;-;-;-;-;-;-;-;-;-;-;-;-;-;-;-
1512465139003;-;-;9.137955;-0.51934814;-2.120575;-;-;-;-;-;-;-;-;-;-;-;-;-;-;-
1512465139024;-;-;9.037399;-0.68933105;-2.2462769;-;-;-;-;-;-;-;-;-;-;-;-;-;-;-
1512465139045;-;-;8.958389;-0.8282013;-2.3779602;-;-;-;-;-;-;-;-;-;-;-;-;-;-;-
1512465139065;-;-;8.930862;-0.7372284;-2.3588104;-;-;-;-;-;-;-;-;-;-;-;-;-;-;-
1512465139086;-;-;8.928467;-0.48703003;-2.3013458;-;-;-;-;-;-;-;-;-;-;-;-;-;-;-
1512465139106;-;-;8.955994;-0.29788208;-2.2726135;-;-;-;-;-;-;-;-;-;-;-;-;-;-;-
1512465139126;-;-;9.099655;-0.28231812;-2.3540192;-;-;-;-;-;-;-;-;-;-;-;-;-;-;-
1512465139147;-;-;8.98233;-0.3469696;-2.3635864;-;-;-;-;-;-;-;-;-;-;-;-;-;-;-
1512465139168;-;-;8.7764435;-0.39245605;-2.3959198;-;-;-;-;-;-;-;-;-;-;-;-;-;-;-
1512465139188;-;-;8.651932;-0.53970337;-2.3803558;-;-;-;-;-;-;-;-;-;-;-;-;-;-;-
1512465139208;-;-;8.814743;-0.5600586;-2.1672668;-;-;-;-;-;-;-;-;-;-;-;-;-;-;-
1512465139228;-;-;8.966782;-0.3397827;-2.1421204;-;-;-;-;-;-;-;-;-;-;-;-;-;-;-
1512465139249;-;-;9.017059;-0.25598145;-2.2067719;-;-;-;-;-;-;-;-;-;-;-;-;-;-;-
1512465139268;-;-;8.941635;-0.37928772;-2.3193054;-;-;-;-;-;-;-;-;-;-;-;-;-;-;-
1512465139288;-;-;8.938049;-0.5756073;-2.4019012;-;-;-;-;-;-;-;-;-;-;-;-;-;-;-
1512465139309;-;-;9.026627;-0.64624023;-2.4342194;-;-;-;-;-;-;-;-;-;-;-;-;-;-;-
1512465139329;-;-;9.015854;-0.56243896;-2.3228912;-;-;-;-;-;-;-;-;-;-;-;-;-;-;-
1512465139350;-;-;9.06134;-0.48104858;-2.207962;-;-;-;-;-;-;-;-;-;-;-;-;-;-;-
1512465139371;-;-;9.029022;-0.46069336;-2.2007904;-;-;-;-;-;-;-;-;-;-;-;-;-;-;-
1512465139391;-;-;9.019455;-0.4738617;-2.2283173;-;-;-;-;-;-;-;-;-;-;-;-;-;-;-
1512465139411;-;-;8.964386;-0.49061584;-2.2163544;-;-;-;-;-;-;-;-;-;-;-;-;-;-;-
1512465139432;-;-;8.967972;-0.47984314;-2.263031;-;-;-;-;-;-;-;-;-;-;-;-;-;-;-
1512465139452;-;-;8.988327;-0.4259796;-2.247467;-;-;-;-;-;-;-;-;-;-;-;-;-;-;-
1512465139473;-;-;9.011063;-0.4379425;-2.2378998;-;-;-;-;-;-;-;-;-;-;-;-;-;-;-
1512465139493;-;-;9.054169;-0.41760254;-2.2331085;-;-;-;-;-;-;-;-;-;-;-;-;-;-;-
1512465139514;-;-;9.035004;-0.46427917;-2.333664;-;-;-;-;-;-;-;-;-;-;-;-;-;-;-
1512465139534;-;-;8.951218;-0.5277252;-2.3288727;-;-;-;-;-;-;-;-;-;-;-;-;-;-;-
1512465139554;-;-;8.9392395;-0.5205536;-2.3851318;-;-;-;-;-;-;-;-;-;-;-;-;-;-;-
1512465139575;-;-;8.928467;-0.49661255;-2.2977448;-;-;-;-;-;-;-;-;-;-;-;-;-;-;-
1512465139596;-;-;8.988327;-0.47865295;-2.3133087;-;-;-;-;-;-;-;-;-;-;-;-;-;-;-
1512465139617;-;-;9.055359;-0.5061798;-2.2462769;-;-;-;-;-;-;-;-;-;-;-;-;-;-;-
1512465139636;-;-;9.086487;-0.5923767;-2.2798004;-;-;-;-;-;-;-;-;-;-;-;-;-;-;-
1512465139657;-;-;9.048172;-0.6043396;-2.2618408;-;-;-;-;-;-;-;-;-;-;-;-;-;-;-
1512465139677;-;-;8.996704;-0.641449;-2.1768494;-;-;-;-;-;-;-;-;-;-;-;-;-;-;-
1512465139697;-;-;8.932053;-0.6821594;-2.1816254;-;-;-;-;-;-;-;-;-;-;-;-;-;-;-
1512465139718;-;-;8.957199;-0.65701294;-2.136139;-;-;-;-;-;-;-;-;-;-;-;-;-;-;-
1512465139737;-;-;9.013458;-0.6725769;-2.1373444;-;-;-;-;-;-;-;-;-;-;-;-;-;-;-
1512465139758;-;-;9.009872;-0.6833496;-2.1768494;-;-;-;-;-;-;-;-;-;-;-;-;-;-;-
1512465139778;-;-;9.006287;-0.66778564;-2.2091675;-;-;-;-;-;-;-;-;-;-;-;-;-;-;-
1512465139799;-;-;9.051773;-0.6498413;-2.2498627;-;-;-;-;-;-;-;-;-;-;-;-;-;-;-
1512465139819;-;-;9.027832;-0.6103363;-2.2917633;-;-;-;-;-;-;-;-;-;-;-;-;-;-;-
1512465139839;-;-;8.950012;-0.5899811;-2.254654;-;-;-;-;-;-;-;-;-;-;-;-;-;-;-
1512465139860;-;-;8.896149;-0.5564575;-2.1983948;-;-;-;-;-;-;-;-;-;-;-;-;-;-;-
1512465139880;-;-;8.929672;-0.5253296;-2.2127533;-;-;-;-;-;-;-;-;-;-;-;-;-;-;-
1512465139901;-;-;8.926071;-0.50738525;-2.3157043;-;-;-;-;-;-;-;-;-;-;-;-;-;-;-
1512465139921;-;-;8.964386;-0.5504761;-2.3276825;-;-;-;-;-;-;-;-;-;-;-;-;-;-;-
1512465139941;-;-;9.072113;-0.48703003;-2.2881775;-;-;-;-;-;-;-;-;-;-;-;-;-;-;-
1512465139961;-;-;9.009872;-0.45111084;-2.2857819;-;-;-;-;-;-;-;-;-;-;-;-;-;-;-
1512465139982;-;-;8.9392395;-0.39485168;-2.2905731;-;-;-;-;-;-;-;-;-;-;-;-;-;-;-
1512465140002;-;-;8.946426;-0.41041565;-2.3121185;-;-;-;-;-;-;-;-;-;-;-;-;-;-;-
1512465140023;-;-;8.750107;-0.29071045;-2.4701385;-;-;-;-;-;-;-;-;-;-;-;-;-;-;-
1512465140043;-;-;9.092468;-0.50019836;-2.1828308;-;-;-;-;-;-;-;-;-;-;-;-;-;-;-
1512465140064;-;-;9.032608;-0.4774475;-2.3468323;-;-;-;-;-;-;-;-;-;-;-;-;-;-;-
1512465140084;-;-;9.105637;-0.5241394;-2.282196;-;-;-;-;-;-;-;-;-;-;-;-;-;-;-
1512465140105;-;-;9.039795;-0.49661255;-2.2055817;-;-;-;-;-;-;-;-;-;-;-;-;-;-;-
1512465140124;-;-;9.055359;-0.4439392;-2.2355042;-;-;-;-;-;-;-;-;-;-;-;-;-;-;-
1512465140145;-;-;8.9787445;-0.48104858;-2.2414856;-;-;-;-;-;-;-;-;-;-;-;-;-;-;-
1512465140165;-;-;8.958389;-0.4846344;-2.2175446;-;-;-;-;-;-;-;-;-;-;-;-;-;-;-
1512465140186;-;-;8.950012;-0.50857544;-2.2103577;-;-;-;-;-;-;-;-;-;-;-;-;-;-;-
1512465140206;-;-;8.9787445;-0.54927063;-2.230713;-;-;-;-;-;-;-;-;-;-;-;-;-;-;-
1512465140227;-;-;8.983536;-0.50138855;-2.207962;-;-;-;-;-;-;-;-;-;-;-;-;-;-;-
1512465140248;-;-;9.019455;-0.46069336;-2.184021;-;-;-;-;-;-;-;-;-;-;-;-;-;-;-
1512465140268;-;-;9.005081;-0.47865295;-2.2450714;-;-;-;-;-;-;-;-;-;-;-;-;-;-;-
1512465140289;-;-;9.001495;-0.4259796;-2.1971893;-;-;-;-;-;-;-;-;-;-;-;-;-;-;-
1512465140309;-;-;8.9787445;-0.43196106;-2.2019806;-;-;-;-;-;-;-;-;-;-;-;-;-;-;-
1512465140329;-;-;9.031418;-0.45829773;-2.2366943;-;-;-;-;-;-;-;-;-;-;-;-;-;-;-
1512465140350;-;-;9.032608;-0.48582458;-2.199585;-;-;-;-;-;-;-;-;-;-;-;-;-;-;-
1512465140370;-;-;9.042191;-0.5504761;-2.2199402;-;-;-;-;-;-;-;-;-;-;-;-;-;-;-
1512465140391;-;-;9.046982;-0.7024994;-2.1959991;-;-;-;-;-;-;-;-;-;-;-;-;-;-;-
1512465140410;-;-;9.023041;-0.8305969;-2.1493073;-;-;-;-;-;-;-;-;-;-;-;-;-;-;-
1512465140430;-;-;8.964386;-0.89523315;-2.1385345;-;-;-;-;-;-;-;-;-;-;-;-;-;-;-
1512465140450;-;-;8.984726;-0.88327026;-2.151703;-;-;-;-;-;-;-;-;-;-;-;-;-;-;-
1512465140471;-;-;8.993118;-0.73602295;-2.1337433;-;-;-;-;-;-;-;-;-;-;-;-;-;-;-
1512465140492;-;-;8.958389;-0.6079407;-2.2067719;-;-;-;-;-;-;-;-;-;-;-;-;-;-;-
1512465140511;-;-;8.922485;-0.5756073;-2.1660767;-;-;-;-;-;-;-;-;-;-;-;-;-;-;-
1512465140532;-;-;8.970367;-0.4738617;-2.1983948;-;-;-;-;-;-;-;-;-;-;-;-;-;-;-
1512465140551;-;-;8.898544;-0.38168335;-2.2199402;-;-;-;-;-;-;-;-;-;-;-;-;-;-;-
1512465140571;-;-;8.835098;-0.37091064;-2.2809906;-;-;-;-;-;-;-;-;-;-;-;-;-;-;-
1512465140592;-;-;8.90213;-0.39485168;-2.270218;-;-;-;-;-;-;-;-;-;-;-;-;-;-;-
1512465140612;-;-;9.006287;-0.49061584;-2.3288727;-;-;-;-;-;-;-;-;-;-;-;-;-;-;-
1512465140632;-;-;9.087677;-0.50857544;-2.3432465;-;-;-;-;-;-;-;-;-;-;-;-;-;-;-
1512465140653;-;-;9.048172;-0.48942566;-2.3935242;-;-;-;-;-;-;-;-;-;-;-;-;-;-;-
1512465140673;-;-;8.964386;-0.45231628;-2.3827515;-;-;-;-;-;-;-;-;-;-;-;-;-;-;-
1512465140694;-;-;8.930862;-0.43554688;-2.389923;-;-;-;-;-;-;-;-;-;-;-;-;-;-;-
1512465140714;-;-;8.9392395;-0.38049316;-2.3779602;-;-;-;-;-;-;-;-;-;-;-;-;-;-;-
1512465140735;-;-;8.996704;-0.39126587;-2.306137;-;-;-;-;-;-;-;-;-;-;-;-;-;-;-
1512465140755;-;-;9.024231;-0.38887024;-2.2678223;-;-;-;-;-;-;-;-;-;-;-;-;-;-;-
1512465140776;-;-;8.958389;-0.41400146;-2.2642365;-;-;-;-;-;-;-;-;-;-;-;-;-;-;-
1512465140796;-;-;8.941635;-0.49421692;-2.3288727;-;-;-;-;-;-;-;-;-;-;-;-;-;-;-
1512465140817;-;-;8.972763;-0.502594;-2.3312683;-;-;-;-;-;-;-;-;-;-;-;-;-;-;-
1512465140837;-;-;8.990723;-0.5253296;-2.4090881;-;-;-;-;-;-;-;-;-;-;-;-;-;-;-
1512465140857;-;-;9.035004;-0.5540619;-2.4713287;-;-;-;-;-;-;-;-;-;-;-;-;-;-;-
1512465140878;-;-;9.033813;-0.4846344;-2.4138641;-;-;-;-;-;-;-;-;-;-;-;-;-;-;-
1512465140898;-;-;9.035004;-0.42837524;-2.2654266;-;-;-;-;-;-;-;-;-;-;-;-;-;-;-
1512465140918;-;-;8.9991;-0.52293396;-2.3360596;-;-;-;-;-;-;-;-;-;-;-;-;-;-;-
1512465140939;-;-;9.056564;-0.680954;-2.4593658;-;-;-;-;-;-;-;-;-;-;-;-;-;-;-
1512465140959;-;-;8.96199;-0.66300964;-2.452179;-;-;-;-;-;-;-;-;-;-;-;-;-;-;-
1512465140980;-;-;8.896149;-0.49661255;-2.3791504;-;-;-;-;-;-;-;-;-;-;-;-;-;-;-
1512465140999;-;-;8.875793;-0.41879272;-2.1924133;-;-;-;-;-;-;-;-;-;-;-;-;-;-;-
1512465141020;-;-;8.806366;-0.43914795;-2.3540192;-;-;-;-;-;-;-;-;-;-;-;-;-;-;-
1512465141039;-;-;8.894943;-0.5792084;-2.3995056;-;-;-;-;-;-;-;-;-;-;-;-;-;-;-
1512465141060;-;-;9.033813;-0.62350464;-2.4438019;-;-;-;-;-;-;-;-;-;-;-;-;-;-;-
1512465141080;-;-;9.036209;-0.57681274;-2.3683777;-;-;-;-;-;-;-;-;-;-;-;-;-;-;-
1512465141101;-;-;8.9991;-0.59117126;-2.3923187;-;-;-;-;-;-;-;-;-;-;-;-;-;-;-
1512465141120;-;-;8.971558;-0.61750793;-2.3396454;-;-;-;-;-;-;-;-;-;-;-;-;-;-;-
1512465141141;-;-;8.932053;-0.57681274;-2.3923187;-;-;-;-;-;-;-;-;-;-;-;-;-;-;-
1512465141161;-;-;8.892548;-0.47984314;-2.3384552;-;-;-;-;-;-;-;-;-;-;-;-;-;-;-
1512465141182;-;-;8.926071;-0.46427917;-2.3204956;-;-;-;-;-;-;-;-;-;-;-;-;-;-;-
1512465141202;-;-;8.934448;-0.5337219;-2.345642;-;-;-;-;-;-;-;-;-;-;-;-;-;-;-
1512465141222;-;-;8.924881;-0.5732269;-2.3935242;-;-;-;-;-;-;-;-;-;-;-;-;-;-;-
1512465141243;-;-;8.996704;-0.58877563;-2.3228912;-;-;-;-;-;-;-;-;-;-;-;-;-;-;-
1512465141264;-;-;9.024231;-0.5708313;-2.3288727;-;-;-;-;-;-;-;-;-;-;-;-;-;-;-
1512465141284;-;-;9.024231;-0.5217438;-2.3528137;-;-;-;-;-;-;-;-;-;-;-;-;-;-;-
1512465141305;-;-;8.935654;-0.51934814;-2.3779602;-;-;-;-;-;-;-;-;-;-;-;-;-;-;-
1512465141324;-;-;8.906921;-0.49899292;-2.4042969;-;-;-;-;-;-;-;-;-;-;-;-;-;-;-
1512465141345;-;-;8.911713;-0.5253296;-2.3935242;-;-;-;-;-;-;-;-;-;-;-;-;-;-;-
1512465141365;-;-;8.928467;-0.51097107;-2.3767548;-;-;-;-;-;-;-;-;-;-;-;-;-;-;-
1512465141385;-;-;8.960785;-0.51815796;-2.412674;-;-;-;-;-;-;-;-;-;-;-;-;-;-;-
1512465141406;-;-;8.954803;-0.5827942;-2.39711;-;-;-;-;-;-;-;-;-;-;-;-;-;-;-
1512465141427;-;-;8.936844;-0.52293396;-2.429428;-;-;-;-;-;-;-;-;-;-;-;-;-;-;-
1512465141447;-;-;8.918884;-0.45829773;-2.388733;-;-;-;-;-;-;-;-;-;-;-;-;-;-;-
1512465141468;-;-;8.941635;-0.4738617;-2.3779602;-;-;-;-;-;-;-;-;-;-;-;-;-;-;-
1512465141488;-;-;8.955994;-0.46188354;-2.373169;-;-;-;-;-;-;-;-;-;-;-;-;-;-;-
1512465141509;-;-;8.951218;-0.502594;-2.3959198;-;-;-;-;-;-;-;-;-;-;-;-;-;-;-
1512465141529;-;-;8.935654;-0.50138855;-2.389923;-;-;-;-;-;-;-;-;-;-;-;-;-;-;-
1512465141550;-;-;8.929672;-0.47505188;-2.3875275;-;-;-;-;-;-;-;-;-;-;-;-;-;-;-
1512465141571;-;-;8.97995;-0.4882202;-2.3863373;-;-;-;-;-;-;-;-;-;-;-;-;-;-;-
1512465141591;-;-;8.984726;-0.5049896;-2.4378052;-;-;-;-;-;-;-;-;-;-;-;-;-;-;-
1512465141611;-;-;8.967972;-0.51815796;-2.4186554;-;-;-;-;-;-;-;-;-;-;-;-;-;-;-
1512465141633;-;-;8.977554;-0.5253296;-2.3911285;-;-;-;-;-;-;-;-;-;-;-;-;-;-;-
1512465141654;-;-;8.948822;-0.4738617;-2.4270325;-;-;-;-;-;-;-;-;-;-;-;-;-;-;-
1512465141673;-;-;8.96199;-0.5133667;-2.4258423;-;-;-;-;-;-;-;-;-;-;-;-;-;-;-
1512465141693;-;-;8.944031;-0.4918213;-2.4042969;-;-;-;-;-;-;-;-;-;-;-;-;-;-;-
1512465141714;-;-;8.936844;-0.50138855;-2.365982;-;-;-;-;-;-;-;-;-;-;-;-;-;-;-
1512465141734;-;-;8.966782;-0.50738525;-2.3863373;-;-;-;-;-;-;-;-;-;-;-;-;-;-;-
1512465141754;-;-;8.975159;-0.5384979;-2.3959198;-;-;-;-;-;-;-;-;-;-;-;-;-;-;-
1512465141774;-;-;8.947617;-0.50738525;-2.4150696;-;-;-;-;-;-;-;-;-;-;-;-;-;-;-
1512465141794;-;-;8.935654;-0.5384979;-2.4425964;-;-;-;-;-;-;-;-;-;-;-;-;-;-;-
1512465141815;-;-;8.944031;-0.5061798;-2.3516235;-;-;-;-;-;-;-;-;-;-;-;-;-;-;-
1512465141835;-;-;8.954803;-0.5313263;-2.3923187;-;-;-;-;-;-;-;-;-;-;-;-;-;-;-
1512465141855;-;-;8.916504;-0.50857544;-2.4198608;-;-;-;-;-;-;-;-;-;-;-;-;-;-;-
1512465141876;-;-;8.987122;-0.5432892;-2.4497833;-;-;-;-;-;-;-;-;-;-;-;-;-;-;-
1512465141896;-;-;9.012268;-0.5253296;-2.4378052;-;-;-;-;-;-;-;-;-;-;-;-;-;-;-
1512465141916;-;-;8.997894;-0.50019836;-2.4090881;-;-;-;-;-;-;-;-;-;-;-;-;-;-;-
1512465141937;-;-;8.930862;-0.47625732;-2.3755646;-;-;-;-;-;-;-;-;-;-;-;-;-;-;-
1512465141956;-;-;8.945221;-0.502594;-2.3528137;-;-;-;-;-;-;-;-;-;-;-;-;-;-;-
1512465141976;-;-;8.950012;-0.5313263;-2.4162598;-;-;-;-;-;-;-;-;-;-;-;-;-;-;-
1512465141997;-;-;8.966782;-0.56243896;-2.4006958;-;-;-;-;-;-;-;-;-;-;-;-;-;-;-
1512465142018;-;-;8.989517;-0.54689026;-2.388733;-;-;-;-;-;-;-;-;-;-;-;-;-;-;-
1512465142037;-;-;8.991913;-0.53970337;-2.3611908;-;-;-;-;-;-;-;-;-;-;-;-;-;-;-
1512465142057;-;-;8.914108;-0.51216125;-2.3635864;-;-;-;-;-;-;-;-;-;-;-;-;-;-;-
1512465142077;-;-;8.926071;-0.4559021;-2.3360596;-;-;-;-;-;-;-;-;-;-;-;-;-;-;-
1512465142098;-;-;8.922485;-0.46548462;-2.3803558;-;-;-;-;-;-;-;-;-;-;-;-;-;-;-
1512465142118;-;-;8.932053;-0.47865295;-2.4342194;-;-;-;-;-;-;-;-;-;-;-;-;-;-;-
1512465142138;-;-;8.933258;-0.51216125;-2.428238;-;-;-;-;-;-;-;-;-;-;-;-;-;-;-
1512465142159;-;-;8.945221;-0.5456848;-2.4078827;-;-;-;-;-;-;-;-;-;-;-;-;-;-;-
1512465142178;-;-;9.00029;-0.5037842;-2.3767548;-;-;-;-;-;-;-;-;-;-;-;-;-;-;-
1512465142199;-;-;8.984726;-0.5540619;-2.3911285;-;-;-;-;-;-;-;-;-;-;-;-;-;-;-
1512465142219;-;-;8.989517;-0.53012085;-2.4354248;-;-;-;-;-;-;-;-;-;-;-;-;-;-;-
1512465142239;-;-;8.9392395;-0.5361023;-2.4390106;-;-;-;-;-;-;-;-;-;-;-;-;-;-;-
1512465142260;-;-;8.9392395;-0.50738525;-2.4318237;-;-;-;-;-;-;-;-;-;-;-;-;-;-;-
1512465142280;-;-;8.924881;-0.5145569;-2.3983002;-;-;-;-;-;-;-;-;-;-;-;-;-;-;-
1512465142300;-;-;8.985931;-0.49661255;-2.452179;-;-;-;-;-;-;-;-;-;-;-;-;-;-;-
1512465142321;-;-;8.964386;-0.502594;-2.4186554;-;-;-;-;-;-;-;-;-;-;-;-;-;-;-
1512465142340;-;-;8.966782;-0.5205536;-2.4042969;-;-;-;-;-;-;-;-;-;-;-;-;-;-;-
1512465142360;-;-;8.947617;-0.5037842;-2.4234467;-;-;-;-;-;-;-;-;-;-;-;-;-;-;-
1512465142381;-;-;8.958389;-0.5540619;-2.4090881;-;-;-;-;-;-;-;-;-;-;-;-;-;-;-
1512465142401;-;-;8.987122;-0.56243896;-2.4378052;-;-;-;-;-;-;-;-;-;-;-;-;-;-;-
1512465142421;-;-;8.970367;-0.5528717;-2.3611908;-;-;-;-;-;-;-;-;-;-;-;-;-;-;-
1512465142441;-;-;9.111618;-0.5349121;-2.4378052;-;-;-;-;-;-;-;-;-;-;-;-;-;-;-
1512465142462;-;-;9.031418;-0.42118835;-2.4102783;-;-;-;-;-;-;-;-;-;-;-;-;-;-;-
1512465142482;-;-;8.80397;-0.39245605;-2.4186554;-;-;-;-;-;-;-;-;-;-;-;-;-;-;-
1512465142502;-;-;8.910507;-0.62350464;-2.522812;-;-;-;-;-;-;-;-;-;-;-;-;-;-;-
1512465142523;-;-;9.171478;-0.6989136;-2.4641418;-;-;-;-;-;-;-;-;-;-;-;-;-;-;-
1512465142543;-;-;9.108032;-0.65940857;-2.294159;-;-;-;-;-;-;-;-;-;-;-;-;-;-;-
1512465142564;-;-;8.983536;-0.6761627;-2.0774841;-;-;-;-;-;-;-;-;-;-;-;-;-;-;-
1512465142585;-;-;8.88298;-0.68574524;-2.1145935;-;-;-;-;-;-;-;-;-;-;-;-;-;-;-
1512465142606;-;-;8.83989;-0.6713867;-2.0164337;-;-;-;-;-;-;-;-;-;-;-;-;-;-;-
1512465142625;-;-;8.934448;-0.64505005;-2.120575;-;-;-;-;-;-;-;-;-;-;-;-;-;-;-
1512465142645;-;-;8.984726;-0.61990356;-2.1924133;-;-;-;-;-;-;-;-;-;-;-;-;-;-;-
1512465142666;-;-;8.993118;-0.6187134;-2.223526;-;-;-;-;-;-;-;-;-;-;-;-;-;-;-
1512465142685;-;-;8.950012;-0.5923767;-2.1660767;-;-;-;-;-;-;-;-;-;-;-;-;-;-;-
1512465142706;-;-;8.934448;-0.53970337;-2.1038208;-;-;-;-;-;-;-;-;-;-;-;-;-;-;-
1512465142725;-;-;8.976349;-0.50738525;-2.1062164;-;-;-;-;-;-;-;-;-;-;-;-;-;-;-
1512465142746;-;-;8.98114;-0.53970337;-2.1385345;-;-;-;-;-;-;-;-;-;-;-;-;-;-;-
1512465142766;-;-;8.993118;-0.59716797;-2.1612854;-;-;-;-;-;-;-;-;-;-;-;-;-;-;-
1512465142786;-;-;8.959595;-0.57681274;-2.1505127;-;-;-;-;-;-;-;-;-;-;-;-;-;-;-
1512465142807;-;-;9.014664;-0.6103363;-2.13974;-;-;-;-;-;-;-;-;-;-;-;-;-;-;-
1512465142828;-;-;9.039795;-0.6139221;-2.1708527;-;-;-;-;-;-;-;-;-;-;-;-;-;-;-
1512465142848;-;-;9.06015;-0.63427734;-2.1493073;-;-;-;-;-;-;-;-;-;-;-;-;-;-;-
1512465142868;-;-;9.058945;-0.581604;-2.168457;-;-;-;-;-;-;-;-;-;-;-;-;-;-;-
1512465142889;-;-;9.038605;-0.5145569;-2.0978394;-;-;-;-;-;-;-;-;-;-;-;-;-;-;-
1512465142909;-;-;9.005081;-0.581604;-2.0822754;-;-;-;-;-;-;-;-;-;-;-;-;-;-;-
1512465142929;-;-;8.9991;-0.66300964;-2.0870667;-;-;-;-;-;-;-;-;-;-;-;-;-;-;-
1512465142950;-;-;9.0182495;-0.70370483;-2.120575;-;-;-;-;-;-;-;-;-;-;-;-;-;-;-
1512465142970;-;-;9.051773;-0.6534271;-2.1457214;-;-;-;-;-;-;-;-;-;-;-;-;-;-;-
1512465142992;-;-;9.033813;-0.53730774;-2.148117;-;-;-;-;-;-;-;-;-;-;-;-;-;-;-
1512465143011;-;-;9.042191;-0.44154358;-2.115799;-;-;-;-;-;-;-;-;-;-;-;-;-;-;-
1512465143032;-;-;8.991913;-0.5456848;-2.2462769;-;-;-;-;-;-;-;-;-;-;-;-;-;-;-
1512465143052;-;-;9.031418;-0.5756073;-2.278595;-;-;-;-;-;-;-;-;-;-;-;-;-;-;-
1512465143073;-;-;9.031418;-0.5564575;-2.1505127;-;-;-;-;-;-;-;-;-;-;-;-;-;-;-
1512465143093;-;-;8.984726;-0.4846344;-2.100235;-;-;-;-;-;-;-;-;-;-;-;-;-;-;-
1512465143113;-;-;8.995499;-0.5157623;-2.0894623;-;-;-;-;-;-;-;-;-;-;-;-;-;-;-
1512465143134;-;-;8.97995;-0.60913086;-2.1864166;-;-;-;-;-;-;-;-;-;-;-;-;-;-;-
1512465143154;-;-;9.088882;-0.6127167;-2.1169891;-;-;-;-;-;-;-;-;-;-;-;-;-;-;-
1512465143175;-;-;9.106842;-0.61631775;-2.1121979;-;-;-;-;-;-;-;-;-;-;-;-;-;-;-
1512465143196;-;-;9.048172;-0.56604004;-2.108612;-;-;-;-;-;-;-;-;-;-;-;-;-;-;-
1512465143216;-;-;8.92128;-0.55166626;-2.1540985;-;-;-;-;-;-;-;-;-;-;-;-;-;-;-
1512465143236;-;-;8.881775;-0.6318817;-2.1924133;-;-;-;-;-;-;-;-;-;-;-;-;-;-;-
1512465143257;-;-;8.98114;-0.69532776;-2.172058;-;-;-;-;-;-;-;-;-;-;-;-;-;-;-
1512465143276;-;-;9.026627;-0.6222992;-2.207962;-;-;-;-;-;-;-;-;-;-;-;-;-;-;-
1512465143297;-;-;9.051773;-0.58758545;-2.1373444;-;-;-;-;-;-;-;-;-;-;-;-;-;-;-
1512465143318;-;-;9.063736;-0.6139221;-2.148117;-;-;-;-;-;-;-;-;-;-;-;-;-;-;-
1512465143338;-;-;9.012268;-0.5923767;-2.1181793;-;-;-;-;-;-;-;-;-;-;-;-;-;-;-
1512465143357;-;-;8.983536;-0.55166626;-2.1277618;-;-;-;-;-;-;-;-;-;-;-;-;-;-;-
1512465143378;-;-;8.987122;-0.53730774;-2.1900177;-;-;-;-;-;-;-;-;-;-;-;-;-;-;-
1512465143398;-;-;8.930862;-0.5361023;-2.187622;-;-;-;-;-;-;-;-;-;-;-;-;-;-;-
1512465143418;-;-;8.957199;-0.6246948;-2.215149;-;-;-;-;-;-;-;-;-;-;-;-;-;-;-
1512465143439;-;-;8.950012;-0.59117126;-2.1385345;-;-;-;-;-;-;-;-;-;-;-;-;-;-;-
1512465143460;-;-;8.988327;-0.54927063;-2.1469116;-;-;-;-;-;-;-;-;-;-;-;-;-;-;-
1512465143480;-;-;9.002686;-0.5528717;-2.108612;-;-;-;-;-;-;-;-;-;-;-;-;-;-;-
1512465143500;-;-;9.081696;-0.5851898;-2.1193848;-;-;-;-;-;-;-;-;-;-;-;-;-;-;-
1512465143521;-;-;9.070923;-0.60194397;-2.1529083;-;-;-;-;-;-;-;-;-;-;-;-;-;-;-
1512465143540;-;-;9.017059;-0.5648346;-2.1026306;-;-;-;-;-;-;-;-;-;-;-;-;-;-;-
1512465143560;-;-;8.987122;-0.5277252;-2.1121979;-;-;-;-;-;-;-;-;-;-;-;-;-;-;-
1512465143581;-;-;9.003891;-0.5217438;-2.1217804;-;-;-;-;-;-;-;-;-;-;-;-;-;-;-
1512465143601;-;-;9.007477;-0.53012085;-2.084671;-;-;-;-;-;-;-;-;-;-;-;-;-;-;-
1512465143622;-;-;9.020645;-0.54927063;-2.053543;-;-;-;-;-;-;-;-;-;-;-;-;-;-;-
1512465143642;-;-;9.032608;-0.5564575;-2.1169891;-;-;-;-;-;-;-;-;-;-;-;-;-;-;-
1512465143663;-;-;9.007477;-0.55166626;-2.0906525;-;-;-;-;-;-;-;-;-;-;-;-;-;-;-
1512465143683;-;-;9.070923;-0.6294861;-2.1433258;-;-;-;-;-;-;-;-;-;-;-;-;-;-;-
1512465143703;-;-;8.973953;-0.60554504;-2.0631256;-;-;-;-;-;-;-;-;-;-;-;-;-;-;-
1512465143724;-;-;8.991913;-0.5564575;-2.0798798;-;-;-;-;-;-;-;-;-;-;-;-;-;-;-
1512465143745;-;-;9.029022;-0.5612488;-2.0619202;-;-;-;-;-;-;-;-;-;-;-;-;-;-;-
1512465143765;-;-;9.080505;-0.59477234;-2.1110077;-;-;-;-;-;-;-;-;-;-;-;-;-;-;-
1512465143786;-;-;9.108032;-0.61990356;-2.1193848;-;-;-;-;-;-;-;-;-;-;-;-;-;-;-
1512465143806;-;-;9.046982;-0.54689026;-2.0475616;-;-;-;-;-;-;-;-;-;-;-;-;-;-;-
1512465143827;-;-;8.950012;-0.6079407;-2.120575;-;-;-;-;-;-;-;-;-;-;-;-;-;-;-
1512465143847;-;-;8.941635;-0.58758545;-2.1373444;-;-;-;-;-;-;-;-;-;-;-;-;-;-;-
1512465143868;-;-;8.952408;-0.6354675;-2.1134033;-;-;-;-;-;-;-;-;-;-;-;-;-;-;-
1512465143889;-;-;9.027832;-0.636673;-2.0750885;-;-;-;-;-;-;-;-;-;-;-;-;-;-;-
1512465143909;-;-;9.0793;-0.6546173;-2.0595245;-;-;-;-;-;-;-;-;-;-;-;-;-;-;-
1512465143929;-;-;9.0577545;-0.58877563;-2.057129;-;-;-;-;-;-;-;-;-;-;-;-;-;-;-
1512465143950;-;-;9.013458;-0.5935669;-2.1038208;-;-;-;-;-;-;-;-;-;-;-;-;-;-;-
1512465143970;-;-;8.98114;-0.54927063;-2.0882568;-;-;-;-;-;-;-;-;-;-;-;-;-;-;-
1512465143990;-;-;8.96199;-0.5337219;-2.0786743;-;-;-;-;-;-;-;-;-;-;-;-;-;-;-
1512465144011;-;-;9.006287;-0.5384979;-2.0786743;-;-;-;-;-;-;-;-;-;-;-;-;-;-;-
1512465144031;-;-;9.041;-0.5361023;-2.0870667;-;-;-;-;-;-;-;-;-;-;-;-;-;-;-
1512465144051;-;-;9.013458;-0.542099;-2.1121979;-;-;-;-;-;-;-;-;-;-;-;-;-;-;-
1512465144072;-;-;9.017059;-0.49421692;-2.1074066;-;-;-;-;-;-;-;-;-;-;-;-;-;-;-
1512465144092;-;-;9.003891;-0.502594;-2.1181793;-;-;-;-;-;-;-;-;-;-;-;-;-;-;-
1512465144113;-;-;9.036209;-0.50138855;-2.1121979;-;-;-;-;-;-;-;-;-;-;-;-;-;-;-
1512465144134;-;-;9.045776;-0.5145569;-2.1181793;-;-;-;-;-;-;-;-;-;-;-;-;-;-;-
1512465144154;-;-;9.052963;-0.48703003;-2.1098022;-;-;-;-;-;-;-;-;-;-;-;-;-;-;-
1512465144175;-;-;9.006287;-0.48104858;-2.0858612;-;-;-;-;-;-;-;-;-;-;-;-;-;-;-
1512465144195;-;-;8.996704;-0.51934814;-2.124176;-;-;-;-;-;-;-;-;-;-;-;-;-;-;-
1512465144215;-;-;9.025436;-0.50857544;-2.1265717;-;-;-;-;-;-;-;-;-;-;-;-;-;-;-
1512465144236;-;-;9.021835;-0.5241394;-2.1145935;-;-;-;-;-;-;-;-;-;-;-;-;-;-;-
1512465144256;-;-;9.044586;-0.502594;-2.0702972;-;-;-;-;-;-;-;-;-;-;-;-;-;-;-
1512465144277;-;-;9.038605;-0.47027588;-2.0667114;-;-;-;-;-;-;-;-;-;-;-;-;-;-;-
1512465144297;-;-;9.032608;-0.48104858;-2.0547333;-;-;-;-;-;-;-;-;-;-;-;-;-;-;-
1512465144318;-;-;9.044586;-0.52293396;-2.06073;-;-;-;-;-;-;-;-;-;-;-;-;-;-;-
1512465144337;-;-;9.014664;-0.5253296;-2.036789;-;-;-;-;-;-;-;-;-;-;-;-;-;-;-
1512465144357;-;-;9.015854;-0.47265625;-2.0391846;-;-;-;-;-;-;-;-;-;-;-;-;-;-;-
1512465144378;-;-;9.033813;-0.4774475;-2.0499573;-;-;-;-;-;-;-;-;-;-;-;-;-;-;-
1512465144398;-;-;8.9991;-0.45350647;-2.0918427;-;-;-;-;-;-;-;-;-;-;-;-;-;-;-
1512465144419;-;-;9.056564;-0.5097656;-2.0774841;-;-;-;-;-;-;-;-;-;-;-;-;-;-;-
1512465144440;-;-;9.072113;-0.5037842;-2.0906525;-;-;-;-;-;-;-;-;-;-;-;-;-;-;-
1512465144460;-;-;9.062546;-0.45231628;-2.036789;-;-;-;-;-;-;-;-;-;-;-;-;-;-;-
1512465144480;-;-;9.035004;-0.49780273;-2.0439606;-;-;-;-;-;-;-;-;-;-;-;-;-;-;-
1512465144501;-;-;9.011063;-0.50738525;-2.065506;-;-;-;-;-;-;-;-;-;-;-;-;-;-;-
1512465144522;-;-;9.049377;-0.59835815;-2.1217804;-;-;-;-;-;-;-;-;-;-;-;-;-;-;-
1512465144542;-;-;9.088882;-0.5899811;-2.0715027;-;-;-;-;-;-;-;-;-;-;-;-;-;-;-
1512465144563;-;-;9.039795;-0.4954071;-2.0224152;-;-;-;-;-;-;-;-;-;-;-;-;-;-;-
1512465144583;-;-;9.06134;-0.41879272;-2.0260162;-;-;-;-;-;-;-;-;-;-;-;-;-;-;-
1512465144604;-;-;8.990723;-0.4271698;-2.041565;-;-;-;-;-;-;-;-;-;-;-;-;-;-;-
1512465144624;-;-;9.008667;-0.46069336;-2.069107;-;-;-;-;-;-;-;-;-;-;-;-;-;-;-
1512465144644;-;-;9.027832;-0.4846344;-2.036789;-;-;-;-;-;-;-;-;-;-;-;-;-;-;-
1512465144665;-;-;9.069733;-0.5097656;-2.0559387;-;-;-;-;-;-;-;-;-;-;-;-;-;-;-
1512465144684;-;-;9.00029;-0.51216125;-2.0355835;-;-;-;-;-;-;-;-;-;-;-;-;-;-;-
1512465144704;-;-;8.976349;-0.46069336;-2.0188293;-;-;-;-;-;-;-;-;-;-;-;-;-;-;-
1512465144725;-;-;9.006287;-0.46788025;-2.0487518;-;-;-;-;-;-;-;-;-;-;-;-;-;-;-
1512465144745;-;-;9.067337;-0.44273376;-2.0906525;-;-;-;-;-;-;-;-;-;-;-;-;-;-;-
1512465144766;-;-;9.042191;-0.49061584;-2.0822754;-;-;-;-;-;-;-;-;-;-;-;-;-;-;-
1512465144786;-;-;9.017059;-0.5145569;-2.057129;-;-;-;-;-;-;-;-;-;-;-;-;-;-;-
1512465144807;-;-;9.023041;-0.5241394;-2.08107;-;-;-;-;-;-;-;-;-;-;-;-;-;-;-
1512465144827;-;-;9.055359;-0.45111084;-2.0104523;-;-;-;-;-;-;-;-;-;-;-;-;-;-;-
1512465144848;-;-;9.049377;-0.42237854;-1.990097;-;-;-;-;-;-;-;-;-;-;-;-;-;-;-
1512465144868;-;-;9.027832;-0.39485168;-2.0463562;-;-;-;-;-;-;-;-;-;-;-;-;-;-;-
1512465144888;-;-;8.976349;-0.41999817;-2.057129;-;-;-;-;-;-;-;-;-;-;-;-;-;-;-
1512465144909;-;-;9.038605;-0.4163971;-2.0487518;-;-;-;-;-;-;-;-;-;-;-;-;-;-;-
1512465144931;-;-;9.052963;-0.4547119;-2.06073;-;-;-;-;-;-;-;-;-;-;-;-;-;-;-
1512465144951;-;-;9.031418;-0.45948792;-2.0822754;-;-;-;-;-;-;-;-;-;-;-;-;-;-;-
1512465144971;-;-;9.029022;-0.44154358;-2.041565;-;-;-;-;-;-;-;-;-;-;-;-;-;-;-
1512465144992;-;-;9.026627;-0.41160583;-1.9960785;-;-;-;-;-;-;-;-;-;-;-;-;-;-;-
1512465145013;-;-;9.044586;-0.38887024;-2.0858612;-;-;-;-;-;-;-;-;-;-;-;-;-;-;-
1512465145032;-;-;8.975159;-0.39006042;-2.0894623;-;-;-;-;-;-;-;-;-;-;-;-;-;-;-
1512465145053;-;-;9.056564;-0.41999817;-2.0894623;-;-;-;-;-;-;-;-;-;-;-;-;-;-;-
1512465145073;-;-;9.044586;-0.3936615;-2.1098022;-;-;-;-;-;-;-;-;-;-;-;-;-;-;-
1512465145094;-;-;9.014664;-0.41400146;-2.0487518;-;-;-;-;-;-;-;-;-;-;-;-;-;-;-
1512465145114;-;-;8.996704;-0.38407898;-2.0858612;-;-;-;-;-;-;-;-;-;-;-;-;-;-;-
1512465145134;-;-;8.995499;-0.3972473;-2.1038208;-;-;-;-;-;-;-;-;-;-;-;-;-;-;-
1512465145155;-;-;9.017059;-0.37928772;-2.0942383;-;-;-;-;-;-;-;-;-;-;-;-;-;-;-
1512465145175;-;-;8.993118;-0.37449646;-2.0822754;-;-;-;-;-;-;-;-;-;-;-;-;-;-;-
1512465145196;-;-;8.959595;-0.38049316;-2.0774841;-;-;-;-;-;-;-;-;-;-;-;-;-;-;-
1512465145217;-;-;8.989517;-0.3146515;-2.0679016;-;-;-;-;-;-;-;-;-;-;-;-;-;-;-
1512465145237;-;-;8.976349;-0.33021545;-2.0870667;-;-;-;-;-;-;-;-;-;-;-;-;-;-;-
1512465145258;-;-;8.969162;-0.3146515;-2.0834656;-;-;-;-;-;-;-;-;-;-;-;-;-;-;-
1512465145278;-;-;9.027832;-0.37449646;-2.0631256;-;-;-;-;-;-;-;-;-;-;-;-;-;-;-
1512465145298;-;-;9.032608;-0.3254242;-2.0918427;-;-;-;-;-;-;-;-;-;-;-;-;-;-;-
1512465145318;-;-;9.039795;-0.3649292;-2.0870667;-;-;-;-;-;-;-;-;-;-;-;-;-;-;-
1512465145339;-;-;9.037399;-0.35653687;-2.0475616;-;-;-;-;-;-;-;-;-;-;-;-;-;-;-
1512465145360;-;-;9.033813;-0.39604187;-2.0499573;-;-;-;-;-;-;-;-;-;-;-;-;-;-;-
1512465145381;-;-;9.042191;-0.36132813;-2.00206;-;-;-;-;-;-;-;-;-;-;-;-;-;-;-
1512465145401;-;-;9.025436;-0.36132813;-2.0224152;-;-;-;-;-;-;-;-;-;-;-;-;-;-;-
1512465145422;-;-;9.007477;-0.35295105;-2.0475616;-;-;-;-;-;-;-;-;-;-;-;-;-;-;-
1512465145442;-;-;9.035004;-0.33859253;-2.0188293;-;-;-;-;-;-;-;-;-;-;-;-;-;-;-
1512465145463;-;-;9.006287;-0.33021545;-2.0403748;-;-;-;-;-;-;-;-;-;-;-;-;-;-;-
1512465145482;-;-;9.015854;-0.34217834;-2.0403748;-;-;-;-;-;-;-;-;-;-;-;-;-;-;-
1512465145503;-;-;9.069733;-0.34936523;-2.021225;-;-;-;-;-;-;-;-;-;-;-;-;-;-;-
1512465145523;-;-;9.069733;-0.3589325;-2.0391846;-;-;-;-;-;-;-;-;-;-;-;-;-;-;-
1512465145544;-;-;9.063736;-0.3864746;-2.0343933;-;-;-;-;-;-;-;-;-;-;-;-;-;-;-
1512465145564;-;-;9.067337;-0.3984375;-2.0307922;-;-;-;-;-;-;-;-;-;-;-;-;-;-;-
1512465145585;-;-;8.988327;-0.39604187;-2.0092468;-;-;-;-;-;-;-;-;-;-;-;-;-;-;-
1512465145605;-;-;9.006287;-0.37330627;-1.9769287;-;-;-;-;-;-;-;-;-;-;-;-;-;-;-
1512465145626;-;-;9.037399;-0.3697052;-2.036789;-;-;-;-;-;-;-;-;-;-;-;-;-;-;-
1512465145646;-;-;9.005081;-0.35055542;-2.084671;-;-;-;-;-;-;-;-;-;-;-;-;-;-;-
1512465145667;-;-;9.048172;-0.368515;-2.0499573;-;-;-;-;-;-;-;-;-;-;-;-;-;-;-
1512465145686;-;-;9.069733;-0.3589325;-2.0559387;-;-;-;-;-;-;-;-;-;-;-;-;-;-;-
1512465145706;-;-;9.093674;-0.34457397;-2.0164337;-;-;-;-;-;-;-;-;-;-;-;-;-;-;-
1512465145727;-;-;9.020645;-0.35295105;-2.0260162;-;-;-;-;-;-;-;-;-;-;-;-;-;-;-
1512465145748;-;-;9.007477;-0.3481598;-2.0463562;-;-;-;-;-;-;-;-;-;-;-;-;-;-;-
1512465145769;-;-;9.006287;-0.36013794;-2.069107;-;-;-;-;-;-;-;-;-;-;-;-;-;-;-
1512465145789;-;-;9.013458;-0.39006042;-2.0834656;-;-;-;-;-;-;-;-;-;-;-;-;-;-;-
1512465145809;-;-;9.045776;-0.36611938;-2.0511475;-;-;-;-;-;-;-;-;-;-;-;-;-;-;-
1512465145830;-;-;9.051773;-0.3397827;-2.0631256;-;-;-;-;-;-;-;-;-;-;-;-;-;-;-
1512465145850;-;-;9.042191;-0.368515;-2.0260162;-;-;-;-;-;-;-;-;-;-;-;-;-;-;-
1512465145871;-;-;9.036209;-0.33738708;-2.0487518;-;-;-;-;-;-;-;-;-;-;-;-;-;-;-
1512465145892;-;-;8.991913;-0.3469696;-2.0523376;-;-;-;-;-;-;-;-;-;-;-;-;-;-;-
1512465145912;-;-;9.024231;-0.37928772;-2.0248108;-;-;-;-;-;-;-;-;-;-;-;-;-;-;-
1512465145933;-;-;9.033813;-0.4056244;-2.0427704;-;-;-;-;-;-;-;-;-;-;-;-;-;-;-
1512465145952;-;-;9.072113;-0.36732483;-2.0631256;-;-;-;-;-;-;-;-;-;-;-;-;-;-;-
1512465145972;-;-;9.048172;-0.3757019;-2.0523376;-;-;-;-;-;-;-;-;-;-;-;-;-;-;-
1512465145993;-;-;9.027832;-0.3697052;-2.0726929;-;-;-;-;-;-;-;-;-;-;-;-;-;-;-
1512465146014;-;-;9.009872;-0.38526917;-2.0355835;-;-;-;-;-;-;-;-;-;-;-;-;-;-;-
1512465146034;-;-;9.005081;-0.37809753;-2.0547333;-;-;-;-;-;-;-;-;-;-;-;-;-;-;-
1512465146055;-;-;9.035004;-0.3469696;-1.9972839;-;-;-;-;-;-;-;-;-;-;-;-;-;-;-
1512465146074;-;-;9.044586;-0.35534668;-2.0104523;-;-;-;-;-;-;-;-;-;-;-;-;-;-;-
1512465146095;-;-;9.055359;-0.39964294;-2.029602;-;-;-;-;-;-;-;-;-;-;-;-;-;-;-
1512465146114;-;-;9.045776;-0.40682983;-2.053543;-;-;-;-;-;-;-;-;-;-;-;-;-;-;-
1512465146134;-;-;9.015854;-0.3768921;-2.0487518;-;-;-;-;-;-;-;-;-;-;-;-;-;-;-
1512465146155;-;-;9.031418;-0.3577423;-2.0343933;-;-;-;-;-;-;-;-;-;-;-;-;-;-;-
1512465146175;-;-;9.014664;-0.39245605;-2.012848;-;-;-;-;-;-;-;-;-;-;-;-;-;-;-
1512465146196;-;-;9.031418;-0.37210083;-2.0164337;-;-;-;-;-;-;-;-;-;-;-;-;-;-;-
1512465146216;-;-;8.976349;-0.37210083;-2.0188293;-;-;-;-;-;-;-;-;-;-;-;-;-;-;-
1512465146237;-;-;9.030228;-0.43196106;-1.942215;-;-;-;-;-;-;-;-;-;-;-;-;-;-;-
1512465146257;-;-;9.030228;-0.38407898;-1.966156;-;-;-;-;-;-;-;-;-;-;-;-;-;-;-
1512465146278;-;-;9.07811;-0.39964294;-1.9996796;-;-;-;-;-;-;-;-;-;-;-;-;-;-;-
1512465146299;-;-;9.068527;-0.3936615;-1.9972839;-;-;-;-;-;-;-;-;-;-;-;-;-;-;-
1512465146318;-;-;9.086487;-0.3936615;-1.9972839;-;-;-;-;-;-;-;-;-;-;-;-;-;-;-
1512465146339;-;-;9.045776;-0.3649292;-2.017624;-;-;-;-;-;-;-;-;-;-;-;-;-;-;-
1512465146359;-;-;8.9787445;-0.30148315;-2.0092468;-;-;-;-;-;-;-;-;-;-;-;-;-;-;-
1512465146380;-;-;9.007477;-0.368515;-2.0068512;-;-;-;-;-;-;-;-;-;-;-;-;-;-;-
1512465146399;-;-;9.042191;-0.3972473;-2.0260162;-;-;-;-;-;-;-;-;-;-;-;-;-;-;-
1512465146419;-;-;9.070923;-0.42358398;-2.0224152;-;-;-;-;-;-;-;-;-;-;-;-;-;-;-
1512465146440;-;-;9.064941;-0.39245605;-2.005661;-;-;-;-;-;-;-;-;-;-;-;-;-;-;-
1512465146460;-;-;9.0793;-0.40682983;-1.9841156;-;-;-;-;-;-;-;-;-;-;-;-;-;-;-
1512465146480;-;-;9.026627;-0.37928772;-1.950592;-;-;-;-;-;-;-;-;-;-;-;-;-;-;-
1512465146501;-;-;9.037399;-0.41999817;-2.0152283;-;-;-;-;-;-;-;-;-;-;-;-;-;-;-
1512465146521;-;-;9.045776;-0.3469696;-1.9841156;-;-;-;-;-;-;-;-;-;-;-;-;-;-;-
1512465146542;-;-;9.023041;-0.37091064;-1.9888916;-;-;-;-;-;-;-;-;-;-;-;-;-;-;-
1512465146562;-;-;9.036209;-0.35055542;-1.9673462;-;-;-;-;-;-;-;-;-;-;-;-;-;-;-
1512465146583;-;-;9.051773;-0.36013794;-1.9793243;-;-;-;-;-;-;-;-;-;-;-;-;-;-;-
1512465146602;-;-;9.027832;-0.39485168;-2.0391846;-;-;-;-;-;-;-;-;-;-;-;-;-;-;-
1512465146623;-;-;9.037399;-0.37210083;-2.0427704;-;-;-;-;-;-;-;-;-;-;-;-;-;-;-
1512465146643;-;-;9.066132;-0.3757019;-2.005661;-;-;-;-;-;-;-;-;-;-;-;-;-;-;-
1512465146664;-;-;9.009872;-0.36611938;-1.9829102;-;-;-;-;-;-;-;-;-;-;-;-;-;-;-
1512465146684;-;-;9.007477;-0.3972473;-1.9841156;-;-;-;-;-;-;-;-;-;-;-;-;-;-;-
1512465146704;-;-;9.027832;-0.45111084;-1.9841156;-;-;-;-;-;-;-;-;-;-;-;-;-;-;-
1512465146725;-;-;9.033813;-0.44992065;-1.9781189;-;-;-;-;-;-;-;-;-;-;-;-;-;-;-
1512465146745;-;-;9.051773;-0.4152069;-1.9924927;-;-;-;-;-;-;-;-;-;-;-;-;-;-;-
1512465146766;-;-;9.019455;-0.4044342;-1.9721375;-;-;-;-;-;-;-;-;-;-;-;-;-;-;-
1512465146785;-;-;9.024231;-0.42358398;-1.9972839;-;-;-;-;-;-;-;-;-;-;-;-;-;-;-
1512465146806;-;-;9.066132;-0.45111084;-1.9446106;-;-;-;-;-;-;-;-;-;-;-;-;-;-;-
1512465146826;-;-;9.080505;-0.43315125;-2.0307922;-;-;-;-;-;-;-;-;-;-;-;-;-;-;-
1512465146847;-;-;9.013458;-0.41879272;-2.021225;-;-;-;-;-;-;-;-;-;-;-;-;-;-;-
1512465146867;-;-;9.008667;-0.43196106;-1.9541779;-;-;-;-;-;-;-;-;-;-;-;-;-;-;-
1512465146887;-;-;9.017059;-0.4056244;-2.0272064;-;-;-;-;-;-;-;-;-;-;-;-;-;-;-
1512465146908;-;-;8.985931;-0.4379425;-2.057129;-;-;-;-;-;-;-;-;-;-;-;-;-;-;-
1512465146929;-;-;9.020645;-0.42477417;-2.0774841;-;-;-;-;-;-;-;-;-;-;-;-;-;-;-
1512465146949;-;-;9.055359;-0.42237854;-2.0583344;-;-;-;-;-;-;-;-;-;-;-;-;-;-;-
1512465146970;-;-;9.031418;-0.4259796;-2.093048;-;-;-;-;-;-;-;-;-;-;-;-;-;-;-
1512465146990;-;-;9.06015;-0.44273376;-2.0643158;-;-;-;-;-;-;-;-;-;-;-;-;-;-;-
1512465147010;-;-;9.033813;-0.45948792;-2.057129;-;-;-;-;-;-;-;-;-;-;-;-;-;-;-
1512465147030;-;-;9.013458;-0.5037842;-2.0822754;-;-;-;-;-;-;-;-;-;-;-;-;-;-;-
1512465147051;-;-;9.056564;-0.4547119;-2.1014252;-;-;-;-;-;-;-;-;-;-;-;-;-;-;-
1512465147071;-;-;9.00029;-0.46188354;-2.029602;-;-;-;-;-;-;-;-;-;-;-;-;-;-;-
1512465147092;-;-;9.013458;-0.47265625;-2.06073;-;-;-;-;-;-;-;-;-;-;-;-;-;-;-
1512465147112;-;-;9.002686;-0.45111084;-2.0463562;-;-;-;-;-;-;-;-;-;-;-;-;-;-;-
1512465147133;-;-;8.942825;-0.41400146;-2.0619202;-;-;-;-;-;-;-;-;-;-;-;-;-;-;-
1512465147153;-;-;9.070923;-0.49301147;-2.0894623;-;-;-;-;-;-;-;-;-;-;-;-;-;-;-
1512465147173;-;-;9.020645;-0.44631958;-2.0643158;-;-;-;-;-;-;-;-;-;-;-;-;-;-;-
1512465147194;-;-;9.017059;-0.44752502;-2.0595245;-;-;-;-;-;-;-;-;-;-;-;-;-;-;-
1512465147214;-;-;9.036209;-0.43554688;-2.0774841;-;-;-;-;-;-;-;-;-;-;-;-;-;-;-
1512465147234;-;-;9.046982;-0.41400146;-2.1457214;-;-;-;-;-;-;-;-;-;-;-;-;-;-;-
1512465147255;-;-;9.007477;-0.38287354;-2.096634;-;-;-;-;-;-;-;-;-;-;-;-;-;-;-
1512465147275;-;-;9.013458;-0.40203857;-2.1181793;-;-;-;-;-;-;-;-;-;-;-;-;-;-;-
1512465147295;-;-;9.023041;-0.4044342;-2.1074066;-;-;-;-;-;-;-;-;-;-;-;-;-;-;-
1512465147316;-;-;9.017059;-0.41041565;-2.0679016;-;-;-;-;-;-;-;-;-;-;-;-;-;-;-
1512465147336;-;-;9.039795;-0.43315125;-2.1301575;-;-;-;-;-;-;-;-;-;-;-;-;-;-;-
1512465147357;-;-;8.997894;-0.42956543;-2.1529083;-;-;-;-;-;-;-;-;-;-;-;-;-;-;-
1512465147377;-;-;9.025436;-0.39964294;-2.093048;-;-;-;-;-;-;-;-;-;-;-;-;-;-;-
1512465147397;-;-;9.036209;-0.4259796;-2.1181793;-;-;-;-;-;-;-;-;-;-;-;-;-;-;-
1512465147418;-;-;8.973953;-0.39485168;-2.1253662;-;-;-;-;-;-;-;-;-;-;-;-;-;-;-
1512465147438;-;-;8.988327;-0.41281128;-2.1110077;-;-;-;-;-;-;-;-;-;-;-;-;-;-;-
1512465147459;-;-;9.009872;-0.44631958;-2.148117;-;-;-;-;-;-;-;-;-;-;-;-;-;-;-
1512465147478;-;-;9.024231;-0.43077087;-2.1552887;-;-;-;-;-;-;-;-;-;-;-;-;-;-;-
1512465147499;-;-;8.948822;-0.40083313;-2.1301575;-;-;-;-;-;-;-;-;-;-;-;-;-;-;-
1512465147518;-;-;8.983536;-0.41400146;-2.1349487;-;-;-;-;-;-;-;-;-;-;-;-;-;-;-
1512465147539;-;-;9.019455;-0.40203857;-2.1505127;-;-;-;-;-;-;-;-;-;-;-;-;-;-;-
1512465147558;-;-;8.993118;-0.4451294;-2.163681;-;-;-;-;-;-;-;-;-;-;-;-;-;-;-
1512465147579;-;-;9.051773;-0.42837524;-2.16008;-;-;-;-;-;-;-;-;-;-;-;-;-;-;-
1512465147600;-;-;9.014664;-0.41879272;-2.187622;-;-;-;-;-;-;-;-;-;-;-;-;-;-;-
1512465147620;-;-;8.966782;-0.38887024;-2.1576843;-;-;-;-;-;-;-;-;-;-;-;-;-;-;-
1512465147641;-;-;8.950012;-0.39485168;-2.172058;-;-;-;-;-;-;-;-;-;-;-;-;-;-;-
1512465147662;-;-;8.966782;-0.3936615;-2.1337433;-;-;-;-;-;-;-;-;-;-;-;-;-;-;-
1512465147682;-;-;9.036209;-0.41281128;-2.148117;-;-;-;-;-;-;-;-;-;-;-;-;-;-;-
1512465147703;-;-;9.050568;-0.4056244;-2.1852264;-;-;-;-;-;-;-;-;-;-;-;-;-;-;-
1512465147724;-;-;8.971558;-0.35534668;-2.1433258;-;-;-;-;-;-;-;-;-;-;-;-;-;-;-
1512465147743;-;-;8.988327;-0.32901;-2.1253662;-;-;-;-;-;-;-;-;-;-;-;-;-;-;-
1512465147764;-;-;8.959595;-0.30267334;-2.1181793;-;-;-;-;-;-;-;-;-;-;-;-;-;-;-
