TimeStamp[ms];Prox[Cm];Lux[lux];AccX[m/s^2];AccY[m/s^2];AccZ[m/s^2];GyroX[rad/s];GyroY[rad/s];GyroZ[rad/s];MagnX[uT];MagnY[uT];MagnZ[uT];OrienYaw[degrees];OrienPitch[degrees];OrienRoll[degrees];Press[Pa];Temp[C°];Batt[%];Lat;Lng;Speed[m/s]
1512466395193;-;-;9.062546;-1.7846832;0.5968323;-;-;-;-;-;-;-;-;-;-;-;-;-;-;-
1512466395193;-;-;9.085281;-1.7344055;0.642334;-;-;-;-;-;-;-;-;-;-;-;-;-;-;-
1512466395209;-;-;9.001495;-1.6996918;0.760849;-;-;-;-;-;-;-;-;-;-;-;-;-;-;-
1512466395228;-;-;9.041;-1.874466;1.2109528;-;-;-;-;-;-;-;-;-;-;-;-;-;-;-
1512466395249;-;-;9.054169;-1.759552;0.9200592;-;-;-;-;-;-;-;-;-;-;-;-;-;-;-
1512466395270;-;-;9.086487;-1.8505249;0.058151245;-;-;-;-;-;-;-;-;-;-;-;-;-;-;-
1512466395290;-;-;9.363022;-2.198883;0.7033844;-;-;-;-;-;-;-;-;-;-;-;-;-;-;-
1512466395311;-;-;8.970367;-2.408371;0.4507904;-;-;-;-;-;-;-;-;-;-;-;-;-;-;-
1512466395332;-;-;8.951218;-2.566391;0.26524353;-;-;-;-;-;-;-;-;-;-;-;-;-;-;-
1512466395353;-;-;9.151123;-2.535263;0.23052979;-;-;-;-;-;-;-;-;-;-;-;-;-;-;-
1512466395372;-;-;9.13916;-2.2312012;0.04975891;-;-;-;-;-;-;-;-;-;-;-;-;-;-;-
1512466395392;-;-;8.88298;-2.0755768;0.48910522;-;-;-;-;-;-;-;-;-;-;-;-;-;-;-
1512466395413;-;-;8.705811;-1.9355164;0.53100586;-;-;-;-;-;-;-;-;-;-;-;-;-;-;-
1512466395437;-;-;8.7608795;-1.9582672;0.048568726;-;-;-;-;-;-;-;-;-;-;-;-;-;-;-
1512466395454;-;-;8.814743;-2.1450195;0.17785645;-;-;-;-;-;-;-;-;-;-;-;-;-;-;-
1512466395474;-;-;8.838684;-2.550827;0.036590576;-;-;-;-;-;-;-;-;-;-;-;-;-;-;-
1512466395495;-;-;8.748901;-2.8572845;-0.28182983;-;-;-;-;-;-;-;-;-;-;-;-;-;-;-
1512466395515;-;-;8.553772;-3.0572052;-0.19923401;-;-;-;-;-;-;-;-;-;-;-;-;-;-;-
1512466395536;-;-;8.8207245;-3.1122742;-0.020858765;-;-;-;-;-;-;-;-;-;-;-;-;-;-;-
1512466395557;-;-;8.975159;-3.2619019;-0.17887878;-;-;-;-;-;-;-;-;-;-;-;-;-;-;-
1512466395577;-;-;8.878189;-3.4247131;-0.34527588;-;-;-;-;-;-;-;-;-;-;-;-;-;-;-
1512466395598;-;-;8.270065;-3.313385;-0.051986694;-;-;-;-;-;-;-;-;-;-;-;-;-;-;-
1512466395618;-;-;8.03064;-3.1565704;-0.17289734;-;-;-;-;-;-;-;-;-;-;-;-;-;-;-
1512466395638;-;-;8.368225;-3.0715637;-0.09628296;-;-;-;-;-;-;-;-;-;-;-;-;-;-;-
1512466395658;-;-;8.593277;-2.9434814;0.21257019;-;-;-;-;-;-;-;-;-;-;-;-;-;-;-
1512466395679;-;-;8.616028;-2.9626312;-0.014877319;-;-;-;-;-;-;-;-;-;-;-;-;-;-;-
1512466395700;-;-;8.386185;-2.8967896;-0.08192444;-;-;-;-;-;-;-;-;-;-;-;-;-;-;-
1512466395719;-;-;7.8881836;-2.9434814;-0.107055664;-;-;-;-;-;-;-;-;-;-;-;-;-;-;-
1512466395740;-;-;7.9671936;-3.258316;-0.3081665;-;-;-;-;-;-;-;-;-;-;-;-;-;-;-
1512466395761;-;-;8.452026;-3.179306;-0.22077942;-;-;-;-;-;-;-;-;-;-;-;-;-;-;-
1512466395781;-;-;8.893753;-3.2152252;-0.46977234;-;-;-;-;-;-;-;-;-;-;-;-;-;-;-
1512466395801;-;-;9.380966;-3.3074036;-0.69721985;-;-;-;-;-;-;-;-;-;-;-;-;-;-;-
1512466395822;-;-;9.49231;-3.4271088;-0.59547424;-;-;-;-;-;-;-;-;-;-;-;-;-;-;-
1512466395842;-;-;9.357025;-3.6066742;-0.65293884;-;-;-;-;-;-;-;-;-;-;-;-;-;-;-
1512466395863;-;-;9.63475;-3.4618225;-0.3009796;-;-;-;-;-;-;-;-;-;-;-;-;-;-;-
1512466395883;-;-;9.586868;-2.7782745;-0.372818;-;-;-;-;-;-;-;-;-;-;-;-;-;-;-
1512466395904;-;-;9.301956;-2.4538574;-0.2674713;-;-;-;-;-;-;-;-;-;-;-;-;-;-;-
1512466395924;-;-;9.165497;-2.0205078;-0.26028442;-;-;-;-;-;-;-;-;-;-;-;-;-;-;-
1512466395945;-;-;9.134369;-1.4423218;-0.2686615;-;-;-;-;-;-;-;-;-;-;-;-;-;-;-
1512466395966;-;-;9.063736;-0.9275665;-0.13458252;-;-;-;-;-;-;-;-;-;-;-;-;-;-;-
1512466395986;-;-;8.896149;-0.71447754;-0.6397705;-;-;-;-;-;-;-;-;-;-;-;-;-;-;-
1512466396006;-;-;8.892548;-0.70370483;-1.0934601;-;-;-;-;-;-;-;-;-;-;-;-;-;-;-
1512466396027;-;-;9.251678;-0.4152069;-0.87080383;-;-;-;-;-;-;-;-;-;-;-;-;-;-;-
1512466396047;-;-;9.455185;0.2815094;-0.35246277;-;-;-;-;-;-;-;-;-;-;-;-;-;-;-
1512466396068;-;-;10.020218;0.9638519;-0.24832153;-;-;-;-;-;-;-;-;-;-;-;-;-;-;-
1512466396088;-;-;11.066483;1.2787018;-0.46858215;-;-;-;-;-;-;-;-;-;-;-;-;-;-;-
1512466396109;-;-;11.308304;0.809433;-0.70321655;-;-;-;-;-;-;-;-;-;-;-;-;-;-;-
1512466396129;-;-;10.216553;-1.0628357;-0.50808716;-;-;-;-;-;-;-;-;-;-;-;-;-;-;-
1512466396150;-;-;9.57251;-0.9622803;0.32987976;-;-;-;-;-;-;-;-;-;-;-;-;-;-;-
1512466396169;-;-;9.415695;-1.3273926;1.1295471;-;-;-;-;-;-;-;-;-;-;-;-;-;-;-
1512466396189;-;-;9.038605;-0.93115234;0.4974823;-;-;-;-;-;-;-;-;-;-;-;-;-;-;-
1512466396209;-;-;8.130005;-1.1693726;1.3522034;-;-;-;-;-;-;-;-;-;-;-;-;-;-;-
1512466396230;-;-;8.304779;-0.9838257;0.017440796;-;-;-;-;-;-;-;-;-;-;-;-;-;-;-
1512466396251;-;-;8.570541;-0.86531067;-0.41471863;-;-;-;-;-;-;-;-;-;-;-;-;-;-;-
1512466396271;-;-;8.876999;-0.97184753;0.65908813;-;-;-;-;-;-;-;-;-;-;-;-;-;-;-
1512466396292;-;-;9.720947;-1.0795898;0.9416046;-;-;-;-;-;-;-;-;-;-;-;-;-;-;-
1512466396312;-;-;10.052551;-0.7551727;-0.09388733;-;-;-;-;-;-;-;-;-;-;-;-;-;-;-
1512466396333;-;-;9.669479;-0.6246948;-0.56674194;-;-;-;-;-;-;-;-;-;-;-;-;-;-;-
1512466396354;-;-;9.214569;-0.5744171;-0.22796631;-;-;-;-;-;-;-;-;-;-;-;-;-;-;-
1512466396374;-;-;8.893753;-0.5720215;-0.44104004;-;-;-;-;-;-;-;-;-;-;-;-;-;-;-
1512466396394;-;-;8.636368;-0.61750793;-0.18725586;-;-;-;-;-;-;-;-;-;-;-;-;-;-;-
1512466396415;-;-;9.012268;-0.5205536;-0.20281982;-;-;-;-;-;-;-;-;-;-;-;-;-;-;-
1512466396434;-;-;8.788406;-0.5337219;-0.2674713;-;-;-;-;-;-;-;-;-;-;-;-;-;-;-
1512466396455;-;-;9.067337;-0.6761627;-0.48654175;-;-;-;-;-;-;-;-;-;-;-;-;-;-;-
1512466396474;-;-;8.608841;-0.3876648;-1.0707245;-;-;-;-;-;-;-;-;-;-;-;-;-;-;-
1512466396494;-;-;8.161133;-0.62828064;-1.7231445;-;-;-;-;-;-;-;-;-;-;-;-;-;-;-
1512466396515;-;-;9.114014;-0.67378235;-0.7786255;-;-;-;-;-;-;-;-;-;-;-;-;-;-;-
1512466396536;-;-;9.4887085;-0.5097656;-1.1629028;-;-;-;-;-;-;-;-;-;-;-;-;-;-;-
1512466396555;-;-;9.911285;-0.5935669;-1.219162;-;-;-;-;-;-;-;-;-;-;-;-;-;-;-
1512466396575;-;-;10.113602;-0.42358398;-1.361618;-;-;-;-;-;-;-;-;-;-;-;-;-;-;-
1512466396596;-;-;8.669891;-0.31704712;-1.8991089;-;-;-;-;-;-;-;-;-;-;-;-;-;-;-
1512466396617;-;-;9.002686;-0.7264557;-0.654129;-;-;-;-;-;-;-;-;-;-;-;-;-;-;-
1512466396637;-;-;10.168671;-0.11114502;-0.6732788;-;-;-;-;-;-;-;-;-;-;-;-;-;-;-
1512466396657;-;-;10.347031;-0.1769867;-0.52005005;-;-;-;-;-;-;-;-;-;-;-;-;-;-;-
1512466396678;-;-;9.566528;-0.090789795;-0.97735596;-;-;-;-;-;-;-;-;-;-;-;-;-;-;-
1512466396699;-;-;8.829102;0.03012085;-0.64456177;-;-;-;-;-;-;-;-;-;-;-;-;-;-;-
1512466396719;-;-;8.924881;0.043289185;-0.6625061;-;-;-;-;-;-;-;-;-;-;-;-;-;-;-
1512466396739;-;-;8.437653;0.2300415;-0.56674194;-;-;-;-;-;-;-;-;-;-;-;-;-;-;-
1512466396760;-;-;7.9660034;-0.01776123;-0.2973938;-;-;-;-;-;-;-;-;-;-;-;-;-;-;-
1512466396779;-;-;8.5238495;-0.41400146;0.45318604;-;-;-;-;-;-;-;-;-;-;-;-;-;-;-
1512466396800;-;-;10.311127;-0.8174286;-0.12980652;-;-;-;-;-;-;-;-;-;-;-;-;-;-;-
1512466396820;-;-;9.346252;-0.1015625;-0.24951172;-;-;-;-;-;-;-;-;-;-;-;-;-;-;-
1512466396841;-;-;8.6028595;0.7136688;-1.0958557;-;-;-;-;-;-;-;-;-;-;-;-;-;-;-
1512466396860;-;-;8.704605;1.2451782;-1.4226685;-;-;-;-;-;-;-;-;-;-;-;-;-;-;-
1512466396881;-;-;9.655106;0.9243469;-1.1353607;-;-;-;-;-;-;-;-;-;-;-;-;-;-;-
1512466396901;-;-;8.867416;0.08039856;-0.59906006;-;-;-;-;-;-;-;-;-;-;-;-;-;-;-
1512466396922;-;-;8.416107;1.2439728;0.15870667;-;-;-;-;-;-;-;-;-;-;-;-;-;-;-
1512466396942;-;-;9.245697;0.15701294;-0.44224548;-;-;-;-;-;-;-;-;-;-;-;-;-;-;-
1512466396962;-;-;9.045776;0.29348755;-1.0886841;-;-;-;-;-;-;-;-;-;-;-;-;-;-;-
1512466396983;-;-;8.173096;0.5747986;-2.689209;-;-;-;-;-;-;-;-;-;-;-;-;-;-;-
1512466397005;-;-;10.698975;0.2695465;-3.8228607;-;-;-;-;-;-;-;-;-;-;-;-;-;-;-
1512466397024;-;-;10.636734;-0.012969971;-3.9928436;-;-;-;-;-;-;-;-;-;-;-;-;-;-;-
1512466397043;-;-;11.521393;-0.63905334;-2.9369965;-;-;-;-;-;-;-;-;-;-;-;-;-;-;-
1512466397063;-;-;10.4882965;0.107925415;-4.5219574;-;-;-;-;-;-;-;-;-;-;-;-;-;-;-
1512466397084;-;-;8.589691;-1.6757507;-3.990448;-;-;-;-;-;-;-;-;-;-;-;-;-;-;-
1512466397104;-;-;8.114441;-1.5452728;-2.8771515;-;-;-;-;-;-;-;-;-;-;-;-;-;-;-
1512466397125;-;-;8.064163;-2.261139;-1.9170685;-;-;-;-;-;-;-;-;-;-;-;-;-;-;-
1512466397145;-;-;6.6060944;-1.5117493;-1.2227478;-;-;-;-;-;-;-;-;-;-;-;-;-;-;-
1512466397166;-;-;6.5641937;-0.9371338;-0.67448425;-;-;-;-;-;-;-;-;-;-;-;-;-;-;-
1512466397187;-;-;7.145981;-0.30506897;-0.6182251;-;-;-;-;-;-;-;-;-;-;-;-;-;-;-
1512466397207;-;-;10.664261;-0.783905;-4.8224335;-;-;-;-;-;-;-;-;-;-;-;-;-;-;-
1512466397227;-;-;12.482666;-1.8158112;-2.3348541;-;-;-;-;-;-;-;-;-;-;-;-;-;-;-
1512466397248;-;-;8.442444;-0.72883606;-3.0758667;-;-;-;-;-;-;-;-;-;-;-;-;-;-;-
1512466397268;-;-;9.404907;-2.3473206;-1.4142914;-;-;-;-;-;-;-;-;-;-;-;-;-;-;-
1512466397288;-;-;9.39534;-3.5001373;-2.0475616;-;-;-;-;-;-;-;-;-;-;-;-;-;-;-
1512466397309;-;-;9.021835;-3.0979004;-2.562317;-;-;-;-;-;-;-;-;-;-;-;-;-;-;-
1512466397329;-;-;8.422089;-2.2395782;-1.1329651;-;-;-;-;-;-;-;-;-;-;-;-;-;-;-
1512466397350;-;-;8.076126;-1.4949799;-2.3791504;-;-;-;-;-;-;-;-;-;-;-;-;-;-;-
1512466397370;-;-;7.9983215;-1.8170013;-1.7470856;-;-;-;-;-;-;-;-;-;-;-;-;-;-;-
1512466397391;-;-;7.7756653;-1.585968;-1.9374237;-;-;-;-;-;-;-;-;-;-;-;-;-;-;-
1512466397411;-;-;6.7449493;-0.95150757;-1.4250641;-;-;-;-;-;-;-;-;-;-;-;-;-;-;-
1512466397432;-;-;8.930862;-1.617096;-2.2893677;-;-;-;-;-;-;-;-;-;-;-;-;-;-;-
1512466397451;-;-;7.877411;-0.49301147;-2.1672668;-;-;-;-;-;-;-;-;-;-;-;-;-;-;-
1512466397472;-;-;6.522293;-0.3936615;-2.2259216;-;-;-;-;-;-;-;-;-;-;-;-;-;-;-
1512466397492;-;-;8.085709;-1.0257263;-4.548294;-;-;-;-;-;-;-;-;-;-;-;-;-;-;-
1512466397512;-;-;8.326324;-1.8864441;-2.922638;-;-;-;-;-;-;-;-;-;-;-;-;-;-;-
1512466397533;-;-;10.026215;-1.661377;-1.7015991;-;-;-;-;-;-;-;-;-;-;-;-;-;-;-
1512466397552;-;-;11.252045;-1.2962646;-1.3915405;-;-;-;-;-;-;-;-;-;-;-;-;-;-;-
1512466397572;-;-;9.799957;-1.131073;-1.3568268;-;-;-;-;-;-;-;-;-;-;-;-;-;-;-
1512466397593;-;-;8.777634;-0.38407898;-1.8787689;-;-;-;-;-;-;-;-;-;-;-;-;-;-;-
1512466397613;-;-;8.118027;0.040893555;-1.2766266;-;-;-;-;-;-;-;-;-;-;-;-;-;-;-
1512466397634;-;-;7.8642426;-0.7695465;-1.3113403;-;-;-;-;-;-;-;-;-;-;-;-;-;-;-
1512466397654;-;-;7.236969;-1.3441467;-4.165222;-;-;-;-;-;-;-;-;-;-;-;-;-;-;-
1512466397675;-;-;8.159927;-2.1162872;-5.204315;-;-;-;-;-;-;-;-;-;-;-;-;-;-;-
1512466397695;-;-;10.186615;-3.285843;-6.291275;-;-;-;-;-;-;-;-;-;-;-;-;-;-;-
1512466397715;-;-;12.905243;-4.032837;-4.8104706;-;-;-;-;-;-;-;-;-;-;-;-;-;-;-
1512466397736;-;-;9.723343;-2.6154785;1.5784607;-;-;-;-;-;-;-;-;-;-;-;-;-;-;-
1512466397756;-;-;8.311966;-1.2220459;-5.053482;-;-;-;-;-;-;-;-;-;-;-;-;-;-;-
1512466397776;-;-;8.1719055;-0.37809753;-1.5771027;-;-;-;-;-;-;-;-;-;-;-;-;-;-;-
1512466397797;-;-;7.2668915;2.5021362;0.7464752;-;-;-;-;-;-;-;-;-;-;-;-;-;-;-
1512466397818;-;-;8.850662;0.4359436;-1.2957764;-;-;-;-;-;-;-;-;-;-;-;-;-;-;-
1512466397837;-;-;14.408798;-1.8612976;-1.0120697;-;-;-;-;-;-;-;-;-;-;-;-;-;-;-
1512466397857;-;-;14.364502;-2.4155579;-2.0307922;-;-;-;-;-;-;-;-;-;-;-;-;-;-;-
1512466397878;-;-;11.103607;-1.704483;-2.151703;-;-;-;-;-;-;-;-;-;-;-;-;-;-;-
1512466397898;-;-;7.9432526;-0.8138428;-1.1102295;-;-;-;-;-;-;-;-;-;-;-;-;-;-;-
1512466397919;-;-;5.024719;-0.42956543;0.2053833;-;-;-;-;-;-;-;-;-;-;-;-;-;-;-
1512466397939;-;-;3.1368866;-0.5037842;0.6746521;-;-;-;-;-;-;-;-;-;-;-;-;-;-;-
1512466397960;-;-;3.4170227;-0.85095215;0.06892395;-;-;-;-;-;-;-;-;-;-;-;-;-;-;-
1512466397981;-;-;5.3299866;-0.90960693;-0.2854309;-;-;-;-;-;-;-;-;-;-;-;-;-;-;-
1512466398000;-;-;8.612427;-1.2579651;-0.8253174;-;-;-;-;-;-;-;-;-;-;-;-;-;-;-
1512466398021;-;-;10.070496;-1.5356903;-1.0575562;-;-;-;-;-;-;-;-;-;-;-;-;-;-;-
1512466398042;-;-;10.689407;-1.5368805;-0.83369446;-;-;-;-;-;-;-;-;-;-;-;-;-;-;-
1512466398062;-;-;9.992691;-1.3118286;-0.37998962;-;-;-;-;-;-;-;-;-;-;-;-;-;-;-
1512466398083;-;-;8.165909;-0.71447754;-0.08430481;-;-;-;-;-;-;-;-;-;-;-;-;-;-;-
1512466398103;-;-;6.8826294;0.08758545;-0.12501526;-;-;-;-;-;-;-;-;-;-;-;-;-;-;-
1512466398124;-;-;6.388214;0.809433;-0.34048462;-;-;-;-;-;-;-;-;-;-;-;-;-;-;-
1512466398144;-;-;6.5270844;1.0895538;-0.6505432;-;-;-;-;-;-;-;-;-;-;-;-;-;-;-
1512466398164;-;-;7.384201;0.7435913;-1.4597778;-;-;-;-;-;-;-;-;-;-;-;-;-;-;-
1512466398186;-;-;8.450821;-0.3194275;-1.7650452;-;-;-;-;-;-;-;-;-;-;-;-;-;-;-
1512466398205;-;-;9.06134;-1.3070374;-0.97016907;-;-;-;-;-;-;-;-;-;-;-;-;-;-;-
1512466398225;-;-;10.025009;-1.0532532;-0.32731628;-;-;-;-;-;-;-;-;-;-;-;-;-;-;-
1512466398246;-;-;10.125565;-0.3577423;-1.006073;-;-;-;-;-;-;-;-;-;-;-;-;-;-;-
1512466398266;-;-;9.305557;-0.33021545;-2.2163544;-;-;-;-;-;-;-;-;-;-;-;-;-;-;-
1512466398286;-;-;7.845093;-0.6438446;-1.7411041;-;-;-;-;-;-;-;-;-;-;-;-;-;-;-
1512466398307;-;-;7.1675262;-0.01776123;-0.7582855;-;-;-;-;-;-;-;-;-;-;-;-;-;-;-
1512466398328;-;-;6.462433;0.9494934;-0.9581909;-;-;-;-;-;-;-;-;-;-;-;-;-;-;-
1512466398347;-;-;4.9181824;0.17018127;-3.6373138;-;-;-;-;-;-;-;-;-;-;-;-;-;-;-
1512466398368;-;-;4.81044;-2.353302;-6.6360474;-;-;-;-;-;-;-;-;-;-;-;-;-;-;-
1512466398388;-;-;8.18985;-4.609848;-5.5454865;-;-;-;-;-;-;-;-;-;-;-;-;-;-;-
1512466398409;-;-;12.661026;-4.18248;-1.863205;-;-;-;-;-;-;-;-;-;-;-;-;-;-;-
1512466398429;-;-;15.28746;-2.581955;-1.8608093;-;-;-;-;-;-;-;-;-;-;-;-;-;-;-
1512466398449;-;-;15.6035;-0.52293396;-0.31056213;-;-;-;-;-;-;-;-;-;-;-;-;-;-;-
1512466398470;-;-;15.372467;-0.21289063;-0.13578796;-;-;-;-;-;-;-;-;-;-;-;-;-;-;-
1512466398491;-;-;15.494568;-5.135376;-2.8639832;-;-;-;-;-;-;-;-;-;-;-;-;-;-;-
1512466398512;-;-;16.31218;-9.629288;-0.92826843;-;-;-;-;-;-;-;-;-;-;-;-;-;-;-
1512466398532;-;-;12.492233;-7.80011;1.6514893;-;-;-;-;-;-;-;-;-;-;-;-;-;-;-
1512466398552;-;-;8.958389;-4.1022797;0.5154419;-;-;-;-;-;-;-;-;-;-;-;-;-;-;-
1512466398573;-;-;5.422165;-0.9981842;-1.2610626;-;-;-;-;-;-;-;-;-;-;-;-;-;-;-
1512466398593;-;-;2.9740906;1.2080688;-1.5184326;-;-;-;-;-;-;-;-;-;-;-;-;-;-;-
1512466398614;-;-;2.8280487;2.4566498;-0.9725647;-;-;-;-;-;-;-;-;-;-;-;-;-;-;-
1512466398634;-;-;4.348358;1.7240143;-1.1904297;-;-;-;-;-;-;-;-;-;-;-;-;-;-;-
1512466398654;-;-;6.8323517;-0.68455505;-2.7670135;-;-;-;-;-;-;-;-;-;-;-;-;-;-;-
1512466398675;-;-;7.7577057;-1.8062286;-3.175232;-;-;-;-;-;-;-;-;-;-;-;-;-;-;-
1512466398695;-;-;7.214218;-2.1689606;-2.8077087;-;-;-;-;-;-;-;-;-;-;-;-;-;-;-
1512466398716;-;-;7.734955;-2.1162872;-1.9637604;-;-;-;-;-;-;-;-;-;-;-;-;-;-;-
1512466398736;-;-;8.1707;-1.7691193;-0.6002655;-;-;-;-;-;-;-;-;-;-;-;-;-;-;-
1512466398757;-;-;7.3937836;-1.4854126;0.56811523;-;-;-;-;-;-;-;-;-;-;-;-;-;-;-
1512466398777;-;-;6.8203735;-1.6374359;0.10243225;-;-;-;-;-;-;-;-;-;-;-;-;-;-;-
1512466398797;-;-;7.217804;-1.9043884;-0.1381836;-;-;-;-;-;-;-;-;-;-;-;-;-;-;-
1512466398818;-;-;8.423294;-2.1282501;0.16348267;-;-;-;-;-;-;-;-;-;-;-;-;-;-;-
1512466398838;-;-;9.613205;-2.3952026;0.022232056;-;-;-;-;-;-;-;-;-;-;-;-;-;-;-
1512466398860;-;-;9.735321;-2.7806702;-1.0671387;-;-;-;-;-;-;-;-;-;-;-;-;-;-;-
1512466398880;-;-;9.516251;-2.9781952;-1.1712799;-;-;-;-;-;-;-;-;-;-;-;-;-;-;-
1512466398900;-;-;9.287598;-2.7603302;-0.70440674;-;-;-;-;-;-;-;-;-;-;-;-;-;-;-
1512466398921;-;-;8.594482;-1.4746399;-2.3049316;-;-;-;-;-;-;-;-;-;-;-;-;-;-;-
1512466398941;-;-;6.746155;0.6825409;-3.6828003;-;-;-;-;-;-;-;-;-;-;-;-;-;-;-
1512466398962;-;-;5.313217;3.2694702;-4.4357758;-;-;-;-;-;-;-;-;-;-;-;-;-;-;-
1512466398982;-;-;6.0063477;5.189621;-3.6337128;-;-;-;-;-;-;-;-;-;-;-;-;-;-;-
1512466399003;-;-;9.967545;4.9585876;-3.0662842;-;-;-;-;-;-;-;-;-;-;-;-;-;-;-
1512466399024;-;-;15.899185;0.9494934;-2.6401215;-;-;-;-;-;-;-;-;-;-;-;-;-;-;-
1512466399043;-;-;19.954956;-0.660614;-1.571106;-;-;-;-;-;-;-;-;-;-;-;-;-;-;-
1512466399063;-;-;23.331985;-1.3573151;-4.572235;-;-;-;-;-;-;-;-;-;-;-;-;-;-;-
1512466399083;-;-;18.336487;-1.2244415;-2.757431;-;-;-;-;-;-;-;-;-;-;-;-;-;-;-
1512466399103;-;-;11.351395;0.6837311;-0.7678528;-;-;-;-;-;-;-;-;-;-;-;-;-;-;-
1512466399124;-;-;6.9400787;2.2160187;-0.7020111;-;-;-;-;-;-;-;-;-;-;-;-;-;-;-
1512466399144;-;-;3.952118;2.5811462;-0.80496216;-;-;-;-;-;-;-;-;-;-;-;-;-;-;-
1512466399165;-;-;2.7717743;1.7790833;0.40171814;-;-;-;-;-;-;-;-;-;-;-;-;-;-;-
1512466399185;-;-;2.7681885;0.24440002;1.0792694;-;-;-;-;-;-;-;-;-;-;-;-;-;-;-
1512466399205;-;-;4.596161;-1.5668182;0.47833252;-;-;-;-;-;-;-;-;-;-;-;-;-;-;-
1512466399226;-;-;7.9995117;-2.372467;-0.7379303;-;-;-;-;-;-;-;-;-;-;-;-;-;-;-
1512466399246;-;-;9.185837;-1.2902832;-1.8033447;-;-;-;-;-;-;-;-;-;-;-;-;-;-;-
1512466399267;-;-;9.564133;0.4766388;-2.1588898;-;-;-;-;-;-;-;-;-;-;-;-;-;-;-
1512466399288;-;-;9.817917;1.492981;-2.563507;-;-;-;-;-;-;-;-;-;-;-;-;-;-;-
1512466399308;-;-;9.550964;1.6067047;-2.2498627;-;-;-;-;-;-;-;-;-;-;-;-;-;-;-
1512466399328;-;-;7.997116;0.8621063;-1.0683289;-;-;-;-;-;-;-;-;-;-;-;-;-;-;-
1512466399348;-;-;6.221817;0.6178894;-0.9258728;-;-;-;-;-;-;-;-;-;-;-;-;-;-;-
1512466399369;-;-;4.683548;0.9004059;-0.9761505;-;-;-;-;-;-;-;-;-;-;-;-;-;-;-
1512466399389;-;-;4.0179596;1.2320099;-0.47816467;-;-;-;-;-;-;-;-;-;-;-;-;-;-;-
1512466399410;-;-;4.5602417;1.6916962;0.38136292;-;-;-;-;-;-;-;-;-;-;-;-;-;-;-
1512466399431;-;-;6.5582123;2.2651062;0.060531616;-;-;-;-;-;-;-;-;-;-;-;-;-;-;-
1512466399451;-;-;8.214996;2.6385956;-1.5148468;-;-;-;-;-;-;-;-;-;-;-;-;-;-;-
1512466399471;-;-;9.026627;1.7084503;-3.9162292;-;-;-;-;-;-;-;-;-;-;-;-;-;-;-
1512466399492;-;-;10.026215;-0.052474976;-3.7306824;-;-;-;-;-;-;-;-;-;-;-;-;-;-;-
1512466399512;-;-;10.277603;-1.1933136;-1.401123;-;-;-;-;-;-;-;-;-;-;-;-;-;-;-
1512466399532;-;-;8.538208;-0.7958832;-1.3795776;-;-;-;-;-;-;-;-;-;-;-;-;-;-;-
1512466399553;-;-;5.886627;-0.8018646;-6.0446777;-;-;-;-;-;-;-;-;-;-;-;-;-;-;-
1512466399573;-;-;4.609329;-2.8082123;-8.637604;-;-;-;-;-;-;-;-;-;-;-;-;-;-;-
1512466399594;-;-;7.3782196;-5.041992;-6.9652405;-;-;-;-;-;-;-;-;-;-;-;-;-;-;-
1512466399615;-;-;14.703278;-4.451828;-1.6608887;-;-;-;-;-;-;-;-;-;-;-;-;-;-;-
1512466399635;-;-;18.018051;-1.6913147;-0.843277;-;-;-;-;-;-;-;-;-;-;-;-;-;-;-
1512466399655;-;-;17.159729;0.42396545;-2.4066925;-;-;-;-;-;-;-;-;-;-;-;-;-;-;-
1512466399676;-;-;16.836517;-0.49421692;0.0138549805;-;-;-;-;-;-;-;-;-;-;-;-;-;-;-
1512466399697;-;-;16.504913;-5.512451;-1.495697;-;-;-;-;-;-;-;-;-;-;-;-;-;-;-
1512466399717;-;-;15.818985;-10.104538;-0.8947449;-;-;-;-;-;-;-;-;-;-;-;-;-;-;-
1512466399738;-;-;11.723694;-7.669632;-0.14656067;-;-;-;-;-;-;-;-;-;-;-;-;-;-;-
1512466399758;-;-;8.540604;-4.4961243;-0.23873901;-;-;-;-;-;-;-;-;-;-;-;-;-;-;-
1512466399779;-;-;4.253784;-0.37210083;-2.23909;-;-;-;-;-;-;-;-;-;-;-;-;-;-;-
1512466399799;-;-;1.3903198;1.9945679;-2.625763;-;-;-;-;-;-;-;-;-;-;-;-;-;-;-
1512466399820;-;-;0.36680603;2.9725952;-1.4214783;-;-;-;-;-;-;-;-;-;-;-;-;-;-;-
1512466399840;-;-;1.7997284;0.42515564;0.082092285;-;-;-;-;-;-;-;-;-;-;-;-;-;-;-
1512466399861;-;-;3.7857208;-2.3628845;-0.31414795;-;-;-;-;-;-;-;-;-;-;-;-;-;-;-
1512466399880;-;-;5.5071564;-3.2690887;-1.274231;-;-;-;-;-;-;-;-;-;-;-;-;-;-;-
1512466399901;-;-;7.1567535;-3.1960602;-1.7411041;-;-;-;-;-;-;-;-;-;-;-;-;-;-;-
1512466399921;-;-;8.729752;-3.297821;-1.2861938;-;-;-;-;-;-;-;-;-;-;-;-;-;-;-
1512466399941;-;-;10.812698;-2.8046112;-0.31414795;-;-;-;-;-;-;-;-;-;-;-;-;-;-;-
1512466399961;-;-;11.241272;-1.609909;0.32748413;-;-;-;-;-;-;-;-;-;-;-;-;-;-;-
1512466399982;-;-;9.781998;-0.8701019;-0.104660034;-;-;-;-;-;-;-;-;-;-;-;-;-;-;-
1512466400002;-;-;8.473572;-1.5392761;-1.456192;-;-;-;-;-;-;-;-;-;-;-;-;-;-;-
1512466400022;-;-;8.356247;-2.1545868;-2.0583344;-;-;-;-;-;-;-;-;-;-;-;-;-;-;-
1512466400043;-;-;8.261688;-2.0312958;-1.4095001;-;-;-;-;-;-;-;-;-;-;-;-;-;-;-
1512466400063;-;-;7.078949;-1.0939636;-1.5699158;-;-;-;-;-;-;-;-;-;-;-;-;-;-;-
1512466400083;-;-;6.2505493;-0.63786316;-3.5092163;-;-;-;-;-;-;-;-;-;-;-;-;-;-;-
1512466400103;-;-;7.2154236;0.115112305;-5.6364594;-;-;-;-;-;-;-;-;-;-;-;-;-;-;-
1512466400123;-;-;9.527023;2.5164948;-3.638504;-;-;-;-;-;-;-;-;-;-;-;-;-;-;-
1512466400144;-;-;12.571243;5.2039948;-2.076294;-;-;-;-;-;-;-;-;-;-;-;-;-;-;-
1512466400163;-;-;17.745117;5.684021;-3.0950165;-;-;-;-;-;-;-;-;-;-;-;-;-;-;-
1512466400183;-;-;20.868347;1.5300903;-3.7582092;-;-;-;-;-;-;-;-;-;-;-;-;-;-;-
1512466400203;-;-;16.79103;-2.2036743;-4.244232;-;-;-;-;-;-;-;-;-;-;-;-;-;-;-
1512466400224;-;-;14.433929;-1.7296143;-2.9190521;-;-;-;-;-;-;-;-;-;-;-;-;-;-;-
1512466400244;-;-;11.049728;-1.0065765;-1.5328064;-;-;-;-;-;-;-;-;-;-;-;-;-;-;-
1512466400264;-;-;7.7373505;-0.045303345;-1.3364716;-;-;-;-;-;-;-;-;-;-;-;-;-;-;-
1512466400285;-;-;5.2270355;1.1865234;-1.7015991;-;-;-;-;-;-;-;-;-;-;-;-;-;-;-
1512466400305;-;-;3.7318573;2.2184143;-1.8129272;-;-;-;-;-;-;-;-;-;-;-;-;-;-;-
1512466400325;-;-;2.9752808;2.600296;-1.6513214;-;-;-;-;-;-;-;-;-;-;-;-;-;-;-
1512466400346;-;-;2.9704895;2.153778;-1.2215576;-;-;-;-;-;-;-;-;-;-;-;-;-;-;-
1512466400366;-;-;4.193939;1.4199524;-1.0419922;-;-;-;-;-;-;-;-;-;-;-;-;-;-;-
1512466400387;-;-;6.0063477;0.7986603;-1.3747864;-;-;-;-;-;-;-;-;-;-;-;-;-;-;-
1512466400406;-;-;7.85347;0.8441467;-1.6549072;-;-;-;-;-;-;-;-;-;-;-;-;-;-;-
1512466400427;-;-;8.552582;0.8010559;-1.98172;-;-;-;-;-;-;-;-;-;-;-;-;-;-;-
1512466400448;-;-;8.791992;0.42037964;-2.4785156;-;-;-;-;-;-;-;-;-;-;-;-;-;-;-
1512466400469;-;-;8.616028;-0.097976685;-1.8224945;-;-;-;-;-;-;-;-;-;-;-;-;-;-;-
1512466400489;-;-;7.997116;-0.31105042;-1.0838928;-;-;-;-;-;-;-;-;-;-;-;-;-;-;-
1512466400510;-;-;7.2477417;0.6095123;-2.0439606;-;-;-;-;-;-;-;-;-;-;-;-;-;-;-
1512466400530;-;-;6.752136;1.240387;-2.4222565;-;-;-;-;-;-;-;-;-;-;-;-;-;-;-
1512466400550;-;-;6.414551;1.2308044;-2.0523376;-;-;-;-;-;-;-;-;-;-;-;-;-;-;-
1512466400571;-;-;6.68869;0.9590759;-1.4514008;-;-;-;-;-;-;-;-;-;-;-;-;-;-;-
1512466400591;-;-;8.243729;0.3796692;-1.0719147;-;-;-;-;-;-;-;-;-;-;-;-;-;-;-
1512466400611;-;-;9.8993225;-0.07522583;-2.0116425;-;-;-;-;-;-;-;-;-;-;-;-;-;-;-
1512466400631;-;-;9.973541;-0.704895;-3.44458;-;-;-;-;-;-;-;-;-;-;-;-;-;-;-
1512466400652;-;-;8.522644;-1.2531738;-4.2322693;-;-;-;-;-;-;-;-;-;-;-;-;-;-;-
1512466400672;-;-;6.3020325;-1.6601868;-4.428589;-;-;-;-;-;-;-;-;-;-;-;-;-;-;-
1512466400692;-;-;5.2354126;-2.143814;-5.065445;-;-;-;-;-;-;-;-;-;-;-;-;-;-;-
1512466400713;-;-;6.13443;-2.2802887;-5.6053467;-;-;-;-;-;-;-;-;-;-;-;-;-;-;-
1512466400732;-;-;8.903336;-2.8896027;-6.950882;-;-;-;-;-;-;-;-;-;-;-;-;-;-;-
1512466400752;-;-;16.082336;-3.9861603;-6.1584015;-;-;-;-;-;-;-;-;-;-;-;-;-;-;-
1512466400773;-;-;20.303314;-4.3512726;-1.2048035;-;-;-;-;-;-;-;-;-;-;-;-;-;-;-
1512466400794;-;-;21.185577;-1.4351349;-3.0698853;-;-;-;-;-;-;-;-;-;-;-;-;-;-;-
1512466400814;-;-;17.035233;-2.04924;-2.860382;-;-;-;-;-;-;-;-;-;-;-;-;-;-;-
1512466400835;-;-;13.84137;-5.8572235;-1.9948883;-;-;-;-;-;-;-;-;-;-;-;-;-;-;-
1512466400855;-;-;11.718903;-6.704773;-0.9737549;-;-;-;-;-;-;-;-;-;-;-;-;-;-;-
1512466400878;-;-;8.712982;-5.1485443;-0.7965851;-;-;-;-;-;-;-;-;-;-;-;-;-;-;-
1512466400898;-;-;5.763336;-2.0660095;-1.3280945;-;-;-;-;-;-;-;-;-;-;-;-;-;-;-
1512466400918;-;-;3.984436;0.083984375;-1.5136566;-;-;-;-;-;-;-;-;-;-;-;-;-;-;-
1512466400939;-;-;2.806488;1.5049438;-1.4035187;-;-;-;-;-;-;-;-;-;-;-;-;-;-;-
1512466400960;-;-;2.746643;1.4151611;-1.4238739;-;-;-;-;-;-;-;-;-;-;-;-;-;-;-
1512466400979;-;-;4.355545;-0.38407898;-1.7794037;-;-;-;-;-;-;-;-;-;-;-;-;-;-;-
1512466400999;-;-;6.020706;-1.9510803;-2.594635;-;-;-;-;-;-;-;-;-;-;-;-;-;-;-
1512466401020;-;-;7.3028107;-2.933899;-2.5814667;-;-;-;-;-;-;-;-;-;-;-;-;-;-;-
1512466401041;-;-;8.651932;-2.9686127;-1.7614441;-;-;-;-;-;-;-;-;-;-;-;-;-;-;-
1512466401061;-;-;10.248871;-1.7691193;-1.7398987;-;-;-;-;-;-;-;-;-;-;-;-;-;-;-
1512466401081;-;-;9.3103485;-0.43914795;-2.227127;-;-;-;-;-;-;-;-;-;-;-;-;-;-;-
1512466401101;-;-;7.6906586;0.1043396;-1.2407074;-;-;-;-;-;-;-;-;-;-;-;-;-;-;-
1512466401122;-;-;6.984375;-0.6031494;-0.5404053;-;-;-;-;-;-;-;-;-;-;-;-;-;-;-
1512466401142;-;-;6.457657;-1.546463;-0.47935486;-;-;-;-;-;-;-;-;-;-;-;-;-;-;-
1512466401162;-;-;7.3614655;-2.0576172;-1.0791016;-;-;-;-;-;-;-;-;-;-;-;-;-;-;-
1512466401183;-;-;8.216187;-1.6470184;-1.1210022;-;-;-;-;-;-;-;-;-;-;-;-;-;-;-
1512466401202;-;-;8.794388;-0.9287567;-2.0164337;-;-;-;-;-;-;-;-;-;-;-;-;-;-;-
1512466401223;-;-;9.367798;-1.1490326;-2.3623962;-;-;-;-;-;-;-;-;-;-;-;-;-;-;-
1512466401243;-;-;9.9831085;-1.9558716;-2.1229706;-;-;-;-;-;-;-;-;-;-;-;-;-;-;-
1512466401263;-;-;9.042191;-1.9690399;-2.8843231;-;-;-;-;-;-;-;-;-;-;-;-;-;-;-
1512466401284;-;-;7.33992;-0.2320404;-4.244232;-;-;-;-;-;-;-;-;-;-;-;-;-;-;-
1512466401305;-;-;6.398987;2.1094818;-3.8731384;-;-;-;-;-;-;-;-;-;-;-;-;-;-;-
1512466401326;-;-;7.3459015;4.4438324;-1.0228424;-;-;-;-;-;-;-;-;-;-;-;-;-;-;-
1512466401346;-;-;9.75087;5.3213043;-0.8241272;-;-;-;-;-;-;-;-;-;-;-;-;-;-;-
1512466401366;-;-;13.968262;1.0392761;-0.9522095;-;-;-;-;-;-;-;-;-;-;-;-;-;-;-
1512466401387;-;-;17.983337;-2.7148285;-2.9453888;-;-;-;-;-;-;-;-;-;-;-;-;-;-;-
1512466401407;-;-;20.889893;0.2850952;-3.9641113;-;-;-;-;-;-;-;-;-;-;-;-;-;-;-
1512466401428;-;-;17.669693;3.407135;-5.073822;-;-;-;-;-;-;-;-;-;-;-;-;-;-;-
1512466401449;-;-;12.637085;2.6996613;-4.615341;-;-;-;-;-;-;-;-;-;-;-;-;-;-;-
1512466401469;-;-;8.273651;1.6677551;-3.5235748;-;-;-;-;-;-;-;-;-;-;-;-;-;-;-
1512466401490;-;-;4.141266;1.4019928;-2.6089935;-;-;-;-;-;-;-;-;-;-;-;-;-;-;-
1512466401509;-;-;2.4569397;1.4666443;-2.3085175;-;-;-;-;-;-;-;-;-;-;-;-;-;-;-
1512466401530;-;-;0.95578;1.1350403;-1.6908264;-;-;-;-;-;-;-;-;-;-;-;-;-;-;-
1512466401550;-;-;0.99768066;0.4766388;-0.90312195;-;-;-;-;-;-;-;-;-;-;-;-;-;-;-
1512466401571;-;-;3.7881165;0.0049743652;-0.5021057;-;-;-;-;-;-;-;-;-;-;-;-;-;-;-
1512466401591;-;-;5.7010803;-0.045303345;-0.7127838;-;-;-;-;-;-;-;-;-;-;-;-;-;-;-
1512466401612;-;-;7.0933075;0.48382568;-1.8955231;-;-;-;-;-;-;-;-;-;-;-;-;-;-;-
1512466401633;-;-;7.6870728;0.7591553;-2.562317;-;-;-;-;-;-;-;-;-;-;-;-;-;-;-
1512466401653;-;-;8.669891;0.6825409;-2.310913;-;-;-;-;-;-;-;-;-;-;-;-;-;-;-
1512466401673;-;-;9.811935;0.9578705;-0.9522095;-;-;-;-;-;-;-;-;-;-;-;-;-;-;-
1512466401694;-;-;9.813126;1.7790833;-0.7570801;-;-;-;-;-;-;-;-;-;-;-;-;-;-;-
1512466401715;-;-;8.553772;2.2974243;-0.84806824;-;-;-;-;-;-;-;-;-;-;-;-;-;-;-
1512466401735;-;-;7.4811707;1.9394989;-1.3951416;-;-;-;-;-;-;-;-;-;-;-;-;-;-;-
1512466401755;-;-;6.280487;0.86569214;-1.526825;-;-;-;-;-;-;-;-;-;-;-;-;-;-;-
1512466401776;-;-;5.897415;-0.13986206;-1.5447693;-;-;-;-;-;-;-;-;-;-;-;-;-;-;-
1512466401795;-;-;7.0178986;-1.348938;-1.7207489;-;-;-;-;-;-;-;-;-;-;-;-;-;-;-
1512466401816;-;-;8.971558;-1.9259491;-1.8033447;-;-;-;-;-;-;-;-;-;-;-;-;-;-;-
1512466401836;-;-;9.419281;-1.3800659;-4.0167847;-;-;-;-;-;-;-;-;-;-;-;-;-;-;-
1512466401857;-;-;8.253296;-0.7013092;-6.555832;-;-;-;-;-;-;-;-;-;-;-;-;-;-;-
1512466401877;-;-;7.111267;-1.4243622;-8.108475;-;-;-;-;-;-;-;-;-;-;-;-;-;-;-
1512466401898;-;-;7.937271;-2.9159393;-7.134033;-;-;-;-;-;-;-;-;-;-;-;-;-;-;-
1512466401918;-;-;11.754822;-3.313385;-3.1069946;-;-;-;-;-;-;-;-;-;-;-;-;-;-;-
1512466401939;-;-;14.467453;-3.0931244;-4.563858;-;-;-;-;-;-;-;-;-;-;-;-;-;-;-
1512466401959;-;-;19.880737;-4.285431;-5.219879;-;-;-;-;-;-;-;-;-;-;-;-;-;-;-
1512466401980;-;-;26.420502;-6.5204163;-2.0475616;-;-;-;-;-;-;-;-;-;-;-;-;-;-;-
1512466402000;-;-;20.14769;-5.947006;-1.432251;-;-;-;-;-;-;-;-;-;-;-;-;-;-;-
1512466402021;-;-;11.862564;-3.4103546;-0.8564453;-;-;-;-;-;-;-;-;-;-;-;-;-;-;-
1512466402041;-;-;6.8670654;-1.7152557;-0.93785095;-;-;-;-;-;-;-;-;-;-;-;-;-;-;-
1512466402061;-;-;4.359131;-0.13986206;-1.1293793;-;-;-;-;-;-;-;-;-;-;-;-;-;-;-
1512466402082;-;-;3.3858948;0.730423;-1.6321564;-;-;-;-;-;-;-;-;-;-;-;-;-;-;-
1512466402101;-;-;3.4457397;0.8525238;-2.041565;-;-;-;-;-;-;-;-;-;-;-;-;-;-;-
1512466402121;-;-;4.6392517;0.6609955;-2.725113;-;-;-;-;-;-;-;-;-;-;-;-;-;-;-
1512466402142;-;-;5.0175323;-0.1697998;-3.8372192;-;-;-;-;-;-;-;-;-;-;-;-;-;-;-
1512466402162;-;-;5.6268616;-1.7787018;-3.7677917;-;-;-;-;-;-;-;-;-;-;-;-;-;-;-
1512466402183;-;-;6.521103;-3.4893646;-2.2905731;-;-;-;-;-;-;-;-;-;-;-;-;-;-;-
1512466402203;-;-;7.3770294;-4.0256653;-1.1497345;-;-;-;-;-;-;-;-;-;-;-;-;-;-;-
1512466402224;-;-;8.009094;-3.7335663;-1.0372009;-;-;-;-;-;-;-;-;-;-;-;-;-;-;-
1512466402244;-;-;8.582504;-2.5472412;-1.3723907;-;-;-;-;-;-;-;-;-;-;-;-;-;-;-
1512466402265;-;-;8.729752;-1.2028961;-1.4789276;-;-;-;-;-;-;-;-;-;-;-;-;-;-;-
1512466402286;-;-;8.66391;-0.5899811;-1.313736;-;-;-;-;-;-;-;-;-;-;-;-;-;-;-
1512466402306;-;-;7.633209;-0.7228546;-1.610611;-;-;-;-;-;-;-;-;-;-;-;-;-;-;-
1512466402327;-;-;6.1440125;-0.1530304;-1.9625702;-;-;-;-;-;-;-;-;-;-;-;-;-;-;-
1512466402347;-;-;5.2030945;0.517334;-2.5252075;-;-;-;-;-;-;-;-;-;-;-;-;-;-;-
1512466402367;-;-;5.502365;0.10913086;-1.9086914;-;-;-;-;-;-;-;-;-;-;-;-;-;-;-
1512466402388;-;-;7.0729675;-1.2328186;-1.3759766;-;-;-;-;-;-;-;-;-;-;-;-;-;-;-
1512466402407;-;-;9.130783;-2.6322327;-0.4853363;-;-;-;-;-;-;-;-;-;-;-;-;-;-;-
1512466402428;-;-;10.478714;-3.3145752;-1.0659332;-;-;-;-;-;-;-;-;-;-;-;-;-;-;-
1512466402448;-;-;10.487091;-3.1062775;-2.3923187;-;-;-;-;-;-;-;-;-;-;-;-;-;-;-
1512466402468;-;-;9.555756;-2.1533966;-3.247055;-;-;-;-;-;-;-;-;-;-;-;-;-;-;-
1512466402488;-;-;7.8798065;-1.052063;-5.1456604;-;-;-;-;-;-;-;-;-;-;-;-;-;-;-
1512466402509;-;-;6.9233246;0.6968994;-5.990814;-;-;-;-;-;-;-;-;-;-;-;-;-;-;-
1512466402529;-;-;7.2621;3.932663;-3.6325226;-;-;-;-;-;-;-;-;-;-;-;-;-;-;-
1512466402550;-;-;9.724533;6.6812134;-1.0802917;-;-;-;-;-;-;-;-;-;-;-;-;-;-;-
1512466402570;-;-;14.380066;5.955765;-2.3791504;-;-;-;-;-;-;-;-;-;-;-;-;-;-;-
1512466402591;-;-;18.19522;1.9574585;-3.429016;-;-;-;-;-;-;-;-;-;-;-;-;-;-;-
1512466402611;-;-;19.290573;-0.009384155;-5.211487;-;-;-;-;-;-;-;-;-;-;-;-;-;-;-
1512466402632;-;-;17.668503;0.42396545;-5.558655;-;-;-;-;-;-;-;-;-;-;-;-;-;-;-
1512466402651;-;-;13.2799225;0.54367065;-3.314087;-;-;-;-;-;-;-;-;-;-;-;-;-;-;-
1512466402673;-;-;9.839462;0.14743042;-1.9386139;-;-;-;-;-;-;-;-;-;-;-;-;-;-;-
1512466402693;-;-;6.118866;-0.2607727;-0.98931885;-;-;-;-;-;-;-;-;-;-;-;-;-;-;-
1512466402713;-;-;3.9185944;-0.35534668;-0.93904114;-;-;-;-;-;-;-;-;-;-;-;-;-;-;-
1512466402734;-;-;2.7406464;-0.0045928955;-1.0527649;-;-;-;-;-;-;-;-;-;-;-;-;-;-;-
1512466402754;-;-;2.6963654;0.34136963;-1.0527649;-;-;-;-;-;-;-;-;-;-;-;-;-;-;-
1512466402775;-;-;4.2106934;0.6681671;-1.3005676;-;-;-;-;-;-;-;-;-;-;-;-;-;-;-
1512466402795;-;-;5.272522;0.55804443;-1.9625702;-;-;-;-;-;-;-;-;-;-;-;-;-;-;-
1512466402815;-;-;5.7789;0.57121277;-2.1385345;-;-;-;-;-;-;-;-;-;-;-;-;-;-;-
1512466402836;-;-;6.53067;0.71965027;-1.8907318;-;-;-;-;-;-;-;-;-;-;-;-;-;-;-
1512466402856;-;-;7.779251;0.6274719;-1.1964111;-;-;-;-;-;-;-;-;-;-;-;-;-;-;-
1512466402877;-;-;8.983536;0.24320984;-0.56674194;-;-;-;-;-;-;-;-;-;-;-;-;-;-;-
1512466402896;-;-;9.940018;-0.5037842;-0.044799805;-;-;-;-;-;-;-;-;-;-;-;-;-;-;-
1512466402916;-;-;10.046555;-0.95988464;-0.42668152;-;-;-;-;-;-;-;-;-;-;-;-;-;-;-
1512466402937;-;-;9.023041;-1.2364197;-1.571106;-;-;-;-;-;-;-;-;-;-;-;-;-;-;-
1512466402957;-;-;7.743332;-1.5021667;-1.9529877;-;-;-;-;-;-;-;-;-;-;-;-;-;-;-
1512466402978;-;-;6.6982727;-1.775116;-2.8532104;-;-;-;-;-;-;-;-;-;-;-;-;-;-;-
1512466402998;-;-;6.288864;-1.052063;-2.6927948;-;-;-;-;-;-;-;-;-;-;-;-;-;-;-
1512466403019;-;-;7.213028;0.76634216;-0.8289032;-;-;-;-;-;-;-;-;-;-;-;-;-;-;-
1512466403040;-;-;8.775238;2.7439423;-0.22198486;-;-;-;-;-;-;-;-;-;-;-;-;-;-;-
1512466403060;-;-;8.716583;3.6740875;-2.1732483;-;-;-;-;-;-;-;-;-;-;-;-;-;-;-
1512466403080;-;-;6.680313;1.3708649;-5.24382;-;-;-;-;-;-;-;-;-;-;-;-;-;-;-
1512466403101;-;-;5.9464874;-3.0344543;-6.4588776;-;-;-;-;-;-;-;-;-;-;-;-;-;-;-
1512466403121;-;-;7.3183746;-7.4828796;-6.266144;-;-;-;-;-;-;-;-;-;-;-;-;-;-;-
1512466403142;-;-;12.792709;-9.304871;-5.2737427;-;-;-;-;-;-;-;-;-;-;-;-;-;-;-
1512466403163;-;-;21.457321;-6.0319977;-5.306061;-;-;-;-;-;-;-;-;-;-;-;-;-;-;-
1512466403182;-;-;21.428589;-2.918335;-7.180725;-;-;-;-;-;-;-;-;-;-;-;-;-;-;-
1512466403202;-;-;19.130157;0.024139404;-7.069397;-;-;-;-;-;-;-;-;-;-;-;-;-;-;-
1512466403223;-;-;16.461823;-2.0540314;-5.0235443;-;-;-;-;-;-;-;-;-;-;-;-;-;-;-
1512466403243;-;-;12.236053;-4.158539;-2.2486725;-;-;-;-;-;-;-;-;-;-;-;-;-;-;-
1512466403263;-;-;9.029022;-4.538025;-1.124588;-;-;-;-;-;-;-;-;-;-;-;-;-;-;-
1512466403283;-;-;6.6192627;-4.2327576;-1.5292053;-;-;-;-;-;-;-;-;-;-;-;-;-;-;-
1512466403304;-;-;3.8276215;-2.676529;-1.7997589;-;-;-;-;-;-;-;-;-;-;-;-;-;-;-
1512466403324;-;-;1.525589;-0.6833496;-1.550766;-;-;-;-;-;-;-;-;-;-;-;-;-;-;-
1512466403345;-;-;1.3963165;0.9578705;-0.84806824;-;-;-;-;-;-;-;-;-;-;-;-;-;-;-
1512466403365;-;-;4.0419006;-0.0045928955;-1.219162;-;-;-;-;-;-;-;-;-;-;-;-;-;-;-
1512466403386;-;-;5.9189606;-1.5332947;-1.5735016;-;-;-;-;-;-;-;-;-;-;-;-;-;-;-
1512466403406;-;-;6.8874054;-2.4179535;-1.1317749;-;-;-;-;-;-;-;-;-;-;-;-;-;-;-
1512466403427;-;-;7.6667175;-3.060791;-0.81214905;-;-;-;-;-;-;-;-;-;-;-;-;-;-;-
1512466403448;-;-;7.7517242;-3.6844788;-1.2634583;-;-;-;-;-;-;-;-;-;-;-;-;-;-;-
1512466403468;-;-;7.372238;-4.8181458;-2.0619202;-;-;-;-;-;-;-;-;-;-;-;-;-;-;-
1512466403488;-;-;8.855438;-5.346054;-1.1233978;-;-;-;-;-;-;-;-;-;-;-;-;-;-;-
1512466403509;-;-;11.414841;-4.0029144;-0.3261261;-;-;-;-;-;-;-;-;-;-;-;-;-;-;-
1512466403530;-;-;13.382874;-2.3365479;-0.5823059;-;-;-;-;-;-;-;-;-;-;-;-;-;-;-
1512466403549;-;-;14.481812;-1.0807953;-1.1736755;-;-;-;-;-;-;-;-;-;-;-;-;-;-;-
1512466403570;-;-;12.838196;-0.6821594;-4.0802307;-;-;-;-;-;-;-;-;-;-;-;-;-;-;-
1512466403590;-;-;12.847778;-1.1394501;-7.884613;-;-;-;-;-;-;-;-;-;-;-;-;-;-;-
1512466403611;-;-;13.289505;0.2348175;-6.021927;-;-;-;-;-;-;-;-;-;-;-;-;-;-;-
1512466403630;-;-;10.428436;-0.31225586;-5.9572906;-;-;-;-;-;-;-;-;-;-;-;-;-;-;-
1512466403650;-;-;7.5122986;-1.0317078;-4.4345703;-;-;-;-;-;-;-;-;-;-;-;-;-;-;-
1512466403671;-;-;6.106903;-0.68455505;-4.3687286;-;-;-;-;-;-;-;-;-;-;-;-;-;-;-
1512466403691;-;-;5.9117737;-0.07043457;-4.835602;-;-;-;-;-;-;-;-;-;-;-;-;-;-;-
1512466403712;-;-;6.339142;0.21687317;-3.9006653;-;-;-;-;-;-;-;-;-;-;-;-;-;-;-
1512466403732;-;-;7.6032715;-0.12550354;-3.6037903;-;-;-;-;-;-;-;-;-;-;-;-;-;-;-
1512466403753;-;-;9.31752;-1.225647;-3.4134521;-;-;-;-;-;-;-;-;-;-;-;-;-;-;-
1512466403773;-;-;11.128738;-2.0025635;-3.3284607;-;-;-;-;-;-;-;-;-;-;-;-;-;-;-
1512466403793;-;-;10.612793;-1.3082428;-3.6373138;-;-;-;-;-;-;-;-;-;-;-;-;-;-;-
1512466403814;-;-;8.941635;-0.8377838;-3.9293976;-;-;-;-;-;-;-;-;-;-;-;-;-;-;-
1512466403833;-;-;7.576935;-0.77911377;-3.6875916;-;-;-;-;-;-;-;-;-;-;-;-;-;-;-
1512466403853;-;-;6.0877533;-1.1095276;-3.535553;-;-;-;-;-;-;-;-;-;-;-;-;-;-;-
1512466403874;-;-;5.2473755;-1.8421478;-3.3978882;-;-;-;-;-;-;-;-;-;-;-;-;-;-;-
1512466403893;-;-;5.9225464;-1.9941711;-3.4972534;-;-;-;-;-;-;-;-;-;-;-;-;-;-;-
1512466403914;-;-;7.6631317;-0.8928528;-4.0479126;-;-;-;-;-;-;-;-;-;-;-;-;-;-;-
1512466403934;-;-;8.474762;0.6107178;-4.741028;-;-;-;-;-;-;-;-;-;-;-;-;-;-;-
1512466403955;-;-;8.649536;1.7395782;-4.6213226;-;-;-;-;-;-;-;-;-;-;-;-;-;-;-
1512466403974;-;-;8.535812;1.674942;-4.002426;-;-;-;-;-;-;-;-;-;-;-;-;-;-;-
1512466403995;-;-;8.021072;0.7292328;-3.3727417;-;-;-;-;-;-;-;-;-;-;-;-;-;-;-
1512466404014;-;-;7.4105377;-0.09677124;-3.1393127;-;-;-;-;-;-;-;-;-;-;-;-;-;-;-
1512466404035;-;-;7.411743;0.16539001;-3.1057892;-;-;-;-;-;-;-;-;-;-;-;-;-;-;-
1512466404056;-;-;8.068954;1.2918701;-3.2841644;-;-;-;-;-;-;-;-;-;-;-;-;-;-;-
1512466404076;-;-;8.430481;2.5500183;-3.2111359;-;-;-;-;-;-;-;-;-;-;-;-;-;-;-
1512466404096;-;-;8.387375;3.0348358;-2.772995;-;-;-;-;-;-;-;-;-;-;-;-;-;-;-
1512466404117;-;-;8.516663;2.1681366;-2.0786743;-;-;-;-;-;-;-;-;-;-;-;-;-;-;-
1512466404136;-;-;9.213379;0.54008484;-1.7877808;-;-;-;-;-;-;-;-;-;-;-;-;-;-;-
1512466404156;-;-;9.635956;-0.67497253;-1.8129272;-;-;-;-;-;-;-;-;-;-;-;-;-;-;-
1512466404177;-;-;9.369003;-0.9838257;-1.1353607;-;-;-;-;-;-;-;-;-;-;-;-;-;-;-
1512466404197;-;-;9.280411;-1.3932343;-0.4278717;-;-;-;-;-;-;-;-;-;-;-;-;-;-;-
1512466404217;-;-;9.51265;-1.9522858;-0.054382324;-;-;-;-;-;-;-;-;-;-;-;-;-;-;-
1512466404238;-;-;9.293579;-1.8936157;-1.4250641;-;-;-;-;-;-;-;-;-;-;-;-;-;-;-
1512466404258;-;-;9.382172;0.67056274;-3.3978882;-;-;-;-;-;-;-;-;-;-;-;-;-;-;-
1512466404278;-;-;10.995865;1.9011841;-6.9999695;-;-;-;-;-;-;-;-;-;-;-;-;-;-;-
1512466404298;-;-;15.973404;-1.0688171;-8.911728;-;-;-;-;-;-;-;-;-;-;-;-;-;-;-
1512466404319;-;-;15.222824;-2.4897766;-8.20903;-;-;-;-;-;-;-;-;-;-;-;-;-;-;-
1512466404339;-;-;10.336258;-2.210846;-5.6161194;-;-;-;-;-;-;-;-;-;-;-;-;-;-;-
1512466404360;-;-;5.0139465;-1.6278687;-2.8101044;-;-;-;-;-;-;-;-;-;-;-;-;-;-;-
1512466404379;-;-;1.4310303;-1.0137482;-1.8248901;-;-;-;-;-;-;-;-;-;-;-;-;-;-;-
1512466404399;-;-;0.16809082;-0.79348755;-1.1126251;-;-;-;-;-;-;-;-;-;-;-;-;-;-;-
1512466404420;-;-;2.4054718;-0.16021729;-2.1540985;-;-;-;-;-;-;-;-;-;-;-;-;-;-;-
1512466404439;-;-;7.241745;0.19293213;-4.651245;-;-;-;-;-;-;-;-;-;-;-;-;-;-;-
1512466404459;-;-;13.397247;-0.19374084;-5.121704;-;-;-;-;-;-;-;-;-;-;-;-;-;-;-
1512466404479;-;-;17.790604;-1.0556488;-5.441345;-;-;-;-;-;-;-;-;-;-;-;-;-;-;-
1512466404500;-;-;16.46901;-1.5907593;-5.774124;-;-;-;-;-;-;-;-;-;-;-;-;-;-;-
1512466404520;-;-;10.77919;-1.577591;-4.2454376;-;-;-;-;-;-;-;-;-;-;-;-;-;-;-
1512466404541;-;-;6.312805;-1.6027222;-2.7777863;-;-;-;-;-;-;-;-;-;-;-;-;-;-;-
1512466404561;-;-;3.0028229;-1.3441467;-2.0104523;-;-;-;-;-;-;-;-;-;-;-;-;-;-;-
1512466404581;-;-;1.4441986;-1.3082428;-1.7411041;-;-;-;-;-;-;-;-;-;-;-;-;-;-;-
1512466404602;-;-;2.6616516;-1.4542847;-1.8979187;-;-;-;-;-;-;-;-;-;-;-;-;-;-;-
1512466404623;-;-;5.279709;-1.6949005;-2.3360596;-;-;-;-;-;-;-;-;-;-;-;-;-;-;-
1512466404642;-;-;7.585327;-1.4411163;-2.349228;-;-;-;-;-;-;-;-;-;-;-;-;-;-;-
1512466404663;-;-;9.261261;-0.80426025;-2.4545746;-;-;-;-;-;-;-;-;-;-;-;-;-;-;-
1512466404683;-;-;10.004654;-0.057266235;-2.7538452;-;-;-;-;-;-;-;-;-;-;-;-;-;-;-
1512466404704;-;-;9.620392;0.2803192;-2.551529;-;-;-;-;-;-;-;-;-;-;-;-;-;-;-
1512466404724;-;-;9.142746;-0.05128479;-2.1277618;-;-;-;-;-;-;-;-;-;-;-;-;-;-;-
1512466404745;-;-;8.881775;-0.7300415;-1.4693604;-;-;-;-;-;-;-;-;-;-;-;-;-;-;-
1512466404765;-;-;8.892548;-1.2986603;-0.93785095;-;-;-;-;-;-;-;-;-;-;-;-;-;-;-
1512466404786;-;-;8.977554;-1.6877136;-0.94981384;-;-;-;-;-;-;-;-;-;-;-;-;-;-;-
1512466404805;-;-;9.351044;-1.5237122;-1.0671387;-;-;-;-;-;-;-;-;-;-;-;-;-;-;-
1512466404826;-;-;10.295563;-0.6546173;-1.1413574;-;-;-;-;-;-;-;-;-;-;-;-;-;-;-
1512466404845;-;-;10.982697;-0.3984375;-1.1233978;-;-;-;-;-;-;-;-;-;-;-;-;-;-;-
1512466404865;-;-;11.668625;-1.2627563;-0.8755951;-;-;-;-;-;-;-;-;-;-;-;-;-;-;-
1512466404886;-;-;12.209717;-2.1893005;-0.3249359;-;-;-;-;-;-;-;-;-;-;-;-;-;-;-
1512466404906;-;-;12.330627;-2.7531433;-0.008895874;-;-;-;-;-;-;-;-;-;-;-;-;-;-;-
1512466404928;-;-;11.240067;-2.8094025;0.04258728;-;-;-;-;-;-;-;-;-;-;-;-;-;-;-
1512466404948;-;-;8.662704;-2.6465912;-0.5404053;-;-;-;-;-;-;-;-;-;-;-;-;-;-;-
1512466404969;-;-;5.3024445;-3.6952515;-7.342331;-;-;-;-;-;-;-;-;-;-;-;-;-;-;-
1512466404989;-;-;6.3331604;-4.123825;-8.8901825;-;-;-;-;-;-;-;-;-;-;-;-;-;-;-
1512466405009;-;-;9.215775;-2.9554443;-5.9836273;-;-;-;-;-;-;-;-;-;-;-;-;-;-;-
1512466405030;-;-;10.743271;0.7028961;-4.864334;-;-;-;-;-;-;-;-;-;-;-;-;-;-;-
1512466405052;-;-;10.533783;3.6848755;-5.3479614;-;-;-;-;-;-;-;-;-;-;-;-;-;-;-
1512466405072;-;-;10.4140625;3.4837494;-5.092987;-;-;-;-;-;-;-;-;-;-;-;-;-;-;-
1512466405093;-;-;10.234512;0.9195709;-3.566681;-;-;-;-;-;-;-;-;-;-;-;-;-;-;-
1512466405113;-;-;10.032196;-1.8134155;-2.345642;-;-;-;-;-;-;-;-;-;-;-;-;-;-;-
1512466405137;-;-;9.831085;-3.067978;-2.5335846;-;-;-;-;-;-;-;-;-;-;-;-;-;-;-
1512466405153;-;-;8.685455;-2.3257751;-2.9872742;-;-;-;-;-;-;-;-;-;-;-;-;-;-;-
1512466405173;-;-;8.291611;-0.5528717;-2.8268738;-;-;-;-;-;-;-;-;-;-;-;-;-;-;-
1512466405194;-;-;7.142395;1.2906647;-2.8172913;-;-;-;-;-;-;-;-;-;-;-;-;-;-;-
1512466405214;-;-;5.9859924;2.1860962;-2.673645;-;-;-;-;-;-;-;-;-;-;-;-;-;-;-
1512466405235;-;-;5.4209595;2.073578;-1.8380585;-;-;-;-;-;-;-;-;-;-;-;-;-;-;-
1512466405255;-;-;5.5717926;1.0955353;-1.1569061;-;-;-;-;-;-;-;-;-;-;-;-;-;-;-
1512466405275;-;-;6.999939;0.02772522;-1.5328064;-;-;-;-;-;-;-;-;-;-;-;-;-;-;-
1512466405296;-;-;8.993118;-0.42118835;-2.1193848;-;-;-;-;-;-;-;-;-;-;-;-;-;-;-
1512466405317;-;-;9.898117;-0.17459106;-2.6353302;-;-;-;-;-;-;-;-;-;-;-;-;-;-;-
1512466405337;-;-;9.471954;0.9470978;-2.8496094;-;-;-;-;-;-;-;-;-;-;-;-;-;-;-
1512466405358;-;-;7.312378;1.671341;-2.2211304;-;-;-;-;-;-;-;-;-;-;-;-;-;-;-
1512466405378;-;-;5.5789795;1.1901093;-1.1018524;-;-;-;-;-;-;-;-;-;-;-;-;-;-;-
1512466405398;-;-;4.9708557;0.6178894;-0.33929443;-;-;-;-;-;-;-;-;-;-;-;-;-;-;-
1512466405418;-;-;5.426941;0.21208191;-0.5344238;-;-;-;-;-;-;-;-;-;-;-;-;-;-;-
1512466405438;-;-;6.5426483;-0.066848755;-1.274231;-;-;-;-;-;-;-;-;-;-;-;-;-;-;-
1512466405459;-;-;7.6906586;0.29109192;-2.282196;-;-;-;-;-;-;-;-;-;-;-;-;-;-;-
1512466405479;-;-;7.8762207;0.95547485;-2.254654;-;-;-;-;-;-;-;-;-;-;-;-;-;-;-
1512466405500;-;-;7.9576263;0.8776703;-1.3592224;-;-;-;-;-;-;-;-;-;-;-;-;-;-;-
1512466405520;-;-;8.094086;0.56044006;-0.867218;-;-;-;-;-;-;-;-;-;-;-;-;-;-;-
1512466405541;-;-;8.100067;0.0025787354;-2.017624;-;-;-;-;-;-;-;-;-;-;-;-;-;-;-
1512466405561;-;-;7.5673676;0.016952515;-2.4186554;-;-;-;-;-;-;-;-;-;-;-;-;-;-;-
1512466405581;-;-;7.564972;0.43234253;-1.6201935;-;-;-;-;-;-;-;-;-;-;-;-;-;-;-
1512466405602;-;-;8.878189;1.0979309;-0.7163849;-;-;-;-;-;-;-;-;-;-;-;-;-;-;-
1512466405622;-;-;10.5481415;2.1789093;-1.5363922;-;-;-;-;-;-;-;-;-;-;-;-;-;-;-
1512466405643;-;-;10.460754;2.449463;-3.405075;-;-;-;-;-;-;-;-;-;-;-;-;-;-;-
1512466405662;-;-;7.7996063;1.082367;-4.0359344;-;-;-;-;-;-;-;-;-;-;-;-;-;-;-
1512466405682;-;-;4.98761;-0.8712921;-4.9888306;-;-;-;-;-;-;-;-;-;-;-;-;-;-;-
1512466405702;-;-;4.486023;-3.0200958;-5.5311127;-;-;-;-;-;-;-;-;-;-;-;-;-;-;-
1512466405723;-;-;7.078949;-4.000519;-3.895874;-;-;-;-;-;-;-;-;-;-;-;-;-;-;-
1512466405743;-;-;11.317886;-3.9514313;-2.9872742;-;-;-;-;-;-;-;-;-;-;-;-;-;-;-
1512466405764;-;-;16.877213;-3.2535248;-2.8544006;-;-;-;-;-;-;-;-;-;-;-;-;-;-;-
1512466405783;-;-;24.666748;-3.4701996;-3.6732178;-;-;-;-;-;-;-;-;-;-;-;-;-;-;-
1512466405804;-;-;26.477966;-3.9993286;-6.4157715;-;-;-;-;-;-;-;-;-;-;-;-;-;-;-
1512466405824;-;-;18.099457;-2.9650269;-3.7199097;-;-;-;-;-;-;-;-;-;-;-;-;-;-;-
1512466405845;-;-;11.364563;-2.360489;-1.9122772;-;-;-;-;-;-;-;-;-;-;-;-;-;-;-
1512466405864;-;-;6.505539;-0.5313263;-1.0264282;-;-;-;-;-;-;-;-;-;-;-;-;-;-;-
1512466405884;-;-;2.2618103;0.52931213;-1.1329651;-;-;-;-;-;-;-;-;-;-;-;-;-;-;-
1512466405905;-;-;-1.2037964;0.38446045;-0.64694214;-;-;-;-;-;-;-;-;-;-;-;-;-;-;-
1512466405925;-;-;-0.73812866;-0.9622803;-0.52005005;-;-;-;-;-;-;-;-;-;-;-;-;-;-;-
1512466405946;-;-;2.3647614;-1.7152557;-1.3125305;-;-;-;-;-;-;-;-;-;-;-;-;-;-;-
1512466405967;-;-;5.313217;-1.8960114;-1.9805145;-;-;-;-;-;-;-;-;-;-;-;-;-;-;-
1512466405986;-;-;7.4045563;-1.8840485;-1.9865112;-;-;-;-;-;-;-;-;-;-;-;-;-;-;-
1512466406007;-;-;9.014664;-1.902008;-1.9577789;-;-;-;-;-;-;-;-;-;-;-;-;-;-;-
1512466406027;-;-;10.750458;-2.0193176;-2.2618408;-;-;-;-;-;-;-;-;-;-;-;-;-;-;-
1512466406050;-;-;11.0030365;-2.2240143;-2.3133087;-;-;-;-;-;-;-;-;-;-;-;-;-;-;-
1512466406068;-;-;9.717361;-2.518509;-1.2227478;-;-;-;-;-;-;-;-;-;-;-;-;-;-;-
1512466406087;-;-;8.246124;-2.7543335;0.36340332;-;-;-;-;-;-;-;-;-;-;-;-;-;-;-
1512466406107;-;-;7.056198;-2.6585693;0.68782043;-;-;-;-;-;-;-;-;-;-;-;-;-;-;-
1512466406128;-;-;6.0482483;-1.992981;0.97273254;-;-;-;-;-;-;-;-;-;-;-;-;-;-;-
1512466406148;-;-;5.7010803;-1.5201263;0.255661;-;-;-;-;-;-;-;-;-;-;-;-;-;-;-
1512466406169;-;-;6.9305115;-0.81503296;-0.5799103;-;-;-;-;-;-;-;-;-;-;-;-;-;-;-
1512466406189;-;-;8.185074;0.009765625;-1.3712006;-;-;-;-;-;-;-;-;-;-;-;-;-;-;-
1512466406210;-;-;8.715378;0.40600586;-2.5359802;-;-;-;-;-;-;-;-;-;-;-;-;-;-;-
1512466406232;-;-;7.906143;-0.0021972656;-3.017212;-;-;-;-;-;-;-;-;-;-;-;-;-;-;-
1512466406253;-;-;7.636795;0.4467163;-5.2521973;-;-;-;-;-;-;-;-;-;-;-;-;-;-;-
1512466406273;-;-;8.759674;2.0711823;-6.033905;-;-;-;-;-;-;-;-;-;-;-;-;-;-;-
1512466406294;-;-;10.380554;4.9933014;-2.97052;-;-;-;-;-;-;-;-;-;-;-;-;-;-;-
1512466406314;-;-;14.997772;4.786194;-4.01799;-;-;-;-;-;-;-;-;-;-;-;-;-;-;-
1512466406335;-;-;18.11621;0.43354797;-3.7941284;-;-;-;-;-;-;-;-;-;-;-;-;-;-;-
1512466406355;-;-;16.363663;-2.104309;-3.598999;-;-;-;-;-;-;-;-;-;-;-;-;-;-;-
1512466406376;-;-;14.4578705;1.046463;-5.0391083;-;-;-;-;-;-;-;-;-;-;-;-;-;-;-
1512466406396;-;-;13.90123;3.2479248;-4.508789;-;-;-;-;-;-;-;-;-;-;-;-;-;-;-
1512466406416;-;-;11.314285;3.299408;-3.017212;-;-;-;-;-;-;-;-;-;-;-;-;-;-;-
1512466406437;-;-;8.580109;1.169754;-1.7698364;-;-;-;-;-;-;-;-;-;-;-;-;-;-;-
1512466406457;-;-;6.515106;0.18814087;-1.2059937;-;-;-;-;-;-;-;-;-;-;-;-;-;-;-
1512466406477;-;-;5.2066803;0.1558075;-0.5942688;-;-;-;-;-;-;-;-;-;-;-;-;-;-;-
1512466406498;-;-;4.7362213;-0.05607605;-0.451828;-;-;-;-;-;-;-;-;-;-;-;-;-;-;-
1512466406518;-;-;5.3180084;-0.1697998;-0.39076233;-;-;-;-;-;-;-;-;-;-;-;-;-;-;-
1512466406539;-;-;5.826782;0.19412231;-0.9809418;-;-;-;-;-;-;-;-;-;-;-;-;-;-;-
1512466406558;-;-;5.8483276;0.7292328;-1.3652039;-;-;-;-;-;-;-;-;-;-;-;-;-;-;-
1512466406579;-;-;5.3060455;1.4881897;-1.6968079;-;-;-;-;-;-;-;-;-;-;-;-;-;-;-
1512466406599;-;-;4.6141205;1.2583466;-1.8608093;-;-;-;-;-;-;-;-;-;-;-;-;-;-;-
1512466406619;-;-;4.292099;0.40361023;-1.3963318;-;-;-;-;-;-;-;-;-;-;-;-;-;-;-
1512466406640;-;-;4.774521;-0.58877563;-1.0934601;-;-;-;-;-;-;-;-;-;-;-;-;-;-;-
1512466406661;-;-;5.8195953;-1.4878082;-1.5687103;-;-;-;-;-;-;-;-;-;-;-;-;-;-;-
1512466406681;-;-;7.4249115;-1.5907593;-0.7678528;-;-;-;-;-;-;-;-;-;-;-;-;-;-;-
1512466406701;-;-;8.655533;-0.37809753;-0.5834961;-;-;-;-;-;-;-;-;-;-;-;-;-;-;-
1512466406722;-;-;9.15712;1.0416718;-2.036789;-;-;-;-;-;-;-;-;-;-;-;-;-;-;-
1512466406742;-;-;8.730942;3.1354065;-4.618927;-;-;-;-;-;-;-;-;-;-;-;-;-;-;-
1512466406763;-;-;7.336319;2.9247131;-3.6373138;-;-;-;-;-;-;-;-;-;-;-;-;-;-;-
1512466406783;-;-;5.297653;1.4414978;-3.7462463;-;-;-;-;-;-;-;-;-;-;-;-;-;-;-
1512466406804;-;-;4.205902;-0.61750793;-6.6204834;-;-;-;-;-;-;-;-;-;-;-;-;-;-;-
1512466406824;-;-;6.3175964;-3.1649475;-7.5925293;-;-;-;-;-;-;-;-;-;-;-;-;-;-;-
1512466406845;-;-;12.57843;-4.7906036;-6.6132965;-;-;-;-;-;-;-;-;-;-;-;-;-;-;-
1512466406865;-;-;21.33043;-8.228683;-4.8152466;-;-;-;-;-;-;-;-;-;-;-;-;-;-;-
1512466406886;-;-;28.256851;-10.661194;-5.2102966;-;-;-;-;-;-;-;-;-;-;-;-;-;-;-
1512466406905;-;-;24.706253;-5.3245087;-2.8627777;-;-;-;-;-;-;-;-;-;-;-;-;-;-;-
1512466406925;-;-;16.07277;0.47782898;-1.6285706;-;-;-;-;-;-;-;-;-;-;-;-;-;-;-
1512466406946;-;-;10.106415;1.6138763;0.027023315;-;-;-;-;-;-;-;-;-;-;-;-;-;-;-
1512466406967;-;-;7.20105;1.1960907;-1.7159576;-;-;-;-;-;-;-;-;-;-;-;-;-;-;-
1512466406987;-;-;3.8683167;-0.9263611;-3.527176;-;-;-;-;-;-;-;-;-;-;-;-;-;-;-
1512466407008;-;-;3.8910675;-2.6860962;-2.7275085;-;-;-;-;-;-;-;-;-;-;-;-;-;-;-
1512466407028;-;-;6.0925293;-2.9327087;-1.8560181;-;-;-;-;-;-;-;-;-;-;-;-;-;-;-
1512466407049;-;-;7.075363;-1.8253937;-1.6010437;-;-;-;-;-;-;-;-;-;-;-;-;-;-;-
1512466407069;-;-;7.001129;-0.957489;-1.8584137;-;-;-;-;-;-;-;-;-;-;-;-;-;-;-
1512466407089;-;-;6.4444885;-0.7420044;-1.8584137;-;-;-;-;-;-;-;-;-;-;-;-;-;-;-
1512466407110;-;-;6.3977966;-0.9766388;-1.6489258;-;-;-;-;-;-;-;-;-;-;-;-;-;-;-
1512466407130;-;-;6.7724915;-1.3633118;-1.6393433;-;-;-;-;-;-;-;-;-;-;-;-;-;-;-
1512466407151;-;-;7.0681763;-2.3257751;-2.7346954;-;-;-;-;-;-;-;-;-;-;-;-;-;-;-
1512466407171;-;-;6.9005737;-2.6884918;-2.8137054;-;-;-;-;-;-;-;-;-;-;-;-;-;-;-
1512466407192;-;-;7.044235;-1.9427032;-2.0631256;-;-;-;-;-;-;-;-;-;-;-;-;-;-;-
1512466407212;-;-;7.2836456;-1.2016907;-2.16008;-;-;-;-;-;-;-;-;-;-;-;-;-;-;-
1512466407233;-;-;7.189087;-0.70370483;-2.0643158;-;-;-;-;-;-;-;-;-;-;-;-;-;-;-
1512466407253;-;-;7.632004;-0.621109;-1.4657593;-;-;-;-;-;-;-;-;-;-;-;-;-;-;-
1512466407273;-;-;7.924103;-1.1011353;-1.516037;-;-;-;-;-;-;-;-;-;-;-;-;-;-;-
1512466407293;-;-;7.6020813;-1.3309784;-1.9769287;-;-;-;-;-;-;-;-;-;-;-;-;-;-;-
1512466407314;-;-;6.5163116;-1.3381653;-2.3133087;-;-;-;-;-;-;-;-;-;-;-;-;-;-;-
1512466407335;-;-;6.711441;-1.5931549;-2.1624756;-;-;-;-;-;-;-;-;-;-;-;-;-;-;-
1512466407354;-;-;7.758896;-2.1390228;-1.9781189;-;-;-;-;-;-;-;-;-;-;-;-;-;-;-
1512466407377;-;-;8.893753;-2.2862701;-2.2486725;-;-;-;-;-;-;-;-;-;-;-;-;-;-;-
1512466407397;-;-;9.102051;-1.6709595;-2.163681;-;-;-;-;-;-;-;-;-;-;-;-;-;-;-
1512466407418;-;-;8.145569;-0.89164734;-2.2582397;-;-;-;-;-;-;-;-;-;-;-;-;-;-;-
1512466407439;-;-;7.320755;-0.28352356;-4.828415;-;-;-;-;-;-;-;-;-;-;-;-;-;-;-
1512466407459;-;-;7.973175;1.4450989;-7.9444733;-;-;-;-;-;-;-;-;-;-;-;-;-;-;-
1512466407480;-;-;8.058182;4.600647;-3.5930176;-;-;-;-;-;-;-;-;-;-;-;-;-;-;-
1512466407500;-;-;11.699753;4.6413574;-0.6253967;-;-;-;-;-;-;-;-;-;-;-;-;-;-;-
1512466407521;-;-;14.89003;2.7678833;-1.064743;-;-;-;-;-;-;-;-;-;-;-;-;-;-;-
1512466407541;-;-;17.861237;1.5492401;-7.5027466;-;-;-;-;-;-;-;-;-;-;-;-;-;-;-
1512466407562;-;-;20.855179;2.2902527;-8.950043;-;-;-;-;-;-;-;-;-;-;-;-;-;-;-
1512466407582;-;-;17.698425;1.4474792;-5.4353485;-;-;-;-;-;-;-;-;-;-;-;-;-;-;-
1512466407603;-;-;10.880936;0.89682007;-2.7107544;-;-;-;-;-;-;-;-;-;-;-;-;-;-;-
1512466407623;-;-;6.794037;1.066803;-2.931015;-;-;-;-;-;-;-;-;-;-;-;-;-;-;-
1512466407643;-;-;3.6815796;1.046463;-2.3623962;-;-;-;-;-;-;-;-;-;-;-;-;-;-;-
1512466407664;-;-;1.3448334;0.6825409;-1.8141174;-;-;-;-;-;-;-;-;-;-;-;-;-;-;-
1512466407684;-;-;-0.12521362;0.1438446;-0.7008209;-;-;-;-;-;-;-;-;-;-;-;-;-;-;-
1512466407705;-;-;1.9852753;-0.56243896;-0.11663818;-;-;-;-;-;-;-;-;-;-;-;-;-;-;-
1512466407725;-;-;5.802841;-0.78990173;-0.23036194;-;-;-;-;-;-;-;-;-;-;-;-;-;-;-
1512466407746;-;-;9.610809;-0.5049896;-2.148117;-;-;-;-;-;-;-;-;-;-;-;-;-;-;-
1512466407766;-;-;11.420837;0.081588745;-3.899475;-;-;-;-;-;-;-;-;-;-;-;-;-;-;-
1512466407787;-;-;11.580048;0.83695984;-4.2382507;-;-;-;-;-;-;-;-;-;-;-;-;-;-;-
1512466407807;-;-;10.185425;1.2906647;-2.4545746;-;-;-;-;-;-;-;-;-;-;-;-;-;-;-
1512466407827;-;-;8.1922455;1.9371033;-0.7008209;-;-;-;-;-;-;-;-;-;-;-;-;-;-;-
1512466407848;-;-;4.834381;1.8185883;-1.124588;-;-;-;-;-;-;-;-;-;-;-;-;-;-;-
1512466407868;-;-;2.9740906;0.70648193;-1.6872253;-;-;-;-;-;-;-;-;-;-;-;-;-;-;-
1512466407888;-;-;2.9633179;0.05645752;-0.48054504;-;-;-;-;-;-;-;-;-;-;-;-;-;-;-
1512466407908;-;-;4.0107727;0.4371338;0.93322754;-;-;-;-;-;-;-;-;-;-;-;-;-;-;-
1512466407929;-;-;6.8083954;1.6473999;-0.2854309;-;-;-;-;-;-;-;-;-;-;-;-;-;-;-
1512466407949;-;-;8.219788;0.5700073;-4.132904;-;-;-;-;-;-;-;-;-;-;-;-;-;-;-
1512466407970;-;-;9.683838;-1.269928;-4.5578766;-;-;-;-;-;-;-;-;-;-;-;-;-;-;-
1512466407990;-;-;10.151901;-1.8110199;-3.5535126;-;-;-;-;-;-;-;-;-;-;-;-;-;-;-
1512466408011;-;-;9.905304;-0.074035645;-4.0754395;-;-;-;-;-;-;-;-;-;-;-;-;-;-;-
1512466408031;-;-;10.526596;0.31861877;-10.215378;-;-;-;-;-;-;-;-;-;-;-;-;-;-;-
1512466408052;-;-;11.905655;-1.7116699;-10.973145;-;-;-;-;-;-;-;-;-;-;-;-;-;-;-
1512466408072;-;-;12.645462;-5.140152;-3.0435486;-;-;-;-;-;-;-;-;-;-;-;-;-;-;-
1512466408093;-;-;13.0620575;-6.4857025;-0.14297485;-;-;-;-;-;-;-;-;-;-;-;-;-;-;-
1512466408113;-;-;13.156631;-4.1860657;-1.085083;-;-;-;-;-;-;-;-;-;-;-;-;-;-;-
1512466408133;-;-;14.534485;-3.0141144;-0.12501526;-;-;-;-;-;-;-;-;-;-;-;-;-;-;-
1512466408154;-;-;17.186066;-4.807358;-2.215149;-;-;-;-;-;-;-;-;-;-;-;-;-;-;-
1512466408174;-;-;15.981781;-4.317749;-2.6353302;-;-;-;-;-;-;-;-;-;-;-;-;-;-;-
1512466408195;-;-;12.754395;-1.8289795;-2.2067719;-;-;-;-;-;-;-;-;-;-;-;-;-;-;-
1512466408216;-;-;9.790375;0.14624023;-2.2678223;-;-;-;-;-;-;-;-;-;-;-;-;-;-;-
1512466408236;-;-;6.880234;1.5348816;-2.065506;-;-;-;-;-;-;-;-;-;-;-;-;-;-;-
1512466408257;-;-;3.90065;2.2435608;-1.6992035;-;-;-;-;-;-;-;-;-;-;-;-;-;-;-
1512466408277;-;-;1.2394867;1.0835724;-1.452591;-;-;-;-;-;-;-;-;-;-;-;-;-;-;-
1512466408298;-;-;1.7506561;-1.546463;-1.4334412;-;-;-;-;-;-;-;-;-;-;-;-;-;-;-
1512466408318;-;-;3.9712677;-3.3277435;-1.1964111;-;-;-;-;-;-;-;-;-;-;-;-;-;-;-
1512466408338;-;-;6.996353;-3.5695648;-0.7498932;-;-;-;-;-;-;-;-;-;-;-;-;-;-;-
1512466408359;-;-;9.182251;-2.9590454;-0.89234924;-;-;-;-;-;-;-;-;-;-;-;-;-;-;-
1512466408379;-;-;10.351822;-2.159378;-1.8835602;-;-;-;-;-;-;-;-;-;-;-;-;-;-;-
1512466408400;-;-;11.022202;-1.2268372;-2.7275085;-;-;-;-;-;-;-;-;-;-;-;-;-;-;-
1512466408421;-;-;11.201767;-0.72406006;-2.3324738;-;-;-;-;-;-;-;-;-;-;-;-;-;-;-
1512466408441;-;-;9.5737;-0.50019836;-2.412674;-;-;-;-;-;-;-;-;-;-;-;-;-;-;-
1512466408462;-;-;7.5589905;-0.92037964;-1.7722168;-;-;-;-;-;-;-;-;-;-;-;-;-;-;-
1512466408482;-;-;6.1511993;-1.570404;-0.882782;-;-;-;-;-;-;-;-;-;-;-;-;-;-;-
1512466408503;-;-;5.0307007;-2.0671997;-0.9689636;-;-;-;-;-;-;-;-;-;-;-;-;-;-;-
1512466408522;-;-;4.640457;-1.8936157;-1.148529;-;-;-;-;-;-;-;-;-;-;-;-;-;-;-
1512466408543;-;-;4.65123;-0.86531067;-0.45541382;-;-;-;-;-;-;-;-;-;-;-;-;-;-;-
1512466408563;-;-;6.1883087;-0.6187134;0.47712708;-;-;-;-;-;-;-;-;-;-;-;-;-;-;-
1512466408584;-;-;8.315552;-1.2196503;0.49987793;-;-;-;-;-;-;-;-;-;-;-;-;-;-;-
1512466408604;-;-;10.190216;-2.3545074;-1.3831635;-;-;-;-;-;-;-;-;-;-;-;-;-;-;-
1512466408625;-;-;10.14711;-3.024887;-3.7833557;-;-;-;-;-;-;-;-;-;-;-;-;-;-;-
1512466408646;-;-;7.9827576;-1.8517303;-4.53154;-;-;-;-;-;-;-;-;-;-;-;-;-;-;-
1512466408666;-;-;7.724182;-0.045303345;-5.00679;-;-;-;-;-;-;-;-;-;-;-;-;-;-;-
1512466408687;-;-;9.43364;4.4043274;-4.307678;-;-;-;-;-;-;-;-;-;-;-;-;-;-;-
1512466408707;-;-;11.516602;7.6903687;-3.2793732;-;-;-;-;-;-;-;-;-;-;-;-;-;-;-
1512466408728;-;-;14.77272;4.9657593;-3.0351715;-;-;-;-;-;-;-;-;-;-;-;-;-;-;-
1512466408747;-;-;16.216415;0.8992157;-3.9054565;-;-;-;-;-;-;-;-;-;-;-;-;-;-;-
1512466408768;-;-;17.02327;1.4726257;-5.492813;-;-;-;-;-;-;-;-;-;-;-;-;-;-;-
1512466408788;-;-;16.644974;1.3505249;-4.551895;-;-;-;-;-;-;-;-;-;-;-;-;-;-;-
1512466408809;-;-;13.688141;0.6526184;-3.1895905;-;-;-;-;-;-;-;-;-;-;-;-;-;-;-
1512466408829;-;-;8.256897;0.0037841797;-1.1868439;-;-;-;-;-;-;-;-;-;-;-;-;-;-;-
1512466408850;-;-;4.979233;-0.026138306;-0.8540497;-;-;-;-;-;-;-;-;-;-;-;-;-;-;-
1512466408871;-;-;2.7131195;0.23123169;-0.590683;-;-;-;-;-;-;-;-;-;-;-;-;-;-;-
1512466408891;-;-;2.0224;0.2013092;-0.3297119;-;-;-;-;-;-;-;-;-;-;-;-;-;-;-
1512466408912;-;-;3.481659;0.074417114;0.11920166;-;-;-;-;-;-;-;-;-;-;-;-;-;-;-
1512466408932;-;-;6.633621;0.115112305;-0.922287;-;-;-;-;-;-;-;-;-;-;-;-;-;-;-
1512466408953;-;-;7.7217865;0.3102417;-2.215149;-;-;-;-;-;-;-;-;-;-;-;-;-;-;-
1512466408973;-;-;8.6423645;0.21687317;-1.9086914;-;-;-;-;-;-;-;-;-;-;-;-;-;-;-
1512466408992;-;-;9.420471;-0.17338562;-1.5962524;-;-;-;-;-;-;-;-;-;-;-;-;-;-;-
1512466409012;-;-;9.544968;-0.5780029;-1.7746124;-;-;-;-;-;-;-;-;-;-;-;-;-;-;-
1512466409033;-;-;9.044586;-0.71328735;-1.8380585;-;-;-;-;-;-;-;-;-;-;-;-;-;-;-
1512466409053;-;-;6.8826294;-0.4559021;-1.5483704;-;-;-;-;-;-;-;-;-;-;-;-;-;-;-
1512466409074;-;-;4.9552917;0.0061798096;-1.1162109;-;-;-;-;-;-;-;-;-;-;-;-;-;-;-
1512466409095;-;-;4.513565;0.70529175;-0.9510193;-;-;-;-;-;-;-;-;-;-;-;-;-;-;-
1512466409115;-;-;5.403;0.8585205;-0.85523987;-;-;-;-;-;-;-;-;-;-;-;-;-;-;-
1512466409136;-;-;6.395401;0.6454315;-0.5799103;-;-;-;-;-;-;-;-;-;-;-;-;-;-;-
1512466409156;-;-;7.161545;0.2515869;-0.882782;-;-;-;-;-;-;-;-;-;-;-;-;-;-;-
1512466409177;-;-;8.298798;-0.18057251;-1.2383118;-;-;-;-;-;-;-;-;-;-;-;-;-;-;-
1512466409197;-;-;8.392166;-0.069244385;-2.5694885;-;-;-;-;-;-;-;-;-;-;-;-;-;-;-
1512466409217;-;-;7.890579;0.14863586;-5.8734894;-;-;-;-;-;-;-;-;-;-;-;-;-;-;-
1512466409238;-;-;8.769257;-1.1693726;-8.783646;-;-;-;-;-;-;-;-;-;-;-;-;-;-;-
1512466409257;-;-;12.111557;-3.2523346;-7.5183105;-;-;-;-;-;-;-;-;-;-;-;-;-;-;-
1512466409277;-;-;16.227188;-4.6637115;-3.6037903;-;-;-;-;-;-;-;-;-;-;-;-;-;-;-
1512466409298;-;-;19.699982;-4.0196686;-3.484085;-;-;-;-;-;-;-;-;-;-;-;-;-;-;-
1512466409319;-;-;21.0934;-2.9542542;-4.459717;-;-;-;-;-;-;-;-;-;-;-;-;-;-;-
1512466409339;-;-;19.225922;-2.949463;-3.4948578;-;-;-;-;-;-;-;-;-;-;-;-;-;-;-
1512466409359;-;-;16.532455;-3.3277435;-2.0200195;-;-;-;-;-;-;-;-;-;-;-;-;-;-;-
1512466409380;-;-;11.948746;-2.4861908;-2.488083;-;-;-;-;-;-;-;-;-;-;-;-;-;-;-
1512466409400;-;-;8.377808;-1.0795898;-1.2694397;-;-;-;-;-;-;-;-;-;-;-;-;-;-;-
1512466409420;-;-;4.8403625;0.021743774;-1.392746;-;-;-;-;-;-;-;-;-;-;-;-;-;-;-
1512466409441;-;-;2.0140076;0.76634216;-1.9553833;-;-;-;-;-;-;-;-;-;-;-;-;-;-;-
1512466409461;-;-;1.4633484;0.6849365;-2.191208;-;-;-;-;-;-;-;-;-;-;-;-;-;-;-
1512466409482;-;-;2.0690765;-0.035720825;-2.3193054;-;-;-;-;-;-;-;-;-;-;-;-;-;-;-
1512466409502;-;-;3.6827698;-0.47265625;-2.0008698;-;-;-;-;-;-;-;-;-;-;-;-;-;-;-
1512466409523;-;-;6.2828674;-1.0245209;-1.2395172;-;-;-;-;-;-;-;-;-;-;-;-;-;-;-
1512466409543;-;-;8.390976;-1.7774963;-0.95939636;-;-;-;-;-;-;-;-;-;-;-;-;-;-;-
1512466409564;-;-;10.496674;-2.6633606;-2.1217804;-;-;-;-;-;-;-;-;-;-;-;-;-;-;-
1512466409583;-;-;12.18219;-3.3624573;-2.65448;-;-;-;-;-;-;-;-;-;-;-;-;-;-;-
1512466409604;-;-;12.704117;-3.4187317;-2.7035675;-;-;-;-;-;-;-;-;-;-;-;-;-;-;-
1512466409624;-;-;12.495834;-2.8477173;-2.6329346;-;-;-;-;-;-;-;-;-;-;-;-;-;-;-
1512466409645;-;-;10.426041;-2.008545;-2.1852264;-;-;-;-;-;-;-;-;-;-;-;-;-;-;-
1512466409665;-;-;7.805588;-1.5392761;-1.8153229;-;-;-;-;-;-;-;-;-;-;-;-;-;-;-
1512466409685;-;-;4.489624;-1.0089569;-1.432251;-;-;-;-;-;-;-;-;-;-;-;-;-;-;-
1512466409706;-;-;3.1165466;-0.47027588;-1.2658539;-;-;-;-;-;-;-;-;-;-;-;-;-;-;-
1512466409726;-;-;2.6233368;0.13905334;-0.8456726;-;-;-;-;-;-;-;-;-;-;-;-;-;-;-
1512466409747;-;-;3.5822144;0.754364;-0.13937378;-;-;-;-;-;-;-;-;-;-;-;-;-;-;-
1512466409767;-;-;5.4927826;0.52212524;-0.15374756;-;-;-;-;-;-;-;-;-;-;-;-;-;-;-
1512466409788;-;-;8.240128;-1.0113525;-0.08192444;-;-;-;-;-;-;-;-;-;-;-;-;-;-;-
1512466409808;-;-;9.803543;-2.7076569;-0.27464294;-;-;-;-;-;-;-;-;-;-;-;-;-;-;-
1512466409828;-;-;10.873764;-3.586319;-0.26387024;-;-;-;-;-;-;-;-;-;-;-;-;-;-;-
1512466409849;-;-;10.404495;-3.3624573;-0.40393066;-;-;-;-;-;-;-;-;-;-;-;-;-;-;-
1512466409869;-;-;8.928467;-2.7076569;-1.7830048;-;-;-;-;-;-;-;-;-;-;-;-;-;-;-
1512466409890;-;-;8.200638;-0.69532776;-6.1117096;-;-;-;-;-;-;-;-;-;-;-;-;-;-;-
1512466409910;-;-;8.193451;2.9725952;-7.63443;-;-;-;-;-;-;-;-;-;-;-;-;-;-;-
1512466409931;-;-;11.384918;7.7298737;-3.875534;-;-;-;-;-;-;-;-;-;-;-;-;-;-;-
1512466409951;-;-;14.524918;7.0846405;-3.6097717;-;-;-;-;-;-;-;-;-;-;-;-;-;-;-
1512466409972;-;-;15.9123535;-0.59716797;-1.3604279;-;-;-;-;-;-;-;-;-;-;-;-;-;-;-
1512466409992;-;-;13.5169525;-2.2647247;-3.2877502;-;-;-;-;-;-;-;-;-;-;-;-;-;-;-
1512466410013;-;-;14.389648;0.060043335;-4.2921143;-;-;-;-;-;-;-;-;-;-;-;-;-;-;-
1512466410033;-;-;16.009323;1.1793365;-3.891098;-;-;-;-;-;-;-;-;-;-;-;-;-;-;-
1512466410054;-;-;12.667007;0.64064026;-2.7023773;-;-;-;-;-;-;-;-;-;-;-;-;-;-;-
1512466410075;-;-;10.181839;0.7447815;-2.2893677;-;-;-;-;-;-;-;-;-;-;-;-;-;-;-
1512466410095;-;-;7.8714294;0.92315674;-2.365982;-;-;-;-;-;-;-;-;-;-;-;-;-;-;-
1512466410115;-;-;4.805649;0.75556946;-1.8428497;-;-;-;-;-;-;-;-;-;-;-;-;-;-;-
1512466410135;-;-;2.1325226;0.58317566;-1.4669647;-;-;-;-;-;-;-;-;-;-;-;-;-;-;-
1512466410156;-;-;0.99887085;0.5341034;-1.025238;-;-;-;-;-;-;-;-;-;-;-;-;-;-;-
1512466410177;-;-;2.738266;1.2152557;-1.0922699;-;-;-;-;-;-;-;-;-;-;-;-;-;-;-
1512466410197;-;-;5.662781;1.3098145;-1.2909851;-;-;-;-;-;-;-;-;-;-;-;-;-;-;-
1512466410218;-;-;9.09845;1.1936951;-0.83369446;-;-;-;-;-;-;-;-;-;-;-;-;-;-;-
1512466410237;-;-;11.559692;1.3780518;-0.9354553;-;-;-;-;-;-;-;-;-;-;-;-;-;-;-
1512466410258;-;-;12.51738;1.2715149;-1.753067;-;-;-;-;-;-;-;-;-;-;-;-;-;-;-
1512466410278;-;-;11.802704;0.56881714;-2.5443573;-;-;-;-;-;-;-;-;-;-;-;-;-;-;-
1512466410299;-;-;9.481522;-0.37210083;-2.0954437;-;-;-;-;-;-;-;-;-;-;-;-;-;-;-
1512466410319;-;-;7.731369;-0.8665161;-1.1545258;-;-;-;-;-;-;-;-;-;-;-;-;-;-;-
1512466410340;-;-;6.5234985;-1.1095276;-0.071136475;-;-;-;-;-;-;-;-;-;-;-;-;-;-;-
1512466410360;-;-;6.027893;-0.9467163;-0.23275757;-;-;-;-;-;-;-;-;-;-;-;-;-;-;-
1512466410381;-;-;5.87706;-0.3757019;0.21376038;-;-;-;-;-;-;-;-;-;-;-;-;-;-;-
1512466410401;-;-;5.6819305;0.36650085;1.207367;-;-;-;-;-;-;-;-;-;-;-;-;-;-;-
1512466410421;-;-;6.354706;0.7411957;1.1894073;-;-;-;-;-;-;-;-;-;-;-;-;-;-;-
1512466410442;-;-;7.087326;0.6466217;-0.06636047;-;-;-;-;-;-;-;-;-;-;-;-;-;-;-
1512466410462;-;-;7.83432;0.47424316;-2.2774048;-;-;-;-;-;-;-;-;-;-;-;-;-;-;-
1512466410483;-;-;8.085709;0.5747986;-2.9633331;-;-;-;-;-;-;-;-;-;-;-;-;-;-;-
1512466410504;-;-;9.041;1.1039124;-2.1121979;-;-;-;-;-;-;-;-;-;-;-;-;-;-;-
1512466410524;-;-;9.195419;1.8892212;-0.9976959;-;-;-;-;-;-;-;-;-;-;-;-;-;-;-
1512466410544;-;-;7.118454;1.1637726;-1.4178772;-;-;-;-;-;-;-;-;-;-;-;-;-;-;-
