TimeStamp[ms];Prox[Cm];Lux[lux];AccX[m/s^2];AccY[m/s^2];AccZ[m/s^2];GyroX[rad/s];GyroY[rad/s];GyroZ[rad/s];MagnX[uT];MagnY[uT];MagnZ[uT];OrienYaw[degrees];OrienPitch[degrees];OrienRoll[degrees];Press[Pa];Temp[C°];Batt[%];Lat;Lng;Speed[m/s]
1512466469036;-;-;8.9392395;-1.664978;1.3558044;-;-;-;-;-;-;-;-;-;-;-;-;-;-;-
1512466469061;-;-;8.747711;-1.7068787;1.5066376;-;-;-;-;-;-;-;-;-;-;-;-;-;-;-
1512466469071;-;-;8.521454;-1.803833;1.6107788;-;-;-;-;-;-;-;-;-;-;-;-;-;-;-
1512466469091;-;-;8.92128;-1.7020874;1.5880432;-;-;-;-;-;-;-;-;-;-;-;-;-;-;-
1512466469112;-;-;8.977554;-1.7176514;1.4288177;-;-;-;-;-;-;-;-;-;-;-;-;-;-;-
1512466469132;-;-;9.215775;-1.6697693;1.3845367;-;-;-;-;-;-;-;-;-;-;-;-;-;-;-
1512466469153;-;-;9.175064;-1.5500488;1.3210907;-;-;-;-;-;-;-;-;-;-;-;-;-;-;-
1512466469174;-;-;9.190628;-1.3369751;1.3893127;-;-;-;-;-;-;-;-;-;-;-;-;-;-;-
1512466469195;-;-;9.102051;-1.2280273;1.2061615;-;-;-;-;-;-;-;-;-;-;-;-;-;-;-
1512466469215;-;-;8.90213;-1.3190155;1.1439209;-;-;-;-;-;-;-;-;-;-;-;-;-;-;-
1512466469235;-;-;8.958389;-1.2759247;1.1953888;-;-;-;-;-;-;-;-;-;-;-;-;-;-;-
1512466469255;-;-;9.181061;-1.2232513;1.2696075;-;-;-;-;-;-;-;-;-;-;-;-;-;-;-
1512466469276;-;-;9.195419;-1.2232513;1.2085571;-;-;-;-;-;-;-;-;-;-;-;-;-;-;-
1512466469310;-;-;9.027832;-1.3513336;0.7763977;-;-;-;-;-;-;-;-;-;-;-;-;-;-;-
1512466469318;-;-;9.14035;-1.546463;0.72612;-;-;-;-;-;-;-;-;-;-;-;-;-;-;-
1512466469338;-;-;9.203796;-1.4411163;1.3641815;-;-;-;-;-;-;-;-;-;-;-;-;-;-;-
1512466469358;-;-;9.181061;-1.1777496;1.1115875;-;-;-;-;-;-;-;-;-;-;-;-;-;-;-
1512466469379;-;-;10.177048;-1.6302643;2.1518707;-;-;-;-;-;-;-;-;-;-;-;-;-;-;-
1512466469402;-;-;8.369415;-0.77194214;-0.27703857;-;-;-;-;-;-;-;-;-;-;-;-;-;-;-
1512466469422;-;-;9.0182495;-1.4638672;0.40769958;-;-;-;-;-;-;-;-;-;-;-;-;-;-;-
1512466469442;-;-;9.208588;-1.4854126;0.38494873;-;-;-;-;-;-;-;-;-;-;-;-;-;-;-
1512466469463;-;-;9.203796;-1.6134949;0.48550415;-;-;-;-;-;-;-;-;-;-;-;-;-;-;-
1512466469484;-;-;8.788406;-1.4411163;0.96195984;-;-;-;-;-;-;-;-;-;-;-;-;-;-;-
1512466469504;-;-;8.869812;-1.4387207;0.8254852;-;-;-;-;-;-;-;-;-;-;-;-;-;-;-
1512466469525;-;-;8.787216;-1.3980255;1.0756836;-;-;-;-;-;-;-;-;-;-;-;-;-;-;-
1512466469545;-;-;9.303162;-1.6242676;1.1175842;-;-;-;-;-;-;-;-;-;-;-;-;-;-;-
1512466469566;-;-;9.181061;-1.4806213;0.38375854;-;-;-;-;-;-;-;-;-;-;-;-;-;-;-
1512466469586;-;-;9.388153;-1.2998657;0.47712708;-;-;-;-;-;-;-;-;-;-;-;-;-;-;-
1512466469607;-;-;9.847839;-1.2292328;0.3131256;-;-;-;-;-;-;-;-;-;-;-;-;-;-;-
1512466469627;-;-;9.412094;-1.2998657;0.16108704;-;-;-;-;-;-;-;-;-;-;-;-;-;-;-
1512466469648;-;-;8.262878;-0.6354675;0.30116272;-;-;-;-;-;-;-;-;-;-;-;-;-;-;-
1512466469669;-;-;9.205002;-1.3836517;0.24130249;-;-;-;-;-;-;-;-;-;-;-;-;-;-;-
1512466469689;-;-;9.125992;-1.5033722;-0.1489563;-;-;-;-;-;-;-;-;-;-;-;-;-;-;-
1512466469709;-;-;8.616028;-1.6278687;-0.49012756;-;-;-;-;-;-;-;-;-;-;-;-;-;-;-
1512466469730;-;-;8.459198;-1.5297089;-0.7127838;-;-;-;-;-;-;-;-;-;-;-;-;-;-;-
1512466469750;-;-;8.56575;-1.4087982;-0.7463074;-;-;-;-;-;-;-;-;-;-;-;-;-;-;-
1512466469771;-;-;8.308365;-1.5883636;-1.0671387;-;-;-;-;-;-;-;-;-;-;-;-;-;-;-
1512466469791;-;-;8.469971;-1.5536499;-1.4035187;-;-;-;-;-;-;-;-;-;-;-;-;-;-;-
1512466469811;-;-;8.48793;-0.9431305;-1.911087;-;-;-;-;-;-;-;-;-;-;-;-;-;-;-
1512466469832;-;-;9.459976;-1.8337708;-2.2582397;-;-;-;-;-;-;-;-;-;-;-;-;-;-;-
1512466469852;-;-;8.916504;-1.6733551;-3.0136108;-;-;-;-;-;-;-;-;-;-;-;-;-;-;-
1512466469873;-;-;9.579697;-1.4267578;-2.4928741;-;-;-;-;-;-;-;-;-;-;-;-;-;-;-
1512466469894;-;-;11.51181;-1.1262817;-1.7698364;-;-;-;-;-;-;-;-;-;-;-;-;-;-;-
1512466469914;-;-;11.51181;-1.6218872;-4.1352997;-;-;-;-;-;-;-;-;-;-;-;-;-;-;-
1512466469935;-;-;10.545746;-1.9822083;-1.3448639;-;-;-;-;-;-;-;-;-;-;-;-;-;-;-
1512466469956;-;-;10.592438;-1.7954559;-2.8771515;-;-;-;-;-;-;-;-;-;-;-;-;-;-;-
1512466469976;-;-;9.925659;-1.4111938;-2.3923187;-;-;-;-;-;-;-;-;-;-;-;-;-;-;-
1512466469998;-;-;8.970367;-0.5157623;-2.0200195;-;-;-;-;-;-;-;-;-;-;-;-;-;-;-
1512466470018;-;-;8.225769;-0.3002777;-1.1976166;-;-;-;-;-;-;-;-;-;-;-;-;-;-;-
1512466470039;-;-;7.724182;-0.14346313;-1.8237;-;-;-;-;-;-;-;-;-;-;-;-;-;-;-
1512466470058;-;-;7.9384613;-0.3086548;-2.2534637;-;-;-;-;-;-;-;-;-;-;-;-;-;-;-
1512466470079;-;-;8.975159;-0.13986206;-1.674057;-;-;-;-;-;-;-;-;-;-;-;-;-;-;-
1512466470099;-;-;10.300339;-0.033325195;-1.447815;-;-;-;-;-;-;-;-;-;-;-;-;-;-;-
1512466470119;-;-;9.444412;-0.03691101;-1.4214783;-;-;-;-;-;-;-;-;-;-;-;-;-;-;-
1512466470140;-;-;7.822342;0.80584717;-2.2905731;-;-;-;-;-;-;-;-;-;-;-;-;-;-;-
1512466470161;-;-;8.392166;0.079193115;-3.1884003;-;-;-;-;-;-;-;-;-;-;-;-;-;-;-
1512466470181;-;-;9.285202;-1.2424011;-0.9737549;-;-;-;-;-;-;-;-;-;-;-;-;-;-;-
1512466470201;-;-;9.664688;-1.5608215;-0.30577087;-;-;-;-;-;-;-;-;-;-;-;-;-;-;-
1512466470222;-;-;10.110001;-1.5680084;-2.2103577;-;-;-;-;-;-;-;-;-;-;-;-;-;-;-
1512466470244;-;-;8.811157;-0.67855835;-2.3073273;-;-;-;-;-;-;-;-;-;-;-;-;-;-;-
1512466470262;-;-;8.623199;0.517334;-1.5088654;-;-;-;-;-;-;-;-;-;-;-;-;-;-;-
1512466470282;-;-;8.006699;0.7328186;-1.0419922;-;-;-;-;-;-;-;-;-;-;-;-;-;-;-
1512466470303;-;-;6.8012238;1.2679291;-1.8368683;-;-;-;-;-;-;-;-;-;-;-;-;-;-;-
1512466470323;-;-;7.7134094;-0.5049896;-2.0487518;-;-;-;-;-;-;-;-;-;-;-;-;-;-;-
1512466470344;-;-;9.695816;-1.1166992;-2.3121185;-;-;-;-;-;-;-;-;-;-;-;-;-;-;-
1512466470364;-;-;9.099655;-1.3046417;-2.2055817;-;-;-;-;-;-;-;-;-;-;-;-;-;-;-
1512466470385;-;-;9.795166;-1.6637726;-1.5399933;-;-;-;-;-;-;-;-;-;-;-;-;-;-;-
1512466470405;-;-;8.596878;-0.6079407;-1.4418182;-;-;-;-;-;-;-;-;-;-;-;-;-;-;-
1512466470426;-;-;7.9037476;-0.6354675;-1.5387878;-;-;-;-;-;-;-;-;-;-;-;-;-;-;-
1512466470446;-;-;10.842636;-0.6402588;-1.729126;-;-;-;-;-;-;-;-;-;-;-;-;-;-;-
1512466470467;-;-;8.022263;-0.36732483;-1.8572235;-;-;-;-;-;-;-;-;-;-;-;-;-;-;-
1512466470487;-;-;7.93367;-0.48703003;-1.6525116;-;-;-;-;-;-;-;-;-;-;-;-;-;-;-
1512466470507;-;-;8.756088;-1.3273926;-1.5052643;-;-;-;-;-;-;-;-;-;-;-;-;-;-;-
1512466470527;-;-;10.190216;-1.5297089;-1.6752625;-;-;-;-;-;-;-;-;-;-;-;-;-;-;-
1512466470548;-;-;10.313507;-0.48104858;-0.15733337;-;-;-;-;-;-;-;-;-;-;-;-;-;-;-
1512466470568;-;-;9.036209;0.27792358;0.14074707;-;-;-;-;-;-;-;-;-;-;-;-;-;-;-
1512466470588;-;-;8.404144;0.04447937;0.3023529;-;-;-;-;-;-;-;-;-;-;-;-;-;-;-
1512466470609;-;-;9.311539;-0.9646759;-0.6397705;-;-;-;-;-;-;-;-;-;-;-;-;-;-;-
1512466470630;-;-;8.52504;0.25637817;-0.013687134;-;-;-;-;-;-;-;-;-;-;-;-;-;-;-
1512466470650;-;-;9.096069;-0.47865295;-1.6920166;-;-;-;-;-;-;-;-;-;-;-;-;-;-;-
1512466470671;-;-;8.716583;1.2906647;-3.7067413;-;-;-;-;-;-;-;-;-;-;-;-;-;-;-
1512466470691;-;-;12.231262;-0.071640015;-4.4537354;-;-;-;-;-;-;-;-;-;-;-;-;-;-;-
1512466470711;-;-;13.191345;-0.42956543;-4.990036;-;-;-;-;-;-;-;-;-;-;-;-;-;-;-
1512466470731;-;-;11.651871;-0.33140564;-4.3675385;-;-;-;-;-;-;-;-;-;-;-;-;-;-;-
1512466470752;-;-;7.2034454;-0.7982788;-3.3524017;-;-;-;-;-;-;-;-;-;-;-;-;-;-;-
1512466470771;-;-;5.8902283;-2.04805;-1.3185272;-;-;-;-;-;-;-;-;-;-;-;-;-;-;-
1512466470792;-;-;4.5123596;-3.8341217;-0.47816467;-;-;-;-;-;-;-;-;-;-;-;-;-;-;-
1512466470811;-;-;4.683548;-4.810959;-0.5320282;-;-;-;-;-;-;-;-;-;-;-;-;-;-;-
1512466470833;-;-;8.480759;-4.5607605;-2.986084;-;-;-;-;-;-;-;-;-;-;-;-;-;-;-
1512466470854;-;-;11.878128;-3.7072296;-4.9397583;-;-;-;-;-;-;-;-;-;-;-;-;-;-;-
1512466470874;-;-;12.937561;0.38087463;-5.6292877;-;-;-;-;-;-;-;-;-;-;-;-;-;-;-
1512466470894;-;-;11.557297;0.77711487;-2.4090881;-;-;-;-;-;-;-;-;-;-;-;-;-;-;-
1512466470914;-;-;10.218948;0.8130188;-2.8783417;-;-;-;-;-;-;-;-;-;-;-;-;-;-;-
1512466470936;-;-;7.7816467;-0.47505188;-2.618576;-;-;-;-;-;-;-;-;-;-;-;-;-;-;-
1512466470956;-;-;7.1675262;-2.3940125;-0.9474182;-;-;-;-;-;-;-;-;-;-;-;-;-;-;-
1512466470977;-;-;6.6575623;-3.4498596;-1.2802124;-;-;-;-;-;-;-;-;-;-;-;-;-;-;-
1512466470998;-;-;5.6340485;-2.8884125;-1.234726;-;-;-;-;-;-;-;-;-;-;-;-;-;-;-
1512466471018;-;-;6.4887695;-1.7140503;-2.2761993;-;-;-;-;-;-;-;-;-;-;-;-;-;-;-
1512466471038;-;-;7.9576263;-1.0197449;-2.2450714;-;-;-;-;-;-;-;-;-;-;-;-;-;-;-
1512466471059;-;-;9.846649;-1.2795105;-1.8608093;-;-;-;-;-;-;-;-;-;-;-;-;-;-;-
1512466471080;-;-;9.416885;-1.372879;-1.7806091;-;-;-;-;-;-;-;-;-;-;-;-;-;-;-
1512466471100;-;-;9.003891;-1.020935;-1.8524323;-;-;-;-;-;-;-;-;-;-;-;-;-;-;-
1512466471120;-;-;8.947617;-0.9479065;-1.8512268;-;-;-;-;-;-;-;-;-;-;-;-;-;-;-
1512466471141;-;-;9.25647;-0.78990173;-1.4537964;-;-;-;-;-;-;-;-;-;-;-;-;-;-;-
1512466471161;-;-;9.497086;-1.052063;-1.5064697;-;-;-;-;-;-;-;-;-;-;-;-;-;-;-
1512466471182;-;-;9.839462;-1.0352936;-1.3987274;-;-;-;-;-;-;-;-;-;-;-;-;-;-;-
1512466471201;-;-;9.547363;-1.1681824;-1.203598;-;-;-;-;-;-;-;-;-;-;-;-;-;-;-
1512466471222;-;-;8.568146;-1.2555695;-1.1808624;-;-;-;-;-;-;-;-;-;-;-;-;-;-;-
1512466471241;-;-;9.547363;-1.0508575;0.027023315;-;-;-;-;-;-;-;-;-;-;-;-;-;-;-
1512466471262;-;-;9.184647;-0.4882202;-0.46139526;-;-;-;-;-;-;-;-;-;-;-;-;-;-;-
1512466471281;-;-;8.610046;-0.20570374;-0.6720886;-;-;-;-;-;-;-;-;-;-;-;-;-;-;-
1512466471301;-;-;9.884949;-1.0436859;-2.2163544;-;-;-;-;-;-;-;-;-;-;-;-;-;-;-
1512466471322;-;-;10.236893;-1.2028961;-3.2662048;-;-;-;-;-;-;-;-;-;-;-;-;-;-;-
1512466471342;-;-;10.87735;-1.4530945;-3.2027588;-;-;-;-;-;-;-;-;-;-;-;-;-;-;-
1512466471363;-;-;10.787567;-1.1262817;-3.338028;-;-;-;-;-;-;-;-;-;-;-;-;-;-;-
1512466471383;-;-;10.968323;-1.8361664;-2.3444366;-;-;-;-;-;-;-;-;-;-;-;-;-;-;-
1512466471404;-;-;9.445618;-1.4602661;-2.251068;-;-;-;-;-;-;-;-;-;-;-;-;-;-;-
1512466471424;-;-;5.30484;-1.1442413;-1.8189087;-;-;-;-;-;-;-;-;-;-;-;-;-;-;-
1512466471444;-;-;5.485611;-0.4343567;-1.689621;-;-;-;-;-;-;-;-;-;-;-;-;-;-;-
1512466471465;-;-;7.3231506;-0.5732269;-1.021637;-;-;-;-;-;-;-;-;-;-;-;-;-;-;-
1512466471485;-;-;8.942825;0.59036255;-1.4250641;-;-;-;-;-;-;-;-;-;-;-;-;-;-;-
1512466471506;-;-;10.841431;1.0799713;-1.9649506;-;-;-;-;-;-;-;-;-;-;-;-;-;-;-
1512466471527;-;-;15.456253;-0.052474976;-1.0731201;-;-;-;-;-;-;-;-;-;-;-;-;-;-;-
1512466471547;-;-;9.846649;0.057647705;-1.863205;-;-;-;-;-;-;-;-;-;-;-;-;-;-;-
1512466471567;-;-;11.358582;-1.1729736;-2.270218;-;-;-;-;-;-;-;-;-;-;-;-;-;-;-
1512466471588;-;-;7.3925934;-1.3561249;-1.8308868;-;-;-;-;-;-;-;-;-;-;-;-;-;-;-
1512466471609;-;-;5.478424;-0.4259796;-0.029251099;-;-;-;-;-;-;-;-;-;-;-;-;-;-;-
1512466471628;-;-;5.3694916;-0.6187134;-1.0072784;-;-;-;-;-;-;-;-;-;-;-;-;-;-;-
1512466471649;-;-;4.0885925;-0.5169525;-1.353241;-;-;-;-;-;-;-;-;-;-;-;-;-;-;-
1512466471670;-;-;5.071411;-0.37091064;-1.784195;-;-;-;-;-;-;-;-;-;-;-;-;-;-;-
1512466471690;-;-;6.3930054;-0.63427734;-1.3280945;-;-;-;-;-;-;-;-;-;-;-;-;-;-;-
1512466471710;-;-;8.283234;-0.3876648;-1.188034;-;-;-;-;-;-;-;-;-;-;-;-;-;-;-
1512466471731;-;-;9.990295;-0.3433838;-0.19683838;-;-;-;-;-;-;-;-;-;-;-;-;-;-;-
1512466471751;-;-;9.847839;0.48382568;-0.30218506;-;-;-;-;-;-;-;-;-;-;-;-;-;-;-
1512466471772;-;-;9.209793;0.18334961;-0.56555176;-;-;-;-;-;-;-;-;-;-;-;-;-;-;-
1512466471793;-;-;8.335907;-0.16859436;-0.5978699;-;-;-;-;-;-;-;-;-;-;-;-;-;-;-
1512466471813;-;-;9.210983;0.25637817;-3.5654755;-;-;-;-;-;-;-;-;-;-;-;-;-;-;-
1512466471833;-;-;7.988739;0.014556885;-0.047195435;-;-;-;-;-;-;-;-;-;-;-;-;-;-;-
1512466471854;-;-;8.547791;-0.97424316;-0.97135925;-;-;-;-;-;-;-;-;-;-;-;-;-;-;-
1512466471874;-;-;9.043396;-1.4650574;0.11920166;-;-;-;-;-;-;-;-;-;-;-;-;-;-;-
1512466471894;-;-;7.3710327;-0.77911377;-1.6022339;-;-;-;-;-;-;-;-;-;-;-;-;-;-;-
1512466471915;-;-;6.6875;-0.43914795;-0.5834961;-;-;-;-;-;-;-;-;-;-;-;-;-;-;-
1512466471934;-;-;6.96402;0.012161255;0.024627686;-;-;-;-;-;-;-;-;-;-;-;-;-;-;-
1512466471955;-;-;7.2980194;0.6789551;-0.41830444;-;-;-;-;-;-;-;-;-;-;-;-;-;-;-
1512466471975;-;-;8.045013;0.45988464;-0.28422546;-;-;-;-;-;-;-;-;-;-;-;-;-;-;-
1512466471996;-;-;8.7812195;0.72084045;-0.84088135;-;-;-;-;-;-;-;-;-;-;-;-;-;-;-
1512466472017;-;-;6.299637;-0.088394165;-3.100998;-;-;-;-;-;-;-;-;-;-;-;-;-;-;-
1512466472037;-;-;5.644821;-0.20451355;-5.333603;-;-;-;-;-;-;-;-;-;-;-;-;-;-;-
1512466472058;-;-;6.8287506;-0.9060211;-4.4932404;-;-;-;-;-;-;-;-;-;-;-;-;-;-;-
1512466472079;-;-;10.081268;-2.5496368;-3.7821503;-;-;-;-;-;-;-;-;-;-;-;-;-;-;-
1512466472099;-;-;15.860886;-4.218399;-1.5758972;-;-;-;-;-;-;-;-;-;-;-;-;-;-;-
1512466472119;-;-;16.486969;-3.3457031;-1.1341705;-;-;-;-;-;-;-;-;-;-;-;-;-;-;-
1512466472139;-;-;16.243958;-2.151001;-1.1928253;-;-;-;-;-;-;-;-;-;-;-;-;-;-;-
1512466472160;-;-;21.164032;-3.258316;-1.3113403;-;-;-;-;-;-;-;-;-;-;-;-;-;-;-
1512466472179;-;-;11.13472;-2.8919983;0.35621643;-;-;-;-;-;-;-;-;-;-;-;-;-;-;-
1512466472199;-;-;15.730392;-3.7946167;1.8573914;-;-;-;-;-;-;-;-;-;-;-;-;-;-;-
1512466472220;-;-;11.675812;-2.0516357;0.41368103;-;-;-;-;-;-;-;-;-;-;-;-;-;-;-
1512466472241;-;-;8.871002;-2.4059753;-1.7482758;-;-;-;-;-;-;-;-;-;-;-;-;-;-;-
1512466472260;-;-;5.414978;-1.7415924;-2.1744537;-;-;-;-;-;-;-;-;-;-;-;-;-;-;-
1512466472281;-;-;4.2262573;-1.6877136;-1.1688843;-;-;-;-;-;-;-;-;-;-;-;-;-;-;-
1512466472301;-;-;3.924591;-1.2184601;0.32270813;-;-;-;-;-;-;-;-;-;-;-;-;-;-;-
1512466472321;-;-;4.1879425;-0.8305969;-0.33210754;-;-;-;-;-;-;-;-;-;-;-;-;-;-;-
1512466472342;-;-;5.3611145;-2.025299;-0.77983093;-;-;-;-;-;-;-;-;-;-;-;-;-;-;-
1512466472362;-;-;5.525116;-1.3668976;-0.80856323;-;-;-;-;-;-;-;-;-;-;-;-;-;-;-
1512466472383;-;-;5.8315735;-1.5321045;-0.5523834;-;-;-;-;-;-;-;-;-;-;-;-;-;-;-
1512466472403;-;-;5.696289;-1.3597107;-1.064743;-;-;-;-;-;-;-;-;-;-;-;-;-;-;-
1512466472424;-;-;6.810791;-1.5751953;-1.4537964;-;-;-;-;-;-;-;-;-;-;-;-;-;-;-
1512466472445;-;-;6.091339;-1.7499695;-0.9354553;-;-;-;-;-;-;-;-;-;-;-;-;-;-;-
1512466472465;-;-;7.28006;-2.324585;0.94758606;-;-;-;-;-;-;-;-;-;-;-;-;-;-;-
1512466472490;-;-;8.538208;-2.380844;-0.044799805;-;-;-;-;-;-;-;-;-;-;-;-;-;-;-
1512466472506;-;-;9.128387;-2.166565;-0.6122284;-;-;-;-;-;-;-;-;-;-;-;-;-;-;-
1512466472527;-;-;9.410904;-1.4303436;-0.3943634;-;-;-;-;-;-;-;-;-;-;-;-;-;-;-
1512466472547;-;-;9.452805;-1.1131134;-0.91389465;-;-;-;-;-;-;-;-;-;-;-;-;-;-;-
1512466472568;-;-;9.965164;-1.8373566;-0.70321655;-;-;-;-;-;-;-;-;-;-;-;-;-;-;-
1512466472588;-;-;9.471954;-2.28508;-1.1269836;-;-;-;-;-;-;-;-;-;-;-;-;-;-;-
1512466472608;-;-;8.141968;-2.1450195;-2.4940796;-;-;-;-;-;-;-;-;-;-;-;-;-;-;-
1512466472629;-;-;7.5194855;-0.64505005;-3.361969;-;-;-;-;-;-;-;-;-;-;-;-;-;-;-
1512466472648;-;-;9.14035;1.169754;-3.0615082;-;-;-;-;-;-;-;-;-;-;-;-;-;-;-
1512466472669;-;-;10.906082;2.5428314;-2.5802612;-;-;-;-;-;-;-;-;-;-;-;-;-;-;-
1512466472689;-;-;13.967072;1.651001;-2.3540192;-;-;-;-;-;-;-;-;-;-;-;-;-;-;-
1512466472709;-;-;15.184509;-0.44752502;-0.81095886;-;-;-;-;-;-;-;-;-;-;-;-;-;-;-
1512466472729;-;-;17.10228;2.2950287;-1.4621735;-;-;-;-;-;-;-;-;-;-;-;-;-;-;-
1512466472750;-;-;19.224731;5.2542725;-5.270157;-;-;-;-;-;-;-;-;-;-;-;-;-;-;-
1512466472770;-;-;16.660538;3.2503204;-5.4317627;-;-;-;-;-;-;-;-;-;-;-;-;-;-;-
1512466472791;-;-;12.264786;0.48980713;-2.8579865;-;-;-;-;-;-;-;-;-;-;-;-;-;-;-
1512466472811;-;-;7.707428;-0.6498413;-1.1461334;-;-;-;-;-;-;-;-;-;-;-;-;-;-;-
1512466472832;-;-;3.929367;-1.1562042;-0.25309753;-;-;-;-;-;-;-;-;-;-;-;-;-;-;-
1512466472851;-;-;1.496872;-1.7667236;0.15270996;-;-;-;-;-;-;-;-;-;-;-;-;-;-;-
1512466472872;-;-;0.6181946;-2.1246643;0.084472656;-;-;-;-;-;-;-;-;-;-;-;-;-;-;-
1512466472891;-;-;1.6752319;-1.3118286;-0.45899963;-;-;-;-;-;-;-;-;-;-;-;-;-;-;-
1512466472911;-;-;4.15683;-0.36732483;-0.7008209;-;-;-;-;-;-;-;-;-;-;-;-;-;-;-
1512466472932;-;-;5.592148;0.754364;-0.906723;-;-;-;-;-;-;-;-;-;-;-;-;-;-;-
1512466472952;-;-;5.893814;1.1170807;-1.0312195;-;-;-;-;-;-;-;-;-;-;-;-;-;-;-
1512466472972;-;-;6.324768;0.37249756;-1.0479736;-;-;-;-;-;-;-;-;-;-;-;-;-;-;-
1512466472993;-;-;7.6763;0.100753784;-0.3440857;-;-;-;-;-;-;-;-;-;-;-;-;-;-;-
1512466473013;-;-;8.881775;0.9363251;-0.7989807;-;-;-;-;-;-;-;-;-;-;-;-;-;-;-
1512466473033;-;-;8.455612;2.169342;-3.0674896;-;-;-;-;-;-;-;-;-;-;-;-;-;-;-
1512466473054;-;-;7.906143;2.2962341;-3.1824036;-;-;-;-;-;-;-;-;-;-;-;-;-;-;-
1512466473074;-;-;8.50589;1.2834778;-0.9689636;-;-;-;-;-;-;-;-;-;-;-;-;-;-;-
1512466473095;-;-;8.84108;0.9075928;-0.59906006;-;-;-;-;-;-;-;-;-;-;-;-;-;-;-
1512466473114;-;-;8.850662;0.7292328;-1.8536224;-;-;-;-;-;-;-;-;-;-;-;-;-;-;-
1512466473134;-;-;6.493561;-0.014175415;-3.54393;-;-;-;-;-;-;-;-;-;-;-;-;-;-;-
1512466473155;-;-;4.790085;-2.025299;-5.8938446;-;-;-;-;-;-;-;-;-;-;-;-;-;-;-
1512466473175;-;-;6.0147247;-5.281418;-5.0199585;-;-;-;-;-;-;-;-;-;-;-;-;-;-;-
1512466473195;-;-;9.936432;-8.009613;-2.8460236;-;-;-;-;-;-;-;-;-;-;-;-;-;-;-
1512466473216;-;-;15.611877;-7.6480865;0.80033875;-;-;-;-;-;-;-;-;-;-;-;-;-;-;-
1512466473236;-;-;25.163544;-6.709564;-3.5187988;-;-;-;-;-;-;-;-;-;-;-;-;-;-;-
1512466473257;-;-;29.093628;-7.3990936;-6.09256;-;-;-;-;-;-;-;-;-;-;-;-;-;-;-
1512466473277;-;-;19.263046;-1.1897278;-0.91389465;-;-;-;-;-;-;-;-;-;-;-;-;-;-;-
1512466473298;-;-;12.906433;0.24919128;1.0397644;-;-;-;-;-;-;-;-;-;-;-;-;-;-;-
1512466473319;-;-;9.305557;-0.73243713;1.0289917;-;-;-;-;-;-;-;-;-;-;-;-;-;-;-
1512466473339;-;-;7.3626556;-1.8062286;-0.882782;-;-;-;-;-;-;-;-;-;-;-;-;-;-;-
1512466473360;-;-;4.7374115;-2.997345;-1.3065491;-;-;-;-;-;-;-;-;-;-;-;-;-;-;-
1512466473380;-;-;3.9473267;-3.3349304;-1.5172424;-;-;-;-;-;-;-;-;-;-;-;-;-;-;-
1512466473400;-;-;4.3663177;-2.827362;-2.4354248;-;-;-;-;-;-;-;-;-;-;-;-;-;-;-
1512466473421;-;-;4.781708;-1.937912;-2.7658234;-;-;-;-;-;-;-;-;-;-;-;-;-;-;-
1512466473442;-;-;5.3850555;-1.3082428;-1.9481964;-;-;-;-;-;-;-;-;-;-;-;-;-;-;-
1512466473462;-;-;5.039093;-0.6438446;-1.737503;-;-;-;-;-;-;-;-;-;-;-;-;-;-;-
1512466473483;-;-;4.980423;-0.31704712;-1.5806885;-;-;-;-;-;-;-;-;-;-;-;-;-;-;-
1512466473503;-;-;5.5275116;-0.8317871;-1.3963318;-;-;-;-;-;-;-;-;-;-;-;-;-;-;-
1512466473524;-;-;5.5634155;-1.6350555;-1.2167664;-;-;-;-;-;-;-;-;-;-;-;-;-;-;-
1512466473544;-;-;5.9692383;-2.3461304;-1.1221924;-;-;-;-;-;-;-;-;-;-;-;-;-;-;-
1512466473565;-;-;7.3147736;-2.7064514;-0.66490173;-;-;-;-;-;-;-;-;-;-;-;-;-;-;-
1512466473585;-;-;8.515472;-2.9757996;0.12159729;-;-;-;-;-;-;-;-;-;-;-;-;-;-;-
1512466473606;-;-;8.739319;-2.3916168;0.35742188;-;-;-;-;-;-;-;-;-;-;-;-;-;-;-
1512466473626;-;-;8.30957;-1.4818115;0.043777466;-;-;-;-;-;-;-;-;-;-;-;-;-;-;-
1512466473647;-;-;8.630386;-1.0376892;-0.36323547;-;-;-;-;-;-;-;-;-;-;-;-;-;-;-
1512466473668;-;-;9.142746;-0.7228546;-0.0029144287;-;-;-;-;-;-;-;-;-;-;-;-;-;-;-
1512466473689;-;-;9.09845;-0.7731323;0.42445374;-;-;-;-;-;-;-;-;-;-;-;-;-;-;-
1512466473709;-;-;8.534622;-1.7116699;-0.456604;-;-;-;-;-;-;-;-;-;-;-;-;-;-;-
1512466473729;-;-;8.376602;-2.3114166;-2.3623962;-;-;-;-;-;-;-;-;-;-;-;-;-;-;-
1512466473750;-;-;8.623199;-1.5548401;-4.6919556;-;-;-;-;-;-;-;-;-;-;-;-;-;-;-
1512466473769;-;-;9.364212;1.3912201;-5.7992706;-;-;-;-;-;-;-;-;-;-;-;-;-;-;-
1512466473790;-;-;10.068115;4.878372;-3.0040436;-;-;-;-;-;-;-;-;-;-;-;-;-;-;-
1512466473810;-;-;12.189377;5.154907;-2.3324738;-;-;-;-;-;-;-;-;-;-;-;-;-;-;-
1512466473831;-;-;14.637436;1.343338;-2.4174652;-;-;-;-;-;-;-;-;-;-;-;-;-;-;-
1512466473851;-;-;15.250351;-2.7962341;-2.1229706;-;-;-;-;-;-;-;-;-;-;-;-;-;-;-
1512466473871;-;-;16.07277;0.71006775;-2.5347748;-;-;-;-;-;-;-;-;-;-;-;-;-;-;-
1512466473892;-;-;18.180862;4.506073;-3.8707428;-;-;-;-;-;-;-;-;-;-;-;-;-;-;-
1512466473913;-;-;15.568787;2.6840973;-2.4653473;-;-;-;-;-;-;-;-;-;-;-;-;-;-;-
1512466473933;-;-;10.386536;0.19651794;-1.9877014;-;-;-;-;-;-;-;-;-;-;-;-;-;-;-
1512466473954;-;-;5.9225464;-1.0747986;-1.5579376;-;-;-;-;-;-;-;-;-;-;-;-;-;-;-
1512466473974;-;-;2.635315;-1.2076874;-0.9115143;-;-;-;-;-;-;-;-;-;-;-;-;-;-;-
1512466473995;-;-;0.82528687;-0.6917267;-0.93066406;-;-;-;-;-;-;-;-;-;-;-;-;-;-;-
1512466474014;-;-;1.1245728;-0.10874939;-0.5416107;-;-;-;-;-;-;-;-;-;-;-;-;-;-;-
1512466474035;-;-;3.8443756;0.38565063;-0.04121399;-;-;-;-;-;-;-;-;-;-;-;-;-;-;-
1512466474055;-;-;6.3068237;0.5855713;-0.4637909;-;-;-;-;-;-;-;-;-;-;-;-;-;-;-
1512466474076;-;-;7.593704;0.9710388;-1.188034;-;-;-;-;-;-;-;-;-;-;-;-;-;-;-
1512466474096;-;-;8.373016;1.3170013;-1.9924927;-;-;-;-;-;-;-;-;-;-;-;-;-;-;-
1512466474117;-;-;8.542999;1.1805267;-2.6365356;-;-;-;-;-;-;-;-;-;-;-;-;-;-;-
1512466474137;-;-;8.220978;0.29588318;-2.4641418;-;-;-;-;-;-;-;-;-;-;-;-;-;-;-
1512466474157;-;-;6.6862946;-0.3146515;-1.4035187;-;-;-;-;-;-;-;-;-;-;-;-;-;-;-
1512466474178;-;-;5.829178;-0.14585876;0.034194946;-;-;-;-;-;-;-;-;-;-;-;-;-;-;-
1512466474199;-;-;5.818405;0.68733215;0.26643372;-;-;-;-;-;-;-;-;-;-;-;-;-;-;-
1512466474218;-;-;6.260132;1.6940918;-0.97735596;-;-;-;-;-;-;-;-;-;-;-;-;-;-;-
1512466474239;-;-;6.9891663;2.0843506;-2.1612854;-;-;-;-;-;-;-;-;-;-;-;-;-;-;-
1512466474259;-;-;7.604477;1.9023895;-2.5383606;-;-;-;-;-;-;-;-;-;-;-;-;-;-;-
1512466474280;-;-;6.874237;1.2272186;-4.250229;-;-;-;-;-;-;-;-;-;-;-;-;-;-;-
1512466474300;-;-;7.4009705;-0.9539032;-8.638794;-;-;-;-;-;-;-;-;-;-;-;-;-;-;-
1512466474321;-;-;11.709335;-3.6354065;-6.6288605;-;-;-;-;-;-;-;-;-;-;-;-;-;-;-
1512466474340;-;-;16.872437;-5.449005;-2.8747559;-;-;-;-;-;-;-;-;-;-;-;-;-;-;-
1512466474360;-;-;19.782578;-4.3357086;-1.1916351;-;-;-;-;-;-;-;-;-;-;-;-;-;-;-
1512466474381;-;-;22.887863;-2.8141937;-3.8791199;-;-;-;-;-;-;-;-;-;-;-;-;-;-;-
1512466474401;-;-;19.483307;-3.7096252;-4.673996;-;-;-;-;-;-;-;-;-;-;-;-;-;-;-
1512466474422;-;-;14.04248;-4.095093;-0.5224457;-;-;-;-;-;-;-;-;-;-;-;-;-;-;-
1512466474442;-;-;12.155853;-4.285431;0.15270996;-;-;-;-;-;-;-;-;-;-;-;-;-;-;-
1512466474463;-;-;9.720947;-3.0021362;-0.39196777;-;-;-;-;-;-;-;-;-;-;-;-;-;-;-
1512466474482;-;-;8.24852;-2.1653595;-1.9697418;-;-;-;-;-;-;-;-;-;-;-;-;-;-;-
1512466474502;-;-;6.62764;-1.3668976;-2.6054077;-;-;-;-;-;-;-;-;-;-;-;-;-;-;-
1512466474523;-;-;5.648407;-0.6941223;-2.828064;-;-;-;-;-;-;-;-;-;-;-;-;-;-;-
1512466474543;-;-;5.616089;-0.066848755;-3.136917;-;-;-;-;-;-;-;-;-;-;-;-;-;-;-
1512466474564;-;-;5.4173737;0.32699585;-3.2063446;-;-;-;-;-;-;-;-;-;-;-;-;-;-;-
1512466474584;-;-;5.073807;0.072021484;-1.9134827;-;-;-;-;-;-;-;-;-;-;-;-;-;-;-
1512466474605;-;-;4.8152313;-0.8186188;-0.9641876;-;-;-;-;-;-;-;-;-;-;-;-;-;-;-
1512466474625;-;-;4.635666;-2.04805;-1.5004883;-;-;-;-;-;-;-;-;-;-;-;-;-;-;-
1512466474646;-;-;5.1037292;-2.6322327;-1.808136;-;-;-;-;-;-;-;-;-;-;-;-;-;-;-
1512466474666;-;-;5.9153595;-2.6633606;-1.2107849;-;-;-;-;-;-;-;-;-;-;-;-;-;-;-
1512466474687;-;-;7.130417;-2.5053406;-1.377182;-;-;-;-;-;-;-;-;-;-;-;-;-;-;-
1512466474706;-;-;8.46759;-2.1186829;-1.629776;-;-;-;-;-;-;-;-;-;-;-;-;-;-;-
1512466474726;-;-;9.404907;-1.4171753;-1.353241;-;-;-;-;-;-;-;-;-;-;-;-;-;-;-
1512466474747;-;-;8.076126;-0.8677063;-0.62060547;-;-;-;-;-;-;-;-;-;-;-;-;-;-;-
1512466474767;-;-;6.8957977;-1.2651367;-0.2171936;-;-;-;-;-;-;-;-;-;-;-;-;-;-;-
1512466474788;-;-;6.917343;-1.7535553;0.5154419;-;-;-;-;-;-;-;-;-;-;-;-;-;-;-
1512466474808;-;-;7.2621;-2.1342316;0.34544373;-;-;-;-;-;-;-;-;-;-;-;-;-;-;-
1512466474828;-;-;7.198654;-2.2324066;-0.8289032;-;-;-;-;-;-;-;-;-;-;-;-;-;-;-
1512466474849;-;-;6.079361;-2.032486;-2.1074066;-;-;-;-;-;-;-;-;-;-;-;-;-;-;-
1512466474869;-;-;4.937332;-1.1418457;-3.8408203;-;-;-;-;-;-;-;-;-;-;-;-;-;-;-
1512466474890;-;-;6.6024933;0.58317566;-5.3838806;-;-;-;-;-;-;-;-;-;-;-;-;-;-;-
1512466474910;-;-;10.926422;3.9254913;-1.6130066;-;-;-;-;-;-;-;-;-;-;-;-;-;-;-
1512466474931;-;-;17.16333;6.37236;-3.097412;-;-;-;-;-;-;-;-;-;-;-;-;-;-;-
1512466474951;-;-;20.436203;-0.43077087;-1.7698364;-;-;-;-;-;-;-;-;-;-;-;-;-;-;-
1512466474972;-;-;17.154938;-3.8041992;-2.1493073;-;-;-;-;-;-;-;-;-;-;-;-;-;-;-
1512466474992;-;-;16.816162;1.7060547;-3.3272552;-;-;-;-;-;-;-;-;-;-;-;-;-;-;-
1512466475013;-;-;18.252686;6.2430725;-4.4776764;-;-;-;-;-;-;-;-;-;-;-;-;-;-;-
1512466475033;-;-;14.989395;3.2000427;-3.3883057;-;-;-;-;-;-;-;-;-;-;-;-;-;-;-
1512466475054;-;-;10.16507;0.43354797;-1.8117218;-;-;-;-;-;-;-;-;-;-;-;-;-;-;-
1512466475075;-;-;6.1033173;-1.1598053;-0.40753174;-;-;-;-;-;-;-;-;-;-;-;-;-;-;-
1512466475094;-;-;2.790924;-1.764328;-0.19325256;-;-;-;-;-;-;-;-;-;-;-;-;-;-;-
1512466475115;-;-;1.3149109;-1.6996918;-0.46020508;-;-;-;-;-;-;-;-;-;-;-;-;-;-;-
1512466475135;-;-;1.0826721;-0.5780029;-0.76187134;-;-;-;-;-;-;-;-;-;-;-;-;-;-;-
1512466475156;-;-;2.2282867;0.54367065;-0.9689636;-;-;-;-;-;-;-;-;-;-;-;-;-;-;-
1512466475177;-;-;5.150421;1.327774;-1.3975372;-;-;-;-;-;-;-;-;-;-;-;-;-;-;-
1512466475197;-;-;5.905792;1.5276947;-1.8129272;-;-;-;-;-;-;-;-;-;-;-;-;-;-;-
1512466475218;-;-;5.2845;1.2966461;-2.053543;-;-;-;-;-;-;-;-;-;-;-;-;-;-;-
1512466475238;-;-;4.827194;0.6825409;-2.184021;-;-;-;-;-;-;-;-;-;-;-;-;-;-;-
1512466475259;-;-;5.165985;-0.1530304;-1.8009491;-;-;-;-;-;-;-;-;-;-;-;-;-;-;-
1512466475279;-;-;6.649185;-1.2196503;-0.9522095;-;-;-;-;-;-;-;-;-;-;-;-;-;-;-
1512466475300;-;-;8.264084;-1.1825409;-0.5715332;-;-;-;-;-;-;-;-;-;-;-;-;-;-;-
1512466475320;-;-;9.627579;-0.02734375;-1.2562714;-;-;-;-;-;-;-;-;-;-;-;-;-;-;-
1512466475340;-;-;10.204575;1.0739899;-3.156067;-;-;-;-;-;-;-;-;-;-;-;-;-;-;-
1512466475361;-;-;10.100433;1.659378;-5.42099;-;-;-;-;-;-;-;-;-;-;-;-;-;-;-
1512466475380;-;-;9.353439;1.6893005;-5.109741;-;-;-;-;-;-;-;-;-;-;-;-;-;-;-
1512466475401;-;-;7.00473;0.94111633;-4.507599;-;-;-;-;-;-;-;-;-;-;-;-;-;-;-
1512466475421;-;-;6.0326843;-0.20211792;-6.2625427;-;-;-;-;-;-;-;-;-;-;-;-;-;-;-
1512466475442;-;-;7.016693;-1.9391174;-6.718643;-;-;-;-;-;-;-;-;-;-;-;-;-;-;-
1512466475461;-;-;9.9077;-5.028824;-6.3487396;-;-;-;-;-;-;-;-;-;-;-;-;-;-;-
1512466475482;-;-;14.825394;-7.381134;-2.0798798;-;-;-;-;-;-;-;-;-;-;-;-;-;-;-
1512466475502;-;-;21.423813;-7.0579224;-1.6992035;-;-;-;-;-;-;-;-;-;-;-;-;-;-;-
1512466475522;-;-;25.570557;-6.1181946;-3.2889557;-;-;-;-;-;-;-;-;-;-;-;-;-;-;-
1512466475543;-;-;20.32367;-2.5005493;-3.3009186;-;-;-;-;-;-;-;-;-;-;-;-;-;-;-
1512466475563;-;-;15.214447;-1.9319305;-1.2407074;-;-;-;-;-;-;-;-;-;-;-;-;-;-;-
1512466475583;-;-;9.540192;-0.5169525;-0.85284424;-;-;-;-;-;-;-;-;-;-;-;-;-;-;-
1512466475604;-;-;7.1483765;-0.19493103;-1.808136;-;-;-;-;-;-;-;-;-;-;-;-;-;-;-
1512466475625;-;-;5.502365;-0.43077087;-1.5088654;-;-;-;-;-;-;-;-;-;-;-;-;-;-;-
1512466475645;-;-;3.7282562;-0.9036255;-0.7678528;-;-;-;-;-;-;-;-;-;-;-;-;-;-;-
1512466475666;-;-;3.4828491;-1.2052917;-1.0767059;-;-;-;-;-;-;-;-;-;-;-;-;-;-;-
1512466475686;-;-;3.430191;-1.0532532;-1.9326324;-;-;-;-;-;-;-;-;-;-;-;-;-;-;-
1512466475707;-;-;4.134079;-0.5432892;-2.036789;-;-;-;-;-;-;-;-;-;-;-;-;-;-;-
1512466475727;-;-;5.6783447;-0.74679565;-1.2048035;-;-;-;-;-;-;-;-;-;-;-;-;-;-;-
1512466475747;-;-;6.9855804;-1.427948;-1.2658539;-;-;-;-;-;-;-;-;-;-;-;-;-;-;-
1512466475768;-;-;8.036621;-2.408371;-1.8332825;-;-;-;-;-;-;-;-;-;-;-;-;-;-;-
1512466475787;-;-;8.944031;-3.5408325;-2.1780396;-;-;-;-;-;-;-;-;-;-;-;-;-;-;-
1512466475808;-;-;9.6072235;-3.9514313;-0.79299927;-;-;-;-;-;-;-;-;-;-;-;-;-;-;-
1512466475827;-;-;9.626373;-3.649765;0.81710815;-;-;-;-;-;-;-;-;-;-;-;-;-;-;-
1512466475848;-;-;8.796783;-2.6154785;0.9344177;-;-;-;-;-;-;-;-;-;-;-;-;-;-;-
1512466475868;-;-;7.6343994;-2.7232056;-0.20881653;-;-;-;-;-;-;-;-;-;-;-;-;-;-;-
1512466475889;-;-;6.4325104;-2.7040558;-0.8312988;-;-;-;-;-;-;-;-;-;-;-;-;-;-;-
1512466475909;-;-;5.9704285;-1.8696747;-0.8312988;-;-;-;-;-;-;-;-;-;-;-;-;-;-;-
1512466475929;-;-;6.094925;-0.94192505;-1.2119751;-;-;-;-;-;-;-;-;-;-;-;-;-;-;-
1512466475949;-;-;6.7162323;-0.46548462;-1.7674408;-;-;-;-;-;-;-;-;-;-;-;-;-;-;-
1512466475970;-;-;7.198654;-0.3936615;-2.2690277;-;-;-;-;-;-;-;-;-;-;-;-;-;-;-
1512466475991;-;-;7.69545;-0.85095215;-2.0391846;-;-;-;-;-;-;-;-;-;-;-;-;-;-;-
1512466476011;-;-;9.233734;-1.7655334;-1.2838135;-;-;-;-;-;-;-;-;-;-;-;-;-;-;-
1512466476032;-;-;10.451187;-2.2754974;-0.53082275;-;-;-;-;-;-;-;-;-;-;-;-;-;-;-
1512466476052;-;-;9.838257;-2.4371033;-1.0336151;-;-;-;-;-;-;-;-;-;-;-;-;-;-;-
1512466476073;-;-;8.262878;-2.4646454;-2.3468323;-;-;-;-;-;-;-;-;-;-;-;-;-;-;-
1512466476093;-;-;7.4416656;-1.4530945;-2.986084;-;-;-;-;-;-;-;-;-;-;-;-;-;-;-
1512466476113;-;-;7.2190094;0.5951538;-4.171219;-;-;-;-;-;-;-;-;-;-;-;-;-;-;-
1512466476134;-;-;8.576523;2.631424;-3.0986176;-;-;-;-;-;-;-;-;-;-;-;-;-;-;-
1512466476153;-;-;11.058105;3.070755;-1.5842743;-;-;-;-;-;-;-;-;-;-;-;-;-;-;-
1512466476174;-;-;13.9036255;1.659378;-2.5754852;-;-;-;-;-;-;-;-;-;-;-;-;-;-;-
1512466476195;-;-;19.198395;1.2727051;-5.5131683;-;-;-;-;-;-;-;-;-;-;-;-;-;-;-
1512466476215;-;-;23.952087;2.105896;-3.8288422;-;-;-;-;-;-;-;-;-;-;-;-;-;-;-
1512466476235;-;-;16.528854;0.73521423;-2.5323792;-;-;-;-;-;-;-;-;-;-;-;-;-;-;-
1512466476256;-;-;11.389709;-1.2830963;-1.4633789;-;-;-;-;-;-;-;-;-;-;-;-;-;-;-
1512466476275;-;-;8.326324;-2.5316772;-0.61343384;-;-;-;-;-;-;-;-;-;-;-;-;-;-;-
1512466476296;-;-;6.0925293;-2.324585;-0.9258728;-;-;-;-;-;-;-;-;-;-;-;-;-;-;-
1512466476319;-;-;4.122101;-1.4578705;-0.71517944;-;-;-;-;-;-;-;-;-;-;-;-;-;-;-
1512466476339;-;-;3.5235596;-0.46788025;-0.10107422;-;-;-;-;-;-;-;-;-;-;-;-;-;-;-
1512466476360;-;-;3.3535767;0.541275;-0.2962036;-;-;-;-;-;-;-;-;-;-;-;-;-;-;-
1512466476381;-;-;3.2697754;0.7759094;-0.882782;-;-;-;-;-;-;-;-;-;-;-;-;-;-;-
1512466476401;-;-;4.2944946;0.44432068;-1.143753;-;-;-;-;-;-;-;-;-;-;-;-;-;-;-
1512466476421;-;-;6.3511047;0.07321167;-1.3472595;-;-;-;-;-;-;-;-;-;-;-;-;-;-;-
1512466476442;-;-;7.5948944;0.36291504;-1.5735016;-;-;-;-;-;-;-;-;-;-;-;-;-;-;-
1512466476462;-;-;8.164719;0.8237915;-2.515625;-;-;-;-;-;-;-;-;-;-;-;-;-;-;-
1512466476483;-;-;7.8570557;1.4869843;-2.029602;-;-;-;-;-;-;-;-;-;-;-;-;-;-;-
1512466476504;-;-;7.02269;2.1789093;-0.17408752;-;-;-;-;-;-;-;-;-;-;-;-;-;-;-
1512466476524;-;-;6.8957977;2.117859;0.08088684;-;-;-;-;-;-;-;-;-;-;-;-;-;-;-
1512466476545;-;-;7.51709;2.2268066;-0.9761505;-;-;-;-;-;-;-;-;-;-;-;-;-;-;-
1512466476565;-;-;8.175491;2.9534454;-1.590271;-;-;-;-;-;-;-;-;-;-;-;-;-;-;-
1512466476586;-;-;9.111618;4.149338;-1.025238;-;-;-;-;-;-;-;-;-;-;-;-;-;-;-
1512466476607;-;-;9.675461;4.186447;-1.9398193;-;-;-;-;-;-;-;-;-;-;-;-;-;-;-
1512466476627;-;-;9.487518;0.97343445;-6.1787567;-;-;-;-;-;-;-;-;-;-;-;-;-;-;-
1512466476647;-;-;10.354218;-4.4027405;-7.539856;-;-;-;-;-;-;-;-;-;-;-;-;-;-;-
1512466476668;-;-;11.296326;-9.239029;-3.7833557;-;-;-;-;-;-;-;-;-;-;-;-;-;-;-
1512466476687;-;-;14.244797;-9.181564;-1.4837189;-;-;-;-;-;-;-;-;-;-;-;-;-;-;-
1512466476707;-;-;13.700119;-4.7510986;-1.9062958;-;-;-;-;-;-;-;-;-;-;-;-;-;-;-
1512466476728;-;-;13.752777;-3.6210327;-1.7267303;-;-;-;-;-;-;-;-;-;-;-;-;-;-;-
1512466476750;-;-;20.338043;-7.298538;-5.175583;-;-;-;-;-;-;-;-;-;-;-;-;-;-;-
1512466476769;-;-;22.613724;-6.6281586;-4.3878937;-;-;-;-;-;-;-;-;-;-;-;-;-;-;-
1512466476789;-;-;13.198532;-3.35289;-3.456543;-;-;-;-;-;-;-;-;-;-;-;-;-;-;-
1512466476810;-;-;9.051773;-2.1390228;-3.1584625;-;-;-;-;-;-;-;-;-;-;-;-;-;-;-
1512466476830;-;-;4.802063;-0.98501587;-2.6508942;-;-;-;-;-;-;-;-;-;-;-;-;-;-;-
1512466476851;-;-;2.2893524;-0.5528717;-2.3228912;-;-;-;-;-;-;-;-;-;-;-;-;-;-;-
1512466476871;-;-;1.3388519;-1.131073;-1.2706451;-;-;-;-;-;-;-;-;-;-;-;-;-;-;-
1512466476892;-;-;3.5894012;-2.3497162;-0.6828613;-;-;-;-;-;-;-;-;-;-;-;-;-;-;-
1512466476912;-;-;6.218231;-2.7112427;-1.203598;-;-;-;-;-;-;-;-;-;-;-;-;-;-;-
1512466476932;-;-;6.2864685;-2.5615997;-2.1732483;-;-;-;-;-;-;-;-;-;-;-;-;-;-;-
1512466476953;-;-;6.288864;-2.0815735;-1.8416595;-;-;-;-;-;-;-;-;-;-;-;-;-;-;-
1512466476973;-;-;7.2154236;-1.4530945;-1.3975372;-;-;-;-;-;-;-;-;-;-;-;-;-;-;-
1512466476993;-;-;7.869034;-1.4363251;-1.045578;-;-;-;-;-;-;-;-;-;-;-;-;-;-;-
1512466477014;-;-;8.130005;-1.664978;-1.5531616;-;-;-;-;-;-;-;-;-;-;-;-;-;-;-
1512466477034;-;-;9.14035;-2.526886;-1.2670441;-;-;-;-;-;-;-;-;-;-;-;-;-;-;-
1512466477055;-;-;10.749252;-3.7227936;-0.372818;-;-;-;-;-;-;-;-;-;-;-;-;-;-;-
1512466477075;-;-;11.905655;-4.5332336;-0.53082275;-;-;-;-;-;-;-;-;-;-;-;-;-;-;-
1512466477096;-;-;12.40126;-4.00531;0.32987976;-;-;-;-;-;-;-;-;-;-;-;-;-;-;-
1512466477116;-;-;12.254013;-1.522522;-0.25909424;-;-;-;-;-;-;-;-;-;-;-;-;-;-;-
1512466477137;-;-;13.005798;-1.0448761;-5.7274475;-;-;-;-;-;-;-;-;-;-;-;-;-;-;-
1512466477156;-;-;15.8333435;-0.625885;-6.9245453;-;-;-;-;-;-;-;-;-;-;-;-;-;-;-
1512466477177;-;-;12.947128;-1.2687378;-8.258118;-;-;-;-;-;-;-;-;-;-;-;-;-;-;-
1512466477196;-;-;8.325134;-2.2180328;-7.2968445;-;-;-;-;-;-;-;-;-;-;-;-;-;-;-
1512466477217;-;-;5.553833;-1.7260284;-5.278534;-;-;-;-;-;-;-;-;-;-;-;-;-;-;-
1512466477237;-;-;4.9911957;-0.7910919;-4.3447876;-;-;-;-;-;-;-;-;-;-;-;-;-;-;-
1512466477257;-;-;5.142044;-0.1769867;-2.1624756;-;-;-;-;-;-;-;-;-;-;-;-;-;-;-
1512466477278;-;-;6.000366;-0.78630066;-1.7183533;-;-;-;-;-;-;-;-;-;-;-;-;-;-;-
1512466477298;-;-;8.720169;-4.24234;-3.231491;-;-;-;-;-;-;-;-;-;-;-;-;-;-;-
1512466477319;-;-;10.430832;-5.7422943;-3.8815155;-;-;-;-;-;-;-;-;-;-;-;-;-;-;-
1512466477339;-;-;11.475891;-3.5085144;-4.4513397;-;-;-;-;-;-;-;-;-;-;-;-;-;-;-
1512466477360;-;-;9.440826;-0.8533478;-4.5028076;-;-;-;-;-;-;-;-;-;-;-;-;-;-;-
1512466477380;-;-;7.7493286;0.8297882;-4.3591614;-;-;-;-;-;-;-;-;-;-;-;-;-;-;-
1512466477401;-;-;6.1907043;1.813797;-3.812088;-;-;-;-;-;-;-;-;-;-;-;-;-;-;-
1512466477420;-;-;5.941696;1.4798126;-3.488861;-;-;-;-;-;-;-;-;-;-;-;-;-;-;-
1512466477441;-;-;6.418152;0.9901886;-3.3332367;-;-;-;-;-;-;-;-;-;-;-;-;-;-;-
1512466477461;-;-;8.284424;0.4000244;-3.3440094;-;-;-;-;-;-;-;-;-;-;-;-;-;-;-
1512466477482;-;-;8.940445;0.512558;-3.2422638;-;-;-;-;-;-;-;-;-;-;-;-;-;-;-
1512466477502;-;-;8.264084;0.88723755;-2.7981415;-;-;-;-;-;-;-;-;-;-;-;-;-;-;-
1512466477523;-;-;7.1232452;0.9099884;-2.0427704;-;-;-;-;-;-;-;-;-;-;-;-;-;-;-
1512466477542;-;-;6.6419983;0.39164734;-1.9146729;-;-;-;-;-;-;-;-;-;-;-;-;-;-;-
1512466477563;-;-;6.9161377;0.1043396;-1.9398193;-;-;-;-;-;-;-;-;-;-;-;-;-;-;-
1512466477584;-;-;7.851074;0.56163025;-1.8979187;-;-;-;-;-;-;-;-;-;-;-;-;-;-;-
1512466477603;-;-;8.558563;1.1051178;-2.709549;-;-;-;-;-;-;-;-;-;-;-;-;-;-;-
1512466477624;-;-;8.42688;1.7790833;-3.3344421;-;-;-;-;-;-;-;-;-;-;-;-;-;-;-
1512466477644;-;-;8.56575;1.7994385;-2.0307922;-;-;-;-;-;-;-;-;-;-;-;-;-;-;-
1512466477665;-;-;9.966354;0.043289185;-0.788208;-;-;-;-;-;-;-;-;-;-;-;-;-;-;-
1512466477686;-;-;11.358582;-1.8648987;-1.1305847;-;-;-;-;-;-;-;-;-;-;-;-;-;-;-
1512466477706;-;-;10.236893;-2.1294556;-4.2801514;-;-;-;-;-;-;-;-;-;-;-;-;-;-;-
1512466477726;-;-;12.526947;-4.345291;-7.074188;-;-;-;-;-;-;-;-;-;-;-;-;-;-;-
1512466477747;-;-;15.730392;-6.6317444;-6.880249;-;-;-;-;-;-;-;-;-;-;-;-;-;-;-
1512466477767;-;-;12.317459;-5.557953;-8.587326;-;-;-;-;-;-;-;-;-;-;-;-;-;-;-
1512466477788;-;-;7.611664;-5.01326;-5.839966;-;-;-;-;-;-;-;-;-;-;-;-;-;-;-
1512466477808;-;-;3.8934631;-3.3074036;-3.9210205;-;-;-;-;-;-;-;-;-;-;-;-;-;-;-
1512466477829;-;-;4.4177856;-1.9247437;-5.1336823;-;-;-;-;-;-;-;-;-;-;-;-;-;-;-
1512466477849;-;-;6.1128845;-0.3194275;-5.0762177;-;-;-;-;-;-;-;-;-;-;-;-;-;-;-
1512466477869;-;-;8.358643;1.540863;-5.362335;-;-;-;-;-;-;-;-;-;-;-;-;-;-;-
1512466477890;-;-;10.044159;2.0364532;-5.511963;-;-;-;-;-;-;-;-;-;-;-;-;-;-;-
1512466477911;-;-;11.736862;0.635849;-5.0558777;-;-;-;-;-;-;-;-;-;-;-;-;-;-;-
1512466477931;-;-;12.04332;-1.3561249;-4.5375214;-;-;-;-;-;-;-;-;-;-;-;-;-;-;-
1512466477952;-;-;10.341049;-2.902771;-3.7282867;-;-;-;-;-;-;-;-;-;-;-;-;-;-;-
1512466477972;-;-;7.4320984;-3.0141144;-2.7083588;-;-;-;-;-;-;-;-;-;-;-;-;-;-;-
1512466477992;-;-;4.884659;-2.818985;-2.0236206;-;-;-;-;-;-;-;-;-;-;-;-;-;-;-
1512466478013;-;-;3.3188477;-2.3940125;-1.571106;-;-;-;-;-;-;-;-;-;-;-;-;-;-;-
1512466478032;-;-;3.1153412;-1.5847626;-1.2885895;-;-;-;-;-;-;-;-;-;-;-;-;-;-;-
1512466478053;-;-;4.283722;-0.6941223;-1.6082153;-;-;-;-;-;-;-;-;-;-;-;-;-;-;-
1512466478073;-;-;5.905792;0.021743774;-1.7219391;-;-;-;-;-;-;-;-;-;-;-;-;-;-;-
1512466478094;-;-;7.4261017;0.34854126;-1.3903503;-;-;-;-;-;-;-;-;-;-;-;-;-;-;-
1512466478114;-;-;8.923676;-0.15782166;-1.4262543;-;-;-;-;-;-;-;-;-;-;-;-;-;-;-
1512466478135;-;-;9.967545;-0.933548;-1.7087708;-;-;-;-;-;-;-;-;-;-;-;-;-;-;-
1512466478155;-;-;10.810303;-1.6398315;-1.9051056;-;-;-;-;-;-;-;-;-;-;-;-;-;-;-
1512466478176;-;-;11.337036;-1.6506042;-1.693222;-;-;-;-;-;-;-;-;-;-;-;-;-;-;-
1512466478196;-;-;10.707367;-1.7679291;-1.7039948;-;-;-;-;-;-;-;-;-;-;-;-;-;-;-
1512466478217;-;-;10.336258;-2.8536987;0.15510559;-;-;-;-;-;-;-;-;-;-;-;-;-;-;-
1512466478238;-;-;10.032196;-5.198822;-3.9317932;-;-;-;-;-;-;-;-;-;-;-;-;-;-;-
1512466478257;-;-;15.484985;-5.322113;-8.078552;-;-;-;-;-;-;-;-;-;-;-;-;-;-;-
1512466478278;-;-;13.890457;-2.087555;-8.436478;-;-;-;-;-;-;-;-;-;-;-;-;-;-;-
1512466478298;-;-;11.601593;-0.119522095;-6.9065857;-;-;-;-;-;-;-;-;-;-;-;-;-;-;-
1512466478319;-;-;8.398148;1.9131622;-5.02594;-;-;-;-;-;-;-;-;-;-;-;-;-;-;-
1512466478339;-;-;5.826782;3.0755463;-4.7506104;-;-;-;-;-;-;-;-;-;-;-;-;-;-;-
1512466478360;-;-;4.675171;3.259903;-4.7350464;-;-;-;-;-;-;-;-;-;-;-;-;-;-;-
1512466478379;-;-;3.9736633;1.532486;-2.6999817;-;-;-;-;-;-;-;-;-;-;-;-;-;-;-
1512466478399;-;-;5.9153595;-0.4379425;-1.8955231;-;-;-;-;-;-;-;-;-;-;-;-;-;-;-
1512466478419;-;-;10.04776;-2.7148285;-2.3468323;-;-;-;-;-;-;-;-;-;-;-;-;-;-;-
1512466478441;-;-;13.56723;-4.0460052;-3.1069946;-;-;-;-;-;-;-;-;-;-;-;-;-;-;-
1512466478460;-;-;15.233597;-2.6896973;-4.7625885;-;-;-;-;-;-;-;-;-;-;-;-;-;-;-
1512466478481;-;-;11.890091;-0.6031494;-4.627304;-;-;-;-;-;-;-;-;-;-;-;-;-;-;-
1512466478501;-;-;9.051773;0.80584717;-4.076645;-;-;-;-;-;-;-;-;-;-;-;-;-;-;-
1512466478521;-;-;5.6460114;1.1637726;-2.9298248;-;-;-;-;-;-;-;-;-;-;-;-;-;-;-
1512466478542;-;-;2.6999512;0.08998108;-2.1888123;-;-;-;-;-;-;-;-;-;-;-;-;-;-;-
1512466478563;-;-;3.129715;-0.7779236;-1.6704712;-;-;-;-;-;-;-;-;-;-;-;-;-;-;-
1512466478583;-;-;6.015915;-0.5145569;-1.713562;-;-;-;-;-;-;-;-;-;-;-;-;-;-;-
1512466478604;-;-;7.858261;-0.1015625;-2.4581604;-;-;-;-;-;-;-;-;-;-;-;-;-;-;-
1512466478625;-;-;8.983536;0.11869812;-2.601822;-;-;-;-;-;-;-;-;-;-;-;-;-;-;-
1512466478645;-;-;9.479141;0.67056274;-2.3408508;-;-;-;-;-;-;-;-;-;-;-;-;-;-;-
1512466478665;-;-;8.868607;1.1769409;-2.3468323;-;-;-;-;-;-;-;-;-;-;-;-;-;-;-
1512466478686;-;-;7.6032715;1.4917755;-2.5431519;-;-;-;-;-;-;-;-;-;-;-;-;-;-;-
1512466478706;-;-;6.857483;1.5205078;-2.4318237;-;-;-;-;-;-;-;-;-;-;-;-;-;-;-
1512466478726;-;-;6.857483;1.4786072;-2.2199402;-;-;-;-;-;-;-;-;-;-;-;-;-;-;-
1512466478747;-;-;8.03064;1.051239;-1.2885895;-;-;-;-;-;-;-;-;-;-;-;-;-;-;-
1512466478768;-;-;9.438431;0.045684814;-0.8360901;-;-;-;-;-;-;-;-;-;-;-;-;-;-;-
1512466478788;-;-;10.198593;-1.4219666;-0.34169006;-;-;-;-;-;-;-;-;-;-;-;-;-;-;-
1512466478809;-;-;10.06572;-1.2914734;-3.7342682;-;-;-;-;-;-;-;-;-;-;-;-;-;-;-
1512466478829;-;-;10.4535675;1.501358;-7.6691437;-;-;-;-;-;-;-;-;-;-;-;-;-;-;-
1512466478850;-;-;13.17099;0.31622314;-7.8295593;-;-;-;-;-;-;-;-;-;-;-;-;-;-;-
1512466478871;-;-;14.070023;-2.0109406;-7.165161;-;-;-;-;-;-;-;-;-;-;-;-;-;-;-
1512466478891;-;-;11.170639;-3.9286957;-5.3994446;-;-;-;-;-;-;-;-;-;-;-;-;-;-;-
1512466478912;-;-;7.8678436;-4.250717;-4.496826;-;-;-;-;-;-;-;-;-;-;-;-;-;-;-
1512466478932;-;-;6.256546;-1.5380859;-3.259018;-;-;-;-;-;-;-;-;-;-;-;-;-;-;-
1512466478951;-;-;4.6153107;1.5109406;-2.381546;-;-;-;-;-;-;-;-;-;-;-;-;-;-;-
1512466478971;-;-;3.7055206;3.738739;-2.9537659;-;-;-;-;-;-;-;-;-;-;-;-;-;-;-
1512466478992;-;-;6.005142;3.5400238;-4.8930664;-;-;-;-;-;-;-;-;-;-;-;-;-;-;-
1512466479012;-;-;10.247665;1.1494141;-4.714691;-;-;-;-;-;-;-;-;-;-;-;-;-;-;-
1512466479033;-;-;12.413223;-1.2244415;-4.615341;-;-;-;-;-;-;-;-;-;-;-;-;-;-;-
1512466479053;-;-;11.975082;-2.7651062;-4.4154205;-;-;-;-;-;-;-;-;-;-;-;-;-;-;-
1512466479074;-;-;9.783203;-3.0464325;-3.4278107;-;-;-;-;-;-;-;-;-;-;-;-;-;-;-
1512466479094;-;-;5.727417;-1.8756714;-2.0391846;-;-;-;-;-;-;-;-;-;-;-;-;-;-;-
1512466479114;-;-;2.7478333;-0.35055542;-1.6477203;-;-;-;-;-;-;-;-;-;-;-;-;-;-;-
1512466479134;-;-;2.188797;0.6968994;-2.1612854;-;-;-;-;-;-;-;-;-;-;-;-;-;-;-
1512466479155;-;-;4.047882;0.9889984;-2.6353302;-;-;-;-;-;-;-;-;-;-;-;-;-;-;-
1512466479176;-;-;6.256546;0.79626465;-2.6209717;-;-;-;-;-;-;-;-;-;-;-;-;-;-;-
1512466479196;-;-;7.18309;0.43473816;-2.591034;-;-;-;-;-;-;-;-;-;-;-;-;-;-;-
1512466479217;-;-;7.3494873;-0.10874939;-2.1888123;-;-;-;-;-;-;-;-;-;-;-;-;-;-;-
1512466479237;-;-;7.9791718;-1.3154297;-1.2550812;-;-;-;-;-;-;-;-;-;-;-;-;-;-;-
1512466479258;-;-;8.517868;-2.111496;-0.9174957;-;-;-;-;-;-;-;-;-;-;-;-;-;-;-
1512466479278;-;-;7.6763;-2.04805;-1.6549072;-;-;-;-;-;-;-;-;-;-;-;-;-;-;-
1512466479299;-;-;6.663559;-1.9486847;-1.9494019;-;-;-;-;-;-;-;-;-;-;-;-;-;-;-
1512466479318;-;-;7.10289;-1.6757507;-0.83010864;-;-;-;-;-;-;-;-;-;-;-;-;-;-;-
1512466479339;-;-;7.9743805;-1.0329132;-0.491333;-;-;-;-;-;-;-;-;-;-;-;-;-;-;-
1512466479359;-;-;8.447235;-1.0173492;-1.0204468;-;-;-;-;-;-;-;-;-;-;-;-;-;-;-
1512466479380;-;-;8.447235;-1.9319305;-3.1177673;-;-;-;-;-;-;-;-;-;-;-;-;-;-;-
1512466479400;-;-;7.509903;-2.2096558;-5.9728546;-;-;-;-;-;-;-;-;-;-;-;-;-;-;-
1512466479420;-;-;7.9001617;-1.1226959;-7.8618774;-;-;-;-;-;-;-;-;-;-;-;-;-;-;-
1512466479441;-;-;9.999878;1.3732605;-5.255783;-;-;-;-;-;-;-;-;-;-;-;-;-;-;-
1512466479461;-;-;13.710892;2.371643;-5.0211487;-;-;-;-;-;-;-;-;-;-;-;-;-;-;-
1512466479481;-;-;19.515625;1.9287262;-3.468521;-;-;-;-;-;-;-;-;-;-;-;-;-;-;-
1512466479502;-;-;20.548721;2.1406097;-7.531479;-;-;-;-;-;-;-;-;-;-;-;-;-;-;-
1512466479522;-;-;17.169312;1.2439728;-5.9010315;-;-;-;-;-;-;-;-;-;-;-;-;-;-;-
1512466479542;-;-;12.425201;-0.29190063;-3.9653168;-;-;-;-;-;-;-;-;-;-;-;-;-;-;-
1512466479563;-;-;7.3782196;-0.60913086;-2.547943;-;-;-;-;-;-;-;-;-;-;-;-;-;-;-
1512466479584;-;-;5.3383636;-0.9060211;-1.4944916;-;-;-;-;-;-;-;-;-;-;-;-;-;-;-
1512466479603;-;-;3.929367;0.44911194;-1.1150208;-;-;-;-;-;-;-;-;-;-;-;-;-;-;-
1512466479624;-;-;2.813675;1.9766083;-0.8001709;-;-;-;-;-;-;-;-;-;-;-;-;-;-;-
1512466479644;-;-;2.173233;2.1430054;-0.6900482;-;-;-;-;-;-;-;-;-;-;-;-;-;-;-
1512466479665;-;-;3.0626678;0.2803192;-1.179657;-;-;-;-;-;-;-;-;-;-;-;-;-;-;-
1512466479686;-;-;5.3407593;-1.230423;-1.3364716;-;-;-;-;-;-;-;-;-;-;-;-;-;-;-
1512466479706;-;-;7.8199463;-1.5727997;-1.7698364;-;-;-;-;-;-;-;-;-;-;-;-;-;-;-
1512466479727;-;-;8.622009;-0.4834442;-2.3755646;-;-;-;-;-;-;-;-;-;-;-;-;-;-;-
1512466479746;-;-;7.590103;0.55804443;-2.685608;-;-;-;-;-;-;-;-;-;-;-;-;-;-;-
1512466479767;-;-;5.889023;1.0249176;-2.5263977;-;-;-;-;-;-;-;-;-;-;-;-;-;-;-
1512466479787;-;-;4.6236877;1.0320892;-1.7171631;-;-;-;-;-;-;-;-;-;-;-;-;-;-;-
1512466479808;-;-;4.3974457;1.2140503;-0.62779236;-;-;-;-;-;-;-;-;-;-;-;-;-;-;-
1512466479827;-;-;4.884659;0.6442261;-1.0360107;-;-;-;-;-;-;-;-;-;-;-;-;-;-;-
1512466479848;-;-;6.9065704;-0.014175415;-3.1237488;-;-;-;-;-;-;-;-;-;-;-;-;-;-;-
1512466479868;-;-;8.440048;0.82618713;-4.5423126;-;-;-;-;-;-;-;-;-;-;-;-;-;-;-
1512466479889;-;-;7.8606567;1.5707855;-5.6843567;-;-;-;-;-;-;-;-;-;-;-;-;-;-;-
1512466479909;-;-;5.6148987;1.5252991;-7.5733795;-;-;-;-;-;-;-;-;-;-;-;-;-;-;-
1512466479931;-;-;6.908966;-0.41760254;-8.54422;-;-;-;-;-;-;-;-;-;-;-;-;-;-;-
1512466479951;-;-;12.938751;-4.609848;-4.7027283;-;-;-;-;-;-;-;-;-;-;-;-;-;-;-
1512466479971;-;-;15.883621;-7.2889557;-5.989609;-;-;-;-;-;-;-;-;-;-;-;-;-;-;-
1512466479992;-;-;28.143127;-10.112915;-0.709198;-;-;-;-;-;-;-;-;-;-;-;-;-;-;-
1512466480013;-;-;31.01738;-7.80011;-5.1983337;-;-;-;-;-;-;-;-;-;-;-;-;-;-;-
1512466480033;-;-;16.676102;-0.7264557;-2.4246368;-;-;-;-;-;-;-;-;-;-;-;-;-;-;-
1512466480053;-;-;10.5325775;-0.26197815;-0.86961365;-;-;-;-;-;-;-;-;-;-;-;-;-;-;-
1512466480074;-;-;5.806427;-1.5692139;-1.8213043;-;-;-;-;-;-;-;-;-;-;-;-;-;-;-
1512466480094;-;-;4.4082184;-2.4885864;-1.1365662;-;-;-;-;-;-;-;-;-;-;-;-;-;-;-
1512466480115;-;-;4.9301453;-3.58992;-1.4310455;-;-;-;-;-;-;-;-;-;-;-;-;-;-;-
1512466480138;-;-;5.5514526;-3.2056427;-3.0926208;-;-;-;-;-;-;-;-;-;-;-;-;-;-;-
1512466480158;-;-;5.849518;-1.5572357;-3.2171173;-;-;-;-;-;-;-;-;-;-;-;-;-;-;-
1512466480179;-;-;4.6703796;-0.14225769;-2.3743591;-;-;-;-;-;-;-;-;-;-;-;-;-;-;-
1512466480199;-;-;3.3487854;0.43832397;-1.8237;-;-;-;-;-;-;-;-;-;-;-;-;-;-;-
1512466480220;-;-;3.184784;0.117507935;-1.729126;-;-;-;-;-;-;-;-;-;-;-;-;-;-;-
1512466480240;-;-;4.932541;-0.6701813;-1.7398987;-;-;-;-;-;-;-;-;-;-;-;-;-;-;-
1512466480261;-;-;6.0937347;-1.803833;-2.148117;-;-;-;-;-;-;-;-;-;-;-;-;-;-;-
1512466480281;-;-;6.378647;-2.4670258;-2.570694;-;-;-;-;-;-;-;-;-;-;-;-;-;-;-
1512466480301;-;-;7.3530884;-1.5763855;-2.6269531;-;-;-;-;-;-;-;-;-;-;-;-;-;-;-
1512466480322;-;-;7.645172;-0.6929321;-1.1353607;-;-;-;-;-;-;-;-;-;-;-;-;-;-;-
1512466480343;-;-;7.513489;-1.3238068;0.5345917;-;-;-;-;-;-;-;-;-;-;-;-;-;-;-
1512466480363;-;-;7.064575;-2.182129;0.094055176;-;-;-;-;-;-;-;-;-;-;-;-;-;-;-
1512466480384;-;-;7.336319;-2.9865723;-0.8253174;-;-;-;-;-;-;-;-;-;-;-;-;-;-;-
1512466480403;-;-;8.740524;-3.0093231;-3.1788177;-;-;-;-;-;-;-;-;-;-;-;-;-;-;-
1512466480423;-;-;8.039017;-2.0181274;-5.0714264;-;-;-;-;-;-;-;-;-;-;-;-;-;-;-
1512466480444;-;-;8.198242;-0.9874115;-7.307617;-;-;-;-;-;-;-;-;-;-;-;-;-;-;-
1512466480464;-;-;10.545746;0.44911194;-5.6101227;-;-;-;-;-;-;-;-;-;-;-;-;-;-;-
1512466480485;-;-;13.713287;1.7443695;-1.8440552;-;-;-;-;-;-;-;-;-;-;-;-;-;-;-
1512466480506;-;-;16.514496;1.1865234;-0.5212555;-;-;-;-;-;-;-;-;-;-;-;-;-;-;-
1512466480525;-;-;16.108673;1.2571411;-2.796936;-;-;-;-;-;-;-;-;-;-;-;-;-;-;-
1512466480546;-;-;20.715118;1.5552216;-9.608444;-;-;-;-;-;-;-;-;-;-;-;-;-;-;-
1512466480566;-;-;17.171707;-1.4004211;-3.9461517;-;-;-;-;-;-;-;-;-;-;-;-;-;-;-
1512466480587;-;-;11.11438;-1.6350555;-1.0479736;-;-;-;-;-;-;-;-;-;-;-;-;-;-;-
1512466480607;-;-;8.24852;-1.1203003;-1.3556366;-;-;-;-;-;-;-;-;-;-;-;-;-;-;-
1512466480627;-;-;5.897415;0.45628357;-1.6154022;-;-;-;-;-;-;-;-;-;-;-;-;-;-;-
1512466480648;-;-;2.8184662;2.4015808;-1.8344727;-;-;-;-;-;-;-;-;-;-;-;-;-;-;-
1512466480668;-;-;1.5986176;2.648178;-1.8775635;-;-;-;-;-;-;-;-;-;-;-;-;-;-;-
1512466480689;-;-;1.7051544;1.6785278;-1.5280151;-;-;-;-;-;-;-;-;-;-;-;-;-;-;-
1512466480709;-;-;3.5618591;0.15701294;-1.1126251;-;-;-;-;-;-;-;-;-;-;-;-;-;-;-
1512466480730;-;-;6.0889435;-1.3872528;-1.6357574;-;-;-;-;-;-;-;-;-;-;-;-;-;-;-
1512466480751;-;-;8.144363;-2.056427;-2.7167358;-;-;-;-;-;-;-;-;-;-;-;-;-;-;-
1512466480771;-;-;8.835098;-1.4028168;-3.2087402;-;-;-;-;-;-;-;-;-;-;-;-;-;-;-
1512466480790;-;-;8.225769;-0.18296814;-2.7143402;-;-;-;-;-;-;-;-;-;-;-;-;-;-;-
1512466480811;-;-;7.1998596;0.7986603;-2.266632;-;-;-;-;-;-;-;-;-;-;-;-;-;-;-
1512466480831;-;-;5.741791;1.576767;-1.9769287;-;-;-;-;-;-;-;-;-;-;-;-;-;-;-
1512466480852;-;-;5.1719666;2.2555237;-1.8751678;-;-;-;-;-;-;-;-;-;-;-;-;-;-;-
1512466480871;-;-;5.941696;3.0899048;-2.021225;-;-;-;-;-;-;-;-;-;-;-;-;-;-;-
1512466480892;-;-;6.039856;3.3616486;-4.0395355;-;-;-;-;-;-;-;-;-;-;-;-;-;-;-
1512466480912;-;-;6.29126;1.9371033;-3.8851013;-;-;-;-;-;-;-;-;-;-;-;-;-;-;-
1512466480933;-;-;5.8076324;0.4862213;-2.601822;-;-;-;-;-;-;-;-;-;-;-;-;-;-;-
1512466480953;-;-;5.7250214;-0.6330719;-4.298111;-;-;-;-;-;-;-;-;-;-;-;-;-;-;-
1512466480974;-;-;7.7972107;-2.1701508;-6.112915;-;-;-;-;-;-;-;-;-;-;-;-;-;-;-
1512466480994;-;-;12.629898;-4.554779;-5.898636;-;-;-;-;-;-;-;-;-;-;-;-;-;-;-
1512466481014;-;-;16.902359;-5.4969025;-3.3344421;-;-;-;-;-;-;-;-;-;-;-;-;-;-;-
1512466481035;-;-;24.155594;-6.7969513;-7.465637;-;-;-;-;-;-;-;-;-;-;-;-;-;-;-
1512466481056;-;-;30.39009;-7.9677124;-4.832016;-;-;-;-;-;-;-;-;-;-;-;-;-;-;-
1512466481075;-;-;17.698425;-2.1521912;-3.4852753;-;-;-;-;-;-;-;-;-;-;-;-;-;-;-
1512466481096;-;-;11.0030365;-2.0205078;0.38375854;-;-;-;-;-;-;-;-;-;-;-;-;-;-;-
1512466481116;-;-;6.139221;-1.2208557;2.378128;-;-;-;-;-;-;-;-;-;-;-;-;-;-;-
1512466481137;-;-;3.6253052;-1.052063;-1.1054382;-;-;-;-;-;-;-;-;-;-;-;-;-;-;-
1512466481156;-;-;2.161255;-1.1274719;-1.9254456;-;-;-;-;-;-;-;-;-;-;-;-;-;-;-
1512466481177;-;-;4.201111;-1.2471924;-2.4461975;-;-;-;-;-;-;-;-;-;-;-;-;-;-;-
1512466481197;-;-;6.489975;-1.6482086;-3.3188782;-;-;-;-;-;-;-;-;-;-;-;-;-;-;-
1512466481218;-;-;7.0813446;-2.3042297;-3.346405;-;-;-;-;-;-;-;-;-;-;-;-;-;-;-
1512466481239;-;-;6.4528656;-2.46344;-2.855606;-;-;-;-;-;-;-;-;-;-;-;-;-;-;-
1512466481259;-;-;5.917755;-2.2790833;-2.1313477;-;-;-;-;-;-;-;-;-;-;-;-;-;-;-
1512466481279;-;-;5.300049;-2.0899506;-1.4514008;-;-;-;-;-;-;-;-;-;-;-;-;-;-;-
1512466481300;-;-;5.513138;-1.9750214;-1.2885895;-;-;-;-;-;-;-;-;-;-;-;-;-;-;-
1512466481320;-;-;5.355118;-2.088745;-1.8847504;-;-;-;-;-;-;-;-;-;-;-;-;-;-;-
1512466481341;-;-;5.023529;-2.1797333;-2.852005;-;-;-;-;-;-;-;-;-;-;-;-;-;-;-
1512466481362;-;-;5.810013;-0.9790344;-1.8428497;-;-;-;-;-;-;-;-;-;-;-;-;-;-;-
1512466481382;-;-;7.5961;0.13426208;0.5585327;-;-;-;-;-;-;-;-;-;-;-;-;-;-;-
1512466481403;-;-;8.826721;-0.68933105;0.85780334;-;-;-;-;-;-;-;-;-;-;-;-;-;-;-
1512466481422;-;-;8.679474;-1.3202057;-0.4242859;-;-;-;-;-;-;-;-;-;-;-;-;-;-;-
1512466481442;-;-;8.671097;-2.2862701;-2.4246368;-;-;-;-;-;-;-;-;-;-;-;-;-;-;-
1512466481463;-;-;8.430481;-1.9319305;-2.4497833;-;-;-;-;-;-;-;-;-;-;-;-;-;-;-
1512466481482;-;-;6.893402;-0.85095215;-4.1424866;-;-;-;-;-;-;-;-;-;-;-;-;-;-;-
1512466481503;-;-;7.672714;0.05645752;-7.069397;-;-;-;-;-;-;-;-;-;-;-;-;-;-;-
1512466481523;-;-;9.67186;2.0077362;-6.3008575;-;-;-;-;-;-;-;-;-;-;-;-;-;-;-
1512466481543;-;-;11.316681;4.162506;-3.072281;-;-;-;-;-;-;-;-;-;-;-;-;-;-;-
1512466481564;-;-;16.087128;2.3225708;-3.567871;-;-;-;-;-;-;-;-;-;-;-;-;-;-;-
1512466481584;-;-;21.301697;-2.54245;-3.3943024;-;-;-;-;-;-;-;-;-;-;-;-;-;-;-
1512466481605;-;-;18.844055;-1.9522858;-5.525131;-;-;-;-;-;-;-;-;-;-;-;-;-;-;-
1512466481625;-;-;14.351334;-0.9586792;-2.515625;-;-;-;-;-;-;-;-;-;-;-;-;-;-;-
1512466481646;-;-;10.676239;-0.34457397;-1.2897949;-;-;-;-;-;-;-;-;-;-;-;-;-;-;-
1512466481666;-;-;8.259293;0.033706665;-1.5280151;-;-;-;-;-;-;-;-;-;-;-;-;-;-;-
1512466481687;-;-;6.9400787;0.6250763;-1.590271;-;-;-;-;-;-;-;-;-;-;-;-;-;-;-
1512466481707;-;-;5.79924;1.3050385;-1.4705505;-;-;-;-;-;-;-;-;-;-;-;-;-;-;-
1512466481728;-;-;5.015152;1.4151611;-1.4897003;-;-;-;-;-;-;-;-;-;-;-;-;-;-;-
1512466481747;-;-;3.8264313;0.8800659;-1.7111664;-;-;-;-;-;-;-;-;-;-;-;-;-;-;-
1512466481767;-;-;3.8922577;-0.095581055;-1.3712006;-;-;-;-;-;-;-;-;-;-;-;-;-;-;-
1512466481788;-;-;5.434128;-0.7587738;-1.0144653;-;-;-;-;-;-;-;-;-;-;-;-;-;-;-
1512466481809;-;-;6.2541504;-0.93115234;-1.8931274;-;-;-;-;-;-;-;-;-;-;-;-;-;-;-
1512466481829;-;-;6.5594025;-0.6294861;-2.3923187;-;-;-;-;-;-;-;-;-;-;-;-;-;-;-
1512466481850;-;-;6.6934814;0.03491211;-2.1768494;-;-;-;-;-;-;-;-;-;-;-;-;-;-;-
1512466481870;-;-;7.5913086;0.8704834;-1.590271;-;-;-;-;-;-;-;-;-;-;-;-;-;-;-
1512466481890;-;-;8.179077;0.5736084;-1.7279358;-;-;-;-;-;-;-;-;-;-;-;-;-;-;-
1512466481911;-;-;8.377808;-0.31105042;-2.4892883;-;-;-;-;-;-;-;-;-;-;-;-;-;-;-
1512466481932;-;-;8.18985;-0.878479;-2.9765015;-;-;-;-;-;-;-;-;-;-;-;-;-;-;-
1512466481951;-;-;7.5518036;-1.1562042;-2.840042;-;-;-;-;-;-;-;-;-;-;-;-;-;-;-
1512466481971;-;-;7.508713;-0.33380127;-2.7945404;-;-;-;-;-;-;-;-;-;-;-;-;-;-;-
1512466481992;-;-;7.8881836;0.9710388;-3.3871155;-;-;-;-;-;-;-;-;-;-;-;-;-;-;-
1512466482012;-;-;7.375824;2.6098785;-3.223114;-;-;-;-;-;-;-;-;-;-;-;-;-;-;-
1512466482033;-;-;6.5594025;2.7619019;-2.1385345;-;-;-;-;-;-;-;-;-;-;-;-;-;-;-
1512466482053;-;-;6.217041;1.3361511;-3.1022034;-;-;-;-;-;-;-;-;-;-;-;-;-;-;-
1512466482074;-;-;7.0214844;-1.4183655;-6.808426;-;-;-;-;-;-;-;-;-;-;-;-;-;-;-
1512466482094;-;-;8.610046;-3.3816223;-6.6204834;-;-;-;-;-;-;-;-;-;-;-;-;-;-;-
1512466482115;-;-;9.303162;-3.3121796;-4.2023315;-;-;-;-;-;-;-;-;-;-;-;-;-;-;-
1512466482135;-;-;9.576096;-3.0572052;-4.3950653;-;-;-;-;-;-;-;-;-;-;-;-;-;-;-
1512466482156;-;-;17.729553;-3.5563965;-5.7035065;-;-;-;-;-;-;-;-;-;-;-;-;-;-;-
1512466482176;-;-;30.300308;-5.933838;-6.468445;-;-;-;-;-;-;-;-;-;-;-;-;-;-;-
1512466482196;-;-;22.32402;-6.6544952;-4.527954;-;-;-;-;-;-;-;-;-;-;-;-;-;-;-
1512466482217;-;-;14.271133;-5.0910797;-2.5323792;-;-;-;-;-;-;-;-;-;-;-;-;-;-;-
1512466482237;-;-;8.010284;-3.8640442;-0.80496216;-;-;-;-;-;-;-;-;-;-;-;-;-;-;-
1512466482258;-;-;3.9497223;-2.5316772;0.16229248;-;-;-;-;-;-;-;-;-;-;-;-;-;-;-
1512466482279;-;-;1.3197021;-1.5081482;-0.5619507;-;-;-;-;-;-;-;-;-;-;-;-;-;-;-
1512466482299;-;-;1.3388519;-0.53970337;-2.5934296;-;-;-;-;-;-;-;-;-;-;-;-;-;-;-
1512466482320;-;-;2.2223053;0.45388794;-4.2083282;-;-;-;-;-;-;-;-;-;-;-;-;-;-;-
1512466482339;-;-;3.4313812;0.6454315;-4.445343;-;-;-;-;-;-;-;-;-;-;-;-;-;-;-
1512466482360;-;-;4.869095;0.5352936;-3.5618896;-;-;-;-;-;-;-;-;-;-;-;-;-;-;-
1512466482380;-;-;5.691513;0.026535034;-2.9106598;-;-;-;-;-;-;-;-;-;-;-;-;-;-;-
1512466482401;-;-;6.5318756;-1.4542847;-2.768219;-;-;-;-;-;-;-;-;-;-;-;-;-;-;-
1512466482421;-;-;7.688278;-3.0045319;-2.0260162;-;-;-;-;-;-;-;-;-;-;-;-;-;-;-
1512466482441;-;-;8.294006;-2.9590454;-1.3352814;-;-;-;-;-;-;-;-;-;-;-;-;-;-;-
1512466482461;-;-;7.9276886;-2.159378;-0.19204712;-;-;-;-;-;-;-;-;-;-;-;-;-;-;-
1512466482482;-;-;6.667145;-2.0312958;1.1570892;-;-;-;-;-;-;-;-;-;-;-;-;-;-;-
1512466482502;-;-;5.853119;-3.61026;1.6095886;-;-;-;-;-;-;-;-;-;-;-;-;-;-;-
1512466482523;-;-;6.19429;-4.2794495;0.9451904;-;-;-;-;-;-;-;-;-;-;-;-;-;-;-
1512466482543;-;-;7.763687;-3.3804169;-0.6182251;-;-;-;-;-;-;-;-;-;-;-;-;-;-;-
1512466482564;-;-;9.170288;-2.0755768;-1.8643951;-;-;-;-;-;-;-;-;-;-;-;-;-;-;-
1512466482584;-;-;8.745316;-1.1645813;-3.159668;-;-;-;-;-;-;-;-;-;-;-;-;-;-;-
1512466482605;-;-;6.972412;-0.2607727;-6.8670807;-;-;-;-;-;-;-;-;-;-;-;-;-;-;-
1512466482626;-;-;7.3219604;1.1194763;-8.478378;-;-;-;-;-;-;-;-;-;-;-;-;-;-;-
1512466482646;-;-;9.213379;3.422699;-4.301697;-;-;-;-;-;-;-;-;-;-;-;-;-;-;-
1512466482666;-;-;13.281128;4.3720093;-1.5974426;-;-;-;-;-;-;-;-;-;-;-;-;-;-;-
1512466482687;-;-;18.344864;1.1936951;-0.7475128;-;-;-;-;-;-;-;-;-;-;-;-;-;-;-
1512466482707;-;-;19.767014;-1.3896484;-4.8296204;-;-;-;-;-;-;-;-;-;-;-;-;-;-;-
1512466482728;-;-;20.458939;2.2279968;-7.362686;-;-;-;-;-;-;-;-;-;-;-;-;-;-;-
1512466482748;-;-;16.307404;3.3532715;-3.551117;-;-;-;-;-;-;-;-;-;-;-;-;-;-;-
1512466482768;-;-;11.803909;2.7511292;-1.9972839;-;-;-;-;-;-;-;-;-;-;-;-;-;-;-
1512466482789;-;-;8.827911;1.022522;-1.7602539;-;-;-;-;-;-;-;-;-;-;-;-;-;-;-
1512466482809;-;-;6.202667;-0.4559021;-1.1916351;-;-;-;-;-;-;-;-;-;-;-;-;-;-;-
1512466482830;-;-;2.8471985;-1.3860474;0.1431427;-;-;-;-;-;-;-;-;-;-;-;-;-;-;-
1512466482850;-;-;1.0287933;-1.8756714;-0.024459839;-;-;-;-;-;-;-;-;-;-;-;-;-;-;-
1512466482871;-;-;1.165268;-1.6003265;-0.5236511;-;-;-;-;-;-;-;-;-;-;-;-;-;-;-
1512466482893;-;-;3.7294617;-0.35534668;-1.1078339;-;-;-;-;-;-;-;-;-;-;-;-;-;-;-
1512466482913;-;-;5.6819305;0.48501587;-1.2838135;-;-;-;-;-;-;-;-;-;-;-;-;-;-;-
1512466482933;-;-;7.447647;1.3265839;-2.286972;-;-;-;-;-;-;-;-;-;-;-;-;-;-;-
1512466482954;-;-;8.678268;1.4103699;-3.4756927;-;-;-;-;-;-;-;-;-;-;-;-;-;-;-
1512466482974;-;-;9.752075;0.7807007;-4.0634766;-;-;-;-;-;-;-;-;-;-;-;-;-;-;-
1512466482995;-;-;9.878967;0.008575439;-2.860382;-;-;-;-;-;-;-;-;-;-;-;-;-;-;-
1512466483015;-;-;8.442444;-0.43554688;-0.20761108;-;-;-;-;-;-;-;-;-;-;-;-;-;-;-
1512466483036;-;-;6.742569;0.596344;1.0684967;-;-;-;-;-;-;-;-;-;-;-;-;-;-;-
1512466483056;-;-;5.2677307;2.1046906;-0.9941101;-;-;-;-;-;-;-;-;-;-;-;-;-;-;-
1512466483077;-;-;3.3535767;1.9047852;-3.9377747;-;-;-;-;-;-;-;-;-;-;-;-;-;-;-
1512466483096;-;-;3.3679352;0.42636108;-3.2266998;-;-;-;-;-;-;-;-;-;-;-;-;-;-;-
1512466483116;-;-;5.134857;-0.47027588;-1.6154022;-;-;-;-;-;-;-;-;-;-;-;-;-;-;-
1512466483137;-;-;5.805237;-0.07762146;-3.9449615;-;-;-;-;-;-;-;-;-;-;-;-;-;-;-
1512466483158;-;-;6.6312256;-1.0341034;-8.916519;-;-;-;-;-;-;-;-;-;-;-;-;-;-;-
1512466483178;-;-;10.949173;-4.1848755;-9.106857;-;-;-;-;-;-;-;-;-;-;-;-;-;-;-
1512466483199;-;-;15.0289;-7.238678;-6.370285;-;-;-;-;-;-;-;-;-;-;-;-;-;-;-
1512466483219;-;-;26.35347;-8.960114;-2.5754852;-;-;-;-;-;-;-;-;-;-;-;-;-;-;-
1512466483240;-;-;33.38524;-7.4781036;-1.6058197;-;-;-;-;-;-;-;-;-;-;-;-;-;-;-
1512466483260;-;-;21.33641;-1.6039276;-4.2095184;-;-;-;-;-;-;-;-;-;-;-;-;-;-;-
1512466483281;-;-;12.0421295;-0.65701294;-0.7558899;-;-;-;-;-;-;-;-;-;-;-;-;-;-;-
1512466483301;-;-;6.7928467;1.1494141;2.5624847;-;-;-;-;-;-;-;-;-;-;-;-;-;-;-
1512466483321;-;-;4.0299377;1.2619324;0.5513458;-;-;-;-;-;-;-;-;-;-;-;-;-;-;-
1512466483342;-;-;1.9792938;0.20489502;-1.3041534;-;-;-;-;-;-;-;-;-;-;-;-;-;-;-
1512466483362;-;-;2.7358704;-0.61990356;-2.8532104;-;-;-;-;-;-;-;-;-;-;-;-;-;-;-
1512466483382;-;-;5.3012543;-1.4937897;-4.3316193;-;-;-;-;-;-;-;-;-;-;-;-;-;-;-
1512466483402;-;-;6.501938;-2.1067047;-4.3687286;-;-;-;-;-;-;-;-;-;-;-;-;-;-;-
1512466483422;-;-;6.2517548;-1.9450989;-2.717926;-;-;-;-;-;-;-;-;-;-;-;-;-;-;-
1512466483443;-;-;6.1488037;-1.8840485;-0.89115906;-;-;-;-;-;-;-;-;-;-;-;-;-;-;-
1512466483463;-;-;6.261322;-2.3185883;-0.14656067;-;-;-;-;-;-;-;-;-;-;-;-;-;-;-
1512466483484;-;-;6.3068237;-2.8812256;-1.021637;-;-;-;-;-;-;-;-;-;-;-;-;-;-;-
1512466483504;-;-;6.4169464;-3.5288544;-2.1864166;-;-;-;-;-;-;-;-;-;-;-;-;-;-;-
1512466483525;-;-;6.6024933;-3.5647736;-2.3875275;-;-;-;-;-;-;-;-;-;-;-;-;-;-;-
1512466483544;-;-;7.1819;-2.1545868;-1.0755157;-;-;-;-;-;-;-;-;-;-;-;-;-;-;-
1512466483565;-;-;7.2465363;-0.9287567;0.3933258;-;-;-;-;-;-;-;-;-;-;-;-;-;-;-
1512466483585;-;-;7.6343994;-0.5708313;1.962738;-;-;-;-;-;-;-;-;-;-;-;-;-;-;-
1512466483604;-;-;8.046204;-1.0544586;1.622757;-;-;-;-;-;-;-;-;-;-;-;-;-;-;-
1512466483625;-;-;8.292801;-2.2407837;-0.30218506;-;-;-;-;-;-;-;-;-;-;-;-;-;-;-
1512466483644;-;-;8.685455;-2.6322327;-1.0814972;-;-;-;-;-;-;-;-;-;-;-;-;-;-;-
1512466483665;-;-;9.323517;-2.245575;-0.061569214;-;-;-;-;-;-;-;-;-;-;-;-;-;-;-
1512466483685;-;-;10.441605;-2.0684052;1.2504578;-;-;-;-;-;-;-;-;-;-;-;-;-;-;-
1512466483706;-;-;9.41449;-2.1294556;-1.8344727;-;-;-;-;-;-;-;-;-;-;-;-;-;-;-
1512466483726;-;-;6.8371277;-1.6003265;-5.9129944;-;-;-;-;-;-;-;-;-;-;-;-;-;-;-
1512466483747;-;-;6.438492;0.0061798096;-6.5702057;-;-;-;-;-;-;-;-;-;-;-;-;-;-;-
1512466483767;-;-;9.055359;3.1138458;-4.9337616;-;-;-;-;-;-;-;-;-;-;-;-;-;-;-
1512466483788;-;-;12.076843;5.861191;-1.6644897;-;-;-;-;-;-;-;-;-;-;-;-;-;-;-
1512466483808;-;-;16.861649;3.6214294;-3.6492767;-;-;-;-;-;-;-;-;-;-;-;-;-;-;-
1512466483828;-;-;19.132553;-0.6031494;-4.283737;-;-;-;-;-;-;-;-;-;-;-;-;-;-;-
1512466483849;-;-;24.67154;-1.953476;-5.986023;-;-;-;-;-;-;-;-;-;-;-;-;-;-;-
1512466483869;-;-;16.37204;-0.17817688;-5.02594;-;-;-;-;-;-;-;-;-;-;-;-;-;-;-
1512466483890;-;-;11.465118;0.89682007;-3.5726624;-;-;-;-;-;-;-;-;-;-;-;-;-;-;-
1512466483909;-;-;7.477585;0.8716736;-2.5814667;-;-;-;-;-;-;-;-;-;-;-;-;-;-;-
1512466483930;-;-;5.2916718;1.125473;-1.8907318;-;-;-;-;-;-;-;-;-;-;-;-;-;-;-
1512466483949;-;-;4.355545;1.3002472;-2.1624756;-;-;-;-;-;-;-;-;-;-;-;-;-;-;-
1512466483970;-;-;4.2968903;0.56521606;-1.5136566;-;-;-;-;-;-;-;-;-;-;-;-;-;-;-
1512466483990;-;-;5.391037;-0.2799225;-0.26507568;-;-;-;-;-;-;-;-;-;-;-;-;-;-;-
1512466484011;-;-;5.7322083;-0.5732269;-0.15853882;-;-;-;-;-;-;-;-;-;-;-;-;-;-;-
1512466484031;-;-;6.391815;-0.22007751;0.0030822754;-;-;-;-;-;-;-;-;-;-;-;-;-;-;-
1512466484051;-;-;7.5290527;-0.15663147;-0.5463867;-;-;-;-;-;-;-;-;-;-;-;-;-;-;-
1512466484072;-;-;7.9911346;0.39404297;-0.9749603;-;-;-;-;-;-;-;-;-;-;-;-;-;-;-
1512466484093;-;-;8.066559;0.9483032;-0.9151001;-;-;-;-;-;-;-;-;-;-;-;-;-;-;-
1512466484113;-;-;7.614044;1.2344055;-1.1078339;-;-;-;-;-;-;-;-;-;-;-;-;-;-;-
1512466484133;-;-;7.6236267;1.145813;-0.8564453;-;-;-;-;-;-;-;-;-;-;-;-;-;-;-
1512466484154;-;-;9.675461;1.5037537;-1.5471649;-;-;-;-;-;-;-;-;-;-;-;-;-;-;-
1512466484174;-;-;9.999878;2.0998993;-2.0104523;-;-;-;-;-;-;-;-;-;-;-;-;-;-;-
1512466484195;-;-;10.080078;1.5851593;-1.3017578;-;-;-;-;-;-;-;-;-;-;-;-;-;-;-
1512466484215;-;-;10.606796;0.41677856;0.25805664;-;-;-;-;-;-;-;-;-;-;-;-;-;-;-
1512466484236;-;-;10.870163;-0.5923767;0.8625946;-;-;-;-;-;-;-;-;-;-;-;-;-;-;-
1512466484256;-;-;11.377731;-0.04888916;0.9715271;-;-;-;-;-;-;-;-;-;-;-;-;-;-;-
1512466484277;-;-;12.6311035;-0.4152069;-4.6524506;-;-;-;-;-;-;-;-;-;-;-;-;-;-;-
1512466484297;-;-;15.268311;-4.2962036;-8.38501;-;-;-;-;-;-;-;-;-;-;-;-;-;-;-
1512466484318;-;-;12.384491;-5.1892395;-9.07933;-;-;-;-;-;-;-;-;-;-;-;-;-;-;-
1512466484338;-;-;8.631592;-4.1944427;-4.022766;-;-;-;-;-;-;-;-;-;-;-;-;-;-;-
1512466484359;-;-;5.5191193;-4.0472107;-1.9015045;-;-;-;-;-;-;-;-;-;-;-;-;-;-;-
1512466484379;-;-;4.706299;-4.040024;-1.3005676;-;-;-;-;-;-;-;-;-;-;-;-;-;-;-
1512466484400;-;-;5.5753937;-3.210434;-3.310501;-;-;-;-;-;-;-;-;-;-;-;-;-;-;-
1512466484419;-;-;7.1364136;-2.5723724;-4.871521;-;-;-;-;-;-;-;-;-;-;-;-;-;-;-
1512466484440;-;-;10.326675;-0.34936523;-5.0822144;-;-;-;-;-;-;-;-;-;-;-;-;-;-;-
