TimeStamp[ms];Prox[Cm];Lux[lux];AccX[m/s^2];AccY[m/s^2];AccZ[m/s^2];GyroX[rad/s];GyroY[rad/s];GyroZ[rad/s];MagnX[uT];MagnY[uT];MagnZ[uT];OrienYaw[degrees];OrienPitch[degrees];OrienRoll[degrees];Press[Pa];Temp[C°];Batt[%];Lat;Lng;Speed[m/s]
1512466554018;-;-;9.252884;-0.3361969;-1.0024872;-;-;-;-;-;-;-;-;-;-;-;-;-;-;-
1512466554019;-;-;9.25528;-0.35176086;-1.0587463;-;-;-;-;-;-;-;-;-;-;-;-;-;-;-
1512466554035;-;-;9.360626;-0.41400146;-1.1162109;-;-;-;-;-;-;-;-;-;-;-;-;-;-;-
1512466554056;-;-;9.230133;-0.36732483;-1.1664886;-;-;-;-;-;-;-;-;-;-;-;-;-;-;-
1512466554076;-;-;9.170288;-0.35534668;-0.98213196;-;-;-;-;-;-;-;-;-;-;-;-;-;-;-
1512466554096;-;-;9.13916;-0.31584167;-0.9258728;-;-;-;-;-;-;-;-;-;-;-;-;-;-;-
1512466554117;-;-;9.133179;-0.28710938;-0.89834595;-;-;-;-;-;-;-;-;-;-;-;-;-;-;-
1512466554136;-;-;9.210983;-0.3433838;-0.7846222;-;-;-;-;-;-;-;-;-;-;-;-;-;-;-
1512466554156;-;-;8.967972;-0.00579834;-1.045578;-;-;-;-;-;-;-;-;-;-;-;-;-;-;-
1512466554176;-;-;9.032608;-0.33140564;-1.0168457;-;-;-;-;-;-;-;-;-;-;-;-;-;-;-
1512466554197;-;-;9.062546;-0.33499146;-1.0120697;-;-;-;-;-;-;-;-;-;-;-;-;-;-;-
1512466554217;-;-;9.189438;-0.3697052;-1.1676941;-;-;-;-;-;-;-;-;-;-;-;-;-;-;-
1512466554238;-;-;9.251678;-0.3002777;-0.9402313;-;-;-;-;-;-;-;-;-;-;-;-;-;-;-
1512466554266;-;-;9.273239;-0.30986023;-0.709198;-;-;-;-;-;-;-;-;-;-;-;-;-;-;-
1512466554278;-;-;9.2313385;-0.31225586;-0.85284424;-;-;-;-;-;-;-;-;-;-;-;-;-;-;-
1512466554299;-;-;9.108032;-0.27275085;-1.0144653;-;-;-;-;-;-;-;-;-;-;-;-;-;-;-
1512466554319;-;-;9.020645;-0.289505;-1.006073;-;-;-;-;-;-;-;-;-;-;-;-;-;-;-
1512466554339;-;-;9.194229;-0.36611938;-1.0372009;-;-;-;-;-;-;-;-;-;-;-;-;-;-;-
1512466554359;-;-;9.248093;-0.3397827;-0.89234924;-;-;-;-;-;-;-;-;-;-;-;-;-;-;-
1512466554380;-;-;9.147537;-0.2392273;-0.803772;-;-;-;-;-;-;-;-;-;-;-;-;-;-;-
1512466554401;-;-;9.116409;-0.20570374;-0.9689636;-;-;-;-;-;-;-;-;-;-;-;-;-;-;-
1512466554421;-;-;9.115219;-0.3481598;-1.025238;-;-;-;-;-;-;-;-;-;-;-;-;-;-;-
1512466554442;-;-;9.9831085;-1.3716888;0.37417603;-;-;-;-;-;-;-;-;-;-;-;-;-;-;-
1512466554462;-;-;9.365402;0.37010193;-2.3396454;-;-;-;-;-;-;-;-;-;-;-;-;-;-;-
1512466554482;-;-;8.720169;-0.1015625;-1.3675995;-;-;-;-;-;-;-;-;-;-;-;-;-;-;-
1512466554502;-;-;9.233734;-0.41879272;-0.709198;-;-;-;-;-;-;-;-;-;-;-;-;-;-;-
1512466554523;-;-;9.251678;-0.42237854;-0.69363403;-;-;-;-;-;-;-;-;-;-;-;-;-;-;-
1512466554543;-;-;9.195419;-0.4666748;-0.5643463;-;-;-;-;-;-;-;-;-;-;-;-;-;-;-
1512466554564;-;-;9.129578;-0.4056244;-0.4159088;-;-;-;-;-;-;-;-;-;-;-;-;-;-;-
1512466554584;-;-;9.273239;-0.3589325;-0.6014557;-;-;-;-;-;-;-;-;-;-;-;-;-;-;-
1512466554604;-;-;9.312744;-0.26914978;-0.614624;-;-;-;-;-;-;-;-;-;-;-;-;-;-;-
1512466554624;-;-;9.295975;-0.4343567;-0.5248413;-;-;-;-;-;-;-;-;-;-;-;-;-;-;-
1512466554645;-;-;9.210983;-0.19493103;-0.8241272;-;-;-;-;-;-;-;-;-;-;-;-;-;-;-
1512466554665;-;-;9.012268;-0.22964478;-0.6110382;-;-;-;-;-;-;-;-;-;-;-;-;-;-;-
1512466554686;-;-;9.00029;-0.2799225;-0.5523834;-;-;-;-;-;-;-;-;-;-;-;-;-;-;-
1512466554706;-;-;9.3103485;-0.5061798;-0.5416107;-;-;-;-;-;-;-;-;-;-;-;-;-;-;-
1512466554727;-;-;9.055359;-0.5648346;-0.7977905;-;-;-;-;-;-;-;-;-;-;-;-;-;-;-
1512466554750;-;-;9.728134;-0.8138428;-0.55477905;-;-;-;-;-;-;-;-;-;-;-;-;-;-;-
1512466554770;-;-;9.249298;-0.84495544;-0.5284424;-;-;-;-;-;-;-;-;-;-;-;-;-;-;-
1512466554791;-;-;9.031418;-1.1047363;-0.5439911;-;-;-;-;-;-;-;-;-;-;-;-;-;-;-
1512466554811;-;-;8.958389;-0.87968445;-0.31774902;-;-;-;-;-;-;-;-;-;-;-;-;-;-;-
1512466554831;-;-;8.784821;-0.80545044;-0.111846924;-;-;-;-;-;-;-;-;-;-;-;-;-;-;-
1512466554852;-;-;8.76207;-0.54689026;-0.20281982;-;-;-;-;-;-;-;-;-;-;-;-;-;-;-
1512466554872;-;-;8.884171;-0.62350464;-0.535614;-;-;-;-;-;-;-;-;-;-;-;-;-;-;-
1512466554894;-;-;8.033035;-0.7228546;-1.574707;-;-;-;-;-;-;-;-;-;-;-;-;-;-;-
1512466554914;-;-;9.194229;-0.92996216;-0.19325256;-;-;-;-;-;-;-;-;-;-;-;-;-;-;-
1512466554935;-;-;8.496307;-0.65582275;-0.9330597;-;-;-;-;-;-;-;-;-;-;-;-;-;-;-
1512466554954;-;-;8.161133;-0.37449646;-0.7965851;-;-;-;-;-;-;-;-;-;-;-;-;-;-;-
1512466554975;-;-;7.802002;-0.078811646;-0.90911865;-;-;-;-;-;-;-;-;-;-;-;-;-;-;-
1512466554995;-;-;8.168304;-0.10395813;-1.069519;-;-;-;-;-;-;-;-;-;-;-;-;-;-;-
1512466555015;-;-;8.958389;-0.033325195;-1.282608;-;-;-;-;-;-;-;-;-;-;-;-;-;-;-
1512466555036;-;-;10.2752075;0.2527771;-1.1233978;-;-;-;-;-;-;-;-;-;-;-;-;-;-;-
1512466555056;-;-;11.4292145;0.63105774;-0.9809418;-;-;-;-;-;-;-;-;-;-;-;-;-;-;-
1512466555076;-;-;11.991852;1.0332947;-0.9055176;-;-;-;-;-;-;-;-;-;-;-;-;-;-;-
1512466555097;-;-;11.418442;1.0416718;-0.8025665;-;-;-;-;-;-;-;-;-;-;-;-;-;-;-
1512466555117;-;-;10.32428;0.87527466;-0.6038513;-;-;-;-;-;-;-;-;-;-;-;-;-;-;-
1512466555138;-;-;9.29718;0.58677673;-0.511673;-;-;-;-;-;-;-;-;-;-;-;-;-;-;-
1512466555157;-;-;8.957199;0.3509369;-0.18247986;-;-;-;-;-;-;-;-;-;-;-;-;-;-;-
1512466555177;-;-;8.701019;0.4766388;-0.10346985;-;-;-;-;-;-;-;-;-;-;-;-;-;-;-
1512466555198;-;-;8.349075;0.7040863;-0.27226257;-;-;-;-;-;-;-;-;-;-;-;-;-;-;-
1512466555217;-;-;8.101273;0.9650574;-0.81573486;-;-;-;-;-;-;-;-;-;-;-;-;-;-;-
1512466555237;-;-;7.9228973;1.1266632;-1.1533203;-;-;-;-;-;-;-;-;-;-;-;-;-;-;-
1512466555258;-;-;7.8953705;1.319397;-1.195221;-;-;-;-;-;-;-;-;-;-;-;-;-;-;-
1512466555277;-;-;8.041412;1.3253784;-1.045578;-;-;-;-;-;-;-;-;-;-;-;-;-;-;-
1512466555298;-;-;8.282028;1.3074188;-0.961792;-;-;-;-;-;-;-;-;-;-;-;-;-;-;-
1512466555318;-;-;8.746506;1.0991364;-1.0312195;-;-;-;-;-;-;-;-;-;-;-;-;-;-;-
1512466555338;-;-;9.100845;0.7519684;-1.2203674;-;-;-;-;-;-;-;-;-;-;-;-;-;-;-
1512466555359;-;-;8.775238;0.59394836;-1.0336151;-;-;-;-;-;-;-;-;-;-;-;-;-;-;-
1512466555379;-;-;8.252106;0.5341034;-0.590683;-;-;-;-;-;-;-;-;-;-;-;-;-;-;-
1512466555400;-;-;7.7445374;0.43115234;-0.45899963;-;-;-;-;-;-;-;-;-;-;-;-;-;-;-
1512466555420;-;-;8.134796;0.4119873;-0.43865967;-;-;-;-;-;-;-;-;-;-;-;-;-;-;-
1512466555441;-;-;9.058945;0.38685608;-0.3153534;-;-;-;-;-;-;-;-;-;-;-;-;-;-;-
1512466555460;-;-;10.228516;0.4119873;-0.32254028;-;-;-;-;-;-;-;-;-;-;-;-;-;-;-
1512466555481;-;-;11.056915;0.18214417;-0.31176758;-;-;-;-;-;-;-;-;-;-;-;-;-;-;-
1512466555501;-;-;10.916855;0.17616272;-0.121414185;-;-;-;-;-;-;-;-;-;-;-;-;-;-;-
1512466555521;-;-;10.247665;0.89801025;-2.4892883;-;-;-;-;-;-;-;-;-;-;-;-;-;-;-
1512466555541;-;-;9.442017;3.6429749;-6.286484;-;-;-;-;-;-;-;-;-;-;-;-;-;-;-
1512466555561;-;-;11.196976;5.759445;-5.0786133;-;-;-;-;-;-;-;-;-;-;-;-;-;-;-
1512466555582;-;-;13.951508;5.517624;-3.824051;-;-;-;-;-;-;-;-;-;-;-;-;-;-;-
1512466555603;-;-;13.166199;4.0224457;-5.4557037;-;-;-;-;-;-;-;-;-;-;-;-;-;-;-
1512466555624;-;-;9.710175;1.6761322;-6.448105;-;-;-;-;-;-;-;-;-;-;-;-;-;-;-
1512466555646;-;-;4.4333496;-1.052063;-3.9186249;-;-;-;-;-;-;-;-;-;-;-;-;-;-;-
1512466555666;-;-;2.77417;-2.5089264;-1.7602539;-;-;-;-;-;-;-;-;-;-;-;-;-;-;-
1512466555686;-;-;2.296524;-2.9997406;-2.3444366;-;-;-;-;-;-;-;-;-;-;-;-;-;-;-
1512466555707;-;-;7.8043976;-1.0065765;-4.9062347;-;-;-;-;-;-;-;-;-;-;-;-;-;-;-
1512466555727;-;-;11.953537;0.1905365;-5.780121;-;-;-;-;-;-;-;-;-;-;-;-;-;-;-
1512466555748;-;-;14.271133;0.76753235;-6.15361;-;-;-;-;-;-;-;-;-;-;-;-;-;-;-
1512466555768;-;-;13.786301;0.62268066;-4.785324;-;-;-;-;-;-;-;-;-;-;-;-;-;-;-
1512466555788;-;-;11.493851;-0.18296814;-3.6564636;-;-;-;-;-;-;-;-;-;-;-;-;-;-;-
1512466555809;-;-;8.475967;-1.1693726;-2.4821014;-;-;-;-;-;-;-;-;-;-;-;-;-;-;-
1512466555829;-;-;5.588562;-1.7260284;-2.1852264;-;-;-;-;-;-;-;-;-;-;-;-;-;-;-
1512466555850;-;-;3.3775177;-1.8636932;-2.381546;-;-;-;-;-;-;-;-;-;-;-;-;-;-;-
1512466555870;-;-;2.549118;-1.8002472;-2.7310944;-;-;-;-;-;-;-;-;-;-;-;-;-;-;-
1512466555891;-;-;5.1396484;-1.8217926;-2.4234467;-;-;-;-;-;-;-;-;-;-;-;-;-;-;-
1512466555912;-;-;7.509903;-1.7822876;-2.036789;-;-;-;-;-;-;-;-;-;-;-;-;-;-;-
1512466555933;-;-;9.07811;-1.661377;-2.0774841;-;-;-;-;-;-;-;-;-;-;-;-;-;-;-
1512466555953;-;-;10.120773;-1.2292328;-2.247467;-;-;-;-;-;-;-;-;-;-;-;-;-;-;-
1512466555973;-;-;10.624756;-0.40802002;-2.0918427;-;-;-;-;-;-;-;-;-;-;-;-;-;-;-
1512466555994;-;-;9.984314;0.02293396;-1.5052643;-;-;-;-;-;-;-;-;-;-;-;-;-;-;-
1512466556015;-;-;9.121201;-0.28112793;-1.353241;-;-;-;-;-;-;-;-;-;-;-;-;-;-;-
1512466556034;-;-;9.055359;-0.95150757;-1.526825;-;-;-;-;-;-;-;-;-;-;-;-;-;-;-
1512466556054;-;-;9.61441;-1.6290588;-2.1505127;-;-;-;-;-;-;-;-;-;-;-;-;-;-;-
1512466556075;-;-;8.485535;-1.1190948;-4.475281;-;-;-;-;-;-;-;-;-;-;-;-;-;-;-
1512466556095;-;-;8.440048;0.32939148;-8.780045;-;-;-;-;-;-;-;-;-;-;-;-;-;-;-
1512466556116;-;-;9.9986725;2.8265533;-9.27446;-;-;-;-;-;-;-;-;-;-;-;-;-;-;-
1512466556135;-;-;10.783981;4.676071;-7.326767;-;-;-;-;-;-;-;-;-;-;-;-;-;-;-
1512466556156;-;-;10.3302765;3.6477509;-6.160797;-;-;-;-;-;-;-;-;-;-;-;-;-;-;-
1512466556176;-;-;9.367798;0.31143188;-7.041855;-;-;-;-;-;-;-;-;-;-;-;-;-;-;-
1512466556196;-;-;9.3893585;-2.032486;-6.7318115;-;-;-;-;-;-;-;-;-;-;-;-;-;-;-
1512466556217;-;-;10.610397;-3.6318054;-3.5068207;-;-;-;-;-;-;-;-;-;-;-;-;-;-;-
1512466556237;-;-;12.3545685;-3.7227936;-0.8492584;-;-;-;-;-;-;-;-;-;-;-;-;-;-;-
1512466556258;-;-;12.707718;-2.559204;-1.8619995;-;-;-;-;-;-;-;-;-;-;-;-;-;-;-
1512466556278;-;-;12.571243;-1.6506042;-2.697586;-;-;-;-;-;-;-;-;-;-;-;-;-;-;-
1512466556300;-;-;9.135559;0.79267883;-2.594635;-;-;-;-;-;-;-;-;-;-;-;-;-;-;-
1512466556319;-;-;5.0690155;2.936676;-1.3388672;-;-;-;-;-;-;-;-;-;-;-;-;-;-;-
1512466556340;-;-;2.885498;3.8189392;-0.8947449;-;-;-;-;-;-;-;-;-;-;-;-;-;-;-
1512466556360;-;-;2.7394562;3.3173523;-1.4825287;-;-;-;-;-;-;-;-;-;-;-;-;-;-;-
1512466556380;-;-;3.924591;2.0544128;-1.8500366;-;-;-;-;-;-;-;-;-;-;-;-;-;-;-
1512466556401;-;-;6.525879;0.9686432;-1.258667;-;-;-;-;-;-;-;-;-;-;-;-;-;-;-
1512466556420;-;-;8.062958;0.4299469;-0.93185425;-;-;-;-;-;-;-;-;-;-;-;-;-;-;-
1512466556441;-;-;8.458008;0.05645752;-1.6992035;-;-;-;-;-;-;-;-;-;-;-;-;-;-;-
1512466556461;-;-;7.9947357;0.57958984;-2.3468323;-;-;-;-;-;-;-;-;-;-;-;-;-;-;-
1512466556481;-;-;9.23732;2.0089264;-1.0551605;-;-;-;-;-;-;-;-;-;-;-;-;-;-;-
1512466556501;-;-;11.593216;1.8329468;-0.93904114;-;-;-;-;-;-;-;-;-;-;-;-;-;-;-
1512466556522;-;-;12.2552185;0.85491943;-3.140503;-;-;-;-;-;-;-;-;-;-;-;-;-;-;-
1512466556543;-;-;11.638702;0.86450195;-8.717804;-;-;-;-;-;-;-;-;-;-;-;-;-;-;-
1512466556563;-;-;13.955093;2.6493835;-5.642456;-;-;-;-;-;-;-;-;-;-;-;-;-;-;-
1512466556583;-;-;14.850525;2.7559204;-4.481262;-;-;-;-;-;-;-;-;-;-;-;-;-;-;-
1512466556604;-;-;8.96199;0.8776703;-8.194672;-;-;-;-;-;-;-;-;-;-;-;-;-;-;-
1512466556624;-;-;4.9588776;-0.21409607;-7.077774;-;-;-;-;-;-;-;-;-;-;-;-;-;-;-
1512466556644;-;-;5.727417;-1.2795105;-5.0211487;-;-;-;-;-;-;-;-;-;-;-;-;-;-;-
1512466556664;-;-;8.430481;-1.1993103;-3.2302856;-;-;-;-;-;-;-;-;-;-;-;-;-;-;-
1512466556685;-;-;9.6622925;-0.097976685;-2.5060425;-;-;-;-;-;-;-;-;-;-;-;-;-;-;-
1512466556705;-;-;11.539337;-0.05128479;-2.9010925;-;-;-;-;-;-;-;-;-;-;-;-;-;-;-
1512466556726;-;-;11.937973;-1.0269165;-4.793701;-;-;-;-;-;-;-;-;-;-;-;-;-;-;-
1512466556746;-;-;10.24408;-1.3106384;-4.617737;-;-;-;-;-;-;-;-;-;-;-;-;-;-;-
1512466556766;-;-;6.992752;-1.451889;-3.0794525;-;-;-;-;-;-;-;-;-;-;-;-;-;-;-
1512466556787;-;-;4.6655884;-1.6733551;-1.9314423;-;-;-;-;-;-;-;-;-;-;-;-;-;-;-
1512466556807;-;-;3.2973022;-1.759552;-1.5938568;-;-;-;-;-;-;-;-;-;-;-;-;-;-;-
1512466556828;-;-;2.6077728;-1.6913147;-1.6620941;-;-;-;-;-;-;-;-;-;-;-;-;-;-;-
1512466556848;-;-;3.90065;-1.4267578;-1.535202;-;-;-;-;-;-;-;-;-;-;-;-;-;-;-
1512466556868;-;-;5.4413147;-1.3357697;-1.6800537;-;-;-;-;-;-;-;-;-;-;-;-;-;-;-
1512466556889;-;-;6.2302094;-1.1801453;-2.3181;-;-;-;-;-;-;-;-;-;-;-;-;-;-;-
1512466556909;-;-;6.4013824;-1.5656128;-2.994461;-;-;-;-;-;-;-;-;-;-;-;-;-;-;-
1512466556929;-;-;7.423706;-2.614273;-3.1572723;-;-;-;-;-;-;-;-;-;-;-;-;-;-;-
1512466556949;-;-;8.699814;-3.0105133;-3.0818481;-;-;-;-;-;-;-;-;-;-;-;-;-;-;-
1512466556970;-;-;9.675461;-2.763916;-3.1057892;-;-;-;-;-;-;-;-;-;-;-;-;-;-;-
1512466556990;-;-;10.387741;-3.282257;-3.528366;-;-;-;-;-;-;-;-;-;-;-;-;-;-;-
1512466557010;-;-;11.377731;-3.8772125;-4.03714;-;-;-;-;-;-;-;-;-;-;-;-;-;-;-
1512466557031;-;-;13.294296;-3.187683;-4.156845;-;-;-;-;-;-;-;-;-;-;-;-;-;-;-
1512466557051;-;-;13.624695;-1.0927582;-5.83638;-;-;-;-;-;-;-;-;-;-;-;-;-;-;-
1512466557071;-;-;11.539337;-0.23324585;-7.8906097;-;-;-;-;-;-;-;-;-;-;-;-;-;-;-
1512466557091;-;-;10.866577;-1.2771149;-7.9923553;-;-;-;-;-;-;-;-;-;-;-;-;-;-;-
1512466557112;-;-;11.959534;-3.5683594;-5.638855;-;-;-;-;-;-;-;-;-;-;-;-;-;-;-
1512466557132;-;-;13.387665;-2.7435608;-4.9181976;-;-;-;-;-;-;-;-;-;-;-;-;-;-;-
1512466557153;-;-;9.167892;-1.0436859;-6.9724274;-;-;-;-;-;-;-;-;-;-;-;-;-;-;-
1512466557173;-;-;5.4808197;-0.39006042;-8.03067;-;-;-;-;-;-;-;-;-;-;-;-;-;-;-
1512466557193;-;-;4.1089325;0.15461731;-6.2445984;-;-;-;-;-;-;-;-;-;-;-;-;-;-;-
1512466557214;-;-;4.232239;-0.36013794;-3.753418;-;-;-;-;-;-;-;-;-;-;-;-;-;-;-
1512466557234;-;-;5.9357147;-1.155014;-1.9805145;-;-;-;-;-;-;-;-;-;-;-;-;-;-;-
1512466557255;-;-;8.746506;-1.1801453;-1.8691864;-;-;-;-;-;-;-;-;-;-;-;-;-;-;-
1512466557276;-;-;9.9388275;-0.8964386;-3.3164825;-;-;-;-;-;-;-;-;-;-;-;-;-;-;-
1512466557295;-;-;8.6423645;-0.50738525;-4.301697;-;-;-;-;-;-;-;-;-;-;-;-;-;-;-
1512466557317;-;-;6.60849;-0.31344604;-3.7031403;-;-;-;-;-;-;-;-;-;-;-;-;-;-;-
1512466557336;-;-;4.873886;-0.021362305;-3.381134;-;-;-;-;-;-;-;-;-;-;-;-;-;-;-
1512466557358;-;-;3.458908;0.6071167;-3.310501;-;-;-;-;-;-;-;-;-;-;-;-;-;-;-
1512466557377;-;-;3.5702515;0.8704834;-2.9729156;-;-;-;-;-;-;-;-;-;-;-;-;-;-;-
1512466557398;-;-;4.0371094;1.0560303;-2.539566;-;-;-;-;-;-;-;-;-;-;-;-;-;-;-
1512466557418;-;-;4.782913;0.98779297;-2.452179;-;-;-;-;-;-;-;-;-;-;-;-;-;-;-
1512466557439;-;-;7.317169;1.2391968;-3.408661;-;-;-;-;-;-;-;-;-;-;-;-;-;-;-
1512466557459;-;-;8.874603;1.7455597;-3.6732178;-;-;-;-;-;-;-;-;-;-;-;-;-;-;-
1512466557479;-;-;9.759262;2.69487;-3.3488007;-;-;-;-;-;-;-;-;-;-;-;-;-;-;-
1512466557501;-;-;10.062119;2.9977264;-3.104599;-;-;-;-;-;-;-;-;-;-;-;-;-;-;-
1512466557521;-;-;10.092056;2.742752;-2.8388367;-;-;-;-;-;-;-;-;-;-;-;-;-;-;-
1512466557542;-;-;10.5278015;2.387207;-3.2686005;-;-;-;-;-;-;-;-;-;-;-;-;-;-;-
1512466557562;-;-;11.103607;2.339325;-3.6791992;-;-;-;-;-;-;-;-;-;-;-;-;-;-;-
1512466557583;-;-;11.801514;2.2435608;-3.473297;-;-;-;-;-;-;-;-;-;-;-;-;-;-;-
1512466557603;-;-;11.022202;0.8417511;-5.4987946;-;-;-;-;-;-;-;-;-;-;-;-;-;-;-
1512466557624;-;-;9.353439;1.0189209;-9.303192;-;-;-;-;-;-;-;-;-;-;-;-;-;-;-
1512466557646;-;-;11.060501;1.7754974;-5.81723;-;-;-;-;-;-;-;-;-;-;-;-;-;-;-
1512466557666;-;-;12.40126;1.8545074;-6.0518646;-;-;-;-;-;-;-;-;-;-;-;-;-;-;-
1512466557687;-;-;11.006638;0.76394653;-8.619644;-;-;-;-;-;-;-;-;-;-;-;-;-;-;-
1512466557707;-;-;5.5957336;-1.3537292;-8.905746;-;-;-;-;-;-;-;-;-;-;-;-;-;-;-
1512466557727;-;-;3.4325714;-2.9781952;-5.6280823;-;-;-;-;-;-;-;-;-;-;-;-;-;-;-
1512466557748;-;-;4.8200226;-3.7192078;-2.8340454;-;-;-;-;-;-;-;-;-;-;-;-;-;-;-
1512466557769;-;-;5.8638916;-2.1390228;-1.7853851;-;-;-;-;-;-;-;-;-;-;-;-;-;-;-
1512466557789;-;-;5.921356;0.4658661;-2.47612;-;-;-;-;-;-;-;-;-;-;-;-;-;-;-
1512466557809;-;-;7.1316223;1.4391022;-3.2398682;-;-;-;-;-;-;-;-;-;-;-;-;-;-;-
1512466557830;-;-;7.988739;0.14863586;-3.4529572;-;-;-;-;-;-;-;-;-;-;-;-;-;-;-
1512466557851;-;-;6.952057;-0.8186188;-3.740265;-;-;-;-;-;-;-;-;-;-;-;-;-;-;-
1512466557872;-;-;5.0127563;-1.9008026;-3.4158478;-;-;-;-;-;-;-;-;-;-;-;-;-;-;-
1512466557893;-;-;3.7845306;-2.4191437;-3.12854;-;-;-;-;-;-;-;-;-;-;-;-;-;-;-
1512466557913;-;-;4.1604156;-2.1174774;-2.8807373;-;-;-;-;-;-;-;-;-;-;-;-;-;-;-
1512466557934;-;-;5.6579895;-1.4171753;-2.7107544;-;-;-;-;-;-;-;-;-;-;-;-;-;-;-
1512466557954;-;-;7.138809;-1.1885223;-2.828064;-;-;-;-;-;-;-;-;-;-;-;-;-;-;-
1512466557974;-;-;8.015076;-1.1179047;-3.4972534;-;-;-;-;-;-;-;-;-;-;-;-;-;-;-
1512466557995;-;-;9.665878;-0.8892517;-3.6337128;-;-;-;-;-;-;-;-;-;-;-;-;-;-;-
1512466558014;-;-;10.815094;-1.3273926;-3.7797546;-;-;-;-;-;-;-;-;-;-;-;-;-;-;-
1512466558035;-;-;10.041779;-3.0559998;-3.9437714;-;-;-;-;-;-;-;-;-;-;-;-;-;-;-
1512466558055;-;-;10.411682;-3.2942352;-3.906662;-;-;-;-;-;-;-;-;-;-;-;-;-;-;-
1512466558076;-;-;11.202957;-2.5460358;-3.7917328;-;-;-;-;-;-;-;-;-;-;-;-;-;-;-
1512466558096;-;-;11.150284;-2.159378;-4.014389;-;-;-;-;-;-;-;-;-;-;-;-;-;-;-
1512466558117;-;-;9.55455;-2.12706;-6.64682;-;-;-;-;-;-;-;-;-;-;-;-;-;-;-
1512466558136;-;-;10.274002;-3.0476227;-8.24614;-;-;-;-;-;-;-;-;-;-;-;-;-;-;-
1512466558157;-;-;12.827423;-3.720398;-7.1316376;-;-;-;-;-;-;-;-;-;-;-;-;-;-;-
1512466558177;-;-;16.328949;-3.886795;-6.389435;-;-;-;-;-;-;-;-;-;-;-;-;-;-;-
1512466558197;-;-;14.641037;-1.779892;-8.651962;-;-;-;-;-;-;-;-;-;-;-;-;-;-;-
1512466558218;-;-;8.337097;-0.49780273;-10.3051605;-;-;-;-;-;-;-;-;-;-;-;-;-;-;-
1512466558238;-;-;4.719467;0.86450195;-8.787231;-;-;-;-;-;-;-;-;-;-;-;-;-;-;-
1512466558259;-;-;3.2613983;1.5480499;-6.1907196;-;-;-;-;-;-;-;-;-;-;-;-;-;-;-
1512466558279;-;-;3.6528473;0.7507782;-4.044327;-;-;-;-;-;-;-;-;-;-;-;-;-;-;-
1512466558299;-;-;5.347946;-0.059661865;-2.8807373;-;-;-;-;-;-;-;-;-;-;-;-;-;-;-
1512466558320;-;-;7.5685577;-0.41400146;-2.3791504;-;-;-;-;-;-;-;-;-;-;-;-;-;-;-
1512466558340;-;-;8.511871;-0.59835815;-2.9741058;-;-;-;-;-;-;-;-;-;-;-;-;-;-;-
1512466558360;-;-;7.276474;-0.6294861;-3.9317932;-;-;-;-;-;-;-;-;-;-;-;-;-;-;-
1512466558381;-;-;5.842346;0.045684814;-3.480484;-;-;-;-;-;-;-;-;-;-;-;-;-;-;-
1512466558401;-;-;4.0131683;1.4115753;-3.341629;-;-;-;-;-;-;-;-;-;-;-;-;-;-;-
1512466558422;-;-;3.276947;1.8940125;-3.4469604;-;-;-;-;-;-;-;-;-;-;-;-;-;-;-
1512466558441;-;-;3.2158966;1.4786072;-3.0447388;-;-;-;-;-;-;-;-;-;-;-;-;-;-;-
1512466558461;-;-;3.8204346;0.80703735;-2.6281433;-;-;-;-;-;-;-;-;-;-;-;-;-;-;-
1512466558483;-;-;4.8918457;0.38327026;-2.3743591;-;-;-;-;-;-;-;-;-;-;-;-;-;-;-
1512466558502;-;-;6.3056183;0.1438446;-3.0507202;-;-;-;-;-;-;-;-;-;-;-;-;-;-;-
1512466558522;-;-;8.295197;0.7723236;-3.1847992;-;-;-;-;-;-;-;-;-;-;-;-;-;-;-
1512466558542;-;-;10.046555;2.5559998;-2.8651733;-;-;-;-;-;-;-;-;-;-;-;-;-;-;-
1512466558563;-;-;10.636734;3.3496857;-2.682022;-;-;-;-;-;-;-;-;-;-;-;-;-;-;-
1512466558584;-;-;10.058533;3.0803375;-3.0471344;-;-;-;-;-;-;-;-;-;-;-;-;-;-;-
1512466558604;-;-;9.754471;2.809784;-2.922638;-;-;-;-;-;-;-;-;-;-;-;-;-;-;-
1512466558626;-;-;10.451187;2.5153046;-2.6377258;-;-;-;-;-;-;-;-;-;-;-;-;-;-;-
1512466558645;-;-;11.181412;2.268692;-2.270218;-;-;-;-;-;-;-;-;-;-;-;-;-;-;-
1512466558666;-;-;9.122391;1.7395782;-5.318039;-;-;-;-;-;-;-;-;-;-;-;-;-;-;-
1512466558686;-;-;8.32872;3.1042786;-8.292831;-;-;-;-;-;-;-;-;-;-;-;-;-;-;-
1512466558706;-;-;13.740814;4.6808624;-3.0710754;-;-;-;-;-;-;-;-;-;-;-;-;-;-;-
1512466558727;-;-;15.950668;4.3372955;-5.0714264;-;-;-;-;-;-;-;-;-;-;-;-;-;-;-
1512466558746;-;-;13.372101;1.7288055;-9.639572;-;-;-;-;-;-;-;-;-;-;-;-;-;-;-
1512466558767;-;-;7.5446167;0.37487793;-9.674286;-;-;-;-;-;-;-;-;-;-;-;-;-;-;-
1512466558787;-;-;4.323227;-1.6434326;-5.9297485;-;-;-;-;-;-;-;-;-;-;-;-;-;-;-
1512466558807;-;-;3.924591;-3.3971863;-2.4725342;-;-;-;-;-;-;-;-;-;-;-;-;-;-;-
1512466558827;-;-;5.193512;-3.6844788;-1.5878754;-;-;-;-;-;-;-;-;-;-;-;-;-;-;-
1512466558847;-;-;6.7018585;-1.3513336;-3.566681;-;-;-;-;-;-;-;-;-;-;-;-;-;-;-
1512466558868;-;-;8.38858;-0.26316833;-4.717087;-;-;-;-;-;-;-;-;-;-;-;-;-;-;-
1512466558888;-;-;9.291183;0.13186646;-4.6644135;-;-;-;-;-;-;-;-;-;-;-;-;-;-;-
1512466558908;-;-;8.639969;0.47305298;-4.0646667;-;-;-;-;-;-;-;-;-;-;-;-;-;-;-
1512466558929;-;-;6.6455994;0.1797638;-3.2398682;-;-;-;-;-;-;-;-;-;-;-;-;-;-;-
1512466558949;-;-;4.537506;-0.68933105;-2.5694885;-;-;-;-;-;-;-;-;-;-;-;-;-;-;-
1512466558969;-;-;3.2338562;-1.6290588;-1.9086914;-;-;-;-;-;-;-;-;-;-;-;-;-;-;-
1512466558990;-;-;2.9992218;-2.332962;-2.0044556;-;-;-;-;-;-;-;-;-;-;-;-;-;-;-
1512466559011;-;-;4.489624;-2.5436401;-2.8567963;-;-;-;-;-;-;-;-;-;-;-;-;-;-;-
1512466559031;-;-;5.9153595;-2.1150818;-3.3751373;-;-;-;-;-;-;-;-;-;-;-;-;-;-;-
1512466559051;-;-;7.2190094;-1.1609955;-3.7366638;-;-;-;-;-;-;-;-;-;-;-;-;-;-;-
1512466559072;-;-;8.802765;-0.50857544;-3.8946838;-;-;-;-;-;-;-;-;-;-;-;-;-;-;-
1512466559093;-;-;9.9496;-0.5145569;-3.8132782;-;-;-;-;-;-;-;-;-;-;-;-;-;-;-
1512466559113;-;-;10.375763;-1.3465424;-3.2135315;-;-;-;-;-;-;-;-;-;-;-;-;-;-;-
1512466559134;-;-;10.115997;-2.6082916;-2.7993317;-;-;-;-;-;-;-;-;-;-;-;-;-;-;-
1512466559153;-;-;10.005859;-3.7467346;-2.4102783;-;-;-;-;-;-;-;-;-;-;-;-;-;-;-
1512466559174;-;-;10.557724;-3.249939;-2.551529;-;-;-;-;-;-;-;-;-;-;-;-;-;-;-
1512466559194;-;-;10.394913;-2.1773376;-3.1584625;-;-;-;-;-;-;-;-;-;-;-;-;-;-;-
1512466559214;-;-;10.435623;-1.0771942;-3.856369;-;-;-;-;-;-;-;-;-;-;-;-;-;-;-
1512466559235;-;-;10.68222;0.14863586;-4.045517;-;-;-;-;-;-;-;-;-;-;-;-;-;-;-
1512466559255;-;-;9.776016;0.34136963;-6.1990967;-;-;-;-;-;-;-;-;-;-;-;-;-;-;-
1512466559275;-;-;10.363785;-1.4207611;-8.637604;-;-;-;-;-;-;-;-;-;-;-;-;-;-;-
1512466559295;-;-;15.633423;-4.389572;-5.0187683;-;-;-;-;-;-;-;-;-;-;-;-;-;-;-
1512466559316;-;-;16.318176;-5.1377716;-5.3312073;-;-;-;-;-;-;-;-;-;-;-;-;-;-;-
1512466559336;-;-;10.537369;-3.3169708;-10.224945;-;-;-;-;-;-;-;-;-;-;-;-;-;-;-
1512466559356;-;-;6.4325104;-1.8206024;-9.837097;-;-;-;-;-;-;-;-;-;-;-;-;-;-;-
1512466559377;-;-;3.521164;-0.54089355;-6.4828186;-;-;-;-;-;-;-;-;-;-;-;-;-;-;-
1512466559398;-;-;2.4329987;0.4909973;-3.559494;-;-;-;-;-;-;-;-;-;-;-;-;-;-;-
1512466559418;-;-;2.995636;0.51374817;-2.172058;-;-;-;-;-;-;-;-;-;-;-;-;-;-;-
1512466559438;-;-;5.2593536;-0.3757019;-3.2159271;-;-;-;-;-;-;-;-;-;-;-;-;-;-;-
1512466559458;-;-;8.325134;-0.9826355;-4.0826263;-;-;-;-;-;-;-;-;-;-;-;-;-;-;-
1512466559478;-;-;8.875793;-1.6374359;-4.004822;-;-;-;-;-;-;-;-;-;-;-;-;-;-;-
1512466559499;-;-;8.272461;-1.8146057;-3.5128021;-;-;-;-;-;-;-;-;-;-;-;-;-;-;-
1512466559519;-;-;7.348297;-1.1849365;-3.195572;-;-;-;-;-;-;-;-;-;-;-;-;-;-;-
1512466559541;-;-;5.355118;0.33418274;-3.54393;-;-;-;-;-;-;-;-;-;-;-;-;-;-;-
1512466559561;-;-;4.2944946;1.1745453;-4.029953;-;-;-;-;-;-;-;-;-;-;-;-;-;-;-
1512466559582;-;-;4.094574;1.3122101;-4.1185455;-;-;-;-;-;-;-;-;-;-;-;-;-;-;-
1512466559602;-;-;4.530319;0.9171753;-4.108963;-;-;-;-;-;-;-;-;-;-;-;-;-;-;-
1512466559622;-;-;5.6939087;0.1510315;-3.5942078;-;-;-;-;-;-;-;-;-;-;-;-;-;-;-
1512466559643;-;-;7.525467;0.41079712;-3.6672363;-;-;-;-;-;-;-;-;-;-;-;-;-;-;-
1512466559663;-;-;9.074509;1.7647247;-4.19635;-;-;-;-;-;-;-;-;-;-;-;-;-;-;-
1512466559684;-;-;9.301956;2.646988;-4.220291;-;-;-;-;-;-;-;-;-;-;-;-;-;-;-
1512466559704;-;-;9.070923;2.5835419;-4.187973;-;-;-;-;-;-;-;-;-;-;-;-;-;-;-
1512466559725;-;-;9.00029;2.1765137;-3.2733917;-;-;-;-;-;-;-;-;-;-;-;-;-;-;-
1512466559745;-;-;8.311966;1.7766876;-2.781372;-;-;-;-;-;-;-;-;-;-;-;-;-;-;-
1512466559766;-;-;8.531036;1.4283295;-3.2518463;-;-;-;-;-;-;-;-;-;-;-;-;-;-;-
1512466559785;-;-;9.561737;1.4055939;-3.686386;-;-;-;-;-;-;-;-;-;-;-;-;-;-;-
1512466559806;-;-;9.997482;1.0895538;-3.6289215;-;-;-;-;-;-;-;-;-;-;-;-;-;-;-
1512466559825;-;-;9.734116;0.7016907;-6.4780273;-;-;-;-;-;-;-;-;-;-;-;-;-;-;-
1512466559846;-;-;10.555328;1.6031036;-9.296005;-;-;-;-;-;-;-;-;-;-;-;-;-;-;-
1512466559866;-;-;16.994537;2.6769104;-3.2841644;-;-;-;-;-;-;-;-;-;-;-;-;-;-;-
1512466559886;-;-;13.852142;3.8057709;-6.5223236;-;-;-;-;-;-;-;-;-;-;-;-;-;-;-
1512466559906;-;-;10.278793;2.4626312;-9.983139;-;-;-;-;-;-;-;-;-;-;-;-;-;-;-
1512466559926;-;-;5.9357147;1.398407;-8.677109;-;-;-;-;-;-;-;-;-;-;-;-;-;-;-
1512466559947;-;-;3.1189423;-0.6474457;-5.2294464;-;-;-;-;-;-;-;-;-;-;-;-;-;-;-
1512466559967;-;-;3.624115;-2.6274414;-3.1105804;-;-;-;-;-;-;-;-;-;-;-;-;-;-;-
1512466559988;-;-;5.6508026;-3.0583954;-3.408661;-;-;-;-;-;-;-;-;-;-;-;-;-;-;-
1512466560010;-;-;7.142395;-1.3740845;-4.310074;-;-;-;-;-;-;-;-;-;-;-;-;-;-;-
1512466560029;-;-;9.207397;-0.39006042;-5.1468506;-;-;-;-;-;-;-;-;-;-;-;-;-;-;-
1512466560049;-;-;9.584473;-0.0010070801;-4.94693;-;-;-;-;-;-;-;-;-;-;-;-;-;-;-
1512466560070;-;-;8.794388;0.6143036;-4.872711;-;-;-;-;-;-;-;-;-;-;-;-;-;-;-
1512466560090;-;-;7.1124725;0.5532532;-4.186783;-;-;-;-;-;-;-;-;-;-;-;-;-;-;-
1512466560111;-;-;5.1875305;0.1438446;-3.5140076;-;-;-;-;-;-;-;-;-;-;-;-;-;-;-
1512466560130;-;-;3.3882904;-0.37091064;-3.096222;-;-;-;-;-;-;-;-;-;-;-;-;-;-;-
1512466560151;-;-;2.525177;-0.7408142;-2.697586;-;-;-;-;-;-;-;-;-;-;-;-;-;-;-
1512466560172;-;-;3.0734406;-1.2328186;-2.4964752;-;-;-;-;-;-;-;-;-;-;-;-;-;-;-
1512466560193;-;-;4.4561005;-1.5632172;-2.2905731;-;-;-;-;-;-;-;-;-;-;-;-;-;-;-
1512466560213;-;-;5.8722687;-1.6529999;-2.5970306;-;-;-;-;-;-;-;-;-;-;-;-;-;-;-
1512466560232;-;-;6.8550873;-1.6745453;-3.0243835;-;-;-;-;-;-;-;-;-;-;-;-;-;-;-
1512466560252;-;-;7.5793304;-1.6087189;-3.3763428;-;-;-;-;-;-;-;-;-;-;-;-;-;-;-
1512466560273;-;-;9.327103;-1.1645813;-3.7199097;-;-;-;-;-;-;-;-;-;-;-;-;-;-;-
1512466560294;-;-;10.507446;-0.4379425;-3.5762482;-;-;-;-;-;-;-;-;-;-;-;-;-;-;-
1512466560314;-;-;10.980301;-0.6402588;-3.111786;-;-;-;-;-;-;-;-;-;-;-;-;-;-;-
1512466560334;-;-;10.791153;-2.7303925;-2.7310944;-;-;-;-;-;-;-;-;-;-;-;-;-;-;-
1512466560355;-;-;10.689407;-3.6401978;-2.2845764;-;-;-;-;-;-;-;-;-;-;-;-;-;-;-
1512466560375;-;-;10.246475;-3.45224;-2.1349487;-;-;-;-;-;-;-;-;-;-;-;-;-;-;-
1512466560395;-;-;9.477936;-2.0372772;-2.3085175;-;-;-;-;-;-;-;-;-;-;-;-;-;-;-
1512466560416;-;-;8.748901;-0.25837708;-2.8807373;-;-;-;-;-;-;-;-;-;-;-;-;-;-;-
1512466560436;-;-;6.5115204;0.17855835;-6.6599884;-;-;-;-;-;-;-;-;-;-;-;-;-;-;-
1512466560457;-;-;6.692276;-1.4925995;-10.256073;-;-;-;-;-;-;-;-;-;-;-;-;-;-;-
1512466560476;-;-;15.213242;-3.7156067;-4.650055;-;-;-;-;-;-;-;-;-;-;-;-;-;-;-
1512466560497;-;-;20.57985;-4.8564453;-6.3319855;-;-;-;-;-;-;-;-;-;-;-;-;-;-;-
1512466560517;-;-;13.661804;-2.3269653;-15.783096;-;-;-;-;-;-;-;-;-;-;-;-;-;-;-
1512466560538;-;-;10.829468;-0.7503967;-10.371002;-;-;-;-;-;-;-;-;-;-;-;-;-;-;-
1512466560558;-;-;8.077332;0.20968628;-7.670334;-;-;-;-;-;-;-;-;-;-;-;-;-;-;-
1512466560578;-;-;2.446167;0.6957092;-4.6931458;-;-;-;-;-;-;-;-;-;-;-;-;-;-;-
1512466560599;-;-;1.1832275;-0.071640015;-3.796524;-;-;-;-;-;-;-;-;-;-;-;-;-;-;-
1512466560619;-;-;3.9748688;-0.32182312;-4.041931;-;-;-;-;-;-;-;-;-;-;-;-;-;-;-
1512466560640;-;-;7.177109;-0.2212677;-3.6791992;-;-;-;-;-;-;-;-;-;-;-;-;-;-;-
1512466560660;-;-;7.8486786;-0.838974;-4.1041718;-;-;-;-;-;-;-;-;-;-;-;-;-;-;-
1512466560681;-;-;6.8407288;-1.759552;-3.151291;-;-;-;-;-;-;-;-;-;-;-;-;-;-;-
1512466560701;-;-;6.560608;-1.9522858;-2.9501648;-;-;-;-;-;-;-;-;-;-;-;-;-;-;-
1512466560721;-;-;5.7453766;-1.0412903;-2.962143;-;-;-;-;-;-;-;-;-;-;-;-;-;-;-
1512466560742;-;-;4.906204;-0.00579834;-3.2482452;-;-;-;-;-;-;-;-;-;-;-;-;-;-;-
1512466560762;-;-;4.15683;1.4594574;-3.6049805;-;-;-;-;-;-;-;-;-;-;-;-;-;-;-
1512466560782;-;-;4.311249;2.097519;-3.1871948;-;-;-;-;-;-;-;-;-;-;-;-;-;-;-
1512466560803;-;-;4.8858643;1.698883;-2.8663788;-;-;-;-;-;-;-;-;-;-;-;-;-;-;-
1512466560823;-;-;6.1907043;1.2224274;-2.8125;-;-;-;-;-;-;-;-;-;-;-;-;-;-;-
1512466560843;-;-;7.396179;0.6861267;-3.8432007;-;-;-;-;-;-;-;-;-;-;-;-;-;-;-
1512466560864;-;-;9.085281;1.0847626;-4.737442;-;-;-;-;-;-;-;-;-;-;-;-;-;-;-
1512466560885;-;-;10.301544;1.8114014;-4.4034576;-;-;-;-;-;-;-;-;-;-;-;-;-;-;-
1512466560905;-;-;10.6271515;2.4961395;-3.7127228;-;-;-;-;-;-;-;-;-;-;-;-;-;-;-
1512466560926;-;-;9.88855;2.7295837;-2.780182;-;-;-;-;-;-;-;-;-;-;-;-;-;-;-
1512466560946;-;-;9.785599;2.9223175;-3.0231934;-;-;-;-;-;-;-;-;-;-;-;-;-;-;-
1512466560967;-;-;10.405685;3.4167175;-3.836029;-;-;-;-;-;-;-;-;-;-;-;-;-;-;-
1512466560987;-;-;10.807922;3.5244598;-4.086212;-;-;-;-;-;-;-;-;-;-;-;-;-;-;-
1512466561007;-;-;11.459137;2.3896027;-3.0112305;-;-;-;-;-;-;-;-;-;-;-;-;-;-;-
1512466561028;-;-;11.21254;0.5520477;-1.0132599;-;-;-;-;-;-;-;-;-;-;-;-;-;-;-
1512466561048;-;-;9.37619;-0.63905334;-8.484375;-;-;-;-;-;-;-;-;-;-;-;-;-;-;-
1512466561068;-;-;8.299988;2.3979797;-5.1420593;-;-;-;-;-;-;-;-;-;-;-;-;-;-;-
1512466561088;-;-;7.7565002;4.410309;-3.7210999;-;-;-;-;-;-;-;-;-;-;-;-;-;-;-
1512466561109;-;-;9.242111;4.2044067;-6.444504;-;-;-;-;-;-;-;-;-;-;-;-;-;-;-
1512466561129;-;-;8.055786;3.063568;-9.799988;-;-;-;-;-;-;-;-;-;-;-;-;-;-;-
1512466561150;-;-;3.8276215;0.8226013;-10.548172;-;-;-;-;-;-;-;-;-;-;-;-;-;-;-
1512466561171;-;-;3.8527527;-2.2575378;-6.8180084;-;-;-;-;-;-;-;-;-;-;-;-;-;-;-
1512466561191;-;-;7.628418;-3.028473;-2.5539246;-;-;-;-;-;-;-;-;-;-;-;-;-;-;-
1512466561211;-;-;9.104446;-2.0456543;-1.2335358;-;-;-;-;-;-;-;-;-;-;-;-;-;-;-
1512466561232;-;-;10.171051;-0.8820648;-3.8898926;-;-;-;-;-;-;-;-;-;-;-;-;-;-;-
1512466561253;-;-;9.932831;-0.30267334;-5.0163727;-;-;-;-;-;-;-;-;-;-;-;-;-;-;-
1512466561273;-;-;8.631592;0.32939148;-4.736252;-;-;-;-;-;-;-;-;-;-;-;-;-;-;-
1512466561293;-;-;6.3331604;1.0033569;-4.021576;-;-;-;-;-;-;-;-;-;-;-;-;-;-;-
1512466561314;-;-;4.597351;0.754364;-3.5583038;-;-;-;-;-;-;-;-;-;-;-;-;-;-;-
1512466561334;-;-;3.4625092;-0.9000244;-3.1297302;-;-;-;-;-;-;-;-;-;-;-;-;-;-;-
1512466561355;-;-;4.093384;-2.3712616;-3.1536713;-;-;-;-;-;-;-;-;-;-;-;-;-;-;-
1512466561375;-;-;5.9345245;-2.669342;-3.4182434;-;-;-;-;-;-;-;-;-;-;-;-;-;-;-
1512466561395;-;-;6.984375;-2.4993591;-3.851593;-;-;-;-;-;-;-;-;-;-;-;-;-;-;-
1512466561416;-;-;7.1759186;-2.0935364;-3.6959686;-;-;-;-;-;-;-;-;-;-;-;-;-;-;-
1512466561435;-;-;7.485962;-1.4075928;-3.4218292;-;-;-;-;-;-;-;-;-;-;-;-;-;-;-
1512466561455;-;-;7.69545;-0.7108917;-3.0220032;-;-;-;-;-;-;-;-;-;-;-;-;-;-;-
1512466561476;-;-;7.624832;-0.29071045;-2.9765015;-;-;-;-;-;-;-;-;-;-;-;-;-;-;-
1512466561496;-;-;7.636795;0.086380005;-2.9405975;-;-;-;-;-;-;-;-;-;-;-;-;-;-;-
1512466561517;-;-;7.6080627;0.2815094;-2.8101044;-;-;-;-;-;-;-;-;-;-;-;-;-;-;-
1512466561537;-;-;7.6894684;0.2132721;-2.6616669;-;-;-;-;-;-;-;-;-;-;-;-;-;-;-
1512466561558;-;-;7.9145203;-0.37210083;-2.3348541;-;-;-;-;-;-;-;-;-;-;-;-;-;-;-
1512466561579;-;-;8.351471;-0.9838257;-1.8739777;-;-;-;-;-;-;-;-;-;-;-;-;-;-;-
1512466561599;-;-;8.571732;-1.0747986;-1.5387878;-;-;-;-;-;-;-;-;-;-;-;-;-;-;-
1512466561619;-;-;8.545395;-0.8748932;-1.8931274;-;-;-;-;-;-;-;-;-;-;-;-;-;-;-
1512466561640;-;-;9.087677;-0.73243713;-2.1038208;-;-;-;-;-;-;-;-;-;-;-;-;-;-;-
1512466561660;-;-;9.803543;-0.4547119;-2.7143402;-;-;-;-;-;-;-;-;-;-;-;-;-;-;-
1512466561681;-;-;9.224152;-0.7096863;-2.8807373;-;-;-;-;-;-;-;-;-;-;-;-;-;-;-
1512466561701;-;-;9.892136;-1.0089569;-1.792572;-;-;-;-;-;-;-;-;-;-;-;-;-;-;-
1512466561721;-;-;9.570114;0.25637817;-4.03714;-;-;-;-;-;-;-;-;-;-;-;-;-;-;-
1512466561742;-;-;11.174225;3.0994873;-11.120377;-;-;-;-;-;-;-;-;-;-;-;-;-;-;-
1512466561762;-;-;15.705261;3.501709;-5.9644775;-;-;-;-;-;-;-;-;-;-;-;-;-;-;-
1512466561782;-;-;12.178604;4.0619507;-5.8339844;-;-;-;-;-;-;-;-;-;-;-;-;-;-;-
1512466561803;-;-;8.8997345;3.4969177;-5.1384735;-;-;-;-;-;-;-;-;-;-;-;-;-;-;-
1512466561824;-;-;6.264923;2.734375;-6.0075684;-;-;-;-;-;-;-;-;-;-;-;-;-;-;-
1512466561843;-;-;5.1157074;1.3241882;-5.00679;-;-;-;-;-;-;-;-;-;-;-;-;-;-;-
1512466561864;-;-;4.7134705;0.43473816;-3.0603027;-;-;-;-;-;-;-;-;-;-;-;-;-;-;-
1512466561884;-;-;5.320404;0.6645813;-2.429428;-;-;-;-;-;-;-;-;-;-;-;-;-;-;-
1512466561905;-;-;6.8598785;0.7723236;-4.235855;-;-;-;-;-;-;-;-;-;-;-;-;-;-;-
1512466561925;-;-;7.7577057;0.6442261;-4.646469;-;-;-;-;-;-;-;-;-;-;-;-;-;-;-
1512466561946;-;-;9.284012;0.06842041;-3.2650146;-;-;-;-;-;-;-;-;-;-;-;-;-;-;-
1512466561966;-;-;9.956772;0.512558;-1.7063904;-;-;-;-;-;-;-;-;-;-;-;-;-;-;-
1512466561987;-;-;9.134369;1.1518097;-0.89234924;-;-;-;-;-;-;-;-;-;-;-;-;-;-;-
1512466562006;-;-;7.222595;1.5648041;-0.8851776;-;-;-;-;-;-;-;-;-;-;-;-;-;-;-
1512466562027;-;-;6.1332397;1.6378326;-1.4777374;-;-;-;-;-;-;-;-;-;-;-;-;-;-;-
1512466562048;-;-;6.5318756;1.6725464;-1.9613647;-;-;-;-;-;-;-;-;-;-;-;-;-;-;-
1512466562068;-;-;8.592087;1.9035797;-2.0906525;-;-;-;-;-;-;-;-;-;-;-;-;-;-;-
1512466562088;-;-;9.179855;2.2124329;-1.7794037;-;-;-;-;-;-;-;-;-;-;-;-;-;-;-
1512466562109;-;-;8.613632;2.5739594;-1.1150208;-;-;-;-;-;-;-;-;-;-;-;-;-;-;-
1512466562130;-;-;7.6475677;2.6290283;-0.5140686;-;-;-;-;-;-;-;-;-;-;-;-;-;-;-
1512466562150;-;-;7.252533;1.947876;-0.47935486;-;-;-;-;-;-;-;-;-;-;-;-;-;-;-
1512466562170;-;-;7.889389;0.9459076;-0.6253967;-;-;-;-;-;-;-;-;-;-;-;-;-;-;-
1512466562190;-;-;8.952408;0.8297882;-2.780182;-;-;-;-;-;-;-;-;-;-;-;-;-;-;-
1512466562211;-;-;9.248093;4.0021057;-5.930954;-;-;-;-;-;-;-;-;-;-;-;-;-;-;-
1512466562231;-;-;11.272385;5.473343;-9.061371;-;-;-;-;-;-;-;-;-;-;-;-;-;-;-
1512466562252;-;-;15.151001;3.2694702;-6.3092346;-;-;-;-;-;-;-;-;-;-;-;-;-;-;-
1512466562271;-;-;11.539337;1.2942505;-6.622879;-;-;-;-;-;-;-;-;-;-;-;-;-;-;-
1512466562291;-;-;8.319138;-0.8748932;-4.975662;-;-;-;-;-;-;-;-;-;-;-;-;-;-;-
1512466562311;-;-;5.766922;-2.221634;-3.5846405;-;-;-;-;-;-;-;-;-;-;-;-;-;-;-
1512466562332;-;-;4.438141;-2.961441;-4.19635;-;-;-;-;-;-;-;-;-;-;-;-;-;-;-
1512466562353;-;-;6.2673187;-2.36409;-4.5698547;-;-;-;-;-;-;-;-;-;-;-;-;-;-;-
1512466562373;-;-;9.448013;-1.0783997;-4.0191803;-;-;-;-;-;-;-;-;-;-;-;-;-;-;-
1512466562393;-;-;13.703705;-0.42118835;-4.76857;-;-;-;-;-;-;-;-;-;-;-;-;-;-;-
1512466562414;-;-;14.832565;0.42277527;-6.456482;-;-;-;-;-;-;-;-;-;-;-;-;-;-;-
1512466562434;-;-;12.191757;0.68014526;-6.737793;-;-;-;-;-;-;-;-;-;-;-;-;-;-;-
1512466562455;-;-;8.399353;-0.109939575;-5.3910522;-;-;-;-;-;-;-;-;-;-;-;-;-;-;-
1512466562474;-;-;5.526306;-0.99938965;-3.867157;-;-;-;-;-;-;-;-;-;-;-;-;-;-;-
1512466562494;-;-;3.0914001;-1.8014526;-2.883133;-;-;-;-;-;-;-;-;-;-;-;-;-;-;-
1512466562515;-;-;2.4401855;-2.198883;-2.8065186;-;-;-;-;-;-;-;-;-;-;-;-;-;-;-
1512466562535;-;-;4.192734;-2.3712616;-2.47612;-;-;-;-;-;-;-;-;-;-;-;-;-;-;-
1512466562555;-;-;6.3690643;-2.1893005;-2.6868134;-;-;-;-;-;-;-;-;-;-;-;-;-;-;-
1512466562575;-;-;8.097687;-1.7571564;-3.1644592;-;-;-;-;-;-;-;-;-;-;-;-;-;-;-
1512466562596;-;-;8.897339;-1.3932343;-3.4314117;-;-;-;-;-;-;-;-;-;-;-;-;-;-;-
1512466562616;-;-;9.199005;-1.4973755;-3.417038;-;-;-;-;-;-;-;-;-;-;-;-;-;-;-
1512466562637;-;-;8.766861;-1.7296143;-3.1177673;-;-;-;-;-;-;-;-;-;-;-;-;-;-;-
1512466562657;-;-;8.285629;-2.1641693;-2.4713287;-;-;-;-;-;-;-;-;-;-;-;-;-;-;-
1512466562677;-;-;8.157532;-3.2846527;-2.1816254;-;-;-;-;-;-;-;-;-;-;-;-;-;-;-
1512466562697;-;-;8.863831;-4.5200653;-2.1062164;-;-;-;-;-;-;-;-;-;-;-;-;-;-;-
1512466562718;-;-;10.295563;-4.7894135;-1.6321564;-;-;-;-;-;-;-;-;-;-;-;-;-;-;-
1512466562737;-;-;10.941986;-4.1609344;-1.7123718;-;-;-;-;-;-;-;-;-;-;-;-;-;-;-
1512466562757;-;-;11.386108;-2.9111633;-1.6824341;-;-;-;-;-;-;-;-;-;-;-;-;-;-;-
1512466562778;-;-;10.907272;-1.3573151;-1.729126;-;-;-;-;-;-;-;-;-;-;-;-;-;-;-
1512466562798;-;-;9.43364;0.47065735;-6.495987;-;-;-;-;-;-;-;-;-;-;-;-;-;-;-
1512466562819;-;-;10.823471;3.824936;-11.066513;-;-;-;-;-;-;-;-;-;-;-;-;-;-;-
1512466562840;-;-;11.557297;6.3017273;-7.977997;-;-;-;-;-;-;-;-;-;-;-;-;-;-;-
1512466562860;-;-;9.5354;4.4881287;-5.6963196;-;-;-;-;-;-;-;-;-;-;-;-;-;-;-
1512466562880;-;-;7.367447;1.6545868;-3.6839905;-;-;-;-;-;-;-;-;-;-;-;-;-;-;-
1512466562901;-;-;5.5275116;-0.85453796;-3.4421844;-;-;-;-;-;-;-;-;-;-;-;-;-;-;-
1512466562922;-;-;4.8798676;-1.7020874;-3.9569397;-;-;-;-;-;-;-;-;-;-;-;-;-;-;-
1512466562942;-;-;5.8950195;-0.92996216;-3.8264465;-;-;-;-;-;-;-;-;-;-;-;-;-;-;-
1512466562962;-;-;8.526245;0.16299438;-4.7482147;-;-;-;-;-;-;-;-;-;-;-;-;-;-;-
1512466562982;-;-;11.386108;0.70529175;-4.404648;-;-;-;-;-;-;-;-;-;-;-;-;-;-;-
1512466563003;-;-;12.929184;1.0536346;-3.8982697;-;-;-;-;-;-;-;-;-;-;-;-;-;-;-
1512466563023;-;-;12.621521;1.8161926;-3.4302063;-;-;-;-;-;-;-;-;-;-;-;-;-;-;-
1512466563044;-;-;10.239288;1.9742126;-2.9405975;-;-;-;-;-;-;-;-;-;-;-;-;-;-;-
1512466563066;-;-;7.643982;1.4163666;-2.3540192;-;-;-;-;-;-;-;-;-;-;-;-;-;-;-
1512466563085;-;-;4.802063;0.4084015;-2.3875275;-;-;-;-;-;-;-;-;-;-;-;-;-;-;-
1512466563105;-;-;3.9569092;-0.15663147;-2.2570496;-;-;-;-;-;-;-;-;-;-;-;-;-;-;-
1512466563126;-;-;4.466873;-0.26316833;-1.871582;-;-;-;-;-;-;-;-;-;-;-;-;-;-;-
1512466563146;-;-;6.1452026;0.50177;-1.555542;-;-;-;-;-;-;-;-;-;-;-;-;-;-;-
1512466563167;-;-;7.43927;1.5073395;-1.658493;-;-;-;-;-;-;-;-;-;-;-;-;-;-;-
1512466563187;-;-;7.925293;1.8102112;-1.9781189;-;-;-;-;-;-;-;-;-;-;-;-;-;-;-
1512466563207;-;-;7.961212;1.5240936;-2.1947937;-;-;-;-;-;-;-;-;-;-;-;-;-;-;-
1512466563228;-;-;8.112045;0.7040863;-2.3600006;-;-;-;-;-;-;-;-;-;-;-;-;-;-;-
1512466563247;-;-;8.647156;0.47305298;-2.1768494;-;-;-;-;-;-;-;-;-;-;-;-;-;-;-
1512466563268;-;-;8.995499;0.730423;-1.8416595;-;-;-;-;-;-;-;-;-;-;-;-;-;-;-
1512466563288;-;-;9.300766;0.9818115;-1.3795776;-;-;-;-;-;-;-;-;-;-;-;-;-;-;-
1512466563308;-;-;10.080078;0.93392944;-1.0264282;-;-;-;-;-;-;-;-;-;-;-;-;-;-;-
1512466563328;-;-;11.574066;1.3110199;-1.2694397;-;-;-;-;-;-;-;-;-;-;-;-;-;-;-
1512466563349;-;-;12.587997;2.4279175;-5.939331;-;-;-;-;-;-;-;-;-;-;-;-;-;-;-
1512466563369;-;-;17.008896;5.411087;-6.169174;-;-;-;-;-;-;-;-;-;-;-;-;-;-;-
1512466563390;-;-;19.252258;7.0690765;-5.9812317;-;-;-;-;-;-;-;-;-;-;-;-;-;-;-
1512466563409;-;-;16.03566;4.8233185;-7.5063324;-;-;-;-;-;-;-;-;-;-;-;-;-;-;-
1512466563429;-;-;9.007477;3.094696;-8.599289;-;-;-;-;-;-;-;-;-;-;-;-;-;-;-
1512466563449;-;-;3.8862762;1.5396576;-6.947296;-;-;-;-;-;-;-;-;-;-;-;-;-;-;-
1512466563470;-;-;0.95936584;-0.4666748;-4.9529266;-;-;-;-;-;-;-;-;-;-;-;-;-;-;-
1512466563490;-;-;3.1189423;-2.6884918;-4.4633026;-;-;-;-;-;-;-;-;-;-;-;-;-;-;-
1512466563511;-;-;6.704254;-2.5233002;-4.7518005;-;-;-;-;-;-;-;-;-;-;-;-;-;-;-
1512466563531;-;-;10.458359;-0.95988464;-5.2414246;-;-;-;-;-;-;-;-;-;-;-;-;-;-;-
1512466563551;-;-;11.538147;-0.4056244;-5.811249;-;-;-;-;-;-;-;-;-;-;-;-;-;-;-
1512466563572;-;-;11.326263;-0.3397827;-5.224655;-;-;-;-;-;-;-;-;-;-;-;-;-;-;-
1512466563592;-;-;9.431244;0.2132721;-4.1376953;-;-;-;-;-;-;-;-;-;-;-;-;-;-;-
1512466563612;-;-;6.2876587;0.4000244;-3.080658;-;-;-;-;-;-;-;-;-;-;-;-;-;-;-
1512466563633;-;-;4.715866;0.03970337;-2.6628723;-;-;-;-;-;-;-;-;-;-;-;-;-;-;-
1512466563653;-;-;4.0263367;-0.8162384;-2.6173706;-;-;-;-;-;-;-;-;-;-;-;-;-;-;-
1512466563674;-;-;4.3064575;-1.6925049;-2.3204956;-;-;-;-;-;-;-;-;-;-;-;-;-;-;-
1512466563694;-;-;5.0941467;-2.1366272;-1.9146729;-;-;-;-;-;-;-;-;-;-;-;-;-;-;-
1512466563715;-;-;5.632843;-2.3377533;-2.247467;-;-;-;-;-;-;-;-;-;-;-;-;-;-;-
1512466563735;-;-;6.3690643;-2.2683105;-2.7478638;-;-;-;-;-;-;-;-;-;-;-;-;-;-;-
1512466563755;-;-;7.142395;-1.7415924;-3.2853546;-;-;-;-;-;-;-;-;-;-;-;-;-;-;-
1512466563775;-;-;7.3470917;-1.7870789;-3.5918121;-;-;-;-;-;-;-;-;-;-;-;-;-;-;-
1512466563796;-;-;7.8319244;-1.7236328;-3.7630005;-;-;-;-;-;-;-;-;-;-;-;-;-;-;-
1512466563816;-;-;8.671097;-1.546463;-4.057495;-;-;-;-;-;-;-;-;-;-;-;-;-;-;-
1512466563837;-;-;10.22612;-1.7727203;-4.457321;-;-;-;-;-;-;-;-;-;-;-;-;-;-;-
1512466563858;-;-;10.5242;-2.6477966;-5.0319366;-;-;-;-;-;-;-;-;-;-;-;-;-;-;-
1512466563878;-;-;11.250839;-3.3469086;-4.6213226;-;-;-;-;-;-;-;-;-;-;-;-;-;-;-
1512466563898;-;-;13.888062;-2.4466858;-4.5339355;-;-;-;-;-;-;-;-;-;-;-;-;-;-;-
1512466563919;-;-;14.018539;-0.68814087;-5.939331;-;-;-;-;-;-;-;-;-;-;-;-;-;-;-
1512466563939;-;-;10.852203;-0.74679565;-9.450424;-;-;-;-;-;-;-;-;-;-;-;-;-;-;-
1512466563959;-;-;8.138382;-2.6394196;-9.898148;-;-;-;-;-;-;-;-;-;-;-;-;-;-;-
1512466563980;-;-;12.16304;-4.374008;-5.7513885;-;-;-;-;-;-;-;-;-;-;-;-;-;-;-
1512466564000;-;-;12.293518;-2.5017548;-5.516754;-;-;-;-;-;-;-;-;-;-;-;-;-;-;-
1512466564021;-;-;6.0661926;0.0037841797;-9.578522;-;-;-;-;-;-;-;-;-;-;-;-;-;-;-
1512466564042;-;-;4.1723785;1.1733551;-8.358673;-;-;-;-;-;-;-;-;-;-;-;-;-;-;-
1512466564063;-;-;2.5598907;1.6438141;-4.2406464;-;-;-;-;-;-;-;-;-;-;-;-;-;-;-
1512466564083;-;-;3.5283508;-0.1697998;-2.5036469;-;-;-;-;-;-;-;-;-;-;-;-;-;-;-
1512466564104;-;-;5.2785034;-1.9199524;-2.1074066;-;-;-;-;-;-;-;-;-;-;-;-;-;-;-
1512466564124;-;-;8.164719;-1.7128601;-3.1871948;-;-;-;-;-;-;-;-;-;-;-;-;-;-;-
1512466564145;-;-;8.951218;-1.6470184;-5.070236;-;-;-;-;-;-;-;-;-;-;-;-;-;-;-
1512466564165;-;-;7.396179;-1.1430359;-4.7230835;-;-;-;-;-;-;-;-;-;-;-;-;-;-;-
1512466564185;-;-;6.364273;-0.33021545;-4.2885284;-;-;-;-;-;-;-;-;-;-;-;-;-;-;-
1512466564206;-;-;4.4644775;1.7252197;-4.128113;-;-;-;-;-;-;-;-;-;-;-;-;-;-;-
1512466564226;-;-;3.8312073;2.8193665;-4.2478333;-;-;-;-;-;-;-;-;-;-;-;-;-;-;-
1512466564247;-;-;3.7857208;2.3991852;-3.808487;-;-;-;-;-;-;-;-;-;-;-;-;-;-;-
1512466564267;-;-;5.4688416;0.80584717;-3.1225586;-;-;-;-;-;-;-;-;-;-;-;-;-;-;-
1512466564287;-;-;7.217804;0.24919128;-3.6097717;-;-;-;-;-;-;-;-;-;-;-;-;-;-;-
1512466564307;-;-;7.502716;0.88246155;-3.4613342;-;-;-;-;-;-;-;-;-;-;-;-;-;-;-
1512466564328;-;-;8.01149;1.8485107;-3.5223846;-;-;-;-;-;-;-;-;-;-;-;-;-;-;-
1512466564348;-;-;8.709396;2.6577606;-3.38591;-;-;-;-;-;-;-;-;-;-;-;-;-;-;-
1512466564368;-;-;9.533005;2.6170502;-3.2973328;-;-;-;-;-;-;-;-;-;-;-;-;-;-;-
1512466564388;-;-;10.021423;2.5356445;-3.85997;-;-;-;-;-;-;-;-;-;-;-;-;-;-;-
1512466564409;-;-;11.400482;2.703247;-4.7518005;-;-;-;-;-;-;-;-;-;-;-;-;-;-;-
1512466564429;-;-;11.662643;2.8265533;-5.637665;-;-;-;-;-;-;-;-;-;-;-;-;-;-;-
1512466564449;-;-;10.376953;2.2220154;-5.1851654;-;-;-;-;-;-;-;-;-;-;-;-;-;-;-
1512466564470;-;-;8.260483;0.8345642;-10.380569;-;-;-;-;-;-;-;-;-;-;-;-;-;-;-
1512466564490;-;-;9.80954;2.165741;-7.0921326;-;-;-;-;-;-;-;-;-;-;-;-;-;-;-
1512466564511;-;-;11.7668;2.6134644;-4.554291;-;-;-;-;-;-;-;-;-;-;-;-;-;-;-
1512466564531;-;-;11.028183;1.9849854;-7.543442;-;-;-;-;-;-;-;-;-;-;-;-;-;-;-
1512466564552;-;-;9.131973;0.56881714;-9.883774;-;-;-;-;-;-;-;-;-;-;-;-;-;-;-
1512466564572;-;-;4.293289;-1.2280273;-8.375427;-;-;-;-;-;-;-;-;-;-;-;-;-;-;-
1512466564593;-;-;3.5558777;-3.4306946;-4.4034576;-;-;-;-;-;-;-;-;-;-;-;-;-;-;-
1512466564614;-;-;4.81044;-3.0117188;-2.1804352;-;-;-;-;-;-;-;-;-;-;-;-;-;-;-
1512466564634;-;-;5.200699;-0.9610748;-2.831665;-;-;-;-;-;-;-;-;-;-;-;-;-;-;-
1512466564654;-;-;7.0107117;0.6131134;-3.978485;-;-;-;-;-;-;-;-;-;-;-;-;-;-;-
1512466564675;-;-;8.238937;0.91238403;-4.895462;-;-;-;-;-;-;-;-;-;-;-;-;-;-;-
1512466564695;-;-;7.8965607;0.47782898;-5.0079803;-;-;-;-;-;-;-;-;-;-;-;-;-;-;-
1512466564715;-;-;5.5478516;-0.9215698;-4.231064;-;-;-;-;-;-;-;-;-;-;-;-;-;-;-
1512466564736;-;-;3.2625885;-2.368866;-3.4589386;-;-;-;-;-;-;-;-;-;-;-;-;-;-;-
1512466564756;-;-;2.4605255;-3.392395;-3.262619;-;-;-;-;-;-;-;-;-;-;-;-;-;-;-
1512466564777;-;-;4.2190704;-3.2128296;-3.4002838;-;-;-;-;-;-;-;-;-;-;-;-;-;-;-
1512466564796;-;-;6.163162;-1.8098297;-3.4385834;-;-;-;-;-;-;-;-;-;-;-;-;-;-;-
1512466564817;-;-;7.6667175;-0.4774475;-4.112549;-;-;-;-;-;-;-;-;-;-;-;-;-;-;-
1512466564837;-;-;8.094086;0.25756836;-4.828415;-;-;-;-;-;-;-;-;-;-;-;-;-;-;-
1512466564858;-;-;9.289993;0.2850952;-5.041504;-;-;-;-;-;-;-;-;-;-;-;-;-;-;-
1512466564878;-;-;9.668274;-0.32182312;-4.7577972;-;-;-;-;-;-;-;-;-;-;-;-;-;-;-
1512466564899;-;-;9.29718;-2.2754974;-4.744629;-;-;-;-;-;-;-;-;-;-;-;-;-;-;-
1512466564919;-;-;9.570114;-4.4817505;-4.4381714;-;-;-;-;-;-;-;-;-;-;-;-;-;-;-
1512466564939;-;-;10.508636;-5.270645;-4.67041;-;-;-;-;-;-;-;-;-;-;-;-;-;-;-
1512466564960;-;-;12.297104;-4.0543823;-4.875107;-;-;-;-;-;-;-;-;-;-;-;-;-;-;-
1512466564980;-;-;12.664627;-1.2663422;-5.698715;-;-;-;-;-;-;-;-;-;-;-;-;-;-;-
1512466565002;-;-;11.132324;0.29826355;-7.1376343;-;-;-;-;-;-;-;-;-;-;-;-;-;-;-
1512466565021;-;-;9.266052;0.76034546;-9.377411;-;-;-;-;-;-;-;-;-;-;-;-;-;-;-
1512466565041;-;-;7.2788696;-0.6582184;-9.938843;-;-;-;-;-;-;-;-;-;-;-;-;-;-;-
1512466565062;-;-;10.276398;-4.068756;-6.2541656;-;-;-;-;-;-;-;-;-;-;-;-;-;-;-
1512466565083;-;-;11.84819;-4.380005;-5.3946533;-;-;-;-;-;-;-;-;-;-;-;-;-;-;-
1512466565102;-;-;6.712631;-2.1916962;-8.496338;-;-;-;-;-;-;-;-;-;-;-;-;-;-;-
1512466565122;-;-;5.1647797;-1.1633911;-8.06897;-;-;-;-;-;-;-;-;-;-;-;-;-;-;-
1512466565143;-;-;3.797699;0.5879669;-4.6560364;-;-;-;-;-;-;-;-;-;-;-;-;-;-;-
1512466565162;-;-;4.23703;0.33059692;-3.1620636;-;-;-;-;-;-;-;-;-;-;-;-;-;-;-
1512466565182;-;-;5.79924;-0.5935669;-2.5347748;-;-;-;-;-;-;-;-;-;-;-;-;-;-;-
1512466565203;-;-;8.017471;-0.39485168;-3.0028381;-;-;-;-;-;-;-;-;-;-;-;-;-;-;-
1512466565223;-;-;9.579697;-0.18415833;-4.9098206;-;-;-;-;-;-;-;-;-;-;-;-;-;-;-
1512466565244;-;-;8.234146;-0.3697052;-5.5143585;-;-;-;-;-;-;-;-;-;-;-;-;-;-;-
1512466565265;-;-;6.2673187;-0.10395813;-4.9397583;-;-;-;-;-;-;-;-;-;-;-;-;-;-;-
1512466565285;-;-;3.9197998;0.9470978;-3.8695374;-;-;-;-;-;-;-;-;-;-;-;-;-;-;-
1512466565305;-;-;2.750229;1.7707062;-3.3607788;-;-;-;-;-;-;-;-;-;-;-;-;-;-;-
1512466565325;-;-;2.9513397;1.4151611;-2.9118652;-;-;-;-;-;-;-;-;-;-;-;-;-;-;-
1512466565346;-;-;4.1843567;0.42277527;-3.2362823;-;-;-;-;-;-;-;-;-;-;-;-;-;-;-
1512466565366;-;-;5.908188;0.03730774;-3.425415;-;-;-;-;-;-;-;-;-;-;-;-;-;-;-
1512466565387;-;-;7.672714;0.12709045;-3.551117;-;-;-;-;-;-;-;-;-;-;-;-;-;-;-
1512466565407;-;-;9.209793;0.95188904;-3.6325226;-;-;-;-;-;-;-;-;-;-;-;-;-;-;-
1512466565428;-;-;9.603638;1.6126862;-3.8970795;-;-;-;-;-;-;-;-;-;-;-;-;-;-;-
1512466565448;-;-;9.896927;1.9382935;-3.765396;-;-;-;-;-;-;-;-;-;-;-;-;-;-;-
1512466565468;-;-;9.240906;2.1011047;-3.2266998;-;-;-;-;-;-;-;-;-;-;-;-;-;-;-
1512466565489;-;-;8.942825;2.2782745;-3.3559875;-;-;-;-;-;-;-;-;-;-;-;-;-;-;-
1512466565509;-;-;9.450409;2.2220154;-3.7857513;-;-;-;-;-;-;-;-;-;-;-;-;-;-;-
1512466565530;-;-;9.843048;1.9047852;-4.234665;-;-;-;-;-;-;-;-;-;-;-;-;-;-;-
1512466565552;-;-;9.239716;1.398407;-6.2409973;-;-;-;-;-;-;-;-;-;-;-;-;-;-;-
1512466565571;-;-;8.701019;1.5827637;-8.558594;-;-;-;-;-;-;-;-;-;-;-;-;-;-;-
1512466565591;-;-;12.778351;2.406372;-6.6276703;-;-;-;-;-;-;-;-;-;-;-;-;-;-;-
1512466565611;-;-;14.8289795;2.2495422;-5.3922577;-;-;-;-;-;-;-;-;-;-;-;-;-;-;-
1512466565632;-;-;10.981491;1.8245697;-9.45163;-;-;-;-;-;-;-;-;-;-;-;-;-;-;-
1512466565652;-;-;7.8043976;1.6761322;-9.659927;-;-;-;-;-;-;-;-;-;-;-;-;-;-;-
1512466565673;-;-;5.2988586;0.8237915;-6.7353973;-;-;-;-;-;-;-;-;-;-;-;-;-;-;-
1512466565693;-;-;4.331604;-1.0305176;-3.8348236;-;-;-;-;-;-;-;-;-;-;-;-;-;-;-
1512466565714;-;-;4.7026978;-2.3305664;-3.0076294;-;-;-;-;-;-;-;-;-;-;-;-;-;-;-
1512466565734;-;-;5.987198;-1.8960114;-4.0203857;-;-;-;-;-;-;-;-;-;-;-;-;-;-;-
1512466565754;-;-;8.295197;-0.44752502;-4.594986;-;-;-;-;-;-;-;-;-;-;-;-;-;-;-
1512466565774;-;-;9.438431;0.14863586;-4.543518;-;-;-;-;-;-;-;-;-;-;-;-;-;-;-
1512466565795;-;-;8.656723;0.30784607;-4.4716797;-;-;-;-;-;-;-;-;-;-;-;-;-;-;-
1512466565814;-;-;6.557007;-0.124313354;-4.006012;-;-;-;-;-;-;-;-;-;-;-;-;-;-;-
1512466565835;-;-;4.82959;-1.1657867;-3.341629;-;-;-;-;-;-;-;-;-;-;-;-;-;-;-
1512466565856;-;-;3.7521973;-2.559204;-2.1253662;-;-;-;-;-;-;-;-;-;-;-;-;-;-;-
1512466565875;-;-;3.600174;-3.5599823;-1.737503;-;-;-;-;-;-;-;-;-;-;-;-;-;-;-
1512466565896;-;-;4.2190704;-3.7778625;-2.7705994;-;-;-;-;-;-;-;-;-;-;-;-;-;-;-
1512466565916;-;-;5.2940674;-3.325348;-4.2873383;-;-;-;-;-;-;-;-;-;-;-;-;-;-;-
1512466565936;-;-;6.335541;-2.3377533;-4.780533;-;-;-;-;-;-;-;-;-;-;-;-;-;-;-
1512466565957;-;-;7.8367157;-1.7475739;-4.4429626;-;-;-;-;-;-;-;-;-;-;-;-;-;-;-
1512466565977;-;-;9.1918335;-1.4459076;-4.416626;-;-;-;-;-;-;-;-;-;-;-;-;-;-;-
1512466565997;-;-;9.940018;-1.1442413;-4.713501;-;-;-;-;-;-;-;-;-;-;-;-;-;-;-
1512466566018;-;-;9.98671;-0.9622803;-5.022354;-;-;-;-;-;-;-;-;-;-;-;-;-;-;-
1512466566038;-;-;9.878967;-1.8708801;-4.8427887;-;-;-;-;-;-;-;-;-;-;-;-;-;-;-
1512466566058;-;-;10.135147;-2.4897766;-4.744629;-;-;-;-;-;-;-;-;-;-;-;-;-;-;-
1512466566078;-;-;11.268799;-2.28508;-4.951721;-;-;-;-;-;-;-;-;-;-;-;-;-;-;-
1512466566099;-;-;10.8641815;-1.7894745;-6.7629395;-;-;-;-;-;-;-;-;-;-;-;-;-;-;-
1512466566119;-;-;9.361816;-1.4770355;-9.542603;-;-;-;-;-;-;-;-;-;-;-;-;-;-;-
1512466566139;-;-;9.069733;-2.4287262;-9.371414;-;-;-;-;-;-;-;-;-;-;-;-;-;-;-
1512466566160;-;-;13.355347;-3.7874298;-4.4980164;-;-;-;-;-;-;-;-;-;-;-;-;-;-;-
1512466566181;-;-;13.952698;-2.818985;-6.3092346;-;-;-;-;-;-;-;-;-;-;-;-;-;-;-
1512466566201;-;-;8.740524;-1.6661682;-10.788788;-;-;-;-;-;-;-;-;-;-;-;-;-;-;-
1512466566221;-;-;4.667984;-0.38407898;-9.11763;-;-;-;-;-;-;-;-;-;-;-;-;-;-;-
1512466566242;-;-;2.1480865;1.0392761;-6.497177;-;-;-;-;-;-;-;-;-;-;-;-;-;-;-
1512466566262;-;-;1.8883209;1.3014374;-4.244232;-;-;-;-;-;-;-;-;-;-;-;-;-;-;-
1512466566283;-;-;3.323639;0.3497467;-3.856369;-;-;-;-;-;-;-;-;-;-;-;-;-;-;-
1512466566302;-;-;6.8119965;-0.660614;-4.026367;-;-;-;-;-;-;-;-;-;-;-;-;-;-;-
1512466566323;-;-;9.347458;-1.1789551;-4.27417;-;-;-;-;-;-;-;-;-;-;-;-;-;-;-
1512466566343;-;-;9.264847;-1.5416718;-4.258606;-;-;-;-;-;-;-;-;-;-;-;-;-;-;-
1512466566364;-;-;7.2788696;-1.1717682;-4.077835;-;-;-;-;-;-;-;-;-;-;-;-;-;-;-
1512466566383;-;-;5.7729034;-0.5061798;-3.7737732;-;-;-;-;-;-;-;-;-;-;-;-;-;-;-
1512466566403;-;-;3.8228302;1.3529205;-3.5786438;-;-;-;-;-;-;-;-;-;-;-;-;-;-;-
1512466566424;-;-;3.443344;2.0328674;-3.5307617;-;-;-;-;-;-;-;-;-;-;-;-;-;-;-
1512466566445;-;-;3.9317627;2.0304718;-3.3943024;-;-;-;-;-;-;-;-;-;-;-;-;-;-;-
1512466566464;-;-;5.2904816;1.6366272;-3.3715515;-;-;-;-;-;-;-;-;-;-;-;-;-;-;-
1512466566484;-;-;6.746155;1.1410217;-3.4541473;-;-;-;-;-;-;-;-;-;-;-;-;-;-;-
1512466566505;-;-;8.368225;0.63105774;-4.1903687;-;-;-;-;-;-;-;-;-;-;-;-;-;-;-
1512466566526;-;-;9.164291;1.0165253;-4.5064087;-;-;-;-;-;-;-;-;-;-;-;-;-;-;-
1512466566546;-;-;9.345062;1.7335968;-4.19516;-;-;-;-;-;-;-;-;-;-;-;-;-;-;-
1512466566566;-;-;9.65152;2.1035004;-2.8029327;-;-;-;-;-;-;-;-;-;-;-;-;-;-;-
1512466566588;-;-;9.006287;2.426712;-2.5144196;-;-;-;-;-;-;-;-;-;-;-;-;-;-;-
1512466566607;-;-;8.863831;3.0743408;-3.0638885;-;-;-;-;-;-;-;-;-;-;-;-;-;-;-
1512466566628;-;-;9.47435;2.928299;-2.768219;-;-;-;-;-;-;-;-;-;-;-;-;-;-;-
1512466566649;-;-;10.081268;2.481781;-2.7035675;-;-;-;-;-;-;-;-;-;-;-;-;-;-;-
1512466566669;-;-;9.024231;1.7467651;-6.837158;-;-;-;-;-;-;-;-;-;-;-;-;-;-;-
1512466566689;-;-;9.9496;2.9869537;-9.128403;-;-;-;-;-;-;-;-;-;-;-;-;-;-;-
1512466566710;-;-;15.019318;3.5029144;-4.792511;-;-;-;-;-;-;-;-;-;-;-;-;-;-;-
1512466566730;-;-;14.13945;3.283844;-8.072571;-;-;-;-;-;-;-;-;-;-;-;-;-;-;-
1512466566751;-;-;12.546112;1.3565063;-10.357834;-;-;-;-;-;-;-;-;-;-;-;-;-;-;-
1512466566771;-;-;7.8367157;0.5484619;-9.656326;-;-;-;-;-;-;-;-;-;-;-;-;-;-;-
1512466566792;-;-;4.308853;-1.2914734;-6.947296;-;-;-;-;-;-;-;-;-;-;-;-;-;-;-
1512466566812;-;-;3.9892273;-3.1900787;-4.6285095;-;-;-;-;-;-;-;-;-;-;-;-;-;-;-
1512466566832;-;-;4.7960815;-3.3636627;-5.590973;-;-;-;-;-;-;-;-;-;-;-;-;-;-;-
1512466566853;-;-;5.823181;-1.8469391;-5.333603;-;-;-;-;-;-;-;-;-;-;-;-;-;-;-
1512466566872;-;-;8.466385;-0.13388062;-4.962494;-;-;-;-;-;-;-;-;-;-;-;-;-;-;-
1512466566892;-;-;8.7812195;0.53289795;-4.456131;-;-;-;-;-;-;-;-;-;-;-;-;-;-;-
1512466566913;-;-;7.3710327;0.6945038;-4.0155945;-;-;-;-;-;-;-;-;-;-;-;-;-;-;-
1512466566933;-;-;5.4329376;-0.124313354;-3.12854;-;-;-;-;-;-;-;-;-;-;-;-;-;-;-
1512466566954;-;-;3.670807;-1.4470978;-2.6616669;-;-;-;-;-;-;-;-;-;-;-;-;-;-;-
1512466566975;-;-;1.8452148;-2.870453;-2.3193054;-;-;-;-;-;-;-;-;-;-;-;-;-;-;-
1512466566995;-;-;1.6872101;-3.0188904;-2.579071;-;-;-;-;-;-;-;-;-;-;-;-;-;-;-
1512466567015;-;-;3.0375366;-2.3437347;-2.922638;-;-;-;-;-;-;-;-;-;-;-;-;-;-;-
1512466567035;-;-;4.9421234;-1.7870789;-3.282959;-;-;-;-;-;-;-;-;-;-;-;-;-;-;-
1512466567056;-;-;7.0969086;-1.194519;-3.5415344;-;-;-;-;-;-;-;-;-;-;-;-;-;-;-
1512466567077;-;-;8.410126;-0.8461609;-4.1269226;-;-;-;-;-;-;-;-;-;-;-;-;-;-;-
1512466567097;-;-;9.747284;-0.42237854;-4.7709656;-;-;-;-;-;-;-;-;-;-;-;-;-;-;-
1512466567118;-;-;10.567291;-1.1143036;-4.7027283;-;-;-;-;-;-;-;-;-;-;-;-;-;-;-
1512466567138;-;-;9.619202;-1.9331207;-4.4070435;-;-;-;-;-;-;-;-;-;-;-;-;-;-;-
1512466567158;-;-;8.868607;-2.5220947;-4.420212;-;-;-;-;-;-;-;-;-;-;-;-;-;-;-
1512466567179;-;-;9.187042;-2.6801147;-4.1664276;-;-;-;-;-;-;-;-;-;-;-;-;-;-;-
1512466567200;-;-;9.737701;-2.7375793;-4.1137543;-;-;-;-;-;-;-;-;-;-;-;-;-;-;-
1512466567220;-;-;9.274429;-2.732788;-5.0546722;-;-;-;-;-;-;-;-;-;-;-;-;-;-;-
1512466567241;-;-;8.07135;-2.3437347;-7.6296387;-;-;-;-;-;-;-;-;-;-;-;-;-;-;-
1512466567260;-;-;9.070923;-1.5009766;-9.716187;-;-;-;-;-;-;-;-;-;-;-;-;-;-;-
1512466567280;-;-;12.346191;-1.6230774;-7.263321;-;-;-;-;-;-;-;-;-;-;-;-;-;-;-
1512466567301;-;-;17.43985;-3.3385162;-5.635269;-;-;-;-;-;-;-;-;-;-;-;-;-;-;-
1512466567322;-;-;14.864883;-3.625824;-10.557739;-;-;-;-;-;-;-;-;-;-;-;-;-;-;-
1512466567342;-;-;9.574905;-2.1725464;-9.983139;-;-;-;-;-;-;-;-;-;-;-;-;-;-;-
1512466567362;-;-;6.9951477;-0.91200256;-6.440918;-;-;-;-;-;-;-;-;-;-;-;-;-;-;-
1512466567383;-;-;2.343216;0.5352936;-4.677582;-;-;-;-;-;-;-;-;-;-;-;-;-;-;-
1512466567403;-;-;1.8452148;-0.30387878;-4.081436;-;-;-;-;-;-;-;-;-;-;-;-;-;-;-
1512466567424;-;-;4.88945;0.100753784;-3.8970795;-;-;-;-;-;-;-;-;-;-;-;-;-;-;-
1512466567444;-;-;9.640747;0.7076721;-4.4549255;-;-;-;-;-;-;-;-;-;-;-;-;-;-;-
1512466567465;-;-;11.643494;0.6143036;-5.883072;-;-;-;-;-;-;-;-;-;-;-;-;-;-;-
1512466567485;-;-;10.843826;-0.16740417;-5.8699036;-;-;-;-;-;-;-;-;-;-;-;-;-;-;-
1512466567506;-;-;8.893753;-0.58639526;-4.9397583;-;-;-;-;-;-;-;-;-;-;-;-;-;-;-
1512466567526;-;-;5.62088;-0.18655396;-4.1939545;-;-;-;-;-;-;-;-;-;-;-;-;-;-;-
1512466567547;-;-;3.2697754;0.76753235;-3.796524;-;-;-;-;-;-;-;-;-;-;-;-;-;-;-
1512466567567;-;-;1.960144;1.2727051;-3.875534;-;-;-;-;-;-;-;-;-;-;-;-;-;-;-
1512466567586;-;-;1.5232086;1.3768616;-3.4110565;-;-;-;-;-;-;-;-;-;-;-;-;-;-;-
1512466567607;-;-;1.5279846;1.1709595;-3.0423431;-;-;-;-;-;-;-;-;-;-;-;-;-;-;-
1512466567627;-;-;2.4294128;0.596344;-2.7322998;-;-;-;-;-;-;-;-;-;-;-;-;-;-;-
1512466567648;-;-;4.3699036;0.08998108;-2.6365356;-;-;-;-;-;-;-;-;-;-;-;-;-;-;-
1512466567669;-;-;7.00473;0.32460022;-2.491684;-;-;-;-;-;-;-;-;-;-;-;-;-;-;-
1512466567689;-;-;7.648773;1.7683105;-3.2099457;-;-;-;-;-;-;-;-;-;-;-;-;-;-;-
1512466567709;-;-;8.692642;2.9390717;-3.6600494;-;-;-;-;-;-;-;-;-;-;-;-;-;-;-
1512466567730;-;-;10.063324;3.4825592;-4.183182;-;-;-;-;-;-;-;-;-;-;-;-;-;-;-
1512466567749;-;-;11.230499;3.7650757;-4.559067;-;-;-;-;-;-;-;-;-;-;-;-;-;-;-
1512466567769;-;-;11.477097;3.9853363;-4.8427887;-;-;-;-;-;-;-;-;-;-;-;-;-;-;-
1512466567790;-;-;11.201767;3.173706;-5.108551;-;-;-;-;-;-;-;-;-;-;-;-;-;-;-
1512466567810;-;-;10.487091;1.6617737;-5.061859;-;-;-;-;-;-;-;-;-;-;-;-;-;-;-
1512466567830;-;-;8.807556;0.75675964;-7.8630676;-;-;-;-;-;-;-;-;-;-;-;-;-;-;-
1512466567851;-;-;9.036209;1.6294403;-8.034256;-;-;-;-;-;-;-;-;-;-;-;-;-;-;-
1512466567871;-;-;13.44632;2.3764343;-3.065094;-;-;-;-;-;-;-;-;-;-;-;-;-;-;-
1512466567892;-;-;12.799896;3.7016296;-6.9401093;-;-;-;-;-;-;-;-;-;-;-;-;-;-;-
1512466567913;-;-;10.987488;2.9151306;-9.61203;-;-;-;-;-;-;-;-;-;-;-;-;-;-;-
1512466567934;-;-;6.953247;2.026886;-8.499924;-;-;-;-;-;-;-;-;-;-;-;-;-;-;-
1512466567953;-;-;3.711502;-0.13148499;-6.4468994;-;-;-;-;-;-;-;-;-;-;-;-;-;-;-
1512466567973;-;-;3.569046;-2.7016602;-4.0431213;-;-;-;-;-;-;-;-;-;-;-;-;-;-;-
1512466567994;-;-;4.714676;-2.4766083;-3.496048;-;-;-;-;-;-;-;-;-;-;-;-;-;-;-
1512466568014;-;-;6.908966;-0.47146606;-4.259796;-;-;-;-;-;-;-;-;-;-;-;-;-;-;-
1512466568034;-;-;9.355835;0.3796692;-4.871521;-;-;-;-;-;-;-;-;-;-;-;-;-;-;-
1512466568054;-;-;10.098038;0.7866821;-5.32283;-;-;-;-;-;-;-;-;-;-;-;-;-;-;-
1512466568075;-;-;9.503082;0.8345642;-5.0187683;-;-;-;-;-;-;-;-;-;-;-;-;-;-;-
1512466568095;-;-;8.059372;0.754364;-4.3507843;-;-;-;-;-;-;-;-;-;-;-;-;-;-;-
1512466568116;-;-;6.4648285;0.38804626;-3.8168793;-;-;-;-;-;-;-;-;-;-;-;-;-;-;-
1512466568136;-;-;4.6464386;-0.3757019;-3.4577484;-;-;-;-;-;-;-;-;-;-;-;-;-;-;-
1512466568157;-;-;3.670807;-0.9287567;-2.843628;-;-;-;-;-;-;-;-;-;-;-;-;-;-;-
1512466568177;-;-;3.1105652;-1.5033722;-2.591034;-;-;-;-;-;-;-;-;-;-;-;-;-;-;-
1512466568198;-;-;3.4050446;-2.0707855;-2.8113098;-;-;-;-;-;-;-;-;-;-;-;-;-;-;-
1512466568219;-;-;4.442932;-2.2348022;-3.3128967;-;-;-;-;-;-;-;-;-;-;-;-;-;-;-
1512466568239;-;-;5.528702;-1.577591;-3.7187042;-;-;-;-;-;-;-;-;-;-;-;-;-;-;-
1512466568259;-;-;6.8550873;-0.64624023;-3.9868622;-;-;-;-;-;-;-;-;-;-;-;-;-;-;-
1512466568280;-;-;7.9576263;-0.17936707;-3.8348236;-;-;-;-;-;-;-;-;-;-;-;-;-;-;-
1512466568300;-;-;8.898544;-0.15184021;-3.317688;-;-;-;-;-;-;-;-;-;-;-;-;-;-;-
1512466568320;-;-;9.465973;-0.5049896;-3.1500854;-;-;-;-;-;-;-;-;-;-;-;-;-;-;-
1512466568341;-;-;9.523422;-1.107132;-3.214737;-;-;-;-;-;-;-;-;-;-;-;-;-;-;-
1512466568362;-;-;9.667084;-1.4614716;-2.6640625;-;-;-;-;-;-;-;-;-;-;-;-;-;-;-
1512466568382;-;-;9.590469;-1.1933136;-2.148117;-;-;-;-;-;-;-;-;-;-;-;-;-;-;-
1512466568402;-;-;8.74292;-0.636673;-2.606598;-;-;-;-;-;-;-;-;-;-;-;-;-;-;-
1512466568423;-;-;8.097687;-0.20451355;-3.0830536;-;-;-;-;-;-;-;-;-;-;-;-;-;-;-
1512466568444;-;-;7.7565002;-0.109939575;-3.903061;-;-;-;-;-;-;-;-;-;-;-;-;-;-;-
1512466568464;-;-;7.408142;-0.46188354;-4.0167847;-;-;-;-;-;-;-;-;-;-;-;-;-;-;-
1512466568484;-;-;9.086487;-0.26197815;-2.1373444;-;-;-;-;-;-;-;-;-;-;-;-;-;-;-
1512466568505;-;-;10.653488;1.6043091;-0.9342499;-;-;-;-;-;-;-;-;-;-;-;-;-;-;-
1512466568526;-;-;6.8838196;2.849289;-8.486755;-;-;-;-;-;-;-;-;-;-;-;-;-;-;-
1512466568546;-;-;10.837845;1.0021667;-9.245728;-;-;-;-;-;-;-;-;-;-;-;-;-;-;-
1512466568565;-;-;14.637436;-1.6985016;-6.3415527;-;-;-;-;-;-;-;-;-;-;-;-;-;-;-
1512466568585;-;-;13.221268;-2.6250458;-6.7437897;-;-;-;-;-;-;-;-;-;-;-;-;-;-;-
1512466568606;-;-;10.924042;-2.0660095;-6.761734;-;-;-;-;-;-;-;-;-;-;-;-;-;-;-
1512466568626;-;-;8.568146;-0.2392273;-6.1224823;-;-;-;-;-;-;-;-;-;-;-;-;-;-;-
1512466568647;-;-;5.8243866;2.165741;-4.578232;-;-;-;-;-;-;-;-;-;-;-;-;-;-;-
1512466568667;-;-;2.9154358;4.2044067;-3.7163086;-;-;-;-;-;-;-;-;-;-;-;-;-;-;-
1512466568687;-;-;2.909439;4.123001;-3.8863068;-;-;-;-;-;-;-;-;-;-;-;-;-;-;-
1512466568708;-;-;5.38266;2.7355652;-4.627304;-;-;-;-;-;-;-;-;-;-;-;-;-;-;-
1512466568728;-;-;9.2708435;1.2583466;-5.417389;-;-;-;-;-;-;-;-;-;-;-;-;-;-;-
1512466568748;-;-;10.845032;0.27313232;-5.5490723;-;-;-;-;-;-;-;-;-;-;-;-;-;-;-
1512466568769;-;-;10.4882965;-0.3577423;-4.9924316;-;-;-;-;-;-;-;-;-;-;-;-;-;-;-
1512466568789;-;-;8.728546;0.043289185;-3.8288422;-;-;-;-;-;-;-;-;-;-;-;-;-;-;-
1512466568809;-;-;7.1819;0.8716736;-2.761032;-;-;-;-;-;-;-;-;-;-;-;-;-;-;-
1512466568830;-;-;5.458069;1.9742126;-2.4617462;-;-;-;-;-;-;-;-;-;-;-;-;-;-;-
1512466568850;-;-;4.798477;2.2698975;-2.5802612;-;-;-;-;-;-;-;-;-;-;-;-;-;-;-
1512466568872;-;-;4.9337463;1.868866;-2.6676483;-;-;-;-;-;-;-;-;-;-;-;-;-;-;-
1512466568893;-;-;6.023102;1.1158905;-2.625763;-;-;-;-;-;-;-;-;-;-;-;-;-;-;-
1512466568913;-;-;8.023453;0.6442261;-2.3240814;-;-;-;-;-;-;-;-;-;-;-;-;-;-;-
1512466568933;-;-;10.04776;0.107925415;-1.8057404;-;-;-;-;-;-;-;-;-;-;-;-;-;-;-
1512466568954;-;-;10.297958;0.28390503;-1.5938568;-;-;-;-;-;-;-;-;-;-;-;-;-;-;-
1512466568974;-;-;9.543777;0.73521423;-1.361618;-;-;-;-;-;-;-;-;-;-;-;-;-;-;-
1512466568994;-;-;8.903336;0.6933136;-0.93185425;-;-;-;-;-;-;-;-;-;-;-;-;-;-;-
1512466569015;-;-;8.701019;0.29707336;-0.8205261;-;-;-;-;-;-;-;-;-;-;-;-;-;-;-
1512466569036;-;-;9.195419;0.24798584;-1.1820526;-;-;-;-;-;-;-;-;-;-;-;-;-;-;-
1512466569056;-;-;9.313934;1.0021667;-1.2885895;-;-;-;-;-;-;-;-;-;-;-;-;-;-;-
1512466569076;-;-;9.459976;2.018509;-0.7558899;-;-;-;-;-;-;-;-;-;-;-;-;-;-;-
1512466569097;-;-;9.88855;2.3860168;-0.60624695;-;-;-;-;-;-;-;-;-;-;-;-;-;-;-
1512466569117;-;-;9.795166;2.9247131;-4.0431213;-;-;-;-;-;-;-;-;-;-;-;-;-;-;-
1512466569138;-;-;9.644333;4.4533997;-8.5538025;-;-;-;-;-;-;-;-;-;-;-;-;-;-;-
1512466569158;-;-;12.048111;4.2235565;-8.619644;-;-;-;-;-;-;-;-;-;-;-;-;-;-;-
1512466569179;-;-;11.993042;2.9271088;-7.6368256;-;-;-;-;-;-;-;-;-;-;-;-;-;-;-
1512466569199;-;-;8.156342;-0.12071228;-7.749344;-;-;-;-;-;-;-;-;-;-;-;-;-;-;-
1512466569220;-;-;6.493561;-1.7260284;-6.622879;-;-;-;-;-;-;-;-;-;-;-;-;-;-;-
1512466569239;-;-;4.9313507;-3.0177002;-4.6991425;-;-;-;-;-;-;-;-;-;-;-;-;-;-;-
1512466569260;-;-;5.572998;-1.5416718;-3.1464996;-;-;-;-;-;-;-;-;-;-;-;-;-;-;-
1512466569279;-;-;7.2836456;0.5819855;-2.7909546;-;-;-;-;-;-;-;-;-;-;-;-;-;-;-
1512466569299;-;-;9.468353;1.5552216;-4.1903687;-;-;-;-;-;-;-;-;-;-;-;-;-;-;-
1512466569320;-;-;10.8965;0.8812561;-5.1145325;-;-;-;-;-;-;-;-;-;-;-;-;-;-;-
1512466569341;-;-;10.293167;-0.17338562;-5.488022;-;-;-;-;-;-;-;-;-;-;-;-;-;-;-
1512466569361;-;-;8.866211;-0.97784424;-5.2258606;-;-;-;-;-;-;-;-;-;-;-;-;-;-;-
1512466569381;-;-;6.7617188;-1.0903625;-4.5459137;-;-;-;-;-;-;-;-;-;-;-;-;-;-;-
1512466569402;-;-;5.3311768;-0.7228546;-4.0155945;-;-;-;-;-;-;-;-;-;-;-;-;-;-;-
1512466569422;-;-;4.9540863;-0.10395813;-3.270996;-;-;-;-;-;-;-;-;-;-;-;-;-;-;-
1512466569442;-;-;6.202667;-0.14585876;-2.7191315;-;-;-;-;-;-;-;-;-;-;-;-;-;-;-
