TimeStamp[ms];Prox[Cm];Lux[lux];AccX[m/s^2];AccY[m/s^2];AccZ[m/s^2];GyroX[rad/s];GyroY[rad/s];GyroZ[rad/s];MagnX[uT];MagnY[uT];MagnZ[uT];OrienYaw[degrees];OrienPitch[degrees];OrienRoll[degrees];Press[Pa];Temp[C°];Batt[%];Lat;Lng;Speed[m/s]
1512466627544;-;-;9.206192;0.45388794;-0.36323547;-;-;-;-;-;-;-;-;-;-;-;-;-;-;-
1512466627574;-;-;9.240906;0.36410522;-0.20761108;-;-;-;-;-;-;-;-;-;-;-;-;-;-;-
1512466627585;-;-;9.234924;0.42636108;-0.19923401;-;-;-;-;-;-;-;-;-;-;-;-;-;-;-
1512466627605;-;-;9.030228;0.28271484;0.106033325;-;-;-;-;-;-;-;-;-;-;-;-;-;-;-
1512466627625;-;-;9.339081;0.38446045;-0.024459839;-;-;-;-;-;-;-;-;-;-;-;-;-;-;-
1512466627646;-;-;9.220566;0.35453796;-0.15254211;-;-;-;-;-;-;-;-;-;-;-;-;-;-;-
1512466627666;-;-;9.196625;0.44192505;-0.47216797;-;-;-;-;-;-;-;-;-;-;-;-;-;-;-
1512466627686;-;-;9.163101;0.40361023;-0.3955536;-;-;-;-;-;-;-;-;-;-;-;-;-;-;-
1512466627707;-;-;9.086487;0.31982422;-0.34048462;-;-;-;-;-;-;-;-;-;-;-;-;-;-;-
1512466627727;-;-;9.230133;0.36889648;-0.5176544;-;-;-;-;-;-;-;-;-;-;-;-;-;-;-
1512466627748;-;-;9.159515;0.37249756;-0.31414795;-;-;-;-;-;-;-;-;-;-;-;-;-;-;-
1512466627769;-;-;9.233734;0.4191742;-0.3261261;-;-;-;-;-;-;-;-;-;-;-;-;-;-;-
1512466627789;-;-;9.160706;0.37727356;-0.30577087;-;-;-;-;-;-;-;-;-;-;-;-;-;-;-
1512466627823;-;-;9.245697;0.2886963;-0.15493774;-;-;-;-;-;-;-;-;-;-;-;-;-;-;-
1512466627832;-;-;9.23851;0.2300415;-0.07234192;-;-;-;-;-;-;-;-;-;-;-;-;-;-;-
1512466627852;-;-;9.286407;0.2695465;-0.1669159;-;-;-;-;-;-;-;-;-;-;-;-;-;-;-
1512466627873;-;-;9.066132;0.4191742;-0.01008606;-;-;-;-;-;-;-;-;-;-;-;-;-;-;-
1512466627893;-;-;9.129578;0.3892517;-0.38238525;-;-;-;-;-;-;-;-;-;-;-;-;-;-;-
1512466627914;-;-;9.213379;0.30903625;-0.5056915;-;-;-;-;-;-;-;-;-;-;-;-;-;-;-
1512466627935;-;-;9.141556;0.3425598;-0.73553467;-;-;-;-;-;-;-;-;-;-;-;-;-;-;-
1512466627955;-;-;9.116409;0.34854126;-0.56555176;-;-;-;-;-;-;-;-;-;-;-;-;-;-;-
1512466627976;-;-;9.090073;0.299469;-0.32852173;-;-;-;-;-;-;-;-;-;-;-;-;-;-;-
1512466627996;-;-;9.17746;0.23362732;-0.34887695;-;-;-;-;-;-;-;-;-;-;-;-;-;-;-
1512466628016;-;-;9.525818;0.12109375;-0.40753174;-;-;-;-;-;-;-;-;-;-;-;-;-;-;-
1512466628037;-;-;9.019455;0.03012085;0.070114136;-;-;-;-;-;-;-;-;-;-;-;-;-;-;-
1512466628057;-;-;9.084091;0.27792358;-0.15014648;-;-;-;-;-;-;-;-;-;-;-;-;-;-;-
1512466628078;-;-;8.696228;0.23841858;0.9894867;-;-;-;-;-;-;-;-;-;-;-;-;-;-;-
1512466628098;-;-;9.710175;0.22045898;-0.19444275;-;-;-;-;-;-;-;-;-;-;-;-;-;-;-
1512466628119;-;-;9.309143;-0.119522095;-0.54519653;-;-;-;-;-;-;-;-;-;-;-;-;-;-;-
1512466628139;-;-;9.635956;-0.05847168;-0.5691376;-;-;-;-;-;-;-;-;-;-;-;-;-;-;-
1512466628160;-;-;9.329498;-0.19134521;-0.4733734;-;-;-;-;-;-;-;-;-;-;-;-;-;-;-
1512466628180;-;-;9.386963;-0.13388062;-0.15374756;-;-;-;-;-;-;-;-;-;-;-;-;-;-;-
1512466628201;-;-;8.782425;0.08279419;-0.4242859;-;-;-;-;-;-;-;-;-;-;-;-;-;-;-
1512466628220;-;-;9.048172;-0.124313354;-0.049591064;-;-;-;-;-;-;-;-;-;-;-;-;-;-;-
1512466628241;-;-;8.96199;-0.066848755;-0.22676086;-;-;-;-;-;-;-;-;-;-;-;-;-;-;-
1512466628260;-;-;8.768051;-0.14225769;-0.14537048;-;-;-;-;-;-;-;-;-;-;-;-;-;-;-
1512466628281;-;-;9.874176;-0.97184753;4.441925;-;-;-;-;-;-;-;-;-;-;-;-;-;-;-
1512466628301;-;-;9.240906;-0.0069885254;-0.52005005;-;-;-;-;-;-;-;-;-;-;-;-;-;-;-
1512466628321;-;-;9.214569;0.18334961;0.2341156;-;-;-;-;-;-;-;-;-;-;-;-;-;-;-
1512466628342;-;-;8.558563;0.70529175;-0.063964844;-;-;-;-;-;-;-;-;-;-;-;-;-;-;-
1512466628362;-;-;9.037399;1.0009613;-0.55955505;-;-;-;-;-;-;-;-;-;-;-;-;-;-;-
1512466628383;-;-;9.774811;0.9099884;-0.8253174;-;-;-;-;-;-;-;-;-;-;-;-;-;-;-
1512466628403;-;-;9.324707;0.73521423;-0.83369446;-;-;-;-;-;-;-;-;-;-;-;-;-;-;-
1512466628424;-;-;8.654327;0.7292328;-0.5787201;-;-;-;-;-;-;-;-;-;-;-;-;-;-;-
1512466628444;-;-;8.893753;0.6454315;-0.29859924;-;-;-;-;-;-;-;-;-;-;-;-;-;-;-
1512466628465;-;-;8.616028;0.91477966;0.079696655;-;-;-;-;-;-;-;-;-;-;-;-;-;-;-
1512466628484;-;-;9.282806;0.6957092;-0.5439911;-;-;-;-;-;-;-;-;-;-;-;-;-;-;-
1512466628504;-;-;9.480331;0.7256317;-0.69363403;-;-;-;-;-;-;-;-;-;-;-;-;-;-;-
1512466628525;-;-;9.707779;0.6442261;-0.63856506;-;-;-;-;-;-;-;-;-;-;-;-;-;-;-
1512466628545;-;-;9.98671;0.541275;-0.5068817;-;-;-;-;-;-;-;-;-;-;-;-;-;-;-
1512466628566;-;-;9.707779;0.80345154;-0.91030884;-;-;-;-;-;-;-;-;-;-;-;-;-;-;-
1512466628586;-;-;10.04776;0.9470978;-1.203598;-;-;-;-;-;-;-;-;-;-;-;-;-;-;-
1512466628607;-;-;9.960373;1.1206818;-1.069519;-;-;-;-;-;-;-;-;-;-;-;-;-;-;-
1512466628627;-;-;9.31752;1.2535553;-1.416687;-;-;-;-;-;-;-;-;-;-;-;-;-;-;-
1512466628648;-;-;8.7213745;1.1338501;-1.1078339;-;-;-;-;-;-;-;-;-;-;-;-;-;-;-
1512466628667;-;-;8.649536;1.3505249;-0.70680237;-;-;-;-;-;-;-;-;-;-;-;-;-;-;-
1512466628690;-;-;8.689041;0.730423;-0.15733337;-;-;-;-;-;-;-;-;-;-;-;-;-;-;-
1512466628709;-;-;8.610046;0.6717682;-0.5787201;-;-;-;-;-;-;-;-;-;-;-;-;-;-;-
1512466628729;-;-;8.987122;0.5053711;-1.7195587;-;-;-;-;-;-;-;-;-;-;-;-;-;-;-
1512466628749;-;-;9.598846;-0.124313354;-1.658493;-;-;-;-;-;-;-;-;-;-;-;-;-;-;-
1512466628769;-;-;9.467163;0.8273926;-0.4745636;-;-;-;-;-;-;-;-;-;-;-;-;-;-;-
1512466628789;-;-;9.558136;0.8716736;-0.37998962;-;-;-;-;-;-;-;-;-;-;-;-;-;-;-
1512466628810;-;-;8.317947;1.6306458;-0.5284424;-;-;-;-;-;-;-;-;-;-;-;-;-;-;-
1512466628830;-;-;8.660324;1.2116547;-1.3005676;-;-;-;-;-;-;-;-;-;-;-;-;-;-;-
1512466628851;-;-;8.697433;0.47903442;-0.67807007;-;-;-;-;-;-;-;-;-;-;-;-;-;-;-
1512466628871;-;-;7.9109344;0.39404297;-0.13937378;-;-;-;-;-;-;-;-;-;-;-;-;-;-;-
1512466628892;-;-;7.8917847;0.3892517;-0.42189026;-;-;-;-;-;-;-;-;-;-;-;-;-;-;-
1512466628912;-;-;7.7169952;1.2188416;-0.28781128;-;-;-;-;-;-;-;-;-;-;-;-;-;-;-
1512466628932;-;-;9.3546295;0.45509338;-0.7690582;-;-;-;-;-;-;-;-;-;-;-;-;-;-;-
1512466628953;-;-;8.976349;-0.04170227;-0.74391174;-;-;-;-;-;-;-;-;-;-;-;-;-;-;-
1512466628973;-;-;10.458359;0.021743774;-0.93185425;-;-;-;-;-;-;-;-;-;-;-;-;-;-;-
1512466628993;-;-;10.321899;0.80703735;-0.102264404;-;-;-;-;-;-;-;-;-;-;-;-;-;-;-
1512466629014;-;-;9.287598;0.93392944;-0.8660126;-;-;-;-;-;-;-;-;-;-;-;-;-;-;-
1512466629034;-;-;9.421677;1.4414978;-3.7282867;-;-;-;-;-;-;-;-;-;-;-;-;-;-;-
1512466629054;-;-;10.534973;1.698883;-3.3763428;-;-;-;-;-;-;-;-;-;-;-;-;-;-;-
1512466629075;-;-;10.933609;1.4630432;-2.4892883;-;-;-;-;-;-;-;-;-;-;-;-;-;-;-
1512466629095;-;-;10.732498;0.39762878;-3.433792;-;-;-;-;-;-;-;-;-;-;-;-;-;-;-
1512466629116;-;-;9.263657;-0.22605896;-3.6444855;-;-;-;-;-;-;-;-;-;-;-;-;-;-;-
1512466629137;-;-;8.668701;-1.4949799;-2.9896698;-;-;-;-;-;-;-;-;-;-;-;-;-;-;-
1512466629159;-;-;6.1164703;-2.025299;-2.2690277;-;-;-;-;-;-;-;-;-;-;-;-;-;-;-
1512466629177;-;-;7.1208496;-1.9546814;-2.4246368;-;-;-;-;-;-;-;-;-;-;-;-;-;-;-
1512466629198;-;-;8.07373;-0.5145569;-2.412674;-;-;-;-;-;-;-;-;-;-;-;-;-;-;-
1512466629218;-;-;9.094864;-2.1318512;-3.724701;-;-;-;-;-;-;-;-;-;-;-;-;-;-;-
1512466629239;-;-;11.132324;-0.7875061;-4.207123;-;-;-;-;-;-;-;-;-;-;-;-;-;-;-
1512466629259;-;-;11.113174;-0.97784424;-3.5247803;-;-;-;-;-;-;-;-;-;-;-;-;-;-;-
1512466629279;-;-;10.095642;-1.2471924;-4.3124695;-;-;-;-;-;-;-;-;-;-;-;-;-;-;-
1512466629299;-;-;9.137955;-1.0448761;-3.238678;-;-;-;-;-;-;-;-;-;-;-;-;-;-;-
1512466629320;-;-;7.99234;-1.6913147;-2.5024567;-;-;-;-;-;-;-;-;-;-;-;-;-;-;-
1512466629340;-;-;6.020706;0.3904419;-2.3288727;-;-;-;-;-;-;-;-;-;-;-;-;-;-;-
1512466629361;-;-;5.198303;0.5089569;-2.4485931;-;-;-;-;-;-;-;-;-;-;-;-;-;-;-
1512466629381;-;-;9.487518;-0.7958832;-0.24232483;-;-;-;-;-;-;-;-;-;-;-;-;-;-;-
1512466629401;-;-;6.3654785;-1.858902;-3.6085815;-;-;-;-;-;-;-;-;-;-;-;-;-;-;-
1512466629422;-;-;8.015076;-1.906784;-2.128952;-;-;-;-;-;-;-;-;-;-;-;-;-;-;-
1512466629443;-;-;9.115219;-1.9450989;-1.7183533;-;-;-;-;-;-;-;-;-;-;-;-;-;-;-
1512466629464;-;-;9.239716;-2.1737366;-1.7207489;-;-;-;-;-;-;-;-;-;-;-;-;-;-;-
1512466629483;-;-;9.160706;-2.2048645;-1.322113;-;-;-;-;-;-;-;-;-;-;-;-;-;-;-
1512466629503;-;-;9.39653;-2.5927277;-1.9481964;-;-;-;-;-;-;-;-;-;-;-;-;-;-;-
1512466629524;-;-;8.513077;-2.2168427;-2.230713;-;-;-;-;-;-;-;-;-;-;-;-;-;-;-
1512466629544;-;-;9.232529;-2.2288055;-1.4693604;-;-;-;-;-;-;-;-;-;-;-;-;-;-;-
1512466629565;-;-;9.851425;-1.3118286;-1.5256195;-;-;-;-;-;-;-;-;-;-;-;-;-;-;-
1512466629586;-;-;9.96875;-1.269928;-0.9581909;-;-;-;-;-;-;-;-;-;-;-;-;-;-;-
1512466629606;-;-;9.438431;-1.5356903;-1.6872253;-;-;-;-;-;-;-;-;-;-;-;-;-;-;-
1512466629626;-;-;9.31752;-2.221634;-1.990097;-;-;-;-;-;-;-;-;-;-;-;-;-;-;-
1512466629646;-;-;9.093674;-1.4147797;-1.7590485;-;-;-;-;-;-;-;-;-;-;-;-;-;-;-
1512466629667;-;-;9.14035;-1.8864441;-1.6884308;-;-;-;-;-;-;-;-;-;-;-;-;-;-;-
1512466629689;-;-;7.9420624;-1.3621063;-5.1109314;-;-;-;-;-;-;-;-;-;-;-;-;-;-;-
1512466629707;-;-;9.748489;-1.3417511;-5.559845;-;-;-;-;-;-;-;-;-;-;-;-;-;-;-
1512466629727;-;-;10.600815;-1.3848572;-5.456894;-;-;-;-;-;-;-;-;-;-;-;-;-;-;-
1512466629748;-;-;10.906082;-1.2567596;-4.6129456;-;-;-;-;-;-;-;-;-;-;-;-;-;-;-
1512466629768;-;-;10.479904;-1.4099884;-4.560272;-;-;-;-;-;-;-;-;-;-;-;-;-;-;-
1512466629789;-;-;9.55455;-1.3214111;-2.3252869;-;-;-;-;-;-;-;-;-;-;-;-;-;-;-
1512466629809;-;-;7.8522797;-0.69651794;-1.98172;-;-;-;-;-;-;-;-;-;-;-;-;-;-;-
1512466629830;-;-;7.4177246;0.19770813;-1.7626495;-;-;-;-;-;-;-;-;-;-;-;-;-;-;-
1512466629850;-;-;8.220978;-0.39126587;-0.95939636;-;-;-;-;-;-;-;-;-;-;-;-;-;-;-
1512466629871;-;-;10.220139;-1.1574097;-2.3228912;-;-;-;-;-;-;-;-;-;-;-;-;-;-;-
1512466629892;-;-;12.732849;0.06364441;-4.1436768;-;-;-;-;-;-;-;-;-;-;-;-;-;-;-
1512466629912;-;-;9.789185;1.3505249;-5.290497;-;-;-;-;-;-;-;-;-;-;-;-;-;-;-
1512466629933;-;-;8.976349;-0.28471375;-2.2594452;-;-;-;-;-;-;-;-;-;-;-;-;-;-;-
1512466629953;-;-;7.885788;-0.13148499;-1.7422943;-;-;-;-;-;-;-;-;-;-;-;-;-;-;-
1512466629974;-;-;5.8351593;0.35572815;-0.63616943;-;-;-;-;-;-;-;-;-;-;-;-;-;-;-
1512466629993;-;-;4.774521;0.8226013;-0.47816467;-;-;-;-;-;-;-;-;-;-;-;-;-;-;-
1512466630013;-;-;7.3494873;0.77111816;-1.5399933;-;-;-;-;-;-;-;-;-;-;-;-;-;-;-
1512466630034;-;-;9.640747;-0.26316833;-1.2718353;-;-;-;-;-;-;-;-;-;-;-;-;-;-;-
1512466630054;-;-;11.504623;-0.38168335;-1.7782135;-;-;-;-;-;-;-;-;-;-;-;-;-;-;-
1512466630075;-;-;8.547791;0.37608337;-1.219162;-;-;-;-;-;-;-;-;-;-;-;-;-;-;-
1512466630095;-;-;8.692642;0.072021484;-1.2502899;-;-;-;-;-;-;-;-;-;-;-;-;-;-;-
1512466630115;-;-;8.066559;-0.41760254;-1.492096;-;-;-;-;-;-;-;-;-;-;-;-;-;-;-
1512466630136;-;-;8.838684;0.20729065;-1.8045502;-;-;-;-;-;-;-;-;-;-;-;-;-;-;-
1512466630157;-;-;8.722565;-0.107543945;-1.2143707;-;-;-;-;-;-;-;-;-;-;-;-;-;-;-
1512466630177;-;-;8.56575;0.48143005;-1.2933807;-;-;-;-;-;-;-;-;-;-;-;-;-;-;-
1512466630197;-;-;8.480759;0.6466217;-0.9941101;-;-;-;-;-;-;-;-;-;-;-;-;-;-;-
1512466630218;-;-;8.630386;-0.13508606;-0.19802856;-;-;-;-;-;-;-;-;-;-;-;-;-;-;-
1512466630237;-;-;9.459976;-1.443512;-0.23634338;-;-;-;-;-;-;-;-;-;-;-;-;-;-;-
1512466630257;-;-;7.5996857;-0.19972229;-0.7893982;-;-;-;-;-;-;-;-;-;-;-;-;-;-;-
1512466630279;-;-;8.92009;0.02532959;0.40769958;-;-;-;-;-;-;-;-;-;-;-;-;-;-;-
1512466630299;-;-;9.847839;-2.2743073;-0.7020111;-;-;-;-;-;-;-;-;-;-;-;-;-;-;-
1512466630320;-;-;11.515396;-1.7942657;-3.6672363;-;-;-;-;-;-;-;-;-;-;-;-;-;-;-
1512466630340;-;-;13.451111;-1.2483826;-3.4936523;-;-;-;-;-;-;-;-;-;-;-;-;-;-;-
1512466630362;-;-;16.363663;-0.33021545;-2.8089142;-;-;-;-;-;-;-;-;-;-;-;-;-;-;-
1512466630383;-;-;15.209656;1.8892212;-4.8212433;-;-;-;-;-;-;-;-;-;-;-;-;-;-;-
1512466630404;-;-;9.96875;2.2962341;-5.9129944;-;-;-;-;-;-;-;-;-;-;-;-;-;-;-
1512466630424;-;-;8.727356;1.9311218;-5.143265;-;-;-;-;-;-;-;-;-;-;-;-;-;-;-
1512466630444;-;-;7.3147736;1.3493195;-4.701523;-;-;-;-;-;-;-;-;-;-;-;-;-;-;-
1512466630464;-;-;7.1926727;-1.1131134;-4.4980164;-;-;-;-;-;-;-;-;-;-;-;-;-;-;-
1512466630485;-;-;6.7808685;-2.4622498;-6.5390778;-;-;-;-;-;-;-;-;-;-;-;-;-;-;-
1512466630505;-;-;5.87825;-3.2930298;-7.428528;-;-;-;-;-;-;-;-;-;-;-;-;-;-;-
1512466630526;-;-;7.4416656;-2.7926483;-6.6444244;-;-;-;-;-;-;-;-;-;-;-;-;-;-;-
1512466630546;-;-;9.650314;-1.8002472;-5.559845;-;-;-;-;-;-;-;-;-;-;-;-;-;-;-
1512466630566;-;-;7.870224;0.3509369;-3.9162292;-;-;-;-;-;-;-;-;-;-;-;-;-;-;-
1512466630587;-;-;7.216614;-0.93115234;-3.5307617;-;-;-;-;-;-;-;-;-;-;-;-;-;-;-
1512466630608;-;-;7.6188354;-2.186905;-3.6420898;-;-;-;-;-;-;-;-;-;-;-;-;-;-;-
1512466630628;-;-;7.746933;-3.6820831;-3.9497528;-;-;-;-;-;-;-;-;-;-;-;-;-;-;-
1512466630648;-;-;4.5997467;-2.104309;-4.7625885;-;-;-;-;-;-;-;-;-;-;-;-;-;-;-
1512466630669;-;-;6.738968;-4.2124023;-3.8887024;-;-;-;-;-;-;-;-;-;-;-;-;-;-;-
1512466630689;-;-;7.125641;-3.320572;-3.247055;-;-;-;-;-;-;-;-;-;-;-;-;-;-;-
1512466630710;-;-;7.4452667;-3.3480988;-3.065094;-;-;-;-;-;-;-;-;-;-;-;-;-;-;-
1512466630730;-;-;8.554977;-3.8029938;-2.5826569;-;-;-;-;-;-;-;-;-;-;-;-;-;-;-
1512466630751;-;-;7.8474884;-2.9231262;-1.6273804;-;-;-;-;-;-;-;-;-;-;-;-;-;-;-
1512466630771;-;-;7.071762;-2.5999146;-2.309723;-;-;-;-;-;-;-;-;-;-;-;-;-;-;-
1512466630791;-;-;6.826355;-2.3868256;-2.0595245;-;-;-;-;-;-;-;-;-;-;-;-;-;-;-
1512466630812;-;-;6.3618774;-1.1981049;-2.6484985;-;-;-;-;-;-;-;-;-;-;-;-;-;-;-
1512466630832;-;-;6.881424;-1.843338;-1.2790222;-;-;-;-;-;-;-;-;-;-;-;-;-;-;-
1512466630852;-;-;7.064575;-2.0276947;-2.508438;-;-;-;-;-;-;-;-;-;-;-;-;-;-;-
1512466630873;-;-;7.924103;-2.550827;-1.8787689;-;-;-;-;-;-;-;-;-;-;-;-;-;-;-
1512466630893;-;-;8.541809;-2.7842712;-2.4198608;-;-;-;-;-;-;-;-;-;-;-;-;-;-;-
1512466630913;-;-;9.072113;-3.4690094;-1.4837189;-;-;-;-;-;-;-;-;-;-;-;-;-;-;-
1512466630934;-;-;9.305557;-4.140579;-3.1464996;-;-;-;-;-;-;-;-;-;-;-;-;-;-;-
1512466630954;-;-;9.615601;-4.302185;-2.721527;-;-;-;-;-;-;-;-;-;-;-;-;-;-;-
1512466630974;-;-;10.612793;-3.4666138;-3.1668396;-;-;-;-;-;-;-;-;-;-;-;-;-;-;-
1512466630994;-;-;10.757645;-2.8082123;-4.8379974;-;-;-;-;-;-;-;-;-;-;-;-;-;-;-
1512466631015;-;-;9.3151245;-2.6082916;-7.5817566;-;-;-;-;-;-;-;-;-;-;-;-;-;-;-
1512466631035;-;-;9.732925;-3.360077;-5.966858;-;-;-;-;-;-;-;-;-;-;-;-;-;-;-
1512466631056;-;-;13.819824;-2.6346283;-3.6887817;-;-;-;-;-;-;-;-;-;-;-;-;-;-;-
1512466631076;-;-;15.683701;-2.2359924;-6.0782013;-;-;-;-;-;-;-;-;-;-;-;-;-;-;-
1512466631097;-;-;11.223312;-2.7339935;-11.405289;-;-;-;-;-;-;-;-;-;-;-;-;-;-;-
1512466631116;-;-;9.25528;-2.471817;-8.813568;-;-;-;-;-;-;-;-;-;-;-;-;-;-;-
1512466631137;-;-;5.4592743;-0.66539;-3.5570984;-;-;-;-;-;-;-;-;-;-;-;-;-;-;-
1512466631157;-;-;2.3252563;-0.03453064;-1.0623474;-;-;-;-;-;-;-;-;-;-;-;-;-;-;-
1512466631177;-;-;1.6764374;-0.65701294;-2.251068;-;-;-;-;-;-;-;-;-;-;-;-;-;-;-
1512466631198;-;-;4.785309;-1.7104645;-3.6337128;-;-;-;-;-;-;-;-;-;-;-;-;-;-;-
1512466631218;-;-;8.708206;-2.1605682;-4.3842926;-;-;-;-;-;-;-;-;-;-;-;-;-;-;-
1512466631239;-;-;10.264435;-2.1533966;-4.4393616;-;-;-;-;-;-;-;-;-;-;-;-;-;-;-
1512466631259;-;-;9.955582;-1.8158112;-3.954544;-;-;-;-;-;-;-;-;-;-;-;-;-;-;-
1512466631280;-;-;9.260071;-0.47625732;-3.6887817;-;-;-;-;-;-;-;-;-;-;-;-;-;-;-
1512466631299;-;-;7.770874;0.29707336;-4.1185455;-;-;-;-;-;-;-;-;-;-;-;-;-;-;-
1512466631320;-;-;5.968033;0.94111633;-4.0910034;-;-;-;-;-;-;-;-;-;-;-;-;-;-;-
1512466631340;-;-;5.234207;1.0608215;-4.009598;-;-;-;-;-;-;-;-;-;-;-;-;-;-;-
1512466631360;-;-;5.1803436;0.98062134;-3.685196;-;-;-;-;-;-;-;-;-;-;-;-;-;-;-
1512466631383;-;-;5.398224;0.9087982;-3.0028381;-;-;-;-;-;-;-;-;-;-;-;-;-;-;-
1512466631403;-;-;5.8351593;1.0153351;-2.6006165;-;-;-;-;-;-;-;-;-;-;-;-;-;-;-
1512466631424;-;-;6.4887695;1.4043884;-3.077057;-;-;-;-;-;-;-;-;-;-;-;-;-;-;-
1512466631444;-;-;8.301193;1.5240936;-2.934616;-;-;-;-;-;-;-;-;-;-;-;-;-;-;-
1512466631465;-;-;8.934448;0.6609955;-3.0998077;-;-;-;-;-;-;-;-;-;-;-;-;-;-;-
1512466631485;-;-;9.187042;0.77111816;-2.5216064;-;-;-;-;-;-;-;-;-;-;-;-;-;-;-
1512466631506;-;-;9.037399;0.74598694;-2.508438;-;-;-;-;-;-;-;-;-;-;-;-;-;-;-
1512466631526;-;-;8.933258;0.6095123;-2.907074;-;-;-;-;-;-;-;-;-;-;-;-;-;-;-
1512466631547;-;-;9.464767;0.47543335;-3.0710754;-;-;-;-;-;-;-;-;-;-;-;-;-;-;-
1512466631567;-;-;9.65152;0.1438446;-2.6473083;-;-;-;-;-;-;-;-;-;-;-;-;-;-;-
1512466631588;-;-;9.358231;-0.3146515;-2.8292694;-;-;-;-;-;-;-;-;-;-;-;-;-;-;-
1512466631609;-;-;8.680664;0.033706665;-7.366272;-;-;-;-;-;-;-;-;-;-;-;-;-;-;-
1512466631629;-;-;12.027756;1.3110199;-5.3958435;-;-;-;-;-;-;-;-;-;-;-;-;-;-;-
1512466631650;-;-;15.358093;1.576767;-5.7920837;-;-;-;-;-;-;-;-;-;-;-;-;-;-;-
1512466631670;-;-;12.729263;1.2703094;-8.408951;-;-;-;-;-;-;-;-;-;-;-;-;-;-;-
1512466631690;-;-;8.946426;1.2152557;-9.467194;-;-;-;-;-;-;-;-;-;-;-;-;-;-;-
1512466631711;-;-;5.775299;0.14863586;-6.5330963;-;-;-;-;-;-;-;-;-;-;-;-;-;-;-
1512466631731;-;-;3.929367;-1.664978;-4.029953;-;-;-;-;-;-;-;-;-;-;-;-;-;-;-
1512466631752;-;-;4.196335;-3.0177002;-3.1022034;-;-;-;-;-;-;-;-;-;-;-;-;-;-;-
1512466631772;-;-;5.940506;-1.8505249;-4.718292;-;-;-;-;-;-;-;-;-;-;-;-;-;-;-
1512466631793;-;-;8.299988;-0.65940857;-5.0187683;-;-;-;-;-;-;-;-;-;-;-;-;-;-;-
1512466631813;-;-;10.721725;-0.47146606;-5.1576233;-;-;-;-;-;-;-;-;-;-;-;-;-;-;-
1512466631834;-;-;10.65947;-0.26437378;-4.775757;-;-;-;-;-;-;-;-;-;-;-;-;-;-;-
1512466631854;-;-;9.667084;-0.4056244;-4.672806;-;-;-;-;-;-;-;-;-;-;-;-;-;-;-
1512466631875;-;-;8.1371765;-1.0257263;-3.942566;-;-;-;-;-;-;-;-;-;-;-;-;-;-;-
1512466631895;-;-;6.312805;-1.9798126;-2.8567963;-;-;-;-;-;-;-;-;-;-;-;-;-;-;-
1512466631915;-;-;5.2114716;-2.277893;-2.4138641;-;-;-;-;-;-;-;-;-;-;-;-;-;-;-
1512466631935;-;-;4.721863;-2.3916168;-2.2259216;-;-;-;-;-;-;-;-;-;-;-;-;-;-;-
1512466631956;-;-;4.9469147;-2.20607;-2.1385345;-;-;-;-;-;-;-;-;-;-;-;-;-;-;-
1512466631975;-;-;5.667572;-1.8960114;-2.179245;-;-;-;-;-;-;-;-;-;-;-;-;-;-;-
1512466631995;-;-;5.820801;-1.779892;-2.4102783;-;-;-;-;-;-;-;-;-;-;-;-;-;-;-
1512466632016;-;-;6.489975;-1.7906647;-3.0148163;-;-;-;-;-;-;-;-;-;-;-;-;-;-;-
1512466632036;-;-;7.4297028;-1.9235535;-3.5175934;-;-;-;-;-;-;-;-;-;-;-;-;-;-;-
1512466632057;-;-;8.582504;-2.1797333;-3.8791199;-;-;-;-;-;-;-;-;-;-;-;-;-;-;-
1512466632077;-;-;9.979523;-2.7830658;-4.120941;-;-;-;-;-;-;-;-;-;-;-;-;-;-;-
1512466632098;-;-;10.610397;-3.447464;-4.1628265;-;-;-;-;-;-;-;-;-;-;-;-;-;-;-
1512466632118;-;-;11.744049;-3.8520813;-4.515976;-;-;-;-;-;-;-;-;-;-;-;-;-;-;-
1512466632139;-;-;12.900452;-3.3157806;-4.0467224;-;-;-;-;-;-;-;-;-;-;-;-;-;-;-
1512466632159;-;-;11.705734;-1.7703247;-4.978058;-;-;-;-;-;-;-;-;-;-;-;-;-;-;-
1512466632180;-;-;8.345474;-1.210083;-7.907364;-;-;-;-;-;-;-;-;-;-;-;-;-;-;-
1512466632200;-;-;4.786499;-2.8596802;-10.345856;-;-;-;-;-;-;-;-;-;-;-;-;-;-;-
1512466632221;-;-;12.347382;-3.364853;-4.444153;-;-;-;-;-;-;-;-;-;-;-;-;-;-;-
1512466632240;-;-;15.492172;-0.98143005;-4.9960175;-;-;-;-;-;-;-;-;-;-;-;-;-;-;-
1512466632260;-;-;9.131973;0.1725769;-9.240936;-;-;-;-;-;-;-;-;-;-;-;-;-;-;-
1512466632281;-;-;6.45047;0.48382568;-8.70105;-;-;-;-;-;-;-;-;-;-;-;-;-;-;-
1512466632301;-;-;5.1444244;0.33776855;-5.9010315;-;-;-;-;-;-;-;-;-;-;-;-;-;-;-
1512466632322;-;-;3.751007;-0.7803192;-2.8687744;-;-;-;-;-;-;-;-;-;-;-;-;-;-;-
1512466632342;-;-;3.419403;-1.6446228;-1.5663147;-;-;-;-;-;-;-;-;-;-;-;-;-;-;-
1512466632363;-;-;6.5270844;-1.9965668;-1.650116;-;-;-;-;-;-;-;-;-;-;-;-;-;-;-
1512466632383;-;-;8.827911;-2.5783691;-3.4218292;-;-;-;-;-;-;-;-;-;-;-;-;-;-;-
1512466632404;-;-;8.383789;-2.8297577;-3.9246063;-;-;-;-;-;-;-;-;-;-;-;-;-;-;-
1512466632424;-;-;7.099304;-1.7619476;-3.1105804;-;-;-;-;-;-;-;-;-;-;-;-;-;-;-
1512466632444;-;-;5.6412354;-0.21170044;-2.9094696;-;-;-;-;-;-;-;-;-;-;-;-;-;-;-
1512466632465;-;-;5.525116;1.2475739;-3.4074707;-;-;-;-;-;-;-;-;-;-;-;-;-;-;-
1512466632484;-;-;5.79924;2.126236;-3.792923;-;-;-;-;-;-;-;-;-;-;-;-;-;-;-
1512466632505;-;-;6.3104095;2.1729279;-3.7139282;-;-;-;-;-;-;-;-;-;-;-;-;-;-;-
1512466632525;-;-;7.6463776;2.184906;-3.0088348;-;-;-;-;-;-;-;-;-;-;-;-;-;-;-
1512466632546;-;-;8.990723;2.4542542;-2.563507;-;-;-;-;-;-;-;-;-;-;-;-;-;-;-
1512466632565;-;-;8.6818695;2.0244904;-3.338028;-;-;-;-;-;-;-;-;-;-;-;-;-;-;-
1512466632585;-;-;9.59166;0.76753235;-3.1895905;-;-;-;-;-;-;-;-;-;-;-;-;-;-;-
1512466632606;-;-;9.980713;-0.19613647;-2.717926;-;-;-;-;-;-;-;-;-;-;-;-;-;-;-
1512466632626;-;-;9.467163;-0.07762146;-1.6764526;-;-;-;-;-;-;-;-;-;-;-;-;-;-;-
1512466632648;-;-;9.523422;0.8956299;-1.377182;-;-;-;-;-;-;-;-;-;-;-;-;-;-;-
1512466632667;-;-;10.404495;1.4678345;-2.2295227;-;-;-;-;-;-;-;-;-;-;-;-;-;-;-
1512466632687;-;-;11.067688;1.0763855;-3.135727;-;-;-;-;-;-;-;-;-;-;-;-;-;-;-
1512466632708;-;-;11.083252;-0.066848755;-2.342041;-;-;-;-;-;-;-;-;-;-;-;-;-;-;-
1512466632728;-;-;10.321899;-1.4171753;-7.144806;-;-;-;-;-;-;-;-;-;-;-;-;-;-;-
1512466632749;-;-;9.342667;0.22525024;-8.556198;-;-;-;-;-;-;-;-;-;-;-;-;-;-;-
1512466632770;-;-;12.435974;2.6350098;-5.99559;-;-;-;-;-;-;-;-;-;-;-;-;-;-;-
1512466632791;-;-;12.831009;1.5851593;-8.523865;-;-;-;-;-;-;-;-;-;-;-;-;-;-;-
1512466632813;-;-;10.131561;-0.4487152;-9.2565;-;-;-;-;-;-;-;-;-;-;-;-;-;-;-
1512466632834;-;-;5.2581635;-1.6721649;-6.4540863;-;-;-;-;-;-;-;-;-;-;-;-;-;-;-
1512466632855;-;-;4.0407104;-3.320572;-3.7354736;-;-;-;-;-;-;-;-;-;-;-;-;-;-;-
1512466632875;-;-;5.873459;-2.8357391;-3.191986;-;-;-;-;-;-;-;-;-;-;-;-;-;-;-
1512466632895;-;-;5.758545;-0.2859192;-3.231491;-;-;-;-;-;-;-;-;-;-;-;-;-;-;-
1512466632915;-;-;6.51033;2.105896;-3.353592;-;-;-;-;-;-;-;-;-;-;-;-;-;-;-
1512466632936;-;-;7.961212;2.1801147;-3.5499115;-;-;-;-;-;-;-;-;-;-;-;-;-;-;-
1512466632956;-;-;8.418503;1.3122101;-3.7594147;-;-;-;-;-;-;-;-;-;-;-;-;-;-;-
1512466632977;-;-;6.9700165;-0.4954071;-4.3280334;-;-;-;-;-;-;-;-;-;-;-;-;-;-;-
1512466632997;-;-;4.2190704;-2.4490814;-2.852005;-;-;-;-;-;-;-;-;-;-;-;-;-;-;-
1512466633018;-;-;3.213501;-3.4534454;-2.2917633;-;-;-;-;-;-;-;-;-;-;-;-;-;-;-
1512466633038;-;-;3.0734406;-3.7515259;-2.728714;-;-;-;-;-;-;-;-;-;-;-;-;-;-;-
1512466633058;-;-;4.7374115;-3.1278381;-2.531189;-;-;-;-;-;-;-;-;-;-;-;-;-;-;-
1512466633079;-;-;6.288864;-2.5807648;-2.3947144;-;-;-;-;-;-;-;-;-;-;-;-;-;-;-
1512466633099;-;-;7.6176453;-2.5101318;-2.6449127;-;-;-;-;-;-;-;-;-;-;-;-;-;-;-
1512466633120;-;-;9.373795;-3.440277;-2.8448334;-;-;-;-;-;-;-;-;-;-;-;-;-;-;-
1512466633140;-;-;10.651093;-3.7108154;-3.3871155;-;-;-;-;-;-;-;-;-;-;-;-;-;-;-
1512466633161;-;-;11.948746;-3.1278381;-4.299301;-;-;-;-;-;-;-;-;-;-;-;-;-;-;-
1512466633181;-;-;11.020996;-2.6394196;-5.089386;-;-;-;-;-;-;-;-;-;-;-;-;-;-;-
1512466633201;-;-;10.447586;-2.332962;-4.9613037;-;-;-;-;-;-;-;-;-;-;-;-;-;-;-
1512466633222;-;-;11.1610565;-1.6721649;-4.788925;-;-;-;-;-;-;-;-;-;-;-;-;-;-;-
1512466633243;-;-;9.972336;-1.2507782;-7.780472;-;-;-;-;-;-;-;-;-;-;-;-;-;-;-
1512466633262;-;-;8.674683;-1.6853333;-9.542603;-;-;-;-;-;-;-;-;-;-;-;-;-;-;-
1512466633283;-;-;9.771225;-3.5791473;-7.1196747;-;-;-;-;-;-;-;-;-;-;-;-;-;-;-
1512466633303;-;-;15.416748;-4.5200653;-3.9138336;-;-;-;-;-;-;-;-;-;-;-;-;-;-;-
1512466633322;-;-;14.500977;-2.30542;-8.256912;-;-;-;-;-;-;-;-;-;-;-;-;-;-;-
1512466633342;-;-;7.8798065;-0.57681274;-9.334305;-;-;-;-;-;-;-;-;-;-;-;-;-;-;-
1512466633363;-;-;5.4125824;0.5783844;-6.464859;-;-;-;-;-;-;-;-;-;-;-;-;-;-;-
1512466633383;-;-;3.1201324;1.5899353;-2.9334106;-;-;-;-;-;-;-;-;-;-;-;-;-;-;-
1512466633404;-;-;1.7362823;0.48501587;-1.3807678;-;-;-;-;-;-;-;-;-;-;-;-;-;-;-
1512466633423;-;-;2.6317139;-0.8473511;-1.6513214;-;-;-;-;-;-;-;-;-;-;-;-;-;-;-
1512466633444;-;-;7.3542786;-1.8110199;-2.7586365;-;-;-;-;-;-;-;-;-;-;-;-;-;-;-
1512466633463;-;-;9.764038;-2.1533966;-4.572235;-;-;-;-;-;-;-;-;-;-;-;-;-;-;-
1512466633484;-;-;10.313507;-2.2132416;-5.10495;-;-;-;-;-;-;-;-;-;-;-;-;-;-;-
1512466633503;-;-;9.143951;-1.4051971;-4.5171814;-;-;-;-;-;-;-;-;-;-;-;-;-;-;-
1512466633524;-;-;7.67749;0.26475525;-4.2298737;-;-;-;-;-;-;-;-;-;-;-;-;-;-;-
1512466633543;-;-;6.1835175;2.0998993;-4.5914;-;-;-;-;-;-;-;-;-;-;-;-;-;-;-
1512466633564;-;-;5.3623047;2.3848114;-4.713501;-;-;-;-;-;-;-;-;-;-;-;-;-;-;-
1512466633584;-;-;4.975647;1.5671997;-4.4788666;-;-;-;-;-;-;-;-;-;-;-;-;-;-;-
1512466633605;-;-;4.932541;0.5484619;-4.069458;-;-;-;-;-;-;-;-;-;-;-;-;-;-;-
1512466633625;-;-;5.533493;-0.18296814;-3.3212738;-;-;-;-;-;-;-;-;-;-;-;-;-;-;-
1512466633646;-;-;6.6228485;-0.0021972656;-2.7299042;-;-;-;-;-;-;-;-;-;-;-;-;-;-;-
1512466633666;-;-;8.200638;1.3098145;-2.1253662;-;-;-;-;-;-;-;-;-;-;-;-;-;-;-
1512466633687;-;-;8.557373;2.1980743;-1.6692657;-;-;-;-;-;-;-;-;-;-;-;-;-;-;-
1512466633707;-;-;8.1874695;2.1920776;-1.6525116;-;-;-;-;-;-;-;-;-;-;-;-;-;-;-
1512466633728;-;-;8.825516;1.358902;-1.8272858;-;-;-;-;-;-;-;-;-;-;-;-;-;-;-
1512466633748;-;-;9.815521;0.57121277;-2.1864166;-;-;-;-;-;-;-;-;-;-;-;-;-;-;-
1512466633769;-;-;11.049728;0.40960693;-2.2486725;-;-;-;-;-;-;-;-;-;-;-;-;-;-;-
1512466633789;-;-;10.891708;0.4514923;-2.0894623;-;-;-;-;-;-;-;-;-;-;-;-;-;-;-
1512466633809;-;-;9.340271;0.70648193;-7.520706;-;-;-;-;-;-;-;-;-;-;-;-;-;-;-
1512466633829;-;-;11.314285;3.3053894;-6.342758;-;-;-;-;-;-;-;-;-;-;-;-;-;-;-
1512466633850;-;-;14.769119;3.1078644;-4.694351;-;-;-;-;-;-;-;-;-;-;-;-;-;-;-
1512466633870;-;-;13.830597;1.1410217;-8.614853;-;-;-;-;-;-;-;-;-;-;-;-;-;-;-
1512466633891;-;-;10.008255;1.2954559;-9.431274;-;-;-;-;-;-;-;-;-;-;-;-;-;-;-
1512466633912;-;-;5.95607;0.33299255;-6.662384;-;-;-;-;-;-;-;-;-;-;-;-;-;-;-
1512466633932;-;-;4.332794;-1.4902039;-4.2562103;-;-;-;-;-;-;-;-;-;-;-;-;-;-;-
1512466633952;-;-;4.5518646;-2.614273;-3.1225586;-;-;-;-;-;-;-;-;-;-;-;-;-;-;-
1512466633973;-;-;5.6101074;-2.0815735;-5.069046;-;-;-;-;-;-;-;-;-;-;-;-;-;-;-
1512466633992;-;-;8.191055;-1.1262817;-4.8775024;-;-;-;-;-;-;-;-;-;-;-;-;-;-;-
1512466634013;-;-;10.197388;-0.62828064;-4.3519745;-;-;-;-;-;-;-;-;-;-;-;-;-;-;-
1512466634033;-;-;9.594055;-0.22964478;-3.745041;-;-;-;-;-;-;-;-;-;-;-;-;-;-;-
1512466634054;-;-;8.144363;-0.38168335;-3.326065;-;-;-;-;-;-;-;-;-;-;-;-;-;-;-
1512466634075;-;-;6.3535004;-1.1382446;-2.9585571;-;-;-;-;-;-;-;-;-;-;-;-;-;-;-
1512466634095;-;-;4.5027924;-1.8912201;-2.1505127;-;-;-;-;-;-;-;-;-;-;-;-;-;-;-
1512466634115;-;-;2.8890991;-2.9243317;-1.4346466;-;-;-;-;-;-;-;-;-;-;-;-;-;-;-
1512466634136;-;-;3.224289;-3.4175262;-1.9015045;-;-;-;-;-;-;-;-;-;-;-;-;-;-;-
1512466634156;-;-;4.2813263;-3.4642181;-2.5694885;-;-;-;-;-;-;-;-;-;-;-;-;-;-;-
1512466634177;-;-;5.4963837;-3.1374054;-3.3164825;-;-;-;-;-;-;-;-;-;-;-;-;-;-;-
1512466634198;-;-;7.221405;-2.22641;-4.341202;-;-;-;-;-;-;-;-;-;-;-;-;-;-;-
1512466634218;-;-;8.513077;-1.8517303;-4.895462;-;-;-;-;-;-;-;-;-;-;-;-;-;-;-
1512466634238;-;-;9.571304;-1.427948;-5.3479614;-;-;-;-;-;-;-;-;-;-;-;-;-;-;-
1512466634259;-;-;10.800735;-1.1993103;-5.1300964;-;-;-;-;-;-;-;-;-;-;-;-;-;-;-
1512466634279;-;-;10.962341;-1.8457336;-4.4501343;-;-;-;-;-;-;-;-;-;-;-;-;-;-;-
1512466634300;-;-;9.843048;-2.818985;-4.3196564;-;-;-;-;-;-;-;-;-;-;-;-;-;-;-
1512466634320;-;-;10.217743;-3.0715637;-3.9413757;-;-;-;-;-;-;-;-;-;-;-;-;-;-;-
1512466634341;-;-;10.421249;-2.4538574;-4.050308;-;-;-;-;-;-;-;-;-;-;-;-;-;-;-
1512466634360;-;-;9.029022;-1.1957092;-6.4588776;-;-;-;-;-;-;-;-;-;-;-;-;-;-;-
1512466634381;-;-;6.6791077;-1.3764801;-9.404938;-;-;-;-;-;-;-;-;-;-;-;-;-;-;-
1512466634401;-;-;6.415756;-2.6860962;-7.912155;-;-;-;-;-;-;-;-;-;-;-;-;-;-;-
1512466634422;-;-;12.273163;-2.4155579;-1.8524323;-;-;-;-;-;-;-;-;-;-;-;-;-;-;-
1512466634442;-;-;14.1586;-0.9395294;-3.0638885;-;-;-;-;-;-;-;-;-;-;-;-;-;-;-
1512466634463;-;-;8.531036;-1.0987396;-10.593658;-;-;-;-;-;-;-;-;-;-;-;-;-;-;-
1512466634483;-;-;6.296036;-1.0329132;-11.005463;-;-;-;-;-;-;-;-;-;-;-;-;-;-;-
1512466634503;-;-;4.4561005;-0.92037964;-8.015106;-;-;-;-;-;-;-;-;-;-;-;-;-;-;-
1512466634523;-;-;3.5989685;-1.4447021;-4.919403;-;-;-;-;-;-;-;-;-;-;-;-;-;-;-
1512466634544;-;-;6.454056;-2.182129;-6.785675;-;-;-;-;-;-;-;-;-;-;-;-;-;-;-
1512466634564;-;-;11.570465;-2.5137177;-7.5111237;-;-;-;-;-;-;-;-;-;-;-;-;-;-;-
1512466634585;-;-;14.269928;-2.2371826;-7.1615753;-;-;-;-;-;-;-;-;-;-;-;-;-;-;-
1512466634604;-;-;11.426819;-1.5787811;-4.872711;-;-;-;-;-;-;-;-;-;-;-;-;-;-;-
1512466634625;-;-;7.7265778;-1.2220459;-2.768219;-;-;-;-;-;-;-;-;-;-;-;-;-;-;-
1512466634645;-;-;5.0067596;-0.9323425;-2.8053284;-;-;-;-;-;-;-;-;-;-;-;-;-;-;-
1512466634666;-;-;3.0770416;-0.27633667;-3.5954132;-;-;-;-;-;-;-;-;-;-;-;-;-;-;-
1512466634686;-;-;1.4382019;0.49220276;-3.8898926;-;-;-;-;-;-;-;-;-;-;-;-;-;-;-
1512466634706;-;-;1.1604767;1.7826691;-3.8455963;-;-;-;-;-;-;-;-;-;-;-;-;-;-;-
1512466634727;-;-;2.2294922;2.7954254;-3.9006653;-;-;-;-;-;-;-;-;-;-;-;-;-;-;-
1512466634747;-;-;3.7378387;2.9857635;-3.9605255;-;-;-;-;-;-;-;-;-;-;-;-;-;-;-
1512466634767;-;-;5.726227;2.4315033;-4.37352;-;-;-;-;-;-;-;-;-;-;-;-;-;-;-
1512466634788;-;-;7.7565002;1.4474792;-4.5219574;-;-;-;-;-;-;-;-;-;-;-;-;-;-;-
1512466634808;-;-;9.565323;0.576004;-4.0598907;-;-;-;-;-;-;-;-;-;-;-;-;-;-;-
1512466634829;-;-;11.163452;0.19891357;-3.6923676;-;-;-;-;-;-;-;-;-;-;-;-;-;-;-
1512466634849;-;-;11.357391;0.0025787354;-3.741455;-;-;-;-;-;-;-;-;-;-;-;-;-;-;-
1512466634870;-;-;10.10881;0.39164734;-3.741455;-;-;-;-;-;-;-;-;-;-;-;-;-;-;-
1512466634890;-;-;9.704193;0.8525238;-3.8455963;-;-;-;-;-;-;-;-;-;-;-;-;-;-;-
1512466634911;-;-;9.827484;1.5671997;-3.6971588;-;-;-;-;-;-;-;-;-;-;-;-;-;-;-
1512466634931;-;-;10.509842;1.9861755;-3.104599;-;-;-;-;-;-;-;-;-;-;-;-;-;-;-
1512466634952;-;-;10.032196;1.6605682;-1.9912872;-;-;-;-;-;-;-;-;-;-;-;-;-;-;-
1512466634971;-;-;8.564545;0.8297882;-4.832016;-;-;-;-;-;-;-;-;-;-;-;-;-;-;-
1512466634992;-;-;8.714188;1.3134155;-7.5099335;-;-;-;-;-;-;-;-;-;-;-;-;-;-;-
1512466635012;-;-;11.615952;1.5671997;-5.3994446;-;-;-;-;-;-;-;-;-;-;-;-;-;-;-
1512466635032;-;-;12.386887;0.73760986;-6.377472;-;-;-;-;-;-;-;-;-;-;-;-;-;-;-
1512466635053;-;-;11.613571;-0.109939575;-7.113693;-;-;-;-;-;-;-;-;-;-;-;-;-;-;-
1512466635073;-;-;8.356247;0.2515869;-8.375427;-;-;-;-;-;-;-;-;-;-;-;-;-;-;-
1512466635094;-;-;4.7206573;-0.32182312;-6.9257355;-;-;-;-;-;-;-;-;-;-;-;-;-;-;-
1512466635114;-;-;2.9369812;-1.225647;-4.6680145;-;-;-;-;-;-;-;-;-;-;-;-;-;-;-
1512466635135;-;-;4.3687134;-1.6063232;-3.4517517;-;-;-;-;-;-;-;-;-;-;-;-;-;-;-
1512466635154;-;-;6.8479004;-1.0604401;-3.5702667;-;-;-;-;-;-;-;-;-;-;-;-;-;-;-
1512466635174;-;-;9.402527;-0.68933105;-4.2933197;-;-;-;-;-;-;-;-;-;-;-;-;-;-;-
1512466635195;-;-;10.803131;-0.36372375;-4.4776764;-;-;-;-;-;-;-;-;-;-;-;-;-;-;-
1512466635215;-;-;10.0381775;-0.20092773;-4.2214966;-;-;-;-;-;-;-;-;-;-;-;-;-;-;-
1512466635236;-;-;8.410126;-0.680954;-3.662445;-;-;-;-;-;-;-;-;-;-;-;-;-;-;-
1512466635256;-;-;6.0290833;-1.6506042;-2.5742798;-;-;-;-;-;-;-;-;-;-;-;-;-;-;-
1512466635277;-;-;4.462082;-2.1725464;-2.0822754;-;-;-;-;-;-;-;-;-;-;-;-;-;-;-
1512466635296;-;-;3.9928284;-2.2922516;-2.0164337;-;-;-;-;-;-;-;-;-;-;-;-;-;-;-
1512466635316;-;-;4.3782806;-2.2240143;-2.0715027;-;-;-;-;-;-;-;-;-;-;-;-;-;-;-
1512466635337;-;-;5.5634155;-2.1677551;-2.5503387;-;-;-;-;-;-;-;-;-;-;-;-;-;-;-
1512466635356;-;-;6.9113464;-2.1689606;-2.5168152;-;-;-;-;-;-;-;-;-;-;-;-;-;-;-
1512466635376;-;-;8.1324005;-2.2790833;-2.804123;-;-;-;-;-;-;-;-;-;-;-;-;-;-;-
1512466635397;-;-;8.985931;-2.056427;-3.267395;-;-;-;-;-;-;-;-;-;-;-;-;-;-;-
1512466635417;-;-;9.200211;-1.5943451;-3.496048;-;-;-;-;-;-;-;-;-;-;-;-;-;-;-
1512466635438;-;-;9.313934;-0.90960693;-3.1620636;-;-;-;-;-;-;-;-;-;-;-;-;-;-;-
1512466635458;-;-;8.927277;-0.783905;-2.630539;-;-;-;-;-;-;-;-;-;-;-;-;-;-;-
1512466635479;-;-;7.9468384;-1.2627563;-2.069107;-;-;-;-;-;-;-;-;-;-;-;-;-;-;-
1512466635499;-;-;7.1675262;-1.7619476;-1.7123718;-;-;-;-;-;-;-;-;-;-;-;-;-;-;-
1512466635520;-;-;6.941284;-1.838562;-1.610611;-;-;-;-;-;-;-;-;-;-;-;-;-;-;-
1512466635541;-;-;7.4835663;-1.1430359;-1.148529;-;-;-;-;-;-;-;-;-;-;-;-;-;-;-
1512466635561;-;-;8.374207;-0.09197998;-1.1521301;-;-;-;-;-;-;-;-;-;-;-;-;-;-;-
1512466635581;-;-;9.222961;0.4862213;-1.7422943;-;-;-;-;-;-;-;-;-;-;-;-;-;-;-
1512466635602;-;-;9.085281;-0.289505;-3.152481;-;-;-;-;-;-;-;-;-;-;-;-;-;-;-
1512466635622;-;-;8.90213;-1.5368805;-3.4816895;-;-;-;-;-;-;-;-;-;-;-;-;-;-;-
1512466635643;-;-;10.042969;-1.0245209;-1.4777374;-;-;-;-;-;-;-;-;-;-;-;-;-;-;-
1512466635663;-;-;9.638351;0.26115417;-0.1381836;-;-;-;-;-;-;-;-;-;-;-;-;-;-;-
1512466635684;-;-;7.849884;1.2739105;-9.179886;-;-;-;-;-;-;-;-;-;-;-;-;-;-;-
1512466635704;-;-;11.490265;0.8704834;-9.57254;-;-;-;-;-;-;-;-;-;-;-;-;-;-;-
1512466635724;-;-;13.759964;-0.6701813;-5.9920044;-;-;-;-;-;-;-;-;-;-;-;-;-;-;-
1512466635744;-;-;11.875732;-0.72883606;-4.8032837;-;-;-;-;-;-;-;-;-;-;-;-;-;-;-
1512466635765;-;-;10.912064;-0.17098999;-5.2809296;-;-;-;-;-;-;-;-;-;-;-;-;-;-;-
1512466635785;-;-;9.351044;0.105529785;-5.3467712;-;-;-;-;-;-;-;-;-;-;-;-;-;-;-
1512466635806;-;-;5.552643;0.54248047;-3.867157;-;-;-;-;-;-;-;-;-;-;-;-;-;-;-
1512466635826;-;-;4.6727753;0.1043396;-2.725113;-;-;-;-;-;-;-;-;-;-;-;-;-;-;-
1512466635846;-;-;6.3211823;-1.3417511;-2.8747559;-;-;-;-;-;-;-;-;-;-;-;-;-;-;-
1512466635867;-;-;9.052963;-1.819397;-3.7426453;-;-;-;-;-;-;-;-;-;-;-;-;-;-;-
1512466635886;-;-;11.157471;-1.2184601;-3.5307617;-;-;-;-;-;-;-;-;-;-;-;-;-;-;-
1512466635907;-;-;10.605606;-0.7264557;-2.8352509;-;-;-;-;-;-;-;-;-;-;-;-;-;-;-
1512466635930;-;-;8.673492;-0.29071045;-2.7442627;-;-;-;-;-;-;-;-;-;-;-;-;-;-;-
1512466635946;-;-;6.977188;-0.012969971;-1.9374237;-;-;-;-;-;-;-;-;-;-;-;-;-;-;-
1512466635967;-;-;5.671158;0.2515869;-1.8213043;-;-;-;-;-;-;-;-;-;-;-;-;-;-;-
1512466635987;-;-;4.4944;0.38206482;-1.5244293;-;-;-;-;-;-;-;-;-;-;-;-;-;-;-
1512466636008;-;-;4.095764;0.3030548;-1.2179718;-;-;-;-;-;-;-;-;-;-;-;-;-;-;-
1512466636028;-;-;5.295273;0.26115417;-0.8935547;-;-;-;-;-;-;-;-;-;-;-;-;-;-;-
1512466636049;-;-;7.0214844;0.53289795;-0.9055176;-;-;-;-;-;-;-;-;-;-;-;-;-;-;-
1512466636069;-;-;8.358643;0.60472107;-0.9581909;-;-;-;-;-;-;-;-;-;-;-;-;-;-;-
1512466636090;-;-;9.196625;0.18574524;-1.1533203;-;-;-;-;-;-;-;-;-;-;-;-;-;-;-
1512466636110;-;-;9.845444;-0.8964386;-1.6824341;-;-;-;-;-;-;-;-;-;-;-;-;-;-;-
1512466636131;-;-;11.302322;-1.6398315;-2.7155457;-;-;-;-;-;-;-;-;-;-;-;-;-;-;-
1512466636151;-;-;12.753204;-1.7559509;-2.4964752;-;-;-;-;-;-;-;-;-;-;-;-;-;-;-
1512466636171;-;-;12.655045;-1.2531738;-2.084671;-;-;-;-;-;-;-;-;-;-;-;-;-;-;-
1512466636191;-;-;11.079651;-0.02494812;-6.030304;-;-;-;-;-;-;-;-;-;-;-;-;-;-;-
1512466636212;-;-;11.405273;3.944641;-9.661118;-;-;-;-;-;-;-;-;-;-;-;-;-;-;-
1512466636232;-;-;12.5520935;5.172867;-5.6879425;-;-;-;-;-;-;-;-;-;-;-;-;-;-;-
1512466636253;-;-;10.58046;4.252289;-6.0602417;-;-;-;-;-;-;-;-;-;-;-;-;-;-;-
1512466636274;-;-;7.5230713;0.026535034;-6.840744;-;-;-;-;-;-;-;-;-;-;-;-;-;-;-
1512466636294;-;-;4.896637;-2.9865723;-6.2769165;-;-;-;-;-;-;-;-;-;-;-;-;-;-;-
1512466636314;-;-;3.5056;-3.4055634;-5.125305;-;-;-;-;-;-;-;-;-;-;-;-;-;-;-
1512466636335;-;-;6.1116943;-1.3058472;-4.0562897;-;-;-;-;-;-;-;-;-;-;-;-;-;-;-
1512466636355;-;-;8.693832;1.3648834;-5.211487;-;-;-;-;-;-;-;-;-;-;-;-;-;-;-
1512466636376;-;-;11.839813;2.7403564;-5.930954;-;-;-;-;-;-;-;-;-;-;-;-;-;-;-
1512466636396;-;-;13.439148;1.9358978;-6.0758057;-;-;-;-;-;-;-;-;-;-;-;-;-;-;-
1512466636417;-;-;11.402878;0.5484619;-6.286484;-;-;-;-;-;-;-;-;-;-;-;-;-;-;-
1512466636437;-;-;8.077332;-1.0508575;-5.91658;-;-;-;-;-;-;-;-;-;-;-;-;-;-;-
1512466636458;-;-;4.984024;-2.28508;-5.0127716;-;-;-;-;-;-;-;-;-;-;-;-;-;-;-
1512466636478;-;-;2.655655;-3.5887146;-4.223892;-;-;-;-;-;-;-;-;-;-;-;-;-;-;-
1512466636499;-;-;2.9058533;-4.352463;-3.1105804;-;-;-;-;-;-;-;-;-;-;-;-;-;-;-
1512466636519;-;-;5.604126;-4.508087;-2.1062164;-;-;-;-;-;-;-;-;-;-;-;-;-;-;-
1512466636540;-;-;7.533844;-4.26149;-2.012848;-;-;-;-;-;-;-;-;-;-;-;-;-;-;-
1512466636561;-;-;8.449631;-4.060379;-2.0990295;-;-;-;-;-;-;-;-;-;-;-;-;-;-;-
1512466636581;-;-;9.07811;-3.8532715;-1.7734222;-;-;-;-;-;-;-;-;-;-;-;-;-;-;-
1512466636601;-;-;9.282806;-3.2487335;-1.8440552;-;-;-;-;-;-;-;-;-;-;-;-;-;-;-
1512466636621;-;-;9.154724;-2.377243;-1.5016785;-;-;-;-;-;-;-;-;-;-;-;-;-;-;-
1512466636642;-;-;9.011063;-1.7930603;-0.5823059;-;-;-;-;-;-;-;-;-;-;-;-;-;-;-
1512466636662;-;-;8.708206;-2.1007233;-1.4130859;-;-;-;-;-;-;-;-;-;-;-;-;-;-;-
1512466636683;-;-;9.4096985;-2.7459564;-1.4107056;-;-;-;-;-;-;-;-;-;-;-;-;-;-;-
1512466636703;-;-;9.276825;-2.4933624;-0.9162903;-;-;-;-;-;-;-;-;-;-;-;-;-;-;-
1512466636723;-;-;9.8993225;-1.1454315;-0.2507019;-;-;-;-;-;-;-;-;-;-;-;-;-;-;-
1512466636744;-;-;9.43364;0.8190155;-1.4909058;-;-;-;-;-;-;-;-;-;-;-;-;-;-;-
1512466636764;-;-;7.8522797;2.5476227;-10.064545;-;-;-;-;-;-;-;-;-;-;-;-;-;-;-
1512466636785;-;-;10.013046;5.572693;-14.556061;-;-;-;-;-;-;-;-;-;-;-;-;-;-;-
1512466636804;-;-;13.792282;5.66008;-5.7035065;-;-;-;-;-;-;-;-;-;-;-;-;-;-;-
1512466636828;-;-;11.90686;2.4626312;-5.2773285;-;-;-;-;-;-;-;-;-;-;-;-;-;-;-
1512466636845;-;-;11.120361;-0.42237854;-5.092987;-;-;-;-;-;-;-;-;-;-;-;-;-;-;-
1512466636865;-;-;9.96875;-4.079529;-5.1240997;-;-;-;-;-;-;-;-;-;-;-;-;-;-;-
1512466636886;-;-;8.887772;-4.918701;-2.6161804;-;-;-;-;-;-;-;-;-;-;-;-;-;-;-
1512466636905;-;-;7.399765;-3.8448944;-2.2917633;-;-;-;-;-;-;-;-;-;-;-;-;-;-;-
1512466636925;-;-;6.043457;-1.7787018;-2.524002;-;-;-;-;-;-;-;-;-;-;-;-;-;-;-
1512466636945;-;-;6.0338745;0.37249756;-2.0439606;-;-;-;-;-;-;-;-;-;-;-;-;-;-;-
1512466636966;-;-;7.253723;2.1789093;-1.4095001;-;-;-;-;-;-;-;-;-;-;-;-;-;-;-
1512466636986;-;-;7.612854;3.1150513;-1.6525116;-;-;-;-;-;-;-;-;-;-;-;-;-;-;-
1512466637007;-;-;6.4959564;2.8468933;-2.0116425;-;-;-;-;-;-;-;-;-;-;-;-;-;-;-
1512466637028;-;-;5.965637;1.4989624;-1.9062958;-;-;-;-;-;-;-;-;-;-;-;-;-;-;-
1512466637048;-;-;5.8962097;-0.36013794;-2.076294;-;-;-;-;-;-;-;-;-;-;-;-;-;-;-
1512466637068;-;-;6.961624;-2.2096558;-1.8284912;-;-;-;-;-;-;-;-;-;-;-;-;-;-;-
1512466637088;-;-;8.926071;-2.2551422;-1.6800537;-;-;-;-;-;-;-;-;-;-;-;-;-;-;-
1512466637109;-;-;9.291183;-1.293869;-1.3640137;-;-;-;-;-;-;-;-;-;-;-;-;-;-;-
1512466637129;-;-;8.675873;-0.4559021;-1.4178772;-;-;-;-;-;-;-;-;-;-;-;-;-;-;-
1512466637150;-;-;8.497513;-0.5564575;-0.76187134;-;-;-;-;-;-;-;-;-;-;-;-;-;-;-
1512466637171;-;-;9.307953;-1.5404816;0.2736206;-;-;-;-;-;-;-;-;-;-;-;-;-;-;-
1512466637191;-;-;9.771225;-1.6075134;-0.8660126;-;-;-;-;-;-;-;-;-;-;-;-;-;-;-
1512466637211;-;-;9.499481;0.064834595;-3.5080261;-;-;-;-;-;-;-;-;-;-;-;-;-;-;-
1512466637232;-;-;9.719757;1.2308044;-7.057419;-;-;-;-;-;-;-;-;-;-;-;-;-;-;-
1512466637252;-;-;10.904877;0.39164734;-5.726242;-;-;-;-;-;-;-;-;-;-;-;-;-;-;-
1512466637273;-;-;10.329071;-1.020935;-3.6732178;-;-;-;-;-;-;-;-;-;-;-;-;-;-;-
1512466637294;-;-;8.587296;-3.1421967;-5.6017456;-;-;-;-;-;-;-;-;-;-;-;-;-;-;-
1512466637314;-;-;7.624832;-3.6066742;-7.79245;-;-;-;-;-;-;-;-;-;-;-;-;-;-;-
1512466637333;-;-;8.625595;-2.269516;-6.3750763;-;-;-;-;-;-;-;-;-;-;-;-;-;-;-
1512466637353;-;-;11.071274;0.069625854;-4.593796;-;-;-;-;-;-;-;-;-;-;-;-;-;-;-
1512466637374;-;-;12.116348;0.045684814;-4.5530853;-;-;-;-;-;-;-;-;-;-;-;-;-;-;-
1512466637394;-;-;11.924805;-1.5919495;-4.337616;-;-;-;-;-;-;-;-;-;-;-;-;-;-;-
1512466637415;-;-;10.981491;-3.399582;-4.413025;-;-;-;-;-;-;-;-;-;-;-;-;-;-;-
1512466637435;-;-;8.636368;-3.696457;-3.7163086;-;-;-;-;-;-;-;-;-;-;-;-;-;-;-
1512466637456;-;-;5.892624;-3.1673431;-2.8891144;-;-;-;-;-;-;-;-;-;-;-;-;-;-;-
1512466637476;-;-;3.4277954;-2.3461304;-2.4569702;-;-;-;-;-;-;-;-;-;-;-;-;-;-;-
1512466637497;-;-;1.8547974;-1.6841278;-2.7011719;-;-;-;-;-;-;-;-;-;-;-;-;-;-;-
1512466637517;-;-;3.5558777;-1.6577911;-2.6137848;-;-;-;-;-;-;-;-;-;-;-;-;-;-;-
1512466637538;-;-;6.675522;-1.7104645;-1.9350281;-;-;-;-;-;-;-;-;-;-;-;-;-;-;-
1512466637559;-;-;9.626373;-1.5883636;-1.7889862;-;-;-;-;-;-;-;-;-;-;-;-;-;-;-
1512466637579;-;-;11.004242;-1.8876343;-2.7203217;-;-;-;-;-;-;-;-;-;-;-;-;-;-;-
1512466637600;-;-;11.290344;-2.8453217;-3.6265259;-;-;-;-;-;-;-;-;-;-;-;-;-;-;-
1512466637620;-;-;8.793198;-4.555969;-3.1452942;-;-;-;-;-;-;-;-;-;-;-;-;-;-;-
1512466637640;-;-;8.976349;-5.004883;-2.2774048;-;-;-;-;-;-;-;-;-;-;-;-;-;-;-
1512466637660;-;-;9.815521;-4.5523834;-2.7310944;-;-;-;-;-;-;-;-;-;-;-;-;-;-;-
1512466637681;-;-;11.423233;-2.8261566;-4.03833;-;-;-;-;-;-;-;-;-;-;-;-;-;-;-
1512466637701;-;-;12.663422;-0.6618042;-6.5486603;-;-;-;-;-;-;-;-;-;-;-;-;-;-;-
1512466637722;-;-;12.064865;-0.49421692;-11.005463;-;-;-;-;-;-;-;-;-;-;-;-;-;-;-
1512466637742;-;-;15.453857;-3.1769104;-5.436554;-;-;-;-;-;-;-;-;-;-;-;-;-;-;-
1512466637762;-;-;15.001358;-4.017273;-5.393448;-;-;-;-;-;-;-;-;-;-;-;-;-;-;-
1512466637783;-;-;8.863831;-3.1960602;-10.269241;-;-;-;-;-;-;-;-;-;-;-;-;-;-;-
1512466637803;-;-;5.6412354;-2.866867;-8.577744;-;-;-;-;-;-;-;-;-;-;-;-;-;-;-
1512466637824;-;-;2.6221466;-1.3764801;-6.615692;-;-;-;-;-;-;-;-;-;-;-;-;-;-;-
1512466637844;-;-;2.4497528;0.012161255;-5.417389;-;-;-;-;-;-;-;-;-;-;-;-;-;-;-
1512466637865;-;-;4.956482;-0.009384155;-4.101776;-;-;-;-;-;-;-;-;-;-;-;-;-;-;-
1512466637885;-;-;9.419281;0.046875;-3.8060913;-;-;-;-;-;-;-;-;-;-;-;-;-;-;-
1512466637905;-;-;11.9272;-0.5792084;-3.9162292;-;-;-;-;-;-;-;-;-;-;-;-;-;-;-
1512466637926;-;-;9.622787;-0.90122986;-4.1149445;-;-;-;-;-;-;-;-;-;-;-;-;-;-;-
1512466637947;-;-;6.4049835;-0.5636444;-3.3344421;-;-;-;-;-;-;-;-;-;-;-;-;-;-;-
1512466637968;-;-;4.3495636;0.055252075;-2.8065186;-;-;-;-;-;-;-;-;-;-;-;-;-;-;-
1512466637989;-;-;2.3875122;0.8920288;-3.176422;-;-;-;-;-;-;-;-;-;-;-;-;-;-;-
1512466638009;-;-;2.0918274;0.9758301;-3.5391388;-;-;-;-;-;-;-;-;-;-;-;-;-;-;-
1512466638030;-;-;3.4732819;0.49938965;-3.654068;-;-;-;-;-;-;-;-;-;-;-;-;-;-;-
1512466638050;-;-;6.60849;0.2013092;-3.54393;-;-;-;-;-;-;-;-;-;-;-;-;-;-;-
1512466638071;-;-;8.153946;0.40481567;-3.2494507;-;-;-;-;-;-;-;-;-;-;-;-;-;-;-
1512466638091;-;-;9.131973;0.81422424;-2.7011719;-;-;-;-;-;-;-;-;-;-;-;-;-;-;-
1512466638111;-;-;9.961563;1.4522705;-2.6281433;-;-;-;-;-;-;-;-;-;-;-;-;-;-;-
1512466638132;-;-;10.258453;1.5288849;-3.4230194;-;-;-;-;-;-;-;-;-;-;-;-;-;-;-
1512466638153;-;-;10.18782;1.537262;-3.7594147;-;-;-;-;-;-;-;-;-;-;-;-;-;-;-
1512466638174;-;-;10.432022;1.9107666;-4.3711243;-;-;-;-;-;-;-;-;-;-;-;-;-;-;-
1512466638195;-;-;11.614761;2.4853668;-4.7158966;-;-;-;-;-;-;-;-;-;-;-;-;-;-;-
1512466638215;-;-;11.728485;2.7092285;-3.057907;-;-;-;-;-;-;-;-;-;-;-;-;-;-;-
1512466638235;-;-;10.663071;1.5049438;-6.785675;-;-;-;-;-;-;-;-;-;-;-;-;-;-;-
1512466638256;-;-;8.966782;2.833725;-9.84787;-;-;-;-;-;-;-;-;-;-;-;-;-;-;-
1512466638276;-;-;9.548569;2.888794;-4.7518005;-;-;-;-;-;-;-;-;-;-;-;-;-;-;-
1512466638297;-;-;11.047333;0.57240295;-5.813629;-;-;-;-;-;-;-;-;-;-;-;-;-;-;-
1512466638317;-;-;10.433228;-1.2052917;-8.714218;-;-;-;-;-;-;-;-;-;-;-;-;-;-;-
1512466638338;-;-;3.8503723;-2.5891418;-7.699066;-;-;-;-;-;-;-;-;-;-;-;-;-;-;-
1512466638357;-;-;2.217514;-3.5803375;-5.137268;-;-;-;-;-;-;-;-;-;-;-;-;-;-;-
1512466638377;-;-;5.292877;-2.755539;-2.1696625;-;-;-;-;-;-;-;-;-;-;-;-;-;-;-
1512466638398;-;-;6.3032227;-0.77433777;-3.6289215;-;-;-;-;-;-;-;-;-;-;-;-;-;-;-
1512466638419;-;-;7.427307;1.046463;-3.7306824;-;-;-;-;-;-;-;-;-;-;-;-;-;-;-
1512466638439;-;-;9.105637;1.1087036;-3.9832764;-;-;-;-;-;-;-;-;-;-;-;-;-;-;-
1512466638460;-;-;8.935654;0.7507782;-3.8420105;-;-;-;-;-;-;-;-;-;-;-;-;-;-;-
1512466638480;-;-;6.778473;-0.38887024;-4.199951;-;-;-;-;-;-;-;-;-;-;-;-;-;-;-
1512466638500;-;-;3.3978577;-2.1929016;-3.4421844;-;-;-;-;-;-;-;-;-;-;-;-;-;-;-
1512466638521;-;-;1.8931122;-3.3337402;-2.65448;-;-;-;-;-;-;-;-;-;-;-;-;-;-;-
1512466638541;-;-;2.6341095;-3.7144165;-2.527588;-;-;-;-;-;-;-;-;-;-;-;-;-;-;-
1512466638561;-;-;5.4927826;-2.8201752;-2.3085175;-;-;-;-;-;-;-;-;-;-;-;-;-;-;-
1512466638582;-;-;7.659546;-1.5811768;-2.6688538;-;-;-;-;-;-;-;-;-;-;-;-;-;-;-
1512466638602;-;-;8.18866;-0.9503021;-3.405075;-;-;-;-;-;-;-;-;-;-;-;-;-;-;-
1512466638623;-;-;8.7608795;-1.0484619;-3.8060913;-;-;-;-;-;-;-;-;-;-;-;-;-;-;-
1512466638643;-;-;9.914871;-1.225647;-3.3679657;-;-;-;-;-;-;-;-;-;-;-;-;-;-;-
1512466638664;-;-;10.501465;-1.764328;-3.3727417;-;-;-;-;-;-;-;-;-;-;-;-;-;-;-
1512466638683;-;-;10.096832;-3.3061981;-3.6576538;-;-;-;-;-;-;-;-;-;-;-;-;-;-;-
1512466638703;-;-;10.805527;-3.8664398;-3.725891;-;-;-;-;-;-;-;-;-;-;-;-;-;-;-
1512466638724;-;-;12.6466675;-3.2068481;-3.6732178;-;-;-;-;-;-;-;-;-;-;-;-;-;-;-
1512466638744;-;-;13.575607;-1.858902;-3.9126434;-;-;-;-;-;-;-;-;-;-;-;-;-;-;-
1512466638765;-;-;11.581238;-1.2567596;-6.5977325;-;-;-;-;-;-;-;-;-;-;-;-;-;-;-
1512466638785;-;-;9.07811;-2.3317566;-9.47197;-;-;-;-;-;-;-;-;-;-;-;-;-;-;-
1512466638806;-;-;9.81073;-5.3400726;-9.112839;-;-;-;-;-;-;-;-;-;-;-;-;-;-;-
1512466638826;-;-;13.879669;-4.10347;-4.5447083;-;-;-;-;-;-;-;-;-;-;-;-;-;-;-
1512466638847;-;-;13.035721;-1.7954559;-6.366699;-;-;-;-;-;-;-;-;-;-;-;-;-;-;-
1512466638867;-;-;5.5310974;0.03730774;-10.096863;-;-;-;-;-;-;-;-;-;-;-;-;-;-;-
1512466638888;-;-;3.7569885;0.16659546;-7.603302;-;-;-;-;-;-;-;-;-;-;-;-;-;-;-
1512466638908;-;-;2.4509583;0.064834595;-4.9409485;-;-;-;-;-;-;-;-;-;-;-;-;-;-;-
1512466638929;-;-;2.355194;-1.2914734;-2.1409302;-;-;-;-;-;-;-;-;-;-;-;-;-;-;-
1512466638949;-;-;5.253372;-1.696106;-2.0774841;-;-;-;-;-;-;-;-;-;-;-;-;-;-;-
1512466638970;-;-;9.054169;-2.3341522;-2.7478638;-;-;-;-;-;-;-;-;-;-;-;-;-;-;-
1512466638990;-;-;9.8598175;-2.6992645;-4.5327454;-;-;-;-;-;-;-;-;-;-;-;-;-;-;-
1512466639011;-;-;8.100067;-1.2591553;-4.401062;-;-;-;-;-;-;-;-;-;-;-;-;-;-;-
1512466639031;-;-;5.691513;1.5217133;-4.081436;-;-;-;-;-;-;-;-;-;-;-;-;-;-;-
1512466639052;-;-;3.454132;4.2546844;-4.721878;-;-;-;-;-;-;-;-;-;-;-;-;-;-;-
1512466639072;-;-;3.5044098;4.710785;-4.9481354;-;-;-;-;-;-;-;-;-;-;-;-;-;-;-
1512466639092;-;-;3.9772644;3.2826385;-4.8499756;-;-;-;-;-;-;-;-;-;-;-;-;-;-;-
1512466639113;-;-;5.3467407;1.6964874;-4.420212;-;-;-;-;-;-;-;-;-;-;-;-;-;-;-
1512466639133;-;-;7.6380005;0.6382446;-4.1903687;-;-;-;-;-;-;-;-;-;-;-;-;-;-;-
1512466639154;-;-;8.539413;0.49938965;-3.8839111;-;-;-;-;-;-;-;-;-;-;-;-;-;-;-
1512466639174;-;-;10.421249;0.9782257;-3.8659515;-;-;-;-;-;-;-;-;-;-;-;-;-;-;-
1512466639195;-;-;10.720535;1.1278534;-3.7270966;-;-;-;-;-;-;-;-;-;-;-;-;-;-;-
1512466639215;-;-;10.405685;1.798233;-3.950943;-;-;-;-;-;-;-;-;-;-;-;-;-;-;-
1512466639236;-;-;10.585251;2.2627106;-4.069458;-;-;-;-;-;-;-;-;-;-;-;-;-;-;-
1512466639255;-;-;10.098038;2.332138;-4.6404724;-;-;-;-;-;-;-;-;-;-;-;-;-;-;-
1512466639276;-;-;8.070145;1.9406891;-7.6643524;-;-;-;-;-;-;-;-;-;-;-;-;-;-;-
1512466639298;-;-;5.866287;2.4039764;-8.6723175;-;-;-;-;-;-;-;-;-;-;-;-;-;-;-
1512466639318;-;-;7.3291473;2.648178;-6.677948;-;-;-;-;-;-;-;-;-;-;-;-;-;-;-
1512466639339;-;-;11.721298;0.7950592;-7.199875;-;-;-;-;-;-;-;-;-;-;-;-;-;-;-
1512466639360;-;-;12.087616;-1.6446228;-9.8502655;-;-;-;-;-;-;-;-;-;-;-;-;-;-;-
1512466639380;-;-;9.521027;-2.2419739;-11.103622;-;-;-;-;-;-;-;-;-;-;-;-;-;-;-
1512466639400;-;-;6.553421;-2.0504456;-8.328751;-;-;-;-;-;-;-;-;-;-;-;-;-;-;-
1512466639421;-;-;5.181549;-2.4969635;-5.088196;-;-;-;-;-;-;-;-;-;-;-;-;-;-;-
1512466639441;-;-;4.608124;-1.5943451;-3.9653168;-;-;-;-;-;-;-;-;-;-;-;-;-;-;-
1512466639462;-;-;5.7453766;-0.7886963;-4.618927;-;-;-;-;-;-;-;-;-;-;-;-;-;-;-
1512466639482;-;-;7.6463776;-0.9957886;-5.101364;-;-;-;-;-;-;-;-;-;-;-;-;-;-;-
1512466639503;-;-;9.0972595;-1.31781;-4.974472;-;-;-;-;-;-;-;-;-;-;-;-;-;-;-
1512466639524;-;-;9.346252;-1.7224426;-4.583023;-;-;-;-;-;-;-;-;-;-;-;-;-;-;-
1512466639544;-;-;8.122818;-2.2946472;-4.3687286;-;-;-;-;-;-;-;-;-;-;-;-;-;-;-
1512466639564;-;-;5.8674774;-2.4813995;-3.3212738;-;-;-;-;-;-;-;-;-;-;-;-;-;-;-
1512466639585;-;-;4.3854675;-2.2096558;-2.859192;-;-;-;-;-;-;-;-;-;-;-;-;-;-;-
1512466639605;-;-;4.094574;-1.5285034;-2.7825775;-;-;-;-;-;-;-;-;-;-;-;-;-;-;-
1512466639625;-;-;4.0407104;-1.0101624;-3.0160065;-;-;-;-;-;-;-;-;-;-;-;-;-;-;-
1512466639646;-;-;4.035919;-0.80307007;-3.203949;-;-;-;-;-;-;-;-;-;-;-;-;-;-;-
1512466639666;-;-;4.9181824;-1.3262024;-3.5966034;-;-;-;-;-;-;-;-;-;-;-;-;-;-;-
1512466639687;-;-;5.97641;-1.8840485;-3.5942078;-;-;-;-;-;-;-;-;-;-;-;-;-;-;-
1512466639707;-;-;6.78566;-2.3952026;-3.638504;-;-;-;-;-;-;-;-;-;-;-;-;-;-;-
1512466639727;-;-;7.8881836;-3.076355;-3.5247803;-;-;-;-;-;-;-;-;-;-;-;-;-;-;-
1512466639748;-;-;9.452805;-3.6749115;-3.5140076;-;-;-;-;-;-;-;-;-;-;-;-;-;-;-
1512466639768;-;-;10.7456665;-4.408737;-4.0646667;-;-;-;-;-;-;-;-;-;-;-;-;-;-;-
1512466639789;-;-;11.377731;-4.3512726;-4.7314606;-;-;-;-;-;-;-;-;-;-;-;-;-;-;-
1512466639809;-;-;11.123947;-3.7383575;-4.7506104;-;-;-;-;-;-;-;-;-;-;-;-;-;-;-
1512466639829;-;-;10.93959;-2.811798;-4.244232;-;-;-;-;-;-;-;-;-;-;-;-;-;-;-
1512466639849;-;-;9.704193;-2.2838745;-6.2170563;-;-;-;-;-;-;-;-;-;-;-;-;-;-;-
1512466639870;-;-;7.6966553;-2.8381348;-10.491913;-;-;-;-;-;-;-;-;-;-;-;-;-;-;-
1512466639890;-;-;11.826645;-3.594696;-5.0283356;-;-;-;-;-;-;-;-;-;-;-;-;-;-;-
1512466639911;-;-;14.621872;-3.3864136;-3.1847992;-;-;-;-;-;-;-;-;-;-;-;-;-;-;-
1512466639931;-;-;14.213669;-2.2479706;-11.096436;-;-;-;-;-;-;-;-;-;-;-;-;-;-;-
1512466639952;-;-;8.522644;-0.8712921;-10.697815;-;-;-;-;-;-;-;-;-;-;-;-;-;-;-
1512466639972;-;-;5.154007;0.22285461;-8.138412;-;-;-;-;-;-;-;-;-;-;-;-;-;-;-
1512466639993;-;-;2.1504822;0.8297882;-5.453308;-;-;-;-;-;-;-;-;-;-;-;-;-;-;-
1512466640012;-;-;1.3125153;-0.3757019;-2.6760406;-;-;-;-;-;-;-;-;-;-;-;-;-;-;-
1512466640033;-;-;4.490814;-0.5037842;-3.3033142;-;-;-;-;-;-;-;-;-;-;-;-;-;-;-
1512466640053;-;-;7.9815674;-0.35534668;-4.1664276;-;-;-;-;-;-;-;-;-;-;-;-;-;-;-
1512466640074;-;-;9.51265;-0.72883606;-4.397461;-;-;-;-;-;-;-;-;-;-;-;-;-;-;-
1512466640094;-;-;8.5849;-1.091568;-3.9090424;-;-;-;-;-;-;-;-;-;-;-;-;-;-;-
1512466640115;-;-;7.304001;-0.9790344;-3.1608582;-;-;-;-;-;-;-;-;-;-;-;-;-;-;-
1512466640134;-;-;5.826782;-0.23443604;-3.274582;-;-;-;-;-;-;-;-;-;-;-;-;-;-;-
1512466640154;-;-;4.798477;0.2132721;-3.4134521;-;-;-;-;-;-;-;-;-;-;-;-;-;-;-
1512466640175;-;-;4.135269;0.47543335;-3.511612;-;-;-;-;-;-;-;-;-;-;-;-;-;-;-
1512466640196;-;-;4.4441223;0.8010559;-3.4780884;-;-;-;-;-;-;-;-;-;-;-;-;-;-;-
1512466640217;-;-;5.233017;1.1936951;-3.176422;-;-;-;-;-;-;-;-;-;-;-;-;-;-;-
1512466640237;-;-;6.667145;1.4403076;-2.8615875;-;-;-;-;-;-;-;-;-;-;-;-;-;-;-
1512466640258;-;-;7.3423157;1.2559509;-3.2614136;-;-;-;-;-;-;-;-;-;-;-;-;-;-;-
1512466640278;-;-;7.762497;1.1506042;-3.4421844;-;-;-;-;-;-;-;-;-;-;-;-;-;-;-
1512466640299;-;-;8.660324;1.0153351;-3.2602234;-;-;-;-;-;-;-;-;-;-;-;-;-;-;-
1512466640319;-;-;9.142746;1.1709595;-2.7598267;-;-;-;-;-;-;-;-;-;-;-;-;-;-;-
1512466640340;-;-;9.194229;1.4486847;-2.6473083;-;-;-;-;-;-;-;-;-;-;-;-;-;-;-
1512466640359;-;-;8.6423645;1.9131622;-2.8412323;-;-;-;-;-;-;-;-;-;-;-;-;-;-;-
1512466640380;-;-;8.581314;2.1441956;-2.6772308;-;-;-;-;-;-;-;-;-;-;-;-;-;-;-
1512466640400;-;-;8.872208;1.7850647;-2.524002;-;-;-;-;-;-;-;-;-;-;-;-;-;-;-
1512466640421;-;-;9.412094;1.209259;-2.772995;-;-;-;-;-;-;-;-;-;-;-;-;-;-;-
1512466640442;-;-;10.546951;0.47903442;-3.5343628;-;-;-;-;-;-;-;-;-;-;-;-;-;-;-
1512466640462;-;-;11.180222;0.18334961;-6.1667786;-;-;-;-;-;-;-;-;-;-;-;-;-;-;-
1512466640482;-;-;13.317032;2.0388489;-9.055389;-;-;-;-;-;-;-;-;-;-;-;-;-;-;-
1512466640502;-;-;18.551956;5.38356;-5.2976837;-;-;-;-;-;-;-;-;-;-;-;-;-;-;-
1512466640523;-;-;15.915939;4.530014;-7.1627655;-;-;-;-;-;-;-;-;-;-;-;-;-;-;-
1512466640543;-;-;11.534561;2.1705322;-8.6328125;-;-;-;-;-;-;-;-;-;-;-;-;-;-;-
1512466640563;-;-;7.197464;-0.030929565;-6.9089813;-;-;-;-;-;-;-;-;-;-;-;-;-;-;-
1512466640584;-;-;2.7717743;-2.8165894;-4.092209;-;-;-;-;-;-;-;-;-;-;-;-;-;-;-
1512466640604;-;-;1.4765167;-5.17128;-2.7753906;-;-;-;-;-;-;-;-;-;-;-;-;-;-;-
1512466640625;-;-;2.2689972;-5.9637604;-3.8096924;-;-;-;-;-;-;-;-;-;-;-;-;-;-;-
1512466640646;-;-;4.5207367;-3.3756256;-5.6556244;-;-;-;-;-;-;-;-;-;-;-;-;-;-;-
1512466640665;-;-;7.554199;-0.7910919;-5.2031097;-;-;-;-;-;-;-;-;-;-;-;-;-;-;-
1512466640685;-;-;9.457581;1.6773376;-5.3790894;-;-;-;-;-;-;-;-;-;-;-;-;-;-;-
1512466640705;-;-;8.772842;2.785843;-4.4309845;-;-;-;-;-;-;-;-;-;-;-;-;-;-;-
1512466640726;-;-;6.6527863;2.287857;-3.5690765;-;-;-;-;-;-;-;-;-;-;-;-;-;-;-
1512466640746;-;-;4.818817;0.37010193;-2.9669342;-;-;-;-;-;-;-;-;-;-;-;-;-;-;-
1512466640767;-;-;3.636078;-2.056427;-2.6197662;-;-;-;-;-;-;-;-;-;-;-;-;-;-;-
1512466640788;-;-;3.458908;-3.989746;-2.665268;-;-;-;-;-;-;-;-;-;-;-;-;-;-;-
1512466640807;-;-;3.9377594;-4.432678;-2.6317444;-;-;-;-;-;-;-;-;-;-;-;-;-;-;-
1512466640828;-;-;4.745804;-3.5085144;-2.7777863;-;-;-;-;-;-;-;-;-;-;-;-;-;-;-
1512466640848;-;-;6.130844;-1.9798126;-2.9358063;-;-;-;-;-;-;-;-;-;-;-;-;-;-;-
1512466640868;-;-;7.550598;-0.9467163;-3.231491;-;-;-;-;-;-;-;-;-;-;-;-;-;-;-
1512466640889;-;-;8.709396;-0.9323425;-3.8432007;-;-;-;-;-;-;-;-;-;-;-;-;-;-;-
1512466640908;-;-;9.546173;-1.5656128;-3.9892578;-;-;-;-;-;-;-;-;-;-;-;-;-;-;-
1512466640928;-;-;10.172256;-2.269516;-3.7893372;-;-;-;-;-;-;-;-;-;-;-;-;-;-;-
1512466640949;-;-;10.246475;-2.5891418;-3.820465;-;-;-;-;-;-;-;-;-;-;-;-;-;-;-
1512466640970;-;-;9.919662;-2.5292816;-3.895874;-;-;-;-;-;-;-;-;-;-;-;-;-;-;-
1512466640990;-;-;9.527023;-2.7387695;-3.8839111;-;-;-;-;-;-;-;-;-;-;-;-;-;-;-
1512466641011;-;-;8.824326;-3.4366913;-3.6289215;-;-;-;-;-;-;-;-;-;-;-;-;-;-;-
1512466641032;-;-;9.21817;-3.831726;-3.448166;-;-;-;-;-;-;-;-;-;-;-;-;-;-;-
1512466641053;-;-;10.670242;-3.186493;-3.2961273;-;-;-;-;-;-;-;-;-;-;-;-;-;-;-
1512466641074;-;-;9.990295;-2.2647247;-5.314438;-;-;-;-;-;-;-;-;-;-;-;-;-;-;-
1512466641094;-;-;10.062119;-2.151001;-7.441696;-;-;-;-;-;-;-;-;-;-;-;-;-;-;-
1512466641115;-;-;12.1019745;-2.3592987;-6.887436;-;-;-;-;-;-;-;-;-;-;-;-;-;-;-
1512466641135;-;-;14.873276;-3.546814;-8.338318;-;-;-;-;-;-;-;-;-;-;-;-;-;-;-
1512466641155;-;-;15.367676;-3.2200165;-10.745697;-;-;-;-;-;-;-;-;-;-;-;-;-;-;-
1512466641176;-;-;9.239716;-1.8301697;-9.682663;-;-;-;-;-;-;-;-;-;-;-;-;-;-;-
1512466641195;-;-;5.916565;-0.7815094;-7.4871826;-;-;-;-;-;-;-;-;-;-;-;-;-;-;-
1512466641215;-;-;3.2709656;-0.14704895;-5.9489136;-;-;-;-;-;-;-;-;-;-;-;-;-;-;-
1512466641236;-;-;1.4214478;-0.39245605;-5.4042206;-;-;-;-;-;-;-;-;-;-;-;-;-;-;-
1512466641257;-;-;3.3727264;-0.19493103;-5.7825165;-;-;-;-;-;-;-;-;-;-;-;-;-;-;-
1512466641277;-;-;6.9580383;0.23602295;-5.702301;-;-;-;-;-;-;-;-;-;-;-;-;-;-;-
1512466641298;-;-;9.051773;0.0756073;-5.125305;-;-;-;-;-;-;-;-;-;-;-;-;-;-;-
1512466641320;-;-;8.836288;-0.47984314;-4.175995;-;-;-;-;-;-;-;-;-;-;-;-;-;-;-
1512466641339;-;-;7.435684;-1.2052917;-3.5606995;-;-;-;-;-;-;-;-;-;-;-;-;-;-;-
1512466641359;-;-;5.8016357;-1.2005005;-3.70195;-;-;-;-;-;-;-;-;-;-;-;-;-;-;-
1512466641380;-;-;4.57341;-0.4487152;-3.851593;-;-;-;-;-;-;-;-;-;-;-;-;-;-;-
1512466641401;-;-;3.6109467;0.58917236;-3.919815;-;-;-;-;-;-;-;-;-;-;-;-;-;-;-
1512466641420;-;-;3.4122314;1.1326447;-3.8348236;-;-;-;-;-;-;-;-;-;-;-;-;-;-;-
1512466641441;-;-;4.3292084;1.4474792;-3.6325226;-;-;-;-;-;-;-;-;-;-;-;-;-;-;-
1512466641461;-;-;5.4688416;1.0787811;-3.4182434;-;-;-;-;-;-;-;-;-;-;-;-;-;-;-
1512466641482;-;-;6.886215;0.3712921;-3.5307617;-;-;-;-;-;-;-;-;-;-;-;-;-;-;-
1512466641501;-;-;8.250916;0.083984375;-3.322464;-;-;-;-;-;-;-;-;-;-;-;-;-;-;-
1512466641522;-;-;8.975159;0.52931213;-3.740265;-;-;-;-;-;-;-;-;-;-;-;-;-;-;-
1512466641542;-;-;10.155502;1.4211578;-3.9449615;-;-;-;-;-;-;-;-;-;-;-;-;-;-;-
1512466641563;-;-;10.471527;1.947876;-3.8898926;-;-;-;-;-;-;-;-;-;-;-;-;-;-;-
1512466641583;-;-;9.752075;2.7906342;-3.9796753;-;-;-;-;-;-;-;-;-;-;-;-;-;-;-
1512466641604;-;-;9.603638;2.809784;-4.0562897;-;-;-;-;-;-;-;-;-;-;-;-;-;-;-
1512466641624;-;-;9.934036;2.4051666;-4.062271;-;-;-;-;-;-;-;-;-;-;-;-;-;-;-
1512466641645;-;-;8.734543;1.9622345;-4.0000305;-;-;-;-;-;-;-;-;-;-;-;-;-;-;-
1512466641665;-;-;6.980789;0.7878876;-8.039047;-;-;-;-;-;-;-;-;-;-;-;-;-;-;-
1512466641685;-;-;8.732147;1.4977722;-8.853073;-;-;-;-;-;-;-;-;-;-;-;-;-;-;-
1512466641706;-;-;13.840179;1.5707855;-5.3048706;-;-;-;-;-;-;-;-;-;-;-;-;-;-;-
1512466641727;-;-;12.955521;0.5532532;-8.453247;-;-;-;-;-;-;-;-;-;-;-;-;-;-;-
1512466641747;-;-;10.299149;0.8513336;-8.300018;-;-;-;-;-;-;-;-;-;-;-;-;-;-;-
1512466641767;-;-;6.37146;0.0061798096;-8.930893;-;-;-;-;-;-;-;-;-;-;-;-;-;-;-
1512466641788;-;-;3.1153412;-1.9295349;-5.877075;-;-;-;-;-;-;-;-;-;-;-;-;-;-;-
1512466641808;-;-;2.810089;-2.4622498;-4.5291443;-;-;-;-;-;-;-;-;-;-;-;-;-;-;-
1512466641829;-;-;3.9820404;-1.0879669;-6.09375;-;-;-;-;-;-;-;-;-;-;-;-;-;-;-
1512466641849;-;-;7.0346527;-0.5744171;-5.4987946;-;-;-;-;-;-;-;-;-;-;-;-;-;-;-
1512466641870;-;-;9.274429;-1.111908;-5.796875;-;-;-;-;-;-;-;-;-;-;-;-;-;-;-
1512466641891;-;-;9.515045;-1.1993103;-5.6604004;-;-;-;-;-;-;-;-;-;-;-;-;-;-;-
1512466641910;-;-;8.294006;-1.2747192;-5.4425354;-;-;-;-;-;-;-;-;-;-;-;-;-;-;-
1512466641931;-;-;6.6432037;-1.6685638;-4.7506104;-;-;-;-;-;-;-;-;-;-;-;-;-;-;-
1512466641951;-;-;4.782913;-1.9810028;-4.077835;-;-;-;-;-;-;-;-;-;-;-;-;-;-;-
1512466641972;-;-;4.2753296;-2.4430847;-3.824051;-;-;-;-;-;-;-;-;-;-;-;-;-;-;-
1512466641992;-;-;4.295685;-2.5280914;-3.9042664;-;-;-;-;-;-;-;-;-;-;-;-;-;-;-
1512466642013;-;-;4.0059814;-2.222824;-3.867157;-;-;-;-;-;-;-;-;-;-;-;-;-;-;-
1512466642034;-;-;4.374695;-2.3975983;-3.8815155;-;-;-;-;-;-;-;-;-;-;-;-;-;-;-
1512466642054;-;-;5.3251953;-2.2515564;-3.8803253;-;-;-;-;-;-;-;-;-;-;-;-;-;-;-
1512466642074;-;-;6.079361;-2.210846;-4.1424866;-;-;-;-;-;-;-;-;-;-;-;-;-;-;-
1512466642095;-;-;7.423706;-2.269516;-4.53154;-;-;-;-;-;-;-;-;-;-;-;-;-;-;-
1512466642114;-;-;8.301193;-2.2551422;-4.9241943;-;-;-;-;-;-;-;-;-;-;-;-;-;-;-
1512466642134;-;-;8.973953;-2.2874756;-5.4628906;-;-;-;-;-;-;-;-;-;-;-;-;-;-;-
1512466642154;-;-;8.436462;-2.5376587;-5.8411713;-;-;-;-;-;-;-;-;-;-;-;-;-;-;-
1512466642175;-;-;7.688278;-3.005722;-5.5885773;-;-;-;-;-;-;-;-;-;-;-;-;-;-;-
1512466642195;-;-;7.8319244;-3.4067535;-4.986435;-;-;-;-;-;-;-;-;-;-;-;-;-;-;-
1512466642218;-;-;7.841507;-3.2930298;-4.713501;-;-;-;-;-;-;-;-;-;-;-;-;-;-;-
1512466642239;-;-;7.4045563;-3.1613464;-4.74942;-;-;-;-;-;-;-;-;-;-;-;-;-;-;-
1512466642259;-;-;7.8989563;-2.9590454;-5.345566;-;-;-;-;-;-;-;-;-;-;-;-;-;-;-
1512466642280;-;-;9.57251;-2.645401;-5.81723;-;-;-;-;-;-;-;-;-;-;-;-;-;-;-
1512466642300;-;-;11.460342;-1.7391968;-6.5893555;-;-;-;-;-;-;-;-;-;-;-;-;-;-;-
1512466642321;-;-;10.44519;-2.0300903;-10.919266;-;-;-;-;-;-;-;-;-;-;-;-;-;-;-
1512466642341;-;-;12.329437;-3.5970917;-11.125168;-;-;-;-;-;-;-;-;-;-;-;-;-;-;-
1512466642362;-;-;15.1091;-5.0587616;-7.165161;-;-;-;-;-;-;-;-;-;-;-;-;-;-;-
1512466642381;-;-;12.99263;-3.2942352;-8.72139;-;-;-;-;-;-;-;-;-;-;-;-;-;-;-
1512466642402;-;-;10.404495;-1.5596313;-8.805191;-;-;-;-;-;-;-;-;-;-;-;-;-;-;-
1512466642423;-;-;4.7170715;-0.090789795;-6.7114563;-;-;-;-;-;-;-;-;-;-;-;-;-;-;-
1512466642443;-;-;1.2346954;0.38446045;-5.582596;-;-;-;-;-;-;-;-;-;-;-;-;-;-;-
1512466642463;-;-;-0.7453003;-0.76356506;-4.5351257;-;-;-;-;-;-;-;-;-;-;-;-;-;-;-
1512466642484;-;-;1.8368378;-1.5488586;-5.5215454;-;-;-;-;-;-;-;-;-;-;-;-;-;-;-
1512466642505;-;-;6.1200714;-1.190918;-5.6675873;-;-;-;-;-;-;-;-;-;-;-;-;-;-;-
1512466642525;-;-;9.667084;-0.704895;-5.128891;-;-;-;-;-;-;-;-;-;-;-;-;-;-;-
1512466642546;-;-;9.729324;-0.13867188;-3.832428;-;-;-;-;-;-;-;-;-;-;-;-;-;-;-
1512466642566;-;-;7.897766;-0.28112793;-3.0746765;-;-;-;-;-;-;-;-;-;-;-;-;-;-;-
1512466642587;-;-;6.2242126;-0.4547119;-3.2733917;-;-;-;-;-;-;-;-;-;-;-;-;-;-;-
1512466642607;-;-;4.4788513;-0.20211792;-3.7917328;-;-;-;-;-;-;-;-;-;-;-;-;-;-;-
1512466642628;-;-;3.2398376;0.1797638;-4.4429626;-;-;-;-;-;-;-;-;-;-;-;-;-;-;-
1512466642648;-;-;2.5048218;0.6549988;-4.551895;-;-;-;-;-;-;-;-;-;-;-;-;-;-;-
1512466642670;-;-;2.7011566;1.0548401;-4.4824524;-;-;-;-;-;-;-;-;-;-;-;-;-;-;-
1512466642689;-;-;4.755371;1.4810028;-4.448944;-;-;-;-;-;-;-;-;-;-;-;-;-;-;-
1512466642709;-;-;6.869461;1.1781464;-4.694351;-;-;-;-;-;-;-;-;-;-;-;-;-;-;-
1512466642731;-;-;8.997894;0.5305023;-4.843979;-;-;-;-;-;-;-;-;-;-;-;-;-;-;-
1512466642751;-;-;10.447586;-0.03930664;-4.7901154;-;-;-;-;-;-;-;-;-;-;-;-;-;-;-
1512466642771;-;-;10.941986;-0.33499146;-4.068268;-;-;-;-;-;-;-;-;-;-;-;-;-;-;-
1512466642791;-;-;9.656311;-0.24641418;-3.1249542;-;-;-;-;-;-;-;-;-;-;-;-;-;-;-
1512466642812;-;-;8.739319;0.057647705;-2.491684;-;-;-;-;-;-;-;-;-;-;-;-;-;-;-
1512466642832;-;-;8.24852;0.40361023;-1.9853058;-;-;-;-;-;-;-;-;-;-;-;-;-;-;-
1512466642853;-;-;7.714615;0.64183044;-1.7099762;-;-;-;-;-;-;-;-;-;-;-;-;-;-;-
1512466642873;-;-;7.003525;0.8441467;-1.0527649;-;-;-;-;-;-;-;-;-;-;-;-;-;-;-
1512466642894;-;-;5.8962097;0.68852234;-1.7243347;-;-;-;-;-;-;-;-;-;-;-;-;-;-;-
1512466642914;-;-;4.2118835;1.4450989;-5.930954;-;-;-;-;-;-;-;-;-;-;-;-;-;-;-
1512466642935;-;-;3.466095;3.6764832;-11.827866;-;-;-;-;-;-;-;-;-;-;-;-;-;-;-
1512466642956;-;-;12.2612;-0.31704712;-5.009186;-;-;-;-;-;-;-;-;-;-;-;-;-;-;-
1512466642976;-;-;20.154877;-3.7479248;-4.187973;-;-;-;-;-;-;-;-;-;-;-;-;-;-;-
1512466642996;-;-;16.169724;-4.9486237;-6.2649384;-;-;-;-;-;-;-;-;-;-;-;-;-;-;-
