TimeStamp[ms];Prox[Cm];Lux[lux];AccX[m/s^2];AccY[m/s^2];AccZ[m/s^2];GyroX[rad/s];GyroY[rad/s];GyroZ[rad/s];MagnX[uT];MagnY[uT];MagnZ[uT];OrienYaw[degrees];OrienPitch[degrees];OrienRoll[degrees];Press[Pa];Temp[C°];Batt[%];Lat;Lng;Speed[m/s]
1513496205921;-;-;9.164291;-0.2775421;-0.32373047;-;-;-;-;-;-;-;-;-;-;-;-;-;-;-
1513496205962;-;-;9.149933;-0.46427917;-0.23873901;-;-;-;-;-;-;-;-;-;-;-;-;-;-;-
1513496205963;-;-;9.149933;-0.46427917;-0.23873901;-;-;-;-;-;-;-;-;-;-;-;-;-;-;-
1513496205979;-;-;9.280411;-0.41041565;-0.333313;-;-;-;-;-;-;-;-;-;-;-;-;-;-;-
1513496205999;-;-;9.363022;-0.3433838;-0.35964966;-;-;-;-;-;-;-;-;-;-;-;-;-;-;-
1513496206020;-;-;9.371399;-0.38887024;-0.31176758;-;-;-;-;-;-;-;-;-;-;-;-;-;-;-
1513496206041;-;-;9.333084;-0.48703003;-0.3440857;-;-;-;-;-;-;-;-;-;-;-;-;-;-;-
1513496206061;-;-;9.294785;-0.46907043;-0.3764038;-;-;-;-;-;-;-;-;-;-;-;-;-;-;-
1513496206081;-;-;9.279221;-0.41760254;-0.34048462;-;-;-;-;-;-;-;-;-;-;-;-;-;-;-
1513496206101;-;-;9.294785;-0.37210083;-0.37042236;-;-;-;-;-;-;-;-;-;-;-;-;-;-;-
1513496206122;-;-;9.285202;-0.35176086;-0.4350586;-;-;-;-;-;-;-;-;-;-;-;-;-;-;-
1513496206143;-;-;9.280411;-0.4271698;-0.34048462;-;-;-;-;-;-;-;-;-;-;-;-;-;-;-
1513496206162;-;-;9.23851;-0.4152069;-0.333313;-;-;-;-;-;-;-;-;-;-;-;-;-;-;-
1513496206183;-;-;9.262466;-0.36013794;-0.35365295;-;-;-;-;-;-;-;-;-;-;-;-;-;-;-
1513496206203;-;-;9.369003;-0.3146515;-0.3668213;-;-;-;-;-;-;-;-;-;-;-;-;-;-;-
1513496206223;-;-;9.3941345;-0.17338562;-0.3189392;-;-;-;-;-;-;-;-;-;-;-;-;-;-;-
1513496206244;-;-;9.402527;-0.14225769;-0.377594;-;-;-;-;-;-;-;-;-;-;-;-;-;-;-
1513496206264;-;-;9.307953;-0.13508606;-0.49371338;-;-;-;-;-;-;-;-;-;-;-;-;-;-;-
1513496206285;-;-;9.279221;-0.13986206;-0.43745422;-;-;-;-;-;-;-;-;-;-;-;-;-;-;-
1513496206304;-;-;9.322311;-0.038116455;-0.48893738;-;-;-;-;-;-;-;-;-;-;-;-;-;-;-
1513496206325;-;-;9.273239;0.009765625;-0.5344238;-;-;-;-;-;-;-;-;-;-;-;-;-;-;-
1513496206345;-;-;9.199005;-0.085998535;-0.4350586;-;-;-;-;-;-;-;-;-;-;-;-;-;-;-
1513496206365;-;-;9.318726;-0.088394165;-0.50090027;-;-;-;-;-;-;-;-;-;-;-;-;-;-;-
1513496206386;-;-;9.400131;-0.13388062;-0.3476715;-;-;-;-;-;-;-;-;-;-;-;-;-;-;-
1513496206406;-;-;9.412094;-0.2212677;-0.44104004;-;-;-;-;-;-;-;-;-;-;-;-;-;-;-
1513496206427;-;-;9.352234;-0.34936523;-0.44104004;-;-;-;-;-;-;-;-;-;-;-;-;-;-;-
1513496206447;-;-;9.225342;-0.44273376;-0.46858215;-;-;-;-;-;-;-;-;-;-;-;-;-;-;-
1513496206467;-;-;9.276825;-0.47625732;-0.39076233;-;-;-;-;-;-;-;-;-;-;-;-;-;-;-
1513496206487;-;-;9.280411;-0.35534668;-0.38119507;-;-;-;-;-;-;-;-;-;-;-;-;-;-;-
1513496206508;-;-;9.169083;-0.23803711;-0.3297119;-;-;-;-;-;-;-;-;-;-;-;-;-;-;-
1513496206528;-;-;9.039795;-0.23683167;-0.46020508;-;-;-;-;-;-;-;-;-;-;-;-;-;-;-
1513496206549;-;-;9.105637;-0.13627625;-0.3045807;-;-;-;-;-;-;-;-;-;-;-;-;-;-;-
1513496206568;-;-;9.29837;-0.08720398;-0.36921692;-;-;-;-;-;-;-;-;-;-;-;-;-;-;-
1513496206589;-;-;9.240906;-0.02734375;-0.57751465;-;-;-;-;-;-;-;-;-;-;-;-;-;-;-
1513496206609;-;-;9.286407;0.17736816;-0.52723694;-;-;-;-;-;-;-;-;-;-;-;-;-;-;-
1513496206630;-;-;9.385757;0.21687317;-0.41949463;-;-;-;-;-;-;-;-;-;-;-;-;-;-;-
1513496206650;-;-;9.21936;0.05645752;-0.33929443;-;-;-;-;-;-;-;-;-;-;-;-;-;-;-
1513496206670;-;-;9.091278;-0.04888916;-0.17289734;-;-;-;-;-;-;-;-;-;-;-;-;-;-;-
1513496206691;-;-;9.069733;-0.12908936;-0.13937378;-;-;-;-;-;-;-;-;-;-;-;-;-;-;-
1513496206710;-;-;8.964386;-0.05128479;-0.27345276;-;-;-;-;-;-;-;-;-;-;-;-;-;-;-
1513496206730;-;-;9.135559;0.02772522;-0.19683838;-;-;-;-;-;-;-;-;-;-;-;-;-;-;-
1513496206751;-;-;9.552155;0.16897583;-0.26507568;-;-;-;-;-;-;-;-;-;-;-;-;-;-;-
1513496206771;-;-;9.365402;0.2420044;-0.456604;-;-;-;-;-;-;-;-;-;-;-;-;-;-;-
1513496206791;-;-;8.838684;0.90519714;0.7153473;-;-;-;-;-;-;-;-;-;-;-;-;-;-;-
1513496206812;-;-;6.833542;0.53170776;-1.4274597;-;-;-;-;-;-;-;-;-;-;-;-;-;-;-
1513496206831;-;-;9.79277;0.055252075;-0.7582855;-;-;-;-;-;-;-;-;-;-;-;-;-;-;-
1513496206851;-;-;9.024231;0.37010193;-0.55596924;-;-;-;-;-;-;-;-;-;-;-;-;-;-;-
1513496206872;-;-;8.878189;0.5065613;-0.57751465;-;-;-;-;-;-;-;-;-;-;-;-;-;-;-
1513496206892;-;-;8.945221;0.29467773;-1.0419922;-;-;-;-;-;-;-;-;-;-;-;-;-;-;-
1513496206912;-;-;9.106842;0.21806335;-1.1748657;-;-;-;-;-;-;-;-;-;-;-;-;-;-;-
1513496206932;-;-;9.262466;0.34136963;-1.179657;-;-;-;-;-;-;-;-;-;-;-;-;-;-;-
1513496206953;-;-;9.129578;0.45628357;-0.8360901;-;-;-;-;-;-;-;-;-;-;-;-;-;-;-
1513496206973;-;-;9.075714;0.3425598;-0.5894928;-;-;-;-;-;-;-;-;-;-;-;-;-;-;-
1513496206994;-;-;9.568924;-0.088394165;-0.35365295;-;-;-;-;-;-;-;-;-;-;-;-;-;-;-
1513496207014;-;-;9.779602;-0.26556396;0.20898438;-;-;-;-;-;-;-;-;-;-;-;-;-;-;-
1513496207034;-;-;9.189438;0.86808777;-0.8001709;-;-;-;-;-;-;-;-;-;-;-;-;-;-;-
1513496207055;-;-;9.225342;0.64183044;-0.83010864;-;-;-;-;-;-;-;-;-;-;-;-;-;-;-
1513496207075;-;-;9.286407;-0.19493103;0.031814575;-;-;-;-;-;-;-;-;-;-;-;-;-;-;-
1513496207095;-;-;9.049377;-0.40682983;0.29397583;-;-;-;-;-;-;-;-;-;-;-;-;-;-;-
1513496207116;-;-;9.559341;-0.1925354;0.0856781;-;-;-;-;-;-;-;-;-;-;-;-;-;-;-
1513496207136;-;-;9.141556;0.05406189;-0.0340271;-;-;-;-;-;-;-;-;-;-;-;-;-;-;-
1513496207156;-;-;8.205414;0.6717682;-0.19444275;-;-;-;-;-;-;-;-;-;-;-;-;-;-;-
1513496207177;-;-;8.443649;0.8118286;-0.11663818;-;-;-;-;-;-;-;-;-;-;-;-;-;-;-
1513496207197;-;-;8.775238;1.2978516;-0.4626007;-;-;-;-;-;-;-;-;-;-;-;-;-;-;-
1513496207218;-;-;10.121979;0.58677673;-0.95339966;-;-;-;-;-;-;-;-;-;-;-;-;-;-;-
1513496207237;-;-;8.672287;0.97462463;-0.20402527;-;-;-;-;-;-;-;-;-;-;-;-;-;-;-
1513496207257;-;-;8.144363;0.82499695;-0.15135193;-;-;-;-;-;-;-;-;-;-;-;-;-;-;-
1513496207277;-;-;8.345474;1.2966461;-0.107055664;-;-;-;-;-;-;-;-;-;-;-;-;-;-;-
1513496207298;-;-;8.302383;1.0847626;-0.60505676;-;-;-;-;-;-;-;-;-;-;-;-;-;-;-
1513496207318;-;-;9.675461;0.80703735;-0.2902069;-;-;-;-;-;-;-;-;-;-;-;-;-;-;-
1513496207338;-;-;8.352661;0.9064026;-0.47216797;-;-;-;-;-;-;-;-;-;-;-;-;-;-;-
1513496207359;-;-;8.26886;0.576004;-1.1569061;-;-;-;-;-;-;-;-;-;-;-;-;-;-;-
1513496207379;-;-;8.950012;0.27911377;-2.06073;-;-;-;-;-;-;-;-;-;-;-;-;-;-;-
1513496207399;-;-;9.63475;0.29826355;-2.4019012;-;-;-;-;-;-;-;-;-;-;-;-;-;-;-
1513496207420;-;-;9.134369;0.8237915;-2.0918427;-;-;-;-;-;-;-;-;-;-;-;-;-;-;-
1513496207440;-;-;8.351471;0.2013092;-6.2182617;-;-;-;-;-;-;-;-;-;-;-;-;-;-;-
1513496207460;-;-;12.137894;-1.8648987;-5.34317;-;-;-;-;-;-;-;-;-;-;-;-;-;-;-
1513496207481;-;-;10.898895;-1.151413;-1.2466888;-;-;-;-;-;-;-;-;-;-;-;-;-;-;-
1513496207501;-;-;11.880524;-1.8505249;-2.0906525;-;-;-;-;-;-;-;-;-;-;-;-;-;-;-
1513496207521;-;-;9.562927;-1.2196503;-3.1692352;-;-;-;-;-;-;-;-;-;-;-;-;-;-;-
1513496207541;-;-;7.185486;-1.2950745;-3.2686005;-;-;-;-;-;-;-;-;-;-;-;-;-;-;-
1513496207562;-;-;6.886215;-2.495758;-0.5966644;-;-;-;-;-;-;-;-;-;-;-;-;-;-;-
1513496207582;-;-;7.12204;-3.9957275;0.66267395;-;-;-;-;-;-;-;-;-;-;-;-;-;-;-
1513496207603;-;-;6.6060944;-4.364441;-3.1297302;-;-;-;-;-;-;-;-;-;-;-;-;-;-;-
1513496207623;-;-;10.868973;-5.5459747;-4.8810883;-;-;-;-;-;-;-;-;-;-;-;-;-;-;-
1513496207644;-;-;13.465485;-4.4386597;-4.7230835;-;-;-;-;-;-;-;-;-;-;-;-;-;-;-
1513496207664;-;-;11.244858;-2.3126068;-1.9242554;-;-;-;-;-;-;-;-;-;-;-;-;-;-;-
1513496207684;-;-;8.351471;-1.4183655;-2.685608;-;-;-;-;-;-;-;-;-;-;-;-;-;-;-
1513496207703;-;-;7.5913086;-0.6127167;-2.3193054;-;-;-;-;-;-;-;-;-;-;-;-;-;-;-
1513496207723;-;-;7.8762207;-0.9945984;-2.1924133;-;-;-;-;-;-;-;-;-;-;-;-;-;-;-
1513496207744;-;-;8.510681;-1.2974701;-2.859192;-;-;-;-;-;-;-;-;-;-;-;-;-;-;-
1513496207763;-;-;9.048172;-1.724823;-4.9445343;-;-;-;-;-;-;-;-;-;-;-;-;-;-;-
1513496207783;-;-;9.426468;-1.9163666;-2.7442627;-;-;-;-;-;-;-;-;-;-;-;-;-;-;-
1513496207804;-;-;8.349075;-1.6817322;-3.04953;-;-;-;-;-;-;-;-;-;-;-;-;-;-;-
1513496207824;-;-;8.363434;-2.2551422;-2.7191315;-;-;-;-;-;-;-;-;-;-;-;-;-;-;-
1513496207845;-;-;8.243729;-2.2994385;-2.8639832;-;-;-;-;-;-;-;-;-;-;-;-;-;-;-
1513496207865;-;-;8.361038;-1.9810028;-2.7586365;-;-;-;-;-;-;-;-;-;-;-;-;-;-;-
1513496207885;-;-;9.311539;-1.7787018;-3.2087402;-;-;-;-;-;-;-;-;-;-;-;-;-;-;-
1513496207905;-;-;9.209793;-1.6506042;-3.8491974;-;-;-;-;-;-;-;-;-;-;-;-;-;-;-
1513496207926;-;-;8.772842;-1.4064026;-3.638504;-;-;-;-;-;-;-;-;-;-;-;-;-;-;-
1513496207946;-;-;8.857834;-1.1765594;-3.863556;-;-;-;-;-;-;-;-;-;-;-;-;-;-;-
1513496207973;-;-;7.8953705;-0.63786316;-3.788147;-;-;-;-;-;-;-;-;-;-;-;-;-;-;-
1513496207986;-;-;7.909729;-0.36013794;-3.0986176;-;-;-;-;-;-;-;-;-;-;-;-;-;-;-
1513496208007;-;-;8.689041;-0.02494812;-3.1548767;-;-;-;-;-;-;-;-;-;-;-;-;-;-;-
1513496208027;-;-;8.526245;0.03012085;-3.4397888;-;-;-;-;-;-;-;-;-;-;-;-;-;-;-
1513496208048;-;-;8.511871;0.060043335;-3.9006653;-;-;-;-;-;-;-;-;-;-;-;-;-;-;-
1513496208067;-;-;7.8965607;-0.94551086;-3.6528625;-;-;-;-;-;-;-;-;-;-;-;-;-;-;-
1513496208088;-;-;6.991562;-1.1406403;-3.847992;-;-;-;-;-;-;-;-;-;-;-;-;-;-;-
1513496208108;-;-;6.922119;-0.5061798;-4.3196564;-;-;-;-;-;-;-;-;-;-;-;-;-;-;-
1513496208129;-;-;6.149994;0.20729065;-4.701523;-;-;-;-;-;-;-;-;-;-;-;-;-;-;-
1513496208149;-;-;6.304428;-1.0257263;-3.566681;-;-;-;-;-;-;-;-;-;-;-;-;-;-;-
1513496208170;-;-;9.629974;-2.1545868;-2.5742798;-;-;-;-;-;-;-;-;-;-;-;-;-;-;-
1513496208190;-;-;12.930374;-2.5472412;-3.5630798;-;-;-;-;-;-;-;-;-;-;-;-;-;-;-
1513496208210;-;-;10.288376;-4.5691376;-3.20755;-;-;-;-;-;-;-;-;-;-;-;-;-;-;-
1513496208230;-;-;9.647919;-0.91319275;-4.6296997;-;-;-;-;-;-;-;-;-;-;-;-;-;-;-
1513496208251;-;-;9.538986;-2.7567291;-6.5139465;-;-;-;-;-;-;-;-;-;-;-;-;-;-;-
1513496208271;-;-;10.776794;-0.17936707;-3.9712982;-;-;-;-;-;-;-;-;-;-;-;-;-;-;-
1513496208292;-;-;9.295975;-0.8641205;-3.417038;-;-;-;-;-;-;-;-;-;-;-;-;-;-;-
1513496208312;-;-;7.988739;-0.4152069;-2.1193848;-;-;-;-;-;-;-;-;-;-;-;-;-;-;-
1513496208332;-;-;6.6898956;0.5233307;-1.2371216;-;-;-;-;-;-;-;-;-;-;-;-;-;-;-
1513496208352;-;-;7.2070313;1.2787018;-1.2155762;-;-;-;-;-;-;-;-;-;-;-;-;-;-;-
1513496208373;-;-;7.731369;1.1673584;-2.658081;-;-;-;-;-;-;-;-;-;-;-;-;-;-;-
1513496208392;-;-;8.259293;0.16539001;-3.2051544;-;-;-;-;-;-;-;-;-;-;-;-;-;-;-
1513496208413;-;-;8.454422;0.019348145;-3.7821503;-;-;-;-;-;-;-;-;-;-;-;-;-;-;-
1513496208433;-;-;8.367035;0.42156982;-3.740265;-;-;-;-;-;-;-;-;-;-;-;-;-;-;-
1513496208453;-;-;7.707428;0.33537292;-3.70076;-;-;-;-;-;-;-;-;-;-;-;-;-;-;-
1513496208473;-;-;6.9496613;0.0049743652;-3.729477;-;-;-;-;-;-;-;-;-;-;-;-;-;-;-
1513496208494;-;-;7.0538025;0.009765625;-3.994049;-;-;-;-;-;-;-;-;-;-;-;-;-;-;-
1513496208513;-;-;6.4887695;-0.5851898;-3.5894165;-;-;-;-;-;-;-;-;-;-;-;-;-;-;-
1513496208534;-;-;5.5981293;-0.27633667;-3.1309357;-;-;-;-;-;-;-;-;-;-;-;-;-;-;-
1513496208553;-;-;4.008377;0.076812744;-3.3392334;-;-;-;-;-;-;-;-;-;-;-;-;-;-;-
1513496208573;-;-;4.350754;0.42156982;-3.433792;-;-;-;-;-;-;-;-;-;-;-;-;-;-;-
1513496208594;-;-;3.9784546;0.4000244;-4.210724;-;-;-;-;-;-;-;-;-;-;-;-;-;-;-
1513496208614;-;-;3.8383942;0.26235962;-4.4872437;-;-;-;-;-;-;-;-;-;-;-;-;-;-;-
1513496208634;-;-;4.1244965;-0.14346313;-4.4142303;-;-;-;-;-;-;-;-;-;-;-;-;-;-;-
1513496208654;-;-;4.624893;-0.02734375;-5.1935425;-;-;-;-;-;-;-;-;-;-;-;-;-;-;-
1513496208675;-;-;6.6300354;-0.49899292;-6.2733154;-;-;-;-;-;-;-;-;-;-;-;-;-;-;-
1513496208696;-;-;10.167465;-1.0376892;-6.167984;-;-;-;-;-;-;-;-;-;-;-;-;-;-;-
1513496208715;-;-;10.54335;-3.7000427;-5.535904;-;-;-;-;-;-;-;-;-;-;-;-;-;-;-
1513496208735;-;-;11.54892;-1.5799866;-2.6616669;-;-;-;-;-;-;-;-;-;-;-;-;-;-;-
1513496208756;-;-;6.8443146;-0.95150757;-2.084671;-;-;-;-;-;-;-;-;-;-;-;-;-;-;-
1513496208776;-;-;5.3335724;-0.91319275;-4.3088837;-;-;-;-;-;-;-;-;-;-;-;-;-;-;-
1513496208796;-;-;5.991974;-1.4566803;-7.3411407;-;-;-;-;-;-;-;-;-;-;-;-;-;-;-
1513496208817;-;-;7.020294;-1.704483;-8.394592;-;-;-;-;-;-;-;-;-;-;-;-;-;-;-
1513496208836;-;-;8.891357;-0.7120819;-7.2453613;-;-;-;-;-;-;-;-;-;-;-;-;-;-;-
1513496208856;-;-;10.438019;-0.6474457;-7.5111237;-;-;-;-;-;-;-;-;-;-;-;-;-;-;-
1513496208877;-;-;9.130783;-0.012969971;-7.369873;-;-;-;-;-;-;-;-;-;-;-;-;-;-;-
1513496208896;-;-;6.936493;0.4000244;-7.163971;-;-;-;-;-;-;-;-;-;-;-;-;-;-;-
1513496208918;-;-;6.161972;0.15820313;-6.777298;-;-;-;-;-;-;-;-;-;-;-;-;-;-;-
1513496208937;-;-;7.264496;-0.7192688;-6.385849;-;-;-;-;-;-;-;-;-;-;-;-;-;-;-
1513496208957;-;-;7.2908325;-1.5416718;-6.104538;-;-;-;-;-;-;-;-;-;-;-;-;-;-;-
1513496208977;-;-;7.573349;-2.0779724;-6.8982086;-;-;-;-;-;-;-;-;-;-;-;-;-;-;-
1513496208998;-;-;9.206192;-2.3317566;-7.227417;-;-;-;-;-;-;-;-;-;-;-;-;-;-;-
1513496209017;-;-;8.119232;-1.4937897;-8.150375;-;-;-;-;-;-;-;-;-;-;-;-;-;-;-
1513496209037;-;-;7.4991302;-0.6977234;-7.5374603;-;-;-;-;-;-;-;-;-;-;-;-;-;-;-
1513496209058;-;-;7.0298615;-0.39245605;-6.358322;-;-;-;-;-;-;-;-;-;-;-;-;-;-;-
1513496209077;-;-;7.2345734;-0.7480011;-5.7465973;-;-;-;-;-;-;-;-;-;-;-;-;-;-;-
1513496209097;-;-;7.7062225;-1.1011353;-5.9105988;-;-;-;-;-;-;-;-;-;-;-;-;-;-;-
1513496209117;-;-;7.5051117;-0.40083313;-6.0590363;-;-;-;-;-;-;-;-;-;-;-;-;-;-;-
1513496209138;-;-;7.5122986;-0.14704895;-5.7705383;-;-;-;-;-;-;-;-;-;-;-;-;-;-;-
1513496209158;-;-;7.336319;0.13186646;-5.6364594;-;-;-;-;-;-;-;-;-;-;-;-;-;-;-
1513496209179;-;-;7.8881836;-0.50857544;-5.6711884;-;-;-;-;-;-;-;-;-;-;-;-;-;-;-
1513496209198;-;-;9.542587;-1.2435913;-5.6759644;-;-;-;-;-;-;-;-;-;-;-;-;-;-;-
1513496209219;-;-;11.997833;-1.3836517;-5.6915283;-;-;-;-;-;-;-;-;-;-;-;-;-;-;-
1513496209239;-;-;14.747574;-0.6618042;-5.4592896;-;-;-;-;-;-;-;-;-;-;-;-;-;-;-
1513496209259;-;-;15.676529;-1.2280273;-4.480072;-;-;-;-;-;-;-;-;-;-;-;-;-;-;-
1513496209279;-;-;13.475052;-0.27633667;-4.603363;-;-;-;-;-;-;-;-;-;-;-;-;-;-;-
1513496209300;-;-;12.75679;-0.05607605;-4.228668;-;-;-;-;-;-;-;-;-;-;-;-;-;-;-
1513496209320;-;-;10.223724;0.80345154;-3.9341888;-;-;-;-;-;-;-;-;-;-;-;-;-;-;-
1513496209341;-;-;8.472366;-0.7910919;-2.3408508;-;-;-;-;-;-;-;-;-;-;-;-;-;-;-
1513496209361;-;-;7.8355103;-2.190506;-0.590683;-;-;-;-;-;-;-;-;-;-;-;-;-;-;-
1513496209382;-;-;6.4396973;-1.9163666;0.08088684;-;-;-;-;-;-;-;-;-;-;-;-;-;-;-
1513496209402;-;-;6.494766;-0.6977234;0.49150085;-;-;-;-;-;-;-;-;-;-;-;-;-;-;-
1513496209421;-;-;7.0897217;0.22285461;0.40649414;-;-;-;-;-;-;-;-;-;-;-;-;-;-;-
1513496209441;-;-;8.24852;-0.06324768;-0.37879944;-;-;-;-;-;-;-;-;-;-;-;-;-;-;-
1513496209462;-;-;8.641159;-0.2775421;-0.9438324;-;-;-;-;-;-;-;-;-;-;-;-;-;-;-
1513496209481;-;-;8.787216;-0.5444946;-0.8755951;-;-;-;-;-;-;-;-;-;-;-;-;-;-;-
1513496209501;-;-;9.412094;-0.67855835;-0.81933594;-;-;-;-;-;-;-;-;-;-;-;-;-;-;-
1513496209522;-;-;10.296753;-0.32182312;-1.0779114;-;-;-;-;-;-;-;-;-;-;-;-;-;-;-
1513496209543;-;-;11.0425415;-0.29908752;-1.064743;-;-;-;-;-;-;-;-;-;-;-;-;-;-;-
1513496209563;-;-;10.422455;0.16299438;-0.3045807;-;-;-;-;-;-;-;-;-;-;-;-;-;-;-
1513496209584;-;-;9.708984;-0.03691101;0.5944519;-;-;-;-;-;-;-;-;-;-;-;-;-;-;-
1513496209603;-;-;8.994308;-0.22845459;1.1235657;-;-;-;-;-;-;-;-;-;-;-;-;-;-;-
1513496209623;-;-;8.619614;-0.7276459;1.4563599;-;-;-;-;-;-;-;-;-;-;-;-;-;-;-
1513496209643;-;-;8.5047;-1.0795898;1.7065582;-;-;-;-;-;-;-;-;-;-;-;-;-;-;-
1513496209664;-;-;8.24852;-1.1035309;1.5545197;-;-;-;-;-;-;-;-;-;-;-;-;-;-;-
1513496209684;-;-;8.156342;-0.8677063;1.2013702;-;-;-;-;-;-;-;-;-;-;-;-;-;-;-
1513496209705;-;-;8.716583;-0.48582458;0.9751282;-;-;-;-;-;-;-;-;-;-;-;-;-;-;-
1513496209725;-;-;9.258865;-0.1877594;0.8721771;-;-;-;-;-;-;-;-;-;-;-;-;-;-;-
1513496209745;-;-;9.372589;-0.19972229;0.9212494;-;-;-;-;-;-;-;-;-;-;-;-;-;-;-
1513496209765;-;-;9.200211;-0.19613647;1.1618652;-;-;-;-;-;-;-;-;-;-;-;-;-;-;-
1513496209785;-;-;9.137955;-0.13388062;1.3091125;-;-;-;-;-;-;-;-;-;-;-;-;-;-;-
1513496209806;-;-;9.096069;0.1330719;1.6215515;-;-;-;-;-;-;-;-;-;-;-;-;-;-;-
1513496209827;-;-;9.103241;0.23721313;1.9723053;-;-;-;-;-;-;-;-;-;-;-;-;-;-;-
1513496209847;-;-;9.291183;-0.078811646;1.9914551;-;-;-;-;-;-;-;-;-;-;-;-;-;-;-
1513496209867;-;-;9.47435;-0.4918213;2.34581;-;-;-;-;-;-;-;-;-;-;-;-;-;-;-
1513496209888;-;-;9.342667;-0.76116943;2.472702;-;-;-;-;-;-;-;-;-;-;-;-;-;-;-
1513496209908;-;-;8.96199;-0.91200256;2.2883453;-;-;-;-;-;-;-;-;-;-;-;-;-;-;-
1513496209929;-;-;8.554977;-0.9215698;1.8059082;-;-;-;-;-;-;-;-;-;-;-;-;-;-;-
1513496209950;-;-;10.151901;-0.7767334;2.3134766;-;-;-;-;-;-;-;-;-;-;-;-;-;-;-
1513496209970;-;-;10.563705;-0.42956543;1.8945007;-;-;-;-;-;-;-;-;-;-;-;-;-;-;-
1513496209991;-;-;10.039383;-0.033325195;1.686203;-;-;-;-;-;-;-;-;-;-;-;-;-;-;-
1513496210011;-;-;8.678268;0.18214417;1.2791901;-;-;-;-;-;-;-;-;-;-;-;-;-;-;-
1513496210031;-;-;8.046204;0.0049743652;1.2803802;-;-;-;-;-;-;-;-;-;-;-;-;-;-;-
1513496210052;-;-;8.240128;-0.463089;1.0409698;-;-;-;-;-;-;-;-;-;-;-;-;-;-;-
1513496210073;-;-;9.226547;-0.94551086;0.69021606;-;-;-;-;-;-;-;-;-;-;-;-;-;-;-
1513496210093;-;-;10.649902;-1.3860474;0.21138;-;-;-;-;-;-;-;-;-;-;-;-;-;-;-
1513496210113;-;-;11.316681;-1.2711334;-0.51527405;-;-;-;-;-;-;-;-;-;-;-;-;-;-;-
1513496210134;-;-;10.071701;-0.8473511;-0.7606659;-;-;-;-;-;-;-;-;-;-;-;-;-;-;-
1513496210154;-;-;9.125992;-0.51934814;0.43043518;-;-;-;-;-;-;-;-;-;-;-;-;-;-;-
1513496210175;-;-;7.8869934;-0.8317871;0.8015442;-;-;-;-;-;-;-;-;-;-;-;-;-;-;-
1513496210194;-;-;7.9121246;-0.5049896;1.2696075;-;-;-;-;-;-;-;-;-;-;-;-;-;-;-
1513496210215;-;-;8.595673;-0.2607727;1.3893127;-;-;-;-;-;-;-;-;-;-;-;-;-;-;-
1513496210235;-;-;9.07811;0.25517273;1.3881226;-;-;-;-;-;-;-;-;-;-;-;-;-;-;-
1513496210256;-;-;9.431244;0.43832397;1.0565186;-;-;-;-;-;-;-;-;-;-;-;-;-;-;-
1513496210276;-;-;9.476746;-0.18536377;0.8913269;-;-;-;-;-;-;-;-;-;-;-;-;-;-;-
1513496210295;-;-;8.234146;-0.7551727;-0.18247986;-;-;-;-;-;-;-;-;-;-;-;-;-;-;-
1513496210315;-;-;10.30394;-1.5321045;2.4032593;-;-;-;-;-;-;-;-;-;-;-;-;-;-;-
1513496210335;-;-;11.0377655;-1.3154297;1.4635468;-;-;-;-;-;-;-;-;-;-;-;-;-;-;-
1513496210356;-;-;9.410904;0.16419983;1.1822205;-;-;-;-;-;-;-;-;-;-;-;-;-;-;-
1513496210376;-;-;8.459198;-0.124313354;2.0525208;-;-;-;-;-;-;-;-;-;-;-;-;-;-;-
1513496210397;-;-;7.9420624;-1.1885223;3.0233612;-;-;-;-;-;-;-;-;-;-;-;-;-;-;-
1513496210417;-;-;8.5082855;-2.2156372;3.0652618;-;-;-;-;-;-;-;-;-;-;-;-;-;-;-
1513496210437;-;-;9.243301;-2.324585;2.409256;-;-;-;-;-;-;-;-;-;-;-;-;-;-;-
1513496210458;-;-;8.594482;-1.2866974;0.81710815;-;-;-;-;-;-;-;-;-;-;-;-;-;-;-
1513496210478;-;-;8.458008;-0.48703003;-0.21958923;-;-;-;-;-;-;-;-;-;-;-;-;-;-;-
1513496210498;-;-;8.161133;-0.9826355;0.22094727;-;-;-;-;-;-;-;-;-;-;-;-;-;-;-
1513496210518;-;-;8.4448395;-0.9562988;0.12397766;-;-;-;-;-;-;-;-;-;-;-;-;-;-;-
1513496210539;-;-;8.814743;-0.5349121;0.9092865;-;-;-;-;-;-;-;-;-;-;-;-;-;-;-
1513496210559;-;-;9.513855;-0.8353882;0.8195038;-;-;-;-;-;-;-;-;-;-;-;-;-;-;-
1513496210579;-;-;9.14035;-0.8665161;0.8314667;-;-;-;-;-;-;-;-;-;-;-;-;-;-;-
1513496210600;-;-;9.676651;-0.73243713;1.2097473;-;-;-;-;-;-;-;-;-;-;-;-;-;-;-
1513496210620;-;-;10.234512;-0.4163971;1.0481415;-;-;-;-;-;-;-;-;-;-;-;-;-;-;-
1513496210640;-;-;9.560532;-0.2320404;1.0122375;-;-;-;-;-;-;-;-;-;-;-;-;-;-;-
1513496210660;-;-;8.786011;-0.36611938;1.3713684;-;-;-;-;-;-;-;-;-;-;-;-;-;-;-
1513496210681;-;-;9.085281;-0.7108917;1.2265167;-;-;-;-;-;-;-;-;-;-;-;-;-;-;-
1513496210700;-;-;9.345062;-1.1777496;1.0194092;-;-;-;-;-;-;-;-;-;-;-;-;-;-;-
1513496210720;-;-;9.311539;-1.3920441;0.80992126;-;-;-;-;-;-;-;-;-;-;-;-;-;-;-
1513496210741;-;-;9.188232;-1.225647;0.60401917;-;-;-;-;-;-;-;-;-;-;-;-;-;-;-
1513496210760;-;-;9.306747;-1.2866974;0.57170105;-;-;-;-;-;-;-;-;-;-;-;-;-;-;-
1513496210781;-;-;9.57251;-1.4399261;0.31910706;-;-;-;-;-;-;-;-;-;-;-;-;-;-;-
1513496210801;-;-;9.777206;-1.2878876;0.43762207;-;-;-;-;-;-;-;-;-;-;-;-;-;-;-
1513496210822;-;-;9.556946;-1.0149536;0.69859314;-;-;-;-;-;-;-;-;-;-;-;-;-;-;-
1513496210842;-;-;8.898544;-0.8892517;0.54296875;-;-;-;-;-;-;-;-;-;-;-;-;-;-;-
1513496210862;-;-;8.286819;-0.7707367;0.6459198;-;-;-;-;-;-;-;-;-;-;-;-;-;-;-
1513496210882;-;-;8.5238495;-0.799469;1.0062408;-;-;-;-;-;-;-;-;-;-;-;-;-;-;-
1513496210903;-;-;9.3546295;-0.97065735;1.191803;-;-;-;-;-;-;-;-;-;-;-;-;-;-;-
1513496210924;-;-;10.118393;-0.9155884;0.8829498;-;-;-;-;-;-;-;-;-;-;-;-;-;-;-
1513496210944;-;-;10.20697;-0.64624023;0.44480896;-;-;-;-;-;-;-;-;-;-;-;-;-;-;-
1513496210964;-;-;9.717361;-0.3254242;0.28199768;-;-;-;-;-;-;-;-;-;-;-;-;-;-;-
1513496210985;-;-;9.281616;-0.31584167;0.38615417;-;-;-;-;-;-;-;-;-;-;-;-;-;-;-
1513496211005;-;-;9.017059;-0.5157623;0.5190277;-;-;-;-;-;-;-;-;-;-;-;-;-;-;-
1513496211025;-;-;8.964386;-0.44752502;0.43643188;-;-;-;-;-;-;-;-;-;-;-;-;-;-;-
1513496211045;-;-;9.027832;-0.41879272;0.2233429;-;-;-;-;-;-;-;-;-;-;-;-;-;-;-
1513496211066;-;-;9.135559;-0.47027588;-0.018478394;-;-;-;-;-;-;-;-;-;-;-;-;-;-;-
1513496211085;-;-;9.384567;-0.45829773;-0.05558777;-;-;-;-;-;-;-;-;-;-;-;-;-;-;-
1513496211105;-;-;9.5354;-0.4487152;-0.24951172;-;-;-;-;-;-;-;-;-;-;-;-;-;-;-
1513496211126;-;-;9.585678;-0.25;-0.71398926;-;-;-;-;-;-;-;-;-;-;-;-;-;-;-
1513496211146;-;-;9.276825;-0.22486877;-0.94862366;-;-;-;-;-;-;-;-;-;-;-;-;-;-;-
1513496211166;-;-;9.189438;-0.11352539;-1.2012024;-;-;-;-;-;-;-;-;-;-;-;-;-;-;-
1513496211186;-;-;9.207397;0.016952515;-1.3664093;-;-;-;-;-;-;-;-;-;-;-;-;-;-;-
1513496211207;-;-;9.311539;0.11392212;-1.440628;-;-;-;-;-;-;-;-;-;-;-;-;-;-;-
1513496211227;-;-;9.404907;-0.04888916;-1.4418182;-;-;-;-;-;-;-;-;-;-;-;-;-;-;-
1513496211247;-;-;9.337875;-0.19493103;-1.4502106;-;-;-;-;-;-;-;-;-;-;-;-;-;-;-
1513496211269;-;-;9.160706;-0.1769867;-1.4909058;-;-;-;-;-;-;-;-;-;-;-;-;-;-;-
1513496211288;-;-;9.090073;-0.10635376;-1.516037;-;-;-;-;-;-;-;-;-;-;-;-;-;-;-
1513496211309;-;-;9.07811;-0.050079346;-1.4897003;-;-;-;-;-;-;-;-;-;-;-;-;-;-;-
1513496211329;-;-;9.051773;0.04447937;-1.4298553;-;-;-;-;-;-;-;-;-;-;-;-;-;-;-
1513496211350;-;-;9.015854;0.28390503;-1.5878754;-;-;-;-;-;-;-;-;-;-;-;-;-;-;-
1513496211370;-;-;9.020645;0.35932922;-1.6393433;-;-;-;-;-;-;-;-;-;-;-;-;-;-;-
1513496211390;-;-;9.070923;0.30426025;-1.6333618;-;-;-;-;-;-;-;-;-;-;-;-;-;-;-
1513496211410;-;-;9.167892;0.2300415;-1.6405487;-;-;-;-;-;-;-;-;-;-;-;-;-;-;-
1513496211430;-;-;9.262466;0.22285461;-1.6848297;-;-;-;-;-;-;-;-;-;-;-;-;-;-;-
1513496211451;-;-;9.273239;0.2515869;-1.6249847;-;-;-;-;-;-;-;-;-;-;-;-;-;-;-
1513496211471;-;-;9.127182;0.3102417;-1.5124512;-;-;-;-;-;-;-;-;-;-;-;-;-;-;-
1513496211491;-;-;9.054169;0.32939148;-1.3436584;-;-;-;-;-;-;-;-;-;-;-;-;-;-;-
1513496211511;-;-;9.105637;0.25875854;-1.3245087;-;-;-;-;-;-;-;-;-;-;-;-;-;-;-
1513496211532;-;-;9.085281;0.22164917;-1.3568268;-;-;-;-;-;-;-;-;-;-;-;-;-;-;-
1513496211552;-;-;9.161896;0.25517273;-1.4825287;-;-;-;-;-;-;-;-;-;-;-;-;-;-;-
1513496211573;-;-;9.276825;0.3222046;-1.7051849;-;-;-;-;-;-;-;-;-;-;-;-;-;-;-
1513496211594;-;-;9.301956;0.41677856;-1.8799591;-;-;-;-;-;-;-;-;-;-;-;-;-;-;-
1513496211614;-;-;9.239716;0.45628357;-2.0355835;-;-;-;-;-;-;-;-;-;-;-;-;-;-;-
1513496211634;-;-;9.148727;0.57121277;-1.9290466;-;-;-;-;-;-;-;-;-;-;-;-;-;-;-
1513496211655;-;-;9.208588;0.6681671;-1.7422943;-;-;-;-;-;-;-;-;-;-;-;-;-;-;-
1513496211675;-;-;9.171478;0.556839;-1.7506714;-;-;-;-;-;-;-;-;-;-;-;-;-;-;-
1513496211696;-;-;9.090073;0.49220276;-1.8392639;-;-;-;-;-;-;-;-;-;-;-;-;-;-;-
1513496211715;-;-;8.7608795;0.38327026;-1.7590485;-;-;-;-;-;-;-;-;-;-;-;-;-;-;-
1513496211735;-;-;8.752487;0.4658661;-1.653717;-;-;-;-;-;-;-;-;-;-;-;-;-;-;-
1513496211755;-;-;8.965576;0.73521423;-1.7698364;-;-;-;-;-;-;-;-;-;-;-;-;-;-;-
1513496211776;-;-;9.092468;1.0081482;-1.8943329;-;-;-;-;-;-;-;-;-;-;-;-;-;-;-
1513496211796;-;-;9.111618;1.0380707;-1.9877014;-;-;-;-;-;-;-;-;-;-;-;-;-;-;-
1513496211817;-;-;9.088882;0.92674255;-2.2247314;-;-;-;-;-;-;-;-;-;-;-;-;-;-;-
1513496211837;-;-;9.25528;0.77711487;-2.1744537;-;-;-;-;-;-;-;-;-;-;-;-;-;-;-
1513496211857;-;-;9.274429;0.74957275;-1.9194641;-;-;-;-;-;-;-;-;-;-;-;-;-;-;-
1513496211878;-;-;9.141556;0.512558;-2.069107;-;-;-;-;-;-;-;-;-;-;-;-;-;-;-
1513496211897;-;-;9.025436;0.4658661;-1.9314423;-;-;-;-;-;-;-;-;-;-;-;-;-;-;-
1513496211917;-;-;9.076904;0.4084015;-1.871582;-;-;-;-;-;-;-;-;-;-;-;-;-;-;-
1513496211938;-;-;9.146347;0.27552795;-1.9338379;-;-;-;-;-;-;-;-;-;-;-;-;-;-;-
1513496211958;-;-;9.115219;0.13186646;-2.014038;-;-;-;-;-;-;-;-;-;-;-;-;-;-;-
1513496211979;-;-;9.039795;0.04447937;-1.9649506;-;-;-;-;-;-;-;-;-;-;-;-;-;-;-
1513496211999;-;-;9.007477;0.045684814;-1.8943329;-;-;-;-;-;-;-;-;-;-;-;-;-;-;-
1513496212020;-;-;8.90213;0.060043335;-1.6800537;-;-;-;-;-;-;-;-;-;-;-;-;-;-;-
1513496212040;-;-;8.97995;0.045684814;-1.4621735;-;-;-;-;-;-;-;-;-;-;-;-;-;-;-
1513496212060;-;-;9.029022;0.06364441;-1.3759766;-;-;-;-;-;-;-;-;-;-;-;-;-;-;-
1513496212080;-;-;9.06015;0.15222168;-1.4609833;-;-;-;-;-;-;-;-;-;-;-;-;-;-;-
1513496212101;-;-;9.249298;0.079193115;-1.361618;-;-;-;-;-;-;-;-;-;-;-;-;-;-;-
1513496212121;-;-;9.234924;0.12348938;-1.2790222;-;-;-;-;-;-;-;-;-;-;-;-;-;-;-
1513496212141;-;-;9.357025;0.17376709;-1.298172;-;-;-;-;-;-;-;-;-;-;-;-;-;-;-
1513496212162;-;-;9.39534;0.23960876;-1.3364716;-;-;-;-;-;-;-;-;-;-;-;-;-;-;-
1513496212182;-;-;9.355835;0.23602295;-1.2203674;-;-;-;-;-;-;-;-;-;-;-;-;-;-;-
1513496212202;-;-;9.285202;0.31503296;-1.1988068;-;-;-;-;-;-;-;-;-;-;-;-;-;-;-
1513496212222;-;-;9.209793;0.43234253;-1.2143707;-;-;-;-;-;-;-;-;-;-;-;-;-;-;-
1513496212242;-;-;9.172684;0.52931213;-1.2838135;-;-;-;-;-;-;-;-;-;-;-;-;-;-;-
1513496212262;-;-;9.090073;0.5855713;-1.353241;-;-;-;-;-;-;-;-;-;-;-;-;-;-;-
1513496212283;-;-;9.072113;0.5592346;-1.3987274;-;-;-;-;-;-;-;-;-;-;-;-;-;-;-
1513496212303;-;-;9.051773;0.53289795;-1.4789276;-;-;-;-;-;-;-;-;-;-;-;-;-;-;-
1513496212323;-;-;9.0733185;0.50057983;-1.4741516;-;-;-;-;-;-;-;-;-;-;-;-;-;-;-
1513496212343;-;-;9.099655;0.46228027;-1.4549866;-;-;-;-;-;-;-;-;-;-;-;-;-;-;-
1513496212364;-;-;9.086487;0.4287567;-1.4861145;-;-;-;-;-;-;-;-;-;-;-;-;-;-;-
1513496212384;-;-;9.025436;0.42515564;-1.4585876;-;-;-;-;-;-;-;-;-;-;-;-;-;-;-
1513496212405;-;-;9.169083;0.35932922;-1.4753418;-;-;-;-;-;-;-;-;-;-;-;-;-;-;-
1513496212426;-;-;9.220566;0.33299255;-1.571106;-;-;-;-;-;-;-;-;-;-;-;-;-;-;-
1513496212446;-;-;9.197815;0.3425598;-1.5196381;-;-;-;-;-;-;-;-;-;-;-;-;-;-;-
1513496212466;-;-;9.185837;0.2886963;-1.3975372;-;-;-;-;-;-;-;-;-;-;-;-;-;-;-
1513496212487;-;-;9.228943;0.21087646;-1.3316956;-;-;-;-;-;-;-;-;-;-;-;-;-;-;-
1513496212507;-;-;9.227737;0.23242188;-1.3197174;-;-;-;-;-;-;-;-;-;-;-;-;-;-;-
1513496212527;-;-;9.181061;0.2635498;-1.3735962;-;-;-;-;-;-;-;-;-;-;-;-;-;-;-
1513496212548;-;-;9.13916;0.34136963;-1.3987274;-;-;-;-;-;-;-;-;-;-;-;-;-;-;-
1513496212568;-;-;9.086487;0.36650085;-1.4250641;-;-;-;-;-;-;-;-;-;-;-;-;-;-;-
1513496212589;-;-;9.0793;0.37727356;-1.432251;-;-;-;-;-;-;-;-;-;-;-;-;-;-;-
1513496212609;-;-;9.116409;0.4467163;-1.416687;-;-;-;-;-;-;-;-;-;-;-;-;-;-;-
1513496212630;-;-;9.085281;0.4467163;-1.4549866;-;-;-;-;-;-;-;-;-;-;-;-;-;-;-
1513496212650;-;-;9.127182;0.44311523;-1.4753418;-;-;-;-;-;-;-;-;-;-;-;-;-;-;-
1513496212670;-;-;9.155914;0.44192505;-1.4992828;-;-;-;-;-;-;-;-;-;-;-;-;-;-;-
1513496212691;-;-;9.130783;0.4359436;-1.5208282;-;-;-;-;-;-;-;-;-;-;-;-;-;-;-
1513496212712;-;-;9.122391;0.43952942;-1.550766;-;-;-;-;-;-;-;-;-;-;-;-;-;-;-
1513496212732;-;-;9.137955;0.41319275;-1.5232239;-;-;-;-;-;-;-;-;-;-;-;-;-;-;-
1513496212751;-;-;9.15831;0.40361023;-1.5878754;-;-;-;-;-;-;-;-;-;-;-;-;-;-;-
1513496212771;-;-;9.167892;0.40242004;-1.6034393;-;-;-;-;-;-;-;-;-;-;-;-;-;-;-
1513496212791;-;-;9.142746;0.39762878;-1.5830841;-;-;-;-;-;-;-;-;-;-;-;-;-;-;-
1513496212812;-;-;9.169083;0.4000244;-1.5771027;-;-;-;-;-;-;-;-;-;-;-;-;-;-;-
1513496212832;-;-;9.143951;0.3904419;-1.452591;-;-;-;-;-;-;-;-;-;-;-;-;-;-;-
1513496212852;-;-;9.123596;0.46347046;-1.4729462;-;-;-;-;-;-;-;-;-;-;-;-;-;-;-
1513496212873;-;-;9.15831;0.46466064;-1.4705505;-;-;-;-;-;-;-;-;-;-;-;-;-;-;-
1513496212894;-;-;9.116409;0.49578857;-1.4250641;-;-;-;-;-;-;-;-;-;-;-;-;-;-;-
1513496212914;-;-;9.125992;0.4694519;-1.4059143;-;-;-;-;-;-;-;-;-;-;-;-;-;-;-
1513496212934;-;-;9.122391;0.4287567;-1.4418182;-;-;-;-;-;-;-;-;-;-;-;-;-;-;-
1513496212955;-;-;9.149933;0.4119873;-1.4861145;-;-;-;-;-;-;-;-;-;-;-;-;-;-;-
1513496212975;-;-;9.146347;0.40600586;-1.48732;-;-;-;-;-;-;-;-;-;-;-;-;-;-;-
1513496212995;-;-;9.15712;0.43354797;-1.4095001;-;-;-;-;-;-;-;-;-;-;-;-;-;-;-
1513496213016;-;-;9.161896;0.4000244;-1.4394226;-;-;-;-;-;-;-;-;-;-;-;-;-;-;-
1513496213035;-;-;9.197815;0.36889648;-1.4753418;-;-;-;-;-;-;-;-;-;-;-;-;-;-;-
1513496213056;-;-;9.147537;0.3461609;-1.5363922;-;-;-;-;-;-;-;-;-;-;-;-;-;-;-
1513496213076;-;-;9.117615;0.31503296;-1.5052643;-;-;-;-;-;-;-;-;-;-;-;-;-;-;-
1513496213096;-;-;9.1918335;0.31143188;-1.6381531;-;-;-;-;-;-;-;-;-;-;-;-;-;-;-
1513496213116;-;-;9.164291;0.29109192;-1.6728668;-;-;-;-;-;-;-;-;-;-;-;-;-;-;-
1513496213137;-;-;9.117615;0.31861877;-1.5938568;-;-;-;-;-;-;-;-;-;-;-;-;-;-;-
1513496213157;-;-;9.145142;0.28271484;-1.5567474;-;-;-;-;-;-;-;-;-;-;-;-;-;-;-
1513496213177;-;-;9.149933;0.24679565;-1.4933014;-;-;-;-;-;-;-;-;-;-;-;-;-;-;-
1513496213198;-;-;9.149933;0.20010376;-1.5926514;-;-;-;-;-;-;-;-;-;-;-;-;-;-;-
1513496213218;-;-;9.161896;0.2815094;-1.6513214;-;-;-;-;-;-;-;-;-;-;-;-;-;-;-
1513496213239;-;-;9.154724;0.39523315;-1.7578583;-;-;-;-;-;-;-;-;-;-;-;-;-;-;-
1513496213259;-;-;9.102051;0.5257263;-1.7758179;-;-;-;-;-;-;-;-;-;-;-;-;-;-;-
1513496213279;-;-;9.081696;0.5771942;-1.6824341;-;-;-;-;-;-;-;-;-;-;-;-;-;-;-
1513496213300;-;-;9.081696;0.4909973;-1.6608887;-;-;-;-;-;-;-;-;-;-;-;-;-;-;-
1513496213319;-;-;9.07811;0.45388794;-1.5878754;-;-;-;-;-;-;-;-;-;-;-;-;-;-;-
1513496213339;-;-;9.074509;0.38685608;-1.5782928;-;-;-;-;-;-;-;-;-;-;-;-;-;-;-
1513496213360;-;-;9.082901;0.3509369;-1.579483;-;-;-;-;-;-;-;-;-;-;-;-;-;-;-
1513496213379;-;-;9.111618;0.3282013;-1.634552;-;-;-;-;-;-;-;-;-;-;-;-;-;-;-
1513496213400;-;-;9.13916;0.34735107;-1.5866699;-;-;-;-;-;-;-;-;-;-;-;-;-;-;-
1513496213420;-;-;9.151123;0.3509369;-1.5806885;-;-;-;-;-;-;-;-;-;-;-;-;-;-;-
1513496213440;-;-;9.172684;0.34735107;-1.6249847;-;-;-;-;-;-;-;-;-;-;-;-;-;-;-
1513496213460;-;-;9.130783;0.36889648;-1.6082153;-;-;-;-;-;-;-;-;-;-;-;-;-;-;-
1513496213481;-;-;9.146347;0.37010193;-1.6058197;-;-;-;-;-;-;-;-;-;-;-;-;-;-;-
1513496213501;-;-;9.154724;0.38565063;-1.5926514;-;-;-;-;-;-;-;-;-;-;-;-;-;-;-
1513496213522;-;-;9.108032;0.37487793;-1.5735016;-;-;-;-;-;-;-;-;-;-;-;-;-;-;-
1513496213542;-;-;9.1128235;0.37487793;-1.595047;-;-;-;-;-;-;-;-;-;-;-;-;-;-;-
1513496213562;-;-;9.094864;0.37249756;-1.571106;-;-;-;-;-;-;-;-;-;-;-;-;-;-;-
1513496213583;-;-;9.124786;0.32580566;-1.531601;-;-;-;-;-;-;-;-;-;-;-;-;-;-;-
1513496213603;-;-;9.105637;0.36291504;-1.5699158;-;-;-;-;-;-;-;-;-;-;-;-;-;-;-
1513496213623;-;-;9.054169;0.47184753;-1.6776581;-;-;-;-;-;-;-;-;-;-;-;-;-;-;-
1513496213643;-;-;9.324707;0.66578674;-1.6752625;-;-;-;-;-;-;-;-;-;-;-;-;-;-;-
1513496213664;-;-;9.301956;0.754364;-1.74469;-;-;-;-;-;-;-;-;-;-;-;-;-;-;-
1513496213684;-;-;9.327103;0.635849;-1.7015991;-;-;-;-;-;-;-;-;-;-;-;-;-;-;-
1513496213704;-;-;9.203796;0.38685608;-1.629776;-;-;-;-;-;-;-;-;-;-;-;-;-;-;-
1513496213724;-;-;9.076904;0.21208191;-1.4992828;-;-;-;-;-;-;-;-;-;-;-;-;-;-;-
1513496213745;-;-;9.105637;0.14624023;-1.4358368;-;-;-;-;-;-;-;-;-;-;-;-;-;-;-
1513496213765;-;-;9.081696;0.076812744;-1.456192;-;-;-;-;-;-;-;-;-;-;-;-;-;-;-
1513496213785;-;-;9.026627;0.09236145;-1.5292053;-;-;-;-;-;-;-;-;-;-;-;-;-;-;-
1513496213806;-;-;9.048172;0.15701294;-1.471756;-;-;-;-;-;-;-;-;-;-;-;-;-;-;-
1513496213825;-;-;9.17627;0.21087646;-1.4358368;-;-;-;-;-;-;-;-;-;-;-;-;-;-;-
1513496213845;-;-;9.21936;0.2803192;-1.440628;-;-;-;-;-;-;-;-;-;-;-;-;-;-;-
1513496213865;-;-;9.146347;0.39164734;-1.492096;-;-;-;-;-;-;-;-;-;-;-;-;-;-;-
1513496213886;-;-;9.129578;0.51493835;-1.4334412;-;-;-;-;-;-;-;-;-;-;-;-;-;-;-
1513496213907;-;-;9.084091;0.57240295;-1.3149261;-;-;-;-;-;-;-;-;-;-;-;-;-;-;-
1513496213926;-;-;9.128387;0.541275;-1.2969818;-;-;-;-;-;-;-;-;-;-;-;-;-;-;-
1513496213947;-;-;9.124786;0.576004;-1.3352814;-;-;-;-;-;-;-;-;-;-;-;-;-;-;-
1513496213967;-;-;9.146347;0.556839;-1.3436584;-;-;-;-;-;-;-;-;-;-;-;-;-;-;-
1513496213987;-;-;9.128387;0.5065613;-1.3508453;-;-;-;-;-;-;-;-;-;-;-;-;-;-;-
1513496214008;-;-;9.170288;0.48143005;-1.3783722;-;-;-;-;-;-;-;-;-;-;-;-;-;-;-
1513496214028;-;-;9.142746;0.46107483;-1.4250641;-;-;-;-;-;-;-;-;-;-;-;-;-;-;-
1513496214048;-;-;9.133179;0.43354797;-1.4693604;-;-;-;-;-;-;-;-;-;-;-;-;-;-;-
1513496214069;-;-;9.103241;0.417984;-1.5040741;-;-;-;-;-;-;-;-;-;-;-;-;-;-;-
1513496214089;-;-;9.106842;0.41079712;-1.4885101;-;-;-;-;-;-;-;-;-;-;-;-;-;-;-
1513496214110;-;-;9.100845;0.3617096;-1.452591;-;-;-;-;-;-;-;-;-;-;-;-;-;-;-
1513496214130;-;-;9.127182;0.40361023;-1.4753418;-;-;-;-;-;-;-;-;-;-;-;-;-;-;-
1513496214151;-;-;9.182251;0.46347046;-1.5136566;-;-;-;-;-;-;-;-;-;-;-;-;-;-;-
1513496214170;-;-;9.201401;0.48382568;-1.5016785;-;-;-;-;-;-;-;-;-;-;-;-;-;-;-
1513496214190;-;-;9.17746;0.54008484;-1.5040741;-;-;-;-;-;-;-;-;-;-;-;-;-;-;-
1513496214211;-;-;9.153519;0.5305023;-1.5064697;-;-;-;-;-;-;-;-;-;-;-;-;-;-;-
1513496214231;-;-;9.142746;0.51374817;-1.4980927;-;-;-;-;-;-;-;-;-;-;-;-;-;-;-
1513496214251;-;-;9.12001;0.50416565;-1.4897003;-;-;-;-;-;-;-;-;-;-;-;-;-;-;-
1513496214272;-;-;9.109222;0.48860168;-1.4286499;-;-;-;-;-;-;-;-;-;-;-;-;-;-;-
1513496214292;-;-;9.14035;0.47305298;-1.4490051;-;-;-;-;-;-;-;-;-;-;-;-;-;-;-
1513496214313;-;-;9.127182;0.47543335;-1.5100555;-;-;-;-;-;-;-;-;-;-;-;-;-;-;-
1513496214332;-;-;9.137955;0.47065735;-1.471756;-;-;-;-;-;-;-;-;-;-;-;-;-;-;-
1513496214353;-;-;9.124786;0.50057983;-1.3891449;-;-;-;-;-;-;-;-;-;-;-;-;-;-;-
1513496214373;-;-;9.163101;0.45269775;-1.4418182;-;-;-;-;-;-;-;-;-;-;-;-;-;-;-
1513496214393;-;-;9.167892;0.40600586;-1.535202;-;-;-;-;-;-;-;-;-;-;-;-;-;-;-
1513496214414;-;-;9.149933;0.42636108;-1.4861145;-;-;-;-;-;-;-;-;-;-;-;-;-;-;-
1513496214434;-;-;9.147537;0.43354797;-1.4837189;-;-;-;-;-;-;-;-;-;-;-;-;-;-;-
1513496214454;-;-;9.15712;0.4119873;-1.5603333;-;-;-;-;-;-;-;-;-;-;-;-;-;-;-
1513496214474;-;-;9.172684;0.39164734;-1.511261;-;-;-;-;-;-;-;-;-;-;-;-;-;-;-
1513496214495;-;-;9.151123;0.37010193;-1.456192;-;-;-;-;-;-;-;-;-;-;-;-;-;-;-
1513496214515;-;-;9.154724;0.36531067;-1.4621735;-;-;-;-;-;-;-;-;-;-;-;-;-;-;-
1513496214535;-;-;9.155914;0.43473816;-1.4705505;-;-;-;-;-;-;-;-;-;-;-;-;-;-;-
1513496214556;-;-;9.149933;0.51135254;-1.4849243;-;-;-;-;-;-;-;-;-;-;-;-;-;-;-
1513496214576;-;-;9.116409;0.5245209;-1.5435791;-;-;-;-;-;-;-;-;-;-;-;-;-;-;-
1513496214596;-;-;9.127182;0.48143005;-1.5387878;-;-;-;-;-;-;-;-;-;-;-;-;-;-;-
1513496214617;-;-;9.147537;0.44311523;-1.535202;-;-;-;-;-;-;-;-;-;-;-;-;-;-;-
1513496214638;-;-;9.1128235;0.4694519;-1.480133;-;-;-;-;-;-;-;-;-;-;-;-;-;-;-
1513496214658;-;-;9.115219;0.43354797;-1.4789276;-;-;-;-;-;-;-;-;-;-;-;-;-;-;-
1513496214678;-;-;9.124786;0.4299469;-1.4597778;-;-;-;-;-;-;-;-;-;-;-;-;-;-;-
1513496214699;-;-;9.160706;0.39762878;-1.495697;-;-;-;-;-;-;-;-;-;-;-;-;-;-;-
1513496214719;-;-;9.149933;0.42755127;-1.4861145;-;-;-;-;-;-;-;-;-;-;-;-;-;-;-
1513496214739;-;-;9.14035;0.4407196;-1.5088654;-;-;-;-;-;-;-;-;-;-;-;-;-;-;-
1513496214760;-;-;9.142746;0.44911194;-1.4693604;-;-;-;-;-;-;-;-;-;-;-;-;-;-;-
1513496214780;-;-;9.145142;0.4119873;-1.4442139;-;-;-;-;-;-;-;-;-;-;-;-;-;-;-
1513496214800;-;-;9.148727;0.41438293;-1.4585876;-;-;-;-;-;-;-;-;-;-;-;-;-;-;-
1513496214820;-;-;9.14035;0.43473816;-1.4490051;-;-;-;-;-;-;-;-;-;-;-;-;-;-;-
1513496214840;-;-;9.153519;0.43354797;-1.4454193;-;-;-;-;-;-;-;-;-;-;-;-;-;-;-
1513496214861;-;-;9.114014;0.43952942;-1.4442139;-;-;-;-;-;-;-;-;-;-;-;-;-;-;-
1513496214881;-;-;9.149933;0.45388794;-1.3999176;-;-;-;-;-;-;-;-;-;-;-;-;-;-;-
1513496214902;-;-;9.165497;0.4119873;-1.4334412;-;-;-;-;-;-;-;-;-;-;-;-;-;-;-
1513496214922;-;-;9.17746;0.44311523;-1.4861145;-;-;-;-;-;-;-;-;-;-;-;-;-;-;-
1513496214942;-;-;9.15831;0.46107483;-1.4226685;-;-;-;-;-;-;-;-;-;-;-;-;-;-;-
1513496214962;-;-;9.141556;0.47184753;-1.4262543;-;-;-;-;-;-;-;-;-;-;-;-;-;-;-
1513496214982;-;-;9.125992;0.43473816;-1.4226685;-;-;-;-;-;-;-;-;-;-;-;-;-;-;-
1513496215003;-;-;9.151123;0.41079712;-1.4789276;-;-;-;-;-;-;-;-;-;-;-;-;-;-;-
1513496215023;-;-;9.143951;0.44311523;-1.4633789;-;-;-;-;-;-;-;-;-;-;-;-;-;-;-
1513496215044;-;-;9.163101;0.51016235;-1.4549866;-;-;-;-;-;-;-;-;-;-;-;-;-;-;-
1513496215064;-;-;9.154724;0.48980713;-1.4430237;-;-;-;-;-;-;-;-;-;-;-;-;-;-;-
1513496215084;-;-;9.203796;0.4479065;-1.5196381;-;-;-;-;-;-;-;-;-;-;-;-;-;-;-
1513496215105;-;-;9.092468;0.4658661;-1.4849243;-;-;-;-;-;-;-;-;-;-;-;-;-;-;-
1513496215127;-;-;9.114014;0.45388794;-1.416687;-;-;-;-;-;-;-;-;-;-;-;-;-;-;-
1513496215146;-;-;9.15831;0.4371338;-1.5088654;-;-;-;-;-;-;-;-;-;-;-;-;-;-;-
1513496215166;-;-;9.135559;0.46228027;-1.5723114;-;-;-;-;-;-;-;-;-;-;-;-;-;-;-
1513496215186;-;-;9.102051;0.44551086;-1.432251;-;-;-;-;-;-;-;-;-;-;-;-;-;-;-
1513496215207;-;-;9.137955;0.4119873;-1.3879547;-;-;-;-;-;-;-;-;-;-;-;-;-;-;-
1513496215227;-;-;9.15831;0.41558838;-1.4298553;-;-;-;-;-;-;-;-;-;-;-;-;-;-;-
1513496215248;-;-;9.190628;0.42755127;-1.4130859;-;-;-;-;-;-;-;-;-;-;-;-;-;-;-
1513496215268;-;-;9.143951;0.44192505;-1.4837189;-;-;-;-;-;-;-;-;-;-;-;-;-;-;-
1513496215288;-;-;9.106842;0.46228027;-1.5052643;-;-;-;-;-;-;-;-;-;-;-;-;-;-;-
1513496215308;-;-;9.085281;0.4658661;-1.447815;-;-;-;-;-;-;-;-;-;-;-;-;-;-;-
1513496215329;-;-;9.13916;0.45269775;-1.4430237;-;-;-;-;-;-;-;-;-;-;-;-;-;-;-
1513496215349;-;-;9.137955;0.46107483;-1.4095001;-;-;-;-;-;-;-;-;-;-;-;-;-;-;-
1513496215369;-;-;9.128387;0.4299469;-1.4274597;-;-;-;-;-;-;-;-;-;-;-;-;-;-;-
1513496215390;-;-;9.181061;0.45988464;-1.447815;-;-;-;-;-;-;-;-;-;-;-;-;-;-;-
1513496215410;-;-;9.1523285;0.44192505;-1.440628;-;-;-;-;-;-;-;-;-;-;-;-;-;-;-
1513496215430;-;-;9.121201;0.43832397;-1.4490051;-;-;-;-;-;-;-;-;-;-;-;-;-;-;-
1513496215450;-;-;9.145142;0.4479065;-1.4298553;-;-;-;-;-;-;-;-;-;-;-;-;-;-;-
1513496215471;-;-;9.137955;0.40960693;-1.4226685;-;-;-;-;-;-;-;-;-;-;-;-;-;-;-
1513496215491;-;-;9.1523285;0.42636108;-1.4023132;-;-;-;-;-;-;-;-;-;-;-;-;-;-;-
1513496215511;-;-;9.136765;0.42755127;-1.3963318;-;-;-;-;-;-;-;-;-;-;-;-;-;-;-
1513496215531;-;-;9.123596;0.45509338;-1.4190826;-;-;-;-;-;-;-;-;-;-;-;-;-;-;-
1513496215552;-;-;9.141556;0.43234253;-1.4274597;-;-;-;-;-;-;-;-;-;-;-;-;-;-;-
1513496215572;-;-;9.153519;0.47065735;-1.4645691;-;-;-;-;-;-;-;-;-;-;-;-;-;-;-
1513496215594;-;-;9.146347;0.4479065;-1.456192;-;-;-;-;-;-;-;-;-;-;-;-;-;-;-
1513496215614;-;-;9.146347;0.44311523;-1.4214783;-;-;-;-;-;-;-;-;-;-;-;-;-;-;-
1513496215634;-;-;9.159515;0.42277527;-1.416687;-;-;-;-;-;-;-;-;-;-;-;-;-;-;-
1513496215655;-;-;9.145142;0.4371338;-1.4502106;-;-;-;-;-;-;-;-;-;-;-;-;-;-;-
1513496215675;-;-;9.142746;0.44311523;-1.4286499;-;-;-;-;-;-;-;-;-;-;-;-;-;-;-
1513496215695;-;-;9.15712;0.46107483;-1.4669647;-;-;-;-;-;-;-;-;-;-;-;-;-;-;-
1513496215716;-;-;9.149933;0.457489;-1.4454193;-;-;-;-;-;-;-;-;-;-;-;-;-;-;-
1513496215736;-;-;9.135559;0.4514923;-1.4657593;-;-;-;-;-;-;-;-;-;-;-;-;-;-;-
1513496215757;-;-;9.117615;0.457489;-1.4023132;-;-;-;-;-;-;-;-;-;-;-;-;-;-;-
1513496215777;-;-;9.137955;0.46347046;-1.4107056;-;-;-;-;-;-;-;-;-;-;-;-;-;-;-
1513496215798;-;-;9.142746;0.46228027;-1.4837189;-;-;-;-;-;-;-;-;-;-;-;-;-;-;-
1513496215818;-;-;9.117615;0.49220276;-1.4430237;-;-;-;-;-;-;-;-;-;-;-;-;-;-;-
1513496215838;-;-;9.17746;0.43234253;-1.4645691;-;-;-;-;-;-;-;-;-;-;-;-;-;-;-
1513496215858;-;-;9.181061;0.43354797;-1.5136566;-;-;-;-;-;-;-;-;-;-;-;-;-;-;-
1513496215879;-;-;9.151123;0.42277527;-1.5471649;-;-;-;-;-;-;-;-;-;-;-;-;-;-;-
1513496215898;-;-;9.124786;0.42755127;-1.4154816;-;-;-;-;-;-;-;-;-;-;-;-;-;-;-
1513496215918;-;-;9.124786;0.457489;-1.3688049;-;-;-;-;-;-;-;-;-;-;-;-;-;-;-
1513496215939;-;-;9.179855;0.44311523;-1.3256989;-;-;-;-;-;-;-;-;-;-;-;-;-;-;-
1513496215958;-;-;9.146347;0.4694519;-1.3496399;-;-;-;-;-;-;-;-;-;-;-;-;-;-;-
1513496215979;-;-;9.085281;0.4467163;-1.3783722;-;-;-;-;-;-;-;-;-;-;-;-;-;-;-
1513496215998;-;-;9.114014;0.4371338;-1.3304901;-;-;-;-;-;-;-;-;-;-;-;-;-;-;-
1513496216019;-;-;9.153519;0.43952942;-1.3855591;-;-;-;-;-;-;-;-;-;-;-;-;-;-;-
1513496216039;-;-;9.175064;0.4586792;-1.3867645;-;-;-;-;-;-;-;-;-;-;-;-;-;-;-
1513496216059;-;-;9.164291;0.50057983;-1.4418182;-;-;-;-;-;-;-;-;-;-;-;-;-;-;-
1513496216079;-;-;9.164291;0.5233307;-1.3879547;-;-;-;-;-;-;-;-;-;-;-;-;-;-;-
1513496216099;-;-;9.161896;0.4479065;-1.4274597;-;-;-;-;-;-;-;-;-;-;-;-;-;-;-
1513496216120;-;-;9.146347;0.42037964;-1.4573822;-;-;-;-;-;-;-;-;-;-;-;-;-;-;-
1513496216140;-;-;9.117615;0.39762878;-1.4382324;-;-;-;-;-;-;-;-;-;-;-;-;-;-;-
1513496216160;-;-;9.131973;0.40242004;-1.4214783;-;-;-;-;-;-;-;-;-;-;-;-;-;-;-
1513496216181;-;-;9.142746;0.41558838;-1.4202728;-;-;-;-;-;-;-;-;-;-;-;-;-;-;-
1513496216200;-;-;9.125992;0.42277527;-1.4490051;-;-;-;-;-;-;-;-;-;-;-;-;-;-;-
1513496216220;-;-;9.15831;0.44551086;-1.4621735;-;-;-;-;-;-;-;-;-;-;-;-;-;-;-
1513496216241;-;-;9.135559;0.44192505;-1.4633789;-;-;-;-;-;-;-;-;-;-;-;-;-;-;-
1513496216261;-;-;9.154724;0.4287567;-1.4813232;-;-;-;-;-;-;-;-;-;-;-;-;-;-;-
1513496216281;-;-;9.129578;0.47782898;-1.4190826;-;-;-;-;-;-;-;-;-;-;-;-;-;-;-
1513496216301;-;-;9.118805;0.48143005;-1.4035187;-;-;-;-;-;-;-;-;-;-;-;-;-;-;-
1513496216322;-;-;9.135559;0.48143005;-1.4334412;-;-;-;-;-;-;-;-;-;-;-;-;-;-;-
1513496216342;-;-;9.160706;0.4694519;-1.4585876;-;-;-;-;-;-;-;-;-;-;-;-;-;-;-
1513496216363;-;-;9.155914;0.45388794;-1.4502106;-;-;-;-;-;-;-;-;-;-;-;-;-;-;-
1513496216383;-;-;9.127182;0.50057983;-1.4346466;-;-;-;-;-;-;-;-;-;-;-;-;-;-;-
1513496216403;-;-;9.135559;0.46347046;-1.480133;-;-;-;-;-;-;-;-;-;-;-;-;-;-;-
1513496216424;-;-;9.154724;0.48860168;-1.5280151;-;-;-;-;-;-;-;-;-;-;-;-;-;-;-
1513496216444;-;-;9.160706;0.47782898;-1.492096;-;-;-;-;-;-;-;-;-;-;-;-;-;-;-
1513496216464;-;-;9.146347;0.48860168;-1.5016785;-;-;-;-;-;-;-;-;-;-;-;-;-;-;-
1513496216485;-;-;9.122391;0.46826172;-1.452591;-;-;-;-;-;-;-;-;-;-;-;-;-;-;-
1513496216505;-;-;9.169083;0.41677856;-1.4442139;-;-;-;-;-;-;-;-;-;-;-;-;-;-;-
1513496216526;-;-;9.135559;0.41319275;-1.5088654;-;-;-;-;-;-;-;-;-;-;-;-;-;-;-
1513496216546;-;-;9.076904;0.42755127;-1.5124512;-;-;-;-;-;-;-;-;-;-;-;-;-;-;-
1513496216566;-;-;9.130783;0.42755127;-1.5040741;-;-;-;-;-;-;-;-;-;-;-;-;-;-;-
1513496216587;-;-;9.149933;0.39164734;-1.5423737;-;-;-;-;-;-;-;-;-;-;-;-;-;-;-
1513496216607;-;-;9.123596;0.40361023;-1.5447693;-;-;-;-;-;-;-;-;-;-;-;-;-;-;-
1513496216628;-;-;9.134369;0.42156982;-1.4238739;-;-;-;-;-;-;-;-;-;-;-;-;-;-;-
1513496216648;-;-;9.161896;0.4299469;-1.4142914;-;-;-;-;-;-;-;-;-;-;-;-;-;-;-
1513496216669;-;-;9.14035;0.4119873;-1.432251;-;-;-;-;-;-;-;-;-;-;-;-;-;-;-
1513496216689;-;-;9.0733185;0.42037964;-1.5040741;-;-;-;-;-;-;-;-;-;-;-;-;-;-;-
1513496216709;-;-;9.091278;0.40361023;-1.4849243;-;-;-;-;-;-;-;-;-;-;-;-;-;-;-
1513496216730;-;-;9.084091;0.45388794;-1.5591431;-;-;-;-;-;-;-;-;-;-;-;-;-;-;-
1513496216750;-;-;9.106842;0.45269775;-1.5890656;-;-;-;-;-;-;-;-;-;-;-;-;-;-;-
1513496216771;-;-;9.130783;0.4514923;-1.5699158;-;-;-;-;-;-;-;-;-;-;-;-;-;-;-
1513496216793;-;-;9.129578;0.43952942;-1.5328064;-;-;-;-;-;-;-;-;-;-;-;-;-;-;-
1513496216811;-;-;9.142746;0.42515564;-1.5818787;-;-;-;-;-;-;-;-;-;-;-;-;-;-;-
1513496216832;-;-;9.199005;0.43115234;-1.614212;-;-;-;-;-;-;-;-;-;-;-;-;-;-;-
1513496216852;-;-;9.163101;0.43952942;-1.6441345;-;-;-;-;-;-;-;-;-;-;-;-;-;-;-
1513496216873;-;-;9.1128235;0.45509338;-1.5866699;-;-;-;-;-;-;-;-;-;-;-;-;-;-;-
1513496216892;-;-;9.123596;0.4084015;-1.6094208;-;-;-;-;-;-;-;-;-;-;-;-;-;-;-
1513496216913;-;-;9.123596;0.42277527;-1.590271;-;-;-;-;-;-;-;-;-;-;-;-;-;-;-
1513496216933;-;-;9.115219;0.40960693;-1.5675201;-;-;-;-;-;-;-;-;-;-;-;-;-;-;-
1513496216954;-;-;9.111618;0.41558838;-1.5220337;-;-;-;-;-;-;-;-;-;-;-;-;-;-;-
1513496216973;-;-;9.103241;0.4072113;-1.5866699;-;-;-;-;-;-;-;-;-;-;-;-;-;-;-
1513496216993;-;-;9.115219;0.39283752;-1.5483704;-;-;-;-;-;-;-;-;-;-;-;-;-;-;-
1513496217014;-;-;9.137955;0.4287567;-1.5423737;-;-;-;-;-;-;-;-;-;-;-;-;-;-;-
1513496217034;-;-;9.13916;0.46228027;-1.5459747;-;-;-;-;-;-;-;-;-;-;-;-;-;-;-
1513496217055;-;-;9.166687;0.45628357;-1.5375977;-;-;-;-;-;-;-;-;-;-;-;-;-;-;-
1513496217075;-;-;9.14035;0.4407196;-1.526825;-;-;-;-;-;-;-;-;-;-;-;-;-;-;-
1513496217096;-;-;9.137955;0.42396545;-1.5328064;-;-;-;-;-;-;-;-;-;-;-;-;-;-;-
1513496217115;-;-;9.155914;0.42277527;-1.5399933;-;-;-;-;-;-;-;-;-;-;-;-;-;-;-
1513496217136;-;-;9.124786;0.41319275;-1.5531616;-;-;-;-;-;-;-;-;-;-;-;-;-;-;-
1513496217156;-;-;9.104446;0.46107483;-1.5136566;-;-;-;-;-;-;-;-;-;-;-;-;-;-;-
1513496217176;-;-;9.115219;0.4407196;-1.4777374;-;-;-;-;-;-;-;-;-;-;-;-;-;-;-
1513496217196;-;-;9.151123;0.43234253;-1.5184326;-;-;-;-;-;-;-;-;-;-;-;-;-;-;-
1513496217216;-;-;9.123596;0.45509338;-1.511261;-;-;-;-;-;-;-;-;-;-;-;-;-;-;-
1513496217236;-;-;9.111618;0.41677856;-1.4980927;-;-;-;-;-;-;-;-;-;-;-;-;-;-;-
1513496217257;-;-;9.179855;0.42277527;-1.5411835;-;-;-;-;-;-;-;-;-;-;-;-;-;-;-
1513496217277;-;-;9.145142;0.4694519;-1.6058197;-;-;-;-;-;-;-;-;-;-;-;-;-;-;-
1513496217297;-;-;9.122391;0.46705627;-1.4980927;-;-;-;-;-;-;-;-;-;-;-;-;-;-;-
1513496217318;-;-;9.135559;0.44911194;-1.4741516;-;-;-;-;-;-;-;-;-;-;-;-;-;-;-
1513496217338;-;-;9.173874;0.42515564;-1.4454193;-;-;-;-;-;-;-;-;-;-;-;-;-;-;-
1513496217358;-;-;9.166687;0.43234253;-1.4514008;-;-;-;-;-;-;-;-;-;-;-;-;-;-;-
1513496217379;-;-;9.117615;0.42277527;-1.4825287;-;-;-;-;-;-;-;-;-;-;-;-;-;-;-
1513496217399;-;-;9.102051;0.45628357;-1.4933014;-;-;-;-;-;-;-;-;-;-;-;-;-;-;-
1513496217419;-;-;9.094864;0.44911194;-1.495697;-;-;-;-;-;-;-;-;-;-;-;-;-;-;-
1513496217439;-;-;9.102051;0.43832397;-1.550766;-;-;-;-;-;-;-;-;-;-;-;-;-;-;-
1513496217460;-;-;9.129578;0.42156982;-1.5220337;-;-;-;-;-;-;-;-;-;-;-;-;-;-;-
1513496217480;-;-;9.148727;0.40960693;-1.480133;-;-;-;-;-;-;-;-;-;-;-;-;-;-;-
1513496217501;-;-;9.163101;0.42636108;-1.5136566;-;-;-;-;-;-;-;-;-;-;-;-;-;-;-
1513496217521;-;-;9.127182;0.39881897;-1.511261;-;-;-;-;-;-;-;-;-;-;-;-;-;-;-
1513496217541;-;-;9.149933;0.41677856;-1.4933014;-;-;-;-;-;-;-;-;-;-;-;-;-;-;-
1513496217562;-;-;9.133179;0.43832397;-1.5004883;-;-;-;-;-;-;-;-;-;-;-;-;-;-;-
1513496217582;-;-;9.165497;0.44432068;-1.4992828;-;-;-;-;-;-;-;-;-;-;-;-;-;-;-
1513496217603;-;-;9.143951;0.42515564;-1.4980927;-;-;-;-;-;-;-;-;-;-;-;-;-;-;-
1513496217623;-;-;9.105637;0.39523315;-1.456192;-;-;-;-;-;-;-;-;-;-;-;-;-;-;-
1513496217643;-;-;9.153519;0.43115234;-1.4621735;-;-;-;-;-;-;-;-;-;-;-;-;-;-;-
1513496217664;-;-;9.137955;0.4371338;-1.4609833;-;-;-;-;-;-;-;-;-;-;-;-;-;-;-
1513496217684;-;-;9.136765;0.42636108;-1.5016785;-;-;-;-;-;-;-;-;-;-;-;-;-;-;-
1513496217705;-;-;9.12001;0.39881897;-1.4909058;-;-;-;-;-;-;-;-;-;-;-;-;-;-;-
1513496217725;-;-;9.124786;0.4299469;-1.4861145;-;-;-;-;-;-;-;-;-;-;-;-;-;-;-
1513496217745;-;-;9.141556;0.4287567;-1.4693604;-;-;-;-;-;-;-;-;-;-;-;-;-;-;-
1513496217765;-;-;9.109222;0.4407196;-1.4825287;-;-;-;-;-;-;-;-;-;-;-;-;-;-;-
1513496217786;-;-;9.148727;0.43832397;-1.4885101;-;-;-;-;-;-;-;-;-;-;-;-;-;-;-
1513496217805;-;-;9.145142;0.44311523;-1.511261;-;-;-;-;-;-;-;-;-;-;-;-;-;-;-
1513496217825;-;-;9.17627;0.46228027;-1.5447693;-;-;-;-;-;-;-;-;-;-;-;-;-;-;-
1513496217846;-;-;9.130783;0.44311523;-1.4669647;-;-;-;-;-;-;-;-;-;-;-;-;-;-;-
1513496217866;-;-;9.145142;0.4191742;-1.4537964;-;-;-;-;-;-;-;-;-;-;-;-;-;-;-
1513496217886;-;-;9.175064;0.40960693;-1.5052643;-;-;-;-;-;-;-;-;-;-;-;-;-;-;-
1513496217906;-;-;9.09845;0.44311523;-1.4944916;-;-;-;-;-;-;-;-;-;-;-;-;-;-;-
1513496217927;-;-;9.147537;0.45030212;-1.4837189;-;-;-;-;-;-;-;-;-;-;-;-;-;-;-
1513496217947;-;-;9.184647;0.4658661;-1.5531616;-;-;-;-;-;-;-;-;-;-;-;-;-;-;-
1513496217967;-;-;9.130783;0.46347046;-1.5771027;-;-;-;-;-;-;-;-;-;-;-;-;-;-;-
1513496217988;-;-;9.143951;0.44311523;-1.4741516;-;-;-;-;-;-;-;-;-;-;-;-;-;-;-
1513496218009;-;-;9.142746;0.42156982;-1.4142914;-;-;-;-;-;-;-;-;-;-;-;-;-;-;-
1513496218030;-;-;9.175064;0.43115234;-1.4430237;-;-;-;-;-;-;-;-;-;-;-;-;-;-;-
1513496218050;-;-;9.129578;0.4191742;-1.4214783;-;-;-;-;-;-;-;-;-;-;-;-;-;-;-
1513496218070;-;-;9.131973;0.46347046;-1.4346466;-;-;-;-;-;-;-;-;-;-;-;-;-;-;-
1513496218091;-;-;9.149933;0.417984;-1.4346466;-;-;-;-;-;-;-;-;-;-;-;-;-;-;-
1513496218110;-;-;9.125992;0.40600586;-1.4645691;-;-;-;-;-;-;-;-;-;-;-;-;-;-;-
1513496218130;-;-;9.12001;0.4514923;-1.4861145;-;-;-;-;-;-;-;-;-;-;-;-;-;-;-
1513496218151;-;-;9.151123;0.48980713;-1.4729462;-;-;-;-;-;-;-;-;-;-;-;-;-;-;-
1513496218171;-;-;9.137955;0.43115234;-1.4358368;-;-;-;-;-;-;-;-;-;-;-;-;-;-;-
1513496218192;-;-;9.181061;0.45988464;-1.4310455;-;-;-;-;-;-;-;-;-;-;-;-;-;-;-
1513496218212;-;-;9.149933;0.43473816;-1.4729462;-;-;-;-;-;-;-;-;-;-;-;-;-;-;-
1513496218233;-;-;9.137955;0.4371338;-1.4621735;-;-;-;-;-;-;-;-;-;-;-;-;-;-;-
1513496218253;-;-;9.130783;0.48262024;-1.4466095;-;-;-;-;-;-;-;-;-;-;-;-;-;-;-
1513496218274;-;-;9.173874;0.4191742;-1.4418182;-;-;-;-;-;-;-;-;-;-;-;-;-;-;-
1513496218294;-;-;9.124786;0.3964386;-1.3963318;-;-;-;-;-;-;-;-;-;-;-;-;-;-;-
1513496218314;-;-;9.13916;0.4407196;-1.416687;-;-;-;-;-;-;-;-;-;-;-;-;-;-;-
1513496218334;-;-;9.149933;0.45509338;-1.4047089;-;-;-;-;-;-;-;-;-;-;-;-;-;-;-
1513496218355;-;-;9.123596;0.42396545;-1.447815;-;-;-;-;-;-;-;-;-;-;-;-;-;-;-
1513496218375;-;-;9.15712;0.42277527;-1.440628;-;-;-;-;-;-;-;-;-;-;-;-;-;-;-
1513496218395;-;-;9.122391;0.43832397;-1.4310455;-;-;-;-;-;-;-;-;-;-;-;-;-;-;-
1513496218416;-;-;9.173874;0.4467163;-1.4142914;-;-;-;-;-;-;-;-;-;-;-;-;-;-;-
1513496218435;-;-;9.130783;0.42755127;-1.5016785;-;-;-;-;-;-;-;-;-;-;-;-;-;-;-
1513496218456;-;-;9.134369;0.42277527;-1.4346466;-;-;-;-;-;-;-;-;-;-;-;-;-;-;-
1513496218475;-;-;9.160706;0.41438293;-1.4286499;-;-;-;-;-;-;-;-;-;-;-;-;-;-;-
1513496218495;-;-;9.131973;0.4299469;-1.5064697;-;-;-;-;-;-;-;-;-;-;-;-;-;-;-
1513496218516;-;-;9.123596;0.42755127;-1.4705505;-;-;-;-;-;-;-;-;-;-;-;-;-;-;-
1513496218536;-;-;9.124786;0.44551086;-1.456192;-;-;-;-;-;-;-;-;-;-;-;-;-;-;-
1513496218556;-;-;9.135559;0.4299469;-1.4310455;-;-;-;-;-;-;-;-;-;-;-;-;-;-;-
1513496218577;-;-;9.1523285;0.4084015;-1.4789276;-;-;-;-;-;-;-;-;-;-;-;-;-;-;-
1513496218597;-;-;9.096069;0.4514923;-1.4585876;-;-;-;-;-;-;-;-;-;-;-;-;-;-;-
1513496218617;-;-;9.115219;0.42636108;-1.4358368;-;-;-;-;-;-;-;-;-;-;-;-;-;-;-
1513496218638;-;-;9.15831;0.4766388;-1.4753418;-;-;-;-;-;-;-;-;-;-;-;-;-;-;-
1513496218658;-;-;9.189438;0.48860168;-1.571106;-;-;-;-;-;-;-;-;-;-;-;-;-;-;-
1513496218679;-;-;9.146347;0.45988464;-1.4633789;-;-;-;-;-;-;-;-;-;-;-;-;-;-;-
1513496218699;-;-;9.155914;0.3569336;-1.4274597;-;-;-;-;-;-;-;-;-;-;-;-;-;-;-
1513496218719;-;-;9.170288;0.38565063;-1.4514008;-;-;-;-;-;-;-;-;-;-;-;-;-;-;-
1513496218740;-;-;9.161896;0.3892517;-1.432251;-;-;-;-;-;-;-;-;-;-;-;-;-;-;-
1513496218759;-;-;9.129578;0.378479;-1.4154816;-;-;-;-;-;-;-;-;-;-;-;-;-;-;-
1513496218779;-;-;9.102051;0.42396545;-1.4083099;-;-;-;-;-;-;-;-;-;-;-;-;-;-;-
1513496218799;-;-;9.15712;0.4359436;-1.3975372;-;-;-;-;-;-;-;-;-;-;-;-;-;-;-
1513496218821;-;-;9.151123;0.4084015;-1.4693604;-;-;-;-;-;-;-;-;-;-;-;-;-;-;-
1513496218840;-;-;9.14035;0.46705627;-1.492096;-;-;-;-;-;-;-;-;-;-;-;-;-;-;-
1513496218860;-;-;9.195419;0.457489;-1.4693604;-;-;-;-;-;-;-;-;-;-;-;-;-;-;-
1513496218881;-;-;9.109222;0.4766388;-1.4885101;-;-;-;-;-;-;-;-;-;-;-;-;-;-;-
1513496218901;-;-;9.13916;0.38565063;-1.4849243;-;-;-;-;-;-;-;-;-;-;-;-;-;-;-
1513496218921;-;-;9.23851;0.4012146;-1.4633789;-;-;-;-;-;-;-;-;-;-;-;-;-;-;-
1513496218941;-;-;9.29837;0.39164734;-1.516037;-;-;-;-;-;-;-;-;-;-;-;-;-;-;-
1513496218962;-;-;9.234924;0.38206482;-1.5771027;-;-;-;-;-;-;-;-;-;-;-;-;-;-;-
1513496218982;-;-;9.254074;0.39164734;-1.5962524;-;-;-;-;-;-;-;-;-;-;-;-;-;-;-
1513496219002;-;-;9.371399;0.39762878;-1.5627289;-;-;-;-;-;-;-;-;-;-;-;-;-;-;-
1513496219023;-;-;9.416885;0.35214233;-1.5471649;-;-;-;-;-;-;-;-;-;-;-;-;-;-;-
1513496219043;-;-;9.149933;0.51374817;-1.3712006;-;-;-;-;-;-;-;-;-;-;-;-;-;-;-
1513496219064;-;-;9.109222;0.49578857;-1.5028687;-;-;-;-;-;-;-;-;-;-;-;-;-;-;-
1513496219084;-;-;8.98114;0.75556946;-1.6213837;-;-;-;-;-;-;-;-;-;-;-;-;-;-;-
1513496219104;-;-;9.092468;0.79267883;-1.4226685;-;-;-;-;-;-;-;-;-;-;-;-;-;-;-
1513496219125;-;-;9.284012;0.517334;-0.8887634;-;-;-;-;-;-;-;-;-;-;-;-;-;-;-
1513496219146;-;-;8.876999;0.61550903;-1.0204468;-;-;-;-;-;-;-;-;-;-;-;-;-;-;-
1513496219166;-;-;8.66391;0.6645813;-0.9845276;-;-;-;-;-;-;-;-;-;-;-;-;-;-;-
1513496219190;-;-;8.48674;0.517334;-0.7056122;-;-;-;-;-;-;-;-;-;-;-;-;-;-;-
1513496219207;-;-;8.547791;0.21806335;-0.72117615;-;-;-;-;-;-;-;-;-;-;-;-;-;-;-
1513496219227;-;-;9.002686;0.23841858;-0.88397217;-;-;-;-;-;-;-;-;-;-;-;-;-;-;-
1513496219247;-;-;9.738907;0.42636108;-1.0192413;-;-;-;-;-;-;-;-;-;-;-;-;-;-;-
1513496219267;-;-;10.025009;0.4299469;-1.5028687;-;-;-;-;-;-;-;-;-;-;-;-;-;-;-
1513496219288;-;-;9.69342;0.62028503;-1.6381531;-;-;-;-;-;-;-;-;-;-;-;-;-;-;-
1513496219308;-;-;9.21817;0.7292328;-1.064743;-;-;-;-;-;-;-;-;-;-;-;-;-;-;-
1513496219328;-;-;8.867416;0.8441467;-0.6984253;-;-;-;-;-;-;-;-;-;-;-;-;-;-;-
1513496219349;-;-;8.630386;0.7842865;-0.9845276;-;-;-;-;-;-;-;-;-;-;-;-;-;-;-
1513496219368;-;-;8.766861;0.6035309;-1.4394226;-;-;-;-;-;-;-;-;-;-;-;-;-;-;-
1513496219388;-;-;8.997894;0.45388794;-1.6321564;-;-;-;-;-;-;-;-;-;-;-;-;-;-;-
1513496219408;-;-;9.194229;0.4371338;-1.6285706;-;-;-;-;-;-;-;-;-;-;-;-;-;-;-
1513496219429;-;-;9.2756195;0.5640259;-1.526825;-;-;-;-;-;-;-;-;-;-;-;-;-;-;-
1513496219450;-;-;9.278015;0.7627411;-1.5639343;-;-;-;-;-;-;-;-;-;-;-;-;-;-;-
1513496219469;-;-;9.31633;0.85731506;-1.5639343;-;-;-;-;-;-;-;-;-;-;-;-;-;-;-
1513496219489;-;-;9.245697;0.6645813;-1.6333618;-;-;-;-;-;-;-;-;-;-;-;-;-;-;-
1513496219510;-;-;9.058945;0.43354797;-1.5758972;-;-;-;-;-;-;-;-;-;-;-;-;-;-;-
1513496219530;-;-;9.014664;0.33657837;-1.3759766;-;-;-;-;-;-;-;-;-;-;-;-;-;-;-
1513496219550;-;-;8.990723;0.33657837;-1.282608;-;-;-;-;-;-;-;-;-;-;-;-;-;-;-
1513496219571;-;-;9.091278;0.32939148;-1.2658539;-;-;-;-;-;-;-;-;-;-;-;-;-;-;-
1513496219590;-;-;9.262466;0.34495544;-1.3209229;-;-;-;-;-;-;-;-;-;-;-;-;-;-;-
1513496219611;-;-;9.289993;0.4467163;-1.4370422;-;-;-;-;-;-;-;-;-;-;-;-;-;-;-
1513496219632;-;-;9.197815;0.5341034;-1.4071045;-;-;-;-;-;-;-;-;-;-;-;-;-;-;-
1513496219653;-;-;9.064941;0.55085754;-1.2873993;-;-;-;-;-;-;-;-;-;-;-;-;-;-;-
1513496219673;-;-;9.052963;0.53889465;-1.2071991;-;-;-;-;-;-;-;-;-;-;-;-;-;-;-
1513496219694;-;-;9.129578;0.58078;-1.2550812;-;-;-;-;-;-;-;-;-;-;-;-;-;-;-
1513496219714;-;-;9.147537;0.60113525;-1.3053589;-;-;-;-;-;-;-;-;-;-;-;-;-;-;-
1513496219734;-;-;9.169083;0.62628174;-1.3759766;-;-;-;-;-;-;-;-;-;-;-;-;-;-;-
1513496219755;-;-;9.13916;0.7005005;-1.3939362;-;-;-;-;-;-;-;-;-;-;-;-;-;-;-
1513496219775;-;-;9.104446;0.7507782;-1.4154816;-;-;-;-;-;-;-;-;-;-;-;-;-;-;-
1513496219795;-;-;9.124786;0.73161316;-1.3879547;-;-;-;-;-;-;-;-;-;-;-;-;-;-;-
1513496219815;-;-;9.134369;0.6346588;-1.3460541;-;-;-;-;-;-;-;-;-;-;-;-;-;-;-
1513496219836;-;-;9.143951;0.58317566;-1.3831635;-;-;-;-;-;-;-;-;-;-;-;-;-;-;-
1513496219856;-;-;9.068527;0.54966736;-1.3460541;-;-;-;-;-;-;-;-;-;-;-;-;-;-;-
1513496219876;-;-;8.98114;0.5676117;-1.480133;-;-;-;-;-;-;-;-;-;-;-;-;-;-;-
1513496219897;-;-;9.011063;0.59036255;-1.3484497;-;-;-;-;-;-;-;-;-;-;-;-;-;-;-
1513496219917;-;-;9.279221;0.6238861;-1.3628082;-;-;-;-;-;-;-;-;-;-;-;-;-;-;-
1513496219937;-;-;9.425262;0.50177;-1.4741516;-;-;-;-;-;-;-;-;-;-;-;-;-;-;-
1513496219957;-;-;9.340271;0.5077667;-1.4298553;-;-;-;-;-;-;-;-;-;-;-;-;-;-;-
1513496219978;-;-;9.092468;0.48980713;-1.3556366;-;-;-;-;-;-;-;-;-;-;-;-;-;-;-
1513496219998;-;-;9.075714;0.5628357;-1.2766266;-;-;-;-;-;-;-;-;-;-;-;-;-;-;-
1513496220018;-;-;9.0182495;0.60832214;-1.3592224;-;-;-;-;-;-;-;-;-;-;-;-;-;-;-
1513496220039;-;-;9.032608;0.6394501;-1.3005676;-;-;-;-;-;-;-;-;-;-;-;-;-;-;-
1513496220058;-;-;9.014664;0.5592346;-1.274231;-;-;-;-;-;-;-;-;-;-;-;-;-;-;-
1513496220079;-;-;9.090073;0.5472717;-1.3675995;-;-;-;-;-;-;-;-;-;-;-;-;-;-;-
1513496220099;-;-;9.164291;0.5077667;-1.4035187;-;-;-;-;-;-;-;-;-;-;-;-;-;-;-
1513496220119;-;-;9.239716;0.41438293;-1.526825;-;-;-;-;-;-;-;-;-;-;-;-;-;-;-
1513496220139;-;-;9.23613;0.40600586;-1.5962524;-;-;-;-;-;-;-;-;-;-;-;-;-;-;-
1513496220160;-;-;9.167892;0.4287567;-1.571106;-;-;-;-;-;-;-;-;-;-;-;-;-;-;-
1513496220180;-;-;9.155914;0.51493835;-1.4813232;-;-;-;-;-;-;-;-;-;-;-;-;-;-;-
1513496220200;-;-;9.14035;0.51493835;-1.447815;-;-;-;-;-;-;-;-;-;-;-;-;-;-;-
1513496220220;-;-;9.064941;0.47305298;-1.440628;-;-;-;-;-;-;-;-;-;-;-;-;-;-;-
1513496220241;-;-;9.056564;0.48382568;-1.3807678;-;-;-;-;-;-;-;-;-;-;-;-;-;-;-
1513496220261;-;-;9.102051;0.55804443;-1.4657593;-;-;-;-;-;-;-;-;-;-;-;-;-;-;-
1513496220282;-;-;9.197815;0.5736084;-1.4729462;-;-;-;-;-;-;-;-;-;-;-;-;-;-;-
1513496220302;-;-;9.242111;0.6238861;-1.3879547;-;-;-;-;-;-;-;-;-;-;-;-;-;-;-
1513496220322;-;-;9.169083;0.5771942;-1.2957764;-;-;-;-;-;-;-;-;-;-;-;-;-;-;-
1513496220342;-;-;9.137955;0.5628357;-1.2993622;-;-;-;-;-;-;-;-;-;-;-;-;-;-;-
1513496220363;-;-;9.130783;0.5376892;-1.3292999;-;-;-;-;-;-;-;-;-;-;-;-;-;-;-
1513496220383;-;-;9.096069;0.50416565;-1.4418182;-;-;-;-;-;-;-;-;-;-;-;-;-;-;-
1513496220403;-;-;9.12001;0.517334;-1.4681549;-;-;-;-;-;-;-;-;-;-;-;-;-;-;-
1513496220424;-;-;9.135559;0.51135254;-1.4681549;-;-;-;-;-;-;-;-;-;-;-;-;-;-;-
1513496220445;-;-;9.108032;0.5257263;-1.4849243;-;-;-;-;-;-;-;-;-;-;-;-;-;-;-
1513496220466;-;-;9.094864;0.5089569;-1.5495605;-;-;-;-;-;-;-;-;-;-;-;-;-;-;-
1513496220486;-;-;9.117615;0.457489;-1.6285706;-;-;-;-;-;-;-;-;-;-;-;-;-;-;-
1513496220507;-;-;9.141556;0.43354797;-1.6285706;-;-;-;-;-;-;-;-;-;-;-;-;-;-;-
1513496220528;-;-;9.129578;0.45030212;-1.6453247;-;-;-;-;-;-;-;-;-;-;-;-;-;-;-
1513496220548;-;-;9.115219;0.49578857;-1.6237793;-;-;-;-;-;-;-;-;-;-;-;-;-;-;-
1513496220567;-;-;9.133179;0.5376892;-1.6249847;-;-;-;-;-;-;-;-;-;-;-;-;-;-;-
1513496220587;-;-;9.037399;0.5077667;-1.6429291;-;-;-;-;-;-;-;-;-;-;-;-;-;-;-
1513496220607;-;-;9.104446;0.49220276;-1.6668854;-;-;-;-;-;-;-;-;-;-;-;-;-;-;-
1513496220628;-;-;9.154724;0.46705627;-1.6596985;-;-;-;-;-;-;-;-;-;-;-;-;-;-;-
1513496220648;-;-;9.146347;0.5185394;-1.6716614;-;-;-;-;-;-;-;-;-;-;-;-;-;-;-
1513496220669;-;-;9.122391;0.5305023;-1.5818787;-;-;-;-;-;-;-;-;-;-;-;-;-;-;-
1513496220689;-;-;9.1128235;0.5520477;-1.452591;-;-;-;-;-;-;-;-;-;-;-;-;-;-;-
1513496220710;-;-;9.135559;0.51493835;-1.4262543;-;-;-;-;-;-;-;-;-;-;-;-;-;-;-
1513496220730;-;-;9.110428;0.56163025;-1.4202728;-;-;-;-;-;-;-;-;-;-;-;-;-;-;-
1513496220750;-;-;9.111618;0.55804443;-1.4346466;-;-;-;-;-;-;-;-;-;-;-;-;-;-;-
1513496220770;-;-;9.129578;0.58078;-1.3723907;-;-;-;-;-;-;-;-;-;-;-;-;-;-;-
1513496220791;-;-;9.102051;0.5819855;-1.361618;-;-;-;-;-;-;-;-;-;-;-;-;-;-;-
1513496220812;-;-;9.121201;0.5843811;-1.3484497;-;-;-;-;-;-;-;-;-;-;-;-;-;-;-
1513496220832;-;-;9.127182;0.5819855;-1.3867645;-;-;-;-;-;-;-;-;-;-;-;-;-;-;-
1513496220852;-;-;9.145142;0.576004;-1.3855591;-;-;-;-;-;-;-;-;-;-;-;-;-;-;-
1513496220872;-;-;9.131973;0.52093506;-1.4286499;-;-;-;-;-;-;-;-;-;-;-;-;-;-;-
1513496220893;-;-;9.137955;0.54248047;-1.4549866;-;-;-;-;-;-;-;-;-;-;-;-;-;-;-
1513496220912;-;-;9.143951;0.5460663;-1.48732;-;-;-;-;-;-;-;-;-;-;-;-;-;-;-
1513496220932;-;-;9.160706;0.54248047;-1.4909058;-;-;-;-;-;-;-;-;-;-;-;-;-;-;-
1513496220953;-;-;9.143951;0.512558;-1.4861145;-;-;-;-;-;-;-;-;-;-;-;-;-;-;-
1513496220972;-;-;9.1128235;0.5376892;-1.5028687;-;-;-;-;-;-;-;-;-;-;-;-;-;-;-
1513496220992;-;-;9.124786;0.57121277;-1.4944916;-;-;-;-;-;-;-;-;-;-;-;-;-;-;-
1513496221013;-;-;9.123596;0.5664215;-1.4885101;-;-;-;-;-;-;-;-;-;-;-;-;-;-;-
1513496221032;-;-;9.100845;0.56881714;-1.5375977;-;-;-;-;-;-;-;-;-;-;-;-;-;-;-
1513496221052;-;-;9.092468;0.556839;-1.5004883;-;-;-;-;-;-;-;-;-;-;-;-;-;-;-
1513496221072;-;-;9.110428;0.5460663;-1.4514008;-;-;-;-;-;-;-;-;-;-;-;-;-;-;-
1513496221093;-;-;9.123596;0.5640259;-1.4059143;-;-;-;-;-;-;-;-;-;-;-;-;-;-;-
1513496221112;-;-;9.146347;0.5771942;-1.416687;-;-;-;-;-;-;-;-;-;-;-;-;-;-;-
1513496221133;-;-;9.172684;0.57121277;-1.4083099;-;-;-;-;-;-;-;-;-;-;-;-;-;-;-
1513496221153;-;-;9.141556;0.5556488;-1.3843689;-;-;-;-;-;-;-;-;-;-;-;-;-;-;-
1513496221173;-;-;9.149933;0.5664215;-1.4214783;-;-;-;-;-;-;-;-;-;-;-;-;-;-;-
1513496221193;-;-;9.137955;0.556839;-1.4226685;-;-;-;-;-;-;-;-;-;-;-;-;-;-;-
1513496221212;-;-;9.07811;0.5281067;-1.4262543;-;-;-;-;-;-;-;-;-;-;-;-;-;-;-
1513496221232;-;-;9.154724;0.5257263;-1.4154816;-;-;-;-;-;-;-;-;-;-;-;-;-;-;-
1513496221252;-;-;9.184647;0.541275;-1.4753418;-;-;-;-;-;-;-;-;-;-;-;-;-;-;-
1513496221273;-;-;9.153519;0.52212524;-1.5184326;-;-;-;-;-;-;-;-;-;-;-;-;-;-;-
1513496221293;-;-;9.080505;0.5185394;-1.4298553;-;-;-;-;-;-;-;-;-;-;-;-;-;-;-
