TimeStamp[ms];Prox[Cm];Lux[lux];AccX[m/s^2];AccY[m/s^2];AccZ[m/s^2];GyroX[rad/s];GyroY[rad/s];GyroZ[rad/s];MagnX[uT];MagnY[uT];MagnZ[uT];OrienYaw[degrees];OrienPitch[degrees];OrienRoll[degrees];Press[Pa];Temp[C°];Batt[%];Lat;Lng;Speed[m/s]
1513496534211;-;-;9.262466;0.29707336;-1.9793243;-;-;-;-;-;-;-;-;-;-;-;-;-;-;-
1513496534230;-;-;9.129578;0.338974;-1.9769287;-;-;-;-;-;-;-;-;-;-;-;-;-;-;-
1513496534249;-;-;9.058945;0.3138275;-2.0715027;-;-;-;-;-;-;-;-;-;-;-;-;-;-;-
1513496534268;-;-;9.0972595;0.27192688;-2.1062164;-;-;-;-;-;-;-;-;-;-;-;-;-;-;-
1513496534288;-;-;9.063736;0.24559021;-2.2857819;-;-;-;-;-;-;-;-;-;-;-;-;-;-;-
1513496534309;-;-;9.193024;0.27911377;-2.1229706;-;-;-;-;-;-;-;-;-;-;-;-;-;-;-
1513496534328;-;-;9.17746;0.34376526;-2.0750885;-;-;-;-;-;-;-;-;-;-;-;-;-;-;-
1513496534348;-;-;9.072113;0.37487793;-2.0667114;-;-;-;-;-;-;-;-;-;-;-;-;-;-;-
1513496534369;-;-;8.970367;0.3497467;-2.0343933;-;-;-;-;-;-;-;-;-;-;-;-;-;-;-
1513496534388;-;-;9.005081;0.23362732;-1.9685516;-;-;-;-;-;-;-;-;-;-;-;-;-;-;-
1513496534408;-;-;8.991913;0.23602295;-1.8201141;-;-;-;-;-;-;-;-;-;-;-;-;-;-;-
1513496534428;-;-;9.015854;0.20610046;-1.8213043;-;-;-;-;-;-;-;-;-;-;-;-;-;-;-
1513496534449;-;-;8.987122;0.14263916;-1.6728668;-;-;-;-;-;-;-;-;-;-;-;-;-;-;-
1513496534478;-;-;9.080505;0.100753784;-1.4669647;-;-;-;-;-;-;-;-;-;-;-;-;-;-;-
1513496534490;-;-;9.159515;0.026535034;-1.4430237;-;-;-;-;-;-;-;-;-;-;-;-;-;-;-
1513496534511;-;-;9.3701935;-0.06086731;-1.4777374;-;-;-;-;-;-;-;-;-;-;-;-;-;-;-
1513496534531;-;-;9.482727;0.04208374;-1.3747864;-;-;-;-;-;-;-;-;-;-;-;-;-;-;-
1513496534551;-;-;9.404907;0.28271484;-1.2850037;-;-;-;-;-;-;-;-;-;-;-;-;-;-;-
1513496534572;-;-;9.276825;0.25038147;-1.2778168;-;-;-;-;-;-;-;-;-;-;-;-;-;-;-
1513496534593;-;-;9.0577545;0.30903625;-1.4418182;-;-;-;-;-;-;-;-;-;-;-;-;-;-;-
1513496534613;-;-;9.114014;0.4299469;-1.5543518;-;-;-;-;-;-;-;-;-;-;-;-;-;-;-
1513496534633;-;-;9.279221;0.4945984;-1.7506714;-;-;-;-;-;-;-;-;-;-;-;-;-;-;-
1513496534654;-;-;9.248093;0.5855713;-1.9039001;-;-;-;-;-;-;-;-;-;-;-;-;-;-;-
1513496534674;-;-;9.135559;0.73760986;-1.8619995;-;-;-;-;-;-;-;-;-;-;-;-;-;-;-
1513496534694;-;-;9.134369;0.8213959;-1.9529877;-;-;-;-;-;-;-;-;-;-;-;-;-;-;-
1513496534715;-;-;9.093674;0.7902832;-2.0272064;-;-;-;-;-;-;-;-;-;-;-;-;-;-;-
1513496534734;-;-;9.133179;0.8908386;-1.8667908;-;-;-;-;-;-;-;-;-;-;-;-;-;-;-
1513496534755;-;-;9.070923;0.793869;-1.9853058;-;-;-;-;-;-;-;-;-;-;-;-;-;-;-
1513496534775;-;-;9.143951;0.730423;-1.9936829;-;-;-;-;-;-;-;-;-;-;-;-;-;-;-
1513496534796;-;-;9.43364;0.6286621;-1.9853058;-;-;-;-;-;-;-;-;-;-;-;-;-;-;-
1513496534816;-;-;8.994308;0.9686432;-1.8189087;-;-;-;-;-;-;-;-;-;-;-;-;-;-;-
1513496534837;-;-;8.825516;0.9183655;-1.4885101;-;-;-;-;-;-;-;-;-;-;-;-;-;-;-
1513496534856;-;-;8.878189;0.8130188;-1.590271;-;-;-;-;-;-;-;-;-;-;-;-;-;-;-
1513496534876;-;-;9.090073;0.6609955;-1.7422943;-;-;-;-;-;-;-;-;-;-;-;-;-;-;-
1513496534897;-;-;8.305969;1.1170807;-1.401123;-;-;-;-;-;-;-;-;-;-;-;-;-;-;-
1513496534918;-;-;8.832703;0.97224426;-1.3903503;-;-;-;-;-;-;-;-;-;-;-;-;-;-;-
1513496534938;-;-;8.847061;1.1338501;-1.3304901;-;-;-;-;-;-;-;-;-;-;-;-;-;-;-
1513496534959;-;-;8.64476;1.0775757;-0.7630615;-;-;-;-;-;-;-;-;-;-;-;-;-;-;-
1513496534979;-;-;8.668701;1.0320892;-1.124588;-;-;-;-;-;-;-;-;-;-;-;-;-;-;-
1513496535000;-;-;9.242111;0.8118286;-1.9996796;-;-;-;-;-;-;-;-;-;-;-;-;-;-;-
1513496535020;-;-;8.326324;1.2463684;-2.3480225;-;-;-;-;-;-;-;-;-;-;-;-;-;-;-
1513496535041;-;-;8.134796;1.4199524;-1.4118958;-;-;-;-;-;-;-;-;-;-;-;-;-;-;-
1513496535061;-;-;9.245697;1.4403076;-1.6453247;-;-;-;-;-;-;-;-;-;-;-;-;-;-;-
1513496535082;-;-;9.345062;1.5456543;-2.7346954;-;-;-;-;-;-;-;-;-;-;-;-;-;-;-
1513496535102;-;-;9.233734;1.6234589;-2.2055817;-;-;-;-;-;-;-;-;-;-;-;-;-;-;-
1513496535122;-;-;9.819107;0.46826172;-0.30697632;-;-;-;-;-;-;-;-;-;-;-;-;-;-;-
1513496535142;-;-;9.462372;0.4287567;-2.7203217;-;-;-;-;-;-;-;-;-;-;-;-;-;-;-
1513496535163;-;-;8.90213;0.6945038;-3.4589386;-;-;-;-;-;-;-;-;-;-;-;-;-;-;-
1513496535182;-;-;7.256119;0.27552795;-1.8859406;-;-;-;-;-;-;-;-;-;-;-;-;-;-;-
1513496535202;-;-;9.424072;-1.4315338;-2.804123;-;-;-;-;-;-;-;-;-;-;-;-;-;-;-
1513496535223;-;-;8.605255;-1.7487793;-6.4086;-;-;-;-;-;-;-;-;-;-;-;-;-;-;-
1513496535243;-;-;12.129517;-2.6418152;-4.2454376;-;-;-;-;-;-;-;-;-;-;-;-;-;-;-
1513496535263;-;-;7.585327;0.52093506;-4.6680145;-;-;-;-;-;-;-;-;-;-;-;-;-;-;-
1513496535284;-;-;12.425201;-1.3633118;0.12159729;-;-;-;-;-;-;-;-;-;-;-;-;-;-;-
1513496535303;-;-;7.5290527;-0.8174286;-2.8508148;-;-;-;-;-;-;-;-;-;-;-;-;-;-;-
1513496535323;-;-;6.6455994;-2.0193176;-0.2854309;-;-;-;-;-;-;-;-;-;-;-;-;-;-;-
1513496535343;-;-;5.980011;-2.1294556;-3.6504822;-;-;-;-;-;-;-;-;-;-;-;-;-;-;-
1513496535364;-;-;5.8040314;-1.8996124;-4.0395355;-;-;-;-;-;-;-;-;-;-;-;-;-;-;-
1513496535384;-;-;7.6391907;-1.8960114;-5.8100433;-;-;-;-;-;-;-;-;-;-;-;-;-;-;-
1513496535405;-;-;10.42485;-2.3556976;-1.416687;-;-;-;-;-;-;-;-;-;-;-;-;-;-;-
1513496535425;-;-;8.552582;-2.5101318;-0.7163849;-;-;-;-;-;-;-;-;-;-;-;-;-;-;-
1513496535445;-;-;7.5122986;-3.2786713;-6.3834534;-;-;-;-;-;-;-;-;-;-;-;-;-;-;-
1513496535466;-;-;10.276398;-3.1278381;-2.6484985;-;-;-;-;-;-;-;-;-;-;-;-;-;-;-
1513496535487;-;-;10.793549;-2.348526;0.49269104;-;-;-;-;-;-;-;-;-;-;-;-;-;-;-
1513496535507;-;-;9.67186;-1.953476;-3.567871;-;-;-;-;-;-;-;-;-;-;-;-;-;-;-
1513496535529;-;-;8.052185;-0.7886963;0.4759369;-;-;-;-;-;-;-;-;-;-;-;-;-;-;-
1513496535548;-;-;7.6068726;-1.1693726;0.96435547;-;-;-;-;-;-;-;-;-;-;-;-;-;-;-
1513496535569;-;-;8.405334;-2.1222687;-2.8867188;-;-;-;-;-;-;-;-;-;-;-;-;-;-;-
1513496535589;-;-;7.9899445;-2.1186829;-4.1736145;-;-;-;-;-;-;-;-;-;-;-;-;-;-;-
1513496535610;-;-;10.017822;-3.0631866;-4.5854034;-;-;-;-;-;-;-;-;-;-;-;-;-;-;-
1513496535630;-;-;9.720947;-3.7024384;-3.1153717;-;-;-;-;-;-;-;-;-;-;-;-;-;-;-
1513496535651;-;-;8.619614;-2.8058167;-3.0064392;-;-;-;-;-;-;-;-;-;-;-;-;-;-;-
1513496535671;-;-;7.645172;-2.20607;-4.0191803;-;-;-;-;-;-;-;-;-;-;-;-;-;-;-
1513496535692;-;-;8.292801;-1.8182068;-2.819687;-;-;-;-;-;-;-;-;-;-;-;-;-;-;-
1513496535712;-;-;8.5082855;-1.4494934;-2.8974915;-;-;-;-;-;-;-;-;-;-;-;-;-;-;-
1513496535732;-;-;6.6419983;-1.8325653;-3.080658;-;-;-;-;-;-;-;-;-;-;-;-;-;-;-
1513496535753;-;-;7.3662567;-3.0715637;-4.306488;-;-;-;-;-;-;-;-;-;-;-;-;-;-;-
1513496535774;-;-;7.8917847;-3.7060394;-4.246628;-;-;-;-;-;-;-;-;-;-;-;-;-;-;-
1513496535794;-;-;9.288788;-2.8572845;-2.9513702;-;-;-;-;-;-;-;-;-;-;-;-;-;-;-
1513496535815;-;-;9.224152;-2.0767822;-0.27824402;-;-;-;-;-;-;-;-;-;-;-;-;-;-;-
1513496535835;-;-;7.842697;-2.2324066;-2.3611908;-;-;-;-;-;-;-;-;-;-;-;-;-;-;-
1513496535855;-;-;9.90889;-3.0081177;-3.9485474;-;-;-;-;-;-;-;-;-;-;-;-;-;-;-
1513496535876;-;-;9.9591675;-4.048401;-2.6353302;-;-;-;-;-;-;-;-;-;-;-;-;-;-;-
1513496535896;-;-;8.017471;-4.0232697;-3.235077;-;-;-;-;-;-;-;-;-;-;-;-;-;-;-
1513496535917;-;-;11.17543;-2.8692627;-2.428238;-;-;-;-;-;-;-;-;-;-;-;-;-;-;-
1513496535937;-;-;9.7017975;-2.7124329;-1.1497345;-;-;-;-;-;-;-;-;-;-;-;-;-;-;-
1513496535958;-;-;9.143951;-2.8752441;-0.9342499;-;-;-;-;-;-;-;-;-;-;-;-;-;-;-
1513496535979;-;-;8.48793;-2.8477173;-1.8775635;-;-;-;-;-;-;-;-;-;-;-;-;-;-;-
1513496535998;-;-;8.349075;-2.652588;-2.13974;-;-;-;-;-;-;-;-;-;-;-;-;-;-;-
1513496536018;-;-;7.1292267;-2.281479;-2.3552094;-;-;-;-;-;-;-;-;-;-;-;-;-;-;-
1513496536038;-;-;6.9556427;-2.36409;-2.036789;-;-;-;-;-;-;-;-;-;-;-;-;-;-;-
1513496536059;-;-;7.5984955;-2.7040558;0.14433289;-;-;-;-;-;-;-;-;-;-;-;-;-;-;-
1513496536079;-;-;8.651932;-2.1701508;-2.5982208;-;-;-;-;-;-;-;-;-;-;-;-;-;-;-
1513496536100;-;-;8.82312;-2.9793854;-2.251068;-;-;-;-;-;-;-;-;-;-;-;-;-;-;-
1513496536120;-;-;9.135559;-2.5867462;-2.828064;-;-;-;-;-;-;-;-;-;-;-;-;-;-;-
1513496536141;-;-;8.965576;-2.3796387;-3.0986176;-;-;-;-;-;-;-;-;-;-;-;-;-;-;-
1513496536161;-;-;8.855438;-2.6250458;-2.5599213;-;-;-;-;-;-;-;-;-;-;-;-;-;-;-
1513496536182;-;-;8.40892;-2.245575;-2.7430725;-;-;-;-;-;-;-;-;-;-;-;-;-;-;-
1513496536202;-;-;7.778061;-2.3784485;-2.5371704;-;-;-;-;-;-;-;-;-;-;-;-;-;-;-
1513496536223;-;-;7.4644165;-2.5137177;-1.8153229;-;-;-;-;-;-;-;-;-;-;-;-;-;-;-
1513496536243;-;-;9.461182;-2.8357391;-3.2374725;-;-;-;-;-;-;-;-;-;-;-;-;-;-;-
1513496536264;-;-;9.549759;-3.4701996;-2.6473083;-;-;-;-;-;-;-;-;-;-;-;-;-;-;-
1513496536283;-;-;9.585678;-2.949463;-2.7167358;-;-;-;-;-;-;-;-;-;-;-;-;-;-;-
1513496536303;-;-;8.181473;-1.9175568;-3.4661255;-;-;-;-;-;-;-;-;-;-;-;-;-;-;-
1513496536324;-;-;8.690247;-2.30542;-2.570694;-;-;-;-;-;-;-;-;-;-;-;-;-;-;-
1513496536344;-;-;8.180283;-2.3461304;-3.3308563;-;-;-;-;-;-;-;-;-;-;-;-;-;-;-
1513496536365;-;-;8.833893;-2.447876;-2.6832123;-;-;-;-;-;-;-;-;-;-;-;-;-;-;-
1513496536385;-;-;9.346252;-2.3269653;-3.1237488;-;-;-;-;-;-;-;-;-;-;-;-;-;-;-
1513496536406;-;-;9.738907;-2.5137177;-3.0615082;-;-;-;-;-;-;-;-;-;-;-;-;-;-;-
1513496536426;-;-;8.033035;-0.31704712;-2.144516;-;-;-;-;-;-;-;-;-;-;-;-;-;-;-
1513496536447;-;-;7.7888336;-1.4973755;-2.4461975;-;-;-;-;-;-;-;-;-;-;-;-;-;-;-
1513496536466;-;-;7.478775;-1.3142242;-2.4354248;-;-;-;-;-;-;-;-;-;-;-;-;-;-;-
1513496536487;-;-;8.089294;-1.2244415;-2.768219;-;-;-;-;-;-;-;-;-;-;-;-;-;-;-
1513496536508;-;-;7.533844;-1.3633118;-3.8839111;-;-;-;-;-;-;-;-;-;-;-;-;-;-;-
1513496536527;-;-;9.051773;-2.0540314;-3.2686005;-;-;-;-;-;-;-;-;-;-;-;-;-;-;-
1513496536548;-;-;8.972763;-1.6194916;-2.610199;-;-;-;-;-;-;-;-;-;-;-;-;-;-;-
1513496536568;-;-;8.540604;-0.77194214;-2.412674;-;-;-;-;-;-;-;-;-;-;-;-;-;-;-
1513496536588;-;-;9.027832;-1.3501434;-4.009598;-;-;-;-;-;-;-;-;-;-;-;-;-;-;-
1513496536609;-;-;8.56575;-1.364502;-3.6552582;-;-;-;-;-;-;-;-;-;-;-;-;-;-;-
1513496536629;-;-;8.453217;-1.2005005;-3.3966827;-;-;-;-;-;-;-;-;-;-;-;-;-;-;-
1513496536650;-;-;7.6152496;-1.194519;-3.3715515;-;-;-;-;-;-;-;-;-;-;-;-;-;-;-
1513496536670;-;-;8.274857;-1.4327393;-3.432602;-;-;-;-;-;-;-;-;-;-;-;-;-;-;-
1513496536691;-;-;8.369415;-1.1382446;-3.919815;-;-;-;-;-;-;-;-;-;-;-;-;-;-;-
1513496536711;-;-;9.935226;-1.1957092;-3.994049;-;-;-;-;-;-;-;-;-;-;-;-;-;-;-
1513496536731;-;-;10.320694;-0.8102417;-3.4589386;-;-;-;-;-;-;-;-;-;-;-;-;-;-;-
1513496536752;-;-;10.849808;-0.7551727;-2.3695831;-;-;-;-;-;-;-;-;-;-;-;-;-;-;-
1513496536771;-;-;9.519836;-0.74320984;-1.8931274;-;-;-;-;-;-;-;-;-;-;-;-;-;-;-
1513496536792;-;-;8.7812195;-1.0496674;-2.0750885;-;-;-;-;-;-;-;-;-;-;-;-;-;-;-
1513496536812;-;-;8.917694;-0.5708313;-1.9685516;-;-;-;-;-;-;-;-;-;-;-;-;-;-;-
1513496536833;-;-;9.637146;0.04447937;-1.7937775;-;-;-;-;-;-;-;-;-;-;-;-;-;-;-
1513496536854;-;-;9.9040985;0.96624756;-2.9322205;-;-;-;-;-;-;-;-;-;-;-;-;-;-;-
1513496536874;-;-;9.956772;1.6581726;-2.9908752;-;-;-;-;-;-;-;-;-;-;-;-;-;-;-
1513496536894;-;-;9.06134;1.3361511;-3.2530365;-;-;-;-;-;-;-;-;-;-;-;-;-;-;-
1513496536914;-;-;10.130356;2.1525726;-1.8488312;-;-;-;-;-;-;-;-;-;-;-;-;-;-;-
1513496536935;-;-;8.940445;0.52931213;-2.2259216;-;-;-;-;-;-;-;-;-;-;-;-;-;-;-
1513496536954;-;-;8.174301;-0.14346313;-1.9637604;-;-;-;-;-;-;-;-;-;-;-;-;-;-;-
1513496536975;-;-;6.110489;-0.46188354;-1.847641;-;-;-;-;-;-;-;-;-;-;-;-;-;-;-
1513496536995;-;-;7.099304;-0.29788208;-2.3671875;-;-;-;-;-;-;-;-;-;-;-;-;-;-;-
1513496537016;-;-;8.078522;0.17855835;-2.1373444;-;-;-;-;-;-;-;-;-;-;-;-;-;-;-
1513496537036;-;-;8.373016;0.7076721;-2.4809113;-;-;-;-;-;-;-;-;-;-;-;-;-;-;-
1513496537056;-;-;8.540604;1.288269;-2.8053284;-;-;-;-;-;-;-;-;-;-;-;-;-;-;-
1513496537077;-;-;8.266464;1.4786072;-3.2817688;-;-;-;-;-;-;-;-;-;-;-;-;-;-;-
1513496537097;-;-;8.371811;1.109909;-4.0670624;-;-;-;-;-;-;-;-;-;-;-;-;-;-;-
1513496537118;-;-;7.2261963;0.54966736;-4.006012;-;-;-;-;-;-;-;-;-;-;-;-;-;-;-
1513496537138;-;-;6.0638123;-0.100372314;-4.7865295;-;-;-;-;-;-;-;-;-;-;-;-;-;-;-
1513496537158;-;-;5.723831;-0.9586792;-5.6951294;-;-;-;-;-;-;-;-;-;-;-;-;-;-;-
1513496537179;-;-;6.493561;-2.1091003;-7.3770447;-;-;-;-;-;-;-;-;-;-;-;-;-;-;-
1513496537199;-;-;7.2034454;-1.0376892;-6.279312;-;-;-;-;-;-;-;-;-;-;-;-;-;-;-
1513496537219;-;-;7.5075073;-0.19013977;-5.192337;-;-;-;-;-;-;-;-;-;-;-;-;-;-;-
1513496537240;-;-;8.581314;-1.0269165;-4.8379974;-;-;-;-;-;-;-;-;-;-;-;-;-;-;-
1513496537260;-;-;9.327103;-1.9630585;-6.1236877;-;-;-;-;-;-;-;-;-;-;-;-;-;-;-
1513496537281;-;-;10.533783;-2.348526;-5.59935;-;-;-;-;-;-;-;-;-;-;-;-;-;-;-
1513496537301;-;-;6.996353;-2.5795593;-5.966858;-;-;-;-;-;-;-;-;-;-;-;-;-;-;-
1513496537321;-;-;9.590469;-3.9394684;-6.492386;-;-;-;-;-;-;-;-;-;-;-;-;-;-;-
1513496537342;-;-;10.331467;-4.3632355;-5.5682373;-;-;-;-;-;-;-;-;-;-;-;-;-;-;-
1513496537362;-;-;5.9381104;-1.8936157;-3.0902252;-;-;-;-;-;-;-;-;-;-;-;-;-;-;-
1513496537383;-;-;4.563843;-2.0707855;-3.5259705;-;-;-;-;-;-;-;-;-;-;-;-;-;-;-
1513496537402;-;-;4.458496;-1.7164459;-3.9246063;-;-;-;-;-;-;-;-;-;-;-;-;-;-;-
1513496537423;-;-;4.770935;-0.8880615;-3.8312378;-;-;-;-;-;-;-;-;-;-;-;-;-;-;-
1513496537443;-;-;6.9855804;-1.4375305;-5.9142;-;-;-;-;-;-;-;-;-;-;-;-;-;-;-
1513496537464;-;-;6.3858185;-1.2819061;-4.713501;-;-;-;-;-;-;-;-;-;-;-;-;-;-;-
1513496537486;-;-;5.849518;-0.8198242;-3.994049;-;-;-;-;-;-;-;-;-;-;-;-;-;-;-
1513496537505;-;-;5.663971;-0.7707367;-3.8013153;-;-;-;-;-;-;-;-;-;-;-;-;-;-;-
1513496537526;-;-;4.6069336;-0.59954834;-4.076645;-;-;-;-;-;-;-;-;-;-;-;-;-;-;-
1513496537546;-;-;3.332016;-0.7420044;-4.3759155;-;-;-;-;-;-;-;-;-;-;-;-;-;-;-
1513496537567;-;-;6.078171;-1.6266632;-5.446121;-;-;-;-;-;-;-;-;-;-;-;-;-;-;-
1513496537587;-;-;4.6943207;-1.020935;-6.5929413;-;-;-;-;-;-;-;-;-;-;-;-;-;-;-
1513496537607;-;-;6.315201;0.17736816;-5.3527527;-;-;-;-;-;-;-;-;-;-;-;-;-;-;-
1513496537628;-;-;7.0933075;-0.71687317;-5.294098;-;-;-;-;-;-;-;-;-;-;-;-;-;-;-
1513496537647;-;-;8.1922455;-1.6302643;-5.9261627;-;-;-;-;-;-;-;-;-;-;-;-;-;-;-
1513496537668;-;-;7.384201;-1.5560455;-5.0211487;-;-;-;-;-;-;-;-;-;-;-;-;-;-;-
1513496537687;-;-;6.5977173;-1.3680878;-5.674774;-;-;-;-;-;-;-;-;-;-;-;-;-;-;-
1513496537708;-;-;6.4085693;-1.0616302;-6.7198486;-;-;-;-;-;-;-;-;-;-;-;-;-;-;-
1513496537730;-;-;7.3231506;-1.0173492;-7.015518;-;-;-;-;-;-;-;-;-;-;-;-;-;-;-
1513496537749;-;-;8.153946;-0.47505188;-7.7481537;-;-;-;-;-;-;-;-;-;-;-;-;-;-;-
1513496537769;-;-;8.9991;-0.6546173;-7.5685883;-;-;-;-;-;-;-;-;-;-;-;-;-;-;-
1513496537790;-;-;8.041412;-0.6618042;-6.721039;-;-;-;-;-;-;-;-;-;-;-;-;-;-;-
1513496537809;-;-;8.106064;-0.4092102;-6.384659;-;-;-;-;-;-;-;-;-;-;-;-;-;-;-
1513496537829;-;-;8.1371765;-0.06324768;-6.325989;-;-;-;-;-;-;-;-;-;-;-;-;-;-;-
1513496537850;-;-;7.4991302;0.19770813;-6.6360474;-;-;-;-;-;-;-;-;-;-;-;-;-;-;-
1513496537871;-;-;7.216614;0.2635498;-6.959259;-;-;-;-;-;-;-;-;-;-;-;-;-;-;-
1513496537891;-;-;7.1639404;0.28749084;-7.4907684;-;-;-;-;-;-;-;-;-;-;-;-;-;-;-
1513496537911;-;-;8.185074;0.07081604;-7.213043;-;-;-;-;-;-;-;-;-;-;-;-;-;-;-
1513496537932;-;-;8.519058;-0.29908752;-6.6695557;-;-;-;-;-;-;-;-;-;-;-;-;-;-;-
1513496537952;-;-;8.948822;-0.28831482;-6.366699;-;-;-;-;-;-;-;-;-;-;-;-;-;-;-
1513496537972;-;-;9.491104;-0.5756073;-6.717453;-;-;-;-;-;-;-;-;-;-;-;-;-;-;-
1513496537993;-;-;11.110779;-0.40083313;-6.663574;-;-;-;-;-;-;-;-;-;-;-;-;-;-;-
1513496538013;-;-;13.72406;-0.011779785;-6.0961456;-;-;-;-;-;-;-;-;-;-;-;-;-;-;-
1513496538033;-;-;16.257126;-0.05368042;-6.855118;-;-;-;-;-;-;-;-;-;-;-;-;-;-;-
1513496538054;-;-;14.166977;0.7878876;-8.140793;-;-;-;-;-;-;-;-;-;-;-;-;-;-;-
1513496538075;-;-;11.715317;2.2315826;-7.8535004;-;-;-;-;-;-;-;-;-;-;-;-;-;-;-
1513496538095;-;-;11.201767;-0.30267334;-4.6093597;-;-;-;-;-;-;-;-;-;-;-;-;-;-;-
1513496538115;-;-;8.917694;-1.5285034;-1.9470062;-;-;-;-;-;-;-;-;-;-;-;-;-;-;-
1513496538136;-;-;5.964447;-2.0157318;0.9128723;-;-;-;-;-;-;-;-;-;-;-;-;-;-;-
1513496538156;-;-;4.588974;-1.6518097;1.7245026;-;-;-;-;-;-;-;-;-;-;-;-;-;-;-
1513496538177;-;-;5.320404;-0.56604004;0.93562317;-;-;-;-;-;-;-;-;-;-;-;-;-;-;-
1513496538198;-;-;6.774887;-0.012969971;-0.59547424;-;-;-;-;-;-;-;-;-;-;-;-;-;-;-
1513496538218;-;-;8.879379;-0.016571045;-2.093048;-;-;-;-;-;-;-;-;-;-;-;-;-;-;-
1513496538238;-;-;9.232529;-0.50019836;-1.7758179;-;-;-;-;-;-;-;-;-;-;-;-;-;-;-
1513496538259;-;-;10.5325775;-1.3166199;-1.6573029;-;-;-;-;-;-;-;-;-;-;-;-;-;-;-
1513496538279;-;-;10.781586;-1.5692139;-0.5942688;-;-;-;-;-;-;-;-;-;-;-;-;-;-;-
1513496538299;-;-;10.390121;-1.1609955;-0.66729736;-;-;-;-;-;-;-;-;-;-;-;-;-;-;-
1513496538320;-;-;10.554138;-0.9754486;0.15031433;-;-;-;-;-;-;-;-;-;-;-;-;-;-;-
1513496538340;-;-;10.080078;-0.9155884;0.9499817;-;-;-;-;-;-;-;-;-;-;-;-;-;-;-
1513496538360;-;-;9.379776;-1.214859;1.5114288;-;-;-;-;-;-;-;-;-;-;-;-;-;-;-
1513496538380;-;-;8.799179;-1.4973755;2.2608032;-;-;-;-;-;-;-;-;-;-;-;-;-;-;-
1513496538401;-;-;8.261688;-1.6123047;2.2859497;-;-;-;-;-;-;-;-;-;-;-;-;-;-;-
1513496538422;-;-;8.204224;-1.0712128;1.8430176;-;-;-;-;-;-;-;-;-;-;-;-;-;-;-
1513496538441;-;-;8.050995;-0.27275085;1.5018463;-;-;-;-;-;-;-;-;-;-;-;-;-;-;-
1513496538462;-;-;8.431671;-0.14225769;1.0194092;-;-;-;-;-;-;-;-;-;-;-;-;-;-;-
1513496538481;-;-;9.087677;-0.01776123;0.350235;-;-;-;-;-;-;-;-;-;-;-;-;-;-;-
1513496538502;-;-;9.306747;-0.24162292;0.06173706;-;-;-;-;-;-;-;-;-;-;-;-;-;-;-
1513496538522;-;-;9.268448;-0.3254242;0.13116455;-;-;-;-;-;-;-;-;-;-;-;-;-;-;-
1513496538542;-;-;9.066132;-0.3002777;0.33348083;-;-;-;-;-;-;-;-;-;-;-;-;-;-;-
1513496538563;-;-;9.066132;-0.3182373;0.844635;-;-;-;-;-;-;-;-;-;-;-;-;-;-;-
1513496538583;-;-;9.09845;-0.71328735;1.1582794;-;-;-;-;-;-;-;-;-;-;-;-;-;-;-
1513496538604;-;-;9.067337;-0.838974;1.0912476;-;-;-;-;-;-;-;-;-;-;-;-;-;-;-
1513496538624;-;-;9.102051;-0.8210144;1.236084;-;-;-;-;-;-;-;-;-;-;-;-;-;-;-
1513496538644;-;-;9.058945;-0.81503296;1.4216461;-;-;-;-;-;-;-;-;-;-;-;-;-;-;-
1513496538665;-;-;9.046982;-0.7420044;1.5114288;-;-;-;-;-;-;-;-;-;-;-;-;-;-;-
1513496538684;-;-;8.988327;-0.7420044;1.6323242;-;-;-;-;-;-;-;-;-;-;-;-;-;-;-
1513496538705;-;-;8.995499;-1.0544586;1.6131744;-;-;-;-;-;-;-;-;-;-;-;-;-;-;-
1513496538724;-;-;9.560532;-1.0999451;1.3893127;-;-;-;-;-;-;-;-;-;-;-;-;-;-;-
1513496538745;-;-;9.869385;-0.8353882;1.0002594;-;-;-;-;-;-;-;-;-;-;-;-;-;-;-
1513496538764;-;-;10.1961975;-0.48223877;0.83625793;-;-;-;-;-;-;-;-;-;-;-;-;-;-;-
1513496538784;-;-;10.143524;-0.08958435;0.8135071;-;-;-;-;-;-;-;-;-;-;-;-;-;-;-
1513496538805;-;-;10.054947;0.2635498;0.70217896;-;-;-;-;-;-;-;-;-;-;-;-;-;-;-
1513496538826;-;-;9.764038;0.3892517;0.31910706;-;-;-;-;-;-;-;-;-;-;-;-;-;-;-
1513496538845;-;-;9.628769;0.29109192;0.1431427;-;-;-;-;-;-;-;-;-;-;-;-;-;-;-
1513496538866;-;-;9.464767;0.04927063;-0.09388733;-;-;-;-;-;-;-;-;-;-;-;-;-;-;-
1513496538885;-;-;9.070923;-0.14225769;-0.5918884;-;-;-;-;-;-;-;-;-;-;-;-;-;-;-
1513496538906;-;-;8.631592;-0.3757019;-0.99890137;-;-;-;-;-;-;-;-;-;-;-;-;-;-;-
1513496538926;-;-;8.630386;-0.46548462;-1.2490845;-;-;-;-;-;-;-;-;-;-;-;-;-;-;-
1513496538946;-;-;9.009872;-0.2775421;-1.5136566;-;-;-;-;-;-;-;-;-;-;-;-;-;-;-
1513496538967;-;-;9.479141;-0.45948792;-1.4585876;-;-;-;-;-;-;-;-;-;-;-;-;-;-;-
1513496538988;-;-;9.896927;-0.011779785;-1.9865112;-;-;-;-;-;-;-;-;-;-;-;-;-;-;-
1513496539008;-;-;9.989105;0.074417114;-1.8201141;-;-;-;-;-;-;-;-;-;-;-;-;-;-;-
1513496539028;-;-;9.473145;0.59994507;-1.5687103;-;-;-;-;-;-;-;-;-;-;-;-;-;-;-
1513496539049;-;-;8.532227;0.35572815;-1.353241;-;-;-;-;-;-;-;-;-;-;-;-;-;-;-
1513496539068;-;-;9.195419;-0.3936615;-0.9258728;-;-;-;-;-;-;-;-;-;-;-;-;-;-;-
1513496539089;-;-;9.743698;-0.42477417;-0.9450226;-;-;-;-;-;-;-;-;-;-;-;-;-;-;-
1513496539109;-;-;8.878189;0.12828064;-1.6177979;-;-;-;-;-;-;-;-;-;-;-;-;-;-;-
1513496539130;-;-;8.612427;0.2515869;-1.4741516;-;-;-;-;-;-;-;-;-;-;-;-;-;-;-
1513496539150;-;-;9.038605;0.4694519;-0.8348999;-;-;-;-;-;-;-;-;-;-;-;-;-;-;-
1513496539171;-;-;9.250488;-0.4738617;-1.0862885;-;-;-;-;-;-;-;-;-;-;-;-;-;-;-
1513496539191;-;-;9.8993225;-0.1015625;-1.8787689;-;-;-;-;-;-;-;-;-;-;-;-;-;-;-
1513496539212;-;-;9.590469;1.114685;-1.4980927;-;-;-;-;-;-;-;-;-;-;-;-;-;-;-
1513496539232;-;-;9.408508;0.88723755;-1.456192;-;-;-;-;-;-;-;-;-;-;-;-;-;-;-
1513496539253;-;-;8.815933;0.8130188;-1.2778168;-;-;-;-;-;-;-;-;-;-;-;-;-;-;-
1513496539272;-;-;8.783615;0.3712921;-0.73672485;-;-;-;-;-;-;-;-;-;-;-;-;-;-;-
1513496539293;-;-;8.056976;0.01574707;-0.6230011;-;-;-;-;-;-;-;-;-;-;-;-;-;-;-
1513496539312;-;-;7.7361603;-0.1877594;-0.7846222;-;-;-;-;-;-;-;-;-;-;-;-;-;-;-
1513496539332;-;-;8.716583;0.11392212;-0.45420837;-;-;-;-;-;-;-;-;-;-;-;-;-;-;-
1513496539353;-;-;9.486313;0.44192505;-0.7846222;-;-;-;-;-;-;-;-;-;-;-;-;-;-;-
1513496539373;-;-;9.388153;0.064834595;-1.4107056;-;-;-;-;-;-;-;-;-;-;-;-;-;-;-
1513496539394;-;-;9.244507;-0.40322876;-1.3460541;-;-;-;-;-;-;-;-;-;-;-;-;-;-;-
1513496539414;-;-;9.49231;-0.44154358;-0.8887634;-;-;-;-;-;-;-;-;-;-;-;-;-;-;-
1513496539434;-;-;9.845444;-0.24281311;-0.7786255;-;-;-;-;-;-;-;-;-;-;-;-;-;-;-
1513496539455;-;-;9.440826;0.02532959;-1.1018524;-;-;-;-;-;-;-;-;-;-;-;-;-;-;-
1513496539476;-;-;8.97995;0.2922821;-0.64575195;-;-;-;-;-;-;-;-;-;-;-;-;-;-;-
1513496539496;-;-;9.797562;-0.33738708;0.13476563;-;-;-;-;-;-;-;-;-;-;-;-;-;-;-
1513496539516;-;-;9.497086;-0.88087463;-0.06994629;-;-;-;-;-;-;-;-;-;-;-;-;-;-;-
1513496539537;-;-;8.531036;-0.6689911;-0.1309967;-;-;-;-;-;-;-;-;-;-;-;-;-;-;-
1513496539557;-;-;8.452026;-0.026138306;-0.29859924;-;-;-;-;-;-;-;-;-;-;-;-;-;-;-
1513496539578;-;-;9.331894;0.30665588;-0.44343567;-;-;-;-;-;-;-;-;-;-;-;-;-;-;-
1513496539599;-;-;9.669479;0.026535034;-0.5727234;-;-;-;-;-;-;-;-;-;-;-;-;-;-;-
1513496539618;-;-;9.382172;-0.6246948;-0.8025665;-;-;-;-;-;-;-;-;-;-;-;-;-;-;-
1513496539639;-;-;9.183456;-0.5612488;-0.8241272;-;-;-;-;-;-;-;-;-;-;-;-;-;-;-
1513496539659;-;-;9.425262;0.39164734;0.06173706;-;-;-;-;-;-;-;-;-;-;-;-;-;-;-
1513496539679;-;-;8.82312;0.85372925;-0.8312988;-;-;-;-;-;-;-;-;-;-;-;-;-;-;-
1513496539699;-;-;9.013458;1.1051178;-1.1138153;-;-;-;-;-;-;-;-;-;-;-;-;-;-;-
1513496539720;-;-;9.760452;0.64782715;-1.0826874;-;-;-;-;-;-;-;-;-;-;-;-;-;-;-
1513496539741;-;-;9.609619;0.19770813;-1.0910797;-;-;-;-;-;-;-;-;-;-;-;-;-;-;-
1513496539760;-;-;9.017059;-0.0010070801;-1.104248;-;-;-;-;-;-;-;-;-;-;-;-;-;-;-
1513496539781;-;-;8.718979;-0.15423584;-1.0515747;-;-;-;-;-;-;-;-;-;-;-;-;-;-;-
1513496539801;-;-;8.914108;-0.018966675;-0.946228;-;-;-;-;-;-;-;-;-;-;-;-;-;-;-
1513496539822;-;-;9.14035;0.2635498;-1.0970612;-;-;-;-;-;-;-;-;-;-;-;-;-;-;-
1513496539842;-;-;9.300766;0.42515564;-1.1940308;-;-;-;-;-;-;-;-;-;-;-;-;-;-;-
1513496539862;-;-;9.3103485;0.46466064;-1.2502899;-;-;-;-;-;-;-;-;-;-;-;-;-;-;-
1513496539883;-;-;9.37619;0.40600586;-1.416687;-;-;-;-;-;-;-;-;-;-;-;-;-;-;-
1513496539903;-;-;9.263657;0.22285461;-1.392746;-;-;-;-;-;-;-;-;-;-;-;-;-;-;-
1513496539924;-;-;9.212173;0.12348938;-1.3256989;-;-;-;-;-;-;-;-;-;-;-;-;-;-;-
1513496539944;-;-;9.226547;0.14263916;-1.2454987;-;-;-;-;-;-;-;-;-;-;-;-;-;-;-
1513496539965;-;-;9.160706;0.074417114;-1.2574768;-;-;-;-;-;-;-;-;-;-;-;-;-;-;-
1513496539985;-;-;9.1128235;-0.00819397;-1.1988068;-;-;-;-;-;-;-;-;-;-;-;-;-;-;-
1513496540005;-;-;9.116409;-0.24520874;-1.124588;-;-;-;-;-;-;-;-;-;-;-;-;-;-;-
1513496540026;-;-;9.173874;-0.39604187;-1.1748657;-;-;-;-;-;-;-;-;-;-;-;-;-;-;-
1513496540047;-;-;9.242111;-0.5444946;-1.2454987;-;-;-;-;-;-;-;-;-;-;-;-;-;-;-
1513496540066;-;-;9.274429;-0.59835815;-1.2634583;-;-;-;-;-;-;-;-;-;-;-;-;-;-;-
1513496540087;-;-;9.3103485;-0.61631775;-1.3161316;-;-;-;-;-;-;-;-;-;-;-;-;-;-;-
1513496540107;-;-;9.2708435;-0.54927063;-1.4142914;-;-;-;-;-;-;-;-;-;-;-;-;-;-;-
1513496540128;-;-;9.257675;-0.43675232;-1.4777374;-;-;-;-;-;-;-;-;-;-;-;-;-;-;-
1513496540148;-;-;9.268448;-0.3146515;-1.5304108;-;-;-;-;-;-;-;-;-;-;-;-;-;-;-
1513496540169;-;-;9.300766;-0.25120544;-1.5543518;-;-;-;-;-;-;-;-;-;-;-;-;-;-;-
1513496540189;-;-;9.291183;-0.22486877;-1.4693604;-;-;-;-;-;-;-;-;-;-;-;-;-;-;-
1513496540209;-;-;9.232529;-0.15065002;-1.452591;-;-;-;-;-;-;-;-;-;-;-;-;-;-;-
1513496540230;-;-;9.23732;-0.15663147;-1.4178772;-;-;-;-;-;-;-;-;-;-;-;-;-;-;-
1513496540250;-;-;9.212173;-0.119522095;-1.4585876;-;-;-;-;-;-;-;-;-;-;-;-;-;-;-
1513496540270;-;-;9.195419;-0.074035645;-1.4454193;-;-;-;-;-;-;-;-;-;-;-;-;-;-;-
1513496540291;-;-;9.154724;-0.062057495;-1.4693604;-;-;-;-;-;-;-;-;-;-;-;-;-;-;-
1513496540312;-;-;9.129578;-0.06324768;-1.5244293;-;-;-;-;-;-;-;-;-;-;-;-;-;-;-
1513496540331;-;-;9.161896;-0.047698975;-1.4980927;-;-;-;-;-;-;-;-;-;-;-;-;-;-;-
1513496540352;-;-;9.199005;-0.06324768;-1.6261749;-;-;-;-;-;-;-;-;-;-;-;-;-;-;-
1513496540372;-;-;9.114014;-0.02973938;-1.5567474;-;-;-;-;-;-;-;-;-;-;-;-;-;-;-
1513496540393;-;-;9.134369;-0.08001709;-1.5579376;-;-;-;-;-;-;-;-;-;-;-;-;-;-;-
1513496540413;-;-;9.197815;-0.064453125;-1.6441345;-;-;-;-;-;-;-;-;-;-;-;-;-;-;-
1513496540433;-;-;9.115219;-0.069244385;-1.5986481;-;-;-;-;-;-;-;-;-;-;-;-;-;-;-
1513496540454;-;-;9.12001;-0.05607605;-1.5304108;-;-;-;-;-;-;-;-;-;-;-;-;-;-;-
1513496540474;-;-;9.124786;-0.06803894;-1.5483704;-;-;-;-;-;-;-;-;-;-;-;-;-;-;-
1513496540495;-;-;9.148727;-0.07043457;-1.5591431;-;-;-;-;-;-;-;-;-;-;-;-;-;-;-
1513496540515;-;-;9.14035;-0.03930664;-1.6082153;-;-;-;-;-;-;-;-;-;-;-;-;-;-;-
1513496540535;-;-;9.15712;-0.03213501;-1.6285706;-;-;-;-;-;-;-;-;-;-;-;-;-;-;-
1513496540556;-;-;9.173874;-0.09916687;-1.6058197;-;-;-;-;-;-;-;-;-;-;-;-;-;-;-
1513496540577;-;-;9.164291;-0.11114502;-1.5914612;-;-;-;-;-;-;-;-;-;-;-;-;-;-;-
1513496540596;-;-;9.129578;-0.10395813;-1.5926514;-;-;-;-;-;-;-;-;-;-;-;-;-;-;-
1513496540617;-;-;9.151123;-0.14225769;-1.5758972;-;-;-;-;-;-;-;-;-;-;-;-;-;-;-
1513496540638;-;-;9.1918335;-0.15782166;-1.5184326;-;-;-;-;-;-;-;-;-;-;-;-;-;-;-
1513496540658;-;-;9.179855;-0.12789917;-1.5172424;-;-;-;-;-;-;-;-;-;-;-;-;-;-;-
1513496540680;-;-;9.155914;-0.13508606;-1.4968872;-;-;-;-;-;-;-;-;-;-;-;-;-;-;-
1513496540699;-;-;9.153519;-0.102752686;-1.4657593;-;-;-;-;-;-;-;-;-;-;-;-;-;-;-
1513496540720;-;-;9.131973;-0.10874939;-1.4992828;-;-;-;-;-;-;-;-;-;-;-;-;-;-;-
1513496540740;-;-;9.145142;-0.109939575;-1.4777374;-;-;-;-;-;-;-;-;-;-;-;-;-;-;-
1513496540761;-;-;9.135559;-0.12669373;-1.4753418;-;-;-;-;-;-;-;-;-;-;-;-;-;-;-
1513496540781;-;-;9.160706;-0.085998535;-1.4537964;-;-;-;-;-;-;-;-;-;-;-;-;-;-;-
1513496540802;-;-;9.182251;-0.097976685;-1.48732;-;-;-;-;-;-;-;-;-;-;-;-;-;-;-
1513496540822;-;-;9.135559;-0.13867188;-1.5004883;-;-;-;-;-;-;-;-;-;-;-;-;-;-;-
1513496540843;-;-;9.12001;-0.052474976;-1.5459747;-;-;-;-;-;-;-;-;-;-;-;-;-;-;-
1513496540863;-;-;9.0972595;-0.05847168;-1.5579376;-;-;-;-;-;-;-;-;-;-;-;-;-;-;-
1513496540883;-;-;9.193024;-0.062057495;-1.5387878;-;-;-;-;-;-;-;-;-;-;-;-;-;-;-
1513496540904;-;-;9.205002;-0.04888916;-1.5663147;-;-;-;-;-;-;-;-;-;-;-;-;-;-;-
1513496540923;-;-;9.137955;-0.052474976;-1.5735016;-;-;-;-;-;-;-;-;-;-;-;-;-;-;-
1513496540943;-;-;9.234924;-0.09197998;-1.5735016;-;-;-;-;-;-;-;-;-;-;-;-;-;-;-
1513496540964;-;-;9.15712;-0.05847168;-1.618988;-;-;-;-;-;-;-;-;-;-;-;-;-;-;-
1513496540984;-;-;9.129578;-0.06324768;-1.4657593;-;-;-;-;-;-;-;-;-;-;-;-;-;-;-
1513496541004;-;-;9.136765;-0.0728302;-1.4286499;-;-;-;-;-;-;-;-;-;-;-;-;-;-;-
1513496541024;-;-;9.118805;-0.12669373;-1.392746;-;-;-;-;-;-;-;-;-;-;-;-;-;-;-
1513496541045;-;-;9.15831;-0.10874939;-1.4346466;-;-;-;-;-;-;-;-;-;-;-;-;-;-;-
1513496541064;-;-;9.167892;-0.105148315;-1.4454193;-;-;-;-;-;-;-;-;-;-;-;-;-;-;-
1513496541084;-;-;9.167892;-0.121917725;-1.4693604;-;-;-;-;-;-;-;-;-;-;-;-;-;-;-
1513496541105;-;-;9.143951;-0.112335205;-1.4657593;-;-;-;-;-;-;-;-;-;-;-;-;-;-;-
1513496541125;-;-;9.116409;-0.071640015;-1.4334412;-;-;-;-;-;-;-;-;-;-;-;-;-;-;-
1513496541146;-;-;9.148727;-0.074035645;-1.4442139;-;-;-;-;-;-;-;-;-;-;-;-;-;-;-
1513496541166;-;-;9.160706;-0.069244385;-1.4394226;-;-;-;-;-;-;-;-;-;-;-;-;-;-;-
1513496541186;-;-;9.17627;-0.06803894;-1.5004883;-;-;-;-;-;-;-;-;-;-;-;-;-;-;-
1513496541207;-;-;9.195419;-0.03453064;-1.5232239;-;-;-;-;-;-;-;-;-;-;-;-;-;-;-
1513496541228;-;-;9.15831;-0.03691101;-1.5579376;-;-;-;-;-;-;-;-;-;-;-;-;-;-;-
1513496541248;-;-;9.14035;-0.05128479;-1.4837189;-;-;-;-;-;-;-;-;-;-;-;-;-;-;-
1513496541268;-;-;9.172684;-0.06564331;-1.5028687;-;-;-;-;-;-;-;-;-;-;-;-;-;-;-
1513496541289;-;-;9.142746;-0.05847168;-1.5136566;-;-;-;-;-;-;-;-;-;-;-;-;-;-;-
1513496541310;-;-;9.166687;-0.042907715;-1.4705505;-;-;-;-;-;-;-;-;-;-;-;-;-;-;-
1513496541330;-;-;9.145142;-0.035720825;-1.495697;-;-;-;-;-;-;-;-;-;-;-;-;-;-;-
1513496541350;-;-;9.160706;-0.059661865;-1.5136566;-;-;-;-;-;-;-;-;-;-;-;-;-;-;-
1513496541371;-;-;9.178665;-0.07522583;-1.5220337;-;-;-;-;-;-;-;-;-;-;-;-;-;-;-
1513496541391;-;-;9.189438;-0.069244385;-1.5016785;-;-;-;-;-;-;-;-;-;-;-;-;-;-;-
1513496541412;-;-;9.141556;-0.05368042;-1.4418182;-;-;-;-;-;-;-;-;-;-;-;-;-;-;-
1513496541431;-;-;9.17627;-0.05847168;-1.4585876;-;-;-;-;-;-;-;-;-;-;-;-;-;-;-
1513496541451;-;-;9.183456;-0.078811646;-1.5280151;-;-;-;-;-;-;-;-;-;-;-;-;-;-;-
1513496541472;-;-;9.096069;-0.02015686;-1.4861145;-;-;-;-;-;-;-;-;-;-;-;-;-;-;-
1513496541491;-;-;9.183456;-0.047698975;-1.4765472;-;-;-;-;-;-;-;-;-;-;-;-;-;-;-
1513496541512;-;-;9.232529;-0.009384155;-1.5735016;-;-;-;-;-;-;-;-;-;-;-;-;-;-;-
1513496541533;-;-;9.165497;0.01574707;-1.5543518;-;-;-;-;-;-;-;-;-;-;-;-;-;-;-
1513496541553;-;-;9.151123;-0.07043457;-1.4358368;-;-;-;-;-;-;-;-;-;-;-;-;-;-;-
1513496541573;-;-;9.165497;-0.09916687;-1.3783722;-;-;-;-;-;-;-;-;-;-;-;-;-;-;-
1513496541593;-;-;9.13916;-0.078811646;-1.4214783;-;-;-;-;-;-;-;-;-;-;-;-;-;-;-
1513496541614;-;-;9.145142;-0.06324768;-1.4190826;-;-;-;-;-;-;-;-;-;-;-;-;-;-;-
1513496541634;-;-;9.145142;-0.047698975;-1.4609833;-;-;-;-;-;-;-;-;-;-;-;-;-;-;-
1513496541654;-;-;9.172684;-0.054870605;-1.4346466;-;-;-;-;-;-;-;-;-;-;-;-;-;-;-
1513496541675;-;-;9.146347;-0.09916687;-1.452591;-;-;-;-;-;-;-;-;-;-;-;-;-;-;-
1513496541696;-;-;9.135559;-0.08001709;-1.4992828;-;-;-;-;-;-;-;-;-;-;-;-;-;-;-
1513496541715;-;-;9.165497;-0.078811646;-1.492096;-;-;-;-;-;-;-;-;-;-;-;-;-;-;-
1513496541735;-;-;9.170288;-0.08958435;-1.4753418;-;-;-;-;-;-;-;-;-;-;-;-;-;-;-
1513496541756;-;-;9.155914;-0.076416016;-1.4741516;-;-;-;-;-;-;-;-;-;-;-;-;-;-;-
1513496541776;-;-;9.161896;-0.102752686;-1.432251;-;-;-;-;-;-;-;-;-;-;-;-;-;-;-
1513496541797;-;-;9.160706;-0.081207275;-1.4083099;-;-;-;-;-;-;-;-;-;-;-;-;-;-;-
1513496541817;-;-;9.17746;-0.06324768;-1.3939362;-;-;-;-;-;-;-;-;-;-;-;-;-;-;-
1513496541838;-;-;9.171478;-0.09437561;-1.4286499;-;-;-;-;-;-;-;-;-;-;-;-;-;-;-
1513496541858;-;-;9.183456;-0.064453125;-1.3903503;-;-;-;-;-;-;-;-;-;-;-;-;-;-;-
1513496541879;-;-;9.1918335;-0.081207275;-1.3831635;-;-;-;-;-;-;-;-;-;-;-;-;-;-;-
1513496541898;-;-;9.175064;-0.088394165;-1.3699951;-;-;-;-;-;-;-;-;-;-;-;-;-;-;-
1513496541918;-;-;9.175064;-0.05607605;-1.416687;-;-;-;-;-;-;-;-;-;-;-;-;-;-;-
1513496541939;-;-;9.163101;-0.05368042;-1.3879547;-;-;-;-;-;-;-;-;-;-;-;-;-;-;-
1513496541959;-;-;9.195419;-0.038116455;-1.3879547;-;-;-;-;-;-;-;-;-;-;-;-;-;-;-
1513496541981;-;-;9.190628;-0.02973938;-1.4059143;-;-;-;-;-;-;-;-;-;-;-;-;-;-;-
1513496542000;-;-;9.143951;-0.035720825;-1.3747864;-;-;-;-;-;-;-;-;-;-;-;-;-;-;-
1513496542021;-;-;9.205002;-0.076416016;-1.3807678;-;-;-;-;-;-;-;-;-;-;-;-;-;-;-
1513496542041;-;-;9.171478;-0.06564331;-1.432251;-;-;-;-;-;-;-;-;-;-;-;-;-;-;-
1513496542061;-;-;9.142746;-0.04649353;-1.3460541;-;-;-;-;-;-;-;-;-;-;-;-;-;-;-
1513496542082;-;-;9.280411;-0.02015686;-1.3520355;-;-;-;-;-;-;-;-;-;-;-;-;-;-;-
1513496542102;-;-;9.159515;-0.01776123;-1.447815;-;-;-;-;-;-;-;-;-;-;-;-;-;-;-
1513496542122;-;-;9.128387;-0.02015686;-1.3604279;-;-;-;-;-;-;-;-;-;-;-;-;-;-;-
1513496542143;-;-;9.142746;-0.090789795;-1.2873993;-;-;-;-;-;-;-;-;-;-;-;-;-;-;-
1513496542163;-;-;9.169083;-0.107543945;-1.3089447;-;-;-;-;-;-;-;-;-;-;-;-;-;-;-
1513496542184;-;-;9.201401;-0.054870605;-1.3269043;-;-;-;-;-;-;-;-;-;-;-;-;-;-;-
1513496542203;-;-;9.183456;-0.03930664;-1.3328857;-;-;-;-;-;-;-;-;-;-;-;-;-;-;-
1513496542223;-;-;9.155914;-0.04170227;-1.3496399;-;-;-;-;-;-;-;-;-;-;-;-;-;-;-
1513496542244;-;-;9.142746;-0.03691101;-1.3400726;-;-;-;-;-;-;-;-;-;-;-;-;-;-;-
1513496542264;-;-;9.151123;-0.02973938;-1.3843689;-;-;-;-;-;-;-;-;-;-;-;-;-;-;-
1513496542285;-;-;9.153519;-0.040512085;-1.3783722;-;-;-;-;-;-;-;-;-;-;-;-;-;-;-
1513496542305;-;-;9.170288;-0.033325195;-1.3484497;-;-;-;-;-;-;-;-;-;-;-;-;-;-;-
1513496542326;-;-;9.215775;-0.026138306;-1.3759766;-;-;-;-;-;-;-;-;-;-;-;-;-;-;-
1513496542346;-;-;9.179855;-0.03691101;-1.3855591;-;-;-;-;-;-;-;-;-;-;-;-;-;-;-
1513496542367;-;-;9.165497;-0.038116455;-1.3448639;-;-;-;-;-;-;-;-;-;-;-;-;-;-;-
1513496542386;-;-;9.196625;-0.02494812;-1.3484497;-;-;-;-;-;-;-;-;-;-;-;-;-;-;-
1513496542407;-;-;9.195419;-0.059661865;-1.2909851;-;-;-;-;-;-;-;-;-;-;-;-;-;-;-
1513496542427;-;-;9.202606;-0.045303345;-1.322113;-;-;-;-;-;-;-;-;-;-;-;-;-;-;-
1513496542448;-;-;9.182251;-0.059661865;-1.3005676;-;-;-;-;-;-;-;-;-;-;-;-;-;-;-
1513496542468;-;-;9.159515;-0.06086731;-1.3400726;-;-;-;-;-;-;-;-;-;-;-;-;-;-;-
1513496542489;-;-;9.17746;-0.03691101;-1.3209229;-;-;-;-;-;-;-;-;-;-;-;-;-;-;-
1513496542509;-;-;9.179855;-0.0021972656;-1.3340912;-;-;-;-;-;-;-;-;-;-;-;-;-;-;-
1513496542530;-;-;9.221756;-0.0440979;-1.3005676;-;-;-;-;-;-;-;-;-;-;-;-;-;-;-
1513496542549;-;-;9.190628;-0.038116455;-1.3149261;-;-;-;-;-;-;-;-;-;-;-;-;-;-;-
1513496542570;-;-;9.190628;-0.03930664;-1.2814178;-;-;-;-;-;-;-;-;-;-;-;-;-;-;-
1513496542590;-;-;9.148727;-0.076416016;-1.2885895;-;-;-;-;-;-;-;-;-;-;-;-;-;-;-
1513496542611;-;-;9.15712;-0.03691101;-1.3269043;-;-;-;-;-;-;-;-;-;-;-;-;-;-;-
1513496542631;-;-;9.175064;-0.00340271;-1.3400726;-;-;-;-;-;-;-;-;-;-;-;-;-;-;-
1513496542652;-;-;9.165497;-0.0069885254;-1.3173218;-;-;-;-;-;-;-;-;-;-;-;-;-;-;-
1513496542672;-;-;9.202606;-0.021362305;-1.3065491;-;-;-;-;-;-;-;-;-;-;-;-;-;-;-
1513496542692;-;-;9.245697;-0.030929565;-1.377182;-;-;-;-;-;-;-;-;-;-;-;-;-;-;-
1513496542713;-;-;9.131973;-0.045303345;-1.3400726;-;-;-;-;-;-;-;-;-;-;-;-;-;-;-
1513496542734;-;-;9.154724;-0.0069885254;-1.3173218;-;-;-;-;-;-;-;-;-;-;-;-;-;-;-
1513496542754;-;-;9.210983;-0.012969971;-1.3951416;-;-;-;-;-;-;-;-;-;-;-;-;-;-;-
1513496542774;-;-;9.149933;0.007369995;-1.3053589;-;-;-;-;-;-;-;-;-;-;-;-;-;-;-
1513496542794;-;-;9.145142;-0.0440979;-1.2945862;-;-;-;-;-;-;-;-;-;-;-;-;-;-;-
1513496542815;-;-;9.21817;-0.052474976;-1.2574768;-;-;-;-;-;-;-;-;-;-;-;-;-;-;-
1513496542835;-;-;9.213379;-0.02973938;-1.2478943;-;-;-;-;-;-;-;-;-;-;-;-;-;-;-
1513496542856;-;-;9.172684;-0.0105896;-1.234726;-;-;-;-;-;-;-;-;-;-;-;-;-;-;-
1513496542877;-;-;9.202606;-0.052474976;-1.2969818;-;-;-;-;-;-;-;-;-;-;-;-;-;-;-
1513496542897;-;-;9.136765;-0.016571045;-1.2694397;-;-;-;-;-;-;-;-;-;-;-;-;-;-;-
1513496542918;-;-;9.155914;-0.02734375;-1.2538757;-;-;-;-;-;-;-;-;-;-;-;-;-;-;-
1513496542938;-;-;9.178665;-0.009384155;-1.2419128;-;-;-;-;-;-;-;-;-;-;-;-;-;-;-
1513496542958;-;-;9.207397;-0.030929565;-1.234726;-;-;-;-;-;-;-;-;-;-;-;-;-;-;-
1513496542979;-;-;9.250488;-0.02494812;-1.2024078;-;-;-;-;-;-;-;-;-;-;-;-;-;-;-
1513496542999;-;-;9.206192;-0.07043457;-1.2131805;-;-;-;-;-;-;-;-;-;-;-;-;-;-;-
1513496543020;-;-;9.165497;-0.02973938;-1.188034;-;-;-;-;-;-;-;-;-;-;-;-;-;-;-
1513496543039;-;-;9.1918335;-0.033325195;-1.1820526;-;-;-;-;-;-;-;-;-;-;-;-;-;-;-
1513496543059;-;-;9.220566;-0.081207275;-1.124588;-;-;-;-;-;-;-;-;-;-;-;-;-;-;-
1513496543080;-;-;9.208588;-0.100372314;-1.061142;-;-;-;-;-;-;-;-;-;-;-;-;-;-;-
1513496543100;-;-;9.272034;-0.11831665;-1.0276337;-;-;-;-;-;-;-;-;-;-;-;-;-;-;-
1513496543120;-;-;9.311539;-0.1817627;-0.98573303;-;-;-;-;-;-;-;-;-;-;-;-;-;-;-
1513496543141;-;-;9.3701935;-0.22605896;-1.0156555;-;-;-;-;-;-;-;-;-;-;-;-;-;-;-
1513496543162;-;-;9.43364;-0.2679596;-1.0360107;-;-;-;-;-;-;-;-;-;-;-;-;-;-;-
1513496543182;-;-;9.379776;-0.23564148;-1.0910797;-;-;-;-;-;-;-;-;-;-;-;-;-;-;-
1513496543202;-;-;9.23851;-0.15184021;-1.1281891;-;-;-;-;-;-;-;-;-;-;-;-;-;-;-
1513496543223;-;-;9.091278;0.06602478;-1.0671387;-;-;-;-;-;-;-;-;-;-;-;-;-;-;-
1513496543243;-;-;9.064941;0.27552795;-1.021637;-;-;-;-;-;-;-;-;-;-;-;-;-;-;-
1513496543264;-;-;9.017059;0.41438293;-1.1102295;-;-;-;-;-;-;-;-;-;-;-;-;-;-;-
1513496543283;-;-;9.037399;0.47543335;-1.2227478;-;-;-;-;-;-;-;-;-;-;-;-;-;-;-
1513496543304;-;-;9.143951;0.42037964;-1.2622528;-;-;-;-;-;-;-;-;-;-;-;-;-;-;-
1513496543324;-;-;9.214569;0.36291504;-1.243103;-;-;-;-;-;-;-;-;-;-;-;-;-;-;-
1513496543345;-;-;9.183456;0.25637817;-1.3652039;-;-;-;-;-;-;-;-;-;-;-;-;-;-;-
1513496543365;-;-;9.0182495;0.14743042;-1.4190826;-;-;-;-;-;-;-;-;-;-;-;-;-;-;-
1513496543384;-;-;8.829102;0.19891357;-1.2933807;-;-;-;-;-;-;-;-;-;-;-;-;-;-;-
1513496543404;-;-;8.990723;0.25637817;-1.2215576;-;-;-;-;-;-;-;-;-;-;-;-;-;-;-
1513496543425;-;-;9.06134;0.33418274;-1.2251434;-;-;-;-;-;-;-;-;-;-;-;-;-;-;-
1513496543445;-;-;9.206192;0.299469;-1.2299347;-;-;-;-;-;-;-;-;-;-;-;-;-;-;-
1513496543466;-;-;9.367798;0.20610046;-1.3879547;-;-;-;-;-;-;-;-;-;-;-;-;-;-;-
1513496543487;-;-;9.422867;0.026535034;-1.3400726;-;-;-;-;-;-;-;-;-;-;-;-;-;-;-
1513496543507;-;-;9.463577;-0.09916687;-1.1652985;-;-;-;-;-;-;-;-;-;-;-;-;-;-;-
1513496543528;-;-;9.398926;-0.25837708;-1.001297;-;-;-;-;-;-;-;-;-;-;-;-;-;-;-
1513496543548;-;-;9.249298;-0.35653687;-0.8887634;-;-;-;-;-;-;-;-;-;-;-;-;-;-;-
1513496543568;-;-;9.087677;-0.4487152;-0.77264404;-;-;-;-;-;-;-;-;-;-;-;-;-;-;-
1513496543589;-;-;8.984726;-0.5827942;-0.55596924;-;-;-;-;-;-;-;-;-;-;-;-;-;-;-
1513496543610;-;-;9.054169;-0.6222992;-0.44703674;-;-;-;-;-;-;-;-;-;-;-;-;-;-;-
1513496543630;-;-;9.23851;-0.58877563;-0.42668152;-;-;-;-;-;-;-;-;-;-;-;-;-;-;-
1513496543651;-;-;9.357025;-0.5672302;-0.5679474;-;-;-;-;-;-;-;-;-;-;-;-;-;-;-
1513496543670;-;-;9.407303;-0.51815796;-0.6266022;-;-;-;-;-;-;-;-;-;-;-;-;-;-;-
1513496543691;-;-;9.4133;-0.4092102;-0.6086426;-;-;-;-;-;-;-;-;-;-;-;-;-;-;-
1513496543711;-;-;9.369003;-0.3194275;-0.5834961;-;-;-;-;-;-;-;-;-;-;-;-;-;-;-
1513496543732;-;-;9.240906;-0.23683167;-0.59906006;-;-;-;-;-;-;-;-;-;-;-;-;-;-;-
1513496543752;-;-;9.085281;-0.15663147;-0.6553345;-;-;-;-;-;-;-;-;-;-;-;-;-;-;-
1513496543773;-;-;9.0793;-0.12669373;-0.6984253;-;-;-;-;-;-;-;-;-;-;-;-;-;-;-
1513496543794;-;-;9.197815;-0.1590271;-0.82650757;-;-;-;-;-;-;-;-;-;-;-;-;-;-;-
1513496543814;-;-;9.280411;-0.18894958;-0.85284424;-;-;-;-;-;-;-;-;-;-;-;-;-;-;-
1513496543834;-;-;9.272034;-0.20809937;-0.8253174;-;-;-;-;-;-;-;-;-;-;-;-;-;-;-
1513496543855;-;-;9.263657;-0.25239563;-0.8779907;-;-;-;-;-;-;-;-;-;-;-;-;-;-;-
1513496543875;-;-;9.226547;-0.2859192;-0.85165405;-;-;-;-;-;-;-;-;-;-;-;-;-;-;-
1513496543896;-;-;9.195419;-0.31584167;-0.82650757;-;-;-;-;-;-;-;-;-;-;-;-;-;-;-
1513496543916;-;-;9.262466;-0.2679596;-0.86361694;-;-;-;-;-;-;-;-;-;-;-;-;-;-;-
1513496543936;-;-;9.278015;-0.25598145;-0.906723;-;-;-;-;-;-;-;-;-;-;-;-;-;-;-
1513496543956;-;-;9.225342;-0.17219543;-0.85523987;-;-;-;-;-;-;-;-;-;-;-;-;-;-;-
1513496543977;-;-;9.240906;-0.124313354;-0.7893982;-;-;-;-;-;-;-;-;-;-;-;-;-;-;-
1513496543998;-;-;9.240906;-0.05607605;-0.6625061;-;-;-;-;-;-;-;-;-;-;-;-;-;-;-
1513496544019;-;-;9.245697;-0.13269043;-0.6804657;-;-;-;-;-;-;-;-;-;-;-;-;-;-;-
1513496544039;-;-;9.228943;-0.18655396;-0.62060547;-;-;-;-;-;-;-;-;-;-;-;-;-;-;-
1513496544060;-;-;9.262466;-0.1410675;-0.5224457;-;-;-;-;-;-;-;-;-;-;-;-;-;-;-
1513496544080;-;-;9.309143;-0.18536377;-0.5021057;-;-;-;-;-;-;-;-;-;-;-;-;-;-;-
1513496544101;-;-;9.39653;-0.20930481;-0.5068817;-;-;-;-;-;-;-;-;-;-;-;-;-;-;-
1513496544120;-;-;9.400131;-0.21528625;-0.4530182;-;-;-;-;-;-;-;-;-;-;-;-;-;-;-
1513496544140;-;-;9.329498;-0.26316833;-0.4051361;-;-;-;-;-;-;-;-;-;-;-;-;-;-;-
1513496544160;-;-;9.330688;-0.25958252;-0.47695923;-;-;-;-;-;-;-;-;-;-;-;-;-;-;-
1513496544181;-;-;9.209793;-0.24162292;-0.54759216;-;-;-;-;-;-;-;-;-;-;-;-;-;-;-
1513496544202;-;-;9.267242;-0.23324585;-0.36802673;-;-;-;-;-;-;-;-;-;-;-;-;-;-;-
1513496544222;-;-;9.2313385;-0.23324585;-0.34648132;-;-;-;-;-;-;-;-;-;-;-;-;-;-;-
1513496544243;-;-;9.333084;-0.3433838;-0.3297119;-;-;-;-;-;-;-;-;-;-;-;-;-;-;-
1513496544263;-;-;9.295975;-0.4774475;-0.3668213;-;-;-;-;-;-;-;-;-;-;-;-;-;-;-
1513496544283;-;-;9.251678;-0.50738525;-0.47097778;-;-;-;-;-;-;-;-;-;-;-;-;-;-;-
1513496544304;-;-;9.193024;-0.39006042;-0.5128784;-;-;-;-;-;-;-;-;-;-;-;-;-;-;-
1513496544324;-;-;9.175064;-0.32661438;-0.60624695;-;-;-;-;-;-;-;-;-;-;-;-;-;-;-
1513496544344;-;-;9.212173;-0.23324585;-0.68525696;-;-;-;-;-;-;-;-;-;-;-;-;-;-;-
1513496544365;-;-;9.252884;-0.12669373;-0.7163849;-;-;-;-;-;-;-;-;-;-;-;-;-;-;-
1513496544385;-;-;9.293579;0.0025787354;-0.7463074;-;-;-;-;-;-;-;-;-;-;-;-;-;-;-
1513496544404;-;-;9.273239;0.14624023;-0.6948395;-;-;-;-;-;-;-;-;-;-;-;-;-;-;-
1513496544424;-;-;9.185837;0.17497253;-0.6828613;-;-;-;-;-;-;-;-;-;-;-;-;-;-;-
1513496544445;-;-;9.153519;0.21087646;-0.54519653;-;-;-;-;-;-;-;-;-;-;-;-;-;-;-
1513496544465;-;-;9.149933;0.1953125;-0.48893738;-;-;-;-;-;-;-;-;-;-;-;-;-;-;-
1513496544486;-;-;9.181061;0.086380005;-0.5236511;-;-;-;-;-;-;-;-;-;-;-;-;-;-;-
1513496544506;-;-;9.262466;0.122299194;-0.58828735;-;-;-;-;-;-;-;-;-;-;-;-;-;-;-
1513496544527;-;-;9.293579;0.16059875;-0.66490173;-;-;-;-;-;-;-;-;-;-;-;-;-;-;-
1513496544547;-;-;9.239716;0.18334961;-0.77145386;-;-;-;-;-;-;-;-;-;-;-;-;-;-;-
1513496544567;-;-;9.21817;0.20249939;-0.8660126;-;-;-;-;-;-;-;-;-;-;-;-;-;-;-
1513496544588;-;-;9.206192;0.105529785;-0.95339966;-;-;-;-;-;-;-;-;-;-;-;-;-;-;-
1513496544608;-;-;9.148727;0.046875;-0.91389465;-;-;-;-;-;-;-;-;-;-;-;-;-;-;-
1513496544629;-;-;9.103241;0.0049743652;-0.8001709;-;-;-;-;-;-;-;-;-;-;-;-;-;-;-
1513496544650;-;-;9.116409;-0.1410675;-0.6876526;-;-;-;-;-;-;-;-;-;-;-;-;-;-;-
1513496544670;-;-;9.23732;-0.24760437;-0.6194153;-;-;-;-;-;-;-;-;-;-;-;-;-;-;-
1513496544690;-;-;9.3941345;-0.30506897;-0.64694214;-;-;-;-;-;-;-;-;-;-;-;-;-;-;-
1513496544710;-;-;9.467163;-0.39964294;-0.6266022;-;-;-;-;-;-;-;-;-;-;-;-;-;-;-
1513496544731;-;-;9.476746;-0.4487152;-0.54878235;-;-;-;-;-;-;-;-;-;-;-;-;-;-;-
1513496544752;-;-;9.469559;-0.4152069;-0.5236511;-;-;-;-;-;-;-;-;-;-;-;-;-;-;-
1513496544772;-;-;9.330688;-0.2715454;-0.5140686;-;-;-;-;-;-;-;-;-;-;-;-;-;-;-
1513496544792;-;-;9.228943;-0.20930481;-0.4015503;-;-;-;-;-;-;-;-;-;-;-;-;-;-;-
1513496544812;-;-;9.230133;-0.045303345;-0.44104004;-;-;-;-;-;-;-;-;-;-;-;-;-;-;-
1513496544833;-;-;9.179855;-0.026138306;-0.49371338;-;-;-;-;-;-;-;-;-;-;-;-;-;-;-
1513496544853;-;-;9.153519;-0.050079346;-0.38598633;-;-;-;-;-;-;-;-;-;-;-;-;-;-;-
1513496544874;-;-;9.134369;-0.114730835;-0.39196777;-;-;-;-;-;-;-;-;-;-;-;-;-;-;-
1513496544895;-;-;9.240906;-0.13748169;-0.47935486;-;-;-;-;-;-;-;-;-;-;-;-;-;-;-
1513496544914;-;-;9.300766;-0.09677124;-0.49850464;-;-;-;-;-;-;-;-;-;-;-;-;-;-;-
1513496544934;-;-;9.196625;-0.02255249;-0.5332184;-;-;-;-;-;-;-;-;-;-;-;-;-;-;-
1513496544955;-;-;9.12001;0.02293396;-0.60983276;-;-;-;-;-;-;-;-;-;-;-;-;-;-;-
1513496544975;-;-;9.184647;0.02532959;-0.7056122;-;-;-;-;-;-;-;-;-;-;-;-;-;-;-
1513496544996;-;-;9.243301;-0.01776123;-0.7989807;-;-;-;-;-;-;-;-;-;-;-;-;-;-;-
1513496545017;-;-;9.25647;-0.0069885254;-0.78700256;-;-;-;-;-;-;-;-;-;-;-;-;-;-;-
1513496545037;-;-;9.224152;-0.045303345;-0.84806824;-;-;-;-;-;-;-;-;-;-;-;-;-;-;-
1513496545058;-;-;9.200211;-0.02255249;-0.88038635;-;-;-;-;-;-;-;-;-;-;-;-;-;-;-
1513496545078;-;-;9.169083;0.0061798096;-0.89953613;-;-;-;-;-;-;-;-;-;-;-;-;-;-;-
1513496545098;-;-;9.179855;-0.033325195;-0.84446716;-;-;-;-;-;-;-;-;-;-;-;-;-;-;-
1513496545119;-;-;9.228943;-0.00340271;-0.7606659;-;-;-;-;-;-;-;-;-;-;-;-;-;-;-
1513496545139;-;-;9.263657;-0.012969971;-0.69721985;-;-;-;-;-;-;-;-;-;-;-;-;-;-;-
1513496545160;-;-;9.280411;0.033706665;-0.58709717;-;-;-;-;-;-;-;-;-;-;-;-;-;-;-
1513496545181;-;-;9.304352;0.033706665;-0.53681946;-;-;-;-;-;-;-;-;-;-;-;-;-;-;-
1513496545201;-;-;9.365402;0.069625854;-0.5104828;-;-;-;-;-;-;-;-;-;-;-;-;-;-;-
1513496545221;-;-;9.340271;0.081588745;-0.5344238;-;-;-;-;-;-;-;-;-;-;-;-;-;-;-
1513496545242;-;-;9.260071;0.110321045;-0.491333;-;-;-;-;-;-;-;-;-;-;-;-;-;-;-
1513496545262;-;-;9.199005;0.12348938;-0.46499634;-;-;-;-;-;-;-;-;-;-;-;-;-;-;-
1513496545283;-;-;9.196625;0.079193115;-0.40872192;-;-;-;-;-;-;-;-;-;-;-;-;-;-;-
1513496545303;-;-;9.200211;0.1043396;-0.37879944;-;-;-;-;-;-;-;-;-;-;-;-;-;-;-
1513496545323;-;-;9.233734;0.010971069;-0.42907715;-;-;-;-;-;-;-;-;-;-;-;-;-;-;-
1513496545344;-;-;9.228943;-0.04888916;-0.35725403;-;-;-;-;-;-;-;-;-;-;-;-;-;-;-
1513496545363;-;-;9.289993;-0.13986206;-0.37879944;-;-;-;-;-;-;-;-;-;-;-;-;-;-;-
1513496545383;-;-;9.321121;-0.13748169;-0.53681946;-;-;-;-;-;-;-;-;-;-;-;-;-;-;-
1513496545404;-;-;9.267242;-0.13867188;-0.49371338;-;-;-;-;-;-;-;-;-;-;-;-;-;-;-
1513496545423;-;-;9.299576;-0.062057495;-0.52963257;-;-;-;-;-;-;-;-;-;-;-;-;-;-;-
1513496545444;-;-;9.301956;0.038497925;-0.72236633;-;-;-;-;-;-;-;-;-;-;-;-;-;-;-
1513496545464;-;-;9.252884;0.04927063;-0.66729736;-;-;-;-;-;-;-;-;-;-;-;-;-;-;-
1513496545485;-;-;9.215775;0.02053833;-0.70321655;-;-;-;-;-;-;-;-;-;-;-;-;-;-;-
1513496545505;-;-;9.227737;-0.081207275;-0.7187805;-;-;-;-;-;-;-;-;-;-;-;-;-;-;-
1513496545525;-;-;9.200211;-0.13748169;-0.6828613;-;-;-;-;-;-;-;-;-;-;-;-;-;-;-
1513496545546;-;-;9.23732;-0.14944458;-0.5691376;-;-;-;-;-;-;-;-;-;-;-;-;-;-;-
1513496545566;-;-;9.268448;-0.18894958;-0.55477905;-;-;-;-;-;-;-;-;-;-;-;-;-;-;-
1513496545586;-;-;9.294785;-0.13748169;-0.491333;-;-;-;-;-;-;-;-;-;-;-;-;-;-;-
1513496545607;-;-;9.3151245;-0.15423584;-0.45062256;-;-;-;-;-;-;-;-;-;-;-;-;-;-;-
1513496545627;-;-;9.348648;-0.14225769;-0.5236511;-;-;-;-;-;-;-;-;-;-;-;-;-;-;-
1513496545648;-;-;9.352234;-0.09437561;-0.5404053;-;-;-;-;-;-;-;-;-;-;-;-;-;-;-
1513496545667;-;-;9.328293;-0.074035645;-0.55836487;-;-;-;-;-;-;-;-;-;-;-;-;-;-;-
1513496545687;-;-;9.2313385;-0.015365601;-0.4733734;-;-;-;-;-;-;-;-;-;-;-;-;-;-;-
1513496545708;-;-;9.12001;0.04208374;-0.36323547;-;-;-;-;-;-;-;-;-;-;-;-;-;-;-
1513496545728;-;-;9.122391;0.02293396;-0.38478088;-;-;-;-;-;-;-;-;-;-;-;-;-;-;-
1513496545749;-;-;9.227737;-0.023742676;-0.40753174;-;-;-;-;-;-;-;-;-;-;-;-;-;-;-
1513496545769;-;-;9.281616;-0.015365601;-0.44822693;-;-;-;-;-;-;-;-;-;-;-;-;-;-;-
1513496545790;-;-;9.342667;-0.02494812;-0.496109;-;-;-;-;-;-;-;-;-;-;-;-;-;-;-
1513496545809;-;-;9.29837;0.031311035;-0.48893738;-;-;-;-;-;-;-;-;-;-;-;-;-;-;-
1513496545830;-;-;9.286407;0.009765625;-0.45780945;-;-;-;-;-;-;-;-;-;-;-;-;-;-;-
1513496545850;-;-;9.244507;0.009765625;-0.47216797;-;-;-;-;-;-;-;-;-;-;-;-;-;-;-
1513496545871;-;-;9.261261;1.9836426E-4;-0.39794922;-;-;-;-;-;-;-;-;-;-;-;-;-;-;-
1513496545890;-;-;9.281616;0.033706665;-0.4458313;-;-;-;-;-;-;-;-;-;-;-;-;-;-;-
1513496545910;-;-;9.3151245;-0.0021972656;-0.48414612;-;-;-;-;-;-;-;-;-;-;-;-;-;-;-
1513496545931;-;-;9.360626;0.038497925;-0.45541382;-;-;-;-;-;-;-;-;-;-;-;-;-;-;-
1513496545952;-;-;9.267242;-0.033325195;-0.4063263;-;-;-;-;-;-;-;-;-;-;-;-;-;-;-
1513496545972;-;-;9.196625;-0.047698975;-0.29499817;-;-;-;-;-;-;-;-;-;-;-;-;-;-;-
1513496545993;-;-;9.243301;0.02532959;-0.2507019;-;-;-;-;-;-;-;-;-;-;-;-;-;-;-
1513496546013;-;-;9.196625;0.10673523;-0.31414795;-;-;-;-;-;-;-;-;-;-;-;-;-;-;-
1513496546033;-;-;9.116409;0.086380005;-0.31414795;-;-;-;-;-;-;-;-;-;-;-;-;-;-;-
1513496546053;-;-;9.195419;0.043289185;-0.37042236;-;-;-;-;-;-;-;-;-;-;-;-;-;-;-
1513496546074;-;-;9.267242;0.0037841797;-0.6218109;-;-;-;-;-;-;-;-;-;-;-;-;-;-;-
1513496546095;-;-;9.322311;0.08758545;-0.6601105;-;-;-;-;-;-;-;-;-;-;-;-;-;-;-
1513496546114;-;-;9.301956;0.2348175;-0.6433563;-;-;-;-;-;-;-;-;-;-;-;-;-;-;-
1513496546134;-;-;9.309143;0.2743225;-0.61343384;-;-;-;-;-;-;-;-;-;-;-;-;-;-;-
1513496546154;-;-;9.242111;0.2922821;-0.60743713;-;-;-;-;-;-;-;-;-;-;-;-;-;-;-
1513496546175;-;-;9.163101;0.25038147;-0.6253967;-;-;-;-;-;-;-;-;-;-;-;-;-;-;-
1513496546195;-;-;9.190628;0.17736816;-0.57632446;-;-;-;-;-;-;-;-;-;-;-;-;-;-;-
1513496546215;-;-;9.212173;0.119903564;-0.5284424;-;-;-;-;-;-;-;-;-;-;-;-;-;-;-
1513496546236;-;-;9.2756195;0.08279419;-0.48773193;-;-;-;-;-;-;-;-;-;-;-;-;-;-;-
1513496546256;-;-;9.266052;0.0049743652;-0.38238525;-;-;-;-;-;-;-;-;-;-;-;-;-;-;-
1513496546276;-;-;9.313934;-0.014175415;-0.3153534;-;-;-;-;-;-;-;-;-;-;-;-;-;-;-
1513496546297;-;-;9.33548;-0.052474976;-0.23873901;-;-;-;-;-;-;-;-;-;-;-;-;-;-;-
1513496546317;-;-;9.342667;-0.08720398;-0.20162964;-;-;-;-;-;-;-;-;-;-;-;-;-;-;-
1513496546337;-;-;9.230133;-0.047698975;-0.14656067;-;-;-;-;-;-;-;-;-;-;-;-;-;-;-
1513496546358;-;-;9.210983;0.013366699;-0.121414185;-;-;-;-;-;-;-;-;-;-;-;-;-;-;-
1513496546377;-;-;9.201401;0.0049743652;-0.08909607;-;-;-;-;-;-;-;-;-;-;-;-;-;-;-
1513496546397;-;-;9.17627;0.02053833;-0.14537048;-;-;-;-;-;-;-;-;-;-;-;-;-;-;-
1513496546418;-;-;9.210983;-0.033325195;-0.16331482;-;-;-;-;-;-;-;-;-;-;-;-;-;-;-
1513496546438;-;-;9.201401;-0.03213501;-0.20761108;-;-;-;-;-;-;-;-;-;-;-;-;-;-;-
1513496546459;-;-;9.225342;-0.03213501;-0.16810608;-;-;-;-;-;-;-;-;-;-;-;-;-;-;-
1513496546479;-;-;9.25528;-0.030929565;-0.11903381;-;-;-;-;-;-;-;-;-;-;-;-;-;-;-
1513496546499;-;-;9.291183;-0.012969971;-0.11782837;-;-;-;-;-;-;-;-;-;-;-;-;-;-;-
1513496546520;-;-;9.294785;-0.06324768;-0.107055664;-;-;-;-;-;-;-;-;-;-;-;-;-;-;-
1513496546540;-;-;9.331894;-0.050079346;-0.09867859;-;-;-;-;-;-;-;-;-;-;-;-;-;-;-
1513496546561;-;-;9.330688;-0.02255249;-0.20761108;-;-;-;-;-;-;-;-;-;-;-;-;-;-;-
1513496546581;-;-;9.328293;0.06842041;-0.2866211;-;-;-;-;-;-;-;-;-;-;-;-;-;-;-
1513496546602;-;-;9.245697;0.117507935;-0.3189392;-;-;-;-;-;-;-;-;-;-;-;-;-;-;-
1513496546623;-;-;9.194229;0.22285461;-0.26028442;-;-;-;-;-;-;-;-;-;-;-;-;-;-;-
1513496546642;-;-;9.188232;0.17736816;-0.31414795;-;-;-;-;-;-;-;-;-;-;-;-;-;-;-
1513496546663;-;-;9.161896;0.15820313;-0.51646423;-;-;-;-;-;-;-;-;-;-;-;-;-;-;-
1513496546683;-;-;9.0733185;0.19770813;-0.29978943;-;-;-;-;-;-;-;-;-;-;-;-;-;-;-
1513496546703;-;-;9.206192;0.20010376;-0.15374756;-;-;-;-;-;-;-;-;-;-;-;-;-;-;-
1513496546724;-;-;9.29837;0.16897583;-0.30697632;-;-;-;-;-;-;-;-;-;-;-;-;-;-;-
1513496546745;-;-;9.359421;0.052871704;-0.2351532;-;-;-;-;-;-;-;-;-;-;-;-;-;-;-
1513496546764;-;-;9.378571;-0.090789795;-0.14057922;-;-;-;-;-;-;-;-;-;-;-;-;-;-;-
1513496546785;-;-;9.348648;-0.17817688;-0.099868774;-;-;-;-;-;-;-;-;-;-;-;-;-;-;-
1513496546805;-;-;9.274429;-0.121917725;-0.075927734;-;-;-;-;-;-;-;-;-;-;-;-;-;-;-
1513496546825;-;-;9.234924;-0.0440979;-0.12860107;-;-;-;-;-;-;-;-;-;-;-;-;-;-;-
1513496546845;-;-;9.248093;-0.015365601;-0.15614319;-;-;-;-;-;-;-;-;-;-;-;-;-;-;-
1513496546866;-;-;9.2708435;-0.02734375;-0.13937378;-;-;-;-;-;-;-;-;-;-;-;-;-;-;-
1513496546886;-;-;9.279221;-0.05368042;-0.15853882;-;-;-;-;-;-;-;-;-;-;-;-;-;-;-
1513496546907;-;-;9.250488;-0.081207275;-0.18127441;-;-;-;-;-;-;-;-;-;-;-;-;-;-;-
1513496546927;-;-;9.285202;-0.090789795;-0.17050171;-;-;-;-;-;-;-;-;-;-;-;-;-;-;-
1513496546948;-;-;9.278015;-0.08241272;-0.27345276;-;-;-;-;-;-;-;-;-;-;-;-;-;-;-
1513496546967;-;-;9.306747;-0.083602905;-0.2507019;-;-;-;-;-;-;-;-;-;-;-;-;-;-;-
1513496546988;-;-;9.291183;-0.090789795;-0.3009796;-;-;-;-;-;-;-;-;-;-;-;-;-;-;-
1513496547008;-;-;9.279221;-0.066848755;-0.32731628;-;-;-;-;-;-;-;-;-;-;-;-;-;-;-
1513496547027;-;-;9.250488;-0.0728302;-0.2866211;-;-;-;-;-;-;-;-;-;-;-;-;-;-;-
1513496547047;-;-;9.226547;-0.090789795;-0.34527588;-;-;-;-;-;-;-;-;-;-;-;-;-;-;-
1513496547068;-;-;9.252884;-0.088394165;-0.28182983;-;-;-;-;-;-;-;-;-;-;-;-;-;-;-
1513496547088;-;-;9.260071;-0.10874939;-0.28781128;-;-;-;-;-;-;-;-;-;-;-;-;-;-;-
1513496547109;-;-;9.292389;-0.09197998;-0.2973938;-;-;-;-;-;-;-;-;-;-;-;-;-;-;-
1513496547129;-;-;9.286407;-0.05368042;-0.24113464;-;-;-;-;-;-;-;-;-;-;-;-;-;-;-
1513496547149;-;-;9.276825;-0.042907715;-0.23036194;-;-;-;-;-;-;-;-;-;-;-;-;-;-;-
1513496547170;-;-;9.307953;-0.03691101;-0.21598816;-;-;-;-;-;-;-;-;-;-;-;-;-;-;-
1513496547189;-;-;9.321121;-0.033325195;-0.21598816;-;-;-;-;-;-;-;-;-;-;-;-;-;-;-
1513496547209;-;-;9.325912;-0.03453064;-0.20521545;-;-;-;-;-;-;-;-;-;-;-;-;-;-;-
1513496547230;-;-;9.279221;-0.059661865;-0.2351532;-;-;-;-;-;-;-;-;-;-;-;-;-;-;-
1513496547250;-;-;9.220566;-0.06086731;-0.1776886;-;-;-;-;-;-;-;-;-;-;-;-;-;-;-
1513496547271;-;-;9.212173;-0.015365601;-0.17170715;-;-;-;-;-;-;-;-;-;-;-;-;-;-;-
1513496547291;-;-;9.268448;-0.018966675;-0.18486023;-;-;-;-;-;-;-;-;-;-;-;-;-;-;-
1513496547312;-;-;9.29837;-0.030929565;-0.27464294;-;-;-;-;-;-;-;-;-;-;-;-;-;-;-
1513496547331;-;-;9.25647;-0.02494812;-0.22317505;-;-;-;-;-;-;-;-;-;-;-;-;-;-;-
1513496547351;-;-;9.325912;-0.033325195;-0.20881653;-;-;-;-;-;-;-;-;-;-;-;-;-;-;-
1513496547372;-;-;9.234924;-0.015365601;-0.32014465;-;-;-;-;-;-;-;-;-;-;-;-;-;-;-
1513496547392;-;-;9.25647;-0.028533936;-0.24711609;-;-;-;-;-;-;-;-;-;-;-;-;-;-;-
1513496547413;-;-;9.301956;-0.06564331;-0.21000671;-;-;-;-;-;-;-;-;-;-;-;-;-;-;-
1513496547434;-;-;9.306747;-0.0728302;-0.16810608;-;-;-;-;-;-;-;-;-;-;-;-;-;-;-
1513496547453;-;-;9.214569;-0.014175415;-0.22436523;-;-;-;-;-;-;-;-;-;-;-;-;-;-;-
1513496547474;-;-;9.201401;-0.0010070801;-0.17408752;-;-;-;-;-;-;-;-;-;-;-;-;-;-;-
1513496547494;-;-;9.205002;0.0181427;-0.19802856;-;-;-;-;-;-;-;-;-;-;-;-;-;-;-
1513496547514;-;-;9.254074;0.04447937;-0.1884613;-;-;-;-;-;-;-;-;-;-;-;-;-;-;-
1513496547535;-;-;9.258865;0.03012085;-0.19923401;-;-;-;-;-;-;-;-;-;-;-;-;-;-;-
1513496547556;-;-;9.280411;0.02772522;-0.22676086;-;-;-;-;-;-;-;-;-;-;-;-;-;-;-
1513496547576;-;-;9.269638;0.07081604;-0.21598816;-;-;-;-;-;-;-;-;-;-;-;-;-;-;-
1513496547597;-;-;9.269638;0.079193115;-0.2004242;-;-;-;-;-;-;-;-;-;-;-;-;-;-;-
1513496547616;-;-;9.215775;0.07800293;-0.20761108;-;-;-;-;-;-;-;-;-;-;-;-;-;-;-
1513496547637;-;-;9.21936;0.05406189;-0.25309753;-;-;-;-;-;-;-;-;-;-;-;-;-;-;-
1513496547656;-;-;9.25647;0.014556885;-0.27226257;-;-;-;-;-;-;-;-;-;-;-;-;-;-;-
1513496547676;-;-;9.23613;0.026535034;-0.27824402;-;-;-;-;-;-;-;-;-;-;-;-;-;-;-
1513496547697;-;-;9.2313385;-0.0010070801;-0.2674713;-;-;-;-;-;-;-;-;-;-;-;-;-;-;-
1513496547717;-;-;9.232529;-0.012969971;-0.21000671;-;-;-;-;-;-;-;-;-;-;-;-;-;-;-
1513496547738;-;-;9.244507;1.9836426E-4;-0.18606567;-;-;-;-;-;-;-;-;-;-;-;-;-;-;-
1513496547759;-;-;9.294785;-0.01776123;-0.18127441;-;-;-;-;-;-;-;-;-;-;-;-;-;-;-
1513496547779;-;-;9.313934;-0.038116455;-0.19802856;-;-;-;-;-;-;-;-;-;-;-;-;-;-;-
1513496547799;-;-;9.263657;-0.045303345;-0.17289734;-;-;-;-;-;-;-;-;-;-;-;-;-;-;-
1513496547820;-;-;9.25528;-0.035720825;-0.16452026;-;-;-;-;-;-;-;-;-;-;-;-;-;-;-
1513496547840;-;-;9.245697;-0.05368042;-0.16091919;-;-;-;-;-;-;-;-;-;-;-;-;-;-;-
1513496547861;-;-;9.285202;-0.040512085;-0.20402527;-;-;-;-;-;-;-;-;-;-;-;-;-;-;-
1513496547881;-;-;9.246902;-0.04649353;-0.16452026;-;-;-;-;-;-;-;-;-;-;-;-;-;-;-
1513496547902;-;-;9.23851;-0.021362305;-0.1381836;-;-;-;-;-;-;-;-;-;-;-;-;-;-;-
1513496547922;-;-;9.242111;-0.054870605;-0.10586548;-;-;-;-;-;-;-;-;-;-;-;-;-;-;-
1513496547943;-;-;9.301956;-0.045303345;-0.16212463;-;-;-;-;-;-;-;-;-;-;-;-;-;-;-
1513496547962;-;-;9.242111;-0.02973938;-0.04121399;-;-;-;-;-;-;-;-;-;-;-;-;-;-;-
1513496547982;-;-;9.331894;0.012161255;-0.07234192;-;-;-;-;-;-;-;-;-;-;-;-;-;-;-
1513496548006;-;-;9.252884;-0.01776123;-0.14656067;-;-;-;-;-;-;-;-;-;-;-;-;-;-;-
1513496548023;-;-;9.278015;-0.014175415;-0.0627594;-;-;-;-;-;-;-;-;-;-;-;-;-;-;-
1513496548043;-;-;9.239716;-0.021362305;-0.022064209;-;-;-;-;-;-;-;-;-;-;-;-;-;-;-
1513496548064;-;-;9.260071;-0.016571045;-0.0041046143;-;-;-;-;-;-;-;-;-;-;-;-;-;-;-
1513496548084;-;-;9.179855;0.0049743652;-0.03881836;-;-;-;-;-;-;-;-;-;-;-;-;-;-;-
1513496548104;-;-;9.207397;0.02772522;-0.05796814;-;-;-;-;-;-;-;-;-;-;-;-;-;-;-
1513496548125;-;-;9.232529;0.024139404;-0.083114624;-;-;-;-;-;-;-;-;-;-;-;-;-;-;-
1513496548145;-;-;9.268448;0.007369995;-0.071136475;-;-;-;-;-;-;-;-;-;-;-;-;-;-;-
1513496548166;-;-;9.272034;0.03012085;-0.07473755;-;-;-;-;-;-;-;-;-;-;-;-;-;-;-
1513496548185;-;-;9.307953;0.010971069;-0.07952881;-;-;-;-;-;-;-;-;-;-;-;-;-;-;-
1513496548206;-;-;9.293579;0.007369995;-0.07952881;-;-;-;-;-;-;-;-;-;-;-;-;-;-;-
1513496548225;-;-;9.324707;0.03491211;-0.10346985;-;-;-;-;-;-;-;-;-;-;-;-;-;-;-
1513496548245;-;-;9.2756195;0.008575439;-0.18965149;-;-;-;-;-;-;-;-;-;-;-;-;-;-;-
1513496548266;-;-;9.240906;0.013366699;-0.23036194;-;-;-;-;-;-;-;-;-;-;-;-;-;-;-
1513496548285;-;-;9.225342;-0.0045928955;-0.22077942;-;-;-;-;-;-;-;-;-;-;-;-;-;-;-
1513496548305;-;-;9.21936;0.040893555;-0.23394775;-;-;-;-;-;-;-;-;-;-;-;-;-;-;-
1513496548326;-;-;9.232529;0.024139404;-0.2578888;-;-;-;-;-;-;-;-;-;-;-;-;-;-;-
1513496548346;-;-;9.262466;0.02532959;-0.2686615;-;-;-;-;-;-;-;-;-;-;-;-;-;-;-
1513496548366;-;-;9.274429;-0.0021972656;-0.29978943;-;-;-;-;-;-;-;-;-;-;-;-;-;-;-
1513496548387;-;-;9.295975;0.03970337;-0.26028442;-;-;-;-;-;-;-;-;-;-;-;-;-;-;-
1513496548407;-;-;9.313934;0.008575439;-0.2291565;-;-;-;-;-;-;-;-;-;-;-;-;-;-;-
1513496548428;-;-;9.319916;0.0037841797;-0.2399292;-;-;-;-;-;-;-;-;-;-;-;-;-;-;-
1513496548448;-;-;9.269638;-0.074035645;-0.24232483;-;-;-;-;-;-;-;-;-;-;-;-;-;-;-
1513496548469;-;-;9.224152;-0.08958435;-0.18606567;-;-;-;-;-;-;-;-;-;-;-;-;-;-;-
1513496548489;-;-;9.272034;-0.085998535;-0.13578796;-;-;-;-;-;-;-;-;-;-;-;-;-;-;-
1513496548510;-;-;9.2756195;-0.112335205;-0.109451294;-;-;-;-;-;-;-;-;-;-;-;-;-;-;-
1513496548530;-;-;9.258865;-0.059661865;-0.051986694;-;-;-;-;-;-;-;-;-;-;-;-;-;-;-
1513496548551;-;-;9.282806;-0.0105896;-0.07952881;-;-;-;-;-;-;-;-;-;-;-;-;-;-;-
1513496548571;-;-;9.324707;0.05645752;-0.1381836;-;-;-;-;-;-;-;-;-;-;-;-;-;-;-
1513496548592;-;-;9.266052;0.014556885;-0.12620544;-;-;-;-;-;-;-;-;-;-;-;-;-;-;-
1513496548612;-;-;9.321121;0.060043335;-0.16212463;-;-;-;-;-;-;-;-;-;-;-;-;-;-;-
1513496548632;-;-;9.226547;0.08998108;-0.26387024;-;-;-;-;-;-;-;-;-;-;-;-;-;-;-
1513496548653;-;-;9.258865;0.083984375;-0.16212463;-;-;-;-;-;-;-;-;-;-;-;-;-;-;-
1513496548674;-;-;9.240906;0.055252075;-0.15135193;-;-;-;-;-;-;-;-;-;-;-;-;-;-;-
1513496548694;-;-;9.222961;0.05885315;-0.15374756;-;-;-;-;-;-;-;-;-;-;-;-;-;-;-
1513496548714;-;-;9.215775;0.069625854;-0.15733337;-;-;-;-;-;-;-;-;-;-;-;-;-;-;-
1513496548735;-;-;9.262466;0.069625854;-0.21000671;-;-;-;-;-;-;-;-;-;-;-;-;-;-;-
1513496548755;-;-;9.274429;0.112716675;-0.1956482;-;-;-;-;-;-;-;-;-;-;-;-;-;-;-
1513496548775;-;-;9.276825;0.095962524;-0.20521545;-;-;-;-;-;-;-;-;-;-;-;-;-;-;-
1513496548796;-;-;9.266052;0.08998108;-0.21479797;-;-;-;-;-;-;-;-;-;-;-;-;-;-;-
1513496548816;-;-;9.250488;0.08279419;-0.23634338;-;-;-;-;-;-;-;-;-;-;-;-;-;-;-
1513496548837;-;-;9.291183;0.07321167;-0.16571045;-;-;-;-;-;-;-;-;-;-;-;-;-;-;-
1513496548858;-;-;9.261261;0.04447937;-0.1776886;-;-;-;-;-;-;-;-;-;-;-;-;-;-;-
1513496548878;-;-;9.208588;-0.0045928955;-0.17648315;-;-;-;-;-;-;-;-;-;-;-;-;-;-;-
1513496548898;-;-;9.244507;-0.023742676;-0.040023804;-;-;-;-;-;-;-;-;-;-;-;-;-;-;-
1513496548919;-;-;9.260071;-0.078811646;-0.012481689;-;-;-;-;-;-;-;-;-;-;-;-;-;-;-
1513496548938;-;-;9.286407;-0.16740417;0.06413269;-;-;-;-;-;-;-;-;-;-;-;-;-;-;-
1513496548959;-;-;9.323517;-0.13148499;0.006668091;-;-;-;-;-;-;-;-;-;-;-;-;-;-;-
1513496548980;-;-;9.333084;-0.1697998;-0.06515503;-;-;-;-;-;-;-;-;-;-;-;-;-;-;-
1513496549000;-;-;9.3151245;-0.109939575;-0.08909607;-;-;-;-;-;-;-;-;-;-;-;-;-;-;-
1513496549020;-;-;9.274429;-0.06324768;-0.12741089;-;-;-;-;-;-;-;-;-;-;-;-;-;-;-
1513496549040;-;-;9.166687;-0.0045928955;-0.029251099;-;-;-;-;-;-;-;-;-;-;-;-;-;-;-
1513496549061;-;-;9.170288;0.02293396;-0.0041046143;-;-;-;-;-;-;-;-;-;-;-;-;-;-;-
1513496549081;-;-;9.199005;0.0061798096;0.0030822754;-;-;-;-;-;-;-;-;-;-;-;-;-;-;-
1513496549104;-;-;9.230133;0.013366699;0.006668091;-;-;-;-;-;-;-;-;-;-;-;-;-;-;-
1513496549124;-;-;9.29837;0.0037841797;-0.0627594;-;-;-;-;-;-;-;-;-;-;-;-;-;-;-
1513496549145;-;-;9.29837;0.021743774;-0.06636047;-;-;-;-;-;-;-;-;-;-;-;-;-;-;-
1513496549166;-;-;9.272034;0.010971069;-0.029251099;-;-;-;-;-;-;-;-;-;-;-;-;-;-;-
1513496549185;-;-;9.313934;0.014556885;0.017440796;-;-;-;-;-;-;-;-;-;-;-;-;-;-;-
1513496549206;-;-;9.312744;0.02772522;-0.059173584;-;-;-;-;-;-;-;-;-;-;-;-;-;-;-
1513496549226;-;-;9.199005;-0.0105896;-0.0029144287;-;-;-;-;-;-;-;-;-;-;-;-;-;-;-
1513496549246;-;-;9.207397;0.013366699;-0.014877319;-;-;-;-;-;-;-;-;-;-;-;-;-;-;-
1513496549266;-;-;9.206192;0.074417114;-0.15733337;-;-;-;-;-;-;-;-;-;-;-;-;-;-;-
1513496549287;-;-;9.251678;0.14263916;-0.04600525;-;-;-;-;-;-;-;-;-;-;-;-;-;-;-
1513496549307;-;-;9.232529;0.14624023;-0.04360962;-;-;-;-;-;-;-;-;-;-;-;-;-;-;-
1513496549328;-;-;9.224152;0.14144897;-0.078323364;-;-;-;-;-;-;-;-;-;-;-;-;-;-;-
1513496549348;-;-;9.145142;0.13665771;-0.085510254;-;-;-;-;-;-;-;-;-;-;-;-;-;-;-
1513496549369;-;-;9.15831;0.20010376;-0.10824585;-;-;-;-;-;-;-;-;-;-;-;-;-;-;-
1513496549388;-;-;9.199005;0.2240448;-0.063964844;-;-;-;-;-;-;-;-;-;-;-;-;-;-;-
1513496549408;-;-;9.215775;0.1725769;-0.029251099;-;-;-;-;-;-;-;-;-;-;-;-;-;-;-
