TimeStamp[ms];Prox[Cm];Lux[lux];AccX[m/s^2];AccY[m/s^2];AccZ[m/s^2];GyroX[rad/s];GyroY[rad/s];GyroZ[rad/s];MagnX[uT];MagnY[uT];MagnZ[uT];OrienYaw[degrees];OrienPitch[degrees];OrienRoll[degrees];Press[Pa];Temp[C°];Batt[%];Lat;Lng;Speed[m/s]
1513496872329;-;-;9.197815;-0.7803192;2.038147;-;-;-;-;-;-;-;-;-;-;-;-;-;-;-
1513496872357;-;-;9.068527;-0.77552795;1.6395111;-;-;-;-;-;-;-;-;-;-;-;-;-;-;-
1513496872364;-;-;9.069733;-0.7815094;1.6155701;-;-;-;-;-;-;-;-;-;-;-;-;-;-;-
1513496872384;-;-;9.181061;-0.59835815;1.6131744;-;-;-;-;-;-;-;-;-;-;-;-;-;-;-
1513496872405;-;-;9.114014;-0.34098816;1.5904388;-;-;-;-;-;-;-;-;-;-;-;-;-;-;-
1513496872424;-;-;9.093674;-0.16740417;1.3007355;-;-;-;-;-;-;-;-;-;-;-;-;-;-;-
1513496872445;-;-;9.17627;-0.12789917;1.0720825;-;-;-;-;-;-;-;-;-;-;-;-;-;-;-
1513496872464;-;-;9.258865;0.09954834;1.081665;-;-;-;-;-;-;-;-;-;-;-;-;-;-;-
1513496872484;-;-;9.608414;-0.0069885254;1.1941986;-;-;-;-;-;-;-;-;-;-;-;-;-;-;-
1513496872505;-;-;9.453995;-0.18894958;1.0637054;-;-;-;-;-;-;-;-;-;-;-;-;-;-;-
1513496872526;-;-;8.851852;-0.542099;1.0194092;-;-;-;-;-;-;-;-;-;-;-;-;-;-;-
1513496872546;-;-;8.489136;-0.78630066;1.176239;-;-;-;-;-;-;-;-;-;-;-;-;-;-;-
1513496872566;-;-;8.134796;-0.7312317;1.2672119;-;-;-;-;-;-;-;-;-;-;-;-;-;-;-
1513496872587;-;-;8.527435;-0.5361023;0.67944336;-;-;-;-;-;-;-;-;-;-;-;-;-;-;-
1513496872608;-;-;8.954803;-0.22486877;0.56811523;-;-;-;-;-;-;-;-;-;-;-;-;-;-;-
1513496872629;-;-;9.130783;0.03730774;0.48191833;-;-;-;-;-;-;-;-;-;-;-;-;-;-;-
1513496872649;-;-;9.515045;0.12709045;0.067718506;-;-;-;-;-;-;-;-;-;-;-;-;-;-;-
1513496872670;-;-;10.008255;0.18574524;0.45677185;-;-;-;-;-;-;-;-;-;-;-;-;-;-;-
1513496872690;-;-;9.21936;0.007369995;0.011459351;-;-;-;-;-;-;-;-;-;-;-;-;-;-;-
1513496872709;-;-;9.131973;-0.03453064;-0.073532104;-;-;-;-;-;-;-;-;-;-;-;-;-;-;-
1513496872730;-;-;9.467163;0.06364441;0.24609375;-;-;-;-;-;-;-;-;-;-;-;-;-;-;-
1513496872750;-;-;9.608414;-0.37091064;-0.21359253;-;-;-;-;-;-;-;-;-;-;-;-;-;-;-
1513496872771;-;-;9.311539;-0.29071045;-0.032836914;-;-;-;-;-;-;-;-;-;-;-;-;-;-;-
1513496872791;-;-;9.515045;-0.14225769;-0.063964844;-;-;-;-;-;-;-;-;-;-;-;-;-;-;-
1513496872812;-;-;9.4096985;0.24679565;-0.29499817;-;-;-;-;-;-;-;-;-;-;-;-;-;-;-
1513496872832;-;-;8.684265;0.59754944;-0.377594;-;-;-;-;-;-;-;-;-;-;-;-;-;-;-
1513496872853;-;-;9.400131;0.93273926;-0.1309967;-;-;-;-;-;-;-;-;-;-;-;-;-;-;-
1513496872873;-;-;8.685455;0.6717682;-0.4338684;-;-;-;-;-;-;-;-;-;-;-;-;-;-;-
1513496872894;-;-;9.029022;0.6095123;-0.19325256;-;-;-;-;-;-;-;-;-;-;-;-;-;-;-
1513496872914;-;-;8.84108;0.7807007;-0.22796631;-;-;-;-;-;-;-;-;-;-;-;-;-;-;-
1513496872935;-;-;9.31752;0.5352936;-0.41949463;-;-;-;-;-;-;-;-;-;-;-;-;-;-;-
1513496872955;-;-;9.39653;0.3138275;-2.8807373;-;-;-;-;-;-;-;-;-;-;-;-;-;-;-
1513496872976;-;-;9.736511;0.13786316;-1.1186066;-;-;-;-;-;-;-;-;-;-;-;-;-;-;-
1513496872996;-;-;10.078888;-0.57681274;-1.6046295;-;-;-;-;-;-;-;-;-;-;-;-;-;-;-
1513496873016;-;-;9.746094;-1.1346588;-1.8835602;-;-;-;-;-;-;-;-;-;-;-;-;-;-;-
1513496873037;-;-;9.612015;-1.5081482;-2.3049316;-;-;-;-;-;-;-;-;-;-;-;-;-;-;-
1513496873057;-;-;9.582092;-1.9235535;-1.8332825;-;-;-;-;-;-;-;-;-;-;-;-;-;-;-
1513496873078;-;-;9.845444;-2.3892212;-1.0731201;-;-;-;-;-;-;-;-;-;-;-;-;-;-;-
1513496873098;-;-;9.6467285;-2.3401337;-1.5878754;-;-;-;-;-;-;-;-;-;-;-;-;-;-;-
1513496873119;-;-;8.991913;-2.6346283;-1.322113;-;-;-;-;-;-;-;-;-;-;-;-;-;-;-
1513496873139;-;-;8.861435;-3.0655823;-1.0563507;-;-;-;-;-;-;-;-;-;-;-;-;-;-;-
1513496873159;-;-;8.689041;-3.4199219;-1.1425476;-;-;-;-;-;-;-;-;-;-;-;-;-;-;-
1513496873180;-;-;8.890167;-3.2092285;-1.8237;-;-;-;-;-;-;-;-;-;-;-;-;-;-;-
1513496873200;-;-;9.470749;-3.3421173;-0.03881836;-;-;-;-;-;-;-;-;-;-;-;-;-;-;-
1513496873221;-;-;9.49469;-2.5855408;-1.0731201;-;-;-;-;-;-;-;-;-;-;-;-;-;-;-
1513496873240;-;-;8.884171;-2.4203491;-1.2897949;-;-;-;-;-;-;-;-;-;-;-;-;-;-;-
1513496873261;-;-;8.770447;-2.7651062;-1.6166077;-;-;-;-;-;-;-;-;-;-;-;-;-;-;-
1513496873280;-;-;9.081696;-2.7543335;-1.4226685;-;-;-;-;-;-;-;-;-;-;-;-;-;-;-
1513496873300;-;-;8.9787445;-2.7902527;-0.86961365;-;-;-;-;-;-;-;-;-;-;-;-;-;-;-
1513496873321;-;-;8.827911;-2.8477173;-0.52604675;-;-;-;-;-;-;-;-;-;-;-;-;-;-;-
1513496873341;-;-;7.997116;-2.518509;-1.1784668;-;-;-;-;-;-;-;-;-;-;-;-;-;-;-
1513496873361;-;-;8.235352;-2.6106873;-1.614212;-;-;-;-;-;-;-;-;-;-;-;-;-;-;-
1513496873382;-;-;8.875793;-2.4311218;-1.1150208;-;-;-;-;-;-;-;-;-;-;-;-;-;-;-
1513496873402;-;-;8.717773;-2.3676758;-1.2419128;-;-;-;-;-;-;-;-;-;-;-;-;-;-;-
1513496873422;-;-;8.933258;-2.111496;-1.1533203;-;-;-;-;-;-;-;-;-;-;-;-;-;-;-
1513496873443;-;-;8.574127;-1.7092743;-1.3017578;-;-;-;-;-;-;-;-;-;-;-;-;-;-;-
1513496873463;-;-;8.696228;-1.8792572;-0.6768799;-;-;-;-;-;-;-;-;-;-;-;-;-;-;-
1513496873484;-;-;8.2114105;-1.289093;-1.693222;-;-;-;-;-;-;-;-;-;-;-;-;-;-;-
1513496873504;-;-;9.499481;-1.278305;-1.3029633;-;-;-;-;-;-;-;-;-;-;-;-;-;-;-
1513496873525;-;-;10.952759;-1.8517303;-1.7518768;-;-;-;-;-;-;-;-;-;-;-;-;-;-;-
1513496873545;-;-;9.324707;-1.3668976;-1.8572235;-;-;-;-;-;-;-;-;-;-;-;-;-;-;-
1513496873566;-;-;8.947617;-1.1681824;-1.9146729;-;-;-;-;-;-;-;-;-;-;-;-;-;-;-
1513496873585;-;-;9.104446;-1.1526184;-1.1808624;-;-;-;-;-;-;-;-;-;-;-;-;-;-;-
1513496873605;-;-;8.784821;-1.4590759;1.1750336;-;-;-;-;-;-;-;-;-;-;-;-;-;-;-
1513496873626;-;-;12.309082;-1.9283447;-4.468094;-;-;-;-;-;-;-;-;-;-;-;-;-;-;-
1513496873646;-;-;9.37738;-1.6817322;-3.1608582;-;-;-;-;-;-;-;-;-;-;-;-;-;-;-
1513496873667;-;-;7.217804;-0.8162384;-3.511612;-;-;-;-;-;-;-;-;-;-;-;-;-;-;-
1513496873688;-;-;8.671097;-0.30387878;-2.0236206;-;-;-;-;-;-;-;-;-;-;-;-;-;-;-
1513496873708;-;-;9.026627;0.046875;-1.179657;-;-;-;-;-;-;-;-;-;-;-;-;-;-;-
1513496873729;-;-;9.114014;-0.3086548;-1.3891449;-;-;-;-;-;-;-;-;-;-;-;-;-;-;-
1513496873749;-;-;9.972336;-1.1717682;-1.8284912;-;-;-;-;-;-;-;-;-;-;-;-;-;-;-
1513496873770;-;-;9.737701;-0.7815094;-1.3675995;-;-;-;-;-;-;-;-;-;-;-;-;-;-;-
1513496873790;-;-;10.068115;-0.56243896;-0.6840515;-;-;-;-;-;-;-;-;-;-;-;-;-;-;-
1513496873811;-;-;9.88855;-0.56843567;-1.5136566;-;-;-;-;-;-;-;-;-;-;-;-;-;-;-
1513496873830;-;-;10.357803;-1.1203003;-1.2502899;-;-;-;-;-;-;-;-;-;-;-;-;-;-;-
1513496873851;-;-;7.734955;0.7232361;-1.4645691;-;-;-;-;-;-;-;-;-;-;-;-;-;-;-
1513496873871;-;-;6.86467;1.4414978;-0.76187134;-;-;-;-;-;-;-;-;-;-;-;-;-;-;-
1513496873891;-;-;8.938049;-0.119522095;-1.2131805;-;-;-;-;-;-;-;-;-;-;-;-;-;-;-
1513496873911;-;-;6.833542;0.16778564;-0.89234924;-;-;-;-;-;-;-;-;-;-;-;-;-;-;-
1513496873932;-;-;6.8455048;0.33537292;-2.309723;-;-;-;-;-;-;-;-;-;-;-;-;-;-;-
1513496873955;-;-;8.157532;1.4295349;-1.5387878;-;-;-;-;-;-;-;-;-;-;-;-;-;-;-
1513496873972;-;-;9.740097;1.3517151;-0.7080078;-;-;-;-;-;-;-;-;-;-;-;-;-;-;-
1513496873993;-;-;9.957977;0.730423;-1.0192413;-;-;-;-;-;-;-;-;-;-;-;-;-;-;-
1513496874013;-;-;7.576935;0.36291504;-2.1624756;-;-;-;-;-;-;-;-;-;-;-;-;-;-;-
1513496874033;-;-;8.740524;0.27552795;-2.8460236;-;-;-;-;-;-;-;-;-;-;-;-;-;-;-
1513496874052;-;-;10.056137;-0.06564331;-1.7063904;-;-;-;-;-;-;-;-;-;-;-;-;-;-;-
1513496874072;-;-;8.30957;0.57121277;-1.6429291;-;-;-;-;-;-;-;-;-;-;-;-;-;-;-
1513496874093;-;-;10.515823;-0.1530304;-0.9258728;-;-;-;-;-;-;-;-;-;-;-;-;-;-;-
1513496874114;-;-;8.948822;0.40600586;-1.4502106;-;-;-;-;-;-;-;-;-;-;-;-;-;-;-
1513496874133;-;-;9.643143;0.56521606;-0.5727234;-;-;-;-;-;-;-;-;-;-;-;-;-;-;-
1513496874154;-;-;8.121628;0.84773254;-1.4837189;-;-;-;-;-;-;-;-;-;-;-;-;-;-;-
1513496874175;-;-;9.369003;1.4786072;0.255661;-;-;-;-;-;-;-;-;-;-;-;-;-;-;-
1513496874195;-;-;9.977127;0.3904419;-1.8177185;-;-;-;-;-;-;-;-;-;-;-;-;-;-;-
1513496874216;-;-;9.804749;0.016952515;-2.3228912;-;-;-;-;-;-;-;-;-;-;-;-;-;-;-
1513496874236;-;-;10.332672;-0.4666748;-1.9134827;-;-;-;-;-;-;-;-;-;-;-;-;-;-;-
1513496874257;-;-;9.039795;0.4658661;-2.7705994;-;-;-;-;-;-;-;-;-;-;-;-;-;-;-
1513496874277;-;-;8.307175;0.19172668;-2.2618408;-;-;-;-;-;-;-;-;-;-;-;-;-;-;-
1513496874298;-;-;7.5625763;-0.3074646;-3.1417084;-;-;-;-;-;-;-;-;-;-;-;-;-;-;-
1513496874318;-;-;9.622787;-1.5177307;-2.6089935;-;-;-;-;-;-;-;-;-;-;-;-;-;-;-
1513496874338;-;-;7.430893;-1.2663422;-2.254654;-;-;-;-;-;-;-;-;-;-;-;-;-;-;-
1513496874358;-;-;9.100845;-2.2946472;-1.9972839;-;-;-;-;-;-;-;-;-;-;-;-;-;-;-
1513496874379;-;-;7.5984955;-1.9702301;-2.776596;-;-;-;-;-;-;-;-;-;-;-;-;-;-;-
1513496874398;-;-;10.190216;-0.8701019;-2.2223358;-;-;-;-;-;-;-;-;-;-;-;-;-;-;-
1513496874418;-;-;9.342667;-1.8098297;-2.5491486;-;-;-;-;-;-;-;-;-;-;-;-;-;-;-
1513496874438;-;-;9.012268;-1.6027222;-3.0471344;-;-;-;-;-;-;-;-;-;-;-;-;-;-;-
1513496874459;-;-;8.910507;-2.0731812;-2.412674;-;-;-;-;-;-;-;-;-;-;-;-;-;-;-
1513496874479;-;-;8.205414;-2.5125275;-1.7099762;-;-;-;-;-;-;-;-;-;-;-;-;-;-;-
1513496874500;-;-;9.133179;-1.0747986;-3.2171173;-;-;-;-;-;-;-;-;-;-;-;-;-;-;-
1513496874520;-;-;9.576096;-2.5604095;-1.7758179;-;-;-;-;-;-;-;-;-;-;-;-;-;-;-
1513496874541;-;-;9.146347;-2.8896027;-2.6640625;-;-;-;-;-;-;-;-;-;-;-;-;-;-;-
1513496874561;-;-;8.557373;-2.2443695;-2.3396454;-;-;-;-;-;-;-;-;-;-;-;-;-;-;-
1513496874581;-;-;8.8051605;-1.8684845;-2.294159;-;-;-;-;-;-;-;-;-;-;-;-;-;-;-
1513496874602;-;-;8.896149;-1.6326599;-2.5527344;-;-;-;-;-;-;-;-;-;-;-;-;-;-;-
1513496874623;-;-;8.926071;-1.5524445;-2.4868927;-;-;-;-;-;-;-;-;-;-;-;-;-;-;-
1513496874643;-;-;8.818329;-1.5117493;-2.452179;-;-;-;-;-;-;-;-;-;-;-;-;-;-;-
1513496874663;-;-;8.685455;-1.609909;-2.2366943;-;-;-;-;-;-;-;-;-;-;-;-;-;-;-
1513496874684;-;-;8.542999;-1.7954559;-2.6484985;-;-;-;-;-;-;-;-;-;-;-;-;-;-;-
1513496874704;-;-;8.514267;-1.9211578;-2.6760406;-;-;-;-;-;-;-;-;-;-;-;-;-;-;-
1513496874725;-;-;8.770447;-1.898407;-2.5527344;-;-;-;-;-;-;-;-;-;-;-;-;-;-;-
1513496874746;-;-;8.8997345;-1.5560455;-2.4569702;-;-;-;-;-;-;-;-;-;-;-;-;-;-;-
1513496874766;-;-;9.021835;-1.4351349;-2.7478638;-;-;-;-;-;-;-;-;-;-;-;-;-;-;-
1513496874786;-;-;9.0182495;-1.6889191;-2.658081;-;-;-;-;-;-;-;-;-;-;-;-;-;-;-
1513496874807;-;-;8.946426;-1.8720703;-2.3635864;-;-;-;-;-;-;-;-;-;-;-;-;-;-;-
1513496874828;-;-;8.831497;-1.7631378;-2.1888123;-;-;-;-;-;-;-;-;-;-;-;-;-;-;-
1513496874847;-;-;8.757278;-1.5440674;-2.5204163;-;-;-;-;-;-;-;-;-;-;-;-;-;-;-
1513496874867;-;-;8.833893;-1.5416718;-2.819687;-;-;-;-;-;-;-;-;-;-;-;-;-;-;-
1513496874888;-;-;8.790802;-1.6326599;-2.9429932;-;-;-;-;-;-;-;-;-;-;-;-;-;-;-
1513496874908;-;-;8.703415;-1.530899;-2.6484985;-;-;-;-;-;-;-;-;-;-;-;-;-;-;-
1513496874929;-;-;8.560959;-1.3668976;-2.8053284;-;-;-;-;-;-;-;-;-;-;-;-;-;-;-
1513496874949;-;-;8.510681;-1.3908386;-3.018402;-;-;-;-;-;-;-;-;-;-;-;-;-;-;-
1513496874970;-;-;8.593277;-1.6673737;-2.9872742;-;-;-;-;-;-;-;-;-;-;-;-;-;-;-
1513496874989;-;-;8.844666;-1.8852386;-2.8663788;-;-;-;-;-;-;-;-;-;-;-;-;-;-;-
1513496875009;-;-;8.884171;-1.9283447;-2.938202;-;-;-;-;-;-;-;-;-;-;-;-;-;-;-
1513496875030;-;-;8.778824;-1.9079895;-2.9441833;-;-;-;-;-;-;-;-;-;-;-;-;-;-;-
1513496875050;-;-;8.58609;-1.9606628;-3.0591125;-;-;-;-;-;-;-;-;-;-;-;-;-;-;-
1513496875071;-;-;8.532227;-1.9462891;-3.073471;-;-;-;-;-;-;-;-;-;-;-;-;-;-;-
1513496875092;-;-;8.479553;-1.9415131;-3.1417084;-;-;-;-;-;-;-;-;-;-;-;-;-;-;-
1513496875111;-;-;8.459198;-1.9247437;-3.4709167;-;-;-;-;-;-;-;-;-;-;-;-;-;-;-
1513496875132;-;-;8.471176;-1.8182068;-3.7115326;-;-;-;-;-;-;-;-;-;-;-;-;-;-;-
1513496875151;-;-;8.311966;-1.775116;-3.9760895;-;-;-;-;-;-;-;-;-;-;-;-;-;-;-
1513496875171;-;-;8.234146;-1.874466;-3.9258118;-;-;-;-;-;-;-;-;-;-;-;-;-;-;-
1513496875192;-;-;8.320343;-1.8601074;-3.9042664;-;-;-;-;-;-;-;-;-;-;-;-;-;-;-
1513496875213;-;-;8.283234;-1.7631378;-4.1352997;-;-;-;-;-;-;-;-;-;-;-;-;-;-;-
1513496875232;-;-;8.241333;-1.5835724;-4.141281;-;-;-;-;-;-;-;-;-;-;-;-;-;-;-
1513496875253;-;-;8.16951;-1.5093536;-4.3172607;-;-;-;-;-;-;-;-;-;-;-;-;-;-;-
1513496875273;-;-;8.225769;-1.4315338;-4.2921143;-;-;-;-;-;-;-;-;-;-;-;-;-;-;-
1513496875294;-;-;8.477158;-1.3585205;-4.199951;-;-;-;-;-;-;-;-;-;-;-;-;-;-;-
1513496875313;-;-;8.88298;-1.4111938;-4.2454376;-;-;-;-;-;-;-;-;-;-;-;-;-;-;-
1513496875334;-;-;9.024231;-1.8098297;-4.709915;-;-;-;-;-;-;-;-;-;-;-;-;-;-;-
1513496875354;-;-;8.897339;-2.265915;-4.444153;-;-;-;-;-;-;-;-;-;-;-;-;-;-;-
1513496875374;-;-;8.254501;-2.3580933;-4.002426;-;-;-;-;-;-;-;-;-;-;-;-;-;-;-
1513496875395;-;-;7.6463776;-2.320984;-3.7342682;-;-;-;-;-;-;-;-;-;-;-;-;-;-;-
1513496875416;-;-;7.384201;-2.408371;-3.8683472;-;-;-;-;-;-;-;-;-;-;-;-;-;-;-
1513496875436;-;-;7.4440613;-2.356903;-3.8168793;-;-;-;-;-;-;-;-;-;-;-;-;-;-;-
1513496875457;-;-;7.944458;-2.183319;-4.0395355;-;-;-;-;-;-;-;-;-;-;-;-;-;-;-
1513496875477;-;-;8.462799;-1.8421478;-4.504013;-;-;-;-;-;-;-;-;-;-;-;-;-;-;-
1513496875498;-;-;8.532227;-1.6841278;-4.800888;-;-;-;-;-;-;-;-;-;-;-;-;-;-;-
1513496875517;-;-;8.376602;-1.7930603;-4.775757;-;-;-;-;-;-;-;-;-;-;-;-;-;-;-
1513496875538;-;-;8.297592;-1.9726257;-4.744629;-;-;-;-;-;-;-;-;-;-;-;-;-;-;-
1513496875557;-;-;8.064163;-2.0755768;-4.6045685;-;-;-;-;-;-;-;-;-;-;-;-;-;-;-
1513496875578;-;-;8.034241;-2.0276947;-4.480072;-;-;-;-;-;-;-;-;-;-;-;-;-;-;-
1513496875598;-;-;7.8642426;-2.0707855;-4.468094;-;-;-;-;-;-;-;-;-;-;-;-;-;-;-
1513496875618;-;-;7.763687;-1.9738312;-4.5698547;-;-;-;-;-;-;-;-;-;-;-;-;-;-;-
1513496875639;-;-;7.748123;-1.8792572;-4.7111053;-;-;-;-;-;-;-;-;-;-;-;-;-;-;-
1513496875659;-;-;7.691864;-1.8660889;-4.872711;-;-;-;-;-;-;-;-;-;-;-;-;-;-;-
1513496875680;-;-;7.865448;-1.9403076;-4.94693;-;-;-;-;-;-;-;-;-;-;-;-;-;-;-
1513496875701;-;-;7.921707;-1.8241882;-5.0678406;-;-;-;-;-;-;-;-;-;-;-;-;-;-;-
1513496875721;-;-;7.4883575;-1.6577911;-4.7027283;-;-;-;-;-;-;-;-;-;-;-;-;-;-;-
1513496875741;-;-;7.2824554;-2.190506;-4.6991425;-;-;-;-;-;-;-;-;-;-;-;-;-;-;-
1513496875761;-;-;7.3901978;-2.9195404;-4.575836;-;-;-;-;-;-;-;-;-;-;-;-;-;-;-
1513496875782;-;-;7.6739044;-3.3014069;-4.7314606;-;-;-;-;-;-;-;-;-;-;-;-;-;-;-
1513496875803;-;-;7.980362;-2.8860168;-4.936157;-;-;-;-;-;-;-;-;-;-;-;-;-;-;-
1513496875824;-;-;8.122818;-2.159378;-5.037918;-;-;-;-;-;-;-;-;-;-;-;-;-;-;-
1513496875844;-;-;7.9516296;-1.6972961;-5.0642548;-;-;-;-;-;-;-;-;-;-;-;-;-;-;-
1513496875864;-;-;7.75531;-1.6877136;-5.116928;-;-;-;-;-;-;-;-;-;-;-;-;-;-;-
1513496875885;-;-;7.7565002;-1.9833984;-5.132492;-;-;-;-;-;-;-;-;-;-;-;-;-;-;-
1513496875906;-;-;7.787628;-2.088745;-5.230652;-;-;-;-;-;-;-;-;-;-;-;-;-;-;-
1513496875926;-;-;7.6655273;-2.0504456;-5.333603;-;-;-;-;-;-;-;-;-;-;-;-;-;-;-
1513496875947;-;-;7.4560394;-1.9714355;-5.2773285;-;-;-;-;-;-;-;-;-;-;-;-;-;-;-
1513496875967;-;-;7.43927;-1.9893951;-5.0953827;-;-;-;-;-;-;-;-;-;-;-;-;-;-;-
1513496875987;-;-;7.497925;-2.0815735;-5.061859;-;-;-;-;-;-;-;-;-;-;-;-;-;-;-
1513496876008;-;-;7.5961;-2.1677551;-5.128891;-;-;-;-;-;-;-;-;-;-;-;-;-;-;-
1513496876028;-;-;7.7062225;-2.2419739;-5.112137;-;-;-;-;-;-;-;-;-;-;-;-;-;-;-
1513496876049;-;-;7.7565002;-2.3509216;-5.148041;-;-;-;-;-;-;-;-;-;-;-;-;-;-;-
1513496876070;-;-;7.6655273;-2.408371;-5.1001587;-;-;-;-;-;-;-;-;-;-;-;-;-;-;-
1513496876090;-;-;7.548218;-2.4071808;-5.136078;-;-;-;-;-;-;-;-;-;-;-;-;-;-;-
1513496876110;-;-;7.621231;-2.4646454;-5.0845947;-;-;-;-;-;-;-;-;-;-;-;-;-;-;-
1513496876131;-;-;7.5398254;-2.4550629;-5.0905914;-;-;-;-;-;-;-;-;-;-;-;-;-;-;-
1513496876151;-;-;7.545822;-2.4155579;-5.0558777;-;-;-;-;-;-;-;-;-;-;-;-;-;-;-
1513496876171;-;-;7.667923;-2.4191437;-5.048691;-;-;-;-;-;-;-;-;-;-;-;-;-;-;-
1513496876192;-;-;7.6667175;-2.3664703;-5.0630493;-;-;-;-;-;-;-;-;-;-;-;-;-;-;-
1513496876212;-;-;7.6236267;-2.317398;-5.013977;-;-;-;-;-;-;-;-;-;-;-;-;-;-;-
1513496876233;-;-;7.6236267;-2.281479;-5.0845947;-;-;-;-;-;-;-;-;-;-;-;-;-;-;-
1513496876253;-;-;7.5948944;-2.3269653;-5.0367126;-;-;-;-;-;-;-;-;-;-;-;-;-;-;-
1513496876274;-;-;7.61644;-2.3389435;-5.061859;-;-;-;-;-;-;-;-;-;-;-;-;-;-;-
1513496876294;-;-;7.5961;-2.317398;-5.0558777;-;-;-;-;-;-;-;-;-;-;-;-;-;-;-
1513496876315;-;-;7.5877075;-2.3114166;-5.0798187;-;-;-;-;-;-;-;-;-;-;-;-;-;-;-
1513496876335;-;-;7.605667;-2.2886658;-5.070236;-;-;-;-;-;-;-;-;-;-;-;-;-;-;-
1513496876356;-;-;7.609268;-2.238388;-5.096573;-;-;-;-;-;-;-;-;-;-;-;-;-;-;-
1513496876376;-;-;7.6176453;-2.2072601;-5.0953827;-;-;-;-;-;-;-;-;-;-;-;-;-;-;-
1513496876396;-;-;7.6104584;-2.2395782;-5.058258;-;-;-;-;-;-;-;-;-;-;-;-;-;-;-
1513496876417;-;-;7.5996857;-2.2551422;-5.0798187;-;-;-;-;-;-;-;-;-;-;-;-;-;-;-
1513496876438;-;-;7.557785;-2.261139;-5.1181183;-;-;-;-;-;-;-;-;-;-;-;-;-;-;-
1513496876458;-;-;7.5278625;-2.250351;-5.144455;-;-;-;-;-;-;-;-;-;-;-;-;-;-;-
1513496876478;-;-;7.564972;-2.2874756;-5.0869904;-;-;-;-;-;-;-;-;-;-;-;-;-;-;-
1513496876498;-;-;7.5829315;-2.2982483;-5.10495;-;-;-;-;-;-;-;-;-;-;-;-;-;-;-
1513496876519;-;-;7.611664;-2.2563477;-5.1504364;-;-;-;-;-;-;-;-;-;-;-;-;-;-;-
1513496876539;-;-;7.6152496;-2.2946472;-5.125305;-;-;-;-;-;-;-;-;-;-;-;-;-;-;-
1513496876559;-;-;7.5841217;-2.3353577;-5.18277;-;-;-;-;-;-;-;-;-;-;-;-;-;-;-
1513496876580;-;-;7.569763;-2.2970428;-5.140869;-;-;-;-;-;-;-;-;-;-;-;-;-;-;-
1513496876600;-;-;7.5446167;-2.2479706;-5.092987;-;-;-;-;-;-;-;-;-;-;-;-;-;-;-
1513496876621;-;-;7.5913086;-2.1569824;-5.0594635;-;-;-;-;-;-;-;-;-;-;-;-;-;-;-
1513496876642;-;-;7.6308136;-2.1402283;-5.108551;-;-;-;-;-;-;-;-;-;-;-;-;-;-;-
1513496876662;-;-;7.5685577;-2.1474;-5.10495;-;-;-;-;-;-;-;-;-;-;-;-;-;-;-
1513496876682;-;-;7.61644;-2.1533966;-5.081009;-;-;-;-;-;-;-;-;-;-;-;-;-;-;-
1513496876703;-;-;7.6966553;-2.222824;-5.1707916;-;-;-;-;-;-;-;-;-;-;-;-;-;-;-
1513496876723;-;-;7.5865173;-2.222824;-5.1899414;-;-;-;-;-;-;-;-;-;-;-;-;-;-;-
1513496876744;-;-;7.572159;-2.2527466;-5.0858;-;-;-;-;-;-;-;-;-;-;-;-;-;-;-
1513496876764;-;-;7.5781403;-2.262329;-5.058258;-;-;-;-;-;-;-;-;-;-;-;-;-;-;-
1513496876785;-;-;7.4895477;-2.2587433;-4.990036;-;-;-;-;-;-;-;-;-;-;-;-;-;-;-
1513496876805;-;-;7.5709534;-2.230011;-5.057068;-;-;-;-;-;-;-;-;-;-;-;-;-;-;-
1513496876825;-;-;7.6870728;-2.214447;-5.0845947;-;-;-;-;-;-;-;-;-;-;-;-;-;-;-
1513496876846;-;-;7.7421417;-2.2156372;-5.1181183;-;-;-;-;-;-;-;-;-;-;-;-;-;-;-
1513496876866;-;-;7.6810913;-2.2443695;-5.1396637;-;-;-;-;-;-;-;-;-;-;-;-;-;-;-
1513496876887;-;-;7.620041;-2.2348022;-5.125305;-;-;-;-;-;-;-;-;-;-;-;-;-;-;-
1513496876906;-;-;7.59729;-2.230011;-5.0642548;-;-;-;-;-;-;-;-;-;-;-;-;-;-;-
1513496876927;-;-;7.576935;-2.2156372;-5.0474854;-;-;-;-;-;-;-;-;-;-;-;-;-;-;-
1513496876947;-;-;7.566162;-2.230011;-5.0869904;-;-;-;-;-;-;-;-;-;-;-;-;-;-;-
1513496876968;-;-;7.569763;-2.2240143;-5.1264954;-;-;-;-;-;-;-;-;-;-;-;-;-;-;-
1513496876988;-;-;7.5865173;-2.1929016;-5.1336823;-;-;-;-;-;-;-;-;-;-;-;-;-;-;-
1513496877009;-;-;7.5757446;-2.1845245;-5.144455;-;-;-;-;-;-;-;-;-;-;-;-;-;-;-
1513496877028;-;-;7.5709534;-2.1893005;-5.120514;-;-;-;-;-;-;-;-;-;-;-;-;-;-;-
1513496877049;-;-;7.550598;-2.1916962;-5.125305;-;-;-;-;-;-;-;-;-;-;-;-;-;-;-
1513496877068;-;-;7.5913086;-2.1533966;-5.1384735;-;-;-;-;-;-;-;-;-;-;-;-;-;-;-
1513496877089;-;-;7.588913;-2.186905;-5.1336823;-;-;-;-;-;-;-;-;-;-;-;-;-;-;-
1513496877110;-;-;7.5865173;-2.1893005;-5.125305;-;-;-;-;-;-;-;-;-;-;-;-;-;-;-
1513496877130;-;-;7.612854;-2.210846;-5.101364;-;-;-;-;-;-;-;-;-;-;-;-;-;-;-
1513496877151;-;-;7.6068726;-2.238388;-5.156433;-;-;-;-;-;-;-;-;-;-;-;-;-;-;-
1513496877171;-;-;7.6080627;-2.2312012;-5.092987;-;-;-;-;-;-;-;-;-;-;-;-;-;-;-
1513496877192;-;-;7.5757446;-2.2048645;-5.1420593;-;-;-;-;-;-;-;-;-;-;-;-;-;-;-
1513496877212;-;-;7.5230713;-2.1929016;-5.152832;-;-;-;-;-;-;-;-;-;-;-;-;-;-;-
1513496877233;-;-;7.5757446;-2.210846;-5.1193237;-;-;-;-;-;-;-;-;-;-;-;-;-;-;-
1513496877253;-;-;7.5709534;-2.2036743;-5.1229095;-;-;-;-;-;-;-;-;-;-;-;-;-;-;-
1513496877274;-;-;7.573349;-2.2348022;-5.1779785;-;-;-;-;-;-;-;-;-;-;-;-;-;-;-
1513496877295;-;-;7.672714;-2.2587433;-5.1863556;-;-;-;-;-;-;-;-;-;-;-;-;-;-;-
1513496877315;-;-;7.645172;-2.261139;-5.1983337;-;-;-;-;-;-;-;-;-;-;-;-;-;-;-
1513496877336;-;-;7.532654;-2.1785278;-5.0762177;-;-;-;-;-;-;-;-;-;-;-;-;-;-;-
1513496877355;-;-;7.5470123;-2.1857147;-5.116928;-;-;-;-;-;-;-;-;-;-;-;-;-;-;-
1513496877376;-;-;7.561386;-2.2168427;-5.0594635;-;-;-;-;-;-;-;-;-;-;-;-;-;-;-
1513496877396;-;-;7.580536;-2.2000732;-5.070236;-;-;-;-;-;-;-;-;-;-;-;-;-;-;-
1513496877417;-;-;7.61644;-2.2072601;-5.101364;-;-;-;-;-;-;-;-;-;-;-;-;-;-;-
1513496877436;-;-;7.640381;-2.2132416;-5.127701;-;-;-;-;-;-;-;-;-;-;-;-;-;-;-
1513496877457;-;-;7.611664;-2.2312012;-5.0869904;-;-;-;-;-;-;-;-;-;-;-;-;-;-;-
1513496877477;-;-;7.6020813;-2.2395782;-5.132492;-;-;-;-;-;-;-;-;-;-;-;-;-;-;-
1513496877498;-;-;7.5961;-2.2359924;-5.1229095;-;-;-;-;-;-;-;-;-;-;-;-;-;-;-
1513496877518;-;-;7.588913;-2.238388;-5.1312866;-;-;-;-;-;-;-;-;-;-;-;-;-;-;-
1513496877538;-;-;7.574539;-2.2599335;-5.1073456;-;-;-;-;-;-;-;-;-;-;-;-;-;-;-
1513496877559;-;-;7.600876;-2.210846;-5.0822144;-;-;-;-;-;-;-;-;-;-;-;-;-;-;-
1513496877579;-;-;7.576935;-2.22641;-5.1109314;-;-;-;-;-;-;-;-;-;-;-;-;-;-;-
1513496877600;-;-;7.5984955;-2.1785278;-5.1157227;-;-;-;-;-;-;-;-;-;-;-;-;-;-;-
1513496877620;-;-;7.628418;-2.1964874;-5.121704;-;-;-;-;-;-;-;-;-;-;-;-;-;-;-
1513496877641;-;-;7.6380005;-2.2012787;-5.1073456;-;-;-;-;-;-;-;-;-;-;-;-;-;-;-
1513496877661;-;-;7.5829315;-2.198883;-5.1157227;-;-;-;-;-;-;-;-;-;-;-;-;-;-;-
1513496877681;-;-;7.600876;-2.1929016;-5.1312866;-;-;-;-;-;-;-;-;-;-;-;-;-;-;-
1513496877702;-;-;7.5625763;-2.2012787;-5.1109314;-;-;-;-;-;-;-;-;-;-;-;-;-;-;-
1513496877723;-;-;7.5350494;-2.2192383;-5.097763;-;-;-;-;-;-;-;-;-;-;-;-;-;-;-
1513496877743;-;-;7.611664;-2.2192383;-5.088196;-;-;-;-;-;-;-;-;-;-;-;-;-;-;-
1513496877763;-;-;7.621231;-2.2359924;-5.1109314;-;-;-;-;-;-;-;-;-;-;-;-;-;-;-
1513496877784;-;-;7.59729;-2.2168427;-5.149246;-;-;-;-;-;-;-;-;-;-;-;-;-;-;-
1513496877804;-;-;7.585327;-2.20607;-5.161209;-;-;-;-;-;-;-;-;-;-;-;-;-;-;-
1513496877825;-;-;7.5553894;-2.1677551;-5.1157227;-;-;-;-;-;-;-;-;-;-;-;-;-;-;-
1513496877846;-;-;7.533844;-2.20607;-5.077423;-;-;-;-;-;-;-;-;-;-;-;-;-;-;-
1513496877866;-;-;7.5913086;-2.2180328;-5.1193237;-;-;-;-;-;-;-;-;-;-;-;-;-;-;-
1513496877886;-;-;7.580536;-2.1701508;-5.1504364;-;-;-;-;-;-;-;-;-;-;-;-;-;-;-
1513496877907;-;-;7.6667175;-2.2407837;-5.176773;-;-;-;-;-;-;-;-;-;-;-;-;-;-;-
1513496877927;-;-;7.612854;-2.210846;-5.2031097;-;-;-;-;-;-;-;-;-;-;-;-;-;-;-
1513496877948;-;-;7.566162;-2.182129;-5.109741;-;-;-;-;-;-;-;-;-;-;-;-;-;-;-
1513496877969;-;-;7.5673676;-2.1809235;-5.1073456;-;-;-;-;-;-;-;-;-;-;-;-;-;-;-
1513496877988;-;-;7.5194855;-2.2072601;-5.1456604;-;-;-;-;-;-;-;-;-;-;-;-;-;-;-
1513496878009;-;-;7.5553894;-2.190506;-5.097763;-;-;-;-;-;-;-;-;-;-;-;-;-;-;-
1513496878030;-;-;7.636795;-2.2000732;-5.1157227;-;-;-;-;-;-;-;-;-;-;-;-;-;-;-
1513496878050;-;-;7.6499634;-2.2479706;-5.1181183;-;-;-;-;-;-;-;-;-;-;-;-;-;-;-
1513496878069;-;-;7.633209;-2.2527466;-5.16481;-;-;-;-;-;-;-;-;-;-;-;-;-;-;-
1513496878090;-;-;7.576935;-2.2671204;-5.1456604;-;-;-;-;-;-;-;-;-;-;-;-;-;-;-
1513496878110;-;-;7.557785;-2.2551422;-5.1396637;-;-;-;-;-;-;-;-;-;-;-;-;-;-;-
1513496878131;-;-;7.556595;-2.2407837;-5.1336823;-;-;-;-;-;-;-;-;-;-;-;-;-;-;-
1513496878151;-;-;7.5242615;-2.2479706;-5.1073456;-;-;-;-;-;-;-;-;-;-;-;-;-;-;-
1513496878171;-;-;7.569763;-2.2192383;-5.0786133;-;-;-;-;-;-;-;-;-;-;-;-;-;-;-
1513496878192;-;-;7.6272125;-2.20607;-5.121704;-;-;-;-;-;-;-;-;-;-;-;-;-;-;-
1513496878212;-;-;7.6583405;-2.1857147;-5.1229095;-;-;-;-;-;-;-;-;-;-;-;-;-;-;-
1513496878232;-;-;7.621231;-2.2120514;-5.136078;-;-;-;-;-;-;-;-;-;-;-;-;-;-;-
1513496878253;-;-;7.5877075;-2.230011;-5.128891;-;-;-;-;-;-;-;-;-;-;-;-;-;-;-
1513496878272;-;-;7.5913086;-2.2359924;-5.092987;-;-;-;-;-;-;-;-;-;-;-;-;-;-;-
1513496878293;-;-;7.6032715;-2.2575378;-5.058258;-;-;-;-;-;-;-;-;-;-;-;-;-;-;-
1513496878313;-;-;7.5589905;-2.2743073;-5.1061554;-;-;-;-;-;-;-;-;-;-;-;-;-;-;-
1513496878334;-;-;7.574539;-2.2599335;-5.136078;-;-;-;-;-;-;-;-;-;-;-;-;-;-;-
1513496878354;-;-;7.620041;-2.2335968;-5.1193237;-;-;-;-;-;-;-;-;-;-;-;-;-;-;-
1513496878374;-;-;7.6104584;-2.2515564;-5.112137;-;-;-;-;-;-;-;-;-;-;-;-;-;-;-
1513496878394;-;-;7.5961;-2.230011;-5.1468506;-;-;-;-;-;-;-;-;-;-;-;-;-;-;-
1513496878415;-;-;7.5913086;-2.2431793;-5.132492;-;-;-;-;-;-;-;-;-;-;-;-;-;-;-
1513496878435;-;-;7.600876;-2.2348022;-5.1240997;-;-;-;-;-;-;-;-;-;-;-;-;-;-;-
1513496878456;-;-;7.588913;-2.2419739;-5.128891;-;-;-;-;-;-;-;-;-;-;-;-;-;-;-
1513496878476;-;-;7.5877075;-2.230011;-5.109741;-;-;-;-;-;-;-;-;-;-;-;-;-;-;-
1513496878497;-;-;7.590103;-2.22641;-5.0941772;-;-;-;-;-;-;-;-;-;-;-;-;-;-;-
1513496878518;-;-;7.593704;-2.222824;-5.065445;-;-;-;-;-;-;-;-;-;-;-;-;-;-;-
1513496878538;-;-;7.5781403;-2.2156372;-5.127701;-;-;-;-;-;-;-;-;-;-;-;-;-;-;-
1513496878558;-;-;7.6547546;-2.2754974;-5.1731873;-;-;-;-;-;-;-;-;-;-;-;-;-;-;-
1513496878579;-;-;7.6188354;-2.2527466;-5.1815643;-;-;-;-;-;-;-;-;-;-;-;-;-;-;-
1513496878599;-;-;7.541031;-2.1940918;-5.140869;-;-;-;-;-;-;-;-;-;-;-;-;-;-;-
1513496878620;-;-;7.569763;-2.186905;-5.0319366;-;-;-;-;-;-;-;-;-;-;-;-;-;-;-
1513496878640;-;-;7.5757446;-2.2419739;-5.0355225;-;-;-;-;-;-;-;-;-;-;-;-;-;-;-
1513496878661;-;-;7.580536;-2.2587433;-5.077423;-;-;-;-;-;-;-;-;-;-;-;-;-;-;-
1513496878681;-;-;7.6511536;-2.2276154;-5.10376;-;-;-;-;-;-;-;-;-;-;-;-;-;-;-
1513496878702;-;-;7.6655273;-2.2359924;-5.120514;-;-;-;-;-;-;-;-;-;-;-;-;-;-;-
1513496878722;-;-;7.614044;-2.2599335;-5.1181183;-;-;-;-;-;-;-;-;-;-;-;-;-;-;-
1513496878743;-;-;7.581726;-2.2359924;-5.132492;-;-;-;-;-;-;-;-;-;-;-;-;-;-;-
1513496878762;-;-;7.5637665;-2.2754974;-5.1384735;-;-;-;-;-;-;-;-;-;-;-;-;-;-;-
1513496878782;-;-;7.573349;-2.2084656;-5.1109314;-;-;-;-;-;-;-;-;-;-;-;-;-;-;-
1513496878803;-;-;7.5553894;-2.221634;-5.070236;-;-;-;-;-;-;-;-;-;-;-;-;-;-;-
1513496878823;-;-;7.554199;-2.2072601;-5.128891;-;-;-;-;-;-;-;-;-;-;-;-;-;-;-
1513496878844;-;-;7.6152496;-2.2407837;-5.0869904;-;-;-;-;-;-;-;-;-;-;-;-;-;-;-
1513496878865;-;-;7.604477;-2.2036743;-5.1384735;-;-;-;-;-;-;-;-;-;-;-;-;-;-;-
1513496878885;-;-;7.5984955;-2.221634;-5.128891;-;-;-;-;-;-;-;-;-;-;-;-;-;-;-
1513496878905;-;-;7.581726;-2.198883;-5.0953827;-;-;-;-;-;-;-;-;-;-;-;-;-;-;-
1513496878926;-;-;7.5877075;-2.2443695;-5.073822;-;-;-;-;-;-;-;-;-;-;-;-;-;-;-
1513496878946;-;-;7.605667;-2.2766876;-5.0678406;-;-;-;-;-;-;-;-;-;-;-;-;-;-;-
1513496878967;-;-;7.593704;-2.2551422;-5.116928;-;-;-;-;-;-;-;-;-;-;-;-;-;-;-
1513496878988;-;-;7.5518036;-2.2575378;-5.10376;-;-;-;-;-;-;-;-;-;-;-;-;-;-;-
1513496879007;-;-;7.592499;-2.2168427;-5.1145325;-;-;-;-;-;-;-;-;-;-;-;-;-;-;-
1513496879028;-;-;7.6080627;-2.2431793;-5.1336823;-;-;-;-;-;-;-;-;-;-;-;-;-;-;-
1513496879048;-;-;7.5757446;-2.2276154;-5.152832;-;-;-;-;-;-;-;-;-;-;-;-;-;-;-
1513496879069;-;-;7.5793304;-2.2096558;-5.1348724;-;-;-;-;-;-;-;-;-;-;-;-;-;-;-
1513496879089;-;-;7.61644;-2.2084656;-5.1109314;-;-;-;-;-;-;-;-;-;-;-;-;-;-;-
1513496879110;-;-;7.572159;-2.2371826;-5.128891;-;-;-;-;-;-;-;-;-;-;-;-;-;-;-
1513496879129;-;-;7.564972;-2.2491608;-5.1504364;-;-;-;-;-;-;-;-;-;-;-;-;-;-;-
1513496879150;-;-;7.53743;-2.293457;-5.1588287;-;-;-;-;-;-;-;-;-;-;-;-;-;-;-
1513496879170;-;-;7.554199;-2.2431793;-5.1588287;-;-;-;-;-;-;-;-;-;-;-;-;-;-;-
1513496879191;-;-;7.556595;-2.190506;-5.1312866;-;-;-;-;-;-;-;-;-;-;-;-;-;-;-
1513496879210;-;-;7.635605;-2.198883;-5.128891;-;-;-;-;-;-;-;-;-;-;-;-;-;-;-
1513496879231;-;-;7.590103;-2.198883;-5.2126923;-;-;-;-;-;-;-;-;-;-;-;-;-;-;-
1513496879250;-;-;7.5601807;-2.2120514;-5.167206;-;-;-;-;-;-;-;-;-;-;-;-;-;-;-
1513496879270;-;-;7.659546;-2.2994385;-5.188751;-;-;-;-;-;-;-;-;-;-;-;-;-;-;-
1513496879291;-;-;7.590103;-2.2910614;-5.1863556;-;-;-;-;-;-;-;-;-;-;-;-;-;-;-
1513496879311;-;-;7.5242615;-2.221634;-5.0953827;-;-;-;-;-;-;-;-;-;-;-;-;-;-;-
1513496879332;-;-;7.5601807;-2.222824;-5.0714264;-;-;-;-;-;-;-;-;-;-;-;-;-;-;-
1513496879353;-;-;7.5446167;-2.1929016;-5.0666504;-;-;-;-;-;-;-;-;-;-;-;-;-;-;-
1513496879372;-;-;7.5278625;-2.1737366;-5.0858;-;-;-;-;-;-;-;-;-;-;-;-;-;-;-
1513496879392;-;-;7.590103;-2.2096558;-5.1073456;-;-;-;-;-;-;-;-;-;-;-;-;-;-;-
1513496879413;-;-;7.6152496;-2.1964874;-5.1001587;-;-;-;-;-;-;-;-;-;-;-;-;-;-;-
1513496879433;-;-;7.6032715;-2.2348022;-5.136078;-;-;-;-;-;-;-;-;-;-;-;-;-;-;-
1513496879456;-;-;7.572159;-2.2575378;-5.171997;-;-;-;-;-;-;-;-;-;-;-;-;-;-;-
1513496879474;-;-;7.5601807;-2.2719116;-5.112137;-;-;-;-;-;-;-;-;-;-;-;-;-;-;-
1513496879494;-;-;7.5877075;-2.253952;-5.0678406;-;-;-;-;-;-;-;-;-;-;-;-;-;-;-
1513496879515;-;-;7.5865173;-2.2443695;-5.053482;-;-;-;-;-;-;-;-;-;-;-;-;-;-;-
1513496879535;-;-;7.6020813;-2.2479706;-5.0714264;-;-;-;-;-;-;-;-;-;-;-;-;-;-;-
1513496879556;-;-;7.592499;-2.230011;-5.0845947;-;-;-;-;-;-;-;-;-;-;-;-;-;-;-
1513496879576;-;-;7.5948944;-2.221634;-5.112137;-;-;-;-;-;-;-;-;-;-;-;-;-;-;-
1513496879596;-;-;7.633209;-2.2467651;-5.148041;-;-;-;-;-;-;-;-;-;-;-;-;-;-;-
1513496879616;-;-;7.645172;-2.210846;-5.088196;-;-;-;-;-;-;-;-;-;-;-;-;-;-;-
1513496879637;-;-;7.612854;-2.222824;-5.0762177;-;-;-;-;-;-;-;-;-;-;-;-;-;-;-
1513496879658;-;-;7.6224365;-2.2204285;-5.112137;-;-;-;-;-;-;-;-;-;-;-;-;-;-;-
1513496879678;-;-;7.6272125;-2.2204285;-5.116928;-;-;-;-;-;-;-;-;-;-;-;-;-;-;-
1513496879698;-;-;7.6032715;-2.2240143;-5.1336823;-;-;-;-;-;-;-;-;-;-;-;-;-;-;-
1513496879719;-;-;7.59729;-2.2587433;-5.0989685;-;-;-;-;-;-;-;-;-;-;-;-;-;-;-
1513496879739;-;-;7.5637665;-2.2551422;-5.096573;-;-;-;-;-;-;-;-;-;-;-;-;-;-;-
1513496879760;-;-;7.612854;-2.2120514;-5.0834045;-;-;-;-;-;-;-;-;-;-;-;-;-;-;-
1513496879780;-;-;7.6032715;-2.2132416;-5.1061554;-;-;-;-;-;-;-;-;-;-;-;-;-;-;-
1513496879801;-;-;7.6343994;-2.190506;-5.113327;-;-;-;-;-;-;-;-;-;-;-;-;-;-;-
1513496879821;-;-;7.5913086;-2.2120514;-5.1157227;-;-;-;-;-;-;-;-;-;-;-;-;-;-;-
1513496879841;-;-;7.5829315;-2.210846;-5.0953827;-;-;-;-;-;-;-;-;-;-;-;-;-;-;-
1513496879862;-;-;7.5589905;-2.1785278;-5.0474854;-;-;-;-;-;-;-;-;-;-;-;-;-;-;-
1513496879883;-;-;7.5948944;-2.2084656;-5.0845947;-;-;-;-;-;-;-;-;-;-;-;-;-;-;-
1513496879903;-;-;7.6176453;-2.2204285;-5.101364;-;-;-;-;-;-;-;-;-;-;-;-;-;-;-
1513496879924;-;-;7.593704;-2.2419739;-5.0941772;-;-;-;-;-;-;-;-;-;-;-;-;-;-;-
1513496879944;-;-;7.636795;-2.2335968;-5.077423;-;-;-;-;-;-;-;-;-;-;-;-;-;-;-
1513496879964;-;-;7.6260223;-2.214447;-5.0786133;-;-;-;-;-;-;-;-;-;-;-;-;-;-;-
1513496879985;-;-;7.51709;-2.1952972;-5.0953827;-;-;-;-;-;-;-;-;-;-;-;-;-;-;-
1513496880005;-;-;7.6547546;-2.2252197;-5.0786133;-;-;-;-;-;-;-;-;-;-;-;-;-;-;-
1513496880025;-;-;7.6978455;-2.262329;-5.1504364;-;-;-;-;-;-;-;-;-;-;-;-;-;-;-
1513496880045;-;-;7.5398254;-2.214447;-5.136078;-;-;-;-;-;-;-;-;-;-;-;-;-;-;-
1513496880066;-;-;7.590103;-2.2024689;-5.0630493;-;-;-;-;-;-;-;-;-;-;-;-;-;-;-
1513496880086;-;-;7.561386;-2.2563477;-5.061859;-;-;-;-;-;-;-;-;-;-;-;-;-;-;-
1513496880106;-;-;7.5781403;-2.20607;-5.070236;-;-;-;-;-;-;-;-;-;-;-;-;-;-;-
1513496880127;-;-;7.605667;-2.2491608;-5.096573;-;-;-;-;-;-;-;-;-;-;-;-;-;-;-
1513496880146;-;-;7.6104584;-2.2252197;-5.10376;-;-;-;-;-;-;-;-;-;-;-;-;-;-;-
1513496880166;-;-;7.624832;-2.250351;-5.116928;-;-;-;-;-;-;-;-;-;-;-;-;-;-;-
1513496880187;-;-;7.636795;-2.2683105;-5.149246;-;-;-;-;-;-;-;-;-;-;-;-;-;-;-
1513496880207;-;-;7.6032715;-2.2671204;-5.1348724;-;-;-;-;-;-;-;-;-;-;-;-;-;-;-
1513496880227;-;-;7.5685577;-2.2766876;-5.108551;-;-;-;-;-;-;-;-;-;-;-;-;-;-;-
1513496880248;-;-;7.585327;-2.2288055;-5.081009;-;-;-;-;-;-;-;-;-;-;-;-;-;-;-
1513496880268;-;-;7.590103;-2.2467651;-5.125305;-;-;-;-;-;-;-;-;-;-;-;-;-;-;-
1513496880288;-;-;7.6032715;-2.238388;-5.121704;-;-;-;-;-;-;-;-;-;-;-;-;-;-;-
1513496880308;-;-;7.6224365;-2.222824;-5.112137;-;-;-;-;-;-;-;-;-;-;-;-;-;-;-
1513496880328;-;-;7.6236267;-2.2048645;-5.1109314;-;-;-;-;-;-;-;-;-;-;-;-;-;-;-
1513496880349;-;-;7.6188354;-2.2395782;-5.1396637;-;-;-;-;-;-;-;-;-;-;-;-;-;-;-
1513496880369;-;-;7.600876;-2.2000732;-5.120514;-;-;-;-;-;-;-;-;-;-;-;-;-;-;-
1513496880389;-;-;7.564972;-2.2395782;-5.1240997;-;-;-;-;-;-;-;-;-;-;-;-;-;-;-
1513496880410;-;-;7.572159;-2.2132416;-5.1456604;-;-;-;-;-;-;-;-;-;-;-;-;-;-;-
1513496880430;-;-;7.557785;-2.2491608;-5.1552277;-;-;-;-;-;-;-;-;-;-;-;-;-;-;-
1513496880451;-;-;7.542221;-2.222824;-5.149246;-;-;-;-;-;-;-;-;-;-;-;-;-;-;-
1513496880471;-;-;7.564972;-2.2276154;-5.168396;-;-;-;-;-;-;-;-;-;-;-;-;-;-;-
1513496880492;-;-;7.5709534;-2.221634;-5.1696014;-;-;-;-;-;-;-;-;-;-;-;-;-;-;-
1513496880512;-;-;7.5829315;-2.1964874;-5.120514;-;-;-;-;-;-;-;-;-;-;-;-;-;-;-
1513496880533;-;-;7.5757446;-2.198883;-5.1312866;-;-;-;-;-;-;-;-;-;-;-;-;-;-;-
1513496880553;-;-;7.572159;-2.2036743;-5.0917816;-;-;-;-;-;-;-;-;-;-;-;-;-;-;-
1513496880574;-;-;7.590103;-2.230011;-5.092987;-;-;-;-;-;-;-;-;-;-;-;-;-;-;-
1513496880594;-;-;7.5757446;-2.2180328;-5.1025543;-;-;-;-;-;-;-;-;-;-;-;-;-;-;-
1513496880614;-;-;7.5625763;-2.2431793;-5.140869;-;-;-;-;-;-;-;-;-;-;-;-;-;-;-
1513496880635;-;-;7.5625763;-2.2168427;-5.0953827;-;-;-;-;-;-;-;-;-;-;-;-;-;-;-
1513496880655;-;-;7.5996857;-2.2335968;-5.108551;-;-;-;-;-;-;-;-;-;-;-;-;-;-;-
1513496880676;-;-;7.6391907;-2.2132416;-5.081009;-;-;-;-;-;-;-;-;-;-;-;-;-;-;-
1513496880697;-;-;7.5685577;-2.20607;-5.1899414;-;-;-;-;-;-;-;-;-;-;-;-;-;-;-
1513496880717;-;-;7.592499;-2.2204285;-5.1336823;-;-;-;-;-;-;-;-;-;-;-;-;-;-;-
1513496880738;-;-;7.6894684;-2.2348022;-5.1971283;-;-;-;-;-;-;-;-;-;-;-;-;-;-;-
1513496880758;-;-;7.5434265;-2.2000732;-5.1779785;-;-;-;-;-;-;-;-;-;-;-;-;-;-;-
1513496880779;-;-;7.545822;-2.1617737;-5.049881;-;-;-;-;-;-;-;-;-;-;-;-;-;-;-
1513496880799;-;-;7.572159;-2.186905;-5.065445;-;-;-;-;-;-;-;-;-;-;-;-;-;-;-
1513496880820;-;-;7.561386;-2.198883;-5.1312866;-;-;-;-;-;-;-;-;-;-;-;-;-;-;-
1513496880839;-;-;7.5829315;-2.1964874;-5.109741;-;-;-;-;-;-;-;-;-;-;-;-;-;-;-
1513496880860;-;-;7.6080627;-2.2276154;-5.112137;-;-;-;-;-;-;-;-;-;-;-;-;-;-;-
1513496880880;-;-;7.645172;-2.2359924;-5.1181183;-;-;-;-;-;-;-;-;-;-;-;-;-;-;-
1513496880901;-;-;7.6380005;-2.214447;-5.1576233;-;-;-;-;-;-;-;-;-;-;-;-;-;-;-
1513496880922;-;-;7.5841217;-2.210846;-5.1109314;-;-;-;-;-;-;-;-;-;-;-;-;-;-;-
1513496880942;-;-;7.5673676;-2.214447;-5.0762177;-;-;-;-;-;-;-;-;-;-;-;-;-;-;-
1513496880963;-;-;7.5913086;-2.2240143;-5.113327;-;-;-;-;-;-;-;-;-;-;-;-;-;-;-
1513496880983;-;-;7.6020813;-2.222824;-5.113327;-;-;-;-;-;-;-;-;-;-;-;-;-;-;-
1513496881003;-;-;7.605667;-2.20607;-5.0869904;-;-;-;-;-;-;-;-;-;-;-;-;-;-;-
1513496881024;-;-;7.6104584;-2.20607;-5.081009;-;-;-;-;-;-;-;-;-;-;-;-;-;-;-
1513496881044;-;-;7.611664;-2.2096558;-5.1025543;-;-;-;-;-;-;-;-;-;-;-;-;-;-;-
1513496881065;-;-;7.5709534;-2.1964874;-5.113327;-;-;-;-;-;-;-;-;-;-;-;-;-;-;-
1513496881084;-;-;7.564972;-2.2348022;-5.0869904;-;-;-;-;-;-;-;-;-;-;-;-;-;-;-
1513496881105;-;-;7.605667;-2.2587433;-5.113327;-;-;-;-;-;-;-;-;-;-;-;-;-;-;-
1513496881125;-;-;7.5961;-2.2467651;-5.0834045;-;-;-;-;-;-;-;-;-;-;-;-;-;-;-
1513496881146;-;-;7.5793304;-2.2467651;-5.1193237;-;-;-;-;-;-;-;-;-;-;-;-;-;-;-
1513496881166;-;-;7.5793304;-2.2431793;-5.096573;-;-;-;-;-;-;-;-;-;-;-;-;-;-;-
1513496881186;-;-;7.573349;-2.214447;-5.109741;-;-;-;-;-;-;-;-;-;-;-;-;-;-;-
1513496881207;-;-;7.5841217;-2.2443695;-5.148041;-;-;-;-;-;-;-;-;-;-;-;-;-;-;-
1513496881227;-;-;7.5877075;-2.2084656;-5.136078;-;-;-;-;-;-;-;-;-;-;-;-;-;-;-
1513496881248;-;-;7.5589905;-2.222824;-5.137268;-;-;-;-;-;-;-;-;-;-;-;-;-;-;-
1513496881268;-;-;7.6020813;-2.253952;-5.1181183;-;-;-;-;-;-;-;-;-;-;-;-;-;-;-
1513496881289;-;-;7.5673676;-2.2371826;-5.121704;-;-;-;-;-;-;-;-;-;-;-;-;-;-;-
1513496881309;-;-;7.5601807;-2.20607;-5.1420593;-;-;-;-;-;-;-;-;-;-;-;-;-;-;-
1513496881330;-;-;7.5757446;-2.214447;-5.1181183;-;-;-;-;-;-;-;-;-;-;-;-;-;-;-
1513496881351;-;-;7.5877075;-2.2395782;-5.096573;-;-;-;-;-;-;-;-;-;-;-;-;-;-;-
1513496881371;-;-;7.632004;-2.221634;-5.128891;-;-;-;-;-;-;-;-;-;-;-;-;-;-;-
1513496881391;-;-;7.5625763;-2.2072601;-5.149246;-;-;-;-;-;-;-;-;-;-;-;-;-;-;-
1513496881412;-;-;7.6415863;-2.253952;-5.120514;-;-;-;-;-;-;-;-;-;-;-;-;-;-;-
1513496881432;-;-;7.6236267;-2.2419739;-5.1456604;-;-;-;-;-;-;-;-;-;-;-;-;-;-;-
1513496881453;-;-;7.51828;-2.1809235;-5.1456604;-;-;-;-;-;-;-;-;-;-;-;-;-;-;-
1513496881474;-;-;7.5781403;-2.22641;-5.0858;-;-;-;-;-;-;-;-;-;-;-;-;-;-;-
1513496881494;-;-;7.6032715;-2.2204285;-5.0905914;-;-;-;-;-;-;-;-;-;-;-;-;-;-;-
1513496881514;-;-;7.5829315;-2.245575;-5.081009;-;-;-;-;-;-;-;-;-;-;-;-;-;-;-
1513496881535;-;-;7.612854;-2.2407837;-5.113327;-;-;-;-;-;-;-;-;-;-;-;-;-;-;-
1513496881554;-;-;7.640381;-2.2324066;-5.1420593;-;-;-;-;-;-;-;-;-;-;-;-;-;-;-
1513496881575;-;-;7.588913;-2.2443695;-5.1456604;-;-;-;-;-;-;-;-;-;-;-;-;-;-;-
1513496881597;-;-;7.557785;-2.2431793;-5.151642;-;-;-;-;-;-;-;-;-;-;-;-;-;-;-
1513496881617;-;-;7.561386;-2.2395782;-5.136078;-;-;-;-;-;-;-;-;-;-;-;-;-;-;-
1513496881637;-;-;7.5470123;-2.2204285;-5.108551;-;-;-;-;-;-;-;-;-;-;-;-;-;-;-
1513496881658;-;-;7.5793304;-2.1797333;-5.1468506;-;-;-;-;-;-;-;-;-;-;-;-;-;-;-
1513496881678;-;-;7.5984955;-2.1940918;-5.1456604;-;-;-;-;-;-;-;-;-;-;-;-;-;-;-
1513496881699;-;-;7.5781403;-2.1929016;-5.1420593;-;-;-;-;-;-;-;-;-;-;-;-;-;-;-
1513496881719;-;-;7.581726;-2.1952972;-5.127701;-;-;-;-;-;-;-;-;-;-;-;-;-;-;-
1513496881740;-;-;7.624832;-2.238388;-5.10376;-;-;-;-;-;-;-;-;-;-;-;-;-;-;-
1513496881760;-;-;7.5913086;-2.2491608;-5.120514;-;-;-;-;-;-;-;-;-;-;-;-;-;-;-
1513496881781;-;-;7.580536;-2.2527466;-5.1157227;-;-;-;-;-;-;-;-;-;-;-;-;-;-;-
1513496881801;-;-;7.5865173;-2.230011;-5.0953827;-;-;-;-;-;-;-;-;-;-;-;-;-;-;-
1513496881822;-;-;7.5781403;-2.2048645;-5.112137;-;-;-;-;-;-;-;-;-;-;-;-;-;-;-
1513496881841;-;-;7.5948944;-2.214447;-5.1193237;-;-;-;-;-;-;-;-;-;-;-;-;-;-;-
1513496881862;-;-;7.581726;-2.2395782;-5.156433;-;-;-;-;-;-;-;-;-;-;-;-;-;-;-
1513496881882;-;-;7.5781403;-2.2132416;-5.152832;-;-;-;-;-;-;-;-;-;-;-;-;-;-;-
1513496881902;-;-;7.612854;-2.2192383;-5.120514;-;-;-;-;-;-;-;-;-;-;-;-;-;-;-
1513496881923;-;-;7.5948944;-2.2036743;-5.1300964;-;-;-;-;-;-;-;-;-;-;-;-;-;-;-
1513496881943;-;-;7.592499;-2.2120514;-5.10376;-;-;-;-;-;-;-;-;-;-;-;-;-;-;-
1513496881963;-;-;7.5793304;-2.2192383;-5.0905914;-;-;-;-;-;-;-;-;-;-;-;-;-;-;-
1513496881984;-;-;7.554199;-2.2515564;-5.1540375;-;-;-;-;-;-;-;-;-;-;-;-;-;-;-
1513496882005;-;-;7.5996857;-2.2084656;-5.125305;-;-;-;-;-;-;-;-;-;-;-;-;-;-;-
1513496882025;-;-;7.573349;-2.2000732;-5.112137;-;-;-;-;-;-;-;-;-;-;-;-;-;-;-
1513496882045;-;-;7.5829315;-2.2048645;-5.1181183;-;-;-;-;-;-;-;-;-;-;-;-;-;-;-
1513496882066;-;-;7.5984955;-2.1964874;-5.1181183;-;-;-;-;-;-;-;-;-;-;-;-;-;-;-
1513496882085;-;-;7.5637665;-2.1773376;-5.1157227;-;-;-;-;-;-;-;-;-;-;-;-;-;-;-
1513496882105;-;-;7.635605;-2.269516;-5.140869;-;-;-;-;-;-;-;-;-;-;-;-;-;-;-
1513496882126;-;-;7.609268;-2.2683105;-5.1863556;-;-;-;-;-;-;-;-;-;-;-;-;-;-;-
1513496882146;-;-;7.5194855;-2.20607;-5.1456604;-;-;-;-;-;-;-;-;-;-;-;-;-;-;-
1513496882167;-;-;7.59729;-2.2084656;-5.0319366;-;-;-;-;-;-;-;-;-;-;-;-;-;-;-
1513496882187;-;-;7.6032715;-2.2575378;-5.0630493;-;-;-;-;-;-;-;-;-;-;-;-;-;-;-
1513496882207;-;-;7.5194855;-2.2335968;-5.120514;-;-;-;-;-;-;-;-;-;-;-;-;-;-;-
1513496882227;-;-;7.612854;-2.2048645;-5.108551;-;-;-;-;-;-;-;-;-;-;-;-;-;-;-
1513496882248;-;-;7.636795;-2.2192383;-5.092987;-;-;-;-;-;-;-;-;-;-;-;-;-;-;-
1513496882268;-;-;7.5961;-2.2395782;-5.152832;-;-;-;-;-;-;-;-;-;-;-;-;-;-;-
1513496882289;-;-;7.541031;-2.2491608;-5.149246;-;-;-;-;-;-;-;-;-;-;-;-;-;-;-
1513496882308;-;-;7.552994;-2.2587433;-5.140869;-;-;-;-;-;-;-;-;-;-;-;-;-;-;-
1513496882329;-;-;7.5865173;-2.238388;-5.0917816;-;-;-;-;-;-;-;-;-;-;-;-;-;-;-
1513496882349;-;-;7.572159;-2.261139;-5.1109314;-;-;-;-;-;-;-;-;-;-;-;-;-;-;-
1513496882370;-;-;7.6032715;-2.2288055;-5.10495;-;-;-;-;-;-;-;-;-;-;-;-;-;-;-
1513496882389;-;-;7.612854;-2.2132416;-5.1073456;-;-;-;-;-;-;-;-;-;-;-;-;-;-;-
1513496882410;-;-;7.6224365;-2.2276154;-5.1456604;-;-;-;-;-;-;-;-;-;-;-;-;-;-;-
1513496882430;-;-;7.6020813;-2.2671204;-5.132492;-;-;-;-;-;-;-;-;-;-;-;-;-;-;-
1513496882451;-;-;7.593704;-2.262329;-5.1061554;-;-;-;-;-;-;-;-;-;-;-;-;-;-;-
1513496882471;-;-;7.574539;-2.2443695;-5.108551;-;-;-;-;-;-;-;-;-;-;-;-;-;-;-
1513496882492;-;-;7.592499;-2.2647247;-5.1109314;-;-;-;-;-;-;-;-;-;-;-;-;-;-;-
1513496882513;-;-;7.561386;-2.269516;-5.121704;-;-;-;-;-;-;-;-;-;-;-;-;-;-;-
1513496882533;-;-;7.604477;-2.2335968;-5.1540375;-;-;-;-;-;-;-;-;-;-;-;-;-;-;-
1513496882554;-;-;7.5781403;-2.230011;-5.137268;-;-;-;-;-;-;-;-;-;-;-;-;-;-;-
1513496882573;-;-;7.585327;-2.2407837;-5.113327;-;-;-;-;-;-;-;-;-;-;-;-;-;-;-
1513496882593;-;-;7.566162;-2.2335968;-5.1240997;-;-;-;-;-;-;-;-;-;-;-;-;-;-;-
1513496882614;-;-;7.5793304;-2.2156372;-5.1229095;-;-;-;-;-;-;-;-;-;-;-;-;-;-;-
1513496882635;-;-;7.5996857;-2.2371826;-5.144455;-;-;-;-;-;-;-;-;-;-;-;-;-;-;-
1513496882655;-;-;7.580536;-2.2312012;-5.113327;-;-;-;-;-;-;-;-;-;-;-;-;-;-;-
1513496882676;-;-;7.5637665;-2.2647247;-5.116928;-;-;-;-;-;-;-;-;-;-;-;-;-;-;-
1513496882696;-;-;7.5601807;-2.238388;-5.1157227;-;-;-;-;-;-;-;-;-;-;-;-;-;-;-
1513496882716;-;-;7.5518036;-2.2192383;-5.092987;-;-;-;-;-;-;-;-;-;-;-;-;-;-;-
1513496882737;-;-;7.6152496;-2.2587433;-5.0905914;-;-;-;-;-;-;-;-;-;-;-;-;-;-;-
1513496882757;-;-;7.611664;-2.2635193;-5.1229095;-;-;-;-;-;-;-;-;-;-;-;-;-;-;-
1513496882778;-;-;7.511093;-2.222824;-5.207901;-;-;-;-;-;-;-;-;-;-;-;-;-;-;-
1513496882797;-;-;7.593704;-2.2743073;-5.168396;-;-;-;-;-;-;-;-;-;-;-;-;-;-;-
1513496882818;-;-;7.6547546;-2.2371826;-5.199524;-;-;-;-;-;-;-;-;-;-;-;-;-;-;-
1513496882838;-;-;7.5003204;-2.1617737;-5.148041;-;-;-;-;-;-;-;-;-;-;-;-;-;-;-
1513496882858;-;-;7.5865173;-2.1737366;-5.081009;-;-;-;-;-;-;-;-;-;-;-;-;-;-;-
1513496882879;-;-;7.59729;-2.2491608;-5.1025543;-;-;-;-;-;-;-;-;-;-;-;-;-;-;-
1513496882899;-;-;7.581726;-2.2359924;-5.1061554;-;-;-;-;-;-;-;-;-;-;-;-;-;-;-
1513496882920;-;-;7.624832;-2.2132416;-5.1396637;-;-;-;-;-;-;-;-;-;-;-;-;-;-;-
1513496882941;-;-;7.6236267;-2.2072601;-5.1384735;-;-;-;-;-;-;-;-;-;-;-;-;-;-;-
1513496882961;-;-;7.604477;-2.2335968;-5.1504364;-;-;-;-;-;-;-;-;-;-;-;-;-;-;-
1513496882982;-;-;7.5637665;-2.221634;-5.1696014;-;-;-;-;-;-;-;-;-;-;-;-;-;-;-
1513496883002;-;-;7.5350494;-2.2000732;-5.1396637;-;-;-;-;-;-;-;-;-;-;-;-;-;-;-
1513496883023;-;-;7.580536;-2.2036743;-5.144455;-;-;-;-;-;-;-;-;-;-;-;-;-;-;-
1513496883043;-;-;7.611664;-2.1773376;-5.148041;-;-;-;-;-;-;-;-;-;-;-;-;-;-;-
1513496883064;-;-;7.621231;-2.1845245;-5.1636047;-;-;-;-;-;-;-;-;-;-;-;-;-;-;-
1513496883085;-;-;7.600876;-2.1881104;-5.127701;-;-;-;-;-;-;-;-;-;-;-;-;-;-;-
1513496883105;-;-;7.5865173;-2.2084656;-5.1181183;-;-;-;-;-;-;-;-;-;-;-;-;-;-;-
1513496883125;-;-;7.5518036;-2.2012787;-5.1576233;-;-;-;-;-;-;-;-;-;-;-;-;-;-;-
1513496883146;-;-;7.5757446;-2.2252197;-5.149246;-;-;-;-;-;-;-;-;-;-;-;-;-;-;-
1513496883167;-;-;7.592499;-2.238388;-5.132492;-;-;-;-;-;-;-;-;-;-;-;-;-;-;-
1513496883186;-;-;7.569763;-2.2683105;-5.149246;-;-;-;-;-;-;-;-;-;-;-;-;-;-;-
1513496883206;-;-;7.5984955;-2.2647247;-5.089386;-;-;-;-;-;-;-;-;-;-;-;-;-;-;-
1513496883227;-;-;7.576935;-2.2707062;-5.1193237;-;-;-;-;-;-;-;-;-;-;-;-;-;-;-
1513496883247;-;-;7.5793304;-2.253952;-5.121704;-;-;-;-;-;-;-;-;-;-;-;-;-;-;-
1513496883267;-;-;7.5841217;-2.2683105;-5.128891;-;-;-;-;-;-;-;-;-;-;-;-;-;-;-
1513496883288;-;-;7.5673676;-2.2240143;-5.1181183;-;-;-;-;-;-;-;-;-;-;-;-;-;-;-
1513496883308;-;-;7.549408;-2.2168427;-5.128891;-;-;-;-;-;-;-;-;-;-;-;-;-;-;-
1513496883329;-;-;7.548218;-2.2348022;-5.1264954;-;-;-;-;-;-;-;-;-;-;-;-;-;-;-
1513496883349;-;-;7.564972;-2.2575378;-5.1109314;-;-;-;-;-;-;-;-;-;-;-;-;-;-;-
1513496883370;-;-;7.5637665;-2.245575;-5.1552277;-;-;-;-;-;-;-;-;-;-;-;-;-;-;-
1513496883390;-;-;7.5206757;-2.2072601;-5.1468506;-;-;-;-;-;-;-;-;-;-;-;-;-;-;-
1513496883411;-;-;7.5865173;-2.2479706;-5.1264954;-;-;-;-;-;-;-;-;-;-;-;-;-;-;-
1513496883431;-;-;7.6032715;-2.214447;-5.1264954;-;-;-;-;-;-;-;-;-;-;-;-;-;-;-
1513496883452;-;-;7.6020813;-2.2312012;-5.239029;-;-;-;-;-;-;-;-;-;-;-;-;-;-;-
1513496883472;-;-;7.506317;-2.2204285;-5.1935425;-;-;-;-;-;-;-;-;-;-;-;-;-;-;-
1513496883493;-;-;7.6308136;-2.222824;-5.168396;-;-;-;-;-;-;-;-;-;-;-;-;-;-;-
1513496883514;-;-;7.6224365;-2.2276154;-5.168396;-;-;-;-;-;-;-;-;-;-;-;-;-;-;-
1513496883533;-;-;7.5398254;-2.2312012;-5.1300964;-;-;-;-;-;-;-;-;-;-;-;-;-;-;-
1513496883554;-;-;7.569763;-2.20607;-5.1001587;-;-;-;-;-;-;-;-;-;-;-;-;-;-;-
1513496883574;-;-;7.554199;-2.2132416;-5.127701;-;-;-;-;-;-;-;-;-;-;-;-;-;-;-
1513496883595;-;-;7.550598;-2.2096558;-5.1456604;-;-;-;-;-;-;-;-;-;-;-;-;-;-;-
1513496883615;-;-;7.609268;-2.20607;-5.176773;-;-;-;-;-;-;-;-;-;-;-;-;-;-;-
1513496883635;-;-;7.588913;-2.2024689;-5.140869;-;-;-;-;-;-;-;-;-;-;-;-;-;-;-
1513496883656;-;-;7.573349;-2.2515564;-5.156433;-;-;-;-;-;-;-;-;-;-;-;-;-;-;-
1513496883677;-;-;7.530258;-2.222824;-5.167206;-;-;-;-;-;-;-;-;-;-;-;-;-;-;-
1513496883696;-;-;7.525467;-2.250351;-5.144455;-;-;-;-;-;-;-;-;-;-;-;-;-;-;-
1513496883716;-;-;7.576935;-2.20607;-5.1240997;-;-;-;-;-;-;-;-;-;-;-;-;-;-;-
1513496883737;-;-;7.5877075;-2.186905;-5.168396;-;-;-;-;-;-;-;-;-;-;-;-;-;-;-
1513496883758;-;-;7.6104584;-2.1737366;-5.1468506;-;-;-;-;-;-;-;-;-;-;-;-;-;-;-
1513496883778;-;-;7.611664;-2.1653595;-5.1552277;-;-;-;-;-;-;-;-;-;-;-;-;-;-;-
1513496883798;-;-;7.5961;-2.238388;-5.151642;-;-;-;-;-;-;-;-;-;-;-;-;-;-;-
1513496883819;-;-;7.5637665;-2.2407837;-5.1743774;-;-;-;-;-;-;-;-;-;-;-;-;-;-;-
1513496883840;-;-;7.5601807;-2.2084656;-5.1396637;-;-;-;-;-;-;-;-;-;-;-;-;-;-;-
1513496883860;-;-;7.5781403;-2.2395782;-5.1264954;-;-;-;-;-;-;-;-;-;-;-;-;-;-;-
1513496883881;-;-;7.545822;-2.2587433;-5.1312866;-;-;-;-;-;-;-;-;-;-;-;-;-;-;-
1513496883901;-;-;7.574539;-2.2419739;-5.161209;-;-;-;-;-;-;-;-;-;-;-;-;-;-;-
1513496883922;-;-;7.53743;-2.221634;-5.192337;-;-;-;-;-;-;-;-;-;-;-;-;-;-;-
1513496883941;-;-;7.5470123;-2.2120514;-5.160019;-;-;-;-;-;-;-;-;-;-;-;-;-;-;-
1513496883961;-;-;7.5075073;-2.2348022;-5.180374;-;-;-;-;-;-;-;-;-;-;-;-;-;-;-
1513496883982;-;-;7.51828;-2.2072601;-5.1588287;-;-;-;-;-;-;-;-;-;-;-;-;-;-;-
1513496884003;-;-;7.532654;-2.2335968;-5.137268;-;-;-;-;-;-;-;-;-;-;-;-;-;-;-
1513496884023;-;-;7.5553894;-2.2276154;-5.132492;-;-;-;-;-;-;-;-;-;-;-;-;-;-;-
1513496884043;-;-;7.542221;-2.1976929;-5.188751;-;-;-;-;-;-;-;-;-;-;-;-;-;-;-
1513496884063;-;-;7.5601807;-2.2156372;-5.1396637;-;-;-;-;-;-;-;-;-;-;-;-;-;-;-
1513496884084;-;-;7.609268;-2.2491608;-5.1420593;-;-;-;-;-;-;-;-;-;-;-;-;-;-;-
1513496884104;-;-;7.5625763;-2.2910614;-5.2102966;-;-;-;-;-;-;-;-;-;-;-;-;-;-;-
1513496884125;-;-;7.561386;-2.3102112;-5.1971283;-;-;-;-;-;-;-;-;-;-;-;-;-;-;-
1513496884145;-;-;7.605667;-2.2982483;-5.1899414;-;-;-;-;-;-;-;-;-;-;-;-;-;-;-
1513496884166;-;-;7.5589905;-2.2395782;-5.26416;-;-;-;-;-;-;-;-;-;-;-;-;-;-;-
1513496884186;-;-;7.5230713;-2.2132416;-5.1312866;-;-;-;-;-;-;-;-;-;-;-;-;-;-;-
1513496884207;-;-;7.5230713;-2.2252197;-5.149246;-;-;-;-;-;-;-;-;-;-;-;-;-;-;-
1513496884227;-;-;7.5242615;-2.250351;-5.156433;-;-;-;-;-;-;-;-;-;-;-;-;-;-;-
1513496884248;-;-;7.5518036;-2.253952;-5.1660004;-;-;-;-;-;-;-;-;-;-;-;-;-;-;-
1513496884267;-;-;7.5841217;-2.2204285;-5.2174835;-;-;-;-;-;-;-;-;-;-;-;-;-;-;-
1513496884287;-;-;7.5913086;-2.2335968;-5.192337;-;-;-;-;-;-;-;-;-;-;-;-;-;-;-
1513496884308;-;-;7.5589905;-2.238388;-5.180374;-;-;-;-;-;-;-;-;-;-;-;-;-;-;-
1513496884328;-;-;7.4991302;-2.230011;-5.161209;-;-;-;-;-;-;-;-;-;-;-;-;-;-;-
1513496884349;-;-;7.51709;-2.2359924;-5.187546;-;-;-;-;-;-;-;-;-;-;-;-;-;-;-
1513496884369;-;-;7.557785;-2.22641;-5.1791687;-;-;-;-;-;-;-;-;-;-;-;-;-;-;-
1513496884390;-;-;7.51709;-2.221634;-5.171997;-;-;-;-;-;-;-;-;-;-;-;-;-;-;-
1513496884410;-;-;7.5673676;-2.2132416;-5.18396;-;-;-;-;-;-;-;-;-;-;-;-;-;-;-
1513496884431;-;-;7.592499;-2.221634;-5.175583;-;-;-;-;-;-;-;-;-;-;-;-;-;-;-
1513496884451;-;-;7.566162;-2.198883;-5.1624146;-;-;-;-;-;-;-;-;-;-;-;-;-;-;-
1513496884472;-;-;7.574539;-2.221634;-5.188751;-;-;-;-;-;-;-;-;-;-;-;-;-;-;-
1513496884491;-;-;7.53743;-2.2527466;-5.1935425;-;-;-;-;-;-;-;-;-;-;-;-;-;-;-
1513496884511;-;-;7.53743;-2.2515564;-5.1540375;-;-;-;-;-;-;-;-;-;-;-;-;-;-;-
1513496884532;-;-;7.5470123;-2.214447;-5.176773;-;-;-;-;-;-;-;-;-;-;-;-;-;-;-
1513496884551;-;-;7.5434265;-2.2036743;-5.191147;-;-;-;-;-;-;-;-;-;-;-;-;-;-;-
1513496884571;-;-;7.5601807;-2.230011;-5.18277;-;-;-;-;-;-;-;-;-;-;-;-;-;-;-
1513496884592;-;-;7.581726;-2.250351;-5.206711;-;-;-;-;-;-;-;-;-;-;-;-;-;-;-
1513496884612;-;-;7.525467;-2.2012787;-5.1540375;-;-;-;-;-;-;-;-;-;-;-;-;-;-;-
1513496884633;-;-;7.5290527;-2.2240143;-5.1504364;-;-;-;-;-;-;-;-;-;-;-;-;-;-;-
1513496884653;-;-;7.541031;-2.2587433;-5.176773;-;-;-;-;-;-;-;-;-;-;-;-;-;-;-
1513496884674;-;-;7.5362396;-2.2731018;-5.1983337;-;-;-;-;-;-;-;-;-;-;-;-;-;-;-
1513496884694;-;-;7.508713;-2.2288055;-5.175583;-;-;-;-;-;-;-;-;-;-;-;-;-;-;-
1513496884714;-;-;7.482376;-2.2491608;-5.2102966;-;-;-;-;-;-;-;-;-;-;-;-;-;-;-
1513496884735;-;-;7.5314484;-2.245575;-5.2091064;-;-;-;-;-;-;-;-;-;-;-;-;-;-;-
1513496884756;-;-;7.576935;-2.230011;-5.1396637;-;-;-;-;-;-;-;-;-;-;-;-;-;-;-
1513496884776;-;-;7.5553894;-2.20607;-5.1815643;-;-;-;-;-;-;-;-;-;-;-;-;-;-;-
1513496884797;-;-;7.67511;-2.262329;-5.2031097;-;-;-;-;-;-;-;-;-;-;-;-;-;-;-
1513496884816;-;-;7.5781403;-2.214447;-5.2174835;-;-;-;-;-;-;-;-;-;-;-;-;-;-;-
1513496884836;-;-;7.541031;-2.2048645;-5.191147;-;-;-;-;-;-;-;-;-;-;-;-;-;-;-
1513496884857;-;-;7.525467;-2.2419739;-5.1240997;-;-;-;-;-;-;-;-;-;-;-;-;-;-;-
1513496884878;-;-;7.5206757;-2.2479706;-5.128891;-;-;-;-;-;-;-;-;-;-;-;-;-;-;-
1513496884899;-;-;7.549408;-2.2407837;-5.1061554;-;-;-;-;-;-;-;-;-;-;-;-;-;-;-
1513496884918;-;-;7.556595;-2.2132416;-5.125305;-;-;-;-;-;-;-;-;-;-;-;-;-;-;-
1513496884939;-;-;7.6236267;-2.2276154;-5.1696014;-;-;-;-;-;-;-;-;-;-;-;-;-;-;-
1513496884958;-;-;7.585327;-2.250351;-5.1552277;-;-;-;-;-;-;-;-;-;-;-;-;-;-;-
1513496884978;-;-;7.548218;-2.2575378;-5.187546;-;-;-;-;-;-;-;-;-;-;-;-;-;-;-
1513496884999;-;-;7.4799805;-2.1952972;-5.1779785;-;-;-;-;-;-;-;-;-;-;-;-;-;-;-
1513496885019;-;-;7.514694;-2.2240143;-5.143265;-;-;-;-;-;-;-;-;-;-;-;-;-;-;-
1513496885040;-;-;7.5398254;-2.210846;-5.1636047;-;-;-;-;-;-;-;-;-;-;-;-;-;-;-
1513496885060;-;-;7.5625763;-2.2120514;-5.207901;-;-;-;-;-;-;-;-;-;-;-;-;-;-;-
1513496885081;-;-;7.5386353;-2.1737366;-5.167206;-;-;-;-;-;-;-;-;-;-;-;-;-;-;-
1513496885101;-;-;7.572159;-2.22641;-5.1540375;-;-;-;-;-;-;-;-;-;-;-;-;-;-;-
1513496885122;-;-;7.569763;-2.2204285;-5.128891;-;-;-;-;-;-;-;-;-;-;-;-;-;-;-
1513496885142;-;-;7.5446167;-2.2120514;-5.171997;-;-;-;-;-;-;-;-;-;-;-;-;-;-;-
1513496885163;-;-;7.513489;-2.2359924;-5.1696014;-;-;-;-;-;-;-;-;-;-;-;-;-;-;-
1513496885183;-;-;7.5434265;-2.2479706;-5.1336823;-;-;-;-;-;-;-;-;-;-;-;-;-;-;-
1513496885204;-;-;7.532654;-2.2335968;-5.206711;-;-;-;-;-;-;-;-;-;-;-;-;-;-;-
1513496885224;-;-;7.532654;-2.222824;-5.2091064;-;-;-;-;-;-;-;-;-;-;-;-;-;-;-
1513496885245;-;-;7.5601807;-2.174942;-5.1815643;-;-;-;-;-;-;-;-;-;-;-;-;-;-;-
1513496885264;-;-;7.5290527;-2.2012787;-5.2174835;-;-;-;-;-;-;-;-;-;-;-;-;-;-;-
1513496885285;-;-;7.525467;-2.1964874;-5.230652;-;-;-;-;-;-;-;-;-;-;-;-;-;-;-
1513496885304;-;-;7.5158844;-2.1677551;-5.206711;-;-;-;-;-;-;-;-;-;-;-;-;-;-;-
1513496885324;-;-;7.561386;-2.186905;-5.2126923;-;-;-;-;-;-;-;-;-;-;-;-;-;-;-
1513496885345;-;-;7.556595;-2.2192383;-5.2498016;-;-;-;-;-;-;-;-;-;-;-;-;-;-;-
1513496885364;-;-;7.5386353;-2.245575;-5.2378235;-;-;-;-;-;-;-;-;-;-;-;-;-;-;-
1513496885385;-;-;7.530258;-2.210846;-5.223465;-;-;-;-;-;-;-;-;-;-;-;-;-;-;-
1513496885405;-;-;7.5398254;-2.2467651;-5.1983337;-;-;-;-;-;-;-;-;-;-;-;-;-;-;-
1513496885426;-;-;7.5865173;-2.2599335;-5.168396;-;-;-;-;-;-;-;-;-;-;-;-;-;-;-
1513496885446;-;-;7.541031;-2.2168427;-5.18277;-;-;-;-;-;-;-;-;-;-;-;-;-;-;-
1513496885467;-;-;7.51709;-2.2587433;-5.191147;-;-;-;-;-;-;-;-;-;-;-;-;-;-;-
1513496885487;-;-;7.592499;-2.2910614;-5.246216;-;-;-;-;-;-;-;-;-;-;-;-;-;-;-
1513496885508;-;-;7.5314484;-2.2252197;-5.255783;-;-;-;-;-;-;-;-;-;-;-;-;-;-;-
1513496885528;-;-;7.533844;-2.2120514;-5.161209;-;-;-;-;-;-;-;-;-;-;-;-;-;-;-
1513496885549;-;-;7.541031;-2.222824;-5.144455;-;-;-;-;-;-;-;-;-;-;-;-;-;-;-
1513496885569;-;-;7.5350494;-2.230011;-5.092987;-;-;-;-;-;-;-;-;-;-;-;-;-;-;-
1513496885590;-;-;7.554199;-2.174942;-5.143265;-;-;-;-;-;-;-;-;-;-;-;-;-;-;-
1513496885610;-;-;7.5793304;-2.1797333;-5.2330475;-;-;-;-;-;-;-;-;-;-;-;-;-;-;-
1513496885631;-;-;7.590103;-2.2240143;-5.200714;-;-;-;-;-;-;-;-;-;-;-;-;-;-;-
1513496885651;-;-;7.5518036;-2.2084656;-5.1971283;-;-;-;-;-;-;-;-;-;-;-;-;-;-;-
1513496885672;-;-;7.554199;-2.2204285;-5.211487;-;-;-;-;-;-;-;-;-;-;-;-;-;-;-
1513496885692;-;-;7.5362396;-2.262329;-5.1660004;-;-;-;-;-;-;-;-;-;-;-;-;-;-;-
1513496885713;-;-;7.5470123;-2.2491608;-5.207901;-;-;-;-;-;-;-;-;-;-;-;-;-;-;-
1513496885733;-;-;7.585327;-2.2419739;-5.204315;-;-;-;-;-;-;-;-;-;-;-;-;-;-;-
1513496885754;-;-;7.5841217;-2.2168427;-5.1899414;-;-;-;-;-;-;-;-;-;-;-;-;-;-;-
1513496885775;-;-;7.588913;-2.2276154;-5.180374;-;-;-;-;-;-;-;-;-;-;-;-;-;-;-
1513496885794;-;-;7.629608;-2.265915;-5.2426147;-;-;-;-;-;-;-;-;-;-;-;-;-;-;-
1513496885815;-;-;7.937271;-2.3497162;-5.4580994;-;-;-;-;-;-;-;-;-;-;-;-;-;-;-
1513496885835;-;-;7.9516296;-2.301834;-5.42218;-;-;-;-;-;-;-;-;-;-;-;-;-;-;-
1513496885855;-;-;7.396179;-2.0755768;-5.112137;-;-;-;-;-;-;-;-;-;-;-;-;-;-;-
1513496885876;-;-;7.308792;-2.040863;-4.816452;-;-;-;-;-;-;-;-;-;-;-;-;-;-;-
1513496885897;-;-;7.5290527;-2.2335968;-4.7625885;-;-;-;-;-;-;-;-;-;-;-;-;-;-;-
1513496885917;-;-;7.645172;-2.3257751;-4.895462;-;-;-;-;-;-;-;-;-;-;-;-;-;-;-
1513496885938;-;-;7.5434265;-2.3473206;-5.017563;-;-;-;-;-;-;-;-;-;-;-;-;-;-;-
1513496885958;-;-;7.5446167;-2.2826843;-4.951721;-;-;-;-;-;-;-;-;-;-;-;-;-;-;-
1513496885979;-;-;7.5996857;-2.2479706;-4.9577026;-;-;-;-;-;-;-;-;-;-;-;-;-;-;-
1513496885999;-;-;7.6463776;-2.2563477;-5.029541;-;-;-;-;-;-;-;-;-;-;-;-;-;-;-
1513496886020;-;-;7.636795;-2.2276154;-5.0510864;-;-;-;-;-;-;-;-;-;-;-;-;-;-;-
1513496886040;-;-;7.6499634;-2.2395782;-5.121704;-;-;-;-;-;-;-;-;-;-;-;-;-;-;-
1513496886061;-;-;7.6870728;-2.2443695;-5.1157227;-;-;-;-;-;-;-;-;-;-;-;-;-;-;-
1513496886082;-;-;7.629608;-2.221634;-5.0391083;-;-;-;-;-;-;-;-;-;-;-;-;-;-;-
1513496886102;-;-;7.624832;-2.2395782;-5.070236;-;-;-;-;-;-;-;-;-;-;-;-;-;-;-
1513496886123;-;-;7.671509;-2.2958527;-5.072632;-;-;-;-;-;-;-;-;-;-;-;-;-;-;-
1513496886143;-;-;7.5434265;-2.2324066;-5.1061554;-;-;-;-;-;-;-;-;-;-;-;-;-;-;-
1513496886163;-;-;7.592499;-2.2407837;-5.061859;-;-;-;-;-;-;-;-;-;-;-;-;-;-;-
1513496886184;-;-;7.691864;-2.293457;-5.10495;-;-;-;-;-;-;-;-;-;-;-;-;-;-;-
1513496886204;-;-;7.533844;-2.250351;-4.986435;-;-;-;-;-;-;-;-;-;-;-;-;-;-;-
1513496886224;-;-;7.6391907;-2.2874756;-5.0211487;-;-;-;-;-;-;-;-;-;-;-;-;-;-;-
1513496886245;-;-;7.636795;-2.2587433;-5.046295;-;-;-;-;-;-;-;-;-;-;-;-;-;-;-
1513496886264;-;-;7.611664;-2.2240143;-5.101364;-;-;-;-;-;-;-;-;-;-;-;-;-;-;-
1513496886284;-;-;7.5984955;-2.2012787;-5.112137;-;-;-;-;-;-;-;-;-;-;-;-;-;-;-
1513496886305;-;-;7.633209;-2.2180328;-5.0271454;-;-;-;-;-;-;-;-;-;-;-;-;-;-;-
1513496886326;-;-;7.621231;-2.2862701;-5.022354;-;-;-;-;-;-;-;-;-;-;-;-;-;-;-
1513496886346;-;-;7.6152496;-2.277893;-5.0283356;-;-;-;-;-;-;-;-;-;-;-;-;-;-;-
1513496886367;-;-;7.593704;-2.3126068;-5.0834045;-;-;-;-;-;-;-;-;-;-;-;-;-;-;-
1513496886387;-;-;7.6188354;-2.2838745;-5.0989685;-;-;-;-;-;-;-;-;-;-;-;-;-;-;-
1513496886408;-;-;7.6236267;-2.2419739;-5.069046;-;-;-;-;-;-;-;-;-;-;-;-;-;-;-
1513496886427;-;-;7.581726;-2.1857147;-5.1109314;-;-;-;-;-;-;-;-;-;-;-;-;-;-;-
1513496886448;-;-;7.614044;-2.1689606;-5.1025543;-;-;-;-;-;-;-;-;-;-;-;-;-;-;-
1513496886468;-;-;7.6463776;-2.221634;-5.049881;-;-;-;-;-;-;-;-;-;-;-;-;-;-;-
1513496886489;-;-;7.664322;-2.2312012;-5.022354;-;-;-;-;-;-;-;-;-;-;-;-;-;-;-
1513496886509;-;-;7.620041;-2.2479706;-5.0187683;-;-;-;-;-;-;-;-;-;-;-;-;-;-;-
1513496886530;-;-;7.573349;-2.2168427;-5.0666504;-;-;-;-;-;-;-;-;-;-;-;-;-;-;-
1513496886549;-;-;7.5757446;-2.230011;-5.0642548;-;-;-;-;-;-;-;-;-;-;-;-;-;-;-
1513496886569;-;-;7.621231;-2.2467651;-5.088196;-;-;-;-;-;-;-;-;-;-;-;-;-;-;-
1513496886590;-;-;7.648773;-2.2359924;-5.108551;-;-;-;-;-;-;-;-;-;-;-;-;-;-;-
1513496886611;-;-;7.593704;-2.2443695;-5.0786133;-;-;-;-;-;-;-;-;-;-;-;-;-;-;-
1513496886631;-;-;7.628418;-2.198883;-5.0786133;-;-;-;-;-;-;-;-;-;-;-;-;-;-;-
1513496886652;-;-;7.632004;-2.2515564;-5.092987;-;-;-;-;-;-;-;-;-;-;-;-;-;-;-
1513496886672;-;-;7.67749;-2.2467651;-5.0762177;-;-;-;-;-;-;-;-;-;-;-;-;-;-;-
1513496886692;-;-;7.659546;-2.2683105;-5.1157227;-;-;-;-;-;-;-;-;-;-;-;-;-;-;-
1513496886712;-;-;7.6260223;-2.2671204;-5.10495;-;-;-;-;-;-;-;-;-;-;-;-;-;-;-
1513496886733;-;-;7.5637665;-2.222824;-5.0678406;-;-;-;-;-;-;-;-;-;-;-;-;-;-;-
1513496886753;-;-;7.530258;-2.2036743;-5.053482;-;-;-;-;-;-;-;-;-;-;-;-;-;-;-
1513496886774;-;-;7.5685577;-2.2515564;-5.0546722;-;-;-;-;-;-;-;-;-;-;-;-;-;-;-
1513496886794;-;-;7.6427765;-2.2719116;-5.0546722;-;-;-;-;-;-;-;-;-;-;-;-;-;-;-
1513496886815;-;-;7.588913;-2.2467651;-5.10495;-;-;-;-;-;-;-;-;-;-;-;-;-;-;-
1513496886834;-;-;7.614044;-2.2647247;-5.0762177;-;-;-;-;-;-;-;-;-;-;-;-;-;-;-
1513496886855;-;-;7.719391;-2.289856;-5.0905914;-;-;-;-;-;-;-;-;-;-;-;-;-;-;-
1513496886874;-;-;7.5793304;-2.262329;-5.109741;-;-;-;-;-;-;-;-;-;-;-;-;-;-;-
1513496886895;-;-;7.5553894;-2.2731018;-5.057068;-;-;-;-;-;-;-;-;-;-;-;-;-;-;-
1513496886915;-;-;7.5793304;-2.2743073;-5.037918;-;-;-;-;-;-;-;-;-;-;-;-;-;-;-
1513496886936;-;-;7.5589905;-2.2719116;-5.0271454;-;-;-;-;-;-;-;-;-;-;-;-;-;-;-
1513496886956;-;-;7.5637665;-2.2802887;-5.0546722;-;-;-;-;-;-;-;-;-;-;-;-;-;-;-
1513496886976;-;-;7.6415863;-2.265915;-5.0798187;-;-;-;-;-;-;-;-;-;-;-;-;-;-;-
1513496886997;-;-;7.6427765;-2.2467651;-5.1193237;-;-;-;-;-;-;-;-;-;-;-;-;-;-;-
1513496887017;-;-;7.611664;-2.22641;-5.132492;-;-;-;-;-;-;-;-;-;-;-;-;-;-;-
1513496887038;-;-;7.580536;-2.2156372;-5.1181183;-;-;-;-;-;-;-;-;-;-;-;-;-;-;-
1513496887058;-;-;7.5793304;-2.261139;-5.081009;-;-;-;-;-;-;-;-;-;-;-;-;-;-;-
1513496887079;-;-;7.5518036;-2.2766876;-5.0678406;-;-;-;-;-;-;-;-;-;-;-;-;-;-;-
1513496887099;-;-;7.5709534;-2.2180328;-5.0606537;-;-;-;-;-;-;-;-;-;-;-;-;-;-;-
1513496887120;-;-;7.6020813;-2.2096558;-5.120514;-;-;-;-;-;-;-;-;-;-;-;-;-;-;-
1513496887140;-;-;7.5996857;-2.2192383;-5.088196;-;-;-;-;-;-;-;-;-;-;-;-;-;-;-
1513496887160;-;-;7.614044;-2.2635193;-5.0798187;-;-;-;-;-;-;-;-;-;-;-;-;-;-;-
1513496887181;-;-;7.633209;-2.265915;-5.058258;-;-;-;-;-;-;-;-;-;-;-;-;-;-;-
1513496887201;-;-;7.592499;-2.2407837;-5.0953827;-;-;-;-;-;-;-;-;-;-;-;-;-;-;-
1513496887222;-;-;7.5793304;-2.2707062;-5.0798187;-;-;-;-;-;-;-;-;-;-;-;-;-;-;-
1513496887243;-;-;7.6080627;-2.2719116;-5.097763;-;-;-;-;-;-;-;-;-;-;-;-;-;-;-
1513496887262;-;-;7.605667;-2.2922516;-5.1193237;-;-;-;-;-;-;-;-;-;-;-;-;-;-;-
1513496887282;-;-;7.611664;-2.2527466;-5.0905914;-;-;-;-;-;-;-;-;-;-;-;-;-;-;-
1513496887303;-;-;7.5601807;-2.262329;-5.121704;-;-;-;-;-;-;-;-;-;-;-;-;-;-;-
1513496887323;-;-;7.5685577;-2.245575;-5.0905914;-;-;-;-;-;-;-;-;-;-;-;-;-;-;-
1513496887344;-;-;7.580536;-2.2419739;-5.0941772;-;-;-;-;-;-;-;-;-;-;-;-;-;-;-
1513496887365;-;-;7.612854;-2.238388;-5.121704;-;-;-;-;-;-;-;-;-;-;-;-;-;-;-
1513496887385;-;-;7.576935;-2.2491608;-5.121704;-;-;-;-;-;-;-;-;-;-;-;-;-;-;-
1513496887405;-;-;7.6020813;-2.2527466;-5.0953827;-;-;-;-;-;-;-;-;-;-;-;-;-;-;-
1513496887425;-;-;7.604477;-2.238388;-5.1791687;-;-;-;-;-;-;-;-;-;-;-;-;-;-;-
1513496887446;-;-;7.580536;-2.230011;-5.1300964;-;-;-;-;-;-;-;-;-;-;-;-;-;-;-
1513496887466;-;-;7.521881;-2.2240143;-5.108551;-;-;-;-;-;-;-;-;-;-;-;-;-;-;-
1513496887487;-;-;7.552994;-2.2276154;-5.0869904;-;-;-;-;-;-;-;-;-;-;-;-;-;-;-
1513496887507;-;-;7.6272125;-2.2024689;-5.1061554;-;-;-;-;-;-;-;-;-;-;-;-;-;-;-
1513496887528;-;-;7.600876;-2.245575;-5.171997;-;-;-;-;-;-;-;-;-;-;-;-;-;-;-
1513496887547;-;-;7.6188354;-2.2335968;-5.1576233;-;-;-;-;-;-;-;-;-;-;-;-;-;-;-
1513496887568;-;-;7.6739044;-2.2371826;-5.168396;-;-;-;-;-;-;-;-;-;-;-;-;-;-;-
1513496887587;-;-;7.5242615;-2.2084656;-5.125305;-;-;-;-;-;-;-;-;-;-;-;-;-;-;-
1513496887607;-;-;7.5206757;-2.2168427;-5.0666504;-;-;-;-;-;-;-;-;-;-;-;-;-;-;-
1513496887628;-;-;7.5841217;-2.2551422;-5.0510864;-;-;-;-;-;-;-;-;-;-;-;-;-;-;-
1513496887648;-;-;7.5877075;-2.2395782;-5.0750275;-;-;-;-;-;-;-;-;-;-;-;-;-;-;-
1513496887669;-;-;7.6236267;-2.253952;-5.1229095;-;-;-;-;-;-;-;-;-;-;-;-;-;-;-
1513496887690;-;-;7.6631317;-2.2168427;-5.108551;-;-;-;-;-;-;-;-;-;-;-;-;-;-;-
1513496887710;-;-;7.6080627;-2.214447;-5.1109314;-;-;-;-;-;-;-;-;-;-;-;-;-;-;-
1513496887729;-;-;7.585327;-2.265915;-5.1109314;-;-;-;-;-;-;-;-;-;-;-;-;-;-;-
1513496887750;-;-;7.569763;-2.2587433;-5.109741;-;-;-;-;-;-;-;-;-;-;-;-;-;-;-
1513496887769;-;-;7.5757446;-2.2335968;-5.1025543;-;-;-;-;-;-;-;-;-;-;-;-;-;-;-
