TimeStamp[ms];Prox[Cm];Lux[lux];AccX[m/s^2];AccY[m/s^2];AccZ[m/s^2];GyroX[rad/s];GyroY[rad/s];GyroZ[rad/s];MagnX[uT];MagnY[uT];MagnZ[uT];OrienYaw[degrees];OrienPitch[degrees];OrienRoll[degrees];Press[Pa];Temp[C°];Batt[%];Lat;Lng;Speed[m/s]
1513497286084;-;-;9.080505;-1.0987396;-0.5799103;-;-;-;-;-;-;-;-;-;-;-;-;-;-;-
1513497286111;-;-;9.021835;-1.1382446;-0.7893982;-;-;-;-;-;-;-;-;-;-;-;-;-;-;-
1513497286120;-;-;9.134369;-1.1238861;-0.7403259;-;-;-;-;-;-;-;-;-;-;-;-;-;-;-
1513497286140;-;-;9.266052;-1.0149536;-0.67807007;-;-;-;-;-;-;-;-;-;-;-;-;-;-;-
1513497286161;-;-;9.214569;-0.9646759;-0.80137634;-;-;-;-;-;-;-;-;-;-;-;-;-;-;-
1513497286182;-;-;9.188232;-0.9084015;-0.7750397;-;-;-;-;-;-;-;-;-;-;-;-;-;-;-
1513497286202;-;-;9.225342;-0.89404297;-0.8540497;-;-;-;-;-;-;-;-;-;-;-;-;-;-;-
1513497286222;-;-;9.205002;-0.9143982;-0.9043274;-;-;-;-;-;-;-;-;-;-;-;-;-;-;-
1513497286242;-;-;9.170288;-0.9539032;-0.89834595;-;-;-;-;-;-;-;-;-;-;-;-;-;-;-
1513497286263;-;-;9.207397;-1.0161438;-0.9007416;-;-;-;-;-;-;-;-;-;-;-;-;-;-;-
1513497286283;-;-;9.195419;-0.96946716;-0.78341675;-;-;-;-;-;-;-;-;-;-;-;-;-;-;-
1513497286304;-;-;9.15712;-0.88446045;-0.7103882;-;-;-;-;-;-;-;-;-;-;-;-;-;-;-
1513497286324;-;-;9.173874;-0.9838257;-0.7391205;-;-;-;-;-;-;-;-;-;-;-;-;-;-;-
1513497286352;-;-;9.17746;-1.052063;-0.7379303;-;-;-;-;-;-;-;-;-;-;-;-;-;-;-
1513497286364;-;-;9.222961;-1.0807953;-0.7056122;-;-;-;-;-;-;-;-;-;-;-;-;-;-;-
1513497286385;-;-;9.228943;-1.1095276;-0.70321655;-;-;-;-;-;-;-;-;-;-;-;-;-;-;-
1513497286405;-;-;9.21817;-1.1298676;-0.6685028;-;-;-;-;-;-;-;-;-;-;-;-;-;-;-
1513497286426;-;-;9.2313385;-1.1286774;-0.6086426;-;-;-;-;-;-;-;-;-;-;-;-;-;-;-
1513497286446;-;-;9.232529;-1.1693726;-0.654129;-;-;-;-;-;-;-;-;-;-;-;-;-;-;-
1513497286466;-;-;9.06015;-1.0173492;-0.90911865;-;-;-;-;-;-;-;-;-;-;-;-;-;-;-
1513497286486;-;-;9.173874;-1.1214905;-0.65293884;-;-;-;-;-;-;-;-;-;-;-;-;-;-;-
1513497286507;-;-;9.094864;-1.1478271;-0.6661072;-;-;-;-;-;-;-;-;-;-;-;-;-;-;-
1513497286528;-;-;9.203796;-1.2232513;-0.6996155;-;-;-;-;-;-;-;-;-;-;-;-;-;-;-
1513497286549;-;-;9.109222;-1.1969147;-0.40872192;-;-;-;-;-;-;-;-;-;-;-;-;-;-;-
1513497286569;-;-;8.787216;-1.2196503;-0.67448425;-;-;-;-;-;-;-;-;-;-;-;-;-;-;-
1513497286588;-;-;8.60405;-1.1645813;-0.59547424;-;-;-;-;-;-;-;-;-;-;-;-;-;-;-
1513497286609;-;-;9.042191;-1.214859;-0.66490173;-;-;-;-;-;-;-;-;-;-;-;-;-;-;-
1513497286629;-;-;9.207397;-1.2016907;-0.7271576;-;-;-;-;-;-;-;-;-;-;-;-;-;-;-
1513497286650;-;-;9.59166;-1.3956299;-0.74272156;-;-;-;-;-;-;-;-;-;-;-;-;-;-;-
1513497286669;-;-;9.161896;-1.1346588;-0.69363403;-;-;-;-;-;-;-;-;-;-;-;-;-;-;-
1513497286689;-;-;9.222961;-0.81144714;-1.1377563;-;-;-;-;-;-;-;-;-;-;-;-;-;-;-
1513497286710;-;-;9.650314;-0.73602295;-1.0982513;-;-;-;-;-;-;-;-;-;-;-;-;-;-;-
1513497286730;-;-;9.289993;-0.4152069;-1.001297;-;-;-;-;-;-;-;-;-;-;-;-;-;-;-
1513497286751;-;-;9.318726;-0.4379425;-0.7415161;-;-;-;-;-;-;-;-;-;-;-;-;-;-;-
1513497286771;-;-;9.232529;-0.75398254;-1.2658539;-;-;-;-;-;-;-;-;-;-;-;-;-;-;-
1513497286792;-;-;9.371399;-0.87968445;-0.8097534;-;-;-;-;-;-;-;-;-;-;-;-;-;-;-
1513497286811;-;-;8.906921;-0.58039856;-0.4159088;-;-;-;-;-;-;-;-;-;-;-;-;-;-;-
1513497286832;-;-;8.735733;-0.6318817;-0.8289032;-;-;-;-;-;-;-;-;-;-;-;-;-;-;-
1513497286852;-;-;9.188232;-1.1777496;-1.4573822;-;-;-;-;-;-;-;-;-;-;-;-;-;-;-
1513497286873;-;-;9.463577;-0.8461609;-1.2095795;-;-;-;-;-;-;-;-;-;-;-;-;-;-;-
1513497286895;-;-;9.125992;-0.7024994;-1.3364716;-;-;-;-;-;-;-;-;-;-;-;-;-;-;-
1513497286914;-;-;9.118805;-0.5157623;-1.3125305;-;-;-;-;-;-;-;-;-;-;-;-;-;-;-
1513497286935;-;-;9.032608;-0.035720825;-1.9781189;-;-;-;-;-;-;-;-;-;-;-;-;-;-;-
1513497286955;-;-;10.4487915;-0.71447754;-1.1940308;-;-;-;-;-;-;-;-;-;-;-;-;-;-;-
1513497286976;-;-;9.698196;-0.090789795;-1.7913818;-;-;-;-;-;-;-;-;-;-;-;-;-;-;-
1513497286996;-;-;10.252457;0.21208191;-1.2598572;-;-;-;-;-;-;-;-;-;-;-;-;-;-;-
1513497287016;-;-;8.766861;0.1558075;-1.5639343;-;-;-;-;-;-;-;-;-;-;-;-;-;-;-
1513497287037;-;-;8.497513;0.04447937;-1.4118958;-;-;-;-;-;-;-;-;-;-;-;-;-;-;-
1513497287057;-;-;8.435257;0.03012085;-0.9905243;-;-;-;-;-;-;-;-;-;-;-;-;-;-;-
1513497287077;-;-;8.542999;0.18693542;-1.9410095;-;-;-;-;-;-;-;-;-;-;-;-;-;-;-
1513497287098;-;-;8.833893;0.49578857;-1.8153229;-;-;-;-;-;-;-;-;-;-;-;-;-;-;-
1513497287119;-;-;8.465195;0.536499;-1.693222;-;-;-;-;-;-;-;-;-;-;-;-;-;-;-
1513497287138;-;-;9.055359;0.20968628;-1.6872253;-;-;-;-;-;-;-;-;-;-;-;-;-;-;-
1513497287158;-;-;9.111618;0.19891357;-2.3755646;-;-;-;-;-;-;-;-;-;-;-;-;-;-;-
1513497287179;-;-;9.558136;0.66218567;-1.9709473;-;-;-;-;-;-;-;-;-;-;-;-;-;-;-
1513497287199;-;-;9.351044;0.60113525;-2.2929688;-;-;-;-;-;-;-;-;-;-;-;-;-;-;-
1513497287220;-;-;8.866211;0.68733215;-3.0052338;-;-;-;-;-;-;-;-;-;-;-;-;-;-;-
1513497287239;-;-;8.203018;0.4012146;-2.467743;-;-;-;-;-;-;-;-;-;-;-;-;-;-;-
1513497287259;-;-;8.893753;-0.109939575;-2.5431519;-;-;-;-;-;-;-;-;-;-;-;-;-;-;-
1513497287280;-;-;8.930862;0.6717682;-2.0715027;-;-;-;-;-;-;-;-;-;-;-;-;-;-;-
1513497287300;-;-;8.888962;1.2475739;-2.0547333;-;-;-;-;-;-;-;-;-;-;-;-;-;-;-
1513497287321;-;-;9.086487;0.675354;-2.527588;-;-;-;-;-;-;-;-;-;-;-;-;-;-;-
1513497287341;-;-;9.382172;0.76034546;-2.0702972;-;-;-;-;-;-;-;-;-;-;-;-;-;-;-
1513497287362;-;-;9.73053;-0.05128479;-2.2295227;-;-;-;-;-;-;-;-;-;-;-;-;-;-;-
1513497287382;-;-;8.139572;-0.18057251;-2.4952698;-;-;-;-;-;-;-;-;-;-;-;-;-;-;-
1513497287402;-;-;8.40892;-0.5899811;-2.9645386;-;-;-;-;-;-;-;-;-;-;-;-;-;-;-
1513497287423;-;-;9.858612;0.8166199;-2.3851318;-;-;-;-;-;-;-;-;-;-;-;-;-;-;-
1513497287443;-;-;8.985931;2.1358185;-2.7239227;-;-;-;-;-;-;-;-;-;-;-;-;-;-;-
1513497287464;-;-;8.917694;0.02532959;-2.5024567;-;-;-;-;-;-;-;-;-;-;-;-;-;-;-
1513497287484;-;-;9.39534;-1.5584412;-1.7889862;-;-;-;-;-;-;-;-;-;-;-;-;-;-;-
1513497287505;-;-;9.975937;-0.8270111;-2.898697;-;-;-;-;-;-;-;-;-;-;-;-;-;-;-
1513497287524;-;-;9.386963;-0.36013794;-2.0403748;-;-;-;-;-;-;-;-;-;-;-;-;-;-;-
1513497287545;-;-;9.55336;-0.636673;-1.7159576;-;-;-;-;-;-;-;-;-;-;-;-;-;-;-
1513497287565;-;-;9.960373;-0.90242004;-2.3707733;-;-;-;-;-;-;-;-;-;-;-;-;-;-;-
1513497287585;-;-;9.947205;-0.7420044;-2.5922394;-;-;-;-;-;-;-;-;-;-;-;-;-;-;-
1513497287606;-;-;10.811508;0.35572815;0.8302765;-;-;-;-;-;-;-;-;-;-;-;-;-;-;-
1513497287626;-;-;9.623978;-0.6833496;-1.7566681;-;-;-;-;-;-;-;-;-;-;-;-;-;-;-
1513497287647;-;-;9.464767;-0.8210144;-1.6465302;-;-;-;-;-;-;-;-;-;-;-;-;-;-;-
1513497287668;-;-;7.988739;-0.5612488;-2.0200195;-;-;-;-;-;-;-;-;-;-;-;-;-;-;-
1513497287687;-;-;8.710602;-0.9107971;-1.6752625;-;-;-;-;-;-;-;-;-;-;-;-;-;-;-
1513497287708;-;-;7.924103;-0.34457397;-1.3699951;-;-;-;-;-;-;-;-;-;-;-;-;-;-;-
1513497287728;-;-;7.2034454;-0.368515;-1.155716;-;-;-;-;-;-;-;-;-;-;-;-;-;-;-
1513497287749;-;-;8.473572;-0.8461609;-1.440628;-;-;-;-;-;-;-;-;-;-;-;-;-;-;-
1513497287769;-;-;9.220566;-1.3824615;-0.81214905;-;-;-;-;-;-;-;-;-;-;-;-;-;-;-
1513497287790;-;-;6.814392;-1.170578;-0.8899536;-;-;-;-;-;-;-;-;-;-;-;-;-;-;-
1513497287810;-;-;8.238937;-1.4722443;-0.9833374;-;-;-;-;-;-;-;-;-;-;-;-;-;-;-
1513497287831;-;-;8.897339;-0.30148315;-1.1844482;-;-;-;-;-;-;-;-;-;-;-;-;-;-;-
1513497287851;-;-;7.198654;-2.1773376;-2.2450714;-;-;-;-;-;-;-;-;-;-;-;-;-;-;-
1513497287872;-;-;9.79277;-1.5763855;-0.8600311;-;-;-;-;-;-;-;-;-;-;-;-;-;-;-
1513497287893;-;-;8.72377;-1.0843811;-1.1317749;-;-;-;-;-;-;-;-;-;-;-;-;-;-;-
1513497287913;-;-;10.081268;-0.28831482;-1.2945862;-;-;-;-;-;-;-;-;-;-;-;-;-;-;-
1513497287934;-;-;10.22612;-0.25479126;-0.6589203;-;-;-;-;-;-;-;-;-;-;-;-;-;-;-
1513497287954;-;-;10.256058;-0.4738617;-0.5021057;-;-;-;-;-;-;-;-;-;-;-;-;-;-;-
1513497287975;-;-;9.137955;-0.038116455;-0.49491882;-;-;-;-;-;-;-;-;-;-;-;-;-;-;-
1513497287995;-;-;8.006699;0.17497253;-0.5140686;-;-;-;-;-;-;-;-;-;-;-;-;-;-;-
1513497288016;-;-;8.589691;-0.3972473;-0.6505432;-;-;-;-;-;-;-;-;-;-;-;-;-;-;-
1513497288036;-;-;9.685028;-1.254364;-0.29978943;-;-;-;-;-;-;-;-;-;-;-;-;-;-;-
1513497288057;-;-;9.649124;-1.2974701;-0.58470154;-;-;-;-;-;-;-;-;-;-;-;-;-;-;-
1513497288077;-;-;9.530609;-1.155014;-0.9725647;-;-;-;-;-;-;-;-;-;-;-;-;-;-;-
1513497288098;-;-;8.868607;-1.0963593;-0.47935486;-;-;-;-;-;-;-;-;-;-;-;-;-;-;-
1513497288118;-;-;8.626801;-0.581604;-0.67567444;-;-;-;-;-;-;-;-;-;-;-;-;-;-;-
1513497288138;-;-;8.594482;-0.45111084;-0.48294067;-;-;-;-;-;-;-;-;-;-;-;-;-;-;-
1513497288158;-;-;8.948822;-0.41400146;-0.66729736;-;-;-;-;-;-;-;-;-;-;-;-;-;-;-
1513497288179;-;-;8.884171;-0.4834442;-0.6912384;-;-;-;-;-;-;-;-;-;-;-;-;-;-;-
1513497288199;-;-;9.100845;-0.45231628;-0.25190735;-;-;-;-;-;-;-;-;-;-;-;-;-;-;-
1513497288220;-;-;9.263657;-0.78630066;-0.75109863;-;-;-;-;-;-;-;-;-;-;-;-;-;-;-
1513497288239;-;-;8.952408;-0.66539;-0.4458313;-;-;-;-;-;-;-;-;-;-;-;-;-;-;-
1513497288260;-;-;9.736511;-1.1047363;-1.0180511;-;-;-;-;-;-;-;-;-;-;-;-;-;-;-
1513497288280;-;-;9.193024;-1.273529;-0.63856506;-;-;-;-;-;-;-;-;-;-;-;-;-;-;-
1513497288301;-;-;9.819107;-1.2998657;-0.99650574;-;-;-;-;-;-;-;-;-;-;-;-;-;-;-
1513497288321;-;-;8.587296;-1.4590759;-0.32731628;-;-;-;-;-;-;-;-;-;-;-;-;-;-;-
1513497288341;-;-;8.905716;-1.6625824;-1.8105316;-;-;-;-;-;-;-;-;-;-;-;-;-;-;-
1513497288361;-;-;9.638351;-1.8253937;1.1163788;-;-;-;-;-;-;-;-;-;-;-;-;-;-;-
1513497288382;-;-;9.086487;-0.9155884;-1.9637604;-;-;-;-;-;-;-;-;-;-;-;-;-;-;-
1513497288402;-;-;9.571304;-1.2352142;-1.5184326;-;-;-;-;-;-;-;-;-;-;-;-;-;-;-
1513497288423;-;-;9.100845;-0.8210144;-1.2957764;-;-;-;-;-;-;-;-;-;-;-;-;-;-;-
1513497288443;-;-;8.996704;-0.50857544;-1.3173218;-;-;-;-;-;-;-;-;-;-;-;-;-;-;-
1513497288464;-;-;9.081696;-0.38526917;-0.9941101;-;-;-;-;-;-;-;-;-;-;-;-;-;-;-
1513497288485;-;-;9.166687;-0.49061584;-1.1700745;-;-;-;-;-;-;-;-;-;-;-;-;-;-;-
1513497288505;-;-;8.995499;-0.5313263;-1.0000916;-;-;-;-;-;-;-;-;-;-;-;-;-;-;-
1513497288525;-;-;9.123596;-0.6139221;-1.0958557;-;-;-;-;-;-;-;-;-;-;-;-;-;-;-
1513497288546;-;-;9.213379;-0.7084961;-1.1281891;-;-;-;-;-;-;-;-;-;-;-;-;-;-;-
1513497288566;-;-;9.380966;-0.704895;-1.1533203;-;-;-;-;-;-;-;-;-;-;-;-;-;-;-
1513497288587;-;-;9.245697;-0.8090515;-1.2107849;-;-;-;-;-;-;-;-;-;-;-;-;-;-;-
1513497288607;-;-;9.15712;-0.7563782;-1.2239532;-;-;-;-;-;-;-;-;-;-;-;-;-;-;-
1513497288628;-;-;9.123596;-0.79467773;-1.1317749;-;-;-;-;-;-;-;-;-;-;-;-;-;-;-
1513497288648;-;-;9.164291;-0.82341003;-1.1078339;-;-;-;-;-;-;-;-;-;-;-;-;-;-;-
1513497288669;-;-;9.179855;-0.9048157;-1.1545258;-;-;-;-;-;-;-;-;-;-;-;-;-;-;-
1513497288689;-;-;9.1918335;-0.9359436;-1.2203674;-;-;-;-;-;-;-;-;-;-;-;-;-;-;-
1513497288710;-;-;9.224152;-1.0017853;-1.1904297;-;-;-;-;-;-;-;-;-;-;-;-;-;-;-
1513497288730;-;-;9.222961;-1.0532532;-1.140152;-;-;-;-;-;-;-;-;-;-;-;-;-;-;-
1513497288751;-;-;9.233734;-1.0975494;-1.164093;-;-;-;-;-;-;-;-;-;-;-;-;-;-;-
1513497288770;-;-;9.254074;-1.0831909;-1.021637;-;-;-;-;-;-;-;-;-;-;-;-;-;-;-
1513497288790;-;-;9.161896;-0.9048157;-0.95339966;-;-;-;-;-;-;-;-;-;-;-;-;-;-;-
1513497288811;-;-;9.092468;-0.71328735;-1.0144653;-;-;-;-;-;-;-;-;-;-;-;-;-;-;-
1513497288831;-;-;9.130783;-0.79348755;-1.0826874;-;-;-;-;-;-;-;-;-;-;-;-;-;-;-
1513497288852;-;-;9.25647;-0.8820648;-1.0910797;-;-;-;-;-;-;-;-;-;-;-;-;-;-;-
1513497288873;-;-;9.190628;-1.0293121;-1.1497345;-;-;-;-;-;-;-;-;-;-;-;-;-;-;-
1513497288893;-;-;8.971558;-1.2902832;-1.4334412;-;-;-;-;-;-;-;-;-;-;-;-;-;-;-
1513497288913;-;-;8.945221;-1.427948;-1.2814178;-;-;-;-;-;-;-;-;-;-;-;-;-;-;-
1513497288935;-;-;9.009872;-1.5344849;-1.3712006;-;-;-;-;-;-;-;-;-;-;-;-;-;-;-
1513497288954;-;-;9.038605;-1.5045624;-1.2658539;-;-;-;-;-;-;-;-;-;-;-;-;-;-;-
1513497288974;-;-;9.153519;-1.4219666;-1.3280945;-;-;-;-;-;-;-;-;-;-;-;-;-;-;-
1513497288995;-;-;9.252884;-1.3058472;-1.3029633;-;-;-;-;-;-;-;-;-;-;-;-;-;-;-
1513497289015;-;-;9.319916;-1.3393707;-1.3256989;-;-;-;-;-;-;-;-;-;-;-;-;-;-;-
1513497289035;-;-;9.359421;-1.3633118;-1.2909851;-;-;-;-;-;-;-;-;-;-;-;-;-;-;-
1513497289056;-;-;9.208588;-1.3549194;-1.3161316;-;-;-;-;-;-;-;-;-;-;-;-;-;-;-
1513497289077;-;-;9.056564;-1.3070374;-1.2897949;-;-;-;-;-;-;-;-;-;-;-;-;-;-;-
1513497289097;-;-;8.970367;-1.4375305;-1.3185272;-;-;-;-;-;-;-;-;-;-;-;-;-;-;-
1513497289118;-;-;8.957199;-1.5045624;-1.3544312;-;-;-;-;-;-;-;-;-;-;-;-;-;-;-
1513497289138;-;-;9.015854;-1.6230774;-1.258667;-;-;-;-;-;-;-;-;-;-;-;-;-;-;-
1513497289159;-;-;9.149933;-1.6350555;-1.1581116;-;-;-;-;-;-;-;-;-;-;-;-;-;-;-
1513497289179;-;-;9.179855;-1.617096;-1.2754211;-;-;-;-;-;-;-;-;-;-;-;-;-;-;-
1513497289199;-;-;9.183456;-1.6218872;-1.3256989;-;-;-;-;-;-;-;-;-;-;-;-;-;-;-
1513497289220;-;-;9.172684;-1.5955505;-1.4645691;-;-;-;-;-;-;-;-;-;-;-;-;-;-;-
1513497289241;-;-;9.125992;-1.546463;-1.5339966;-;-;-;-;-;-;-;-;-;-;-;-;-;-;-
1513497289260;-;-;8.9392395;-1.4459076;-1.650116;-;-;-;-;-;-;-;-;-;-;-;-;-;-;-
1513497289281;-;-;8.814743;-1.4099884;-1.5806885;-;-;-;-;-;-;-;-;-;-;-;-;-;-;-
1513497289301;-;-;8.777634;-1.4782257;-1.6225891;-;-;-;-;-;-;-;-;-;-;-;-;-;-;-
1513497289322;-;-;8.848267;-1.6278687;-1.6441345;-;-;-;-;-;-;-;-;-;-;-;-;-;-;-
1513497289342;-;-;9.069733;-1.764328;-1.7111664;-;-;-;-;-;-;-;-;-;-;-;-;-;-;-
1513497289363;-;-;9.151123;-1.8636932;-1.7255402;-;-;-;-;-;-;-;-;-;-;-;-;-;-;-
1513497289384;-;-;9.29837;-1.9846039;-1.6357574;-;-;-;-;-;-;-;-;-;-;-;-;-;-;-
1513497289404;-;-;9.336685;-1.8361664;-1.3855591;-;-;-;-;-;-;-;-;-;-;-;-;-;-;-
1513497289424;-;-;9.194229;-1.6829376;-1.2610626;-;-;-;-;-;-;-;-;-;-;-;-;-;-;-
1513497289444;-;-;9.075714;-1.6601868;-1.3628082;-;-;-;-;-;-;-;-;-;-;-;-;-;-;-
1513497289465;-;-;9.171478;-1.8601074;-1.3795776;-;-;-;-;-;-;-;-;-;-;-;-;-;-;-
1513497289485;-;-;9.213379;-2.0205078;-1.5232239;-;-;-;-;-;-;-;-;-;-;-;-;-;-;-
1513497289507;-;-;9.024231;-2.0660095;-1.6812439;-;-;-;-;-;-;-;-;-;-;-;-;-;-;-
1513497289526;-;-;8.917694;-1.977417;-1.7817993;-;-;-;-;-;-;-;-;-;-;-;-;-;-;-
1513497289547;-;-;8.750107;-1.8014526;-1.8045502;-;-;-;-;-;-;-;-;-;-;-;-;-;-;-
1513497289566;-;-;8.777634;-1.862503;-1.847641;-;-;-;-;-;-;-;-;-;-;-;-;-;-;-
1513497289586;-;-;8.857834;-2.1102905;-1.8201141;-;-;-;-;-;-;-;-;-;-;-;-;-;-;-
1513497289606;-;-;8.904526;-2.009735;-1.4394226;-;-;-;-;-;-;-;-;-;-;-;-;-;-;-
1513497289627;-;-;8.788406;-1.8684845;-1.1664886;-;-;-;-;-;-;-;-;-;-;-;-;-;-;-
1513497289647;-;-;8.850662;-1.9714355;-1.1808624;-;-;-;-;-;-;-;-;-;-;-;-;-;-;-
1513497289668;-;-;9.067337;-2.28508;-1.0934601;-;-;-;-;-;-;-;-;-;-;-;-;-;-;-
1513497289688;-;-;9.100845;-2.423935;-1.2000122;-;-;-;-;-;-;-;-;-;-;-;-;-;-;-
1513497289709;-;-;9.214569;-2.0743866;-1.3101501;-;-;-;-;-;-;-;-;-;-;-;-;-;-;-
1513497289728;-;-;9.082901;-1.8636932;-1.4071045;-;-;-;-;-;-;-;-;-;-;-;-;-;-;-
1513497289749;-;-;8.965576;-1.8529205;-1.3269043;-;-;-;-;-;-;-;-;-;-;-;-;-;-;-
1513497289769;-;-;8.845871;-1.8912201;-1.3628082;-;-;-;-;-;-;-;-;-;-;-;-;-;-;-
1513497289789;-;-;8.910507;-1.8158112;-1.2718353;-;-;-;-;-;-;-;-;-;-;-;-;-;-;-
1513497289810;-;-;9.06015;-1.735611;-1.2706451;-;-;-;-;-;-;-;-;-;-;-;-;-;-;-
1513497289830;-;-;9.134369;-1.7379913;-1.3209229;-;-;-;-;-;-;-;-;-;-;-;-;-;-;-
1513497289851;-;-;9.054169;-1.7655334;-1.4226685;-;-;-;-;-;-;-;-;-;-;-;-;-;-;-
1513497289870;-;-;8.849457;-1.7679291;-1.3664093;-;-;-;-;-;-;-;-;-;-;-;-;-;-;-
1513497289891;-;-;8.7656555;-1.8529205;-1.3879547;-;-;-;-;-;-;-;-;-;-;-;-;-;-;-
1513497289911;-;-;8.82312;-2.0193176;-1.3185272;-;-;-;-;-;-;-;-;-;-;-;-;-;-;-
1513497289932;-;-;8.905716;-2.1126862;-1.3340912;-;-;-;-;-;-;-;-;-;-;-;-;-;-;-
1513497289952;-;-;8.996704;-2.1689606;-1.3484497;-;-;-;-;-;-;-;-;-;-;-;-;-;-;-
1513497289972;-;-;9.085281;-2.1881104;-1.4059143;-;-;-;-;-;-;-;-;-;-;-;-;-;-;-
1513497289993;-;-;9.041;-2.250351;-1.3867645;-;-;-;-;-;-;-;-;-;-;-;-;-;-;-
1513497290013;-;-;8.946426;-2.2048645;-1.5914612;-;-;-;-;-;-;-;-;-;-;-;-;-;-;-
1513497290035;-;-;8.990723;-2.2132416;-1.550766;-;-;-;-;-;-;-;-;-;-;-;-;-;-;-
1513497290055;-;-;9.036209;-2.277893;-1.5363922;-;-;-;-;-;-;-;-;-;-;-;-;-;-;-
1513497290076;-;-;9.008667;-2.2958527;-1.5196381;-;-;-;-;-;-;-;-;-;-;-;-;-;-;-
1513497290097;-;-;8.967972;-2.3185883;-1.5890656;-;-;-;-;-;-;-;-;-;-;-;-;-;-;-
1513497290117;-;-;8.912903;-2.2802887;-1.5771027;-;-;-;-;-;-;-;-;-;-;-;-;-;-;-
1513497290138;-;-;8.930862;-2.2431793;-1.5579376;-;-;-;-;-;-;-;-;-;-;-;-;-;-;-
1513497290158;-;-;8.924881;-2.3185883;-1.6118164;-;-;-;-;-;-;-;-;-;-;-;-;-;-;-
1513497290179;-;-;8.92009;-2.3461304;-1.6872253;-;-;-;-;-;-;-;-;-;-;-;-;-;-;-
1513497290200;-;-;8.947617;-2.3102112;-1.7973633;-;-;-;-;-;-;-;-;-;-;-;-;-;-;-
1513497290220;-;-;8.930862;-2.230011;-1.8404541;-;-;-;-;-;-;-;-;-;-;-;-;-;-;-
1513497290241;-;-;8.910507;-2.2156372;-1.7458801;-;-;-;-;-;-;-;-;-;-;-;-;-;-;-
1513497290260;-;-;8.831497;-2.2527466;-1.7303314;-;-;-;-;-;-;-;-;-;-;-;-;-;-;-
1513497290281;-;-;8.794388;-2.3736572;-1.6716614;-;-;-;-;-;-;-;-;-;-;-;-;-;-;-
1513497290301;-;-;8.815933;-2.4502716;-1.5627289;-;-;-;-;-;-;-;-;-;-;-;-;-;-;-
1513497290321;-;-;8.835098;-2.4778137;-1.5687103;-;-;-;-;-;-;-;-;-;-;-;-;-;-;-
1513497290342;-;-;8.850662;-2.5041504;-1.5088654;-;-;-;-;-;-;-;-;-;-;-;-;-;-;-
1513497290362;-;-;8.909317;-2.502945;-1.4621735;-;-;-;-;-;-;-;-;-;-;-;-;-;-;-
1513497290383;-;-;8.97995;-2.4885864;-1.590271;-;-;-;-;-;-;-;-;-;-;-;-;-;-;-
1513497290403;-;-;9.0182495;-2.4311218;-1.6489258;-;-;-;-;-;-;-;-;-;-;-;-;-;-;-
1513497290423;-;-;8.8051605;-2.2551422;-1.7901764;-;-;-;-;-;-;-;-;-;-;-;-;-;-;-
1513497290444;-;-;8.960785;-2.28508;-1.4789276;-;-;-;-;-;-;-;-;-;-;-;-;-;-;-
1513497290464;-;-;8.831497;-2.317398;-1.5675201;-;-;-;-;-;-;-;-;-;-;-;-;-;-;-
1513497290485;-;-;8.849457;-2.447876;-1.5830841;-;-;-;-;-;-;-;-;-;-;-;-;-;-;-
1513497290504;-;-;8.938049;-2.4299164;-1.5639343;-;-;-;-;-;-;-;-;-;-;-;-;-;-;-
1513497290525;-;-;8.994308;-2.3545074;-1.571106;-;-;-;-;-;-;-;-;-;-;-;-;-;-;-
1513497290545;-;-;8.990723;-2.2731018;-1.6453247;-;-;-;-;-;-;-;-;-;-;-;-;-;-;-
1513497290570;-;-;8.885376;-2.2371826;-1.6130066;-;-;-;-;-;-;-;-;-;-;-;-;-;-;-
1513497290586;-;-;8.868607;-2.1737366;-1.6166077;-;-;-;-;-;-;-;-;-;-;-;-;-;-;-
1513497290606;-;-;8.848267;-2.1809235;-1.689621;-;-;-;-;-;-;-;-;-;-;-;-;-;-;-
1513497290626;-;-;8.904526;-2.22641;-1.7363129;-;-;-;-;-;-;-;-;-;-;-;-;-;-;-
1513497290647;-;-;8.917694;-2.1545868;-1.7662354;-;-;-;-;-;-;-;-;-;-;-;-;-;-;-
1513497290667;-;-;8.905716;-2.04924;-1.7853851;-;-;-;-;-;-;-;-;-;-;-;-;-;-;-
1513497290687;-;-;8.909317;-2.0947418;-1.7865906;-;-;-;-;-;-;-;-;-;-;-;-;-;-;-
1513497290708;-;-;8.881775;-2.1019135;-1.7817993;-;-;-;-;-;-;-;-;-;-;-;-;-;-;-
1513497290728;-;-;8.888962;-2.0995178;-1.7638397;-;-;-;-;-;-;-;-;-;-;-;-;-;-;-
1513497290748;-;-;8.887772;-2.12706;-1.729126;-;-;-;-;-;-;-;-;-;-;-;-;-;-;-
1513497290769;-;-;8.891357;-2.12706;-1.7411041;-;-;-;-;-;-;-;-;-;-;-;-;-;-;-
1513497290790;-;-;8.878189;-2.1809235;-1.6704712;-;-;-;-;-;-;-;-;-;-;-;-;-;-;-
1513497290810;-;-;8.865021;-2.2527466;-1.6956024;-;-;-;-;-;-;-;-;-;-;-;-;-;-;-
1513497290831;-;-;8.857834;-2.261139;-1.7003937;-;-;-;-;-;-;-;-;-;-;-;-;-;-;-
1513497290851;-;-;8.908112;-2.2443695;-1.6716614;-;-;-;-;-;-;-;-;-;-;-;-;-;-;-
1513497290872;-;-;8.926071;-2.2192383;-1.6968079;-;-;-;-;-;-;-;-;-;-;-;-;-;-;-
1513497290892;-;-;8.941635;-2.261139;-1.7327118;-;-;-;-;-;-;-;-;-;-;-;-;-;-;-
1513497290913;-;-;8.970367;-2.2072601;-1.7411041;-;-;-;-;-;-;-;-;-;-;-;-;-;-;-
1513497290933;-;-;8.957199;-2.1521912;-1.7506714;-;-;-;-;-;-;-;-;-;-;-;-;-;-;-
1513497290953;-;-;8.935654;-2.1916962;-1.7722168;-;-;-;-;-;-;-;-;-;-;-;-;-;-;-
1513497290974;-;-;8.908112;-2.253952;-1.7015991;-;-;-;-;-;-;-;-;-;-;-;-;-;-;-
1513497290995;-;-;8.897339;-2.2587433;-1.7578583;-;-;-;-;-;-;-;-;-;-;-;-;-;-;-
1513497291015;-;-;8.934448;-2.2527466;-1.8260956;-;-;-;-;-;-;-;-;-;-;-;-;-;-;-
1513497291035;-;-;8.9392395;-2.1617737;-1.7494812;-;-;-;-;-;-;-;-;-;-;-;-;-;-;-
1513497291056;-;-;8.910507;-2.1174774;-1.6656799;-;-;-;-;-;-;-;-;-;-;-;-;-;-;-
1513497291075;-;-;8.890167;-2.2012787;-1.6692657;-;-;-;-;-;-;-;-;-;-;-;-;-;-;-
1513497291096;-;-;8.898544;-2.221634;-1.6573029;-;-;-;-;-;-;-;-;-;-;-;-;-;-;-
1513497291115;-;-;8.9392395;-2.214447;-1.650116;-;-;-;-;-;-;-;-;-;-;-;-;-;-;-
1513497291136;-;-;8.929672;-2.1378326;-1.7051849;-;-;-;-;-;-;-;-;-;-;-;-;-;-;-
1513497291156;-;-;8.9392395;-2.025299;-1.7542725;-;-;-;-;-;-;-;-;-;-;-;-;-;-;-
1513497291177;-;-;8.990723;-2.0432587;-1.7782135;-;-;-;-;-;-;-;-;-;-;-;-;-;-;-
1513497291197;-;-;8.991913;-2.0695953;-1.7865906;-;-;-;-;-;-;-;-;-;-;-;-;-;-;-
1513497291217;-;-;8.911713;-2.0348816;-1.8260956;-;-;-;-;-;-;-;-;-;-;-;-;-;-;-
1513497291238;-;-;8.888962;-2.0456543;-1.8248901;-;-;-;-;-;-;-;-;-;-;-;-;-;-;-
1513497291257;-;-;8.903336;-2.1318512;-1.8165131;-;-;-;-;-;-;-;-;-;-;-;-;-;-;-
1513497291277;-;-;8.888962;-2.1366272;-1.777008;-;-;-;-;-;-;-;-;-;-;-;-;-;-;-
1513497291298;-;-;8.922485;-2.1330414;-1.7710266;-;-;-;-;-;-;-;-;-;-;-;-;-;-;-
1513497291318;-;-;8.926071;-2.20607;-1.7147675;-;-;-;-;-;-;-;-;-;-;-;-;-;-;-
1513497291338;-;-;8.948822;-2.250351;-1.6860352;-;-;-;-;-;-;-;-;-;-;-;-;-;-;-
1513497291359;-;-;8.917694;-2.2527466;-1.6046295;-;-;-;-;-;-;-;-;-;-;-;-;-;-;-
1513497291378;-;-;8.934448;-2.2395782;-1.5866699;-;-;-;-;-;-;-;-;-;-;-;-;-;-;-
1513497291398;-;-;8.951218;-2.253952;-1.653717;-;-;-;-;-;-;-;-;-;-;-;-;-;-;-
1513497291419;-;-;8.972763;-2.2072601;-1.6680756;-;-;-;-;-;-;-;-;-;-;-;-;-;-;-
1513497291440;-;-;8.932053;-2.1486053;-1.6656799;-;-;-;-;-;-;-;-;-;-;-;-;-;-;-
1513497291460;-;-;8.897339;-2.142624;-1.6070251;-;-;-;-;-;-;-;-;-;-;-;-;-;-;-
1513497291481;-;-;8.951218;-2.1809235;-1.6118164;-;-;-;-;-;-;-;-;-;-;-;-;-;-;-
1513497291501;-;-;8.945221;-2.2084656;-1.6429291;-;-;-;-;-;-;-;-;-;-;-;-;-;-;-
1513497291521;-;-;8.940445;-2.1390228;-1.7111664;-;-;-;-;-;-;-;-;-;-;-;-;-;-;-
1513497291542;-;-;8.92128;-2.0839539;-1.6668854;-;-;-;-;-;-;-;-;-;-;-;-;-;-;-
1513497291562;-;-;8.944031;-2.12706;-1.6632843;-;-;-;-;-;-;-;-;-;-;-;-;-;-;-
1513497291583;-;-;8.922485;-2.1976929;-1.7099762;-;-;-;-;-;-;-;-;-;-;-;-;-;-;-
1513497291603;-;-;8.946426;-2.1857147;-1.6022339;-;-;-;-;-;-;-;-;-;-;-;-;-;-;-
1513497291623;-;-;8.915298;-2.1785278;-1.5483704;-;-;-;-;-;-;-;-;-;-;-;-;-;-;-
1513497291644;-;-;8.92128;-2.183319;-1.6608887;-;-;-;-;-;-;-;-;-;-;-;-;-;-;-
1513497291664;-;-;8.892548;-2.1533966;-1.5854797;-;-;-;-;-;-;-;-;-;-;-;-;-;-;-
1513497291685;-;-;8.903336;-2.0911407;-1.5567474;-;-;-;-;-;-;-;-;-;-;-;-;-;-;-
1513497291705;-;-;8.934448;-2.0671997;-1.6058197;-;-;-;-;-;-;-;-;-;-;-;-;-;-;-
1513497291726;-;-;8.971558;-2.1809235;-1.5998383;-;-;-;-;-;-;-;-;-;-;-;-;-;-;-
1513497291746;-;-;8.945221;-2.1940918;-1.6213837;-;-;-;-;-;-;-;-;-;-;-;-;-;-;-
1513497291767;-;-;8.908112;-2.1617737;-1.6309662;-;-;-;-;-;-;-;-;-;-;-;-;-;-;-
1513497291787;-;-;8.880585;-2.1581879;-1.6489258;-;-;-;-;-;-;-;-;-;-;-;-;-;-;-
1513497291808;-;-;8.890167;-2.1462097;-1.6010437;-;-;-;-;-;-;-;-;-;-;-;-;-;-;-
1513497291829;-;-;8.914108;-2.1474;-1.6237793;-;-;-;-;-;-;-;-;-;-;-;-;-;-;-
1513497291849;-;-;8.941635;-2.1521912;-1.5687103;-;-;-;-;-;-;-;-;-;-;-;-;-;-;-
1513497291870;-;-;8.96199;-2.214447;-1.5854797;-;-;-;-;-;-;-;-;-;-;-;-;-;-;-
1513497291889;-;-;8.950012;-2.2156372;-1.555542;-;-;-;-;-;-;-;-;-;-;-;-;-;-;-
1513497291910;-;-;8.947617;-2.1497955;-1.5699158;-;-;-;-;-;-;-;-;-;-;-;-;-;-;-
1513497291930;-;-;8.923676;-2.159378;-1.5543518;-;-;-;-;-;-;-;-;-;-;-;-;-;-;-
1513497291951;-;-;8.928467;-2.190506;-1.5339966;-;-;-;-;-;-;-;-;-;-;-;-;-;-;-
1513497291971;-;-;8.924881;-2.1952972;-1.5531616;-;-;-;-;-;-;-;-;-;-;-;-;-;-;-
1513497291992;-;-;8.953613;-2.135437;-1.6094208;-;-;-;-;-;-;-;-;-;-;-;-;-;-;-
1513497292012;-;-;8.936844;-2.2132416;-1.5675201;-;-;-;-;-;-;-;-;-;-;-;-;-;-;-
1513497292033;-;-;8.922485;-2.2551422;-1.5483704;-;-;-;-;-;-;-;-;-;-;-;-;-;-;-
1513497292053;-;-;8.886566;-2.2467651;-1.511261;-;-;-;-;-;-;-;-;-;-;-;-;-;-;-
1513497292074;-;-;8.90213;-2.2419739;-1.5399933;-;-;-;-;-;-;-;-;-;-;-;-;-;-;-
1513497292094;-;-;8.9392395;-2.2359924;-1.5423737;-;-;-;-;-;-;-;-;-;-;-;-;-;-;-
1513497292115;-;-;8.969162;-2.2324066;-1.5567474;-;-;-;-;-;-;-;-;-;-;-;-;-;-;-
1513497292135;-;-;8.935654;-2.2120514;-1.5447693;-;-;-;-;-;-;-;-;-;-;-;-;-;-;-
1513497292156;-;-;8.927277;-2.2024689;-1.550766;-;-;-;-;-;-;-;-;-;-;-;-;-;-;-
1513497292176;-;-;8.932053;-2.174942;-1.5208282;-;-;-;-;-;-;-;-;-;-;-;-;-;-;-
1513497292196;-;-;8.960785;-2.1689606;-1.5435791;-;-;-;-;-;-;-;-;-;-;-;-;-;-;-
1513497292217;-;-;8.963181;-2.1545868;-1.5651245;-;-;-;-;-;-;-;-;-;-;-;-;-;-;-
1513497292236;-;-;8.916504;-2.1857147;-1.5184326;-;-;-;-;-;-;-;-;-;-;-;-;-;-;-
1513497292256;-;-;8.924881;-2.1809235;-1.452591;-;-;-;-;-;-;-;-;-;-;-;-;-;-;-
1513497292277;-;-;9.007477;-2.186905;-1.5998383;-;-;-;-;-;-;-;-;-;-;-;-;-;-;-
1513497292297;-;-;8.904526;-2.1569824;-1.6022339;-;-;-;-;-;-;-;-;-;-;-;-;-;-;-
1513497292317;-;-;8.908112;-2.104309;-1.5124512;-;-;-;-;-;-;-;-;-;-;-;-;-;-;-
1513497292338;-;-;8.935654;-2.0815735;-1.5699158;-;-;-;-;-;-;-;-;-;-;-;-;-;-;-
1513497292358;-;-;8.977554;-2.1186829;-1.6010437;-;-;-;-;-;-;-;-;-;-;-;-;-;-;-
1513497292379;-;-;8.957199;-2.1486053;-1.5854797;-;-;-;-;-;-;-;-;-;-;-;-;-;-;-
1513497292399;-;-;8.96199;-2.1474;-1.574707;-;-;-;-;-;-;-;-;-;-;-;-;-;-;-
1513497292419;-;-;8.917694;-2.1497955;-1.5184326;-;-;-;-;-;-;-;-;-;-;-;-;-;-;-
1513497292440;-;-;8.910507;-2.1929016;-1.5483704;-;-;-;-;-;-;-;-;-;-;-;-;-;-;-
1513497292461;-;-;8.953613;-2.253952;-1.4992828;-;-;-;-;-;-;-;-;-;-;-;-;-;-;-
1513497292481;-;-;8.972763;-2.2443695;-1.5651245;-;-;-;-;-;-;-;-;-;-;-;-;-;-;-
1513497292501;-;-;8.984726;-2.190506;-1.5962524;-;-;-;-;-;-;-;-;-;-;-;-;-;-;-
1513497292521;-;-;8.945221;-2.1916962;-1.5423737;-;-;-;-;-;-;-;-;-;-;-;-;-;-;-
1513497292542;-;-;8.927277;-2.2012787;-1.535202;-;-;-;-;-;-;-;-;-;-;-;-;-;-;-
1513497292562;-;-;8.922485;-2.20607;-1.5543518;-;-;-;-;-;-;-;-;-;-;-;-;-;-;-
1513497292583;-;-;8.950012;-2.151001;-1.590271;-;-;-;-;-;-;-;-;-;-;-;-;-;-;-
1513497292603;-;-;8.965576;-2.1210785;-1.5926514;-;-;-;-;-;-;-;-;-;-;-;-;-;-;-
1513497292624;-;-;8.955994;-2.182129;-1.5842743;-;-;-;-;-;-;-;-;-;-;-;-;-;-;-
1513497292644;-;-;8.935654;-2.2204285;-1.5603333;-;-;-;-;-;-;-;-;-;-;-;-;-;-;-
1513497292665;-;-;8.873398;-2.1976929;-1.4430237;-;-;-;-;-;-;-;-;-;-;-;-;-;-;-
1513497292686;-;-;8.869812;-2.262329;-1.480133;-;-;-;-;-;-;-;-;-;-;-;-;-;-;-
1513497292707;-;-;8.897339;-2.221634;-1.5818787;-;-;-;-;-;-;-;-;-;-;-;-;-;-;-
1513497292727;-;-;8.924881;-2.1964874;-1.579483;-;-;-;-;-;-;-;-;-;-;-;-;-;-;-
1513497292747;-;-;8.967972;-2.1929016;-1.5495605;-;-;-;-;-;-;-;-;-;-;-;-;-;-;-
1513497292768;-;-;8.924881;-2.186905;-1.5339966;-;-;-;-;-;-;-;-;-;-;-;-;-;-;-
1513497292788;-;-;8.930862;-2.2419739;-1.5124512;-;-;-;-;-;-;-;-;-;-;-;-;-;-;-
1513497292809;-;-;8.923676;-2.2707062;-1.5076599;-;-;-;-;-;-;-;-;-;-;-;-;-;-;-
1513497292829;-;-;8.922485;-2.2431793;-1.5423737;-;-;-;-;-;-;-;-;-;-;-;-;-;-;-
1513497292850;-;-;8.936844;-2.2312012;-1.5531616;-;-;-;-;-;-;-;-;-;-;-;-;-;-;-
1513497292870;-;-;8.926071;-2.2036743;-1.5531616;-;-;-;-;-;-;-;-;-;-;-;-;-;-;-
1513497292889;-;-;8.90094;-2.2491608;-1.5447693;-;-;-;-;-;-;-;-;-;-;-;-;-;-;-
1513497292909;-;-;8.944031;-2.2551422;-1.4909058;-;-;-;-;-;-;-;-;-;-;-;-;-;-;-
1513497292930;-;-;8.985931;-2.245575;-1.5830841;-;-;-;-;-;-;-;-;-;-;-;-;-;-;-
1513497292950;-;-;8.985931;-2.261139;-1.574707;-;-;-;-;-;-;-;-;-;-;-;-;-;-;-
1513497292971;-;-;8.940445;-2.183319;-1.5064697;-;-;-;-;-;-;-;-;-;-;-;-;-;-;-
1513497292991;-;-;8.8997345;-2.1222687;-1.4885101;-;-;-;-;-;-;-;-;-;-;-;-;-;-;-
1513497293012;-;-;8.904526;-2.190506;-1.550766;-;-;-;-;-;-;-;-;-;-;-;-;-;-;-
1513497293032;-;-;8.916504;-2.221634;-1.5842743;-;-;-;-;-;-;-;-;-;-;-;-;-;-;-
1513497293052;-;-;8.947617;-2.210846;-1.5866699;-;-;-;-;-;-;-;-;-;-;-;-;-;-;-
1513497293073;-;-;8.950012;-2.183319;-1.618988;-;-;-;-;-;-;-;-;-;-;-;-;-;-;-
1513497293094;-;-;9.043396;-2.2036743;-1.4597778;-;-;-;-;-;-;-;-;-;-;-;-;-;-;-
1513497293114;-;-;8.9392395;-2.1486053;-1.6788483;-;-;-;-;-;-;-;-;-;-;-;-;-;-;-
1513497293134;-;-;8.893753;-2.2240143;-1.6070251;-;-;-;-;-;-;-;-;-;-;-;-;-;-;-
1513497293155;-;-;8.906921;-2.2096558;-1.6034393;-;-;-;-;-;-;-;-;-;-;-;-;-;-;-
1513497293175;-;-;8.922485;-2.1881104;-1.614212;-;-;-;-;-;-;-;-;-;-;-;-;-;-;-
1513497293196;-;-;8.944031;-2.1390228;-1.6285706;-;-;-;-;-;-;-;-;-;-;-;-;-;-;-
1513497293216;-;-;8.96199;-2.1007233;-1.6573029;-;-;-;-;-;-;-;-;-;-;-;-;-;-;-
1513497293237;-;-;8.946426;-2.1162872;-1.7003937;-;-;-;-;-;-;-;-;-;-;-;-;-;-;-
1513497293256;-;-;8.887772;-2.1581879;-1.6525116;-;-;-;-;-;-;-;-;-;-;-;-;-;-;-
1513497293276;-;-;8.903336;-2.2288055;-1.6884308;-;-;-;-;-;-;-;-;-;-;-;-;-;-;-
1513497293296;-;-;8.904526;-2.230011;-1.693222;-;-;-;-;-;-;-;-;-;-;-;-;-;-;-
1513497293317;-;-;8.932053;-2.1713562;-1.6644897;-;-;-;-;-;-;-;-;-;-;-;-;-;-;-
1513497293337;-;-;8.942825;-2.1785278;-1.6369476;-;-;-;-;-;-;-;-;-;-;-;-;-;-;-
1513497293357;-;-;8.926071;-2.2288055;-1.6620941;-;-;-;-;-;-;-;-;-;-;-;-;-;-;-
1513497293378;-;-;8.885376;-2.238388;-1.6489258;-;-;-;-;-;-;-;-;-;-;-;-;-;-;-
1513497293397;-;-;8.917694;-2.253952;-1.6237793;-;-;-;-;-;-;-;-;-;-;-;-;-;-;-
1513497293418;-;-;8.922485;-2.222824;-1.6860352;-;-;-;-;-;-;-;-;-;-;-;-;-;-;-
1513497293439;-;-;8.922485;-2.2036743;-1.6453247;-;-;-;-;-;-;-;-;-;-;-;-;-;-;-
1513497293458;-;-;8.909317;-2.1964874;-1.693222;-;-;-;-;-;-;-;-;-;-;-;-;-;-;-
1513497293479;-;-;8.928467;-2.1294556;-1.6836395;-;-;-;-;-;-;-;-;-;-;-;-;-;-;-
1513497293498;-;-;8.916504;-2.1210785;-1.6489258;-;-;-;-;-;-;-;-;-;-;-;-;-;-;-
1513497293519;-;-;8.936844;-2.1486053;-1.6716614;-;-;-;-;-;-;-;-;-;-;-;-;-;-;-
1513497293539;-;-;8.892548;-2.186905;-1.5962524;-;-;-;-;-;-;-;-;-;-;-;-;-;-;-
1513497293560;-;-;8.933258;-2.1916962;-1.6225891;-;-;-;-;-;-;-;-;-;-;-;-;-;-;-
1513497293579;-;-;8.924881;-2.1893005;-1.7315216;-;-;-;-;-;-;-;-;-;-;-;-;-;-;-
1513497293600;-;-;8.923676;-2.1414185;-1.6608887;-;-;-;-;-;-;-;-;-;-;-;-;-;-;-
1513497293620;-;-;8.927277;-2.087555;-1.5866699;-;-;-;-;-;-;-;-;-;-;-;-;-;-;-
1513497293641;-;-;8.927277;-2.142624;-1.6357574;-;-;-;-;-;-;-;-;-;-;-;-;-;-;-
1513497293662;-;-;8.9787445;-2.2012787;-1.6968079;-;-;-;-;-;-;-;-;-;-;-;-;-;-;-
1513497293682;-;-;8.977554;-2.2036743;-1.6704712;-;-;-;-;-;-;-;-;-;-;-;-;-;-;-
1513497293703;-;-;8.959595;-2.1845245;-1.629776;-;-;-;-;-;-;-;-;-;-;-;-;-;-;-
1513497293724;-;-;8.911713;-2.2072601;-1.610611;-;-;-;-;-;-;-;-;-;-;-;-;-;-;-
1513497293743;-;-;8.897339;-2.2527466;-1.6453247;-;-;-;-;-;-;-;-;-;-;-;-;-;-;-
1513497293764;-;-;8.92009;-2.2084656;-1.6728668;-;-;-;-;-;-;-;-;-;-;-;-;-;-;-
1513497293784;-;-;8.90213;-2.2156372;-1.6453247;-;-;-;-;-;-;-;-;-;-;-;-;-;-;-
1513497293805;-;-;8.947617;-2.2359924;-1.6237793;-;-;-;-;-;-;-;-;-;-;-;-;-;-;-
1513497293825;-;-;8.935654;-2.2120514;-1.6010437;-;-;-;-;-;-;-;-;-;-;-;-;-;-;-
1513497293846;-;-;8.932053;-2.238388;-1.634552;-;-;-;-;-;-;-;-;-;-;-;-;-;-;-
1513497293867;-;-;8.933258;-2.1952972;-1.6441345;-;-;-;-;-;-;-;-;-;-;-;-;-;-;-
1513497293888;-;-;8.916504;-2.20607;-1.6465302;-;-;-;-;-;-;-;-;-;-;-;-;-;-;-
1513497293908;-;-;8.880585;-2.2240143;-1.610611;-;-;-;-;-;-;-;-;-;-;-;-;-;-;-
1513497293928;-;-;8.890167;-2.230011;-1.6166077;-;-;-;-;-;-;-;-;-;-;-;-;-;-;-
1513497293948;-;-;8.924881;-2.1952972;-1.629776;-;-;-;-;-;-;-;-;-;-;-;-;-;-;-
1513497293969;-;-;8.954803;-2.1773376;-1.6441345;-;-;-;-;-;-;-;-;-;-;-;-;-;-;-
1513497293989;-;-;8.948822;-2.1533966;-1.6860352;-;-;-;-;-;-;-;-;-;-;-;-;-;-;-
1513497294010;-;-;8.922485;-2.1617737;-1.5926514;-;-;-;-;-;-;-;-;-;-;-;-;-;-;-
1513497294030;-;-;8.9392395;-2.1773376;-1.5914612;-;-;-;-;-;-;-;-;-;-;-;-;-;-;-
1513497294050;-;-;8.888962;-2.1569824;-1.6237793;-;-;-;-;-;-;-;-;-;-;-;-;-;-;-
1513497294071;-;-;8.92009;-2.1486053;-1.5830841;-;-;-;-;-;-;-;-;-;-;-;-;-;-;-
1513497294091;-;-;8.966782;-2.1617737;-1.571106;-;-;-;-;-;-;-;-;-;-;-;-;-;-;-
1513497294112;-;-;8.96199;-2.1402283;-1.6034393;-;-;-;-;-;-;-;-;-;-;-;-;-;-;-
1513497294131;-;-;8.988327;-2.174942;-1.6573029;-;-;-;-;-;-;-;-;-;-;-;-;-;-;-
1513497294151;-;-;8.951218;-2.1809235;-1.5998383;-;-;-;-;-;-;-;-;-;-;-;-;-;-;-
1513497294172;-;-;8.915298;-2.2036743;-1.5100555;-;-;-;-;-;-;-;-;-;-;-;-;-;-;-
1513497294192;-;-;8.904526;-2.1761322;-1.6429291;-;-;-;-;-;-;-;-;-;-;-;-;-;-;-
1513497294213;-;-;8.892548;-2.1916962;-1.6285706;-;-;-;-;-;-;-;-;-;-;-;-;-;-;-
1513497294233;-;-;8.932053;-2.1150818;-1.6166077;-;-;-;-;-;-;-;-;-;-;-;-;-;-;-
1513497294254;-;-;8.957199;-2.1055145;-1.5926514;-;-;-;-;-;-;-;-;-;-;-;-;-;-;-
1513497294275;-;-;8.983536;-2.1174774;-1.6166077;-;-;-;-;-;-;-;-;-;-;-;-;-;-;-
1513497294295;-;-;8.964386;-2.1486053;-1.6453247;-;-;-;-;-;-;-;-;-;-;-;-;-;-;-
1513497294315;-;-;8.924881;-2.1414185;-1.5687103;-;-;-;-;-;-;-;-;-;-;-;-;-;-;-
1513497294336;-;-;8.904526;-2.1450195;-1.5758972;-;-;-;-;-;-;-;-;-;-;-;-;-;-;-
1513497294356;-;-;8.911713;-2.2180328;-1.6034393;-;-;-;-;-;-;-;-;-;-;-;-;-;-;-
1513497294377;-;-;8.936844;-2.221634;-1.618988;-;-;-;-;-;-;-;-;-;-;-;-;-;-;-
1513497294397;-;-;8.909317;-2.1809235;-1.6046295;-;-;-;-;-;-;-;-;-;-;-;-;-;-;-
1513497294418;-;-;8.92009;-2.1318512;-1.5375977;-;-;-;-;-;-;-;-;-;-;-;-;-;-;-
1513497294438;-;-;8.947617;-2.1330414;-1.5914612;-;-;-;-;-;-;-;-;-;-;-;-;-;-;-
1513497294459;-;-;8.960785;-2.2000732;-1.5411835;-;-;-;-;-;-;-;-;-;-;-;-;-;-;-
1513497294479;-;-;8.973953;-2.1390228;-1.5579376;-;-;-;-;-;-;-;-;-;-;-;-;-;-;-
1513497294500;-;-;8.96199;-2.1521912;-1.6201935;-;-;-;-;-;-;-;-;-;-;-;-;-;-;-
1513497294520;-;-;8.92009;-2.1486053;-1.6177979;-;-;-;-;-;-;-;-;-;-;-;-;-;-;-
1513497294541;-;-;8.911713;-2.1091003;-1.5663147;-;-;-;-;-;-;-;-;-;-;-;-;-;-;-
1513497294561;-;-;8.90094;-2.1797333;-1.5423737;-;-;-;-;-;-;-;-;-;-;-;-;-;-;-
1513497294581;-;-;8.917694;-2.1402283;-1.5723114;-;-;-;-;-;-;-;-;-;-;-;-;-;-;-
1513497294602;-;-;8.993118;-2.0971222;-1.5926514;-;-;-;-;-;-;-;-;-;-;-;-;-;-;-
1513497294621;-;-;8.965576;-2.0935364;-1.5830841;-;-;-;-;-;-;-;-;-;-;-;-;-;-;-
1513497294641;-;-;8.928467;-2.1713562;-1.5782928;-;-;-;-;-;-;-;-;-;-;-;-;-;-;-
1513497294662;-;-;8.927277;-2.1079102;-1.5723114;-;-;-;-;-;-;-;-;-;-;-;-;-;-;-
1513497294682;-;-;8.887772;-2.1162872;-1.5208282;-;-;-;-;-;-;-;-;-;-;-;-;-;-;-
1513497294703;-;-;8.918884;-2.0815735;-1.5699158;-;-;-;-;-;-;-;-;-;-;-;-;-;-;-
1513497294723;-;-;8.973953;-2.0600128;-1.5184326;-;-;-;-;-;-;-;-;-;-;-;-;-;-;-
1513497294744;-;-;9.013458;-2.0839539;-1.571106;-;-;-;-;-;-;-;-;-;-;-;-;-;-;-
1513497294765;-;-;8.98233;-2.1785278;-1.6070251;-;-;-;-;-;-;-;-;-;-;-;-;-;-;-
1513497294785;-;-;8.940445;-2.1857147;-1.5148468;-;-;-;-;-;-;-;-;-;-;-;-;-;-;-
1513497294806;-;-;8.917694;-2.1497955;-1.4729462;-;-;-;-;-;-;-;-;-;-;-;-;-;-;-
1513497294826;-;-;8.946426;-2.190506;-1.5603333;-;-;-;-;-;-;-;-;-;-;-;-;-;-;-
1513497294847;-;-;8.923676;-2.1689606;-1.48732;-;-;-;-;-;-;-;-;-;-;-;-;-;-;-
1513497294867;-;-;8.963181;-2.1138916;-1.5100555;-;-;-;-;-;-;-;-;-;-;-;-;-;-;-
1513497294888;-;-;8.990723;-2.1282501;-1.5531616;-;-;-;-;-;-;-;-;-;-;-;-;-;-;-
1513497294908;-;-;9.005081;-2.1809235;-1.5603333;-;-;-;-;-;-;-;-;-;-;-;-;-;-;-
1513497294929;-;-;8.910507;-2.1677551;-1.5435791;-;-;-;-;-;-;-;-;-;-;-;-;-;-;-
1513497294950;-;-;8.909317;-2.159378;-1.5363922;-;-;-;-;-;-;-;-;-;-;-;-;-;-;-
1513497294970;-;-;8.9392395;-2.1282501;-1.5256195;-;-;-;-;-;-;-;-;-;-;-;-;-;-;-
1513497294991;-;-;8.955994;-2.1581879;-1.495697;-;-;-;-;-;-;-;-;-;-;-;-;-;-;-
1513497295011;-;-;8.983536;-2.12706;-1.5375977;-;-;-;-;-;-;-;-;-;-;-;-;-;-;-
1513497295031;-;-;8.938049;-2.1294556;-1.5172424;-;-;-;-;-;-;-;-;-;-;-;-;-;-;-
1513497295051;-;-;8.896149;-2.1378326;-1.5292053;-;-;-;-;-;-;-;-;-;-;-;-;-;-;-
1513497295072;-;-;8.896149;-2.1330414;-1.5004883;-;-;-;-;-;-;-;-;-;-;-;-;-;-;-
1513497295092;-;-;8.932053;-2.0935364;-1.495697;-;-;-;-;-;-;-;-;-;-;-;-;-;-;-
1513497295113;-;-;8.948822;-2.12706;-1.5531616;-;-;-;-;-;-;-;-;-;-;-;-;-;-;-
1513497295133;-;-;8.983536;-2.1126862;-1.5411835;-;-;-;-;-;-;-;-;-;-;-;-;-;-;-
1513497295154;-;-;8.96199;-2.104309;-1.4968872;-;-;-;-;-;-;-;-;-;-;-;-;-;-;-
1513497295174;-;-;8.924881;-2.0791779;-1.5244293;-;-;-;-;-;-;-;-;-;-;-;-;-;-;-
1513497295195;-;-;8.955994;-2.1390228;-1.5280151;-;-;-;-;-;-;-;-;-;-;-;-;-;-;-
1513497295215;-;-;8.947617;-2.1414185;-1.492096;-;-;-;-;-;-;-;-;-;-;-;-;-;-;-
1513497295236;-;-;8.947617;-2.1067047;-1.526825;-;-;-;-;-;-;-;-;-;-;-;-;-;-;-
1513497295255;-;-;9.005081;-2.1210785;-1.5459747;-;-;-;-;-;-;-;-;-;-;-;-;-;-;-
1513497295276;-;-;9.001495;-2.119873;-1.5519562;-;-;-;-;-;-;-;-;-;-;-;-;-;-;-
1513497295296;-;-;9.005081;-2.0779724;-1.5172424;-;-;-;-;-;-;-;-;-;-;-;-;-;-;-
1513497295317;-;-;8.952408;-2.087555;-1.5495605;-;-;-;-;-;-;-;-;-;-;-;-;-;-;-
1513497295337;-;-;8.897339;-2.0839539;-1.4777374;-;-;-;-;-;-;-;-;-;-;-;-;-;-;-
1513497295358;-;-;8.909317;-2.0995178;-1.531601;-;-;-;-;-;-;-;-;-;-;-;-;-;-;-
1513497295379;-;-;8.909317;-2.1414185;-1.5292053;-;-;-;-;-;-;-;-;-;-;-;-;-;-;-
1513497295400;-;-;8.936844;-2.1222687;-1.4753418;-;-;-;-;-;-;-;-;-;-;-;-;-;-;-
1513497295420;-;-;8.938049;-2.0923462;-1.4154816;-;-;-;-;-;-;-;-;-;-;-;-;-;-;-
1513497295440;-;-;8.975159;-2.0815735;-1.5208282;-;-;-;-;-;-;-;-;-;-;-;-;-;-;-
1513497295461;-;-;8.952408;-2.0767822;-1.5423737;-;-;-;-;-;-;-;-;-;-;-;-;-;-;-
1513497295481;-;-;8.950012;-2.0528412;-1.4944916;-;-;-;-;-;-;-;-;-;-;-;-;-;-;-
1513497295502;-;-;8.942825;-2.0863495;-1.495697;-;-;-;-;-;-;-;-;-;-;-;-;-;-;-
1513497295522;-;-;8.984726;-2.1186829;-1.4968872;-;-;-;-;-;-;-;-;-;-;-;-;-;-;-
1513497295543;-;-;8.929672;-2.1210785;-1.5399933;-;-;-;-;-;-;-;-;-;-;-;-;-;-;-
1513497295564;-;-;8.96199;-1.9786224;-1.4944916;-;-;-;-;-;-;-;-;-;-;-;-;-;-;-
1513497295584;-;-;8.958389;-1.898407;-1.555542;-;-;-;-;-;-;-;-;-;-;-;-;-;-;-
1513497295605;-;-;9.008667;-1.9786224;-1.5663147;-;-;-;-;-;-;-;-;-;-;-;-;-;-;-
1513497295625;-;-;9.058945;-2.190506;-1.5663147;-;-;-;-;-;-;-;-;-;-;-;-;-;-;-
1513497295645;-;-;9.020645;-2.3006287;-1.531601;-;-;-;-;-;-;-;-;-;-;-;-;-;-;-
1513497295665;-;-;8.8997345;-2.3078156;-1.4968872;-;-;-;-;-;-;-;-;-;-;-;-;-;-;-
1513497295686;-;-;8.84108;-2.269516;-1.5196381;-;-;-;-;-;-;-;-;-;-;-;-;-;-;-
1513497295707;-;-;8.791992;-2.1929016;-1.5423737;-;-;-;-;-;-;-;-;-;-;-;-;-;-;-
1513497295727;-;-;8.891357;-2.2204285;-1.5866699;-;-;-;-;-;-;-;-;-;-;-;-;-;-;-
1513497295749;-;-;8.876999;-2.2683105;-1.5878754;-;-;-;-;-;-;-;-;-;-;-;-;-;-;-
1513497295768;-;-;8.908112;-2.2563477;-1.6417389;-;-;-;-;-;-;-;-;-;-;-;-;-;-;-
1513497295789;-;-;8.929672;-2.1701508;-1.6668854;-;-;-;-;-;-;-;-;-;-;-;-;-;-;-
1513497295810;-;-;8.935654;-2.056427;-1.6608887;-;-;-;-;-;-;-;-;-;-;-;-;-;-;-
1513497295830;-;-;8.927277;-2.001358;-1.6620941;-;-;-;-;-;-;-;-;-;-;-;-;-;-;-
1513497295851;-;-;8.938049;-2.0504456;-1.5435791;-;-;-;-;-;-;-;-;-;-;-;-;-;-;-
1513497295870;-;-;8.987122;-2.1246643;-1.5136566;-;-;-;-;-;-;-;-;-;-;-;-;-;-;-
1513497295891;-;-;8.959595;-2.1545868;-1.5567474;-;-;-;-;-;-;-;-;-;-;-;-;-;-;-
1513497295911;-;-;8.946426;-2.1893005;-1.5304108;-;-;-;-;-;-;-;-;-;-;-;-;-;-;-
1513497295931;-;-;8.936844;-2.2443695;-1.5579376;-;-;-;-;-;-;-;-;-;-;-;-;-;-;-
1513497295952;-;-;8.946426;-2.2359924;-1.4609833;-;-;-;-;-;-;-;-;-;-;-;-;-;-;-
1513497295972;-;-;8.930862;-2.2324066;-1.4573822;-;-;-;-;-;-;-;-;-;-;-;-;-;-;-
1513497295993;-;-;8.947617;-2.238388;-1.5543518;-;-;-;-;-;-;-;-;-;-;-;-;-;-;-
1513497296014;-;-;9.017059;-2.1976929;-1.5136566;-;-;-;-;-;-;-;-;-;-;-;-;-;-;-
1513497296034;-;-;8.959595;-2.190506;-1.456192;-;-;-;-;-;-;-;-;-;-;-;-;-;-;-
1513497296054;-;-;9.017059;-2.2036743;-1.480133;-;-;-;-;-;-;-;-;-;-;-;-;-;-;-
1513497296075;-;-;8.995499;-2.222824;-1.5387878;-;-;-;-;-;-;-;-;-;-;-;-;-;-;-
1513497296094;-;-;9.009872;-2.1055145;-1.4537964;-;-;-;-;-;-;-;-;-;-;-;-;-;-;-
1513497296114;-;-;8.9787445;-2.040863;-1.4382324;-;-;-;-;-;-;-;-;-;-;-;-;-;-;-
1513497296134;-;-;8.984726;-2.0468445;-1.4430237;-;-;-;-;-;-;-;-;-;-;-;-;-;-;-
1513497296155;-;-;8.988327;-2.1330414;-1.4729462;-;-;-;-;-;-;-;-;-;-;-;-;-;-;-
1513497296175;-;-;8.928467;-2.166565;-1.4968872;-;-;-;-;-;-;-;-;-;-;-;-;-;-;-
1513497296196;-;-;8.948822;-2.1342316;-1.5519562;-;-;-;-;-;-;-;-;-;-;-;-;-;-;-
1513497296216;-;-;8.955994;-2.1258545;-1.5363922;-;-;-;-;-;-;-;-;-;-;-;-;-;-;-
1513497296237;-;-;8.966782;-2.1222687;-1.5148468;-;-;-;-;-;-;-;-;-;-;-;-;-;-;-
1513497296257;-;-;8.955994;-2.1390228;-1.5172424;-;-;-;-;-;-;-;-;-;-;-;-;-;-;-
1513497296278;-;-;8.92128;-2.111496;-1.531601;-;-;-;-;-;-;-;-;-;-;-;-;-;-;-
1513497296299;-;-;8.92009;-2.103119;-1.5687103;-;-;-;-;-;-;-;-;-;-;-;-;-;-;-
1513497296319;-;-;8.893753;-2.0276947;-1.5842743;-;-;-;-;-;-;-;-;-;-;-;-;-;-;-
1513497296339;-;-;8.950012;-1.9762268;-1.5842743;-;-;-;-;-;-;-;-;-;-;-;-;-;-;-
1513497296360;-;-;8.973953;-2.0133362;-1.5842743;-;-;-;-;-;-;-;-;-;-;-;-;-;-;-
1513497296379;-;-;8.972763;-2.0899506;-1.5471649;-;-;-;-;-;-;-;-;-;-;-;-;-;-;-
1513497296400;-;-;8.984726;-2.0983276;-1.5148468;-;-;-;-;-;-;-;-;-;-;-;-;-;-;-
1513497296420;-;-;8.960785;-2.1378326;-1.4741516;-;-;-;-;-;-;-;-;-;-;-;-;-;-;-
1513497296441;-;-;8.914108;-2.1701508;-1.5184326;-;-;-;-;-;-;-;-;-;-;-;-;-;-;-
1513497296461;-;-;8.917694;-2.1916962;-1.531601;-;-;-;-;-;-;-;-;-;-;-;-;-;-;-
1513497296482;-;-;8.924881;-2.1294556;-1.555542;-;-;-;-;-;-;-;-;-;-;-;-;-;-;-
1513497296502;-;-;8.965576;-2.1150818;-1.5627289;-;-;-;-;-;-;-;-;-;-;-;-;-;-;-
1513497296523;-;-;8.922485;-2.1007233;-1.511261;-;-;-;-;-;-;-;-;-;-;-;-;-;-;-
1513497296544;-;-;8.96199;-2.1857147;-1.5052643;-;-;-;-;-;-;-;-;-;-;-;-;-;-;-
1513497296563;-;-;8.954803;-2.183319;-1.5172424;-;-;-;-;-;-;-;-;-;-;-;-;-;-;-
1513497296583;-;-;8.96199;-2.1916962;-1.447815;-;-;-;-;-;-;-;-;-;-;-;-;-;-;-
1513497296604;-;-;8.990723;-2.1689606;-1.4729462;-;-;-;-;-;-;-;-;-;-;-;-;-;-;-
1513497296624;-;-;8.976349;-2.1737366;-1.5088654;-;-;-;-;-;-;-;-;-;-;-;-;-;-;-
1513497296645;-;-;8.951218;-2.1916962;-1.4310455;-;-;-;-;-;-;-;-;-;-;-;-;-;-;-
1513497296666;-;-;9.00029;-2.22641;-1.4382324;-;-;-;-;-;-;-;-;-;-;-;-;-;-;-
1513497296686;-;-;8.997894;-2.2276154;-1.516037;-;-;-;-;-;-;-;-;-;-;-;-;-;-;-
1513497296707;-;-;8.966782;-2.1952972;-1.440628;-;-;-;-;-;-;-;-;-;-;-;-;-;-;-
1513497296727;-;-;8.954803;-2.1138916;-1.3939362;-;-;-;-;-;-;-;-;-;-;-;-;-;-;-
1513497296748;-;-;8.944031;-2.032486;-1.480133;-;-;-;-;-;-;-;-;-;-;-;-;-;-;-
1513497296768;-;-;8.934448;-2.0396729;-1.4849243;-;-;-;-;-;-;-;-;-;-;-;-;-;-;-
1513497296789;-;-;9.005081;-2.0300903;-1.4394226;-;-;-;-;-;-;-;-;-;-;-;-;-;-;-
1513497296809;-;-;8.970367;-2.0276947;-1.4083099;-;-;-;-;-;-;-;-;-;-;-;-;-;-;-
1513497296830;-;-;8.977554;-2.0516357;-1.4262543;-;-;-;-;-;-;-;-;-;-;-;-;-;-;-
1513497296850;-;-;8.976349;-2.0348816;-1.4226685;-;-;-;-;-;-;-;-;-;-;-;-;-;-;-
1513497296870;-;-;8.988327;-2.0372772;-1.4418182;-;-;-;-;-;-;-;-;-;-;-;-;-;-;-
1513497296891;-;-;8.965576;-1.9630585;-1.4597778;-;-;-;-;-;-;-;-;-;-;-;-;-;-;-
1513497296911;-;-;8.951218;-1.9630585;-1.4861145;-;-;-;-;-;-;-;-;-;-;-;-;-;-;-
1513497296932;-;-;8.932053;-1.898407;-1.4992828;-;-;-;-;-;-;-;-;-;-;-;-;-;-;-
1513497296953;-;-;8.966782;-1.9427032;-1.5004883;-;-;-;-;-;-;-;-;-;-;-;-;-;-;-
1513497296972;-;-;9.023041;-1.9486847;-1.4861145;-;-;-;-;-;-;-;-;-;-;-;-;-;-;-
1513497296993;-;-;8.990723;-1.9403076;-1.4897003;-;-;-;-;-;-;-;-;-;-;-;-;-;-;-
1513497297013;-;-;8.991913;-2.0420685;-1.4502106;-;-;-;-;-;-;-;-;-;-;-;-;-;-;-
1513497297034;-;-;8.988327;-2.0911407;-1.516037;-;-;-;-;-;-;-;-;-;-;-;-;-;-;-
1513497297054;-;-;8.98233;-2.0827637;-1.4933014;-;-;-;-;-;-;-;-;-;-;-;-;-;-;-
1513497297075;-;-;8.952408;-2.0588226;-1.492096;-;-;-;-;-;-;-;-;-;-;-;-;-;-;-
1513497297095;-;-;8.942825;-2.0001678;-1.4825287;-;-;-;-;-;-;-;-;-;-;-;-;-;-;-
1513497297117;-;-;8.908112;-2.0193176;-1.4861145;-;-;-;-;-;-;-;-;-;-;-;-;-;-;-
1513497297136;-;-;8.917694;-2.0205078;-1.4992828;-;-;-;-;-;-;-;-;-;-;-;-;-;-;-
1513497297157;-;-;8.958389;-2.025299;-1.5184326;-;-;-;-;-;-;-;-;-;-;-;-;-;-;-
1513497297177;-;-;8.973953;-1.9690399;-1.5483704;-;-;-;-;-;-;-;-;-;-;-;-;-;-;-
1513497297198;-;-;8.984726;-1.9522858;-1.5543518;-;-;-;-;-;-;-;-;-;-;-;-;-;-;-
1513497297219;-;-;8.958389;-1.9211578;-1.5818787;-;-;-;-;-;-;-;-;-;-;-;-;-;-;-
1513497297239;-;-;8.990723;-1.8972168;-1.5914612;-;-;-;-;-;-;-;-;-;-;-;-;-;-;-
1513497297260;-;-;8.973953;-1.9115753;-1.5136566;-;-;-;-;-;-;-;-;-;-;-;-;-;-;-
1513497297279;-;-;8.958389;-1.906784;-1.5208282;-;-;-;-;-;-;-;-;-;-;-;-;-;-;-
1513497297300;-;-;8.9991;-1.9917908;-1.6070251;-;-;-;-;-;-;-;-;-;-;-;-;-;-;-
1513497297320;-;-;9.039795;-2.044464;-1.5651245;-;-;-;-;-;-;-;-;-;-;-;-;-;-;-
1513497297341;-;-;9.036209;-2.0947418;-1.4741516;-;-;-;-;-;-;-;-;-;-;-;-;-;-;-
1513497297361;-;-;9.044586;-2.1091003;-1.4777374;-;-;-;-;-;-;-;-;-;-;-;-;-;-;-
1513497297382;-;-;8.996704;-2.1366272;-1.4502106;-;-;-;-;-;-;-;-;-;-;-;-;-;-;-
1513497297401;-;-;8.9787445;-2.151001;-1.48732;-;-;-;-;-;-;-;-;-;-;-;-;-;-;-
1513497297422;-;-;8.936844;-2.04805;-1.5328064;-;-;-;-;-;-;-;-;-;-;-;-;-;-;-
1513497297442;-;-;8.922485;-1.9977722;-1.6010437;-;-;-;-;-;-;-;-;-;-;-;-;-;-;-
1513497297462;-;-;8.909317;-1.8409424;-1.5627289;-;-;-;-;-;-;-;-;-;-;-;-;-;-;-
1513497297483;-;-;8.92009;-1.8696747;-1.4502106;-;-;-;-;-;-;-;-;-;-;-;-;-;-;-
1513497297504;-;-;8.906921;-1.961853;-1.5663147;-;-;-;-;-;-;-;-;-;-;-;-;-;-;-
1513497297523;-;-;8.896149;-2.0923462;-1.610611;-;-;-;-;-;-;-;-;-;-;-;-;-;-;-
1513497297544;-;-;8.908112;-2.119873;-1.7363129;-;-;-;-;-;-;-;-;-;-;-;-;-;-;-
1513497297564;-;-;8.98114;-2.0300903;-1.7015991;-;-;-;-;-;-;-;-;-;-;-;-;-;-;-
1513497297585;-;-;9.090073;-1.9474945;-1.6237793;-;-;-;-;-;-;-;-;-;-;-;-;-;-;-
1513497297604;-;-;9.111618;-1.8720703;-1.6070251;-;-;-;-;-;-;-;-;-;-;-;-;-;-;-
1513497297625;-;-;9.103241;-1.858902;-1.5818787;-;-;-;-;-;-;-;-;-;-;-;-;-;-;-
1513497297645;-;-;9.012268;-1.8469391;-1.5579376;-;-;-;-;-;-;-;-;-;-;-;-;-;-;-
1513497297665;-;-;8.927277;-1.8708801;-1.5292053;-;-;-;-;-;-;-;-;-;-;-;-;-;-;-
1513497297686;-;-;8.838684;-1.9582672;-1.5663147;-;-;-;-;-;-;-;-;-;-;-;-;-;-;-
1513497297707;-;-;8.878189;-2.1617737;-1.6441345;-;-;-;-;-;-;-;-;-;-;-;-;-;-;-
1513497297727;-;-;8.984726;-2.1689606;-1.7003937;-;-;-;-;-;-;-;-;-;-;-;-;-;-;-
1513497297747;-;-;9.041;-2.0348816;-1.7698364;-;-;-;-;-;-;-;-;-;-;-;-;-;-;-
1513497297768;-;-;9.055359;-1.9714355;-1.7027893;-;-;-;-;-;-;-;-;-;-;-;-;-;-;-
1513497297789;-;-;9.044586;-1.7667236;-1.6213837;-;-;-;-;-;-;-;-;-;-;-;-;-;-;-
1513497297809;-;-;9.037399;-1.4578705;-1.5627289;-;-;-;-;-;-;-;-;-;-;-;-;-;-;-
1513497297830;-;-;8.9991;-1.2328186;-1.579483;-;-;-;-;-;-;-;-;-;-;-;-;-;-;-
1513497297849;-;-;8.854248;-1.3154297;-1.697998;-;-;-;-;-;-;-;-;-;-;-;-;-;-;-
1513497297870;-;-;8.729752;-1.8565063;-1.8955231;-;-;-;-;-;-;-;-;-;-;-;-;-;-;-
1513497297890;-;-;8.880585;-2.1605682;-1.8392639;-;-;-;-;-;-;-;-;-;-;-;-;-;-;-
1513497297911;-;-;9.123596;-2.2312012;-1.6860352;-;-;-;-;-;-;-;-;-;-;-;-;-;-;-
1513497297932;-;-;9.199005;-2.2467651;-1.7614441;-;-;-;-;-;-;-;-;-;-;-;-;-;-;-
1513497297951;-;-;9.072113;-2.348526;-1.8117218;-;-;-;-;-;-;-;-;-;-;-;-;-;-;-
1513497297972;-;-;8.969162;-2.277893;-1.7422943;-;-;-;-;-;-;-;-;-;-;-;-;-;-;-
1513497297992;-;-;8.906921;-2.004959;-1.7650452;-;-;-;-;-;-;-;-;-;-;-;-;-;-;-
1513497298013;-;-;8.885376;-1.7176514;-1.8272858;-;-;-;-;-;-;-;-;-;-;-;-;-;-;-
1513497298033;-;-;8.848267;-1.7236328;-1.7973633;-;-;-;-;-;-;-;-;-;-;-;-;-;-;-
1513497298054;-;-;8.8997345;-1.7619476;-1.7614441;-;-;-;-;-;-;-;-;-;-;-;-;-;-;-
1513497298074;-;-;8.973953;-1.7978516;-1.8141174;-;-;-;-;-;-;-;-;-;-;-;-;-;-;-
1513497298095;-;-;8.984726;-1.7188416;-1.7997589;-;-;-;-;-;-;-;-;-;-;-;-;-;-;-
1513497298114;-;-;9.049377;-1.6350555;-1.7626495;-;-;-;-;-;-;-;-;-;-;-;-;-;-;-
1513497298135;-;-;8.997894;-1.5548401;-1.8201141;-;-;-;-;-;-;-;-;-;-;-;-;-;-;-
1513497298155;-;-;8.984726;-1.5273132;-1.8021545;-;-;-;-;-;-;-;-;-;-;-;-;-;-;-
1513497298174;-;-;8.971558;-1.4447021;-1.8703918;-;-;-;-;-;-;-;-;-;-;-;-;-;-;-
1513497298195;-;-;8.97995;-1.3501434;-1.8368683;-;-;-;-;-;-;-;-;-;-;-;-;-;-;-
1513497298215;-;-;8.983536;-1.3585205;-1.8619995;-;-;-;-;-;-;-;-;-;-;-;-;-;-;-
1513497298235;-;-;9.019455;-1.4842072;-1.8177185;-;-;-;-;-;-;-;-;-;-;-;-;-;-;-
1513497298256;-;-;9.063736;-1.5835724;-1.8129272;-;-;-;-;-;-;-;-;-;-;-;-;-;-;-
1513497298277;-;-;9.052963;-1.6925049;-1.7949677;-;-;-;-;-;-;-;-;-;-;-;-;-;-;-
1513497298297;-;-;9.06015;-1.720047;-1.8380585;-;-;-;-;-;-;-;-;-;-;-;-;-;-;-
1513497298318;-;-;9.051773;-1.6518097;-1.8739777;-;-;-;-;-;-;-;-;-;-;-;-;-;-;-
1513497298337;-;-;9.032608;-1.5129395;-1.8763733;-;-;-;-;-;-;-;-;-;-;-;-;-;-;-
1513497298357;-;-;9.019455;-1.412384;-1.7997589;-;-;-;-;-;-;-;-;-;-;-;-;-;-;-
1513497298378;-;-;9.030228;-1.3968201;-1.7937775;-;-;-;-;-;-;-;-;-;-;-;-;-;-;-
1513497298398;-;-;9.032608;-1.4411163;-1.8572235;-;-;-;-;-;-;-;-;-;-;-;-;-;-;-
1513497298418;-;-;8.9787445;-1.4506989;-1.8787689;-;-;-;-;-;-;-;-;-;-;-;-;-;-;-
1513497298439;-;-;8.941635;-1.4878082;-1.8643951;-;-;-;-;-;-;-;-;-;-;-;-;-;-;-
1513497298459;-;-;8.928467;-1.4638672;-1.8153229;-;-;-;-;-;-;-;-;-;-;-;-;-;-;-
1513497298480;-;-;8.967972;-1.5105438;-1.8141174;-;-;-;-;-;-;-;-;-;-;-;-;-;-;-
1513497298500;-;-;8.945221;-1.5356903;-1.8416595;-;-;-;-;-;-;-;-;-;-;-;-;-;-;-
1513497298520;-;-;8.948822;-1.5763855;-1.8069458;-;-;-;-;-;-;-;-;-;-;-;-;-;-;-
1513497298541;-;-;9.019455;-1.6781464;-1.8057404;-;-;-;-;-;-;-;-;-;-;-;-;-;-;-
1513497298561;-;-;9.039795;-1.7056732;-1.8811646;-;-;-;-;-;-;-;-;-;-;-;-;-;-;-
1513497298582;-;-;9.013458;-1.6039276;-1.8679962;-;-;-;-;-;-;-;-;-;-;-;-;-;-;-
1513497298602;-;-;8.989517;-1.562027;-1.8464508;-;-;-;-;-;-;-;-;-;-;-;-;-;-;-
1513497298622;-;-;8.953613;-1.601532;-1.7662354;-;-;-;-;-;-;-;-;-;-;-;-;-;-;-
1513497298643;-;-;8.936844;-1.6721649;-1.7638397;-;-;-;-;-;-;-;-;-;-;-;-;-;-;-
1513497298663;-;-;8.957199;-1.7236328;-1.7542725;-;-;-;-;-;-;-;-;-;-;-;-;-;-;-
1513497298683;-;-;8.975159;-1.7918701;-1.7662354;-;-;-;-;-;-;-;-;-;-;-;-;-;-;-
1513497298704;-;-;8.988327;-1.8397522;-1.7674408;-;-;-;-;-;-;-;-;-;-;-;-;-;-;-
1513497298725;-;-;8.997894;-1.8074341;-1.6944122;-;-;-;-;-;-;-;-;-;-;-;-;-;-;-
1513497298745;-;-;8.963181;-1.7487793;-1.6632843;-;-;-;-;-;-;-;-;-;-;-;-;-;-;-
1513497298765;-;-;8.975159;-1.775116;-1.6321564;-;-;-;-;-;-;-;-;-;-;-;-;-;-;-
1513497298786;-;-;9.012268;-1.7559509;-1.6668854;-;-;-;-;-;-;-;-;-;-;-;-;-;-;-
1513497298806;-;-;9.046982;-1.7379913;-1.6465302;-;-;-;-;-;-;-;-;-;-;-;-;-;-;-
1513497298827;-;-;9.051773;-1.6494141;-1.653717;-;-;-;-;-;-;-;-;-;-;-;-;-;-;-
1513497298848;-;-;9.030228;-1.5787811;-1.6944122;-;-;-;-;-;-;-;-;-;-;-;-;-;-;-
1513497298867;-;-;9.005081;-1.5356903;-1.7506714;-;-;-;-;-;-;-;-;-;-;-;-;-;-;-
1513497298888;-;-;8.969162;-1.5356903;-1.8548279;-;-;-;-;-;-;-;-;-;-;-;-;-;-;-
1513497298909;-;-;8.957199;-1.4758301;-1.8213043;-;-;-;-;-;-;-;-;-;-;-;-;-;-;-
1513497298929;-;-;8.958389;-1.5608215;-1.7961731;-;-;-;-;-;-;-;-;-;-;-;-;-;-;-
1513497298949;-;-;8.9991;-1.6386414;-1.7267303;-;-;-;-;-;-;-;-;-;-;-;-;-;-;-
1513497298970;-;-;9.021835;-1.6482086;-1.7339172;-;-;-;-;-;-;-;-;-;-;-;-;-;-;-
1513497298990;-;-;9.050568;-1.6206818;-1.7231445;-;-;-;-;-;-;-;-;-;-;-;-;-;-;-
1513497299011;-;-;9.030228;-1.6446228;-1.7363129;-;-;-;-;-;-;-;-;-;-;-;-;-;-;-
1513497299032;-;-;8.997894;-1.6949005;-1.74469;-;-;-;-;-;-;-;-;-;-;-;-;-;-;-
1513497299052;-;-;8.955994;-1.7607422;-1.7087708;-;-;-;-;-;-;-;-;-;-;-;-;-;-;-
1513497299072;-;-;8.952408;-1.7296143;-1.7207489;-;-;-;-;-;-;-;-;-;-;-;-;-;-;-
1513497299092;-;-;9.007477;-1.7427826;-1.6848297;-;-;-;-;-;-;-;-;-;-;-;-;-;-;-
1513497299113;-;-;9.012268;-1.7703247;-1.6513214;-;-;-;-;-;-;-;-;-;-;-;-;-;-;-
1513497299133;-;-;9.017059;-1.8313751;-1.6357574;-;-;-;-;-;-;-;-;-;-;-;-;-;-;-
1513497299154;-;-;8.9991;-1.8601074;-1.6166077;-;-;-;-;-;-;-;-;-;-;-;-;-;-;-
1513497299174;-;-;8.990723;-1.8756714;-1.729126;-;-;-;-;-;-;-;-;-;-;-;-;-;-;-
1513497299195;-;-;8.954803;-1.8158112;-1.6453247;-;-;-;-;-;-;-;-;-;-;-;-;-;-;-
1513497299215;-;-;8.963181;-1.6972961;-1.590271;-;-;-;-;-;-;-;-;-;-;-;-;-;-;-
1513497299236;-;-;8.972763;-1.7128601;-1.6070251;-;-;-;-;-;-;-;-;-;-;-;-;-;-;-
1513497299256;-;-;9.023041;-1.7583466;-1.7099762;-;-;-;-;-;-;-;-;-;-;-;-;-;-;-
1513497299277;-;-;9.020645;-1.7787018;-1.6788483;-;-;-;-;-;-;-;-;-;-;-;-;-;-;-
1513497299297;-;-;9.006287;-1.7810974;-1.6608887;-;-;-;-;-;-;-;-;-;-;-;-;-;-;-
1513497299318;-;-;8.972763;-1.7391968;-1.6058197;-;-;-;-;-;-;-;-;-;-;-;-;-;-;-
1513497299338;-;-;8.983536;-1.6877136;-1.6405487;-;-;-;-;-;-;-;-;-;-;-;-;-;-;-
1513497299359;-;-;8.98114;-1.7188416;-1.6118164;-;-;-;-;-;-;-;-;-;-;-;-;-;-;-
1513497299379;-;-;8.996704;-1.7379913;-1.6046295;-;-;-;-;-;-;-;-;-;-;-;-;-;-;-
1513497299400;-;-;9.037399;-1.7906647;-1.6070251;-;-;-;-;-;-;-;-;-;-;-;-;-;-;-
1513497299420;-;-;9.023041;-1.8445435;-1.5699158;-;-;-;-;-;-;-;-;-;-;-;-;-;-;-
1513497299441;-;-;9.0182495;-1.759552;-1.5411835;-;-;-;-;-;-;-;-;-;-;-;-;-;-;-
1513497299461;-;-;9.009872;-1.7703247;-1.5854797;-;-;-;-;-;-;-;-;-;-;-;-;-;-;-
1513497299482;-;-;9.007477;-1.7906647;-1.5890656;-;-;-;-;-;-;-;-;-;-;-;-;-;-;-
1513497299502;-;-;8.994308;-1.7978516;-1.6010437;-;-;-;-;-;-;-;-;-;-;-;-;-;-;-
1513497299523;-;-;9.003891;-1.7559509;-1.6082153;-;-;-;-;-;-;-;-;-;-;-;-;-;-;-
1513497299543;-;-;9.008667;-1.7787018;-1.6058197;-;-;-;-;-;-;-;-;-;-;-;-;-;-;-
1513497299564;-;-;9.046982;-1.7523651;-1.6022339;-;-;-;-;-;-;-;-;-;-;-;-;-;-;-
1513497299584;-;-;9.020645;-1.7715149;-1.6225891;-;-;-;-;-;-;-;-;-;-;-;-;-;-;-
1513497299605;-;-;8.997894;-1.8158112;-1.5890656;-;-;-;-;-;-;-;-;-;-;-;-;-;-;-
1513497299625;-;-;8.973953;-1.8086243;-1.5818787;-;-;-;-;-;-;-;-;-;-;-;-;-;-;-
1513497299646;-;-;9.012268;-1.8337708;-1.5567474;-;-;-;-;-;-;-;-;-;-;-;-;-;-;-
1513497299666;-;-;8.993118;-1.8026428;-1.5567474;-;-;-;-;-;-;-;-;-;-;-;-;-;-;-
1513497299687;-;-;9.009872;-1.775116;-1.574707;-;-;-;-;-;-;-;-;-;-;-;-;-;-;-
1513497299706;-;-;9.007477;-1.819397;-1.590271;-;-;-;-;-;-;-;-;-;-;-;-;-;-;-
1513497299726;-;-;9.011063;-1.7715149;-1.5483704;-;-;-;-;-;-;-;-;-;-;-;-;-;-;-
1513497299747;-;-;9.043396;-1.7583466;-1.531601;-;-;-;-;-;-;-;-;-;-;-;-;-;-;-
1513497299767;-;-;9.012268;-1.7391968;-1.5244293;-;-;-;-;-;-;-;-;-;-;-;-;-;-;-
1513497299788;-;-;8.966782;-1.735611;-1.447815;-;-;-;-;-;-;-;-;-;-;-;-;-;-;-
1513497299808;-;-;9.00029;-1.7068787;-1.5483704;-;-;-;-;-;-;-;-;-;-;-;-;-;-;-
1513497299829;-;-;9.001495;-1.656601;-1.6405487;-;-;-;-;-;-;-;-;-;-;-;-;-;-;-
1513497299849;-;-;8.994308;-1.6446228;-1.618988;-;-;-;-;-;-;-;-;-;-;-;-;-;-;-
1513497299869;-;-;9.002686;-1.6290588;-1.6417389;-;-;-;-;-;-;-;-;-;-;-;-;-;-;-
1513497299890;-;-;9.012268;-1.6529999;-1.6513214;-;-;-;-;-;-;-;-;-;-;-;-;-;-;-
1513497299911;-;-;9.007477;-1.6733551;-1.6429291;-;-;-;-;-;-;-;-;-;-;-;-;-;-;-
1513497299931;-;-;9.020645;-1.661377;-1.6225891;-;-;-;-;-;-;-;-;-;-;-;-;-;-;-
1513497299951;-;-;9.024231;-1.6601868;-1.5782928;-;-;-;-;-;-;-;-;-;-;-;-;-;-;-
1513497299972;-;-;9.052963;-1.7116699;-1.6082153;-;-;-;-;-;-;-;-;-;-;-;-;-;-;-
1513497299992;-;-;9.023041;-1.7739105;-1.5519562;-;-;-;-;-;-;-;-;-;-;-;-;-;-;-
1513497300012;-;-;8.97995;-1.7559509;-1.5483704;-;-;-;-;-;-;-;-;-;-;-;-;-;-;-
1513497300033;-;-;8.972763;-1.759552;-1.6022339;-;-;-;-;-;-;-;-;-;-;-;-;-;-;-
1513497300052;-;-;8.975159;-1.7535553;-1.6034393;-;-;-;-;-;-;-;-;-;-;-;-;-;-;-
1513497300072;-;-;9.009872;-1.7703247;-1.5962524;-;-;-;-;-;-;-;-;-;-;-;-;-;-;-
1513497300093;-;-;9.043396;-1.8074341;-1.5818787;-;-;-;-;-;-;-;-;-;-;-;-;-;-;-
1513497300114;-;-;9.019455;-1.8182068;-1.5818787;-;-;-;-;-;-;-;-;-;-;-;-;-;-;-
1513497300134;-;-;8.989517;-1.8529205;-1.6130066;-;-;-;-;-;-;-;-;-;-;-;-;-;-;-
1513497300154;-;-;8.967972;-1.7882843;-1.6249847;-;-;-;-;-;-;-;-;-;-;-;-;-;-;-
1513497300175;-;-;8.989517;-1.740387;-1.618988;-;-;-;-;-;-;-;-;-;-;-;-;-;-;-
1513497300195;-;-;8.972763;-1.783493;-1.658493;-;-;-;-;-;-;-;-;-;-;-;-;-;-;-
1513497300216;-;-;9.007477;-1.8158112;-1.6070251;-;-;-;-;-;-;-;-;-;-;-;-;-;-;-
1513497300236;-;-;9.024231;-1.7655334;-1.571106;-;-;-;-;-;-;-;-;-;-;-;-;-;-;-
1513497300257;-;-;9.041;-1.7535553;-1.574707;-;-;-;-;-;-;-;-;-;-;-;-;-;-;-
1513497300277;-;-;8.995499;-1.7930603;-1.6010437;-;-;-;-;-;-;-;-;-;-;-;-;-;-;-
1513497300298;-;-;8.97995;-1.8122253;-1.5878754;-;-;-;-;-;-;-;-;-;-;-;-;-;-;-
1513497300318;-;-;8.996704;-1.7966614;-1.6034393;-;-;-;-;-;-;-;-;-;-;-;-;-;-;-
1513497300339;-;-;8.966782;-1.7846832;-1.6166077;-;-;-;-;-;-;-;-;-;-;-;-;-;-;-
1513497300359;-;-;8.975159;-1.7858887;-1.6321564;-;-;-;-;-;-;-;-;-;-;-;-;-;-;-
1513497300380;-;-;8.996704;-1.7655334;-1.5926514;-;-;-;-;-;-;-;-;-;-;-;-;-;-;-
1513497300400;-;-;9.043396;-1.7511597;-1.634552;-;-;-;-;-;-;-;-;-;-;-;-;-;-;-
1513497300421;-;-;9.029022;-1.7739105;-1.6824341;-;-;-;-;-;-;-;-;-;-;-;-;-;-;-
1513497300442;-;-;8.995499;-1.8217926;-1.6692657;-;-;-;-;-;-;-;-;-;-;-;-;-;-;-
1513497300462;-;-;8.995499;-1.8158112;-1.6405487;-;-;-;-;-;-;-;-;-;-;-;-;-;-;-
1513497300483;-;-;8.993118;-1.8026428;-1.7494812;-;-;-;-;-;-;-;-;-;-;-;-;-;-;-
1513497300504;-;-;8.971558;-1.6841278;-1.6764526;-;-;-;-;-;-;-;-;-;-;-;-;-;-;-
1513497300524;-;-;8.973953;-1.5955505;-1.6884308;-;-;-;-;-;-;-;-;-;-;-;-;-;-;-
1513497300543;-;-;8.940445;-1.5512543;-1.7267303;-;-;-;-;-;-;-;-;-;-;-;-;-;-;-
1513497300563;-;-;8.987122;-1.6529999;-1.7518768;-;-;-;-;-;-;-;-;-;-;-;-;-;-;-
1513497300583;-;-;9.041;-1.7451782;-1.6992035;-;-;-;-;-;-;-;-;-;-;-;-;-;-;-
1513497300604;-;-;9.067337;-1.7739105;-1.6824341;-;-;-;-;-;-;-;-;-;-;-;-;-;-;-
1513497300624;-;-;9.050568;-1.7607422;-1.6872253;-;-;-;-;-;-;-;-;-;-;-;-;-;-;-
1513497300645;-;-;8.996704;-1.8014526;-1.6237793;-;-;-;-;-;-;-;-;-;-;-;-;-;-;-
1513497300666;-;-;8.985931;-1.8158112;-1.6441345;-;-;-;-;-;-;-;-;-;-;-;-;-;-;-
1513497300687;-;-;8.983536;-1.7918701;-1.7303314;-;-;-;-;-;-;-;-;-;-;-;-;-;-;-
1513497300707;-;-;8.989517;-1.8182068;-1.8488312;-;-;-;-;-;-;-;-;-;-;-;-;-;-;-
1513497300728;-;-;9.056564;-1.9199524;-1.7578583;-;-;-;-;-;-;-;-;-;-;-;-;-;-;-
1513497300748;-;-;9.109222;-2.0360718;-1.7746124;-;-;-;-;-;-;-;-;-;-;-;-;-;-;-
1513497300769;-;-;9.025436;-2.0911407;-1.7734222;-;-;-;-;-;-;-;-;-;-;-;-;-;-;-
1513497300788;-;-;8.892548;-2.044464;-1.7662354;-;-;-;-;-;-;-;-;-;-;-;-;-;-;-
1513497300809;-;-;8.867416;-1.9427032;-1.7434998;-;-;-;-;-;-;-;-;-;-;-;-;-;-;-
1513497300829;-;-;8.871002;-1.8325653;-1.6465302;-;-;-;-;-;-;-;-;-;-;-;-;-;-;-
1513497300850;-;-;8.927277;-1.7523651;-1.6154022;-;-;-;-;-;-;-;-;-;-;-;-;-;-;-
1513497300869;-;-;8.989517;-1.6338501;-1.6477203;-;-;-;-;-;-;-;-;-;-;-;-;-;-;-
1513497300890;-;-;9.024231;-1.4925995;-1.5914612;-;-;-;-;-;-;-;-;-;-;-;-;-;-;-
1513497300909;-;-;9.014664;-1.3621063;-1.5627289;-;-;-;-;-;-;-;-;-;-;-;-;-;-;-
1513497300930;-;-;9.020645;-1.3190155;-1.6357574;-;-;-;-;-;-;-;-;-;-;-;-;-;-;-
1513497300951;-;-;9.029022;-1.2615509;-1.634552;-;-;-;-;-;-;-;-;-;-;-;-;-;-;-
1513497300971;-;-;9.039795;-1.31781;-1.5782928;-;-;-;-;-;-;-;-;-;-;-;-;-;-;-
1513497300991;-;-;9.035004;-1.4016113;-1.6417389;-;-;-;-;-;-;-;-;-;-;-;-;-;-;-
1513497301012;-;-;8.967972;-1.5105438;-1.6249847;-;-;-;-;-;-;-;-;-;-;-;-;-;-;-
1513497301033;-;-;8.987122;-1.5871582;-1.6632843;-;-;-;-;-;-;-;-;-;-;-;-;-;-;-
1513497301052;-;-;8.952408;-1.6230774;-1.6884308;-;-;-;-;-;-;-;-;-;-;-;-;-;-;-
1513497301073;-;-;8.97995;-1.6542053;-1.697998;-;-;-;-;-;-;-;-;-;-;-;-;-;-;-
1513497301093;-;-;9.007477;-1.735611;-1.5914612;-;-;-;-;-;-;-;-;-;-;-;-;-;-;-
1513497301114;-;-;9.055359;-1.8253937;-1.5387878;-;-;-;-;-;-;-;-;-;-;-;-;-;-;-
1513497301133;-;-;9.066132;-1.8852386;-1.7015991;-;-;-;-;-;-;-;-;-;-;-;-;-;-;-
1513497301154;-;-;9.058945;-1.8469391;-1.6872253;-;-;-;-;-;-;-;-;-;-;-;-;-;-;-
1513497301174;-;-;9.014664;-1.7104645;-1.6022339;-;-;-;-;-;-;-;-;-;-;-;-;-;-;-
1513497301195;-;-;8.983536;-1.5680084;-1.5244293;-;-;-;-;-;-;-;-;-;-;-;-;-;-;-
1513497301215;-;-;9.017059;-1.5883636;-1.5471649;-;-;-;-;-;-;-;-;-;-;-;-;-;-;-
1513497301236;-;-;9.0577545;-1.5811768;-1.555542;-;-;-;-;-;-;-;-;-;-;-;-;-;-;-
1513497301256;-;-;9.070923;-1.641037;-1.5735016;-;-;-;-;-;-;-;-;-;-;-;-;-;-;-
1513497301277;-;-;9.037399;-1.5931549;-1.4789276;-;-;-;-;-;-;-;-;-;-;-;-;-;-;-
1513497301297;-;-;9.035004;-1.6601868;-1.4286499;-;-;-;-;-;-;-;-;-;-;-;-;-;-;-
1513497301318;-;-;9.091278;-1.8493347;-1.4047089;-;-;-;-;-;-;-;-;-;-;-;-;-;-;-
1513497301338;-;-;9.106842;-2.0600128;-1.3807678;-;-;-;-;-;-;-;-;-;-;-;-;-;-;-
1513497301359;-;-;9.108032;-2.1210785;-1.3819733;-;-;-;-;-;-;-;-;-;-;-;-;-;-;-
1513497301379;-;-;9.032608;-2.0600128;-1.361618;-;-;-;-;-;-;-;-;-;-;-;-;-;-;-
1513497301400;-;-;8.927277;-2.008545;-1.3556366;-;-;-;-;-;-;-;-;-;-;-;-;-;-;-
1513497301420;-;-;8.891357;-1.9355164;-1.2945862;-;-;-;-;-;-;-;-;-;-;-;-;-;-;-
1513497301441;-;-;8.938049;-1.8888397;-1.337677;-;-;-;-;-;-;-;-;-;-;-;-;-;-;-
1513497301461;-;-;8.954803;-1.8361664;-1.3640137;-;-;-;-;-;-;-;-;-;-;-;-;-;-;-
1513497301481;-;-;9.014664;-1.7427826;-1.4334412;-;-;-;-;-;-;-;-;-;-;-;-;-;-;-
1513497301502;-;-;9.029022;-1.5943451;-1.480133;-;-;-;-;-;-;-;-;-;-;-;-;-;-;-
1513497301522;-;-;9.056564;-1.5273132;-1.4490051;-;-;-;-;-;-;-;-;-;-;-;-;-;-;-
1513497301542;-;-;9.090073;-1.5297089;-1.5459747;-;-;-;-;-;-;-;-;-;-;-;-;-;-;-
