TimeStamp[ms];Prox[Cm];Lux[lux];AccX[m/s^2];AccY[m/s^2];AccZ[m/s^2];GyroX[rad/s];GyroY[rad/s];GyroZ[rad/s];MagnX[uT];MagnY[uT];MagnZ[uT];OrienYaw[degrees];OrienPitch[degrees];OrienRoll[degrees];Press[Pa];Temp[C°];Batt[%];Lat;Lng;Speed[m/s]
1513509020984;-;-;9.105637;-0.18894958;-0.6577301;-;-;-;-;-;-;-;-;-;-;-;-;-;-;-
1513509020985;-;-;9.105637;-0.18894958;-0.6577301;-;-;-;-;-;-;-;-;-;-;-;-;-;-;-
1513509020999;-;-;9.052963;-0.2787323;-0.74391174;-;-;-;-;-;-;-;-;-;-;-;-;-;-;-
1513509021019;-;-;9.312744;-0.3002777;-0.81095886;-;-;-;-;-;-;-;-;-;-;-;-;-;-;-
1513509021039;-;-;9.252884;-0.19732666;-0.73313904;-;-;-;-;-;-;-;-;-;-;-;-;-;-;-
1513509021059;-;-;9.264847;-0.12071228;-0.7893982;-;-;-;-;-;-;-;-;-;-;-;-;-;-;-
1513509021080;-;-;9.148727;-0.21647644;-0.82292175;-;-;-;-;-;-;-;-;-;-;-;-;-;-;-
1513509021101;-;-;9.196625;-0.06803894;-0.8145447;-;-;-;-;-;-;-;-;-;-;-;-;-;-;-
1513509021122;-;-;9.084091;-0.057266235;-0.66371155;-;-;-;-;-;-;-;-;-;-;-;-;-;-;-
1513509021142;-;-;9.0972595;-0.02973938;-0.6685028;-;-;-;-;-;-;-;-;-;-;-;-;-;-;-
1513509021162;-;-;9.183456;-0.030929565;-0.7008209;-;-;-;-;-;-;-;-;-;-;-;-;-;-;-
1513509021182;-;-;9.142746;-0.08241272;-0.8720093;-;-;-;-;-;-;-;-;-;-;-;-;-;-;-
1513509021203;-;-;9.12001;0.05885315;-1.0348053;-;-;-;-;-;-;-;-;-;-;-;-;-;-;-
1513509021236;-;-;8.863831;0.15461731;-0.843277;-;-;-;-;-;-;-;-;-;-;-;-;-;-;-
1513509021243;-;-;8.863831;0.40600586;-0.9079132;-;-;-;-;-;-;-;-;-;-;-;-;-;-;-
1513509021263;-;-;8.740524;0.6849365;-0.69363403;-;-;-;-;-;-;-;-;-;-;-;-;-;-;-
1513509021283;-;-;8.951218;1.3361511;-0.64933777;-;-;-;-;-;-;-;-;-;-;-;-;-;-;-
1513509021304;-;-;7.0095215;2.0556183;-1.1150208;-;-;-;-;-;-;-;-;-;-;-;-;-;-;-
1513509021324;-;-;9.790375;-0.46548462;-1.0623474;-;-;-;-;-;-;-;-;-;-;-;-;-;-;-
1513509021344;-;-;10.616379;-0.88446045;-1.0659332;-;-;-;-;-;-;-;-;-;-;-;-;-;-;-
1513509021364;-;-;10.688202;-0.24520874;-0.74391174;-;-;-;-;-;-;-;-;-;-;-;-;-;-;-
1513509021385;-;-;9.941208;0.069625854;-0.8360901;-;-;-;-;-;-;-;-;-;-;-;-;-;-;-
1513509021405;-;-;9.420471;0.30784607;-0.5248413;-;-;-;-;-;-;-;-;-;-;-;-;-;-;-
1513509021425;-;-;8.928467;0.49699402;-0.37879944;-;-;-;-;-;-;-;-;-;-;-;-;-;-;-
1513509021446;-;-;8.599258;0.39762878;-0.11424255;-;-;-;-;-;-;-;-;-;-;-;-;-;-;-
1513509021466;-;-;8.618423;0.15222168;-0.10586548;-;-;-;-;-;-;-;-;-;-;-;-;-;-;-
1513509021486;-;-;8.750107;-0.1015625;-0.23873901;-;-;-;-;-;-;-;-;-;-;-;-;-;-;-
1513509021507;-;-;9.017059;-0.24760437;-0.3548584;-;-;-;-;-;-;-;-;-;-;-;-;-;-;-
1513509021526;-;-;9.029022;-0.44033813;1.3809357;-;-;-;-;-;-;-;-;-;-;-;-;-;-;-
1513509021546;-;-;8.942825;0.26834106;-2.021225;-;-;-;-;-;-;-;-;-;-;-;-;-;-;-
1513509021566;-;-;9.979523;0.013366699;0.53338623;-;-;-;-;-;-;-;-;-;-;-;-;-;-;-
1513509021587;-;-;10.173447;0.68852234;-0.18725586;-;-;-;-;-;-;-;-;-;-;-;-;-;-;-
1513509021607;-;-;9.967545;-0.1530304;-3.1871948;-;-;-;-;-;-;-;-;-;-;-;-;-;-;-
1513509021627;-;-;8.917694;-0.033325195;-0.18486023;-;-;-;-;-;-;-;-;-;-;-;-;-;-;-
1513509021648;-;-;9.516251;-0.22007751;0.95596313;-;-;-;-;-;-;-;-;-;-;-;-;-;-;-
1513509021668;-;-;7.988739;0.9087982;-0.42070007;-;-;-;-;-;-;-;-;-;-;-;-;-;-;-
1513509021688;-;-;8.780029;0.81781006;-0.1884613;-;-;-;-;-;-;-;-;-;-;-;-;-;-;-
1513509021708;-;-;8.68306;0.8130188;-0.31295776;-;-;-;-;-;-;-;-;-;-;-;-;-;-;-
1513509021729;-;-;8.678268;1.062027;-0.40274048;-;-;-;-;-;-;-;-;-;-;-;-;-;-;-
1513509021750;-;-;9.25647;1.3876343;-0.4673767;-;-;-;-;-;-;-;-;-;-;-;-;-;-;-
1513509021770;-;-;9.574905;1.6067047;-0.28781128;-;-;-;-;-;-;-;-;-;-;-;-;-;-;-
1513509021790;-;-;9.667084;1.6282501;-0.882782;-;-;-;-;-;-;-;-;-;-;-;-;-;-;-
1513509021810;-;-;9.485123;1.3014374;-2.0499573;-;-;-;-;-;-;-;-;-;-;-;-;-;-;-
1513509021831;-;-;11.308304;0.6957092;-2.6508942;-;-;-;-;-;-;-;-;-;-;-;-;-;-;-
1513509021850;-;-;13.186554;-0.014175415;-2.507248;-;-;-;-;-;-;-;-;-;-;-;-;-;-;-
1513509021870;-;-;13.742004;-0.0069885254;-2.036789;-;-;-;-;-;-;-;-;-;-;-;-;-;-;-
1513509021890;-;-;10.655884;-0.65582275;-2.3995056;-;-;-;-;-;-;-;-;-;-;-;-;-;-;-
1513509021911;-;-;8.294006;-1.7715149;-2.6592712;-;-;-;-;-;-;-;-;-;-;-;-;-;-;-
1513509021931;-;-;6.554611;-2.0073395;-1.9182739;-;-;-;-;-;-;-;-;-;-;-;-;-;-;-
1513509021951;-;-;9.280411;-3.079956;-2.55513;-;-;-;-;-;-;-;-;-;-;-;-;-;-;-
1513509021972;-;-;10.983887;-2.736374;-2.4030914;-;-;-;-;-;-;-;-;-;-;-;-;-;-;-
1513509021992;-;-;9.181061;-3.0224915;-3.0028381;-;-;-;-;-;-;-;-;-;-;-;-;-;-;-
1513509022013;-;-;8.173096;-1.3812561;-2.0307922;-;-;-;-;-;-;-;-;-;-;-;-;-;-;-
1513509022033;-;-;10.092056;-1.743988;-1.8165131;-;-;-;-;-;-;-;-;-;-;-;-;-;-;-
1513509022053;-;-;9.121201;-1.3800659;-2.725113;-;-;-;-;-;-;-;-;-;-;-;-;-;-;-
1513509022073;-;-;8.675873;-1.8972168;-1.9039001;-;-;-;-;-;-;-;-;-;-;-;-;-;-;-
1513509022094;-;-;7.125641;-1.8421478;-1.0671387;-;-;-;-;-;-;-;-;-;-;-;-;-;-;-
1513509022114;-;-;8.340698;-2.3497162;-0.49371338;-;-;-;-;-;-;-;-;-;-;-;-;-;-;-
1513509022134;-;-;6.9712067;-2.2599335;-0.43984985;-;-;-;-;-;-;-;-;-;-;-;-;-;-;-
1513509022155;-;-;7.0370483;-1.9881897;-2.179245;-;-;-;-;-;-;-;-;-;-;-;-;-;-;-
1513509022174;-;-;6.568985;-1.9008026;-2.2881775;-;-;-;-;-;-;-;-;-;-;-;-;-;-;-
1513509022194;-;-;8.988327;-1.8948212;-1.8619995;-;-;-;-;-;-;-;-;-;-;-;-;-;-;-
1513509022214;-;-;8.420898;-0.88327026;-1.0156555;-;-;-;-;-;-;-;-;-;-;-;-;-;-;-
1513509022235;-;-;7.822342;-1.1478271;-0.6900482;-;-;-;-;-;-;-;-;-;-;-;-;-;-;-
1513509022255;-;-;8.718979;-2.4969635;-0.76187134;-;-;-;-;-;-;-;-;-;-;-;-;-;-;-
1513509022274;-;-;8.459198;-1.1430359;-1.4238739;-;-;-;-;-;-;-;-;-;-;-;-;-;-;-
1513509022294;-;-;8.078522;-1.2519684;-2.4725342;-;-;-;-;-;-;-;-;-;-;-;-;-;-;-
1513509022314;-;-;9.032608;-1.2124786;-1.3029633;-;-;-;-;-;-;-;-;-;-;-;-;-;-;-
1513509022335;-;-;12.031357;-0.8892517;-1.0156555;-;-;-;-;-;-;-;-;-;-;-;-;-;-;-
1513509022355;-;-;12.4730835;-1.2866974;-0.4278717;-;-;-;-;-;-;-;-;-;-;-;-;-;-;-
1513509022375;-;-;10.536179;-1.9714355;-1.0743103;-;-;-;-;-;-;-;-;-;-;-;-;-;-;-
1513509022396;-;-;9.725739;-2.7938385;-3.9006653;-;-;-;-;-;-;-;-;-;-;-;-;-;-;-
1513509022416;-;-;10.354218;-1.5907593;-5.041504;-;-;-;-;-;-;-;-;-;-;-;-;-;-;-
1513509022436;-;-;9.4887085;-1.6158905;-5.230652;-;-;-;-;-;-;-;-;-;-;-;-;-;-;-
1513509022457;-;-;9.822708;-0.91319275;-3.4373932;-;-;-;-;-;-;-;-;-;-;-;-;-;-;-
1513509022477;-;-;12.230072;-0.042907715;-2.3348541;-;-;-;-;-;-;-;-;-;-;-;-;-;-;-
1513509022497;-;-;12.276764;-0.4092102;-2.7598267;-;-;-;-;-;-;-;-;-;-;-;-;-;-;-
1513509022518;-;-;12.923187;-0.9167938;-1.550766;-;-;-;-;-;-;-;-;-;-;-;-;-;-;-
1513509022538;-;-;9.716156;-1.7810974;-1.416687;-;-;-;-;-;-;-;-;-;-;-;-;-;-;-
1513509022558;-;-;10.775589;-3.3947906;1.2253113;-;-;-;-;-;-;-;-;-;-;-;-;-;-;-
1513509022579;-;-;10.79834;-3.313385;-3.1704407;-;-;-;-;-;-;-;-;-;-;-;-;-;-;-
1513509022598;-;-;9.195419;-1.9582672;-2.670044;-;-;-;-;-;-;-;-;-;-;-;-;-;-;-
1513509022619;-;-;4.2274475;1.2296143;-0.87319946;-;-;-;-;-;-;-;-;-;-;-;-;-;-;-
1513509022639;-;-;2.869934;1.3995972;-0.30577087;-;-;-;-;-;-;-;-;-;-;-;-;-;-;-
1513509022659;-;-;2.6939697;0.4467163;-0.06755066;-;-;-;-;-;-;-;-;-;-;-;-;-;-;-
1513509022679;-;-;3.2063293;-0.52893066;-0.47216797;-;-;-;-;-;-;-;-;-;-;-;-;-;-;-
1513509022700;-;-;6.826355;-0.23803711;-1.9649506;-;-;-;-;-;-;-;-;-;-;-;-;-;-;-
1513509022720;-;-;9.795166;0.63345337;-2.8268738;-;-;-;-;-;-;-;-;-;-;-;-;-;-;-
1513509022740;-;-;12.087616;1.2810822;-2.9812927;-;-;-;-;-;-;-;-;-;-;-;-;-;-;-
1513509022761;-;-;12.65744;1.1362457;-2.014038;-;-;-;-;-;-;-;-;-;-;-;-;-;-;-
1513509022781;-;-;10.566101;0.124694824;-2.2211304;-;-;-;-;-;-;-;-;-;-;-;-;-;-;-
1513509022801;-;-;8.496307;0.18693542;-1.9757233;-;-;-;-;-;-;-;-;-;-;-;-;-;-;-
1513509022821;-;-;6.5797577;1.1027222;-1.5627289;-;-;-;-;-;-;-;-;-;-;-;-;-;-;-
1513509022842;-;-;6.5641937;1.9263306;-0.54519653;-;-;-;-;-;-;-;-;-;-;-;-;-;-;-
1513509022862;-;-;8.871002;2.0328674;-0.030441284;-;-;-;-;-;-;-;-;-;-;-;-;-;-;-
1513509022882;-;-;9.774811;1.106308;-1.610611;-;-;-;-;-;-;-;-;-;-;-;-;-;-;-
1513509022903;-;-;9.427658;-0.22845459;-5.1348724;-;-;-;-;-;-;-;-;-;-;-;-;-;-;-
1513509022923;-;-;8.712982;-1.2124786;-8.68309;-;-;-;-;-;-;-;-;-;-;-;-;-;-;-
1513509022943;-;-;11.8050995;-4.1417847;-2.2845764;-;-;-;-;-;-;-;-;-;-;-;-;-;-;-
1513509022964;-;-;12.813065;-3.1828918;-3.5128021;-;-;-;-;-;-;-;-;-;-;-;-;-;-;-
1513509022984;-;-;11.144302;-2.159378;-3.2099457;-;-;-;-;-;-;-;-;-;-;-;-;-;-;-
1513509023004;-;-;11.19577;-1.4291534;-5.0450897;-;-;-;-;-;-;-;-;-;-;-;-;-;-;-
1513509023025;-;-;12.087616;1.0943451;-4.4585114;-;-;-;-;-;-;-;-;-;-;-;-;-;-;-
1513509023045;-;-;11.058105;3.3807983;-3.0291748;-;-;-;-;-;-;-;-;-;-;-;-;-;-;-
1513509023065;-;-;9.728134;2.153778;-1.911087;-;-;-;-;-;-;-;-;-;-;-;-;-;-;-
1513509023086;-;-;9.5282135;-0.4056244;-2.029602;-;-;-;-;-;-;-;-;-;-;-;-;-;-;-
1513509023105;-;-;8.693832;-2.3377533;-1.8763733;-;-;-;-;-;-;-;-;-;-;-;-;-;-;-
1513509023125;-;-;6.6455994;-3.9406586;-0.7606659;-;-;-;-;-;-;-;-;-;-;-;-;-;-;-
1513509023147;-;-;5.0067596;-4.397949;0.18981934;-;-;-;-;-;-;-;-;-;-;-;-;-;-;-
1513509023168;-;-;2.9836578;-3.653366;-0.102264404;-;-;-;-;-;-;-;-;-;-;-;-;-;-;-
1513509023188;-;-;2.2498474;-2.3030243;-1.3675995;-;-;-;-;-;-;-;-;-;-;-;-;-;-;-
1513509023208;-;-;4.616516;-0.5780029;-2.630539;-;-;-;-;-;-;-;-;-;-;-;-;-;-;-
1513509023228;-;-;6.8048096;1.2870789;-3.408661;-;-;-;-;-;-;-;-;-;-;-;-;-;-;-
1513509023248;-;-;7.894165;2.5512085;-2.8771515;-;-;-;-;-;-;-;-;-;-;-;-;-;-;-
1513509023269;-;-;8.684265;1.125473;-1.9326324;-;-;-;-;-;-;-;-;-;-;-;-;-;-;-
1513509023289;-;-;8.96199;-1.1585999;-1.2275391;-;-;-;-;-;-;-;-;-;-;-;-;-;-;-
1513509023309;-;-;8.435257;-2.906372;-1.0228424;-;-;-;-;-;-;-;-;-;-;-;-;-;-;-
1513509023329;-;-;7.885788;-3.6306152;-0.5942688;-;-;-;-;-;-;-;-;-;-;-;-;-;-;-
1513509023350;-;-;7.6786957;-3.4366913;-0.2686615;-;-;-;-;-;-;-;-;-;-;-;-;-;-;-
1513509023370;-;-;7.9037476;-2.9650269;-0.5176544;-;-;-;-;-;-;-;-;-;-;-;-;-;-;-
1513509023390;-;-;8.367035;-2.3940125;-0.55836487;-;-;-;-;-;-;-;-;-;-;-;-;-;-;-
1513509023411;-;-;8.035431;-1.372879;-0.5176544;-;-;-;-;-;-;-;-;-;-;-;-;-;-;-
1513509023431;-;-;7.5314484;-1.2723236;-1.1174164;-;-;-;-;-;-;-;-;-;-;-;-;-;-;-
1513509023451;-;-;7.1866913;-1.5165405;-4.156845;-;-;-;-;-;-;-;-;-;-;-;-;-;-;-
1513509023471;-;-;5.604126;-0.21647644;-6.360718;-;-;-;-;-;-;-;-;-;-;-;-;-;-;-
1513509023492;-;-;6.2828674;2.3261566;-5.8375854;-;-;-;-;-;-;-;-;-;-;-;-;-;-;-
1513509023512;-;-;8.793198;5.4841156;-2.2534637;-;-;-;-;-;-;-;-;-;-;-;-;-;-;-
1513509023532;-;-;9.963959;6.937393;-2.9202423;-;-;-;-;-;-;-;-;-;-;-;-;-;-;-
1513509023553;-;-;12.372528;2.833725;-3.5056305;-;-;-;-;-;-;-;-;-;-;-;-;-;-;-
1513509023573;-;-;16.82814;0.24320984;-2.6987762;-;-;-;-;-;-;-;-;-;-;-;-;-;-;-
1513509023593;-;-;20.136917;0.7507782;-4.2933197;-;-;-;-;-;-;-;-;-;-;-;-;-;-;-
1513509023614;-;-;24.949265;-0.97424316;-5.879471;-;-;-;-;-;-;-;-;-;-;-;-;-;-;-
1513509023634;-;-;17.18248;-2.815384;-3.0531158;-;-;-;-;-;-;-;-;-;-;-;-;-;-;-
1513509023654;-;-;9.706589;-1.8565063;-1.2239532;-;-;-;-;-;-;-;-;-;-;-;-;-;-;-
1513509023675;-;-;5.9859924;-0.5600586;1.0912476;-;-;-;-;-;-;-;-;-;-;-;-;-;-;-
1513509023695;-;-;3.098587;0.96984863;1.7089386;-;-;-;-;-;-;-;-;-;-;-;-;-;-;-
1513509023716;-;-;0.97013855;1.2870789;2.2057495;-;-;-;-;-;-;-;-;-;-;-;-;-;-;-
1513509023736;-;-;0.049575806;0.20010376;1.7987213;-;-;-;-;-;-;-;-;-;-;-;-;-;-;-
1513509023756;-;-;2.030777;-0.35295105;0.47833252;-;-;-;-;-;-;-;-;-;-;-;-;-;-;-
1513509023776;-;-;3.3224487;0.08039856;-0.67567444;-;-;-;-;-;-;-;-;-;-;-;-;-;-;-
1513509023796;-;-;3.2003326;0.5592346;-0.7953949;-;-;-;-;-;-;-;-;-;-;-;-;-;-;-
1513509023816;-;-;3.6205292;0.9075928;-0.535614;-;-;-;-;-;-;-;-;-;-;-;-;-;-;-
1513509023836;-;-;5.8112183;0.8716736;-1.1210022;-;-;-;-;-;-;-;-;-;-;-;-;-;-;-
1513509023857;-;-;10.733688;0.87646484;-1.3879547;-;-;-;-;-;-;-;-;-;-;-;-;-;-;-
1513509023877;-;-;12.032547;2.1513824;-2.986084;-;-;-;-;-;-;-;-;-;-;-;-;-;-;-
1513509023897;-;-;9.293579;3.7327576;-5.753784;-;-;-;-;-;-;-;-;-;-;-;-;-;-;-
1513509023917;-;-;8.24971;4.107437;-5.3240204;-;-;-;-;-;-;-;-;-;-;-;-;-;-;-
1513509023938;-;-;5.288086;1.0081482;-4.6320953;-;-;-;-;-;-;-;-;-;-;-;-;-;-;-
1513509023958;-;-;4.0610504;-3.4211273;-3.4972534;-;-;-;-;-;-;-;-;-;-;-;-;-;-;-
1513509023978;-;-;6.5797577;-6.744278;-4.9768677;-;-;-;-;-;-;-;-;-;-;-;-;-;-;-
1513509023998;-;-;11.217331;-9.015167;-6.4792175;-;-;-;-;-;-;-;-;-;-;-;-;-;-;-
1513509024019;-;-;17.564346;-9.909409;-7.975601;-;-;-;-;-;-;-;-;-;-;-;-;-;-;-
1513509024039;-;-;25.571762;-3.7263794;-1.416687;-;-;-;-;-;-;-;-;-;-;-;-;-;-;-
1513509024059;-;-;23.217056;4.520447;0.39811707;-;-;-;-;-;-;-;-;-;-;-;-;-;-;-
1513509024080;-;-;15.0073395;2.1825104;0.26643372;-;-;-;-;-;-;-;-;-;-;-;-;-;-;-
1513509024100;-;-;14.259155;-5.178467;0.2808075;-;-;-;-;-;-;-;-;-;-;-;-;-;-;-
1513509024120;-;-;11.2161255;-7.3990936;1.962738;-;-;-;-;-;-;-;-;-;-;-;-;-;-;-
1513509024141;-;-;9.760452;-6.993271;-0.2854309;-;-;-;-;-;-;-;-;-;-;-;-;-;-;-
1513509024161;-;-;6.5234985;-4.980942;-2.373169;-;-;-;-;-;-;-;-;-;-;-;-;-;-;-
1513509024182;-;-;3.6037598;-2.1893005;-1.7913818;-;-;-;-;-;-;-;-;-;-;-;-;-;-;-
1513509024202;-;-;1.8835297;0.6933136;-1.3987274;-;-;-;-;-;-;-;-;-;-;-;-;-;-;-
1513509024222;-;-;0.6301575;3.4574127;-2.2414856;-;-;-;-;-;-;-;-;-;-;-;-;-;-;-
1513509024242;-;-;0.32250977;4.893936;-3.176422;-;-;-;-;-;-;-;-;-;-;-;-;-;-;-
1513509024263;-;-;2.6245422;2.7008514;-2.9250336;-;-;-;-;-;-;-;-;-;-;-;-;-;-;-
1513509024283;-;-;5.327591;0.119903564;-1.7554626;-;-;-;-;-;-;-;-;-;-;-;-;-;-;-
1513509024303;-;-;8.319138;-1.4794312;0.216156;-;-;-;-;-;-;-;-;-;-;-;-;-;-;-
1513509024323;-;-;8.672287;-2.2036743;0.63275146;-;-;-;-;-;-;-;-;-;-;-;-;-;-;-
1513509024344;-;-;8.289215;-2.9913635;-0.11903381;-;-;-;-;-;-;-;-;-;-;-;-;-;-;-
1513509024365;-;-;7.8151703;-4.1621246;-1.7255402;-;-;-;-;-;-;-;-;-;-;-;-;-;-;-
1513509024386;-;-;8.162323;-5.325714;-4.0910034;-;-;-;-;-;-;-;-;-;-;-;-;-;-;-
1513509024406;-;-;7.693054;-5.194031;-4.35318;-;-;-;-;-;-;-;-;-;-;-;-;-;-;-
1513509024426;-;-;7.304001;-2.416748;-3.6289215;-;-;-;-;-;-;-;-;-;-;-;-;-;-;-
1513509024447;-;-;6.972412;1.6845093;-3.7163086;-;-;-;-;-;-;-;-;-;-;-;-;-;-;-
1513509024466;-;-;8.551376;5.275818;-0.44224548;-;-;-;-;-;-;-;-;-;-;-;-;-;-;-
1513509024486;-;-;10.232117;5.8863373;-4.124527;-;-;-;-;-;-;-;-;-;-;-;-;-;-;-
1513509024507;-;-;19.075089;-0.30986023;0.7967529;-;-;-;-;-;-;-;-;-;-;-;-;-;-;-
1513509024527;-;-;21.888275;-2.198883;0.899704;-;-;-;-;-;-;-;-;-;-;-;-;-;-;-
1513509024547;-;-;22.550278;2.4865723;-9.55098;-;-;-;-;-;-;-;-;-;-;-;-;-;-;-
1513509024568;-;-;19.564713;4.07872;-5.8854675;-;-;-;-;-;-;-;-;-;-;-;-;-;-;-
1513509024588;-;-;8.959595;3.7004242;-2.4186554;-;-;-;-;-;-;-;-;-;-;-;-;-;-;-
1513509024608;-;-;2.3180695;2.5559998;-0.5691376;-;-;-;-;-;-;-;-;-;-;-;-;-;-;-
1513509024629;-;-;-0.6471405;1.5683899;0.64352417;-;-;-;-;-;-;-;-;-;-;-;-;-;-;-
1513509024648;-;-;-2.2464752;0.48501587;1.7245026;-;-;-;-;-;-;-;-;-;-;-;-;-;-;-
1513509024668;-;-;-1.637146;-1.4111938;1.7783813;-;-;-;-;-;-;-;-;-;-;-;-;-;-;-
1513509024689;-;-;2.3851166;-2.1102905;0.9463959;-;-;-;-;-;-;-;-;-;-;-;-;-;-;-
1513509024708;-;-;4.940918;-1.5871582;0.03060913;-;-;-;-;-;-;-;-;-;-;-;-;-;-;-
1513509024728;-;-;6.6144714;-1.3680878;-0.38478088;-;-;-;-;-;-;-;-;-;-;-;-;-;-;-
1513509024749;-;-;8.784821;-1.7978516;-0.9546051;-;-;-;-;-;-;-;-;-;-;-;-;-;-;-
1513509024769;-;-;11.991852;-2.0528412;-2.796936;-;-;-;-;-;-;-;-;-;-;-;-;-;-;-
1513509024789;-;-;12.483856;-0.90122986;-2.227127;-;-;-;-;-;-;-;-;-;-;-;-;-;-;-
1513509024809;-;-;11.0186;1.2236328;-2.2678223;-;-;-;-;-;-;-;-;-;-;-;-;-;-;-
1513509024830;-;-;8.258087;3.0132904;-3.6923676;-;-;-;-;-;-;-;-;-;-;-;-;-;-;-
1513509024850;-;-;4.6452484;3.441864;-5.619705;-;-;-;-;-;-;-;-;-;-;-;-;-;-;-
1513509024870;-;-;1.8476105;2.3776398;-5.2845154;-;-;-;-;-;-;-;-;-;-;-;-;-;-;-
1513509024891;-;-;2.2953339;-1.3465424;-4.175995;-;-;-;-;-;-;-;-;-;-;-;-;-;-;-
1513509024911;-;-;4.2346344;-5.009674;-4.720688;-;-;-;-;-;-;-;-;-;-;-;-;-;-;-
1513509024931;-;-;9.901718;-7.381134;-3.5295715;-;-;-;-;-;-;-;-;-;-;-;-;-;-;-
1513509024952;-;-;19.982498;-7.804901;-6.3415527;-;-;-;-;-;-;-;-;-;-;-;-;-;-;-
1513509024972;-;-;37.21237;-5.5950623;-8.56337;-;-;-;-;-;-;-;-;-;-;-;-;-;-;-
1513509024992;-;-;33.961044;-0.2679596;-3.0914307;-;-;-;-;-;-;-;-;-;-;-;-;-;-;-
1513509025013;-;-;15.233597;4.7203674;-0.46858215;-;-;-;-;-;-;-;-;-;-;-;-;-;-;-
1513509025033;-;-;9.954376;2.4446716;-0.38598633;-;-;-;-;-;-;-;-;-;-;-;-;-;-;-
1513509025053;-;-;4.2669525;1.5923309;0.65789795;-;-;-;-;-;-;-;-;-;-;-;-;-;-;-
1513509025074;-;-;0.87916565;1.1230774;0.012649536;-;-;-;-;-;-;-;-;-;-;-;-;-;-;-
1513509025094;-;-;-0.5705261;0.20370483;-0.8648224;-;-;-;-;-;-;-;-;-;-;-;-;-;-;-
1513509025114;-;-;0.3368683;-0.9167938;-1.9362335;-;-;-;-;-;-;-;-;-;-;-;-;-;-;-
1513509025135;-;-;4.0251465;-1.7320099;-2.08107;-;-;-;-;-;-;-;-;-;-;-;-;-;-;-
1513509025155;-;-;5.8758545;-2.5053406;-3.847992;-;-;-;-;-;-;-;-;-;-;-;-;-;-;-
1513509025175;-;-;4.98761;-2.4730225;-4.6129456;-;-;-;-;-;-;-;-;-;-;-;-;-;-;-
1513509025196;-;-;5.040283;-1.9762268;-2.79216;-;-;-;-;-;-;-;-;-;-;-;-;-;-;-
1513509025215;-;-;5.011551;-1.4423218;-0.59906006;-;-;-;-;-;-;-;-;-;-;-;-;-;-;-
1513509025235;-;-;4.095764;-1.6027222;1.0242004;-;-;-;-;-;-;-;-;-;-;-;-;-;-;-
1513509025256;-;-;5.328781;-2.5484314;0.86857605;-;-;-;-;-;-;-;-;-;-;-;-;-;-;-
1513509025277;-;-;8.740524;-3.8688354;3.7080994;-;-;-;-;-;-;-;-;-;-;-;-;-;-;-
1513509025297;-;-;7.882202;-4.7666626;-1.8608093;-;-;-;-;-;-;-;-;-;-;-;-;-;-;-
1513509025317;-;-;6.1667633;-3.4881592;-7.389023;-;-;-;-;-;-;-;-;-;-;-;-;-;-;-
1513509025337;-;-;6.3606873;-2.6082916;-7.7421722;-;-;-;-;-;-;-;-;-;-;-;-;-;-;-
1513509025358;-;-;9.716156;-1.4902039;-4.044327;-;-;-;-;-;-;-;-;-;-;-;-;-;-;-
1513509025379;-;-;9.021835;1.2822876;-1.7722168;-;-;-;-;-;-;-;-;-;-;-;-;-;-;-
1513509025399;-;-;8.3107605;4.032028;-1.0180511;-;-;-;-;-;-;-;-;-;-;-;-;-;-;-
1513509025419;-;-;11.815872;2.9773865;-1.3077545;-;-;-;-;-;-;-;-;-;-;-;-;-;-;-
1513509025439;-;-;21.257416;4.3145447;1.0313873;-;-;-;-;-;-;-;-;-;-;-;-;-;-;-
1513509025460;-;-;31.63388;3.5447998;-7.3926086;-;-;-;-;-;-;-;-;-;-;-;-;-;-;-
1513509025480;-;-;29.294739;-0.9658661;-10.16629;-;-;-;-;-;-;-;-;-;-;-;-;-;-;-
1513509025500;-;-;13.819824;-0.3864746;-3.62294;-;-;-;-;-;-;-;-;-;-;-;-;-;-;-
1513509025521;-;-;4.611725;0.29588318;0.7512665;-;-;-;-;-;-;-;-;-;-;-;-;-;-;-
1513509025541;-;-;-1.8825531;1.6916962;3.8469696;-;-;-;-;-;-;-;-;-;-;-;-;-;-;-
1513509025561;-;-;-4.93277;3.0372314;4.236023;-;-;-;-;-;-;-;-;-;-;-;-;-;-;-
1513509025582;-;-;-2.64151;0.42396545;1.4300232;-;-;-;-;-;-;-;-;-;-;-;-;-;-;-
1513509025601;-;-;0.9055023;-1.111908;-0.21359253;-;-;-;-;-;-;-;-;-;-;-;-;-;-;-
1513509025621;-;-;5.0127563;-2.008545;-1.7817993;-;-;-;-;-;-;-;-;-;-;-;-;-;-;-
1513509025642;-;-;6.359482;-1.9977722;-2.0307922;-;-;-;-;-;-;-;-;-;-;-;-;-;-;-
1513509025662;-;-;7.748123;-0.88087463;-2.646103;-;-;-;-;-;-;-;-;-;-;-;-;-;-;-
1513509025682;-;-;9.653915;0.8309784;-2.689209;-;-;-;-;-;-;-;-;-;-;-;-;-;-;-
1513509025703;-;-;10.175842;2.3644714;-3.729477;-;-;-;-;-;-;-;-;-;-;-;-;-;-;-
1513509025723;-;-;9.515045;4.300171;-4.244232;-;-;-;-;-;-;-;-;-;-;-;-;-;-;-
1513509025743;-;-;7.4201202;5.8683777;-3.5523071;-;-;-;-;-;-;-;-;-;-;-;-;-;-;-
1513509025764;-;-;3.7043152;3.9554138;-4.124527;-;-;-;-;-;-;-;-;-;-;-;-;-;-;-
1513509025784;-;-;2.7610016;0.39404297;-6.5067596;-;-;-;-;-;-;-;-;-;-;-;-;-;-;-
1513509025804;-;-;5.4353333;-3.3864136;-7.5985107;-;-;-;-;-;-;-;-;-;-;-;-;-;-;-
1513509025825;-;-;10.894104;-7.7390594;-7.7589264;-;-;-;-;-;-;-;-;-;-;-;-;-;-;-
1513509025845;-;-;18.90152;-8.112564;-1.313736;-;-;-;-;-;-;-;-;-;-;-;-;-;-;-
1513509025865;-;-;26.88977;-3.266693;-1.9170685;-;-;-;-;-;-;-;-;-;-;-;-;-;-;-
1513509025885;-;-;24.590134;-1.2819061;-7.1938934;-;-;-;-;-;-;-;-;-;-;-;-;-;-;-
1513509025906;-;-;22.784912;0.57958984;-3.6756134;-;-;-;-;-;-;-;-;-;-;-;-;-;-;-
1513509025926;-;-;14.135849;0.8190155;-0.47097778;-;-;-;-;-;-;-;-;-;-;-;-;-;-;-
1513509025946;-;-;6.6312256;0.107925415;-0.2854309;-;-;-;-;-;-;-;-;-;-;-;-;-;-;-
1513509025966;-;-;4.07782;-2.5089264;-0.89115906;-;-;-;-;-;-;-;-;-;-;-;-;-;-;-
1513509025986;-;-;3.4289856;-4.6792755;-0.43865967;-;-;-;-;-;-;-;-;-;-;-;-;-;-;-
1513509026007;-;-;5.6101074;-4.6756897;-0.66371155;-;-;-;-;-;-;-;-;-;-;-;-;-;-;-
1513509026027;-;-;7.604477;-3.4594269;-1.9709473;-;-;-;-;-;-;-;-;-;-;-;-;-;-;-
1513509026047;-;-;7.185486;-1.9498901;-3.262619;-;-;-;-;-;-;-;-;-;-;-;-;-;-;-
1513509026068;-;-;4.865509;-0.973053;-3.5535126;-;-;-;-;-;-;-;-;-;-;-;-;-;-;-
1513509026088;-;-;2.7753754;-0.2679596;-3.7282867;-;-;-;-;-;-;-;-;-;-;-;-;-;-;-
1513509026108;-;-;-0.04978943;0.541275;-2.5060425;-;-;-;-;-;-;-;-;-;-;-;-;-;-;-
1513509026129;-;-;0.9270477;0.15342712;-0.11303711;-;-;-;-;-;-;-;-;-;-;-;-;-;-;-
1513509026149;-;-;5.959656;-0.8581238;1.409668;-;-;-;-;-;-;-;-;-;-;-;-;-;-;-
1513509026169;-;-;8.085709;-1.4387207;1.0206146;-;-;-;-;-;-;-;-;-;-;-;-;-;-;-
1513509026190;-;-;8.097687;-1.6278687;0.68782043;-;-;-;-;-;-;-;-;-;-;-;-;-;-;-
1513509026210;-;-;5.8507233;-3.3864136;-0.6517334;-;-;-;-;-;-;-;-;-;-;-;-;-;-;-
1513509026230;-;-;5.770523;-4.5990753;-3.7438507;-;-;-;-;-;-;-;-;-;-;-;-;-;-;-
1513509026250;-;-;5.2904816;-2.1581879;-7.3926086;-;-;-;-;-;-;-;-;-;-;-;-;-;-;-
1513509026271;-;-;9.583282;2.4602356;-6.947296;-;-;-;-;-;-;-;-;-;-;-;-;-;-;-
1513509026290;-;-;12.178604;6.0778656;-3.1057892;-;-;-;-;-;-;-;-;-;-;-;-;-;-;-
1513509026310;-;-;19.935806;7.7813416;-2.175644;-;-;-;-;-;-;-;-;-;-;-;-;-;-;-
1513509026330;-;-;25.493942;3.0659637;-3.5187988;-;-;-;-;-;-;-;-;-;-;-;-;-;-;-
1513509026350;-;-;31.260391;-3.7084198;-4.1700134;-;-;-;-;-;-;-;-;-;-;-;-;-;-;-
1513509026371;-;-;23.9449;-6.0978394;-4.2322693;-;-;-;-;-;-;-;-;-;-;-;-;-;-;-
1513509026391;-;-;11.3741455;-4.1298065;-0.018478394;-;-;-;-;-;-;-;-;-;-;-;-;-;-;-
1513509026411;-;-;5.470047;-2.787857;0.4699402;-;-;-;-;-;-;-;-;-;-;-;-;-;-;-
1513509026432;-;-;1.9481659;-0.13627625;0.69140625;-;-;-;-;-;-;-;-;-;-;-;-;-;-;-
1513509026452;-;-;0.35961914;1.5252991;0.9715271;-;-;-;-;-;-;-;-;-;-;-;-;-;-;-
1513509026472;-;-;-0.40652466;0.94111633;0.072509766;-;-;-;-;-;-;-;-;-;-;-;-;-;-;-
1513509026493;-;-;0.758255;0.5053711;-1.1162109;-;-;-;-;-;-;-;-;-;-;-;-;-;-;-
1513509026513;-;-;1.8536072;0.47065735;-0.84806824;-;-;-;-;-;-;-;-;-;-;-;-;-;-;-
1513509026534;-;-;2.2510376;-0.49061584;-0.12980652;-;-;-;-;-;-;-;-;-;-;-;-;-;-;-
1513509026554;-;-;2.485672;-1.6865234;-1.2945862;-;-;-;-;-;-;-;-;-;-;-;-;-;-;-
1513509026575;-;-;4.1915436;-1.8421478;-3.448166;-;-;-;-;-;-;-;-;-;-;-;-;-;-;-
1513509026596;-;-;7.5158844;-0.05128479;-5.5143585;-;-;-;-;-;-;-;-;-;-;-;-;-;-;-
1513509026616;-;-;9.673065;2.560791;-4.7039185;-;-;-;-;-;-;-;-;-;-;-;-;-;-;-
1513509026636;-;-;9.827484;5.7247314;-4.9960175;-;-;-;-;-;-;-;-;-;-;-;-;-;-;-
1513509026657;-;-;8.581314;7.885498;-4.6871643;-;-;-;-;-;-;-;-;-;-;-;-;-;-;-
1513509026677;-;-;4.094574;5.7953644;-4.0562897;-;-;-;-;-;-;-;-;-;-;-;-;-;-;-
1513509026697;-;-;3.952118;-1.0005798;-4.472885;-;-;-;-;-;-;-;-;-;-;-;-;-;-;-
1513509026718;-;-;5.95726;-6.084671;-5.8854675;-;-;-;-;-;-;-;-;-;-;-;-;-;-;-
1513509026738;-;-;11.959534;-11.314804;-6.4947815;-;-;-;-;-;-;-;-;-;-;-;-;-;-;-
1513509026758;-;-;27.04779;-10.345154;-0.33450317;-;-;-;-;-;-;-;-;-;-;-;-;-;-;-
1513509026779;-;-;30.392487;-6.55394;-4.3352203;-;-;-;-;-;-;-;-;-;-;-;-;-;-;-
1513509026799;-;-;26.367828;-2.456253;-6.2733154;-;-;-;-;-;-;-;-;-;-;-;-;-;-;-
1513509026819;-;-;16.31099;1.4259338;-0.2578888;-;-;-;-;-;-;-;-;-;-;-;-;-;-;-
1513509026840;-;-;8.997894;0.8908386;0.2808075;-;-;-;-;-;-;-;-;-;-;-;-;-;-;-
1513509026860;-;-;4.817627;-0.6989136;1.4216461;-;-;-;-;-;-;-;-;-;-;-;-;-;-;-
1513509026880;-;-;2.9692993;-2.4407043;0.98709106;-;-;-;-;-;-;-;-;-;-;-;-;-;-;-
1513509026901;-;-;2.0846405;-3.977768;0.24609375;-;-;-;-;-;-;-;-;-;-;-;-;-;-;-
1513509026921;-;-;2.4593353;-4.068756;-1.3903503;-;-;-;-;-;-;-;-;-;-;-;-;-;-;-
1513509026941;-;-;3.715088;-3.2295837;-1.7470856;-;-;-;-;-;-;-;-;-;-;-;-;-;-;-
1513509026961;-;-;4.724243;-2.5652008;-1.8117218;-;-;-;-;-;-;-;-;-;-;-;-;-;-;-
1513509026982;-;-;4.8834686;-1.6589966;-1.4585876;-;-;-;-;-;-;-;-;-;-;-;-;-;-;-
1513509027002;-;-;4.587784;-0.5648346;-0.8720093;-;-;-;-;-;-;-;-;-;-;-;-;-;-;-
1513509027023;-;-;5.000778;0.03012085;-0.38478088;-;-;-;-;-;-;-;-;-;-;-;-;-;-;-
1513509027043;-;-;7.0382385;-1.1274719;0.089263916;-;-;-;-;-;-;-;-;-;-;-;-;-;-;-
1513509027063;-;-;8.626801;-2.748352;1.2372894;-;-;-;-;-;-;-;-;-;-;-;-;-;-;-
1513509027084;-;-;10.155502;-3.6354065;2.0094147;-;-;-;-;-;-;-;-;-;-;-;-;-;-;-
1513509027104;-;-;10.167465;-4.7139893;1.4348145;-;-;-;-;-;-;-;-;-;-;-;-;-;-;-
1513509027124;-;-;7.5242615;-5.198822;-2.3588104;-;-;-;-;-;-;-;-;-;-;-;-;-;-;-
1513509027144;-;-;5.766922;-4.048401;-6.56781;-;-;-;-;-;-;-;-;-;-;-;-;-;-;-
1513509027164;-;-;8.871002;-0.23564148;-7.8475037;-;-;-;-;-;-;-;-;-;-;-;-;-;-;-
1513509027185;-;-;12.754395;4.1804657;-7.773285;-;-;-;-;-;-;-;-;-;-;-;-;-;-;-
1513509027205;-;-;13.952698;5.857605;-7.2298126;-;-;-;-;-;-;-;-;-;-;-;-;-;-;-
1513509027225;-;-;16.723984;4.6353607;-9.436066;-;-;-;-;-;-;-;-;-;-;-;-;-;-;-
1513509027245;-;-;26.357056;4.1792755;-3.978485;-;-;-;-;-;-;-;-;-;-;-;-;-;-;-
1513509027266;-;-;21.233475;-1.4159851;-4.5327454;-;-;-;-;-;-;-;-;-;-;-;-;-;-;-
1513509027286;-;-;17.27945;-5.318527;-3.369156;-;-;-;-;-;-;-;-;-;-;-;-;-;-;-
1513509027306;-;-;11.435196;-3.9753876;-1.74469;-;-;-;-;-;-;-;-;-;-;-;-;-;-;-
1513509027327;-;-;7.2477417;-1.5189362;-0.7678528;-;-;-;-;-;-;-;-;-;-;-;-;-;-;-
1513509027347;-;-;4.343567;0.24919128;-0.3548584;-;-;-;-;-;-;-;-;-;-;-;-;-;-;-
1513509027368;-;-;2.1828003;0.15461731;0.46276855;-;-;-;-;-;-;-;-;-;-;-;-;-;-;-
1513509027387;-;-;1.0587311;-2.056427;0.3993225;-;-;-;-;-;-;-;-;-;-;-;-;-;-;-
1513509027407;-;-;1.9254303;-4.175293;-0.056777954;-;-;-;-;-;-;-;-;-;-;-;-;-;-;-
1513509027428;-;-;4.8319855;-5.4502106;-1.7255402;-;-;-;-;-;-;-;-;-;-;-;-;-;-;-
1513509027447;-;-;7.699051;-3.11586;-3.5164032;-;-;-;-;-;-;-;-;-;-;-;-;-;-;-
1513509027467;-;-;6.3175964;-0.5564575;-4.1592407;-;-;-;-;-;-;-;-;-;-;-;-;-;-;-
1513509027488;-;-;5.912964;1.5875549;-5.556259;-;-;-;-;-;-;-;-;-;-;-;-;-;-;-
1513509027508;-;-;5.995575;3.5819244;-5.4592896;-;-;-;-;-;-;-;-;-;-;-;-;-;-;-
1513509027528;-;-;7.411743;4.940628;-4.436966;-;-;-;-;-;-;-;-;-;-;-;-;-;-;-
1513509027549;-;-;10.265625;4.4833374;-0.15014648;-;-;-;-;-;-;-;-;-;-;-;-;-;-;-
1513509027569;-;-;10.422455;3.6154327;1.5018463;-;-;-;-;-;-;-;-;-;-;-;-;-;-;-
1513509027589;-;-;9.261261;1.8676758;0.24009705;-;-;-;-;-;-;-;-;-;-;-;-;-;-;-
1513509027610;-;-;7.221405;0.541275;-6.9460907;-;-;-;-;-;-;-;-;-;-;-;-;-;-;-
1513509027630;-;-;11.249649;-3.4749908;-6.974823;-;-;-;-;-;-;-;-;-;-;-;-;-;-;-
1513509027650;-;-;16.457031;-7.707947;-9.955612;-;-;-;-;-;-;-;-;-;-;-;-;-;-;-
1513509027671;-;-;21.700333;-9.241425;-8.467606;-;-;-;-;-;-;-;-;-;-;-;-;-;-;-
1513509027690;-;-;17.049606;-8.611755;-7.9732056;-;-;-;-;-;-;-;-;-;-;-;-;-;-;-
1513509027710;-;-;10.742081;-4.1453705;-7.134033;-;-;-;-;-;-;-;-;-;-;-;-;-;-;-
1513509027730;-;-;7.2633057;-1.0855713;-6.112915;-;-;-;-;-;-;-;-;-;-;-;-;-;-;-
1513509027750;-;-;3.2949066;1.6689453;-4.258606;-;-;-;-;-;-;-;-;-;-;-;-;-;-;-
1513509027771;-;-;1.3161011;3.0899048;-3.025589;-;-;-;-;-;-;-;-;-;-;-;-;-;-;-
1513509027791;-;-;3.1632233;1.8305664;-1.8895416;-;-;-;-;-;-;-;-;-;-;-;-;-;-;-
1513509027811;-;-;7.0346527;-2.3233795;-2.247467;-;-;-;-;-;-;-;-;-;-;-;-;-;-;-
1513509027831;-;-;8.009094;-4.459015;-2.4809113;-;-;-;-;-;-;-;-;-;-;-;-;-;-;-
1513509027851;-;-;7.142395;-4.875595;-2.0343933;-;-;-;-;-;-;-;-;-;-;-;-;-;-;-
1513509027872;-;-;5.351532;-3.3899994;-1.9984741;-;-;-;-;-;-;-;-;-;-;-;-;-;-;-
1513509027892;-;-;4.9780273;-1.3070374;-2.6197662;-;-;-;-;-;-;-;-;-;-;-;-;-;-;-
1513509027912;-;-;6.2709045;0.88246155;-3.4577484;-;-;-;-;-;-;-;-;-;-;-;-;-;-;-
1513509027933;-;-;8.135986;2.6110687;-3.3667603;-;-;-;-;-;-;-;-;-;-;-;-;-;-;-
1513509027953;-;-;9.658707;2.395584;-2.7466583;-;-;-;-;-;-;-;-;-;-;-;-;-;-;-
1513509027973;-;-;11.463928;0.36410522;-1.6728668;-;-;-;-;-;-;-;-;-;-;-;-;-;-;-
1513509027993;-;-;13.544495;-2.3341522;0.1658783;-;-;-;-;-;-;-;-;-;-;-;-;-;-;-
1513509028014;-;-;10.609192;-3.7718658;-2.0463562;-;-;-;-;-;-;-;-;-;-;-;-;-;-;-
1513509028033;-;-;6.972412;-4.1058655;-8.375427;-;-;-;-;-;-;-;-;-;-;-;-;-;-;-
1513509028053;-;-;5.574188;-2.4694214;-10.405716;-;-;-;-;-;-;-;-;-;-;-;-;-;-;-
1513509028073;-;-;9.230133;2.6374054;-5.381485;-;-;-;-;-;-;-;-;-;-;-;-;-;-;-
1513509028094;-;-;10.760025;5.8827515;-2.1959991;-;-;-;-;-;-;-;-;-;-;-;-;-;-;-
1513509028114;-;-;12.704117;4.9382324;-4.9170074;-;-;-;-;-;-;-;-;-;-;-;-;-;-;-
1513509028135;-;-;18.331696;-1.740387;-6.484009;-;-;-;-;-;-;-;-;-;-;-;-;-;-;-
1513509028155;-;-;19.6521;-6.6951904;-5.8411713;-;-;-;-;-;-;-;-;-;-;-;-;-;-;-
1513509028175;-;-;15.052841;-4.961792;-4.073044;-;-;-;-;-;-;-;-;-;-;-;-;-;-;-
1513509028195;-;-;7.3147736;-1.225647;-2.342041;-;-;-;-;-;-;-;-;-;-;-;-;-;-;-
1513509028216;-;-;3.0734406;0.122299194;-1.2419128;-;-;-;-;-;-;-;-;-;-;-;-;-;-;-
1513509028236;-;-;-0.88056946;0.8381653;-0.7343445;-;-;-;-;-;-;-;-;-;-;-;-;-;-;-
1513509028256;-;-;-2.2907562;0.77471924;-0.31295776;-;-;-;-;-;-;-;-;-;-;-;-;-;-;-
1513509028277;-;-;-0.6399536;0.51016235;-0.1309967;-;-;-;-;-;-;-;-;-;-;-;-;-;-;-
1513509028297;-;-;3.5462952;0.1438446;-0.4817505;-;-;-;-;-;-;-;-;-;-;-;-;-;-;-
1513509028317;-;-;7.9827576;0.08758545;-1.2466888;-;-;-;-;-;-;-;-;-;-;-;-;-;-;-
1513509028338;-;-;11.119156;0.58677673;-2.6006165;-;-;-;-;-;-;-;-;-;-;-;-;-;-;-
1513509028358;-;-;10.995865;1.9538574;-4.7398376;-;-;-;-;-;-;-;-;-;-;-;-;-;-;-
1513509028378;-;-;9.49231;2.6900787;-3.1022034;-;-;-;-;-;-;-;-;-;-;-;-;-;-;-
1513509028398;-;-;7.214218;1.2499695;-0.7702484;-;-;-;-;-;-;-;-;-;-;-;-;-;-;-
1513509028418;-;-;8.017471;-0.39604187;-0.32254028;-;-;-;-;-;-;-;-;-;-;-;-;-;-;-
1513509028438;-;-;7.8151703;-1.0855713;-1.7877808;-;-;-;-;-;-;-;-;-;-;-;-;-;-;-
1513509028458;-;-;5.952469;0.20370483;-10.296783;-;-;-;-;-;-;-;-;-;-;-;-;-;-;-
1513509028478;-;-;7.8726196;-0.36372375;-12.328262;-;-;-;-;-;-;-;-;-;-;-;-;-;-;-
1513509028499;-;-;12.978256;-3.8137665;-6.2422028;-;-;-;-;-;-;-;-;-;-;-;-;-;-;-
1513509028518;-;-;19.59822;-4.941437;-7.599716;-;-;-;-;-;-;-;-;-;-;-;-;-;-;-
1513509028538;-;-;16.895172;-4.412323;-7.038269;-;-;-;-;-;-;-;-;-;-;-;-;-;-;-
1513509028558;-;-;13.66539;0.74838257;-4.515976;-;-;-;-;-;-;-;-;-;-;-;-;-;-;-
1513509028579;-;-;9.82869;4.105057;-4.2334595;-;-;-;-;-;-;-;-;-;-;-;-;-;-;-
1513509028599;-;-;7.126831;2.7140198;-2.1648712;-;-;-;-;-;-;-;-;-;-;-;-;-;-;-
1513509028619;-;-;6.4301147;0.56163025;-2.2223358;-;-;-;-;-;-;-;-;-;-;-;-;-;-;-
1513509028639;-;-;4.007187;-1.779892;-1.7937775;-;-;-;-;-;-;-;-;-;-;-;-;-;-;-
1513509028660;-;-;1.402298;-2.392807;-2.128952;-;-;-;-;-;-;-;-;-;-;-;-;-;-;-
1513509028681;-;-;0.36320496;-1.9031982;-1.243103;-;-;-;-;-;-;-;-;-;-;-;-;-;-;-
1513509028703;-;-;2.3635712;-0.6582184;-0.2507019;-;-;-;-;-;-;-;-;-;-;-;-;-;-;-
1513509028723;-;-;3.9593048;0.71725464;-0.64575195;-;-;-;-;-;-;-;-;-;-;-;-;-;-;-
1513509028743;-;-;5.063034;2.4590302;-0.9641876;-;-;-;-;-;-;-;-;-;-;-;-;-;-;-
1513509028763;-;-;5.861496;3.307785;-1.832077;-;-;-;-;-;-;-;-;-;-;-;-;-;-;-
1513509028784;-;-;6.402588;1.6809235;-2.3324738;-;-;-;-;-;-;-;-;-;-;-;-;-;-;-
1513509028804;-;-;8.175491;-0.23564148;-1.526825;-;-;-;-;-;-;-;-;-;-;-;-;-;-;-
1513509028824;-;-;9.407303;-2.2407837;-0.38598633;-;-;-;-;-;-;-;-;-;-;-;-;-;-;-
1513509028845;-;-;10.4823;-4.3201447;-1.8033447;-;-;-;-;-;-;-;-;-;-;-;-;-;-;-
1513509028865;-;-;9.536591;-3.7180023;-7.3016357;-;-;-;-;-;-;-;-;-;-;-;-;-;-;-
1513509028885;-;-;9.266052;-1.4111938;-7.79364;-;-;-;-;-;-;-;-;-;-;-;-;-;-;-
1513509028905;-;-;9.623978;1.8030243;-6.733017;-;-;-;-;-;-;-;-;-;-;-;-;-;-;-
1513509028926;-;-;12.444351;4.3779907;-2.5802612;-;-;-;-;-;-;-;-;-;-;-;-;-;-;-
1513509028946;-;-;15.668152;5.3416595;-2.737091;-;-;-;-;-;-;-;-;-;-;-;-;-;-;-
1513509028966;-;-;16.753922;5.0256195;-5.18396;-;-;-;-;-;-;-;-;-;-;-;-;-;-;-
1513509028986;-;-;19.74907;2.9067535;-6.136856;-;-;-;-;-;-;-;-;-;-;-;-;-;-;-
1513509029007;-;-;17.85405;-1.6865234;-4.050308;-;-;-;-;-;-;-;-;-;-;-;-;-;-;-
1513509029027;-;-;10.506241;-2.7279968;-2.1193848;-;-;-;-;-;-;-;-;-;-;-;-;-;-;-
1513509029047;-;-;3.82164;-1.5608215;-0.82650757;-;-;-;-;-;-;-;-;-;-;-;-;-;-;-
1513509029068;-;-;0.5044708;0.05166626;-0.551178;-;-;-;-;-;-;-;-;-;-;-;-;-;-;-
1513509029088;-;-;-1.2313232;1.501358;-0.3835907;-;-;-;-;-;-;-;-;-;-;-;-;-;-;-
1513509029108;-;-;-2.6343231;2.229187;0.72732544;-;-;-;-;-;-;-;-;-;-;-;-;-;-;-
1513509029128;-;-;-0.36701965;1.3720703;0.9427948;-;-;-;-;-;-;-;-;-;-;-;-;-;-;-
1513509029149;-;-;2.8831024;-0.41760254;0.5453644;-;-;-;-;-;-;-;-;-;-;-;-;-;-;-
1513509029169;-;-;5.3958282;-1.819397;-0.13458252;-;-;-;-;-;-;-;-;-;-;-;-;-;-;-
1513509029189;-;-;7.3937836;-2.411972;-0.412323;-;-;-;-;-;-;-;-;-;-;-;-;-;-;-
1513509029210;-;-;10.645111;-1.234024;-1.2754211;-;-;-;-;-;-;-;-;-;-;-;-;-;-;-
1513509029229;-;-;11.3526;1.4008026;-3.420639;-;-;-;-;-;-;-;-;-;-;-;-;-;-;-
1513509029249;-;-;10.689407;2.4410858;-6.321213;-;-;-;-;-;-;-;-;-;-;-;-;-;-;-
1513509029270;-;-;7.082535;1.8233795;-7.824768;-;-;-;-;-;-;-;-;-;-;-;-;-;-;-
1513509029290;-;-;6.1440125;-0.30387878;-6.705475;-;-;-;-;-;-;-;-;-;-;-;-;-;-;-
1513509029310;-;-;8.607651;-2.7734985;-8.255722;-;-;-;-;-;-;-;-;-;-;-;-;-;-;-
1513509029330;-;-;12.69574;-3.5168915;-4.9816437;-;-;-;-;-;-;-;-;-;-;-;-;-;-;-
1513509029351;-;-;15.219238;-0.8090515;-3.0830536;-;-;-;-;-;-;-;-;-;-;-;-;-;-;-
1513509029371;-;-;24.351913;-0.08720398;-4.1101685;-;-;-;-;-;-;-;-;-;-;-;-;-;-;-
1513509029391;-;-;27.28003;-3.7227936;-5.9764404;-;-;-;-;-;-;-;-;-;-;-;-;-;-;-
1513509029411;-;-;19.051147;-4.81575;-1.7590485;-;-;-;-;-;-;-;-;-;-;-;-;-;-;-
1513509029432;-;-;10.770813;-3.5803375;-2.084671;-;-;-;-;-;-;-;-;-;-;-;-;-;-;-
1513509029452;-;-;4.2549896;-1.822998;-0.6720886;-;-;-;-;-;-;-;-;-;-;-;-;-;-;-
1513509029472;-;-;-1.2732239;-0.44273376;0.43762207;-;-;-;-;-;-;-;-;-;-;-;-;-;-;-
1513509029493;-;-;-5.3984375;0.3282013;-0.10107422;-;-;-;-;-;-;-;-;-;-;-;-;-;-;-
1513509029513;-;-;-4.5401154;0.51135254;0.8266754;-;-;-;-;-;-;-;-;-;-;-;-;-;-;-
1513509029533;-;-;2.0211945;0.2695465;0.78479004;-;-;-;-;-;-;-;-;-;-;-;-;-;-;-
1513509029554;-;-;7.3686523;0.21806335;-3.0351715;-;-;-;-;-;-;-;-;-;-;-;-;-;-;-
1513509029574;-;-;8.617218;0.52093506;-4.184387;-;-;-;-;-;-;-;-;-;-;-;-;-;-;-
1513509029594;-;-;9.675461;0.35812378;-2.9920654;-;-;-;-;-;-;-;-;-;-;-;-;-;-;-
1513509029615;-;-;10.6271515;0.036102295;-1.3436584;-;-;-;-;-;-;-;-;-;-;-;-;-;-;-
1513509029635;-;-;10.178238;0.1797638;-2.207962;-;-;-;-;-;-;-;-;-;-;-;-;-;-;-
1513509029656;-;-;7.9707794;-1.364502;-1.8584137;-;-;-;-;-;-;-;-;-;-;-;-;-;-;-
1513509029676;-;-;6.699463;-3.989746;-1.7674408;-;-;-;-;-;-;-;-;-;-;-;-;-;-;-
1513509029696;-;-;6.1284485;-6.036789;-5.167206;-;-;-;-;-;-;-;-;-;-;-;-;-;-;-
1513509029717;-;-;8.58609;-2.7914429;-4.8739166;-;-;-;-;-;-;-;-;-;-;-;-;-;-;-
1513509029736;-;-;10.963547;1.6078949;-2.8424377;-;-;-;-;-;-;-;-;-;-;-;-;-;-;-
1513509029756;-;-;14.566818;4.5779114;-3.0854492;-;-;-;-;-;-;-;-;-;-;-;-;-;-;-
1513509029776;-;-;21.718292;6.2622223;-4.725464;-;-;-;-;-;-;-;-;-;-;-;-;-;-;-
1513509029797;-;-;28.551346;3.1198425;-4.186783;-;-;-;-;-;-;-;-;-;-;-;-;-;-;-
1513509029817;-;-;20.344025;-0.4152069;-4.677582;-;-;-;-;-;-;-;-;-;-;-;-;-;-;-
1513509029838;-;-;11.028183;0.67655945;-2.2606354;-;-;-;-;-;-;-;-;-;-;-;-;-;-;-
1513509029861;-;-;4.620102;1.750351;-1.5339966;-;-;-;-;-;-;-;-;-;-;-;-;-;-;-
1513509029881;-;-;-0.35385132;2.3848114;-0.6553345;-;-;-;-;-;-;-;-;-;-;-;-;-;-;-
1513509029901;-;-;-2.257248;2.6230469;0.6171875;-;-;-;-;-;-;-;-;-;-;-;-;-;-;-
1513509029922;-;-;-0.6399536;1.5899353;1.2025757;-;-;-;-;-;-;-;-;-;-;-;-;-;-;-
1513509029942;-;-;1.9326172;-0.33738708;1.0649109;-;-;-;-;-;-;-;-;-;-;-;-;-;-;-
1513509029962;-;-;5.8124084;-2.5280914;0.7859802;-;-;-;-;-;-;-;-;-;-;-;-;-;-;-
1513509029982;-;-;7.8079834;-2.9829865;-1.7746124;-;-;-;-;-;-;-;-;-;-;-;-;-;-;-
1513509030003;-;-;7.008316;-1.6374359;-3.1572723;-;-;-;-;-;-;-;-;-;-;-;-;-;-;-
1513509030023;-;-;7.2345734;-0.42358398;-3.9569397;-;-;-;-;-;-;-;-;-;-;-;-;-;-;-
1513509030044;-;-;8.359848;0.44551086;-1.5339966;-;-;-;-;-;-;-;-;-;-;-;-;-;-;-
1513509030064;-;-;10.79834;1.6629639;0.24249268;-;-;-;-;-;-;-;-;-;-;-;-;-;-;-
1513509030083;-;-;9.365402;3.7040253;-1.7387085;-;-;-;-;-;-;-;-;-;-;-;-;-;-;-
1513509030103;-;-;6.8921967;4.4366455;-6.56781;-;-;-;-;-;-;-;-;-;-;-;-;-;-;-
1513509030123;-;-;3.043518;2.8564758;-7.6727295;-;-;-;-;-;-;-;-;-;-;-;-;-;-;-
1513509030144;-;-;3.7988892;0.21208191;-6.108124;-;-;-;-;-;-;-;-;-;-;-;-;-;-;-
1513509030164;-;-;9.148727;-1.6350555;-5.923767;-;-;-;-;-;-;-;-;-;-;-;-;-;-;-
1513509030184;-;-;13.640259;-1.2196503;-2.4797058;-;-;-;-;-;-;-;-;-;-;-;-;-;-;-
1513509030205;-;-;14.419571;1.1960907;-5.7465973;-;-;-;-;-;-;-;-;-;-;-;-;-;-;-
1513509030225;-;-;28.11081;-1.5608215;0.13356018;-;-;-;-;-;-;-;-;-;-;-;-;-;-;-
1513509030246;-;-;24.383041;-9.040314;-2.172058;-;-;-;-;-;-;-;-;-;-;-;-;-;-;-
1513509030266;-;-;26.398956;-11.47522;1.4012909;-;-;-;-;-;-;-;-;-;-;-;-;-;-;-
1513509030286;-;-;18.419083;-7.4314117;-2.3695831;-;-;-;-;-;-;-;-;-;-;-;-;-;-;-
1513509030306;-;-;7.7936096;-2.526886;-1.0755157;-;-;-;-;-;-;-;-;-;-;-;-;-;-;-
1513509030327;-;-;-0.7596741;-0.6067352;-1.3388672;-;-;-;-;-;-;-;-;-;-;-;-;-;-;-
1513509030347;-;-;-3.2245026;0.2420044;-1.0743103;-;-;-;-;-;-;-;-;-;-;-;-;-;-;-
1513509030367;-;-;-2.3159027;1.5779724;0.08088684;-;-;-;-;-;-;-;-;-;-;-;-;-;-;-
1513509030388;-;-;3.0016174;2.0173035;-1.6201935;-;-;-;-;-;-;-;-;-;-;-;-;-;-;-
1513509030407;-;-;7.0490265;1.611496;-3.753418;-;-;-;-;-;-;-;-;-;-;-;-;-;-;-
1513509030427;-;-;5.7884674;0.6059265;-4.338806;-;-;-;-;-;-;-;-;-;-;-;-;-;-;-
1513509030448;-;-;3.8599396;-0.66300964;-2.8184967;-;-;-;-;-;-;-;-;-;-;-;-;-;-;-
1513509030468;-;-;4.1999207;-1.8074341;-1.1581116;-;-;-;-;-;-;-;-;-;-;-;-;-;-;-
1513509030488;-;-;6.003952;-2.3305664;1.5329742;-;-;-;-;-;-;-;-;-;-;-;-;-;-;-
1513509030508;-;-;8.5633545;-1.7092743;1.6586609;-;-;-;-;-;-;-;-;-;-;-;-;-;-;-
1513509030528;-;-;6.0183105;-2.5017548;1.0529327;-;-;-;-;-;-;-;-;-;-;-;-;-;-;-
1513509030549;-;-;4.9935913;-3.5276642;-4.9684753;-;-;-;-;-;-;-;-;-;-;-;-;-;-;-
1513509030569;-;-;8.447235;-2.3114166;-8.279663;-;-;-;-;-;-;-;-;-;-;-;-;-;-;-
1513509030589;-;-;13.898834;1.9143524;-5.9812317;-;-;-;-;-;-;-;-;-;-;-;-;-;-;-
1513509030610;-;-;21.539932;5.6540985;-4.835602;-;-;-;-;-;-;-;-;-;-;-;-;-;-;-
1513509030630;-;-;22.24263;3.2491302;-4.9098206;-;-;-;-;-;-;-;-;-;-;-;-;-;-;-
1513509030650;-;-;19.966934;1.4510803;-5.429367;-;-;-;-;-;-;-;-;-;-;-;-;-;-;-
1513509030670;-;-;16.289444;-0.09197998;-1.0419922;-;-;-;-;-;-;-;-;-;-;-;-;-;-;-
1513509030691;-;-;12.609558;-0.42237854;-1.7650452;-;-;-;-;-;-;-;-;-;-;-;-;-;-;-
1513509030711;-;-;9.9879;-0.12908936;-1.3292999;-;-;-;-;-;-;-;-;-;-;-;-;-;-;-
1513509030731;-;-;6.869461;0.7364044;-1.1473389;-;-;-;-;-;-;-;-;-;-;-;-;-;-;-
1513509030752;-;-;3.9748688;0.73521423;-1.8739777;-;-;-;-;-;-;-;-;-;-;-;-;-;-;-
1513509030772;-;-;3.5056;0.18933105;-1.1772614;-;-;-;-;-;-;-;-;-;-;-;-;-;-;-
1513509030792;-;-;3.0159912;1.9836426E-4;-0.5224457;-;-;-;-;-;-;-;-;-;-;-;-;-;-;-
1513509030813;-;-;1.5758667;0.16778564;-0.6230011;-;-;-;-;-;-;-;-;-;-;-;-;-;-;-
1513509030833;-;-;2.1516724;0.338974;-0.24472046;-;-;-;-;-;-;-;-;-;-;-;-;-;-;-
1513509030853;-;-;3.7294617;0.16659546;-0.42907715;-;-;-;-;-;-;-;-;-;-;-;-;-;-;-
1513509030874;-;-;5.32399;-0.4666748;-0.9833374;-;-;-;-;-;-;-;-;-;-;-;-;-;-;-
1513509030894;-;-;7.564972;-1.6985016;-2.0331879;-;-;-;-;-;-;-;-;-;-;-;-;-;-;-
1513509030914;-;-;9.477936;-2.2072601;-1.3664093;-;-;-;-;-;-;-;-;-;-;-;-;-;-;-
1513509030935;-;-;9.935226;-0.9586792;-0.3153534;-;-;-;-;-;-;-;-;-;-;-;-;-;-;-
1513509030955;-;-;9.036209;1.3816528;-1.6525116;-;-;-;-;-;-;-;-;-;-;-;-;-;-;-
1513509030976;-;-;8.157532;3.1928558;-5.072632;-;-;-;-;-;-;-;-;-;-;-;-;-;-;-
1513509030996;-;-;6.5031433;2.8073883;-5.8375854;-;-;-;-;-;-;-;-;-;-;-;-;-;-;-
1513509031016;-;-;5.581375;0.83935547;-6.0590363;-;-;-;-;-;-;-;-;-;-;-;-;-;-;-
1513509031036;-;-;6.4049835;-0.838974;-7.2537537;-;-;-;-;-;-;-;-;-;-;-;-;-;-;-
1513509031056;-;-;8.909317;-2.3317566;-5.5694275;-;-;-;-;-;-;-;-;-;-;-;-;-;-;-
1513509031077;-;-;10.934814;-3.7622986;-3.077057;-;-;-;-;-;-;-;-;-;-;-;-;-;-;-
1513509031099;-;-;18.620193;-4.8097534;-2.349228;-;-;-;-;-;-;-;-;-;-;-;-;-;-;-
1513509031118;-;-;27.550568;-6.496475;-1.693222;-;-;-;-;-;-;-;-;-;-;-;-;-;-;-
1513509031138;-;-;28.954773;-5.6130066;-4.389084;-;-;-;-;-;-;-;-;-;-;-;-;-;-;-
1513509031158;-;-;18.496887;-1.8505249;-1.0934601;-;-;-;-;-;-;-;-;-;-;-;-;-;-;-
1513509031179;-;-;10.241684;-0.87249756;0.120391846;-;-;-;-;-;-;-;-;-;-;-;-;-;-;-
1513509031198;-;-;5.339554;-0.46907043;-0.3955536;-;-;-;-;-;-;-;-;-;-;-;-;-;-;-
1513509031218;-;-;2.1229553;-0.5504761;-0.7415161;-;-;-;-;-;-;-;-;-;-;-;-;-;-;-
1513509031238;-;-;-0.2820282;-1.0556488;-1.4047089;-;-;-;-;-;-;-;-;-;-;-;-;-;-;-
1513509031259;-;-;-0.1335907;-1.0640259;-1.7207489;-;-;-;-;-;-;-;-;-;-;-;-;-;-;-
1513509031279;-;-;3.4337769;-1.0508575;-2.428238;-;-;-;-;-;-;-;-;-;-;-;-;-;-;-
1513509031300;-;-;6.117676;-0.63067627;-4.210724;-;-;-;-;-;-;-;-;-;-;-;-;-;-;-
1513509031320;-;-;5.9692383;0.28749084;-3.6636505;-;-;-;-;-;-;-;-;-;-;-;-;-;-;-
1513509031340;-;-;4.5003967;0.13067627;-1.9278412;-;-;-;-;-;-;-;-;-;-;-;-;-;-;-
1513509031361;-;-;4.841568;-1.4375305;-0.24832153;-;-;-;-;-;-;-;-;-;-;-;-;-;-;-
1513509031382;-;-;6.8395233;-1.5081482;-0.11424255;-;-;-;-;-;-;-;-;-;-;-;-;-;-;-
1513509031403;-;-;8.393356;-1.8110199;0.54296875;-;-;-;-;-;-;-;-;-;-;-;-;-;-;-
1513509031423;-;-;8.697433;-3.5671692;0.19102478;-;-;-;-;-;-;-;-;-;-;-;-;-;-;-
1513509031444;-;-;7.653549;-4.747513;-1.045578;-;-;-;-;-;-;-;-;-;-;-;-;-;-;-
1513509031464;-;-;4.7601624;-2.5615997;-4.3328247;-;-;-;-;-;-;-;-;-;-;-;-;-;-;-
1513509031484;-;-;7.414139;0.019348145;-5.6053467;-;-;-;-;-;-;-;-;-;-;-;-;-;-;-
1513509031505;-;-;9.269638;3.0923004;-5.918976;-;-;-;-;-;-;-;-;-;-;-;-;-;-;-
1513509031525;-;-;11.271194;5.1596985;-3.4349976;-;-;-;-;-;-;-;-;-;-;-;-;-;-;-
1513509031545;-;-;16.31099;4.3169403;-0.7103882;-;-;-;-;-;-;-;-;-;-;-;-;-;-;-
1513509031565;-;-;22.255798;2.356079;-2.670044;-;-;-;-;-;-;-;-;-;-;-;-;-;-;-
1513509031586;-;-;29.090042;-0.7276459;-3.1728363;-;-;-;-;-;-;-;-;-;-;-;-;-;-;-
1513509031605;-;-;19.197205;-1.8337708;-0.98213196;-;-;-;-;-;-;-;-;-;-;-;-;-;-;-
1513509031625;-;-;11.264008;-0.5959625;-1.0132599;-;-;-;-;-;-;-;-;-;-;-;-;-;-;-
1513509031646;-;-;4.2944946;1.288269;-2.6772308;-;-;-;-;-;-;-;-;-;-;-;-;-;-;-
1513509031666;-;-;-0.030639648;2.7762756;-2.5587158;-;-;-;-;-;-;-;-;-;-;-;-;-;-;-
1513509031686;-;-;-0.69143677;3.0216675;0.216156;-;-;-;-;-;-;-;-;-;-;-;-;-;-;-
1513509031706;-;-;1.5303802;2.4865723;0.6207886;-;-;-;-;-;-;-;-;-;-;-;-;-;-;-
1513509031727;-;-;3.5570831;1.2703094;-0.9557953;-;-;-;-;-;-;-;-;-;-;-;-;-;-;-
1513509031747;-;-;4.726639;0.02772522;-1.6381531;-;-;-;-;-;-;-;-;-;-;-;-;-;-;-
1513509031768;-;-;5.830368;-1.4566803;-1.3197174;-;-;-;-;-;-;-;-;-;-;-;-;-;-;-
1513509031788;-;-;6.8766327;-2.2407837;-0.8971405;-;-;-;-;-;-;-;-;-;-;-;-;-;-;-
1513509031808;-;-;8.413712;-2.518509;-0.9953003;-;-;-;-;-;-;-;-;-;-;-;-;-;-;-
1513509031828;-;-;10.167465;-2.1773376;-0.6720886;-;-;-;-;-;-;-;-;-;-;-;-;-;-;-
1513509031849;-;-;9.689819;0.02772522;-0.6720886;-;-;-;-;-;-;-;-;-;-;-;-;-;-;-
1513509031868;-;-;7.6739044;2.8145752;-1.2179718;-;-;-;-;-;-;-;-;-;-;-;-;-;-;-
1513509031888;-;-;5.042679;3.6226196;-2.9908752;-;-;-;-;-;-;-;-;-;-;-;-;-;-;-
1513509031909;-;-;3.09021;2.5404358;-3.95932;-;-;-;-;-;-;-;-;-;-;-;-;-;-;-
1513509031928;-;-;4.5123596;-0.93833923;-4.9181976;-;-;-;-;-;-;-;-;-;-;-;-;-;-;-
1513509031948;-;-;8.817139;-3.2942352;-4.641678;-;-;-;-;-;-;-;-;-;-;-;-;-;-;-
1513509031968;-;-;13.792282;-4.9330597;-5.2521973;-;-;-;-;-;-;-;-;-;-;-;-;-;-;-
1513509031989;-;-;17.70082;-5.954193;-3.5104065;-;-;-;-;-;-;-;-;-;-;-;-;-;-;-
1513509032009;-;-;24.101715;-3.7227936;0.46875;-;-;-;-;-;-;-;-;-;-;-;-;-;-;-
1513509032029;-;-;25.224594;-4.5883026;-3.5343628;-;-;-;-;-;-;-;-;-;-;-;-;-;-;-
1513509032049;-;-;19.209167;-0.8569336;-1.3316956;-;-;-;-;-;-;-;-;-;-;-;-;-;-;-
1513509032069;-;-;11.781158;1.6102905;-1.1700745;-;-;-;-;-;-;-;-;-;-;-;-;-;-;-
1513509032090;-;-;6.1667633;2.7128296;-1.7087708;-;-;-;-;-;-;-;-;-;-;-;-;-;-;-
1513509032110;-;-;1.8188782;1.7048645;-1.3592224;-;-;-;-;-;-;-;-;-;-;-;-;-;-;-
1513509032130;-;-;-0.09767151;-0.36013794;-0.2171936;-;-;-;-;-;-;-;-;-;-;-;-;-;-;-
1513509032151;-;-;2.0535126;-2.36409;0.34664917;-;-;-;-;-;-;-;-;-;-;-;-;-;-;-
1513509032171;-;-;5.186325;-3.2068481;-0.7271576;-;-;-;-;-;-;-;-;-;-;-;-;-;-;-
1513509032191;-;-;7.0490265;-3.0153046;-1.8560181;-;-;-;-;-;-;-;-;-;-;-;-;-;-;-
1513509032212;-;-;4.936142;-2.818985;-1.6321564;-;-;-;-;-;-;-;-;-;-;-;-;-;-;-
1513509032232;-;-;3.984436;-2.7818756;-0.63856506;-;-;-;-;-;-;-;-;-;-;-;-;-;-;-
1513509032252;-;-;4.944519;-3.3864136;-0.06636047;-;-;-;-;-;-;-;-;-;-;-;-;-;-;-
1513509032272;-;-;7.4919434;-3.9203186;0.5776825;-;-;-;-;-;-;-;-;-;-;-;-;-;-;-
1513509032293;-;-;9.798767;-3.5839233;1.8585815;-;-;-;-;-;-;-;-;-;-;-;-;-;-;-
1513509032312;-;-;9.626373;-3.4977417;0.4699402;-;-;-;-;-;-;-;-;-;-;-;-;-;-;-
1513509032332;-;-;10.708557;-4.2830353;-0.66371155;-;-;-;-;-;-;-;-;-;-;-;-;-;-;-
1513509032353;-;-;10.18782;-4.3201447;0.15989685;-;-;-;-;-;-;-;-;-;-;-;-;-;-;-
1513509032372;-;-;6.977188;-3.519287;-4.0957947;-;-;-;-;-;-;-;-;-;-;-;-;-;-;-
1513509032392;-;-;8.695038;-0.74560547;-8.599289;-;-;-;-;-;-;-;-;-;-;-;-;-;-;-
1513509032413;-;-;10.967133;2.5344543;-7.4668274;-;-;-;-;-;-;-;-;-;-;-;-;-;-;-
1513509032433;-;-;12.678986;5.7953644;-7.168747;-;-;-;-;-;-;-;-;-;-;-;-;-;-;-
1513509032453;-;-;16.170929;6.897888;-6.2852936;-;-;-;-;-;-;-;-;-;-;-;-;-;-;-
1513509032473;-;-;19.95137;4.346863;-6.7749023;-;-;-;-;-;-;-;-;-;-;-;-;-;-;-
1513509032494;-;-;19.196;-0.124313354;-4.5327454;-;-;-;-;-;-;-;-;-;-;-;-;-;-;-
1513509032514;-;-;15.230011;-3.7108154;-3.4661255;-;-;-;-;-;-;-;-;-;-;-;-;-;-;-
1513509032534;-;-;12.069656;-5.198822;-2.484497;-;-;-;-;-;-;-;-;-;-;-;-;-;-;-
1513509032555;-;-;9.039795;-3.8832092;-2.5682983;-;-;-;-;-;-;-;-;-;-;-;-;-;-;-
1513509032575;-;-;7.1447906;-1.3369751;-2.2402954;-;-;-;-;-;-;-;-;-;-;-;-;-;-;-
1513509032595;-;-;6.2278137;1.0763855;-2.3360596;-;-;-;-;-;-;-;-;-;-;-;-;-;-;-
1513509032616;-;-;3.6444702;1.798233;-2.9417877;-;-;-;-;-;-;-;-;-;-;-;-;-;-;-
1513509032636;-;-;2.114563;0.49220276;-2.1732483;-;-;-;-;-;-;-;-;-;-;-;-;-;-;-
1513509032656;-;-;3.8431854;-0.64505005;-1.322113;-;-;-;-;-;-;-;-;-;-;-;-;-;-;-
1513509032676;-;-;6.1751404;-0.5899811;-1.0156555;-;-;-;-;-;-;-;-;-;-;-;-;-;-;-
1513509032697;-;-;6.4289246;0.14025879;-1.9637604;-;-;-;-;-;-;-;-;-;-;-;-;-;-;-
1513509032717;-;-;6.027893;1.2068634;-2.7023773;-;-;-;-;-;-;-;-;-;-;-;-;-;-;-
1513509032737;-;-;5.7800903;2.0220947;-3.1333313;-;-;-;-;-;-;-;-;-;-;-;-;-;-;-
1513509032758;-;-;8.086899;2.4374847;-3.3428192;-;-;-;-;-;-;-;-;-;-;-;-;-;-;-
1513509032777;-;-;10.965927;2.8672485;-1.9601746;-;-;-;-;-;-;-;-;-;-;-;-;-;-;-
1513509032797;-;-;11.026993;2.3357391;-1.0862885;-;-;-;-;-;-;-;-;-;-;-;-;-;-;-
1513509032818;-;-;11.060501;2.1226501;0.15631104;-;-;-;-;-;-;-;-;-;-;-;-;-;-;-
1513509032837;-;-;10.564911;1.7204285;1.0098419;-;-;-;-;-;-;-;-;-;-;-;-;-;-;-
1513509032857;-;-;9.23613;1.3505249;-2.3133087;-;-;-;-;-;-;-;-;-;-;-;-;-;-;-
1513509032878;-;-;9.260071;1.1769409;-8.374237;-;-;-;-;-;-;-;-;-;-;-;-;-;-;-
1513509032897;-;-;14.466263;-5.183258;-4.6141357;-;-;-;-;-;-;-;-;-;-;-;-;-;-;-
1513509032917;-;-;17.8732;-8.763779;-7.5494385;-;-;-;-;-;-;-;-;-;-;-;-;-;-;-
1513509032937;-;-;15.614273;-11.691895;-5.511963;-;-;-;-;-;-;-;-;-;-;-;-;-;-;-
1513509032958;-;-;11.630325;-8.4309845;-3.9329834;-;-;-;-;-;-;-;-;-;-;-;-;-;-;-
1513509032978;-;-;8.637573;-3.5959015;-4.754196;-;-;-;-;-;-;-;-;-;-;-;-;-;-;-
1513509032999;-;-;6.826355;-0.76475525;-6.6671753;-;-;-;-;-;-;-;-;-;-;-;-;-;-;-
1513509033019;-;-;4.9648743;1.2164459;-5.3443756;-;-;-;-;-;-;-;-;-;-;-;-;-;-;-
1513509033039;-;-;3.8276215;3.517273;-4.2095184;-;-;-;-;-;-;-;-;-;-;-;-;-;-;-
1513509033059;-;-;6.13443;2.9929504;-3.7953186;-;-;-;-;-;-;-;-;-;-;-;-;-;-;-
1513509033080;-;-;7.0142975;0.9494934;-3.3128967;-;-;-;-;-;-;-;-;-;-;-;-;-;-;-
1513509033099;-;-;6.275696;-2.3676758;-1.6704712;-;-;-;-;-;-;-;-;-;-;-;-;-;-;-
1513509033119;-;-;5.1492157;-4.7343445;-1.6321564;-;-;-;-;-;-;-;-;-;-;-;-;-;-;-
1513509033139;-;-;4.7098846;-4.393173;-2.8304596;-;-;-;-;-;-;-;-;-;-;-;-;-;-;-
1513509033159;-;-;5.7130585;-1.8756714;-2.796936;-;-;-;-;-;-;-;-;-;-;-;-;-;-;-
1513509033180;-;-;7.3387146;0.072021484;-2.7263184;-;-;-;-;-;-;-;-;-;-;-;-;-;-;-
1513509033200;-;-;7.928894;2.1944733;-2.9669342;-;-;-;-;-;-;-;-;-;-;-;-;-;-;-
1513509033220;-;-;8.022263;3.4813538;-2.4988708;-;-;-;-;-;-;-;-;-;-;-;-;-;-;-
1513509033240;-;-;12.086426;2.8792267;-1.9122772;-;-;-;-;-;-;-;-;-;-;-;-;-;-;-
1513509033261;-;-;13.402039;1.5157166;-1.7590485;-;-;-;-;-;-;-;-;-;-;-;-;-;-;-
1513509033281;-;-;13.065643;-1.0771942;-2.452179;-;-;-;-;-;-;-;-;-;-;-;-;-;-;-
1513509033301;-;-;10.179443;-3.5432281;-4.3950653;-;-;-;-;-;-;-;-;-;-;-;-;-;-;-
1513509033322;-;-;8.357452;-5.0395966;-6.8263855;-;-;-;-;-;-;-;-;-;-;-;-;-;-;-
1513509033342;-;-;9.746094;-4.396759;-8.924896;-;-;-;-;-;-;-;-;-;-;-;-;-;-;-
1513509033362;-;-;11.073669;-1.9594574;-4.5339355;-;-;-;-;-;-;-;-;-;-;-;-;-;-;-
1513509033383;-;-;9.663483;0.87646484;-4.3507843;-;-;-;-;-;-;-;-;-;-;-;-;-;-;-
1513509033403;-;-;12.43837;0.14982605;-3.832428;-;-;-;-;-;-;-;-;-;-;-;-;-;-;-
1513509033424;-;-;16.92749;-2.870453;-3.685196;-;-;-;-;-;-;-;-;-;-;-;-;-;-;-
1513509033444;-;-;16.057205;-4.092697;-3.8647614;-;-;-;-;-;-;-;-;-;-;-;-;-;-;-
1513509033464;-;-;11.0425415;-2.289856;-3.4900665;-;-;-;-;-;-;-;-;-;-;-;-;-;-;-
1513509033485;-;-;6.4241333;-1.2471924;-2.5730896;-;-;-;-;-;-;-;-;-;-;-;-;-;-;-
1513509033505;-;-;2.5898132;-0.5313263;-2.4425964;-;-;-;-;-;-;-;-;-;-;-;-;-;-;-
1513509033525;-;-;-0.20301819;0.6921234;-2.4892883;-;-;-;-;-;-;-;-;-;-;-;-;-;-;-
1513509033545;-;-;-1.1259766;2.2196198;-1.926651;-;-;-;-;-;-;-;-;-;-;-;-;-;-;-
1513509033566;-;-;1.6273499;3.2431335;-0.7103882;-;-;-;-;-;-;-;-;-;-;-;-;-;-;-
1513509033587;-;-;5.102539;2.7008514;-0.26148987;-;-;-;-;-;-;-;-;-;-;-;-;-;-;-
1513509033606;-;-;8.121628;2.114273;-1.7075806;-;-;-;-;-;-;-;-;-;-;-;-;-;-;-
1513509033626;-;-;9.210983;1.7288055;-3.2446594;-;-;-;-;-;-;-;-;-;-;-;-;-;-;-
1513509033647;-;-;9.679047;0.82618713;-2.4629517;-;-;-;-;-;-;-;-;-;-;-;-;-;-;-
1513509033667;-;-;9.379776;-0.4259796;-2.6676483;-;-;-;-;-;-;-;-;-;-;-;-;-;-;-
1513509033687;-;-;9.147537;-0.8820648;-3.448166;-;-;-;-;-;-;-;-;-;-;-;-;-;-;-
1513509033708;-;-;8.596878;1.0033569;-1.9972839;-;-;-;-;-;-;-;-;-;-;-;-;-;-;-
1513509033727;-;-;6.695877;1.8856201;-6.476837;-;-;-;-;-;-;-;-;-;-;-;-;-;-;-
1513509033747;-;-;7.1519775;2.4626312;-16.976608;-;-;-;-;-;-;-;-;-;-;-;-;-;-;-
1513509033768;-;-;11.898468;-2.4766083;-3.803711;-;-;-;-;-;-;-;-;-;-;-;-;-;-;-
1513509033788;-;-;16.623428;-4.444641;-2.6808167;-;-;-;-;-;-;-;-;-;-;-;-;-;-;-
1513509033808;-;-;16.423523;-6.392334;-6.1428375;-;-;-;-;-;-;-;-;-;-;-;-;-;-;-
1513509033829;-;-;14.924744;-3.737152;-9.728149;-;-;-;-;-;-;-;-;-;-;-;-;-;-;-
1513509033849;-;-;14.600327;1.0775757;-7.2812805;-;-;-;-;-;-;-;-;-;-;-;-;-;-;-
1513509033869;-;-;7.8750153;4.8280945;-2.8340454;-;-;-;-;-;-;-;-;-;-;-;-;-;-;-
1513509033890;-;-;2.789734;6.651291;-1.4573822;-;-;-;-;-;-;-;-;-;-;-;-;-;-;-
1513509033910;-;-;2.7993164;4.73114;-2.3959198;-;-;-;-;-;-;-;-;-;-;-;-;-;-;-
1513509033930;-;-;3.5570831;-0.117126465;-3.089035;-;-;-;-;-;-;-;-;-;-;-;-;-;-;-
1513509033950;-;-;3.8012848;-2.4191437;-2.124176;-;-;-;-;-;-;-;-;-;-;-;-;-;-;-
1513509033971;-;-;3.6121368;-2.4861908;-0.9546051;-;-;-;-;-;-;-;-;-;-;-;-;-;-;-
1513509033991;-;-;4.0215454;-1.3848572;-2.231903;-;-;-;-;-;-;-;-;-;-;-;-;-;-;-
1513509034011;-;-;4.7122803;0.26834106;-3.2171173;-;-;-;-;-;-;-;-;-;-;-;-;-;-;-
1513509034032;-;-;5.0486603;1.8114014;-2.4425964;-;-;-;-;-;-;-;-;-;-;-;-;-;-;-
1513509034052;-;-;4.6572113;2.0304718;-0.49971008;-;-;-;-;-;-;-;-;-;-;-;-;-;-;-
1513509034072;-;-;5.0103607;-0.03691101;0.38615417;-;-;-;-;-;-;-;-;-;-;-;-;-;-;-
1513509034092;-;-;4.537506;-2.032486;-0.35964966;-;-;-;-;-;-;-;-;-;-;-;-;-;-;-
1513509034113;-;-;4.699112;-2.684906;-0.9749603;-;-;-;-;-;-;-;-;-;-;-;-;-;-;-
1513509034133;-;-;6.5342712;-4.219589;-2.2929688;-;-;-;-;-;-;-;-;-;-;-;-;-;-;-
1513509034154;-;-;9.781998;-5.416687;-2.1433258;-;-;-;-;-;-;-;-;-;-;-;-;-;-;-
1513509034174;-;-;9.759262;-3.35289;-7.8977814;-;-;-;-;-;-;-;-;-;-;-;-;-;-;-
1513509034194;-;-;10.397308;-1.0400848;-7.314804;-;-;-;-;-;-;-;-;-;-;-;-;-;-;-
1513509034215;-;-;12.662231;1.516922;-2.9681244;-;-;-;-;-;-;-;-;-;-;-;-;-;-;-
1513509034235;-;-;18.105438;4.173279;-5.081009;-;-;-;-;-;-;-;-;-;-;-;-;-;-;-
1513509034255;-;-;24.937302;4.8592224;-5.954895;-;-;-;-;-;-;-;-;-;-;-;-;-;-;-
1513509034275;-;-;22.884262;5.284195;-8.003128;-;-;-;-;-;-;-;-;-;-;-;-;-;-;-
1513509034295;-;-;15.70166;2.2710876;-4.598572;-;-;-;-;-;-;-;-;-;-;-;-;-;-;-
1513509034316;-;-;9.421677;0.02293396;-0.9797363;-;-;-;-;-;-;-;-;-;-;-;-;-;-;-
1513509034336;-;-;3.3044891;-1.1633911;0.4759369;-;-;-;-;-;-;-;-;-;-;-;-;-;-;-
1513509034356;-;-;-0.73573303;-1.9474945;1.5377655;-;-;-;-;-;-;-;-;-;-;-;-;-;-;-
1513509034377;-;-;-2.1590729;-2.0624084;1.5485382;-;-;-;-;-;-;-;-;-;-;-;-;-;-;-
1513509034397;-;-;-1.5533447;-1.0987396;0.9308319;-;-;-;-;-;-;-;-;-;-;-;-;-;-;-
1513509034418;-;-;1.7147369;0.07081604;-0.49731445;-;-;-;-;-;-;-;-;-;-;-;-;-;-;-
1513509034437;-;-;3.4948273;0.5640259;-1.6309662;-;-;-;-;-;-;-;-;-;-;-;-;-;-;-
1513509034457;-;-;5.4724426;-0.22964478;-2.069107;-;-;-;-;-;-;-;-;-;-;-;-;-;-;-
1513509034478;-;-;7.6499634;-0.76475525;-1.6956024;-;-;-;-;-;-;-;-;-;-;-;-;-;-;-
1513509034498;-;-;9.358231;0.0037841797;-1.9865112;-;-;-;-;-;-;-;-;-;-;-;-;-;-;-
1513509034518;-;-;10.064514;1.7156372;-4.8224335;-;-;-;-;-;-;-;-;-;-;-;-;-;-;-
1513509034539;-;-;10.282394;3.0252686;-6.179947;-;-;-;-;-;-;-;-;-;-;-;-;-;-;-
1513509034558;-;-;7.7457275;3.6537476;-5.7238464;-;-;-;-;-;-;-;-;-;-;-;-;-;-;-
1513509034578;-;-;4.3028717;1.8030243;-6.837158;-;-;-;-;-;-;-;-;-;-;-;-;-;-;-
1513509034598;-;-;6.8036194;-1.1047363;-7.7242126;-;-;-;-;-;-;-;-;-;-;-;-;-;-;-
1513509034619;-;-;12.65863;-3.9526367;-9.075729;-;-;-;-;-;-;-;-;-;-;-;-;-;-;-
1513509034639;-;-;23.416977;-4.151352;0.32987976;-;-;-;-;-;-;-;-;-;-;-;-;-;-;-
1513509034659;-;-;28.46994;-6.8580017;-2.1576843;-;-;-;-;-;-;-;-;-;-;-;-;-;-;-
1513509034680;-;-;28.809921;-5.669281;-8.87941;-;-;-;-;-;-;-;-;-;-;-;-;-;-;-
1513509034700;-;-;18.828491;-1.2555695;-2.2139587;-;-;-;-;-;-;-;-;-;-;-;-;-;-;-
1513509034721;-;-;8.853058;0.73161316;1.0996246;-;-;-;-;-;-;-;-;-;-;-;-;-;-;-
1513509034741;-;-;1.462143;1.3445435;0.73091125;-;-;-;-;-;-;-;-;-;-;-;-;-;-;-
1513509034761;-;-;-2.499054;0.9794159;-1.4705505;-;-;-;-;-;-;-;-;-;-;-;-;-;-;-
1513509034781;-;-;-1.755661;-0.2272644;-0.88038635;-;-;-;-;-;-;-;-;-;-;-;-;-;-;-
1513509034802;-;-;2.892685;-2.0217133;-1.2574768;-;-;-;-;-;-;-;-;-;-;-;-;-;-;-
1513509034822;-;-;7.1280212;-2.360489;-2.247467;-;-;-;-;-;-;-;-;-;-;-;-;-;-;-
1513509034842;-;-;8.253296;-2.1916962;-2.9561615;-;-;-;-;-;-;-;-;-;-;-;-;-;-;-
1513509034862;-;-;6.7138367;-1.6625824;-2.1888123;-;-;-;-;-;-;-;-;-;-;-;-;-;-;-
1513509034882;-;-;4.944519;-1.404007;-0.77983093;-;-;-;-;-;-;-;-;-;-;-;-;-;-;-
1513509034903;-;-;4.739807;-1.4614716;0.48910522;-;-;-;-;-;-;-;-;-;-;-;-;-;-;-
1513509034923;-;-;5.2545624;-0.9084015;0.12397766;-;-;-;-;-;-;-;-;-;-;-;-;-;-;-
1513509034944;-;-;6.5821533;-0.5923767;-1.0048828;-;-;-;-;-;-;-;-;-;-;-;-;-;-;-
1513509034964;-;-;6.888611;-2.1797333;-1.7865906;-;-;-;-;-;-;-;-;-;-;-;-;-;-;-
1513509034984;-;-;7.007126;-3.2571259;-2.9214478;-;-;-;-;-;-;-;-;-;-;-;-;-;-;-
1513509035004;-;-;5.663971;-1.4219666;-4.3567657;-;-;-;-;-;-;-;-;-;-;-;-;-;-;-
1513509035025;-;-;6.1679535;1.200882;-6.5773926;-;-;-;-;-;-;-;-;-;-;-;-;-;-;-
1513509035045;-;-;9.699402;3.0348358;-6.1392517;-;-;-;-;-;-;-;-;-;-;-;-;-;-;-
1513509035065;-;-;15.4179535;3.0839233;-4.617737;-;-;-;-;-;-;-;-;-;-;-;-;-;-;-
1513509035086;-;-;22.290512;-0.27633667;-4.338806;-;-;-;-;-;-;-;-;-;-;-;-;-;-;-
1513509035106;-;-;34.19687;-0.7480011;-4.8894806;-;-;-;-;-;-;-;-;-;-;-;-;-;-;-
1513509035126;-;-;25.601685;-1.2040863;-5.5095673;-;-;-;-;-;-;-;-;-;-;-;-;-;-;-
1513509035147;-;-;12.086426;-0.783905;-2.036789;-;-;-;-;-;-;-;-;-;-;-;-;-;-;-
1513509035167;-;-;5.1276703;0.34136963;-2.2750092;-;-;-;-;-;-;-;-;-;-;-;-;-;-;-
1513509035187;-;-;-0.5812988;1.1625824;-0.867218;-;-;-;-;-;-;-;-;-;-;-;-;-;-;-
1513509035208;-;-;-2.981491;1.4271393;-0.26268005;-;-;-;-;-;-;-;-;-;-;-;-;-;-;-
1513509035228;-;-;-3.5477142;1.3960114;1.4551544;-;-;-;-;-;-;-;-;-;-;-;-;-;-;-
1513509035248;-;-;0.6672821;1.5384674;0.4507904;-;-;-;-;-;-;-;-;-;-;-;-;-;-;-
1513509035269;-;-;2.4282074;1.2942505;-1.8332825;-;-;-;-;-;-;-;-;-;-;-;-;-;-;-
1513509035289;-;-;3.4792633;-0.10874939;-2.3552094;-;-;-;-;-;-;-;-;-;-;-;-;-;-;-
1513509035309;-;-;5.426941;-1.4530945;-1.8117218;-;-;-;-;-;-;-;-;-;-;-;-;-;-;-
1513509035330;-;-;8.420898;-1.6637726;-1.5256195;-;-;-;-;-;-;-;-;-;-;-;-;-;-;-
1513509035350;-;-;11.557297;-0.5756073;-1.1293793;-;-;-;-;-;-;-;-;-;-;-;-;-;-;-
1513509035370;-;-;10.95755;1.6270447;-1.737503;-;-;-;-;-;-;-;-;-;-;-;-;-;-;-
1513509035391;-;-;8.906921;4.368408;-4.593796;-;-;-;-;-;-;-;-;-;-;-;-;-;-;-
1513509035411;-;-;5.0486603;3.9781647;-5.2845154;-;-;-;-;-;-;-;-;-;-;-;-;-;-;-
1513509035431;-;-;1.0359802;0.90400696;-5.6496277;-;-;-;-;-;-;-;-;-;-;-;-;-;-;-
1513509035452;-;-;1.2969513;-3.3193665;-6.7665253;-;-;-;-;-;-;-;-;-;-;-;-;-;-;-
1513509035471;-;-;4.7493896;-6.116989;-7.468033;-;-;-;-;-;-;-;-;-;-;-;-;-;-;-
1513509035492;-;-;13.32782;-5.1545258;-4.8942566;-;-;-;-;-;-;-;-;-;-;-;-;-;-;-
1513509035512;-;-;27.321915;-1.783493;-3.267395;-;-;-;-;-;-;-;-;-;-;-;-;-;-;-
1513509035532;-;-;32.17018;-0.47505188;-9.11763;-;-;-;-;-;-;-;-;-;-;-;-;-;-;-
1513509035552;-;-;32.516144;-3.656952;-3.9437714;-;-;-;-;-;-;-;-;-;-;-;-;-;-;-
1513509035572;-;-;16.753922;-2.8932037;-0.8863678;-;-;-;-;-;-;-;-;-;-;-;-;-;-;-
1513509035592;-;-;8.068954;-2.2024689;0.4388275;-;-;-;-;-;-;-;-;-;-;-;-;-;-;-
1513509035613;-;-;1.4214478;-0.8270111;0.90449524;-;-;-;-;-;-;-;-;-;-;-;-;-;-;-
1513509035633;-;-;-2.689392;-0.25479126;-2.1181793;-;-;-;-;-;-;-;-;-;-;-;-;-;-;-
1513509035653;-;-;-1.2241516;-1.0616302;-3.231491;-;-;-;-;-;-;-;-;-;-;-;-;-;-;-
1513509035673;-;-;2.296524;-1.6949005;-1.4035187;-;-;-;-;-;-;-;-;-;-;-;-;-;-;-
1513509035694;-;-;8.442444;-1.0975494;-2.562317;-;-;-;-;-;-;-;-;-;-;-;-;-;-;-
1513509035715;-;-;8.400543;0.15222168;-4.6057587;-;-;-;-;-;-;-;-;-;-;-;-;-;-;-
1513509035735;-;-;6.0961304;0.71606445;-3.3428192;-;-;-;-;-;-;-;-;-;-;-;-;-;-;-
1513509035755;-;-;5.0127563;0.088775635;-1.650116;-;-;-;-;-;-;-;-;-;-;-;-;-;-;-
1513509035775;-;-;6.402588;-1.6422272;-0.008895874;-;-;-;-;-;-;-;-;-;-;-;-;-;-;-
1513509035796;-;-;7.588913;-1.7583466;-0.5571594;-;-;-;-;-;-;-;-;-;-;-;-;-;-;-
1513509035816;-;-;6.9664154;-2.511322;-1.3831635;-;-;-;-;-;-;-;-;-;-;-;-;-;-;-
1513509035836;-;-;5.5035553;-4.4626007;-2.594635;-;-;-;-;-;-;-;-;-;-;-;-;-;-;-
1513509035857;-;-;3.8934631;-4.81575;-4.551895;-;-;-;-;-;-;-;-;-;-;-;-;-;-;-
1513509035877;-;-;5.018738;-1.9846039;-4.7422333;-;-;-;-;-;-;-;-;-;-;-;-;-;-;-
1513509035897;-;-;8.548981;0.96984863;-3.0423431;-;-;-;-;-;-;-;-;-;-;-;-;-;-;-
1513509035918;-;-;12.386887;3.4669952;-5.6448517;-;-;-;-;-;-;-;-;-;-;-;-;-;-;-
1513509035938;-;-;28.967941;8.639664;-4.914612;-;-;-;-;-;-;-;-;-;-;-;-;-;-;-
1513509035958;-;-;34.53804;8.237442;-3.3739471;-;-;-;-;-;-;-;-;-;-;-;-;-;-;-
1513509035978;-;-;21.500427;-2.0420685;-2.9824982;-;-;-;-;-;-;-;-;-;-;-;-;-;-;-
1513509035999;-;-;11.196976;-5.432251;-2.5371704;-;-;-;-;-;-;-;-;-;-;-;-;-;-;-
1513509036019;-;-;3.8012848;-4.2674713;-0.38238525;-;-;-;-;-;-;-;-;-;-;-;-;-;-;-
1513509036039;-;-;-0.40293884;-0.16381836;0.44839478;-;-;-;-;-;-;-;-;-;-;-;-;-;-;-
1513509036060;-;-;-1.2409058;2.7990112;0.52381897;-;-;-;-;-;-;-;-;-;-;-;-;-;-;-
1513509036080;-;-;2.1265411;4.016464;-1.3065491;-;-;-;-;-;-;-;-;-;-;-;-;-;-;-
1513509036100;-;-;5.253372;2.2351837;-1.0108643;-;-;-;-;-;-;-;-;-;-;-;-;-;-;-
1513509036120;-;-;7.233368;-0.31225586;-0.6397705;-;-;-;-;-;-;-;-;-;-;-;-;-;-;-
1513509036140;-;-;6.76651;-1.1346588;-1.4095001;-;-;-;-;-;-;-;-;-;-;-;-;-;-;-
1513509036161;-;-;5.231827;-0.85214233;-1.274231;-;-;-;-;-;-;-;-;-;-;-;-;-;-;-
1513509036181;-;-;4.7517853;-0.70729065;-0.27464294;-;-;-;-;-;-;-;-;-;-;-;-;-;-;-
1513509036201;-;-;5.9452972;0.08279419;-1.574707;-;-;-;-;-;-;-;-;-;-;-;-;-;-;-
1513509036222;-;-;6.6659546;1.3002472;-3.370346;-;-;-;-;-;-;-;-;-;-;-;-;-;-;-
1513509036242;-;-;7.762497;1.956253;-0.9151001;-;-;-;-;-;-;-;-;-;-;-;-;-;-;-
1513509036262;-;-;7.4835663;2.0292816;-0.123809814;-;-;-;-;-;-;-;-;-;-;-;-;-;-;-
