TimeStamp[ms];Prox[Cm];Lux[lux];AccX[m/s^2];AccY[m/s^2];AccZ[m/s^2];GyroX[rad/s];GyroY[rad/s];GyroZ[rad/s];MagnX[uT];MagnY[uT];MagnZ[uT];OrienYaw[degrees];OrienPitch[degrees];OrienRoll[degrees];Press[Pa];Temp[C°];Batt[%];Lat;Lng;Speed[m/s]
1513509060634;-;-;8.728546;-1.7499695;-1.550766;-;-;-;-;-;-;-;-;-;-;-;-;-;-;-
1513509060634;-;-;8.690247;-1.8062286;-1.4657593;-;-;-;-;-;-;-;-;-;-;-;-;-;-;-
1513509060648;-;-;8.715378;-1.8325653;-1.4059143;-;-;-;-;-;-;-;-;-;-;-;-;-;-;-
1513509060668;-;-;8.801575;-1.9462891;-1.3209229;-;-;-;-;-;-;-;-;-;-;-;-;-;-;-
1513509060688;-;-;8.729752;-2.0660095;-1.3544312;-;-;-;-;-;-;-;-;-;-;-;-;-;-;-
1513509060709;-;-;8.911713;-2.1186829;-1.3675995;-;-;-;-;-;-;-;-;-;-;-;-;-;-;-
1513509060729;-;-;8.967972;-2.0229034;-1.5304108;-;-;-;-;-;-;-;-;-;-;-;-;-;-;-
1513509060750;-;-;8.997894;-1.8756714;-1.5890656;-;-;-;-;-;-;-;-;-;-;-;-;-;-;-
1513509060770;-;-;8.808762;-1.9953766;-1.3316956;-;-;-;-;-;-;-;-;-;-;-;-;-;-;-
1513509060790;-;-;9.17746;-2.4035797;-1.3592224;-;-;-;-;-;-;-;-;-;-;-;-;-;-;-
1513509060811;-;-;9.352234;-1.9953766;-1.4645691;-;-;-;-;-;-;-;-;-;-;-;-;-;-;-
1513509060830;-;-;9.159515;-1.8517303;-1.3209229;-;-;-;-;-;-;-;-;-;-;-;-;-;-;-
1513509060850;-;-;8.732147;-1.9869995;-1.535202;-;-;-;-;-;-;-;-;-;-;-;-;-;-;-
1513509060870;-;-;7.8786163;-1.7894745;-2.3396454;-;-;-;-;-;-;-;-;-;-;-;-;-;-;-
1513509060891;-;-;9.23851;-1.8517303;-1.1748657;-;-;-;-;-;-;-;-;-;-;-;-;-;-;-
1513509060912;-;-;8.674683;-1.5548401;-1.535202;-;-;-;-;-;-;-;-;-;-;-;-;-;-;-
1513509060931;-;-;8.857834;-1.0508575;-1.7087708;-;-;-;-;-;-;-;-;-;-;-;-;-;-;-
1513509060951;-;-;9.4133;-1.0077667;-1.6094208;-;-;-;-;-;-;-;-;-;-;-;-;-;-;-
1513509060973;-;-;9.300766;-1.364502;-1.471756;-;-;-;-;-;-;-;-;-;-;-;-;-;-;-
1513509060993;-;-;9.137955;-1.7703247;-1.5196381;-;-;-;-;-;-;-;-;-;-;-;-;-;-;-
1513509061013;-;-;8.859039;-2.214447;-1.3640137;-;-;-;-;-;-;-;-;-;-;-;-;-;-;-
1513509061033;-;-;9.401321;-2.5340729;-1.9494019;-;-;-;-;-;-;-;-;-;-;-;-;-;-;-
1513509061054;-;-;9.254074;-2.5412598;-0.14775085;-;-;-;-;-;-;-;-;-;-;-;-;-;-;-
1513509061074;-;-;8.945221;-2.4059753;-0.89834595;-;-;-;-;-;-;-;-;-;-;-;-;-;-;-
1513509061094;-;-;8.422089;-2.0600128;-1.5339966;-;-;-;-;-;-;-;-;-;-;-;-;-;-;-
1513509061115;-;-;8.491531;-1.8900299;-1.3508453;-;-;-;-;-;-;-;-;-;-;-;-;-;-;-
1513509061135;-;-;8.592087;-1.3764801;-0.9450226;-;-;-;-;-;-;-;-;-;-;-;-;-;-;-
1513509061155;-;-;8.219788;-2.7615204;-1.2419128;-;-;-;-;-;-;-;-;-;-;-;-;-;-;-
1513509061175;-;-;9.901718;-3.028473;-0.97135925;-;-;-;-;-;-;-;-;-;-;-;-;-;-;-
1513509061196;-;-;9.143951;-2.2168427;-1.3759766;-;-;-;-;-;-;-;-;-;-;-;-;-;-;-
1513509061216;-;-;8.627991;-1.4291534;-1.634552;-;-;-;-;-;-;-;-;-;-;-;-;-;-;-
1513509061236;-;-;8.528641;-1.3824615;-1.1257935;-;-;-;-;-;-;-;-;-;-;-;-;-;-;-
1513509061256;-;-;9.033813;-1.8864441;-1.1305847;-;-;-;-;-;-;-;-;-;-;-;-;-;-;-
1513509061277;-;-;9.604828;-2.289856;-1.4418182;-;-;-;-;-;-;-;-;-;-;-;-;-;-;-
1513509061297;-;-;10.135147;-3.1517792;-1.0958557;-;-;-;-;-;-;-;-;-;-;-;-;-;-;-
1513509061317;-;-;9.833481;-3.502533;0.16468811;-;-;-;-;-;-;-;-;-;-;-;-;-;-;-
1513509061338;-;-;9.65271;-3.498932;0.73928833;-;-;-;-;-;-;-;-;-;-;-;-;-;-;-
1513509061358;-;-;8.830307;-4.51886;-1.7937775;-;-;-;-;-;-;-;-;-;-;-;-;-;-;-
1513509061378;-;-;9.869385;-5.2670593;-6.001587;-;-;-;-;-;-;-;-;-;-;-;-;-;-;-
1513509061399;-;-;12.130707;-3.1493835;-3.5319672;-;-;-;-;-;-;-;-;-;-;-;-;-;-;-
1513509061418;-;-;14.187332;-0.102752686;-1.6680756;-;-;-;-;-;-;-;-;-;-;-;-;-;-;-
1513509061438;-;-;8.8207245;-0.23443604;-5.488022;-;-;-;-;-;-;-;-;-;-;-;-;-;-;-
1513509061459;-;-;9.896927;-0.062057495;-4.627304;-;-;-;-;-;-;-;-;-;-;-;-;-;-;-
1513509061479;-;-;9.293579;0.3174286;-2.389923;-;-;-;-;-;-;-;-;-;-;-;-;-;-;-
1513509061499;-;-;8.016281;-0.06086731;-3.0148163;-;-;-;-;-;-;-;-;-;-;-;-;-;-;-
1513509061520;-;-;5.9309235;0.81062317;-3.1141663;-;-;-;-;-;-;-;-;-;-;-;-;-;-;-
1513509061540;-;-;9.099655;-0.68933105;-2.5252075;-;-;-;-;-;-;-;-;-;-;-;-;-;-;-
1513509061560;-;-;10.78038;-0.44033813;-3.0267792;-;-;-;-;-;-;-;-;-;-;-;-;-;-;-
1513509061580;-;-;12.641876;0.8273926;-3.1141663;-;-;-;-;-;-;-;-;-;-;-;-;-;-;-
1513509061600;-;-;8.392166;0.11392212;-2.3863373;-;-;-;-;-;-;-;-;-;-;-;-;-;-;-
1513509061620;-;-;7.734955;0.046875;-1.6680756;-;-;-;-;-;-;-;-;-;-;-;-;-;-;-
1513509061640;-;-;6.9736023;0.0181427;-1.8189087;-;-;-;-;-;-;-;-;-;-;-;-;-;-;-
1513509061661;-;-;7.0298615;0.91238403;-2.685608;-;-;-;-;-;-;-;-;-;-;-;-;-;-;-
1513509061681;-;-;7.5685577;0.37608337;-2.484497;-;-;-;-;-;-;-;-;-;-;-;-;-;-;-
1513509061701;-;-;8.079727;0.5819855;-0.9294586;-;-;-;-;-;-;-;-;-;-;-;-;-;-;-
1513509061722;-;-;7.590103;-0.045303345;-1.4992828;-;-;-;-;-;-;-;-;-;-;-;-;-;-;-
1513509061742;-;-;7.7577057;-0.4774475;-0.456604;-;-;-;-;-;-;-;-;-;-;-;-;-;-;-
1513509061762;-;-;7.0023346;0.4359436;-0.46499634;-;-;-;-;-;-;-;-;-;-;-;-;-;-;-
1513509061783;-;-;8.341888;-0.0105896;0.08088684;-;-;-;-;-;-;-;-;-;-;-;-;-;-;-
1513509061802;-;-;7.6942596;-0.3397827;-0.451828;-;-;-;-;-;-;-;-;-;-;-;-;-;-;-
1513509061822;-;-;7.699051;0.081588745;-1.9158783;-;-;-;-;-;-;-;-;-;-;-;-;-;-;-
1513509061843;-;-;9.5354;-1.6338501;-2.6963806;-;-;-;-;-;-;-;-;-;-;-;-;-;-;-
1513509061863;-;-;9.616806;-0.3972473;-0.8312988;-;-;-;-;-;-;-;-;-;-;-;-;-;-;-
1513509061883;-;-;9.603638;0.18214417;-0.0029144287;-;-;-;-;-;-;-;-;-;-;-;-;-;-;-
1513509061903;-;-;9.73053;-0.6546173;0.14672852;-;-;-;-;-;-;-;-;-;-;-;-;-;-;-
1513509061924;-;-;7.2118225;-1.6937103;-4.1065674;-;-;-;-;-;-;-;-;-;-;-;-;-;-;-
1513509061944;-;-;5.4197693;-3.2367706;-10.32312;-;-;-;-;-;-;-;-;-;-;-;-;-;-;-
1513509061964;-;-;7.995926;-5.0946655;-4.385498;-;-;-;-;-;-;-;-;-;-;-;-;-;-;-
1513509061985;-;-;15.889603;-6.1457214;-3.1249542;-;-;-;-;-;-;-;-;-;-;-;-;-;-;-
1513509062005;-;-;21.106567;-6.3899384;-5.860321;-;-;-;-;-;-;-;-;-;-;-;-;-;-;-
1513509062025;-;-;14.660187;-3.3121796;-3.369156;-;-;-;-;-;-;-;-;-;-;-;-;-;-;-
1513509062046;-;-;13.39006;1.7335968;-4.244232;-;-;-;-;-;-;-;-;-;-;-;-;-;-;-
1513509062065;-;-;7.228592;1.4355164;-1.6405487;-;-;-;-;-;-;-;-;-;-;-;-;-;-;-
1513509062085;-;-;9.151123;-1.664978;-1.4059143;-;-;-;-;-;-;-;-;-;-;-;-;-;-;-
1513509062106;-;-;5.726227;-3.021286;-0.8325043;-;-;-;-;-;-;-;-;-;-;-;-;-;-;-
1513509062126;-;-;4.793686;-3.060791;-2.1229706;-;-;-;-;-;-;-;-;-;-;-;-;-;-;-
1513509062146;-;-;4.580597;-3.227188;-2.1313477;-;-;-;-;-;-;-;-;-;-;-;-;-;-;-
1513509062166;-;-;4.7098846;-2.5532227;-1.48732;-;-;-;-;-;-;-;-;-;-;-;-;-;-;-
1513509062187;-;-;4.656021;-2.0133362;-1.6010437;-;-;-;-;-;-;-;-;-;-;-;-;-;-;-
1513509062206;-;-;4.4094086;-1.0472717;-2.2139587;-;-;-;-;-;-;-;-;-;-;-;-;-;-;-
1513509062226;-;-;4.5602417;-0.19732666;-2.6401215;-;-;-;-;-;-;-;-;-;-;-;-;-;-;-
1513509062247;-;-;6.771286;0.43832397;-3.3069;-;-;-;-;-;-;-;-;-;-;-;-;-;-;-
1513509062267;-;-;8.298798;0.7902832;-2.8017273;-;-;-;-;-;-;-;-;-;-;-;-;-;-;-
1513509062288;-;-;8.92009;0.5843811;-1.6489258;-;-;-;-;-;-;-;-;-;-;-;-;-;-;-
1513509062308;-;-;9.009872;-1.2747192;-1.0886841;-;-;-;-;-;-;-;-;-;-;-;-;-;-;-
1513509062328;-;-;10.406891;-3.364853;-1.1760712;-;-;-;-;-;-;-;-;-;-;-;-;-;-;-
1513509062348;-;-;12.285141;-4.554779;-0.7917938;-;-;-;-;-;-;-;-;-;-;-;-;-;-;-
1513509062369;-;-;12.714905;-4.1549377;-1.2000122;-;-;-;-;-;-;-;-;-;-;-;-;-;-;-
1513509062389;-;-;11.753632;-3.5240784;-0.059173584;-;-;-;-;-;-;-;-;-;-;-;-;-;-;-
1513509062409;-;-;11.466324;-2.748352;1.4683228;-;-;-;-;-;-;-;-;-;-;-;-;-;-;-
1513509062430;-;-;12.358154;-2.0791779;0.93681335;-;-;-;-;-;-;-;-;-;-;-;-;-;-;-
1513509062450;-;-;10.512238;-1.8469391;-3.6085815;-;-;-;-;-;-;-;-;-;-;-;-;-;-;-
1513509062470;-;-;8.867416;-3.0320587;-7.646393;-;-;-;-;-;-;-;-;-;-;-;-;-;-;-
1513509062490;-;-;9.981918;-4.690048;-3.930603;-;-;-;-;-;-;-;-;-;-;-;-;-;-;-
1513509062511;-;-;10.033386;-5.1222076;-2.9920654;-;-;-;-;-;-;-;-;-;-;-;-;-;-;-
1513509062531;-;-;8.853058;-2.3700714;-3.724701;-;-;-;-;-;-;-;-;-;-;-;-;-;-;-
1513509062551;-;-;7.6391907;-0.04888916;-4.500412;-;-;-;-;-;-;-;-;-;-;-;-;-;-;-
1513509062572;-;-;7.197464;0.5855713;-4.3687286;-;-;-;-;-;-;-;-;-;-;-;-;-;-;-
1513509062592;-;-;8.24971;-0.25;-2.915451;-;-;-;-;-;-;-;-;-;-;-;-;-;-;-
1513509062612;-;-;9.776016;-2.1162872;-2.7478638;-;-;-;-;-;-;-;-;-;-;-;-;-;-;-
1513509062633;-;-;11.653076;-3.1170654;-2.65448;-;-;-;-;-;-;-;-;-;-;-;-;-;-;-
1513509062653;-;-;13.07283;-2.8058167;-3.4421844;-;-;-;-;-;-;-;-;-;-;-;-;-;-;-
1513509062673;-;-;11.564484;-1.3872528;-3.9892578;-;-;-;-;-;-;-;-;-;-;-;-;-;-;-
1513509062694;-;-;8.88298;0.21687317;-4.362747;-;-;-;-;-;-;-;-;-;-;-;-;-;-;-
1513509062713;-;-;5.5789795;1.240387;-4.2885284;-;-;-;-;-;-;-;-;-;-;-;-;-;-;-
1513509062734;-;-;2.9286041;1.8987885;-3.8587646;-;-;-;-;-;-;-;-;-;-;-;-;-;-;-
1513509062754;-;-;1.9781036;1.8126068;-2.8747559;-;-;-;-;-;-;-;-;-;-;-;-;-;-;-
1513509062775;-;-;4.15683;1.2894745;-2.1947937;-;-;-;-;-;-;-;-;-;-;-;-;-;-;-
1513509062795;-;-;7.648773;1.4043884;-2.0595245;-;-;-;-;-;-;-;-;-;-;-;-;-;-;-
1513509062815;-;-;8.782425;1.4367065;-2.1576843;-;-;-;-;-;-;-;-;-;-;-;-;-;-;-
1513509062835;-;-;9.029022;1.2511597;-1.5603333;-;-;-;-;-;-;-;-;-;-;-;-;-;-;-
1513509062855;-;-;8.813553;0.9195709;-1.1664886;-;-;-;-;-;-;-;-;-;-;-;-;-;-;-
1513509062876;-;-;8.138382;0.63105774;-0.96058655;-;-;-;-;-;-;-;-;-;-;-;-;-;-;-
1513509062896;-;-;8.005508;0.7950592;-1.0551605;-;-;-;-;-;-;-;-;-;-;-;-;-;-;-
1513509062916;-;-;8.616028;1.2930603;-1.0802917;-;-;-;-;-;-;-;-;-;-;-;-;-;-;-
1513509062937;-;-;9.71376;1.3864288;-0.6828613;-;-;-;-;-;-;-;-;-;-;-;-;-;-;-
1513509062957;-;-;10.703766;0.20249939;-1.2861938;-;-;-;-;-;-;-;-;-;-;-;-;-;-;-
1513509062977;-;-;11.514206;0.019348145;-0.4338684;-;-;-;-;-;-;-;-;-;-;-;-;-;-;-
1513509062998;-;-;11.759613;0.29588318;0.8338623;-;-;-;-;-;-;-;-;-;-;-;-;-;-;-
1513509063018;-;-;9.795166;-0.38887024;-0.26626587;-;-;-;-;-;-;-;-;-;-;-;-;-;-;-
1513509063038;-;-;8.819534;0.072021484;-4.6644135;-;-;-;-;-;-;-;-;-;-;-;-;-;-;-
1513509063059;-;-;7.003525;1.185318;-9.108063;-;-;-;-;-;-;-;-;-;-;-;-;-;-;-
1513509063079;-;-;8.44603;-0.5636444;-9.066162;-;-;-;-;-;-;-;-;-;-;-;-;-;-;-
1513509063099;-;-;11.041351;-3.2547302;-8.101303;-;-;-;-;-;-;-;-;-;-;-;-;-;-;-
1513509063119;-;-;14.631454;-5.5495605;-4.760193;-;-;-;-;-;-;-;-;-;-;-;-;-;-;-
1513509063140;-;-;13.502594;-2.2072601;-5.015167;-;-;-;-;-;-;-;-;-;-;-;-;-;-;-
1513509063160;-;-;12.683777;1.3600922;-2.7418823;-;-;-;-;-;-;-;-;-;-;-;-;-;-;-
1513509063181;-;-;9.96875;2.5488129;-1.9841156;-;-;-;-;-;-;-;-;-;-;-;-;-;-;-
1513509063201;-;-;5.3958282;1.5851593;-0.4159088;-;-;-;-;-;-;-;-;-;-;-;-;-;-;-
1513509063221;-;-;4.137665;-0.08958435;-0.85165405;-;-;-;-;-;-;-;-;-;-;-;-;-;-;-
1513509063242;-;-;5.042679;-1.9857941;-2.1014252;-;-;-;-;-;-;-;-;-;-;-;-;-;-;-
1513509063261;-;-;6.082962;-3.3935852;-1.9757233;-;-;-;-;-;-;-;-;-;-;-;-;-;-;-
1513509063281;-;-;6.2302094;-3.7084198;-1.4681549;-;-;-;-;-;-;-;-;-;-;-;-;-;-;-
1513509063301;-;-;6.5354614;-2.7148285;-1.6944122;-;-;-;-;-;-;-;-;-;-;-;-;-;-;-
1513509063322;-;-;6.6372223;-1.0173492;-2.2438812;-;-;-;-;-;-;-;-;-;-;-;-;-;-;-
1513509063342;-;-;8.025848;1.0368805;-2.4473877;-;-;-;-;-;-;-;-;-;-;-;-;-;-;-
1513509063362;-;-;9.57251;2.311798;-2.6173706;-;-;-;-;-;-;-;-;-;-;-;-;-;-;-
1513509063382;-;-;8.819534;2.0244904;-3.982071;-;-;-;-;-;-;-;-;-;-;-;-;-;-;-
1513509063402;-;-;7.1052856;0.57958984;-3.072281;-;-;-;-;-;-;-;-;-;-;-;-;-;-;-
1513509063422;-;-;5.7645264;-0.7228546;-1.1652985;-;-;-;-;-;-;-;-;-;-;-;-;-;-;-
1513509063443;-;-;5.344345;-1.9486847;0.47833252;-;-;-;-;-;-;-;-;-;-;-;-;-;-;-
1513509063463;-;-;6.0099335;-2.7303925;2.2919312;-;-;-;-;-;-;-;-;-;-;-;-;-;-;-
1513509063483;-;-;5.7561493;-3.0260773;1.473114;-;-;-;-;-;-;-;-;-;-;-;-;-;-;-
1513509063503;-;-;4.963669;-2.693283;-1.1162109;-;-;-;-;-;-;-;-;-;-;-;-;-;-;-
1513509063523;-;-;5.9536743;-2.408371;-1.2730255;-;-;-;-;-;-;-;-;-;-;-;-;-;-;-
1513509063544;-;-;8.127609;-1.7894745;-0.6553345;-;-;-;-;-;-;-;-;-;-;-;-;-;-;-
1513509063564;-;-;9.821503;-1.3022614;-1.1964111;-;-;-;-;-;-;-;-;-;-;-;-;-;-;-
1513509063585;-;-;9.965164;-1.0017853;-2.7478638;-;-;-;-;-;-;-;-;-;-;-;-;-;-;-
1513509063605;-;-;7.573349;-0.92996216;-5.932144;-;-;-;-;-;-;-;-;-;-;-;-;-;-;-
1513509063625;-;-;7.9791718;-0.054870605;-6.306839;-;-;-;-;-;-;-;-;-;-;-;-;-;-;-
1513509063646;-;-;11.809891;2.2938385;-4.694351;-;-;-;-;-;-;-;-;-;-;-;-;-;-;-
1513509063666;-;-;14.429153;4.6593018;-2.4617462;-;-;-;-;-;-;-;-;-;-;-;-;-;-;-
1513509063686;-;-;13.373306;0.9530792;-0.5332184;-;-;-;-;-;-;-;-;-;-;-;-;-;-;-
1513509063706;-;-;13.737228;-0.121917725;-4.085022;-;-;-;-;-;-;-;-;-;-;-;-;-;-;-
1513509063727;-;-;19.67006;1.5360718;-3.7713776;-;-;-;-;-;-;-;-;-;-;-;-;-;-;-
1513509063747;-;-;20.265015;0.4012146;-2.954956;-;-;-;-;-;-;-;-;-;-;-;-;-;-;-
1513509063767;-;-;11.234085;-0.33021545;-3.0399475;-;-;-;-;-;-;-;-;-;-;-;-;-;-;-
1513509063788;-;-;5.6974945;-0.88327026;-1.6608887;-;-;-;-;-;-;-;-;-;-;-;-;-;-;-
1513509063808;-;-;2.0224;-1.1131134;-0.22676086;-;-;-;-;-;-;-;-;-;-;-;-;-;-;-
1513509063828;-;-;-1.7831879;-0.46907043;1.0900421;-;-;-;-;-;-;-;-;-;-;-;-;-;-;-
1513509063849;-;-;0.17765808;0.53289795;3.030548;-;-;-;-;-;-;-;-;-;-;-;-;-;-;-
1513509063869;-;-;4.154434;0.91238403;1.7987213;-;-;-;-;-;-;-;-;-;-;-;-;-;-;-
1513509063889;-;-;5.3647003;1.0153351;-1.7363129;-;-;-;-;-;-;-;-;-;-;-;-;-;-;-
1513509063910;-;-;5.327591;0.85731506;-3.4936523;-;-;-;-;-;-;-;-;-;-;-;-;-;-;-
1513509063930;-;-;6.312805;-0.32781982;-1.4490051;-;-;-;-;-;-;-;-;-;-;-;-;-;-;-
1513509063950;-;-;9.527023;-0.47625732;0.6997833;-;-;-;-;-;-;-;-;-;-;-;-;-;-;-
1513509063970;-;-;12.614334;0.3617096;-1.392746;-;-;-;-;-;-;-;-;-;-;-;-;-;-;-
1513509063991;-;-;13.563644;-0.13148499;-6.279312;-;-;-;-;-;-;-;-;-;-;-;-;-;-;-
1513509064011;-;-;9.813126;0.8345642;-5.136078;-;-;-;-;-;-;-;-;-;-;-;-;-;-;-
1513509064032;-;-;5.781296;1.853302;-3.3368378;-;-;-;-;-;-;-;-;-;-;-;-;-;-;-
1513509064052;-;-;2.9728851;1.2942505;-3.401474;-;-;-;-;-;-;-;-;-;-;-;-;-;-;-
1513509064072;-;-;3.7126923;-1.7954559;-6.2625427;-;-;-;-;-;-;-;-;-;-;-;-;-;-;-
1513509064093;-;-;8.266464;-3.8664398;-5.555069;-;-;-;-;-;-;-;-;-;-;-;-;-;-;-
1513509064112;-;-;12.965088;-4.6792755;-3.4673157;-;-;-;-;-;-;-;-;-;-;-;-;-;-;-
1513509064132;-;-;18.771027;-4.558365;-2.6113892;-;-;-;-;-;-;-;-;-;-;-;-;-;-;-
1513509064153;-;-;24.603302;-7.3954926;-1.9278412;-;-;-;-;-;-;-;-;-;-;-;-;-;-;-
1513509064173;-;-;25.133621;-7.887512;-4.3005066;-;-;-;-;-;-;-;-;-;-;-;-;-;-;-
1513509064193;-;-;15.474213;-1.6338501;-1.9362335;-;-;-;-;-;-;-;-;-;-;-;-;-;-;-
1513509064213;-;-;8.001907;0.27792358;-1.6034393;-;-;-;-;-;-;-;-;-;-;-;-;-;-;-
1513509064234;-;-;3.1991425;0.6071167;0.22932434;-;-;-;-;-;-;-;-;-;-;-;-;-;-;-
1513509064254;-;-;-1.4132843;0.50057983;-0.69602966;-;-;-;-;-;-;-;-;-;-;-;-;-;-;-
1513509064274;-;-;-2.6774292;-0.012969971;-0.93785095;-;-;-;-;-;-;-;-;-;-;-;-;-;-;-
1513509064295;-;-;1.4956665;-0.759964;-1.0862885;-;-;-;-;-;-;-;-;-;-;-;-;-;-;-
1513509064315;-;-;6.8203735;-0.21170044;-2.6987762;-;-;-;-;-;-;-;-;-;-;-;-;-;-;-
1513509064335;-;-;7.015503;0.29348755;-3.0926208;-;-;-;-;-;-;-;-;-;-;-;-;-;-;-
1513509064356;-;-;5.710663;0.299469;-2.0427704;-;-;-;-;-;-;-;-;-;-;-;-;-;-;-
1513509064376;-;-;5.866287;-0.92277527;-0.23634338;-;-;-;-;-;-;-;-;-;-;-;-;-;-;-
1513509064396;-;-;8.373016;-1.3285828;0.4328308;-;-;-;-;-;-;-;-;-;-;-;-;-;-;-
1513509064416;-;-;9.911285;-1.9738312;-0.05079651;-;-;-;-;-;-;-;-;-;-;-;-;-;-;-
1513509064436;-;-;9.717361;-3.3074036;-0.47816467;-;-;-;-;-;-;-;-;-;-;-;-;-;-;-
1513509064456;-;-;7.779251;-4.1489563;-2.6868134;-;-;-;-;-;-;-;-;-;-;-;-;-;-;-
1513509064477;-;-;6.110489;-3.4462585;-4.919403;-;-;-;-;-;-;-;-;-;-;-;-;-;-;-
1513509064497;-;-;4.913391;-0.5097656;-4.954117;-;-;-;-;-;-;-;-;-;-;-;-;-;-;-
1513509064517;-;-;9.73053;2.1561737;-2.9920654;-;-;-;-;-;-;-;-;-;-;-;-;-;-;-
1513509064538;-;-;11.219711;2.7331696;-4.318451;-;-;-;-;-;-;-;-;-;-;-;-;-;-;-
1513509064558;-;-;13.114731;1.837738;-3.5630798;-;-;-;-;-;-;-;-;-;-;-;-;-;-;-
1513509064578;-;-;16.39;-0.61990356;1.7795715;-;-;-;-;-;-;-;-;-;-;-;-;-;-;-
1513509064599;-;-;19.263046;0.43473816;-4.6201324;-;-;-;-;-;-;-;-;-;-;-;-;-;-;-
1513509064620;-;-;27.288406;-0.40203857;-9.108063;-;-;-;-;-;-;-;-;-;-;-;-;-;-;-
1513509064641;-;-;13.338593;-0.7515869;-1.8093262;-;-;-;-;-;-;-;-;-;-;-;-;-;-;-
1513509064661;-;-;5.802841;-0.41879272;2.1351166;-;-;-;-;-;-;-;-;-;-;-;-;-;-;-
1513509064681;-;-;1.0407715;-0.5935669;1.9579468;-;-;-;-;-;-;-;-;-;-;-;-;-;-;-
1513509064701;-;-;-1.1595001;-0.17338562;1.1486969;-;-;-;-;-;-;-;-;-;-;-;-;-;-;-
1513509064722;-;-;0.4158783;0.24440002;0.686615;-;-;-;-;-;-;-;-;-;-;-;-;-;-;-
1513509064741;-;-;2.988449;1.2427826;-1.0120697;-;-;-;-;-;-;-;-;-;-;-;-;-;-;-
1513509064761;-;-;5.271332;1.813797;-1.274231;-;-;-;-;-;-;-;-;-;-;-;-;-;-;-
1513509064782;-;-;6.513916;0.64064026;-0.66490173;-;-;-;-;-;-;-;-;-;-;-;-;-;-;-
1513509064802;-;-;8.441254;-1.2076874;-0.26986694;-;-;-;-;-;-;-;-;-;-;-;-;-;-;-
1513509064822;-;-;9.746094;-1.289093;-1.5244293;-;-;-;-;-;-;-;-;-;-;-;-;-;-;-
1513509064842;-;-;9.925659;-0.17338562;-1.8847504;-;-;-;-;-;-;-;-;-;-;-;-;-;-;-
1513509064863;-;-;10.355408;1.1541901;-0.88757324;-;-;-;-;-;-;-;-;-;-;-;-;-;-;-
1513509064883;-;-;9.134369;2.7642975;-2.524002;-;-;-;-;-;-;-;-;-;-;-;-;-;-;-
1513509064904;-;-;6.067398;3.2108154;-5.8100433;-;-;-;-;-;-;-;-;-;-;-;-;-;-;-
1513509064924;-;-;2.2654114;1.4043884;-7.410568;-;-;-;-;-;-;-;-;-;-;-;-;-;-;-
1513509064944;-;-;3.34758;-1.570404;-5.0989685;-;-;-;-;-;-;-;-;-;-;-;-;-;-;-
1513509064964;-;-;7.667923;-3.84729;-4.417816;-;-;-;-;-;-;-;-;-;-;-;-;-;-;-
1513509064985;-;-;15.469421;-4.867218;-2.4964752;-;-;-;-;-;-;-;-;-;-;-;-;-;-;-
1513509065005;-;-;23.199112;-3.0536194;-4.022766;-;-;-;-;-;-;-;-;-;-;-;-;-;-;-
1513509065025;-;-;28.983505;-2.7028656;-3.429016;-;-;-;-;-;-;-;-;-;-;-;-;-;-;-
1513509065046;-;-;21.178406;-3.0356598;-4.1137543;-;-;-;-;-;-;-;-;-;-;-;-;-;-;-
1513509065066;-;-;13.818619;-4.0711517;-0.9402313;-;-;-;-;-;-;-;-;-;-;-;-;-;-;-
1513509065086;-;-;8.325134;-4.803772;-1.456192;-;-;-;-;-;-;-;-;-;-;-;-;-;-;-
1513509065105;-;-;4.0454865;-2.669342;-1.1892395;-;-;-;-;-;-;-;-;-;-;-;-;-;-;-
1513509065125;-;-;-0.12400818;0.12109375;-1.3939362;-;-;-;-;-;-;-;-;-;-;-;-;-;-;-
1513509065146;-;-;-2.4523773;1.8940125;-0.9474182;-;-;-;-;-;-;-;-;-;-;-;-;-;-;-
1513509065165;-;-;-0.050979614;2.0615997;0.6602783;-;-;-;-;-;-;-;-;-;-;-;-;-;-;-
1513509065185;-;-;4.5147552;0.5257263;-0.5236511;-;-;-;-;-;-;-;-;-;-;-;-;-;-;-
1513509065205;-;-;8.080917;-0.7851105;-2.819687;-;-;-;-;-;-;-;-;-;-;-;-;-;-;-
1513509065225;-;-;8.613632;-1.7930603;-2.8807373;-;-;-;-;-;-;-;-;-;-;-;-;-;-;-
1513509065246;-;-;9.328293;-2.933899;-1.2012024;-;-;-;-;-;-;-;-;-;-;-;-;-;-;-
1513509065266;-;-;10.253662;-2.8082123;-0.18965149;-;-;-;-;-;-;-;-;-;-;-;-;-;-;-
1513509065286;-;-;9.863403;-1.5512543;-0.88757324;-;-;-;-;-;-;-;-;-;-;-;-;-;-;-
1513509065306;-;-;8.031845;-1.7487793;-0.104660034;-;-;-;-;-;-;-;-;-;-;-;-;-;-;-
1513509065327;-;-;6.1440125;-2.8536987;-0.46977234;-;-;-;-;-;-;-;-;-;-;-;-;-;-;-
1513509065347;-;-;4.5207367;-2.5867462;-2.9046783;-;-;-;-;-;-;-;-;-;-;-;-;-;-;-
1513509065367;-;-;5.078598;-0.7156677;-4.5842133;-;-;-;-;-;-;-;-;-;-;-;-;-;-;-
1513509065388;-;-;9.487518;1.2559509;-3.9054565;-;-;-;-;-;-;-;-;-;-;-;-;-;-;-
1513509065408;-;-;14.080795;3.8201447;-2.562317;-;-;-;-;-;-;-;-;-;-;-;-;-;-;-
1513509065428;-;-;18.2491;2.4147491;-2.4557648;-;-;-;-;-;-;-;-;-;-;-;-;-;-;-
1513509065449;-;-;20.381134;-1.324997;-3.432602;-;-;-;-;-;-;-;-;-;-;-;-;-;-;-
1513509065469;-;-;23.504364;-2.0995178;-6.1990967;-;-;-;-;-;-;-;-;-;-;-;-;-;-;-
1513509065489;-;-;16.266693;-0.17578125;-4.2143097;-;-;-;-;-;-;-;-;-;-;-;-;-;-;-
1513509065510;-;-;9.282806;1.8054199;-2.7909546;-;-;-;-;-;-;-;-;-;-;-;-;-;-;-
1513509065529;-;-;3.493637;1.5683899;-0.6732788;-;-;-;-;-;-;-;-;-;-;-;-;-;-;-
1513509065549;-;-;-0.5238342;0.98062134;-0.22077942;-;-;-;-;-;-;-;-;-;-;-;-;-;-;-
1513509065570;-;-;-1.4420166;-0.016571045;-0.15733337;-;-;-;-;-;-;-;-;-;-;-;-;-;-;-
1513509065590;-;-;0.8552246;-0.59954834;0.44241333;-;-;-;-;-;-;-;-;-;-;-;-;-;-;-
1513509065610;-;-;5.703476;0.12109375;1.2564392;-;-;-;-;-;-;-;-;-;-;-;-;-;-;-
1513509065630;-;-;6.992752;0.25756836;-1.1928253;-;-;-;-;-;-;-;-;-;-;-;-;-;-;-
1513509065651;-;-;7.0933075;-0.14346313;-2.1145935;-;-;-;-;-;-;-;-;-;-;-;-;-;-;-
1513509065671;-;-;7.961212;-0.86531067;-0.98931885;-;-;-;-;-;-;-;-;-;-;-;-;-;-;-
1513509065691;-;-;9.23851;-0.973053;-1.4885101;-;-;-;-;-;-;-;-;-;-;-;-;-;-;-
1513509065712;-;-;11.434006;-0.25120544;-2.187622;-;-;-;-;-;-;-;-;-;-;-;-;-;-;-
1513509065732;-;-;11.703354;1.343338;-3.0435486;-;-;-;-;-;-;-;-;-;-;-;-;-;-;-
1513509065752;-;-;9.832275;2.512909;-3.2015686;-;-;-;-;-;-;-;-;-;-;-;-;-;-;-
1513509065772;-;-;6.2002716;2.117859;-3.4074707;-;-;-;-;-;-;-;-;-;-;-;-;-;-;-
1513509065793;-;-;0.916275;-0.54927063;-4.899048;-;-;-;-;-;-;-;-;-;-;-;-;-;-;-
1513509065813;-;-;2.6185455;-3.5635834;-6.677948;-;-;-;-;-;-;-;-;-;-;-;-;-;-;-
1513509065833;-;-;8.786011;-4.506897;-4.3112793;-;-;-;-;-;-;-;-;-;-;-;-;-;-;-
1513509065854;-;-;14.126282;-3.704834;-3.824051;-;-;-;-;-;-;-;-;-;-;-;-;-;-;-
1513509065874;-;-;19.357605;-1.6158905;-3.748642;-;-;-;-;-;-;-;-;-;-;-;-;-;-;-
1513509065894;-;-;23.490005;-3.2786713;-2.7502594;-;-;-;-;-;-;-;-;-;-;-;-;-;-;-
1513509065914;-;-;23.60373;-6.1289673;-5.073822;-;-;-;-;-;-;-;-;-;-;-;-;-;-;-
1513509065935;-;-;15.022903;-5.90271;-3.4541473;-;-;-;-;-;-;-;-;-;-;-;-;-;-;-
1513509065955;-;-;7.5122986;-3.7060394;-1.9470062;-;-;-;-;-;-;-;-;-;-;-;-;-;-;-
1513509065975;-;-;3.6229095;-1.467453;-1.0755157;-;-;-;-;-;-;-;-;-;-;-;-;-;-;-
1513509065996;-;-;-0.37779236;1.3337555;-1.4909058;-;-;-;-;-;-;-;-;-;-;-;-;-;-;-
1513509066016;-;-;-1.245697;2.9115448;-0.9234772;-;-;-;-;-;-;-;-;-;-;-;-;-;-;-
1513509066036;-;-;3.1835785;1.9993439;-1.7985535;-;-;-;-;-;-;-;-;-;-;-;-;-;-;-
1513509066057;-;-;8.72496;1.5276947;-3.4828796;-;-;-;-;-;-;-;-;-;-;-;-;-;-;-
1513509066076;-;-;10.556519;1.0452576;-3.2255096;-;-;-;-;-;-;-;-;-;-;-;-;-;-;-
1513509066096;-;-;8.48793;-0.27633667;-2.5120392;-;-;-;-;-;-;-;-;-;-;-;-;-;-;-
1513509066117;-;-;6.059021;-1.9786224;-1.8344727;-;-;-;-;-;-;-;-;-;-;-;-;-;-;-
1513509066137;-;-;5.6651764;-2.214447;-0.99650574;-;-;-;-;-;-;-;-;-;-;-;-;-;-;-
1513509066157;-;-;7.396179;-2.7519379;-0.43266296;-;-;-;-;-;-;-;-;-;-;-;-;-;-;-
1513509066177;-;-;8.753693;-4.3357086;-0.6661072;-;-;-;-;-;-;-;-;-;-;-;-;-;-;-
1513509066198;-;-;6.3499146;-5.420288;-2.7083588;-;-;-;-;-;-;-;-;-;-;-;-;-;-;-
1513509066218;-;-;5.3503265;-3.783844;-3.8743286;-;-;-;-;-;-;-;-;-;-;-;-;-;-;-
1513509066238;-;-;6.3977966;0.11152649;-5.5023956;-;-;-;-;-;-;-;-;-;-;-;-;-;-;-
1513509066259;-;-;9.49231;3.3377075;-5.1468506;-;-;-;-;-;-;-;-;-;-;-;-;-;-;-
1513509066279;-;-;11.9631195;4.107437;-6.3511353;-;-;-;-;-;-;-;-;-;-;-;-;-;-;-
1513509066300;-;-;18.828491;0.98301697;0.015045166;-;-;-;-;-;-;-;-;-;-;-;-;-;-;-
1513509066319;-;-;18.635757;-1.4985809;-1.9589691;-;-;-;-;-;-;-;-;-;-;-;-;-;-;-
1513509066340;-;-;19.43422;-0.35653687;-6.64682;-;-;-;-;-;-;-;-;-;-;-;-;-;-;-
1513509066360;-;-;16.205643;1.0261078;-2.8639832;-;-;-;-;-;-;-;-;-;-;-;-;-;-;-
1513509066380;-;-;9.679047;1.4199524;-1.2119751;-;-;-;-;-;-;-;-;-;-;-;-;-;-;-
1513509066400;-;-;5.031906;1.0320892;0.16108704;-;-;-;-;-;-;-;-;-;-;-;-;-;-;-
1513509066421;-;-;2.2199097;0.8405609;-0.05558777;-;-;-;-;-;-;-;-;-;-;-;-;-;-;-
1513509066442;-;-;1.7662201;0.2886963;-0.31654358;-;-;-;-;-;-;-;-;-;-;-;-;-;-;-
1513509066461;-;-;2.85318;-0.39485168;-0.31056213;-;-;-;-;-;-;-;-;-;-;-;-;-;-;-
1513509066482;-;-;4.745804;-1.3082428;0.15151978;-;-;-;-;-;-;-;-;-;-;-;-;-;-;-
1513509066501;-;-;6.6108856;-1.6721649;0.41249084;-;-;-;-;-;-;-;-;-;-;-;-;-;-;-
1513509066521;-;-;6.5905304;-1.8158112;-0.62060547;-;-;-;-;-;-;-;-;-;-;-;-;-;-;-
1513509066541;-;-;7.070572;-1.6446228;-1.2335358;-;-;-;-;-;-;-;-;-;-;-;-;-;-;-
1513509066562;-;-;7.2740784;-1.1166992;-1.658493;-;-;-;-;-;-;-;-;-;-;-;-;-;-;-
1513509066581;-;-;8.26886;-0.5959625;-1.3795776;-;-;-;-;-;-;-;-;-;-;-;-;-;-;-
1513509066601;-;-;9.843048;0.81781006;-0.8025665;-;-;-;-;-;-;-;-;-;-;-;-;-;-;-
1513509066622;-;-;9.619202;3.0671692;-1.887146;-;-;-;-;-;-;-;-;-;-;-;-;-;-;-
1513509066642;-;-;7.08374;4.2858124;-3.9808807;-;-;-;-;-;-;-;-;-;-;-;-;-;-;-
1513509066662;-;-;3.402649;2.8444977;-5.877075;-;-;-;-;-;-;-;-;-;-;-;-;-;-;-
1513509066682;-;-;3.2542114;-1.2926788;-8.118057;-;-;-;-;-;-;-;-;-;-;-;-;-;-;-
1513509066703;-;-;8.671097;-4.491333;-4.4297943;-;-;-;-;-;-;-;-;-;-;-;-;-;-;-
1513509066723;-;-;13.58638;-5.949402;-4.3364105;-;-;-;-;-;-;-;-;-;-;-;-;-;-;-
1513509066743;-;-;20.256638;-5.775818;-2.1888123;-;-;-;-;-;-;-;-;-;-;-;-;-;-;-
1513509066764;-;-;29.463531;-9.091782;1.5820465;-;-;-;-;-;-;-;-;-;-;-;-;-;-;-
1513509066784;-;-;28.320297;-11.248962;-3.7474365;-;-;-;-;-;-;-;-;-;-;-;-;-;-;-
1513509066804;-;-;15.755539;-2.1569824;-0.2291565;-;-;-;-;-;-;-;-;-;-;-;-;-;-;-
1513509066825;-;-;7.0214844;1.7886658;-0.36921692;-;-;-;-;-;-;-;-;-;-;-;-;-;-;-
1513509066845;-;-;2.7633972;1.1781464;-0.7666626;-;-;-;-;-;-;-;-;-;-;-;-;-;-;-
1513509066865;-;-;-0.98472595;1.1793365;-0.67567444;-;-;-;-;-;-;-;-;-;-;-;-;-;-;-
1513509066885;-;-;-2.3817444;0.38565063;-1.6094208;-;-;-;-;-;-;-;-;-;-;-;-;-;-;-
1513509066906;-;-;-0.20780945;-1.467453;-0.882782;-;-;-;-;-;-;-;-;-;-;-;-;-;-;-
1513509066926;-;-;3.936554;-2.3006287;-0.82173157;-;-;-;-;-;-;-;-;-;-;-;-;-;-;-
1513509066946;-;-;7.667923;-2.1019135;-0.1776886;-;-;-;-;-;-;-;-;-;-;-;-;-;-;-
1513509066967;-;-;8.529831;-2.0983276;0.38015747;-;-;-;-;-;-;-;-;-;-;-;-;-;-;-
1513509066987;-;-;8.055786;-2.6860962;0.4040985;-;-;-;-;-;-;-;-;-;-;-;-;-;-;-
1513509067007;-;-;7.881012;-3.902359;0.5190277;-;-;-;-;-;-;-;-;-;-;-;-;-;-;-
1513509067028;-;-;8.638763;-4.881592;1.3079224;-;-;-;-;-;-;-;-;-;-;-;-;-;-;-
1513509067047;-;-;8.898544;-4.4147186;1.6981659;-;-;-;-;-;-;-;-;-;-;-;-;-;-;-
1513509067068;-;-;9.359421;-3.5276642;0.47473145;-;-;-;-;-;-;-;-;-;-;-;-;-;-;-
1513509067087;-;-;6.474411;-3.045227;-4.389084;-;-;-;-;-;-;-;-;-;-;-;-;-;-;-
1513509067107;-;-;5.905792;-1.8684845;-10.418884;-;-;-;-;-;-;-;-;-;-;-;-;-;-;-
1513509067128;-;-;12.079239;0.457489;-6.3247986;-;-;-;-;-;-;-;-;-;-;-;-;-;-;-
1513509067148;-;-;14.979813;4.3456726;-7.231003;-;-;-;-;-;-;-;-;-;-;-;-;-;-;-
1513509067168;-;-;15.586746;4.0727234;-7.673935;-;-;-;-;-;-;-;-;-;-;-;-;-;-;-
1513509067189;-;-;16.454636;1.5205078;-9.734146;-;-;-;-;-;-;-;-;-;-;-;-;-;-;-
1513509067208;-;-;21.323257;0.2635498;-3.3583832;-;-;-;-;-;-;-;-;-;-;-;-;-;-;-
1513509067228;-;-;20.296143;-2.9171448;-3.7665863;-;-;-;-;-;-;-;-;-;-;-;-;-;-;-
1513509067249;-;-;15.824966;-3.977768;-4.0562897;-;-;-;-;-;-;-;-;-;-;-;-;-;-;-
1513509067269;-;-;11.11557;-2.210846;-2.2199402;-;-;-;-;-;-;-;-;-;-;-;-;-;-;-
1513509067289;-;-;8.9392395;-0.14225769;-1.6058197;-;-;-;-;-;-;-;-;-;-;-;-;-;-;-
1513509067309;-;-;5.9225464;1.248764;-1.416687;-;-;-;-;-;-;-;-;-;-;-;-;-;-;-
1513509067330;-;-;2.3013153;0.17376709;-1.4238739;-;-;-;-;-;-;-;-;-;-;-;-;-;-;-
1513509067350;-;-;0.102249146;-1.8900299;-1.3472595;-;-;-;-;-;-;-;-;-;-;-;-;-;-;-
1513509067370;-;-;1.7506561;-2.9255219;-0.46499634;-;-;-;-;-;-;-;-;-;-;-;-;-;-;-
1513509067391;-;-;4.4046173;-0.9167938;-0.21479797;-;-;-;-;-;-;-;-;-;-;-;-;-;-;-
1513509067411;-;-;5.248581;0.24559021;-1.7518768;-;-;-;-;-;-;-;-;-;-;-;-;-;-;-
1513509067432;-;-;6.5953217;0.8740692;-2.2067719;-;-;-;-;-;-;-;-;-;-;-;-;-;-;-
1513509067452;-;-;8.395752;2.4386902;-3.488861;-;-;-;-;-;-;-;-;-;-;-;-;-;-;-
1513509067472;-;-;10.5481415;4.190048;-4.083832;-;-;-;-;-;-;-;-;-;-;-;-;-;-;-
1513509067493;-;-;10.404495;4.466568;-3.5427399;-;-;-;-;-;-;-;-;-;-;-;-;-;-;-
1513509067515;-;-;11.354996;1.8568878;1.7664032;-;-;-;-;-;-;-;-;-;-;-;-;-;-;-
1513509067533;-;-;10.011841;0.46705627;3.3070679;-;-;-;-;-;-;-;-;-;-;-;-;-;-;-
1513509067554;-;-;8.052185;-0.011779785;-2.1026306;-;-;-;-;-;-;-;-;-;-;-;-;-;-;-
1513509067574;-;-;8.007904;-0.05128479;-10.192627;-;-;-;-;-;-;-;-;-;-;-;-;-;-;-
1513509067594;-;-;13.339783;-6.3181;-5.7837067;-;-;-;-;-;-;-;-;-;-;-;-;-;-;-
1513509067614;-;-;17.184875;-9.112137;-9.59288;-;-;-;-;-;-;-;-;-;-;-;-;-;-;-
1513509067635;-;-;17.650543;-10.278122;-6.931732;-;-;-;-;-;-;-;-;-;-;-;-;-;-;-
1513509067655;-;-;13.625885;-5.349655;-5.0427094;-;-;-;-;-;-;-;-;-;-;-;-;-;-;-
1513509067675;-;-;11.028183;-1.0568542;-4.7278595;-;-;-;-;-;-;-;-;-;-;-;-;-;-;-
1513509067696;-;-;8.098877;-0.46548462;-6.353531;-;-;-;-;-;-;-;-;-;-;-;-;-;-;-
1513509067716;-;-;5.576584;1.2164459;-6.298462;-;-;-;-;-;-;-;-;-;-;-;-;-;-;-
1513509067736;-;-;5.7609406;1.7276154;-4.741028;-;-;-;-;-;-;-;-;-;-;-;-;-;-;-
1513509067756;-;-;7.308792;-0.13148499;-3.1632538;-;-;-;-;-;-;-;-;-;-;-;-;-;-;-
1513509067777;-;-;6.807205;-1.5428772;-2.816101;-;-;-;-;-;-;-;-;-;-;-;-;-;-;-
1513509067797;-;-;5.489197;-2.6489868;-1.8548279;-;-;-;-;-;-;-;-;-;-;-;-;-;-;-
1513509067818;-;-;4.2346344;-3.1673431;-1.3328857;-;-;-;-;-;-;-;-;-;-;-;-;-;-;-
1513509067838;-;-;2.5790405;-2.8572845;-1.6441345;-;-;-;-;-;-;-;-;-;-;-;-;-;-;-
1513509067857;-;-;2.2510376;-1.3908386;-2.6568756;-;-;-;-;-;-;-;-;-;-;-;-;-;-;-
1513509067877;-;-;3.5714417;0.30784607;-2.6437073;-;-;-;-;-;-;-;-;-;-;-;-;-;-;-
1513509067898;-;-;6.0326843;1.1589813;-1.8500366;-;-;-;-;-;-;-;-;-;-;-;-;-;-;-
1513509067918;-;-;8.097687;1.703659;-1.653717;-;-;-;-;-;-;-;-;-;-;-;-;-;-;-
1513509067938;-;-;10.045364;0.8166199;-1.0204468;-;-;-;-;-;-;-;-;-;-;-;-;-;-;-
1513509067959;-;-;11.262817;-0.8353882;-1.0767059;-;-;-;-;-;-;-;-;-;-;-;-;-;-;-
1513509067979;-;-;13.135086;-1.7894745;-1.0731201;-;-;-;-;-;-;-;-;-;-;-;-;-;-;-
1513509067999;-;-;14.898407;-2.1282501;-0.98573303;-;-;-;-;-;-;-;-;-;-;-;-;-;-;-
1513509068019;-;-;15.3784485;-2.1150818;-0.37998962;-;-;-;-;-;-;-;-;-;-;-;-;-;-;-
1513509068039;-;-;13.033325;-2.063614;0.39692688;-;-;-;-;-;-;-;-;-;-;-;-;-;-;-
1513509068059;-;-;9.436035;-2.8716583;0.021026611;-;-;-;-;-;-;-;-;-;-;-;-;-;-;-
1513509068079;-;-;5.6112976;-6.12059;-12.391708;-;-;-;-;-;-;-;-;-;-;-;-;-;-;-
1513509068100;-;-;6.3343506;-7.5499268;-12.725693;-;-;-;-;-;-;-;-;-;-;-;-;-;-;-
1513509068121;-;-;11.621948;-2.2084656;1.3115082;-;-;-;-;-;-;-;-;-;-;-;-;-;-;-
1513509068141;-;-;7.8079834;1.4606476;-4.0407257;-;-;-;-;-;-;-;-;-;-;-;-;-;-;-
1513509068161;-;-;10.579269;0.8716736;-7.207062;-;-;-;-;-;-;-;-;-;-;-;-;-;-;-
1513509068182;-;-;14.293869;-1.7499695;-5.10495;-;-;-;-;-;-;-;-;-;-;-;-;-;-;-
1513509068202;-;-;14.896011;-4.040024;-4.9529266;-;-;-;-;-;-;-;-;-;-;-;-;-;-;-
1513509068222;-;-;12.81665;-2.6023102;-3.8444061;-;-;-;-;-;-;-;-;-;-;-;-;-;-;-
1513509068243;-;-;9.39534;-2.004959;-2.8268738;-;-;-;-;-;-;-;-;-;-;-;-;-;-;-
1513509068263;-;-;7.04303;-2.7495422;-2.6916046;-;-;-;-;-;-;-;-;-;-;-;-;-;-;-
1513509068283;-;-;6.245758;-3.7551117;-3.9473572;-;-;-;-;-;-;-;-;-;-;-;-;-;-;-
1513509068304;-;-;5.403;-2.54245;-4.808075;-;-;-;-;-;-;-;-;-;-;-;-;-;-;-
1513509068324;-;-;4.0251465;-0.6127167;-4.3519745;-;-;-;-;-;-;-;-;-;-;-;-;-;-;-
1513509068345;-;-;3.0291595;0.75675964;-3.8611603;-;-;-;-;-;-;-;-;-;-;-;-;-;-;-
1513509068364;-;-;3.7402344;1.3612976;-3.8839111;-;-;-;-;-;-;-;-;-;-;-;-;-;-;-
1513509068385;-;-;6.225418;2.1106873;-3.654068;-;-;-;-;-;-;-;-;-;-;-;-;-;-;-
1513509068405;-;-;7.4680023;2.8684387;-3.998825;-;-;-;-;-;-;-;-;-;-;-;-;-;-;-
1513509068425;-;-;7.778061;3.635788;-3.0459442;-;-;-;-;-;-;-;-;-;-;-;-;-;-;-
1513509068445;-;-;8.288025;4.034424;-2.345642;-;-;-;-;-;-;-;-;-;-;-;-;-;-;-
1513509068466;-;-;8.669891;3.7052155;-2.1229706;-;-;-;-;-;-;-;-;-;-;-;-;-;-;-
1513509068486;-;-;8.0928955;2.497345;-1.6213837;-;-;-;-;-;-;-;-;-;-;-;-;-;-;-
1513509068507;-;-;7.7517242;0.72084045;-1.535202;-;-;-;-;-;-;-;-;-;-;-;-;-;-;-
1513509068527;-;-;8.110855;-0.52293396;-0.333313;-;-;-;-;-;-;-;-;-;-;-;-;-;-;-
1513509068547;-;-;8.763275;-1.5261078;-0.35365295;-;-;-;-;-;-;-;-;-;-;-;-;-;-;-
1513509068568;-;-;9.269638;-2.2491608;-0.6589203;-;-;-;-;-;-;-;-;-;-;-;-;-;-;-
1513509068588;-;-;10.846222;-1.4818115;-0.097473145;-;-;-;-;-;-;-;-;-;-;-;-;-;-;-
1513509068608;-;-;12.118744;0.34136963;0.44360352;-;-;-;-;-;-;-;-;-;-;-;-;-;-;-
1513509068628;-;-;11.621948;0.49938965;0.8590088;-;-;-;-;-;-;-;-;-;-;-;-;-;-;-
1513509068649;-;-;10.159088;-0.36253357;-1.0802917;-;-;-;-;-;-;-;-;-;-;-;-;-;-;-
1513509068669;-;-;8.295197;1.8497162;-7.211853;-;-;-;-;-;-;-;-;-;-;-;-;-;-;-
1513509068689;-;-;9.957977;3.5148773;-12.075668;-;-;-;-;-;-;-;-;-;-;-;-;-;-;-
1513509068710;-;-;16.448654;-1.2052917;-9.416916;-;-;-;-;-;-;-;-;-;-;-;-;-;-;-
1513509068729;-;-;15.680115;-2.1952972;-8.454437;-;-;-;-;-;-;-;-;-;-;-;-;-;-;-
1513509068749;-;-;6.712631;-0.7563782;-6.1619873;-;-;-;-;-;-;-;-;-;-;-;-;-;-;-
1513509068770;-;-;3.536728;-1.4351349;-1.650116;-;-;-;-;-;-;-;-;-;-;-;-;-;-;-
1513509068790;-;-;4.1532288;-3.3959808;-1.1712799;-;-;-;-;-;-;-;-;-;-;-;-;-;-;-
1513509068810;-;-;7.216614;-4.594284;-4.167618;-;-;-;-;-;-;-;-;-;-;-;-;-;-;-
1513509068830;-;-;8.661514;-3.7275848;-5.543091;-;-;-;-;-;-;-;-;-;-;-;-;-;-;-
1513509068851;-;-;8.926071;1.027298;-4.9181976;-;-;-;-;-;-;-;-;-;-;-;-;-;-;-
1513509068871;-;-;9.80954;3.1306152;-5.0858;-;-;-;-;-;-;-;-;-;-;-;-;-;-;-
1513509068891;-;-;8.5047;2.7954254;-3.6420898;-;-;-;-;-;-;-;-;-;-;-;-;-;-;-
1513509068912;-;-;7.7648926;0.93751526;-2.938202;-;-;-;-;-;-;-;-;-;-;-;-;-;-;-
1513509068932;-;-;5.7561493;-1.3657074;-2.3408508;-;-;-;-;-;-;-;-;-;-;-;-;-;-;-
1513509068952;-;-;3.0183868;-1.8313751;-2.373169;-;-;-;-;-;-;-;-;-;-;-;-;-;-;-
1513509068973;-;-;3.0602722;-0.6833496;-1.8440552;-;-;-;-;-;-;-;-;-;-;-;-;-;-;-
1513509068993;-;-;4.2813263;0.56881714;-1.6177979;-;-;-;-;-;-;-;-;-;-;-;-;-;-;-
1513509069013;-;-;6.2242126;1.6150818;-1.0192413;-;-;-;-;-;-;-;-;-;-;-;-;-;-;-
1513509069033;-;-;7.976776;2.137024;-0.44343567;-;-;-;-;-;-;-;-;-;-;-;-;-;-;-
1513509069054;-;-;8.701019;1.6725464;-0.85284424;-;-;-;-;-;-;-;-;-;-;-;-;-;-;-
1513509069074;-;-;7.916916;0.5843811;-1.2885895;-;-;-;-;-;-;-;-;-;-;-;-;-;-;-
1513509069095;-;-;7.1411896;-1.8397522;-1.48732;-;-;-;-;-;-;-;-;-;-;-;-;-;-;-
1513509069114;-;-;7.542221;-3.555191;-1.3783722;-;-;-;-;-;-;-;-;-;-;-;-;-;-;-
1513509069134;-;-;8.200638;-4.618225;-1.4849243;-;-;-;-;-;-;-;-;-;-;-;-;-;-;-
1513509069155;-;-;8.450821;-3.0141144;-1.4310455;-;-;-;-;-;-;-;-;-;-;-;-;-;-;-
1513509069174;-;-;5.708267;-1.9833984;-2.6616669;-;-;-;-;-;-;-;-;-;-;-;-;-;-;-
1513509069194;-;-;5.237808;-2.1617737;-7.7170258;-;-;-;-;-;-;-;-;-;-;-;-;-;-;-
1513509069215;-;-;8.550186;-1.0664215;-7.946869;-;-;-;-;-;-;-;-;-;-;-;-;-;-;-
1513509069235;-;-;12.560471;0.29826355;-4.404648;-;-;-;-;-;-;-;-;-;-;-;-;-;-;-
1513509069255;-;-;16.424713;0.62628174;-3.0447388;-;-;-;-;-;-;-;-;-;-;-;-;-;-;-
1513509069275;-;-;17.62181;0.20489502;-3.638504;-;-;-;-;-;-;-;-;-;-;-;-;-;-;-
1513509069295;-;-;20.676819;2.945053;-8.92012;-;-;-;-;-;-;-;-;-;-;-;-;-;-;-
1513509069316;-;-;20.097412;2.073578;-4.9205933;-;-;-;-;-;-;-;-;-;-;-;-;-;-;-
1513509069336;-;-;9.803543;-0.20451355;-2.231903;-;-;-;-;-;-;-;-;-;-;-;-;-;-;-
1513509069356;-;-;3.2494202;-0.9562988;-0.8660126;-;-;-;-;-;-;-;-;-;-;-;-;-;-;-
1513509069376;-;-;-0.5070801;-0.73602295;0.38136292;-;-;-;-;-;-;-;-;-;-;-;-;-;-;-
1513509069397;-;-;-1.221756;0.2192688;-0.43266296;-;-;-;-;-;-;-;-;-;-;-;-;-;-;-
1513509069417;-;-;0.102249146;0.83576965;0.3933258;-;-;-;-;-;-;-;-;-;-;-;-;-;-;-
1513509069437;-;-;2.8088837;0.9183655;0.9703369;-;-;-;-;-;-;-;-;-;-;-;-;-;-;-
1513509069458;-;-;4.5758057;0.40960693;-0.7582855;-;-;-;-;-;-;-;-;-;-;-;-;-;-;-
1513509069478;-;-;5.8746643;-0.43675232;-1.471756;-;-;-;-;-;-;-;-;-;-;-;-;-;-;-
1513509069499;-;-;7.363861;-1.5249176;0.2700348;-;-;-;-;-;-;-;-;-;-;-;-;-;-;-
1513509069519;-;-;9.505478;-1.1274719;-0.34527588;-;-;-;-;-;-;-;-;-;-;-;-;-;-;-
1513509069539;-;-;12.149872;0.09475708;-3.116562;-;-;-;-;-;-;-;-;-;-;-;-;-;-;-
1513509069559;-;-;13.434357;1.4438934;-4.210724;-;-;-;-;-;-;-;-;-;-;-;-;-;-;-
1513509069580;-;-;12.283936;2.1645508;-1.8763733;-;-;-;-;-;-;-;-;-;-;-;-;-;-;-
1513509069601;-;-;9.311539;2.5775452;-4.464508;-;-;-;-;-;-;-;-;-;-;-;-;-;-;-
1513509069621;-;-;5.814804;2.1226501;-9.430084;-;-;-;-;-;-;-;-;-;-;-;-;-;-;-
1513509069641;-;-;9.386963;-1.3944244;-7.5111237;-;-;-;-;-;-;-;-;-;-;-;-;-;-;-
1513509069661;-;-;12.311478;-3.2798615;-3.168045;-;-;-;-;-;-;-;-;-;-;-;-;-;-;-
1513509069682;-;-;12.822632;-5.0982666;-2.1038208;-;-;-;-;-;-;-;-;-;-;-;-;-;-;-
1513509069702;-;-;15.948273;-6.498871;-0.3955536;-;-;-;-;-;-;-;-;-;-;-;-;-;-;-
1513509069722;-;-;19.00447;-7.2494507;1.0553284;-;-;-;-;-;-;-;-;-;-;-;-;-;-;-
1513509069743;-;-;17.745117;-5.128189;-2.1074066;-;-;-;-;-;-;-;-;-;-;-;-;-;-;-
1513509069763;-;-;12.707718;-2.214447;-0.89953613;-;-;-;-;-;-;-;-;-;-;-;-;-;-;-
1513509069783;-;-;10.113602;-0.11831665;-2.4425964;-;-;-;-;-;-;-;-;-;-;-;-;-;-;-
1513509069804;-;-;6.1990814;1.1637726;-2.5371704;-;-;-;-;-;-;-;-;-;-;-;-;-;-;-
1513509069824;-;-;3.782135;0.91596985;-1.753067;-;-;-;-;-;-;-;-;-;-;-;-;-;-;-
1513509069844;-;-;2.9908447;0.079193115;-0.55477905;-;-;-;-;-;-;-;-;-;-;-;-;-;-;-
1513509069864;-;-;3.7174835;-0.783905;-0.5966644;-;-;-;-;-;-;-;-;-;-;-;-;-;-;-
1513509069884;-;-;5.197098;-1.2866974;-1.3843689;-;-;-;-;-;-;-;-;-;-;-;-;-;-;-
1513509069905;-;-;6.0853577;-1.427948;-2.4378052;-;-;-;-;-;-;-;-;-;-;-;-;-;-;-
1513509069925;-;-;4.794876;-1.0700226;-2.752655;-;-;-;-;-;-;-;-;-;-;-;-;-;-;-
1513509069945;-;-;3.4517365;-0.9862213;-1.5196381;-;-;-;-;-;-;-;-;-;-;-;-;-;-;-
1513509069965;-;-;3.2709656;-1.7260284;-0.09509277;-;-;-;-;-;-;-;-;-;-;-;-;-;-;-
1513509069986;-;-;6.636017;-2.0073395;2.1399078;-;-;-;-;-;-;-;-;-;-;-;-;-;-;-
1513509070006;-;-;8.259293;-2.5855408;0.16229248;-;-;-;-;-;-;-;-;-;-;-;-;-;-;-
1513509070026;-;-;7.1004944;-3.282257;-4.7314606;-;-;-;-;-;-;-;-;-;-;-;-;-;-;-
1513509070047;-;-;5.368286;-3.0631866;-8.080948;-;-;-;-;-;-;-;-;-;-;-;-;-;-;-
1513509070067;-;-;8.613632;-0.016571045;-6.9137726;-;-;-;-;-;-;-;-;-;-;-;-;-;-;-
1513509070087;-;-;14.468643;2.9115448;-3.5487213;-;-;-;-;-;-;-;-;-;-;-;-;-;-;-
1513509070108;-;-;19.400711;3.3963623;-5.2126923;-;-;-;-;-;-;-;-;-;-;-;-;-;-;-
1513509070128;-;-;25.685486;0.14624023;-3.4433746;-;-;-;-;-;-;-;-;-;-;-;-;-;-;-
1513509070149;-;-;19.931015;-2.8692627;-3.4996338;-;-;-;-;-;-;-;-;-;-;-;-;-;-;-
1513509070169;-;-;15.110291;-1.4459076;-3.302124;-;-;-;-;-;-;-;-;-;-;-;-;-;-;-
1513509070189;-;-;9.706589;0.5556488;-1.3951416;-;-;-;-;-;-;-;-;-;-;-;-;-;-;-
1513509070209;-;-;4.1161194;1.9538574;-0.8767853;-;-;-;-;-;-;-;-;-;-;-;-;-;-;-
1513509070230;-;-;1.2119598;2.5248718;0.077301025;-;-;-;-;-;-;-;-;-;-;-;-;-;-;-
1513509070249;-;-;0.14892578;1.9095612;0.13595581;-;-;-;-;-;-;-;-;-;-;-;-;-;-;-
1513509070269;-;-;1.2789917;0.4945984;-0.16931152;-;-;-;-;-;-;-;-;-;-;-;-;-;-;-
1513509070290;-;-;3.241043;-0.67497253;0.062927246;-;-;-;-;-;-;-;-;-;-;-;-;-;-;-
1513509070309;-;-;4.834381;-1.175354;-0.6900482;-;-;-;-;-;-;-;-;-;-;-;-;-;-;-
1513509070329;-;-;5.437729;-1.0496674;-1.6668854;-;-;-;-;-;-;-;-;-;-;-;-;-;-;-
1513509070349;-;-;5.576584;-0.97065735;-1.6357574;-;-;-;-;-;-;-;-;-;-;-;-;-;-;-
1513509070369;-;-;6.347519;-0.6761627;-1.1509247;-;-;-;-;-;-;-;-;-;-;-;-;-;-;-
1513509070389;-;-;7.2633057;0.848938;-0.75349426;-;-;-;-;-;-;-;-;-;-;-;-;-;-;-
1513509070410;-;-;9.056564;2.0005493;-2.2498627;-;-;-;-;-;-;-;-;-;-;-;-;-;-;-
1513509070430;-;-;11.260422;2.9378815;-3.3200684;-;-;-;-;-;-;-;-;-;-;-;-;-;-;-
1513509070451;-;-;9.945999;3.7279663;-4.8427887;-;-;-;-;-;-;-;-;-;-;-;-;-;-;-
1513509070471;-;-;5.337158;1.7802734;-7.9420776;-;-;-;-;-;-;-;-;-;-;-;-;-;-;-
1513509070491;-;-;5.9225464;-2.1222687;-8.826736;-;-;-;-;-;-;-;-;-;-;-;-;-;-;-
1513509070511;-;-;9.802353;-4.4494324;-6.5702057;-;-;-;-;-;-;-;-;-;-;-;-;-;-;-
1513509070532;-;-;12.7651825;-3.2846527;-5.946518;-;-;-;-;-;-;-;-;-;-;-;-;-;-;-
1513509070552;-;-;26.008698;-4.5092926;-2.436615;-;-;-;-;-;-;-;-;-;-;-;-;-;-;-
1513509070572;-;-;28.317917;-9.772934;-7.483597;-;-;-;-;-;-;-;-;-;-;-;-;-;-;-
1513509070592;-;-;23.205093;-7.3464203;-3.851593;-;-;-;-;-;-;-;-;-;-;-;-;-;-;-
1513509070613;-;-;11.289154;-1.5500488;-1.8967285;-;-;-;-;-;-;-;-;-;-;-;-;-;-;-
1513509070632;-;-;5.051056;0.84773254;-1.0372009;-;-;-;-;-;-;-;-;-;-;-;-;-;-;-
1513509070652;-;-;-0.5860901;1.319397;-0.95339966;-;-;-;-;-;-;-;-;-;-;-;-;-;-;-
1513509070672;-;-;-2.8964996;0.6645813;-2.0750885;-;-;-;-;-;-;-;-;-;-;-;-;-;-;-
1513509070693;-;-;-0.21737671;-0.71447754;-1.9924927;-;-;-;-;-;-;-;-;-;-;-;-;-;-;-
1513509070712;-;-;5.06781;-0.9934082;-2.2019806;-;-;-;-;-;-;-;-;-;-;-;-;-;-;-
1513509070732;-;-;8.699814;-0.22247314;-3.2530365;-;-;-;-;-;-;-;-;-;-;-;-;-;-;-
1513509070753;-;-;8.115631;0.51493835;-3.6828003;-;-;-;-;-;-;-;-;-;-;-;-;-;-;-
1513509070772;-;-;4.5315094;0.33418274;-2.757431;-;-;-;-;-;-;-;-;-;-;-;-;-;-;-
1513509070793;-;-;3.438568;-1.5847626;-1.7171631;-;-;-;-;-;-;-;-;-;-;-;-;-;-;-
1513509070813;-;-;5.447296;-1.6110992;-0.087905884;-;-;-;-;-;-;-;-;-;-;-;-;-;-;-
1513509070833;-;-;4.961273;-0.29071045;-2.163681;-;-;-;-;-;-;-;-;-;-;-;-;-;-;-
1513509070853;-;-;5.152817;-1.4207611;-2.421051;-;-;-;-;-;-;-;-;-;-;-;-;-;-;-
1513509070874;-;-;3.9197998;-4.278244;-3.5151978;-;-;-;-;-;-;-;-;-;-;-;-;-;-;-
1513509070894;-;-;3.4002533;-5.068329;-4.342392;-;-;-;-;-;-;-;-;-;-;-;-;-;-;-
1513509070914;-;-;5.8112183;-1.1993103;-3.1428986;-;-;-;-;-;-;-;-;-;-;-;-;-;-;-
1513509070935;-;-;10.439209;2.8038025;-2.9717255;-;-;-;-;-;-;-;-;-;-;-;-;-;-;-
1513509070955;-;-;19.777786;2.4985352;-2.8053284;-;-;-;-;-;-;-;-;-;-;-;-;-;-;-
1513509070975;-;-;28.240097;2.0065308;-8.425705;-;-;-;-;-;-;-;-;-;-;-;-;-;-;-
1513509070995;-;-;36.23912;-0.5097656;-4.539917;-;-;-;-;-;-;-;-;-;-;-;-;-;-;-
1513509071015;-;-;18.994888;-3.665329;-2.405487;-;-;-;-;-;-;-;-;-;-;-;-;-;-;-
1513509071036;-;-;8.256897;-3.0045319;-0.8289032;-;-;-;-;-;-;-;-;-;-;-;-;-;-;-
1513509071056;-;-;2.336029;0.29109192;0.54655457;-;-;-;-;-;-;-;-;-;-;-;-;-;-;-
1513509071076;-;-;-2.217743;3.8919678;0.09286499;-;-;-;-;-;-;-;-;-;-;-;-;-;-;-
1513509071097;-;-;-1.5449677;4.114624;1.7843628;-;-;-;-;-;-;-;-;-;-;-;-;-;-;-
1513509071117;-;-;2.1923828;1.0536346;0.73809814;-;-;-;-;-;-;-;-;-;-;-;-;-;-;-
1513509071137;-;-;5.6232758;-2.001358;0.50227356;-;-;-;-;-;-;-;-;-;-;-;-;-;-;-
1513509071157;-;-;6.261322;-3.5599823;-1.4765472;-;-;-;-;-;-;-;-;-;-;-;-;-;-;-
1513509071177;-;-;6.905365;-2.6956787;-1.808136;-;-;-;-;-;-;-;-;-;-;-;-;-;-;-
1513509071198;-;-;6.913742;-0.6821594;-2.3468323;-;-;-;-;-;-;-;-;-;-;-;-;-;-;-
1513509071218;-;-;7.4177246;0.98301697;-2.0894623;-;-;-;-;-;-;-;-;-;-;-;-;-;-;-
1513509071238;-;-;8.68306;2.6110687;-1.7794037;-;-;-;-;-;-;-;-;-;-;-;-;-;-;-
1513509071259;-;-;10.252457;3.635788;-3.267395;-;-;-;-;-;-;-;-;-;-;-;-;-;-;-
1513509071279;-;-;9.930435;3.50531;-4.2610016;-;-;-;-;-;-;-;-;-;-;-;-;-;-;-
1513509071299;-;-;5.93692;1.8341522;-6.8982086;-;-;-;-;-;-;-;-;-;-;-;-;-;-;-
1513509071320;-;-;1.3244781;-1.522522;-5.5143585;-;-;-;-;-;-;-;-;-;-;-;-;-;-;-
1513509071340;-;-;5.174362;-4.075943;-2.7789917;-;-;-;-;-;-;-;-;-;-;-;-;-;-;-
1513509071360;-;-;8.692642;-3.6066742;-3.7833557;-;-;-;-;-;-;-;-;-;-;-;-;-;-;-
1513509071380;-;-;12.459915;-2.088745;-4.3878937;-;-;-;-;-;-;-;-;-;-;-;-;-;-;-
1513509071401;-;-;19.416275;-0.933548;-6.255371;-;-;-;-;-;-;-;-;-;-;-;-;-;-;-
1513509071421;-;-;33.649796;-4.187271;-0.40034485;-;-;-;-;-;-;-;-;-;-;-;-;-;-;-
1513509071441;-;-;26.94484;-8.281357;-5.5143585;-;-;-;-;-;-;-;-;-;-;-;-;-;-;-
1513509071462;-;-;16.344513;-4.9965057;-1.0479736;-;-;-;-;-;-;-;-;-;-;-;-;-;-;-
1513509071481;-;-;8.186264;-1.3872528;0.44122314;-;-;-;-;-;-;-;-;-;-;-;-;-;-;-
1513509071502;-;-;1.9709167;0.30545044;-0.70321655;-;-;-;-;-;-;-;-;-;-;-;-;-;-;-
1513509071521;-;-;-2.3793488;1.8042297;-1.6704712;-;-;-;-;-;-;-;-;-;-;-;-;-;-;-
1513509071542;-;-;-3.7943268;2.5799408;-1.140152;-;-;-;-;-;-;-;-;-;-;-;-;-;-;-
1513509071561;-;-;0.837265;1.0021667;-0.38598633;-;-;-;-;-;-;-;-;-;-;-;-;-;-;-
1513509071581;-;-;6.0961304;-0.29190063;-3.2027588;-;-;-;-;-;-;-;-;-;-;-;-;-;-;-
1513509071601;-;-;7.4284973;-0.6115265;-5.015167;-;-;-;-;-;-;-;-;-;-;-;-;-;-;-
1513509071621;-;-;5.3970184;-0.8138428;-2.9980621;-;-;-;-;-;-;-;-;-;-;-;-;-;-;-
1513509071641;-;-;4.4094086;-1.2579651;-0.47816467;-;-;-;-;-;-;-;-;-;-;-;-;-;-;-
1513509071661;-;-;6.106903;-0.8892517;0.9679413;-;-;-;-;-;-;-;-;-;-;-;-;-;-;-
1513509071681;-;-;7.18309;-0.9143982;0.05455017;-;-;-;-;-;-;-;-;-;-;-;-;-;-;-
1513509071701;-;-;7.2992096;-2.5951233;-2.3324738;-;-;-;-;-;-;-;-;-;-;-;-;-;-;-
1513509071721;-;-;6.316391;-5.2251587;-2.1457214;-;-;-;-;-;-;-;-;-;-;-;-;-;-;-
1513509071742;-;-;5.7776947;-4.1178284;-3.6756134;-;-;-;-;-;-;-;-;-;-;-;-;-;-;-
1513509071762;-;-;6.671936;-0.71328735;-4.4070435;-;-;-;-;-;-;-;-;-;-;-;-;-;-;-
1513509071782;-;-;12.092407;2.6529694;-4.859543;-;-;-;-;-;-;-;-;-;-;-;-;-;-;-
1513509071802;-;-;17.743912;4.83049;-4.6285095;-;-;-;-;-;-;-;-;-;-;-;-;-;-;-
1513509071823;-;-;23.543869;3.908722;-3.468521;-;-;-;-;-;-;-;-;-;-;-;-;-;-;-
1513509071842;-;-;30.431992;1.7886658;-4.381897;-;-;-;-;-;-;-;-;-;-;-;-;-;-;-
1513509071862;-;-;23.66478;-0.60913086;-6.147629;-;-;-;-;-;-;-;-;-;-;-;-;-;-;-
1513509071883;-;-;11.270004;-1.6374359;-0.30577087;-;-;-;-;-;-;-;-;-;-;-;-;-;-;-
1513509071902;-;-;4.9696503;-1.7523651;-0.5787201;-;-;-;-;-;-;-;-;-;-;-;-;-;-;-
1513509071922;-;-;0.3320923;-0.66300964;-1.6285706;-;-;-;-;-;-;-;-;-;-;-;-;-;-;-
1513509071942;-;-;-1.0314178;1.0488586;-1.5615387;-;-;-;-;-;-;-;-;-;-;-;-;-;-;-
1513509071963;-;-;0.04597473;2.1621552;-0.25309753;-;-;-;-;-;-;-;-;-;-;-;-;-;-;-
1513509071983;-;-;3.0183868;1.7252197;0.58966064;-;-;-;-;-;-;-;-;-;-;-;-;-;-;-
1513509072003;-;-;5.1552124;1.121872;-0.4673767;-;-;-;-;-;-;-;-;-;-;-;-;-;-;-
1513509072024;-;-;5.210266;-0.10395813;-1.3053589;-;-;-;-;-;-;-;-;-;-;-;-;-;-;-
1513509072043;-;-;5.647217;-1.0185394;-1.1533203;-;-;-;-;-;-;-;-;-;-;-;-;-;-;-
1513509072063;-;-;7.3626556;-1.210083;-2.108612;-;-;-;-;-;-;-;-;-;-;-;-;-;-;-
1513509072083;-;-;8.827911;-0.6067352;-3.2027588;-;-;-;-;-;-;-;-;-;-;-;-;-;-;-
1513509072103;-;-;9.519836;0.5460663;-2.1708527;-;-;-;-;-;-;-;-;-;-;-;-;-;-;-
1513509072124;-;-;10.168671;2.12146;1.6179657;-;-;-;-;-;-;-;-;-;-;-;-;-;-;-
1513509072144;-;-;9.163101;3.9494324;0.21017456;-;-;-;-;-;-;-;-;-;-;-;-;-;-;-
1513509072164;-;-;7.4332886;4.703598;-7.278885;-;-;-;-;-;-;-;-;-;-;-;-;-;-;-
1513509072185;-;-;4.9385376;2.675705;-8.053406;-;-;-;-;-;-;-;-;-;-;-;-;-;-;-
1513509072205;-;-;3.802475;-0.43554688;-5.856735;-;-;-;-;-;-;-;-;-;-;-;-;-;-;-
1513509072225;-;-;5.031906;-4.2399445;-3.409851;-;-;-;-;-;-;-;-;-;-;-;-;-;-;-
1513509072245;-;-;11.005432;-5.4657745;-4.1819916;-;-;-;-;-;-;-;-;-;-;-;-;-;-;-
1513509072266;-;-;13.5325165;-4.1609344;-7.365082;-;-;-;-;-;-;-;-;-;-;-;-;-;-;-
1513509072287;-;-;19.209167;-3.6126556;-5.1863556;-;-;-;-;-;-;-;-;-;-;-;-;-;-;-
1513509072308;-;-;28.540573;-5.282608;-4.5171814;-;-;-;-;-;-;-;-;-;-;-;-;-;-;-
1513509072328;-;-;27.394943;-5.3712006;-3.7630005;-;-;-;-;-;-;-;-;-;-;-;-;-;-;-
1513509072348;-;-;12.61554;0.39283752;-0.18247986;-;-;-;-;-;-;-;-;-;-;-;-;-;-;-
1513509072369;-;-;7.574539;0.7364044;-0.121414185;-;-;-;-;-;-;-;-;-;-;-;-;-;-;-
1513509072389;-;-;3.6468658;-1.3046417;-0.38598633;-;-;-;-;-;-;-;-;-;-;-;-;-;-;-
1513509072409;-;-;-0.78601074;-2.6190643;-0.7498932;-;-;-;-;-;-;-;-;-;-;-;-;-;-;-
1513509072430;-;-;-2.6403198;-3.1721191;-1.911087;-;-;-;-;-;-;-;-;-;-;-;-;-;-;-
1513509072450;-;-;-1.3893433;-2.6346283;-1.9960785;-;-;-;-;-;-;-;-;-;-;-;-;-;-;-
1513509072471;-;-;3.758194;-1.2974701;-1.5136566;-;-;-;-;-;-;-;-;-;-;-;-;-;-;-
1513509072491;-;-;7.572159;0.010971069;-2.9441833;-;-;-;-;-;-;-;-;-;-;-;-;-;-;-
1513509072512;-;-;7.10289;-0.13508606;-1.693222;-;-;-;-;-;-;-;-;-;-;-;-;-;-;-
1513509072532;-;-;6.857483;-1.7379913;-0.25549316;-;-;-;-;-;-;-;-;-;-;-;-;-;-;-
1513509072552;-;-;7.4045563;-3.5516052;1.270813;-;-;-;-;-;-;-;-;-;-;-;-;-;-;-
1513509072573;-;-;8.56694;-4.712799;2.1147614;-;-;-;-;-;-;-;-;-;-;-;-;-;-;-
1513509072593;-;-;10.7851715;-5.4777374;3.5895844;-;-;-;-;-;-;-;-;-;-;-;-;-;-;-
1513509072613;-;-;10.649902;-6.4737244;0.5298004;-;-;-;-;-;-;-;-;-;-;-;-;-;-;-
1513509072634;-;-;9.142746;-5.4023285;0.26524353;-;-;-;-;-;-;-;-;-;-;-;-;-;-;-
1513509072654;-;-;7.7936096;-3.0715637;0.03300476;-;-;-;-;-;-;-;-;-;-;-;-;-;-;-
1513509072674;-;-;5.5789795;-0.22247314;-4.1783905;-;-;-;-;-;-;-;-;-;-;-;-;-;-;-
1513509072694;-;-;6.059021;2.1837006;-7.8666687;-;-;-;-;-;-;-;-;-;-;-;-;-;-;-
1513509072714;-;-;10.423645;3.7088165;-7.8870087;-;-;-;-;-;-;-;-;-;-;-;-;-;-;-
1513509072735;-;-;12.009811;4.267853;-7.1855164;-;-;-;-;-;-;-;-;-;-;-;-;-;-;-
1513509072755;-;-;13.34816;2.5655823;-5.207901;-;-;-;-;-;-;-;-;-;-;-;-;-;-;-
1513509072775;-;-;16.050018;-0.87968445;-4.6165314;-;-;-;-;-;-;-;-;-;-;-;-;-;-;-
1513509072796;-;-;20.679214;-4.269867;-4.2214966;-;-;-;-;-;-;-;-;-;-;-;-;-;-;-
1513509072816;-;-;22.297684;-3.4977417;-4.61174;-;-;-;-;-;-;-;-;-;-;-;-;-;-;-
1513509072836;-;-;15.720825;1.6893005;-5.143265;-;-;-;-;-;-;-;-;-;-;-;-;-;-;-
1513509072856;-;-;10.505051;3.9350586;-3.0220032;-;-;-;-;-;-;-;-;-;-;-;-;-;-;-
1513509072876;-;-;7.532654;2.5751495;-1.7961731;-;-;-;-;-;-;-;-;-;-;-;-;-;-;-
1513509072897;-;-;4.972046;-0.18655396;-0.88397217;-;-;-;-;-;-;-;-;-;-;-;-;-;-;-
1513509072917;-;-;3.0854187;-2.949463;-0.2004242;-;-;-;-;-;-;-;-;-;-;-;-;-;-;-
1513509072938;-;-;3.1668243;-3.9693909;0.65908813;-;-;-;-;-;-;-;-;-;-;-;-;-;-;-
1513509072958;-;-;5.7369995;-1.3621063;0.8697815;-;-;-;-;-;-;-;-;-;-;-;-;-;-;-
1513509072978;-;-;5.5191193;0.71725464;-1.104248;-;-;-;-;-;-;-;-;-;-;-;-;-;-;-
1513509072999;-;-;4.4525146;1.1553955;-1.7123718;-;-;-;-;-;-;-;-;-;-;-;-;-;-;-
1513509073019;-;-;4.7422028;2.5117035;-3.5164032;-;-;-;-;-;-;-;-;-;-;-;-;-;-;-
1513509073039;-;-;6.5677795;3.7794342;-2.658081;-;-;-;-;-;-;-;-;-;-;-;-;-;-;-
1513509073060;-;-;8.477158;3.0420227;-2.8172913;-;-;-;-;-;-;-;-;-;-;-;-;-;-;-
1513509073080;-;-;10.811508;0.21806335;-2.0643158;-;-;-;-;-;-;-;-;-;-;-;-;-;-;-
1513509073100;-;-;10.624756;-1.3345795;0.5453644;-;-;-;-;-;-;-;-;-;-;-;-;-;-;-
1513509073120;-;-;7.301605;-0.0728302;-5.7992706;-;-;-;-;-;-;-;-;-;-;-;-;-;-;-
1513509073141;-;-;7.9228973;-3.9693909;-10.709778;-;-;-;-;-;-;-;-;-;-;-;-;-;-;-
1513509073161;-;-;18.179657;-9.245026;-6.1739655;-;-;-;-;-;-;-;-;-;-;-;-;-;-;-
1513509073181;-;-;23.534302;-9.503586;-12.904068;-;-;-;-;-;-;-;-;-;-;-;-;-;-;-
1513509073201;-;-;15.44429;-4.4111176;-5.6843567;-;-;-;-;-;-;-;-;-;-;-;-;-;-;-
1513509073221;-;-;12.056488;0.8405609;-6.6731567;-;-;-;-;-;-;-;-;-;-;-;-;-;-;-
1513509073241;-;-;10.138733;-0.5277252;-7.0801697;-;-;-;-;-;-;-;-;-;-;-;-;-;-;-
1513509073261;-;-;8.164719;-0.9586792;-6.4600677;-;-;-;-;-;-;-;-;-;-;-;-;-;-;-
1513509073281;-;-;6.3511047;0.62028503;-3.6959686;-;-;-;-;-;-;-;-;-;-;-;-;-;-;-
1513509073301;-;-;6.9065704;0.47184753;-2.9118652;-;-;-;-;-;-;-;-;-;-;-;-;-;-;-
1513509073321;-;-;5.526306;-0.45231628;-2.8496094;-;-;-;-;-;-;-;-;-;-;-;-;-;-;-
1513509073342;-;-;4.1843567;-3.1170654;-1.1856384;-;-;-;-;-;-;-;-;-;-;-;-;-;-;-
1513509073362;-;-;3.3775177;-5.1856537;-0.4350586;-;-;-;-;-;-;-;-;-;-;-;-;-;-;-
1513509073382;-;-;1.8643799;-3.558792;-1.2885895;-;-;-;-;-;-;-;-;-;-;-;-;-;-;-
1513509073402;-;-;0.65649414;-0.25837708;-2.2618408;-;-;-;-;-;-;-;-;-;-;-;-;-;-;-
1513509073423;-;-;1.620163;1.8820343;-1.7231445;-;-;-;-;-;-;-;-;-;-;-;-;-;-;-
1513509073443;-;-;5.458069;0.8154144;-2.8771515;-;-;-;-;-;-;-;-;-;-;-;-;-;-;-
1513509073463;-;-;8.050995;-0.18894958;-3.180008;-;-;-;-;-;-;-;-;-;-;-;-;-;-;-
1513509073483;-;-;10.920441;-0.56843567;-1.5423737;-;-;-;-;-;-;-;-;-;-;-;-;-;-;-
1513509073504;-;-;13.252396;-0.36732483;0.3203125;-;-;-;-;-;-;-;-;-;-;-;-;-;-;-
1513509073524;-;-;14.910385;-0.81144714;0.31552124;-;-;-;-;-;-;-;-;-;-;-;-;-;-;-
1513509073544;-;-;16.674911;-1.803833;-0.27105713;-;-;-;-;-;-;-;-;-;-;-;-;-;-;-
1513509073566;-;-;12.938751;-3.2523346;-0.042419434;-;-;-;-;-;-;-;-;-;-;-;-;-;-;-
1513509073585;-;-;8.401749;-5.8189087;-5.4868317;-;-;-;-;-;-;-;-;-;-;-;-;-;-;-
1513509073605;-;-;5.027115;-9.515564;-13.655838;-;-;-;-;-;-;-;-;-;-;-;-;-;-;-
1513509073626;-;-;9.155914;-6.799347;-9.620422;-;-;-;-;-;-;-;-;-;-;-;-;-;-;-
1513509073646;-;-;12.267181;-0.35055542;-1.2131805;-;-;-;-;-;-;-;-;-;-;-;-;-;-;-
1513509073666;-;-;12.634689;1.9215393;-7.050247;-;-;-;-;-;-;-;-;-;-;-;-;-;-;-
1513509073687;-;-;14.69371;-1.4016113;-8.036652;-;-;-;-;-;-;-;-;-;-;-;-;-;-;-
1513509073706;-;-;14.311829;-3.7072296;-6.705475;-;-;-;-;-;-;-;-;-;-;-;-;-;-;-
1513509073726;-;-;10.368576;-2.818985;-4.618927;-;-;-;-;-;-;-;-;-;-;-;-;-;-;-
1513509073746;-;-;6.917343;-0.07522583;-3.2566223;-;-;-;-;-;-;-;-;-;-;-;-;-;-;-
1513509073767;-;-;5.5155334;1.1841278;-3.0782623;-;-;-;-;-;-;-;-;-;-;-;-;-;-;-
1513509073787;-;-;4.150833;1.0691986;-3.3368378;-;-;-;-;-;-;-;-;-;-;-;-;-;-;-
1513509073807;-;-;3.3487854;-0.06086731;-3.5032349;-;-;-;-;-;-;-;-;-;-;-;-;-;-;-
1513509073827;-;-;3.1285095;-0.105148315;-3.7318726;-;-;-;-;-;-;-;-;-;-;-;-;-;-;-
1513509073847;-;-;3.6779785;0.50416565;-3.4146423;-;-;-;-;-;-;-;-;-;-;-;-;-;-;-
1513509073868;-;-;3.9952087;0.8668976;-2.9034882;-;-;-;-;-;-;-;-;-;-;-;-;-;-;-
1513509073887;-;-;5.016342;0.93392944;-3.1237488;-;-;-;-;-;-;-;-;-;-;-;-;-;-;-
1513509073907;-;-;7.062195;1.2906647;-3.3823242;-;-;-;-;-;-;-;-;-;-;-;-;-;-;-
1513509073927;-;-;7.487152;1.8485107;-3.1608582;-;-;-;-;-;-;-;-;-;-;-;-;-;-;-
1513509073948;-;-;7.1376038;2.275879;-1.8141174;-;-;-;-;-;-;-;-;-;-;-;-;-;-;-
1513509073967;-;-;7.300415;2.6505737;-0.71398926;-;-;-;-;-;-;-;-;-;-;-;-;-;-;-
1513509073987;-;-;8.074936;2.2579193;-1.274231;-;-;-;-;-;-;-;-;-;-;-;-;-;-;-
1513509074007;-;-;9.091278;1.3241882;-2.484497;-;-;-;-;-;-;-;-;-;-;-;-;-;-;-
1513509074028;-;-;10.394913;0.16059875;-2.0631256;-;-;-;-;-;-;-;-;-;-;-;-;-;-;-
1513509074048;-;-;11.143097;0.888443;-0.5320282;-;-;-;-;-;-;-;-;-;-;-;-;-;-;-
1513509074069;-;-;10.1171875;1.9011841;-3.9222107;-;-;-;-;-;-;-;-;-;-;-;-;-;-;-
1513509074088;-;-;6.3259735;1.7802734;-12.688583;-;-;-;-;-;-;-;-;-;-;-;-;-;-;-
1513509074108;-;-;8.156342;1.0895538;-18.456223;-;-;-;-;-;-;-;-;-;-;-;-;-;-;-
1513509074129;-;-;20.057907;-3.6354065;-0.7846222;-;-;-;-;-;-;-;-;-;-;-;-;-;-;-
1513509074149;-;-;16.103897;-5.0072784;-9.638367;-;-;-;-;-;-;-;-;-;-;-;-;-;-;-
1513509074169;-;-;8.383789;-2.9590454;-7.6775208;-;-;-;-;-;-;-;-;-;-;-;-;-;-;-
1513509074190;-;-;8.653137;-4.7439117;-3.0327759;-;-;-;-;-;-;-;-;-;-;-;-;-;-;-
1513509074210;-;-;10.252457;-4.673294;-3.6983643;-;-;-;-;-;-;-;-;-;-;-;-;-;-;-
1513509074230;-;-;8.9392395;-2.7567291;-4.958908;-;-;-;-;-;-;-;-;-;-;-;-;-;-;-
1513509074250;-;-;7.4344788;0.576004;-3.420639;-;-;-;-;-;-;-;-;-;-;-;-;-;-;-
1513509074270;-;-;6.244568;3.4454498;-3.5104065;-;-;-;-;-;-;-;-;-;-;-;-;-;-;-
1513509074291;-;-;6.075775;3.134201;-3.8468018;-;-;-;-;-;-;-;-;-;-;-;-;-;-;-
1513509074310;-;-;5.9632416;1.1003265;-1.4514008;-;-;-;-;-;-;-;-;-;-;-;-;-;-;-
1513509074330;-;-;6.0183105;-1.1933136;-0.23155212;-;-;-;-;-;-;-;-;-;-;-;-;-;-;-
1513509074350;-;-;5.174362;-1.9055939;-0.5811157;-;-;-;-;-;-;-;-;-;-;-;-;-;-;-
1513509074371;-;-;3.6660156;-1.6134949;-1.480133;-;-;-;-;-;-;-;-;-;-;-;-;-;-;-
1513509074390;-;-;3.7641754;-0.6438446;-2.2402954;-;-;-;-;-;-;-;-;-;-;-;-;-;-;-
1513509074410;-;-;5.5382843;0.7735138;-2.2857819;-;-;-;-;-;-;-;-;-;-;-;-;-;-;-
1513509074430;-;-;5.9848022;2.0077362;-1.5088654;-;-;-;-;-;-;-;-;-;-;-;-;-;-;-
1513509074451;-;-;6.5821533;1.2140503;-0.39315796;-;-;-;-;-;-;-;-;-;-;-;-;-;-;-
1513509074471;-;-;7.0574036;-0.6977234;0.29637146;-;-;-;-;-;-;-;-;-;-;-;-;-;-;-
1513509074491;-;-;7.248932;-2.8656616;-0.5463867;-;-;-;-;-;-;-;-;-;-;-;-;-;-;-
1513509074511;-;-;6.6180573;-4.393173;-2.8340454;-;-;-;-;-;-;-;-;-;-;-;-;-;-;-
1513509074531;-;-;6.86467;-3.8101807;-3.5654755;-;-;-;-;-;-;-;-;-;-;-;-;-;-;-
1513509074551;-;-;6.3582916;-2.9075623;-3.3607788;-;-;-;-;-;-;-;-;-;-;-;-;-;-;-
1513509074571;-;-;6.3654785;-0.8533478;-6.3954315;-;-;-;-;-;-;-;-;-;-;-;-;-;-;-
1513509074591;-;-;8.643555;1.7168274;-6.0171356;-;-;-;-;-;-;-;-;-;-;-;-;-;-;-
1513509074612;-;-;12.421616;3.3963623;-6.006363;-;-;-;-;-;-;-;-;-;-;-;-;-;-;-
1513509074632;-;-;19.868774;1.5935364;-6.0147552;-;-;-;-;-;-;-;-;-;-;-;-;-;-;-
1513509074652;-;-;23.54747;-1.779892;-3.6839905;-;-;-;-;-;-;-;-;-;-;-;-;-;-;-
1513509074672;-;-;18.689621;-1.8002472;-6.0123596;-;-;-;-;-;-;-;-;-;-;-;-;-;-;-
1513509074692;-;-;10.904877;2.7056427;-2.6987762;-;-;-;-;-;-;-;-;-;-;-;-;-;-;-
1513509074713;-;-;7.312378;6.111389;-2.08107;-;-;-;-;-;-;-;-;-;-;-;-;-;-;-
1513509074733;-;-;1.7398834;5.5427704;-1.9350281;-;-;-;-;-;-;-;-;-;-;-;-;-;-;-
1513509074753;-;-;0.36799622;2.6290283;0.24728394;-;-;-;-;-;-;-;-;-;-;-;-;-;-;-
1513509074774;-;-;2.0140076;-0.94911194;2.4475555;-;-;-;-;-;-;-;-;-;-;-;-;-;-;-
1513509074794;-;-;3.4720764;-3.8125763;2.3087006;-;-;-;-;-;-;-;-;-;-;-;-;-;-;-
1513509074814;-;-;4.8990326;-5.2371216;0.009063721;-;-;-;-;-;-;-;-;-;-;-;-;-;-;-
1513509074834;-;-;4.900223;-3.3469086;-0.6996155;-;-;-;-;-;-;-;-;-;-;-;-;-;-;-
1513509074855;-;-;4.785309;-0.7336273;-1.7961731;-;-;-;-;-;-;-;-;-;-;-;-;-;-;-
1513509074874;-;-;4.6703796;0.92555237;-0.82173157;-;-;-;-;-;-;-;-;-;-;-;-;-;-;-
1513509074894;-;-;4.2549896;1.8856201;-0.3764038;-;-;-;-;-;-;-;-;-;-;-;-;-;-;-
1513509074914;-;-;9.37619;2.675705;0.50346375;-;-;-;-;-;-;-;-;-;-;-;-;-;-;-
1513509074935;-;-;10.581665;3.7710571;-3.4864655;-;-;-;-;-;-;-;-;-;-;-;-;-;-;-
1513509074955;-;-;9.940018;4.7095795;-11.897308;-;-;-;-;-;-;-;-;-;-;-;-;-;-;-
1513509074975;-;-;5.844742;1.1326447;-14.633881;-;-;-;-;-;-;-;-;-;-;-;-;-;-;-
1513509074996;-;-;8.993118;-3.7215881;-5.0798187;-;-;-;-;-;-;-;-;-;-;-;-;-;-;-
1513509075016;-;-;12.742432;-6.610199;-6.17276;-;-;-;-;-;-;-;-;-;-;-;-;-;-;-
1513509075036;-;-;21.167633;-6.436615;-5.4437256;-;-;-;-;-;-;-;-;-;-;-;-;-;-;-
1513509075057;-;-;32.838165;-7.4026794;-0.32254028;-;-;-;-;-;-;-;-;-;-;-;-;-;-;-
1513509075077;-;-;29.240875;-8.517181;-6.337967;-;-;-;-;-;-;-;-;-;-;-;-;-;-;-
1513509075097;-;-;15.453857;-2.8991852;-0.882782;-;-;-;-;-;-;-;-;-;-;-;-;-;-;-
1513509075117;-;-;8.3897705;-0.028533936;0.36579895;-;-;-;-;-;-;-;-;-;-;-;-;-;-;-
1513509075138;-;-;4.067047;0.064834595;0.9715271;-;-;-;-;-;-;-;-;-;-;-;-;-;-;-
1513509075157;-;-;0.15132141;-1.3034515;0.08807373;-;-;-;-;-;-;-;-;-;-;-;-;-;-;-
1513509075177;-;-;-2.6044006;-2.324585;-1.8512268;-;-;-;-;-;-;-;-;-;-;-;-;-;-;-
1513509075198;-;-;-2.9312134;-1.5787811;-2.3791504;-;-;-;-;-;-;-;-;-;-;-;-;-;-;-
1513509075218;-;-;3.019577;-0.047698975;-2.1493073;-;-;-;-;-;-;-;-;-;-;-;-;-;-;-
1513509075238;-;-;6.778473;0.7364044;-4.155655;-;-;-;-;-;-;-;-;-;-;-;-;-;-;-
1513509075258;-;-;7.810379;1.3600922;-4.444153;-;-;-;-;-;-;-;-;-;-;-;-;-;-;-
1513509075279;-;-;7.078949;1.367279;-2.9441833;-;-;-;-;-;-;-;-;-;-;-;-;-;-;-
1513509075299;-;-;5.7956543;0.12588501;0.3095398;-;-;-;-;-;-;-;-;-;-;-;-;-;-;-
1513509075319;-;-;5.9848022;-1.3262024;1.2432709;-;-;-;-;-;-;-;-;-;-;-;-;-;-;-
1513509075340;-;-;4.676361;-2.7172241;0.37417603;-;-;-;-;-;-;-;-;-;-;-;-;-;-;-
1513509075360;-;-;3.8778992;-3.7622986;0.176651;-;-;-;-;-;-;-;-;-;-;-;-;-;-;-
1513509075380;-;-;3.2111206;-5.7949677;-2.310913;-;-;-;-;-;-;-;-;-;-;-;-;-;-;-
1513509075401;-;-;5.083374;-2.988968;-3.5451355;-;-;-;-;-;-;-;-;-;-;-;-;-;-;-
1513509075421;-;-;7.6942596;1.1553955;-6.952072;-;-;-;-;-;-;-;-;-;-;-;-;-;-;-
1513509075441;-;-;13.124313;5.1608887;-5.887863;-;-;-;-;-;-;-;-;-;-;-;-;-;-;-
1513509075462;-;-;21.933777;5.0208282;-1.9410095;-;-;-;-;-;-;-;-;-;-;-;-;-;-;-
1513509075482;-;-;28.090454;3.608261;-4.8427887;-;-;-;-;-;-;-;-;-;-;-;-;-;-;-
1513509075502;-;-;35.729156;1.1003265;-11.420853;-;-;-;-;-;-;-;-;-;-;-;-;-;-;-
1513509075523;-;-;16.05362;0.58917236;-1.7195587;-;-;-;-;-;-;-;-;-;-;-;-;-;-;-
1513509075543;-;-;6.5354614;0.7435913;0.086868286;-;-;-;-;-;-;-;-;-;-;-;-;-;-;-
1513509075563;-;-;0.3931427;0.31622314;-0.6984253;-;-;-;-;-;-;-;-;-;-;-;-;-;-;-
1513509075584;-;-;-3.0138092;0.6573944;0.76322937;-;-;-;-;-;-;-;-;-;-;-;-;-;-;-
1513509075604;-;-;-2.1195831;0.7735138;1.0661011;-;-;-;-;-;-;-;-;-;-;-;-;-;-;-
1513509075625;-;-;0.9270477;0.3210144;-0.0076904297;-;-;-;-;-;-;-;-;-;-;-;-;-;-;-
1513509075645;-;-;2.185196;-0.76116943;0.117996216;-;-;-;-;-;-;-;-;-;-;-;-;-;-;-
1513509075665;-;-;3.9784546;-2.5615997;0.666275;-;-;-;-;-;-;-;-;-;-;-;-;-;-;-
1513509075686;-;-;6.826355;-3.4426727;-0.81095886;-;-;-;-;-;-;-;-;-;-;-;-;-;-;-
1513509075706;-;-;9.346252;-1.9822083;-1.9386139;-;-;-;-;-;-;-;-;-;-;-;-;-;-;-
1513509075726;-;-;9.9783325;0.3904419;-2.9130554;-;-;-;-;-;-;-;-;-;-;-;-;-;-;-
1513509075746;-;-;9.200211;2.6457825;-4.172409;-;-;-;-;-;-;-;-;-;-;-;-;-;-;-
1513509075767;-;-;8.007904;3.4490356;-5.326416;-;-;-;-;-;-;-;-;-;-;-;-;-;-;-
1513509075787;-;-;5.189926;1.6222687;-7.659561;-;-;-;-;-;-;-;-;-;-;-;-;-;-;-
1513509075807;-;-;6.8910065;-1.6194916;-4.527954;-;-;-;-;-;-;-;-;-;-;-;-;-;-;-
1513509075827;-;-;9.3103485;-3.1577606;-6.1548157;-;-;-;-;-;-;-;-;-;-;-;-;-;-;-
1513509075848;-;-;14.548859;-3.8856049;-4.555481;-;-;-;-;-;-;-;-;-;-;-;-;-;-;-
1513509075868;-;-;32.40721;-5.788986;2.1542664;-;-;-;-;-;-;-;-;-;-;-;-;-;-;-
1513509075889;-;-;32.37967;-6.879547;-7.7828674;-;-;-;-;-;-;-;-;-;-;-;-;-;-;-
