TimeStamp[ms];Prox[Cm];Lux[lux];AccX[m/s^2];AccY[m/s^2];AccZ[m/s^2];GyroX[rad/s];GyroY[rad/s];GyroZ[rad/s];MagnX[uT];MagnY[uT];MagnZ[uT];OrienYaw[degrees];OrienPitch[degrees];OrienRoll[degrees];Press[Pa];Temp[C°];Batt[%];Lat;Lng;Speed[m/s]
1513509128477;-;-;9.307953;-0.07522583;-0.48054504;-;-;-;-;-;-;-;-;-;-;-;-;-;-;-
1513509128478;-;-;9.391739;-0.1985321;-0.42549133;-;-;-;-;-;-;-;-;-;-;-;-;-;-;-
1513509128496;-;-;9.463577;-0.62828064;-0.7307434;-;-;-;-;-;-;-;-;-;-;-;-;-;-;-
1513509128516;-;-;9.3151245;-0.82940674;-0.77145386;-;-;-;-;-;-;-;-;-;-;-;-;-;-;-
1513509128536;-;-;9.357025;-0.86172485;-0.69602966;-;-;-;-;-;-;-;-;-;-;-;-;-;-;-
1513509128557;-;-;9.31633;-0.6905365;-0.50450134;-;-;-;-;-;-;-;-;-;-;-;-;-;-;-
1513509128577;-;-;9.214569;-0.62350464;-0.41830444;-;-;-;-;-;-;-;-;-;-;-;-;-;-;-
1513509128597;-;-;9.178665;-0.5780029;-0.5691376;-;-;-;-;-;-;-;-;-;-;-;-;-;-;-
1513509128617;-;-;9.3103485;-0.4559021;-0.48654175;-;-;-;-;-;-;-;-;-;-;-;-;-;-;-
1513509128637;-;-;9.214569;-0.41760254;-0.6337738;-;-;-;-;-;-;-;-;-;-;-;-;-;-;-
1513509128657;-;-;9.306747;-0.51934814;-0.7175751;-;-;-;-;-;-;-;-;-;-;-;-;-;-;-
1513509128678;-;-;9.181061;-0.5432892;-0.7163849;-;-;-;-;-;-;-;-;-;-;-;-;-;-;-
1513509128698;-;-;9.227737;-0.46427917;-0.59547424;-;-;-;-;-;-;-;-;-;-;-;-;-;-;-
1513509128725;-;-;9.045776;-0.6510315;-0.55596924;-;-;-;-;-;-;-;-;-;-;-;-;-;-;-
1513509128738;-;-;8.997894;-0.7587738;-0.4733734;-;-;-;-;-;-;-;-;-;-;-;-;-;-;-
1513509128759;-;-;9.014664;-0.6941223;-0.31774902;-;-;-;-;-;-;-;-;-;-;-;-;-;-;-
1513509128779;-;-;9.031418;-0.5744171;-0.22198486;-;-;-;-;-;-;-;-;-;-;-;-;-;-;-
1513509128800;-;-;8.892548;-0.8688965;0.28559875;-;-;-;-;-;-;-;-;-;-;-;-;-;-;-
1513509128819;-;-;10.166275;-0.76356506;-0.8684082;-;-;-;-;-;-;-;-;-;-;-;-;-;-;-
1513509128839;-;-;9.038605;-1.107132;0.52381897;-;-;-;-;-;-;-;-;-;-;-;-;-;-;-
1513509128859;-;-;8.441254;-0.63067627;-0.1776886;-;-;-;-;-;-;-;-;-;-;-;-;-;-;-
1513509128880;-;-;8.620819;-0.4163971;-0.49731445;-;-;-;-;-;-;-;-;-;-;-;-;-;-;-
1513509128900;-;-;8.507095;0.8525238;0.7931671;-;-;-;-;-;-;-;-;-;-;-;-;-;-;-
1513509128920;-;-;7.7337646;0.088775635;-1.5004883;-;-;-;-;-;-;-;-;-;-;-;-;-;-;-
1513509128940;-;-;9.230133;0.32460022;0.06892395;-;-;-;-;-;-;-;-;-;-;-;-;-;-;-
1513509128960;-;-;9.458786;0.5472717;-1.5818787;-;-;-;-;-;-;-;-;-;-;-;-;-;-;-
1513509128980;-;-;9.012268;1.2595367;-1.8763733;-;-;-;-;-;-;-;-;-;-;-;-;-;-;-
1513509129001;-;-;9.407303;2.0915222;-1.4095001;-;-;-;-;-;-;-;-;-;-;-;-;-;-;-
1513509129021;-;-;10.608002;2.3620758;-1.2945862;-;-;-;-;-;-;-;-;-;-;-;-;-;-;-
1513509129041;-;-;10.475128;1.5863495;-0.5499878;-;-;-;-;-;-;-;-;-;-;-;-;-;-;-
1513509129062;-;-;9.5677185;1.0368805;0.2341156;-;-;-;-;-;-;-;-;-;-;-;-;-;-;-
1513509129083;-;-;8.963181;0.41079712;-0.26626587;-;-;-;-;-;-;-;-;-;-;-;-;-;-;-
1513509129104;-;-;8.848267;-0.15663147;-0.032836914;-;-;-;-;-;-;-;-;-;-;-;-;-;-;-
1513509129124;-;-;9.540192;0.36410522;0.055755615;-;-;-;-;-;-;-;-;-;-;-;-;-;-;-
1513509129144;-;-;8.252106;2.2591248;-0.49371338;-;-;-;-;-;-;-;-;-;-;-;-;-;-;-
1513509129165;-;-;9.379776;0.8621063;-1.8440552;-;-;-;-;-;-;-;-;-;-;-;-;-;-;-
1513509129185;-;-;8.824326;1.2355957;1.0062408;-;-;-;-;-;-;-;-;-;-;-;-;-;-;-
1513509129205;-;-;8.212601;0.095962524;-0.72595215;-;-;-;-;-;-;-;-;-;-;-;-;-;-;-
1513509129226;-;-;8.214996;-0.739624;-0.5320282;-;-;-;-;-;-;-;-;-;-;-;-;-;-;-
1513509129246;-;-;8.115631;-0.66539;-0.3440857;-;-;-;-;-;-;-;-;-;-;-;-;-;-;-
1513509129266;-;-;5.337158;0.92674255;-1.3149261;-;-;-;-;-;-;-;-;-;-;-;-;-;-;-
1513509129286;-;-;9.595245;1.367279;-1.0958557;-;-;-;-;-;-;-;-;-;-;-;-;-;-;-
1513509129307;-;-;10.161484;0.8213959;-2.1564941;-;-;-;-;-;-;-;-;-;-;-;-;-;-;-
1513509129327;-;-;11.815872;1.1996918;-1.4514008;-;-;-;-;-;-;-;-;-;-;-;-;-;-;-
1513509129348;-;-;9.785599;0.50416565;-1.2885895;-;-;-;-;-;-;-;-;-;-;-;-;-;-;-
1513509129368;-;-;9.373795;1.5707855;-1.8991089;-;-;-;-;-;-;-;-;-;-;-;-;-;-;-
1513509129388;-;-;7.501526;1.674942;-2.6951904;-;-;-;-;-;-;-;-;-;-;-;-;-;-;-
1513509129409;-;-;9.240906;2.0292816;-2.5575256;-;-;-;-;-;-;-;-;-;-;-;-;-;-;-
1513509129429;-;-;13.454712;3.5304413;-1.90271;-;-;-;-;-;-;-;-;-;-;-;-;-;-;-
1513509129449;-;-;13.212891;3.1054688;-5.3443756;-;-;-;-;-;-;-;-;-;-;-;-;-;-;-
1513509129469;-;-;9.280411;-0.59954834;-7.3638763;-;-;-;-;-;-;-;-;-;-;-;-;-;-;-
1513509129490;-;-;8.236542;-0.65701294;-5.480835;-;-;-;-;-;-;-;-;-;-;-;-;-;-;-
1513509129510;-;-;10.885727;-0.6689911;-3.104599;-;-;-;-;-;-;-;-;-;-;-;-;-;-;-
1513509129530;-;-;8.74411;-0.76116943;-3.7558136;-;-;-;-;-;-;-;-;-;-;-;-;-;-;-
1513509129552;-;-;6.35231;0.02772522;-3.4242249;-;-;-;-;-;-;-;-;-;-;-;-;-;-;-
1513509129572;-;-;5.198303;0.5245209;-3.401474;-;-;-;-;-;-;-;-;-;-;-;-;-;-;-
1513509129592;-;-;6.299637;0.04447937;-4.1496735;-;-;-;-;-;-;-;-;-;-;-;-;-;-;-
1513509129612;-;-;4.8870544;-0.4547119;-3.9605255;-;-;-;-;-;-;-;-;-;-;-;-;-;-;-
1513509129633;-;-;6.0135345;-0.8593292;-3.2279053;-;-;-;-;-;-;-;-;-;-;-;-;-;-;-
1513509129653;-;-;8.98233;-1.4722443;-3.5128021;-;-;-;-;-;-;-;-;-;-;-;-;-;-;-
1513509129673;-;-;10.980301;-2.7148285;-4.7829285;-;-;-;-;-;-;-;-;-;-;-;-;-;-;-
1513509129694;-;-;9.175064;-3.618637;-2.9669342;-;-;-;-;-;-;-;-;-;-;-;-;-;-;-
1513509129714;-;-;6.202667;-2.2240143;-2.4258423;-;-;-;-;-;-;-;-;-;-;-;-;-;-;-
1513509129734;-;-;6.9472656;-1.7379913;-3.4433746;-;-;-;-;-;-;-;-;-;-;-;-;-;-;-
1513509129755;-;-;7.77446;-2.0528412;-1.6608887;-;-;-;-;-;-;-;-;-;-;-;-;-;-;-
1513509129776;-;-;8.200638;-2.2024689;-3.1273346;-;-;-;-;-;-;-;-;-;-;-;-;-;-;-
1513509129795;-;-;9.29837;-2.4969635;-3.5427399;-;-;-;-;-;-;-;-;-;-;-;-;-;-;-
1513509129815;-;-;9.69342;-1.922348;-4.1065674;-;-;-;-;-;-;-;-;-;-;-;-;-;-;-
1513509129836;-;-;9.155914;-1.5991364;-3.1740265;-;-;-;-;-;-;-;-;-;-;-;-;-;-;-
1513509129856;-;-;9.482727;-2.0384674;-5.246216;-;-;-;-;-;-;-;-;-;-;-;-;-;-;-
1513509129876;-;-;7.4488525;-3.7180023;-0.4350586;-;-;-;-;-;-;-;-;-;-;-;-;-;-;-
1513509129897;-;-;11.873337;-4.257889;-5.6436462;-;-;-;-;-;-;-;-;-;-;-;-;-;-;-
1513509129917;-;-;10.38414;-2.490982;-4.0993805;-;-;-;-;-;-;-;-;-;-;-;-;-;-;-
1513509129937;-;-;10.8797455;-2.8022156;-4.342392;-;-;-;-;-;-;-;-;-;-;-;-;-;-;-
1513509129958;-;-;10.841431;-3.1122742;-5.582596;-;-;-;-;-;-;-;-;-;-;-;-;-;-;-
1513509129978;-;-;13.399643;-3.5085144;-6.25177;-;-;-;-;-;-;-;-;-;-;-;-;-;-;-
1513509129999;-;-;16.240356;-1.9881897;-1.0599518;-;-;-;-;-;-;-;-;-;-;-;-;-;-;-
1513509130019;-;-;10.772003;-2.8620758;-5.9297485;-;-;-;-;-;-;-;-;-;-;-;-;-;-;-
1513509130040;-;-;7.8798065;-3.617447;-7.3519135;-;-;-;-;-;-;-;-;-;-;-;-;-;-;-
1513509130060;-;-;6.4444885;-2.566391;-7.620056;-;-;-;-;-;-;-;-;-;-;-;-;-;-;-
1513509130080;-;-;5.023529;-0.933548;-6.737793;-;-;-;-;-;-;-;-;-;-;-;-;-;-;-
1513509130100;-;-;4.6500244;0.23242188;-3.5499115;-;-;-;-;-;-;-;-;-;-;-;-;-;-;-
1513509130120;-;-;6.647995;0.7950592;-2.6209717;-;-;-;-;-;-;-;-;-;-;-;-;-;-;-
1513509130140;-;-;10.997055;-0.076416016;-3.9437714;-;-;-;-;-;-;-;-;-;-;-;-;-;-;-
1513509130160;-;-;13.033325;-1.4758301;-6.8622894;-;-;-;-;-;-;-;-;-;-;-;-;-;-;-
1513509130180;-;-;12.094803;-2.3676758;-6.4397125;-;-;-;-;-;-;-;-;-;-;-;-;-;-;-
1513509130200;-;-;10.095642;-1.8445435;-4.1460724;-;-;-;-;-;-;-;-;-;-;-;-;-;-;-
1513509130221;-;-;7.818756;-0.9945984;-2.0978394;-;-;-;-;-;-;-;-;-;-;-;-;-;-;-
1513509130241;-;-;4.620102;0.28988647;-1.4705505;-;-;-;-;-;-;-;-;-;-;-;-;-;-;-
1513509130261;-;-;3.043518;0.87527466;-1.243103;-;-;-;-;-;-;-;-;-;-;-;-;-;-;-
1513509130281;-;-;1.8045197;1.1470184;-1.7339172;-;-;-;-;-;-;-;-;-;-;-;-;-;-;-
1513509130302;-;-;2.453354;1.0775757;-1.392746;-;-;-;-;-;-;-;-;-;-;-;-;-;-;-
1513509130322;-;-;4.0454865;0.87527466;-1.6644897;-;-;-;-;-;-;-;-;-;-;-;-;-;-;-
1513509130342;-;-;5.4724426;1.1996918;-2.128952;-;-;-;-;-;-;-;-;-;-;-;-;-;-;-
1513509130363;-;-;7.2980194;1.6857147;-2.7394867;-;-;-;-;-;-;-;-;-;-;-;-;-;-;-
1513509130383;-;-;8.794388;2.3177795;-3.135727;-;-;-;-;-;-;-;-;-;-;-;-;-;-;-
1513509130403;-;-;9.698196;2.5596008;-3.2326813;-;-;-;-;-;-;-;-;-;-;-;-;-;-;-
1513509130423;-;-;10.058533;2.2471466;-2.9286194;-;-;-;-;-;-;-;-;-;-;-;-;-;-;-
1513509130444;-;-;10.186615;1.3409424;-2.4438019;-;-;-;-;-;-;-;-;-;-;-;-;-;-;-
1513509130464;-;-;10.363785;0.4000244;-2.3037415;-;-;-;-;-;-;-;-;-;-;-;-;-;-;-
1513509130484;-;-;10.751648;0.20968628;-2.3396454;-;-;-;-;-;-;-;-;-;-;-;-;-;-;-
1513509130505;-;-;11.025787;0.24919128;-2.3348541;-;-;-;-;-;-;-;-;-;-;-;-;-;-;-
1513509130525;-;-;10.004654;1.2236328;-5.2031097;-;-;-;-;-;-;-;-;-;-;-;-;-;-;-
1513509130545;-;-;11.023392;3.2419434;-5.246216;-;-;-;-;-;-;-;-;-;-;-;-;-;-;-
1513509130566;-;-;14.617096;4.5084686;-5.1240997;-;-;-;-;-;-;-;-;-;-;-;-;-;-;-
1513509130586;-;-;12.77475;3.307785;-8.995529;-;-;-;-;-;-;-;-;-;-;-;-;-;-;-
1513509130606;-;-;8.940445;2.4793854;-9.761673;-;-;-;-;-;-;-;-;-;-;-;-;-;-;-
1513509130627;-;-;6.601303;1.1553955;-6.986801;-;-;-;-;-;-;-;-;-;-;-;-;-;-;-
1513509130646;-;-;5.889023;-0.8425598;-5.0858;-;-;-;-;-;-;-;-;-;-;-;-;-;-;-
1513509130666;-;-;7.7601013;-2.3497162;-4.705124;-;-;-;-;-;-;-;-;-;-;-;-;-;-;-
1513509130687;-;-;8.6423645;-1.664978;-5.9129944;-;-;-;-;-;-;-;-;-;-;-;-;-;-;-
1513509130707;-;-;7.2621;0.27313232;-3.7282867;-;-;-;-;-;-;-;-;-;-;-;-;-;-;-
1513509130727;-;-;6.522293;2.4446716;-2.879547;-;-;-;-;-;-;-;-;-;-;-;-;-;-;-
1513509130748;-;-;6.2266083;2.8983765;-3.8312378;-;-;-;-;-;-;-;-;-;-;-;-;-;-;-
1513509130768;-;-;5.711853;1.2858734;-2.97052;-;-;-;-;-;-;-;-;-;-;-;-;-;-;-
1513509130788;-;-;5.165985;-0.7096863;-1.7961731;-;-;-;-;-;-;-;-;-;-;-;-;-;-;-
1513509130808;-;-;4.5267334;-2.949463;-1.5040741;-;-;-;-;-;-;-;-;-;-;-;-;-;-;-
1513509130829;-;-;4.7769165;-4.068756;-2.0786743;-;-;-;-;-;-;-;-;-;-;-;-;-;-;-
1513509130849;-;-;5.3694916;-3.775467;-2.800537;-;-;-;-;-;-;-;-;-;-;-;-;-;-;-
1513509130869;-;-;5.4257507;-3.0787506;-2.867569;-;-;-;-;-;-;-;-;-;-;-;-;-;-;-
1513509130890;-;-;5.5861664;-1.3561249;-2.531189;-;-;-;-;-;-;-;-;-;-;-;-;-;-;-
1513509130910;-;-;7.9935303;-0.07043457;-1.7626495;-;-;-;-;-;-;-;-;-;-;-;-;-;-;-
1513509130930;-;-;11.250839;-0.064453125;-1.3939362;-;-;-;-;-;-;-;-;-;-;-;-;-;-;-
1513509130950;-;-;11.988251;-2.558014;-3.341629;-;-;-;-;-;-;-;-;-;-;-;-;-;-;-
1513509130971;-;-;12.412033;-3.2726746;-4.460907;-;-;-;-;-;-;-;-;-;-;-;-;-;-;-
1513509130991;-;-;14.266342;-2.5520325;-4.61174;-;-;-;-;-;-;-;-;-;-;-;-;-;-;-
1513509131011;-;-;15.153397;-1.1681824;-5.1696014;-;-;-;-;-;-;-;-;-;-;-;-;-;-;-
1513509131032;-;-;12.12233;0.2132721;-7.1076965;-;-;-;-;-;-;-;-;-;-;-;-;-;-;-
1513509131052;-;-;7.324356;-0.759964;-12.905258;-;-;-;-;-;-;-;-;-;-;-;-;-;-;-
1513509131073;-;-;5.016342;-3.3409119;-14.957092;-;-;-;-;-;-;-;-;-;-;-;-;-;-;-
1513509131093;-;-;11.079651;-4.5416107;-4.3196564;-;-;-;-;-;-;-;-;-;-;-;-;-;-;-
1513509131113;-;-;15.619064;-2.2982483;-5.647232;-;-;-;-;-;-;-;-;-;-;-;-;-;-;-
1513509131133;-;-;6.1475983;-1.1789551;-12.146301;-;-;-;-;-;-;-;-;-;-;-;-;-;-;-
1513509131153;-;-;8.510681;-0.44273376;-6.6252747;-;-;-;-;-;-;-;-;-;-;-;-;-;-;-
1513509131174;-;-;7.0214844;0.36291504;-1.1772614;-;-;-;-;-;-;-;-;-;-;-;-;-;-;-
1513509131194;-;-;3.0531006;0.58677673;1.9818878;-;-;-;-;-;-;-;-;-;-;-;-;-;-;-
1513509131214;-;-;0.32730103;-0.95150757;0.9487915;-;-;-;-;-;-;-;-;-;-;-;-;-;-;-
1513509131235;-;-;2.6963654;-1.7703247;-1.1605072;-;-;-;-;-;-;-;-;-;-;-;-;-;-;-
1513509131255;-;-;4.666794;-0.83657837;-3.468521;-;-;-;-;-;-;-;-;-;-;-;-;-;-;-
1513509131276;-;-;5.1564026;0.03251648;-3.5690765;-;-;-;-;-;-;-;-;-;-;-;-;-;-;-
1513509131296;-;-;4.952896;1.8892212;-2.9812927;-;-;-;-;-;-;-;-;-;-;-;-;-;-;-
1513509131316;-;-;5.337158;4.447418;-1.98172;-;-;-;-;-;-;-;-;-;-;-;-;-;-;-
1513509131336;-;-;6.651581;4.5384064;-2.697586;-;-;-;-;-;-;-;-;-;-;-;-;-;-;-
1513509131357;-;-;8.608841;4.1253967;-4.029953;-;-;-;-;-;-;-;-;-;-;-;-;-;-;-
1513509131377;-;-;8.922485;2.727188;-4.738632;-;-;-;-;-;-;-;-;-;-;-;-;-;-;-
1513509131398;-;-;10.805527;0.8381653;-4.5219574;-;-;-;-;-;-;-;-;-;-;-;-;-;-;-
1513509131418;-;-;11.040161;1.6845093;-4.349579;-;-;-;-;-;-;-;-;-;-;-;-;-;-;-
1513509131438;-;-;12.297104;3.26828;-4.2143097;-;-;-;-;-;-;-;-;-;-;-;-;-;-;-
1513509131458;-;-;12.996216;3.2108154;-4.4321747;-;-;-;-;-;-;-;-;-;-;-;-;-;-;-
1513509131479;-;-;11.302322;1.9371033;-7.263321;-;-;-;-;-;-;-;-;-;-;-;-;-;-;-
1513509131499;-;-;7.6870728;2.081955;-10.7361145;-;-;-;-;-;-;-;-;-;-;-;-;-;-;-
1513509131519;-;-;7.588913;1.6821136;-5.8339844;-;-;-;-;-;-;-;-;-;-;-;-;-;-;-
1513509131540;-;-;10.782776;1.046463;-7.2621307;-;-;-;-;-;-;-;-;-;-;-;-;-;-;-
1513509131560;-;-;9.358231;0.26235962;-6.5486603;-;-;-;-;-;-;-;-;-;-;-;-;-;-;-
1513509131580;-;-;4.1364746;0.4287567;-6.887436;-;-;-;-;-;-;-;-;-;-;-;-;-;-;-
1513509131601;-;-;2.8914948;-0.1697998;-6.037491;-;-;-;-;-;-;-;-;-;-;-;-;-;-;-
1513509131620;-;-;4.7613525;-0.58639526;-4.101776;-;-;-;-;-;-;-;-;-;-;-;-;-;-;-
1513509131640;-;-;5.731018;-0.38049316;-2.5144196;-;-;-;-;-;-;-;-;-;-;-;-;-;-;-
1513509131660;-;-;6.522293;0.6957092;-2.132553;-;-;-;-;-;-;-;-;-;-;-;-;-;-;-
1513509131681;-;-;8.056976;0.576004;-3.2482452;-;-;-;-;-;-;-;-;-;-;-;-;-;-;-
1513509131701;-;-;7.8630524;0.15940857;-4.436966;-;-;-;-;-;-;-;-;-;-;-;-;-;-;-
1513509131721;-;-;5.9548645;-1.0891724;-4.603363;-;-;-;-;-;-;-;-;-;-;-;-;-;-;-
1513509131742;-;-;5.280899;-2.6633606;-3.8060913;-;-;-;-;-;-;-;-;-;-;-;-;-;-;-
1513509131762;-;-;5.8710785;-3.1146698;-3.010025;-;-;-;-;-;-;-;-;-;-;-;-;-;-;-
1513509131782;-;-;5.525116;-2.6094818;-2.962143;-;-;-;-;-;-;-;-;-;-;-;-;-;-;-
1513509131802;-;-;5.152817;-2.2348022;-2.9286194;-;-;-;-;-;-;-;-;-;-;-;-;-;-;-
1513509131823;-;-;6.94368;-2.0851593;-2.6221619;-;-;-;-;-;-;-;-;-;-;-;-;-;-;-
1513509131843;-;-;10.198593;-2.2982483;-2.2534637;-;-;-;-;-;-;-;-;-;-;-;-;-;-;-
1513509131863;-;-;12.544907;-1.6589966;-4.239441;-;-;-;-;-;-;-;-;-;-;-;-;-;-;-
1513509131884;-;-;13.755173;-1.1382446;-5.5023956;-;-;-;-;-;-;-;-;-;-;-;-;-;-;-
1513509131904;-;-;14.424362;-0.44154358;-5.1791687;-;-;-;-;-;-;-;-;-;-;-;-;-;-;-
1513509131924;-;-;11.841019;-0.4271698;-7.560211;-;-;-;-;-;-;-;-;-;-;-;-;-;-;-
1513509131945;-;-;7.85347;-2.6896973;-12.115173;-;-;-;-;-;-;-;-;-;-;-;-;-;-;-
1513509131965;-;-;7.4045563;-5.7470856;-13.01181;-;-;-;-;-;-;-;-;-;-;-;-;-;-;-
1513509131985;-;-;12.20134;-4.673294;-6.8120117;-;-;-;-;-;-;-;-;-;-;-;-;-;-;-
1513509132006;-;-;11.320282;-0.37928772;-9.045807;-;-;-;-;-;-;-;-;-;-;-;-;-;-;-
1513509132026;-;-;5.612503;1.2332001;-10.846252;-;-;-;-;-;-;-;-;-;-;-;-;-;-;-
1513509132046;-;-;7.185486;1.3409424;-7.6452026;-;-;-;-;-;-;-;-;-;-;-;-;-;-;-
1513509132066;-;-;8.357452;0.6095123;-3.6169586;-;-;-;-;-;-;-;-;-;-;-;-;-;-;-
1513509132087;-;-;6.153595;-0.51934814;-0.8025665;-;-;-;-;-;-;-;-;-;-;-;-;-;-;-
1513509132107;-;-;4.4644775;-1.8457336;-0.52604675;-;-;-;-;-;-;-;-;-;-;-;-;-;-;-
1513509132127;-;-;2.8675537;-2.2994385;-2.3037415;-;-;-;-;-;-;-;-;-;-;-;-;-;-;-
1513509132148;-;-;3.454132;-1.2878876;-3.528366;-;-;-;-;-;-;-;-;-;-;-;-;-;-;-
1513509132168;-;-;4.383072;0.47782898;-2.7981415;-;-;-;-;-;-;-;-;-;-;-;-;-;-;-
1513509132188;-;-;4.094574;2.37883;-2.357605;-;-;-;-;-;-;-;-;-;-;-;-;-;-;-
1513509132209;-;-;4.248993;3.7530975;-2.9884796;-;-;-;-;-;-;-;-;-;-;-;-;-;-;-
1513509132229;-;-;4.866699;3.378418;-4.811661;-;-;-;-;-;-;-;-;-;-;-;-;-;-;-
1513509132249;-;-;7.185486;2.2303925;-4.077835;-;-;-;-;-;-;-;-;-;-;-;-;-;-;-
1513509132269;-;-;10.642715;1.6617737;-4.152054;-;-;-;-;-;-;-;-;-;-;-;-;-;-;-
1513509132290;-;-;12.452728;1.7156372;-4.9086304;-;-;-;-;-;-;-;-;-;-;-;-;-;-;-
1513509132311;-;-;11.600403;2.8277435;-5.204315;-;-;-;-;-;-;-;-;-;-;-;-;-;-;-
1513509132331;-;-;9.691025;1.9790039;-3.9186249;-;-;-;-;-;-;-;-;-;-;-;-;-;-;-
1513509132351;-;-;9.682648;0.35932922;-7.1831207;-;-;-;-;-;-;-;-;-;-;-;-;-;-;-
1513509132371;-;-;5.904587;1.2176361;-12.997437;-;-;-;-;-;-;-;-;-;-;-;-;-;-;-
1513509132391;-;-;5.4987793;2.6840973;-7.938492;-;-;-;-;-;-;-;-;-;-;-;-;-;-;-
1513509132412;-;-;12.129517;2.284256;-9.225372;-;-;-;-;-;-;-;-;-;-;-;-;-;-;-
1513509132432;-;-;8.705811;0.86808777;-9.975952;-;-;-;-;-;-;-;-;-;-;-;-;-;-;-
1513509132453;-;-;5.564621;-0.9155884;-8.687881;-;-;-;-;-;-;-;-;-;-;-;-;-;-;-
1513509132473;-;-;4.609329;-1.8397522;-4.800888;-;-;-;-;-;-;-;-;-;-;-;-;-;-;-
1513509132493;-;-;5.4006042;-0.9682617;-1.8356628;-;-;-;-;-;-;-;-;-;-;-;-;-;-;-
1513509132514;-;-;4.7517853;0.081588745;-1.5818787;-;-;-;-;-;-;-;-;-;-;-;-;-;-;-
1513509132534;-;-;3.2853394;1.0356903;-0.26387024;-;-;-;-;-;-;-;-;-;-;-;-;-;-;-
1513509132555;-;-;4.675171;-0.58639526;-1.6992035;-;-;-;-;-;-;-;-;-;-;-;-;-;-;-
1513509132575;-;-;6.443283;-2.732788;-2.5263977;-;-;-;-;-;-;-;-;-;-;-;-;-;-;-
1513509132595;-;-;6.9795837;-4.395569;-3.2003632;-;-;-;-;-;-;-;-;-;-;-;-;-;-;-
1513509132615;-;-;7.3734283;-5.9039154;-4.9217987;-;-;-;-;-;-;-;-;-;-;-;-;-;-;-
1513509132636;-;-;7.5757446;-5.973343;-5.5095673;-;-;-;-;-;-;-;-;-;-;-;-;-;-;-
1513509132656;-;-;6.557007;-3.2619019;-4.6835785;-;-;-;-;-;-;-;-;-;-;-;-;-;-;-
1513509132676;-;-;6.8682556;-1.2914734;-5.428177;-;-;-;-;-;-;-;-;-;-;-;-;-;-;-
1513509132697;-;-;11.283173;-0.9479065;-4.9170074;-;-;-;-;-;-;-;-;-;-;-;-;-;-;-
1513509132717;-;-;14.647018;-1.3872528;-6.7916718;-;-;-;-;-;-;-;-;-;-;-;-;-;-;-
1513509132737;-;-;15.167755;-0.9443207;-7.156784;-;-;-;-;-;-;-;-;-;-;-;-;-;-;-
1513509132757;-;-;13.047699;-0.3397827;-8.971588;-;-;-;-;-;-;-;-;-;-;-;-;-;-;-
1513509132778;-;-;7.561386;-1.5811768;-12.919632;-;-;-;-;-;-;-;-;-;-;-;-;-;-;-
1513509132798;-;-;5.5825653;-3.8832092;-12.188202;-;-;-;-;-;-;-;-;-;-;-;-;-;-;-
1513509132818;-;-;10.679825;-4.980942;-3.5391388;-;-;-;-;-;-;-;-;-;-;-;-;-;-;-
1513509132838;-;-;8.590881;-2.6549835;-8.045029;-;-;-;-;-;-;-;-;-;-;-;-;-;-;-
1513509132859;-;-;5.0055695;-1.1885223;-9.918488;-;-;-;-;-;-;-;-;-;-;-;-;-;-;-
1513509132878;-;-;8.039017;-0.36253357;-6.1631927;-;-;-;-;-;-;-;-;-;-;-;-;-;-;-
1513509132898;-;-;8.157532;0.16059875;-3.2841644;-;-;-;-;-;-;-;-;-;-;-;-;-;-;-
1513509132919;-;-;5.197098;2.2962341;-0.81573486;-;-;-;-;-;-;-;-;-;-;-;-;-;-;-
1513509132939;-;-;5.003174;2.5751495;-0.7774353;-;-;-;-;-;-;-;-;-;-;-;-;-;-;-
1513509132959;-;-;4.2190704;2.53685;-2.728714;-;-;-;-;-;-;-;-;-;-;-;-;-;-;-
1513509132979;-;-;3.26857;2.639801;-3.1847992;-;-;-;-;-;-;-;-;-;-;-;-;-;-;-
1513509133000;-;-;2.9944458;2.639801;-2.373169;-;-;-;-;-;-;-;-;-;-;-;-;-;-;-
1513509133020;-;-;3.7462158;2.3201752;-2.326477;-;-;-;-;-;-;-;-;-;-;-;-;-;-;-
1513509133040;-;-;3.2123108;1.7946472;-4.03714;-;-;-;-;-;-;-;-;-;-;-;-;-;-;-
1513509133060;-;-;3.7378387;0.19412231;-5.788498;-;-;-;-;-;-;-;-;-;-;-;-;-;-;-
1513509133081;-;-;8.428085;-1.1669769;-4.088608;-;-;-;-;-;-;-;-;-;-;-;-;-;-;-
1513509133101;-;-;10.440399;1.2391968;-3.5930176;-;-;-;-;-;-;-;-;-;-;-;-;-;-;-
1513509133122;-;-;11.830246;2.584732;-3.3751373;-;-;-;-;-;-;-;-;-;-;-;-;-;-;-
1513509133141;-;-;12.303101;2.7475433;-4.1783905;-;-;-;-;-;-;-;-;-;-;-;-;-;-;-
1513509133161;-;-;11.902069;1.8173981;-3.942566;-;-;-;-;-;-;-;-;-;-;-;-;-;-;-
1513509133182;-;-;12.092407;0.043289185;-3.6504822;-;-;-;-;-;-;-;-;-;-;-;-;-;-;-
1513509133202;-;-;9.366608;0.18933105;-9.208618;-;-;-;-;-;-;-;-;-;-;-;-;-;-;-
1513509133222;-;-;4.608124;2.1597595;-13.107574;-;-;-;-;-;-;-;-;-;-;-;-;-;-;-
1513509133243;-;-;4.2705536;4.7850037;-4.630905;-;-;-;-;-;-;-;-;-;-;-;-;-;-;-
1513509133263;-;-;11.918823;4.897537;-7.7517395;-;-;-;-;-;-;-;-;-;-;-;-;-;-;-
1513509133284;-;-;9.090073;3.1234283;-7.287262;-;-;-;-;-;-;-;-;-;-;-;-;-;-;-
1513509133303;-;-;2.5682678;1.0500488;-10.382965;-;-;-;-;-;-;-;-;-;-;-;-;-;-;-
1513509133323;-;-;5.1252747;-2.9279175;-4.4944305;-;-;-;-;-;-;-;-;-;-;-;-;-;-;-
1513509133343;-;-;8.144363;-3.9394684;-0.10586548;-;-;-;-;-;-;-;-;-;-;-;-;-;-;-
1513509133364;-;-;9.838257;-2.7579346;-1.1748657;-;-;-;-;-;-;-;-;-;-;-;-;-;-;-
1513509133385;-;-;7.9193115;-1.4087982;-3.4062653;-;-;-;-;-;-;-;-;-;-;-;-;-;-;-
1513509133405;-;-;5.8076324;-0.704895;-3.2290955;-;-;-;-;-;-;-;-;-;-;-;-;-;-;-
1513509133425;-;-;4.4142;-0.5337219;-3.135727;-;-;-;-;-;-;-;-;-;-;-;-;-;-;-
1513509133445;-;-;4.4453278;-1.3154297;-3.2279053;-;-;-;-;-;-;-;-;-;-;-;-;-;-;-
1513509133466;-;-;3.1189423;-2.0145264;-4.6296997;-;-;-;-;-;-;-;-;-;-;-;-;-;-;-
1513509133486;-;-;2.5215912;-2.6394196;-4.6955414;-;-;-;-;-;-;-;-;-;-;-;-;-;-;-
1513509133506;-;-;5.2198486;-2.5041504;-3.5235748;-;-;-;-;-;-;-;-;-;-;-;-;-;-;-
1513509133527;-;-;8.5633545;-2.0755768;-4.228668;-;-;-;-;-;-;-;-;-;-;-;-;-;-;-
1513509133547;-;-;12.00502;-2.2395782;-5.398239;-;-;-;-;-;-;-;-;-;-;-;-;-;-;-
1513509133568;-;-;11.922424;-1.5476532;-5.4353485;-;-;-;-;-;-;-;-;-;-;-;-;-;-;-
1513509133587;-;-;10.118393;-1.3609161;-4.0514984;-;-;-;-;-;-;-;-;-;-;-;-;-;-;-
1513509133607;-;-;11.272385;-2.677719;-3.8527832;-;-;-;-;-;-;-;-;-;-;-;-;-;-;-
1513509133627;-;-;11.8853;-1.1789551;-4.1436768;-;-;-;-;-;-;-;-;-;-;-;-;-;-;-
1513509133648;-;-;9.523422;0.8776703;-8.853073;-;-;-;-;-;-;-;-;-;-;-;-;-;-;-
1513509133667;-;-;3.474472;-0.72525024;-14.809845;-;-;-;-;-;-;-;-;-;-;-;-;-;-;-
1513509133687;-;-;12.292328;-3.045227;-3.4697113;-;-;-;-;-;-;-;-;-;-;-;-;-;-;-
1513509133707;-;-;13.028534;-2.372467;-6.8299713;-;-;-;-;-;-;-;-;-;-;-;-;-;-;-
1513509133728;-;-;7.873825;-1.9043884;-9.222977;-;-;-;-;-;-;-;-;-;-;-;-;-;-;-
1513509133747;-;-;9.714966;-1.922348;-7.017914;-;-;-;-;-;-;-;-;-;-;-;-;-;-;-
1513509133767;-;-;8.812347;-2.0863495;-5.109741;-;-;-;-;-;-;-;-;-;-;-;-;-;-;-
1513509133788;-;-;7.9791718;-2.190506;-2.7107544;-;-;-;-;-;-;-;-;-;-;-;-;-;-;-
1513509133808;-;-;6.8455048;-1.8756714;-1.3664093;-;-;-;-;-;-;-;-;-;-;-;-;-;-;-
1513509133829;-;-;4.9277496;-0.73483276;-2.333664;-;-;-;-;-;-;-;-;-;-;-;-;-;-;-
1513509133849;-;-;4.5985565;1.3960114;-3.978485;-;-;-;-;-;-;-;-;-;-;-;-;-;-;-
1513509133868;-;-;5.090561;2.5404358;-4.3352203;-;-;-;-;-;-;-;-;-;-;-;-;-;-;-
1513509133888;-;-;4.8595276;4.2546844;-4.1436768;-;-;-;-;-;-;-;-;-;-;-;-;-;-;-
1513509133909;-;-;4.793686;5.189621;-4.147278;-;-;-;-;-;-;-;-;-;-;-;-;-;-;-
1513509133929;-;-;4.8247986;4.98732;-4.421402;-;-;-;-;-;-;-;-;-;-;-;-;-;-;-
1513509133949;-;-;4.9026184;3.4239044;-4.8763123;-;-;-;-;-;-;-;-;-;-;-;-;-;-;-
1513509133969;-;-;5.0450745;1.0261078;-5.393448;-;-;-;-;-;-;-;-;-;-;-;-;-;-;-
1513509133990;-;-;4.9301453;-1.1406403;-4.457321;-;-;-;-;-;-;-;-;-;-;-;-;-;-;-
1513509134010;-;-;4.9648743;-2.4742126;-2.5575256;-;-;-;-;-;-;-;-;-;-;-;-;-;-;-
1513509134030;-;-;5.695099;-1.546463;-0.33210754;-;-;-;-;-;-;-;-;-;-;-;-;-;-;-
1513509134051;-;-;6.0015564;0.29826355;0.35861206;-;-;-;-;-;-;-;-;-;-;-;-;-;-;-
1513509134071;-;-;7.6870728;1.6102905;0.05455017;-;-;-;-;-;-;-;-;-;-;-;-;-;-;-
1513509134091;-;-;9.59166;2.2016602;-0.38238525;-;-;-;-;-;-;-;-;-;-;-;-;-;-;-
1513509134111;-;-;9.39653;2.260315;-1.4693604;-;-;-;-;-;-;-;-;-;-;-;-;-;-;-
1513509134132;-;-;9.251678;1.9742126;-0.5320282;-;-;-;-;-;-;-;-;-;-;-;-;-;-;-
1513509134152;-;-;9.369003;1.798233;-2.9753113;-;-;-;-;-;-;-;-;-;-;-;-;-;-;-
1513509134172;-;-;5.406601;2.9594269;-7.4560547;-;-;-;-;-;-;-;-;-;-;-;-;-;-;-
1513509134193;-;-;2.142105;4.1912384;-10.931244;-;-;-;-;-;-;-;-;-;-;-;-;-;-;-
1513509134213;-;-;7.0262756;2.7475433;-8.696259;-;-;-;-;-;-;-;-;-;-;-;-;-;-;-
1513509134233;-;-;15.54245;0.08998108;-15.383255;-;-;-;-;-;-;-;-;-;-;-;-;-;-;-
1513509134254;-;-;18.909897;-2.4287262;-15.040894;-;-;-;-;-;-;-;-;-;-;-;-;-;-;-
1513509134274;-;-;15.534073;1.3182068;-11.006653;-;-;-;-;-;-;-;-;-;-;-;-;-;-;-
1513509134294;-;-;12.576035;4.216385;-7.2621307;-;-;-;-;-;-;-;-;-;-;-;-;-;-;-
1513509134315;-;-;10.446396;2.0472412;-4.772156;-;-;-;-;-;-;-;-;-;-;-;-;-;-;-
1513509134335;-;-;6.929306;0.07321167;-5.7872925;-;-;-;-;-;-;-;-;-;-;-;-;-;-;-
1513509134355;-;-;3.9988098;-1.1789551;-5.7202606;-;-;-;-;-;-;-;-;-;-;-;-;-;-;-
1513509134376;-;-;2.1744232;-2.3940125;-4.685974;-;-;-;-;-;-;-;-;-;-;-;-;-;-;-
1513509134396;-;-;0.35961914;-4.4889374;-1.7051849;-;-;-;-;-;-;-;-;-;-;-;-;-;-;-
1513509134416;-;-;-0.01626587;-6.009262;-0.3835907;-;-;-;-;-;-;-;-;-;-;-;-;-;-;-
1513509134436;-;-;3.351181;-5.9362335;-0.13937378;-;-;-;-;-;-;-;-;-;-;-;-;-;-;-
1513509134457;-;-;7.0262756;-5.1808624;-0.9258728;-;-;-;-;-;-;-;-;-;-;-;-;-;-;-
1513509134477;-;-;9.050568;-4.444641;-2.1493073;-;-;-;-;-;-;-;-;-;-;-;-;-;-;-
1513509134497;-;-;9.631165;-2.8644714;-2.5299835;-;-;-;-;-;-;-;-;-;-;-;-;-;-;-
1513509134518;-;-;8.473572;-1.1059265;-3.3823242;-;-;-;-;-;-;-;-;-;-;-;-;-;-;-
1513509134538;-;-;8.587296;-0.44273376;-4.520767;-;-;-;-;-;-;-;-;-;-;-;-;-;-;-
1513509134559;-;-;10.921646;1.9836426E-4;-3.180008;-;-;-;-;-;-;-;-;-;-;-;-;-;-;-
1513509134579;-;-;10.977905;-0.9467163;-4.207123;-;-;-;-;-;-;-;-;-;-;-;-;-;-;-
1513509134599;-;-;12.031357;-3.100296;-4.714691;-;-;-;-;-;-;-;-;-;-;-;-;-;-;-
1513509134619;-;-;10.767212;-2.5831451;-5.7872925;-;-;-;-;-;-;-;-;-;-;-;-;-;-;-
1513509134639;-;-;7.7050323;1.1123047;-11.580078;-;-;-;-;-;-;-;-;-;-;-;-;-;-;-
1513509134660;-;-;9.118805;4.8005676;-12.759216;-;-;-;-;-;-;-;-;-;-;-;-;-;-;-
1513509134680;-;-;12.778351;4.6736755;-6.907791;-;-;-;-;-;-;-;-;-;-;-;-;-;-;-
1513509134700;-;-;11.162262;1.6102905;-7.5745697;-;-;-;-;-;-;-;-;-;-;-;-;-;-;-
1513509134721;-;-;10.631943;-0.9503021;-7.3375397;-;-;-;-;-;-;-;-;-;-;-;-;-;-;-
1513509134743;-;-;11.744049;-2.3545074;-4.958908;-;-;-;-;-;-;-;-;-;-;-;-;-;-;-
1513509134762;-;-;12.142685;-1.5739899;-2.286972;-;-;-;-;-;-;-;-;-;-;-;-;-;-;-
1513509134783;-;-;9.601242;0.81062317;-1.1425476;-;-;-;-;-;-;-;-;-;-;-;-;-;-;-
1513509134804;-;-;6.1907043;2.3728485;-0.39196777;-;-;-;-;-;-;-;-;-;-;-;-;-;-;-
1513509134824;-;-;0.18244934;2.6685333;-0.46139526;-;-;-;-;-;-;-;-;-;-;-;-;-;-;-
1513509134845;-;-;-2.1147919;1.5528259;1.9687195;-;-;-;-;-;-;-;-;-;-;-;-;-;-;-
1513509134865;-;-;-1.1858368;0.088775635;2.912033;-;-;-;-;-;-;-;-;-;-;-;-;-;-;-
1513509134885;-;-;4.577011;-1.6506042;1.6431122;-;-;-;-;-;-;-;-;-;-;-;-;-;-;-
1513509134906;-;-;16.088333;-2.2958527;-0.14176941;-;-;-;-;-;-;-;-;-;-;-;-;-;-;-
1513509134925;-;-;17.347672;0.37487793;-3.942566;-;-;-;-;-;-;-;-;-;-;-;-;-;-;-
1513509134945;-;-;11.199371;7.545517;-8.400574;-;-;-;-;-;-;-;-;-;-;-;-;-;-;-
1513509134965;-;-;14.801437;9.427368;-6.179947;-;-;-;-;-;-;-;-;-;-;-;-;-;-;-
1513509134986;-;-;11.521393;6.8547974;1.0984192;-;-;-;-;-;-;-;-;-;-;-;-;-;-;-
1513509135005;-;-;10.788757;3.6250153;-4.2406464;-;-;-;-;-;-;-;-;-;-;-;-;-;-;-
1513509135025;-;-;12.26239;4.782608;-6.527115;-;-;-;-;-;-;-;-;-;-;-;-;-;-;-
1513509135045;-;-;8.029449;5.148926;-9.6527405;-;-;-;-;-;-;-;-;-;-;-;-;-;-;-
1513509135066;-;-;5.38266;3.5855103;-13.840195;-;-;-;-;-;-;-;-;-;-;-;-;-;-;-
1513509135086;-;-;4.31723;2.3105927;-12.552124;-;-;-;-;-;-;-;-;-;-;-;-;-;-;-
1513509135106;-;-;4.39624;1.2427826;-11.791962;-;-;-;-;-;-;-;-;-;-;-;-;-;-;-
1513509135127;-;-;9.165497;-0.9060211;-11.052155;-;-;-;-;-;-;-;-;-;-;-;-;-;-;-
1513509135147;-;-;11.474701;-2.4466858;-7.0634155;-;-;-;-;-;-;-;-;-;-;-;-;-;-;-
1513509135167;-;-;10.7456665;-2.3233795;-1.361618;-;-;-;-;-;-;-;-;-;-;-;-;-;-;-
1513509135188;-;-;5.6172943;-0.8018646;-1.0635376;-;-;-;-;-;-;-;-;-;-;-;-;-;-;-
1513509135208;-;-;3.411026;0.22525024;-1.7758179;-;-;-;-;-;-;-;-;-;-;-;-;-;-;-
1513509135228;-;-;1.9302216;0.62628174;-1.4537964;-;-;-;-;-;-;-;-;-;-;-;-;-;-;-
1513509135249;-;-;1.7949371;0.17497253;-0.5032959;-;-;-;-;-;-;-;-;-;-;-;-;-;-;-
1513509135268;-;-;2.3958893;-1.2591553;-0.451828;-;-;-;-;-;-;-;-;-;-;-;-;-;-;-
1513509135288;-;-;4.805649;-3.6725159;-1.8643951;-;-;-;-;-;-;-;-;-;-;-;-;-;-;-
1513509135309;-;-;8.126404;-3.641388;-3.4601288;-;-;-;-;-;-;-;-;-;-;-;-;-;-;-
1513509135329;-;-;9.716156;-2.1474;-4.606964;-;-;-;-;-;-;-;-;-;-;-;-;-;-;-
1513509135349;-;-;8.973953;-2.5292816;-6.8742676;-;-;-;-;-;-;-;-;-;-;-;-;-;-;-
1513509135369;-;-;9.439636;-2.2838745;-5.535904;-;-;-;-;-;-;-;-;-;-;-;-;-;-;-
1513509135390;-;-;9.601242;-2.1402283;-6.167984;-;-;-;-;-;-;-;-;-;-;-;-;-;-;-
1513509135410;-;-;13.513367;-1.0400848;-7.1436157;-;-;-;-;-;-;-;-;-;-;-;-;-;-;-
1513509135430;-;-;14.235214;0.36889648;-9.03862;-;-;-;-;-;-;-;-;-;-;-;-;-;-;-
1513509135451;-;-;8.491531;-0.5349121;-16.290665;-;-;-;-;-;-;-;-;-;-;-;-;-;-;-
1513509135471;-;-;6.810791;-2.716034;-17.505722;-;-;-;-;-;-;-;-;-;-;-;-;-;-;-
1513509135491;-;-;14.364502;-5.2443085;-4.092209;-;-;-;-;-;-;-;-;-;-;-;-;-;-;-
1513509135512;-;-;12.389282;-4.060379;-5.8710938;-;-;-;-;-;-;-;-;-;-;-;-;-;-;-
1513509135532;-;-;5.2234344;-2.301834;-8.829132;-;-;-;-;-;-;-;-;-;-;-;-;-;-;-
1513509135553;-;-;5.8411407;-1.1969147;-6.1236877;-;-;-;-;-;-;-;-;-;-;-;-;-;-;-
1513509135573;-;-;3.6732025;-0.34457397;-2.55513;-;-;-;-;-;-;-;-;-;-;-;-;-;-;-
1513509135593;-;-;1.4310303;0.41677856;0.070114136;-;-;-;-;-;-;-;-;-;-;-;-;-;-;-
1513509135614;-;-;2.375534;0.84773254;-0.13339233;-;-;-;-;-;-;-;-;-;-;-;-;-;-;-
1513509135634;-;-;3.74263;2.0927277;-1.8727875;-;-;-;-;-;-;-;-;-;-;-;-;-;-;-
1513509135654;-;-;3.8383942;3.0288544;-3.6337128;-;-;-;-;-;-;-;-;-;-;-;-;-;-;-
1513509135675;-;-;5.035492;3.3855896;-4.171219;-;-;-;-;-;-;-;-;-;-;-;-;-;-;-
1513509135695;-;-;8.319138;3.8321075;-5.357544;-;-;-;-;-;-;-;-;-;-;-;-;-;-;-
1513509135715;-;-;7.2740784;2.5464325;-6.986801;-;-;-;-;-;-;-;-;-;-;-;-;-;-;-
1513509135735;-;-;7.2740784;2.023285;-5.2294464;-;-;-;-;-;-;-;-;-;-;-;-;-;-;-
1513509135756;-;-;10.081268;2.725998;-3.6121674;-;-;-;-;-;-;-;-;-;-;-;-;-;-;-
1513509135776;-;-;11.53096;4.284622;-3.0519257;-;-;-;-;-;-;-;-;-;-;-;-;-;-;-
1513509135797;-;-;9.527023;3.7985992;-1.7255402;-;-;-;-;-;-;-;-;-;-;-;-;-;-;-
1513509135816;-;-;7.6870728;2.1944733;-3.2578278;-;-;-;-;-;-;-;-;-;-;-;-;-;-;-
1513509135836;-;-;4.9540863;1.1158905;-11.911667;-;-;-;-;-;-;-;-;-;-;-;-;-;-;-
1513509135856;-;-;5.8279724;0.7244415;-8.8506775;-;-;-;-;-;-;-;-;-;-;-;-;-;-;-
1513509135877;-;-;12.906433;0.29109192;-9.726959;-;-;-;-;-;-;-;-;-;-;-;-;-;-;-
1513509135897;-;-;9.622787;-0.73483276;-7.3997955;-;-;-;-;-;-;-;-;-;-;-;-;-;-;-
1513509135917;-;-;4.438141;0.05885315;-8.124039;-;-;-;-;-;-;-;-;-;-;-;-;-;-;-
1513509135938;-;-;3.2937164;-0.6067352;-9.165512;-;-;-;-;-;-;-;-;-;-;-;-;-;-;-
1513509135957;-;-;5.6819305;-1.0269165;-2.8819427;-;-;-;-;-;-;-;-;-;-;-;-;-;-;-
1513509135977;-;-;5.7333984;0.45509338;-0.9043274;-;-;-;-;-;-;-;-;-;-;-;-;-;-;-
1513509135998;-;-;3.9580994;0.3425598;-1.2778168;-;-;-;-;-;-;-;-;-;-;-;-;-;-;-
1513509136018;-;-;3.067459;-0.49421692;-1.9398193;-;-;-;-;-;-;-;-;-;-;-;-;-;-;-
1513509136038;-;-;3.687561;-1.1801453;-2.39711;-;-;-;-;-;-;-;-;-;-;-;-;-;-;-
1513509136059;-;-;4.932541;-3.1134644;-3.1788177;-;-;-;-;-;-;-;-;-;-;-;-;-;-;-
1513509136079;-;-;6.9305115;-4.8325043;-4.5255585;-;-;-;-;-;-;-;-;-;-;-;-;-;-;-
1513509136099;-;-;8.7812195;-4.542801;-5.7585754;-;-;-;-;-;-;-;-;-;-;-;-;-;-;-
1513509136120;-;-;10.519409;-2.2910614;-5.4497223;-;-;-;-;-;-;-;-;-;-;-;-;-;-;-
1513509136140;-;-;10.236893;-1.0101624;-7.5218964;-;-;-;-;-;-;-;-;-;-;-;-;-;-;-
1513509136161;-;-;10.341049;-0.8018646;-5.1193237;-;-;-;-;-;-;-;-;-;-;-;-;-;-;-
1513509136182;-;-;13.066849;-0.7551727;-5.0750275;-;-;-;-;-;-;-;-;-;-;-;-;-;-;-
1513509136202;-;-;15.022903;-1.5285034;-7.3842316;-;-;-;-;-;-;-;-;-;-;-;-;-;-;-
1513509136222;-;-;10.288376;-0.82221985;-11.339447;-;-;-;-;-;-;-;-;-;-;-;-;-;-;-
1513509136242;-;-;5.30484;-1.8804474;-17.87323;-;-;-;-;-;-;-;-;-;-;-;-;-;-;-
1513509136263;-;-;5.1336517;-3.6904755;-14.753586;-;-;-;-;-;-;-;-;-;-;-;-;-;-;-
1513509136283;-;-;14.557236;-0.82940674;0.7333069;-;-;-;-;-;-;-;-;-;-;-;-;-;-;-
1513509136303;-;-;8.967972;1.7323914;-6.4361267;-;-;-;-;-;-;-;-;-;-;-;-;-;-;-
1513509136324;-;-;2.3180695;1.6126862;-9.421692;-;-;-;-;-;-;-;-;-;-;-;-;-;-;-
1513509136344;-;-;3.8443756;0.42037964;-5.2725525;-;-;-;-;-;-;-;-;-;-;-;-;-;-;-
1513509136364;-;-;2.336029;-0.5600586;-0.80496216;-;-;-;-;-;-;-;-;-;-;-;-;-;-;-
1513509136384;-;-;0.54397583;-2.5053406;1.3569946;-;-;-;-;-;-;-;-;-;-;-;-;-;-;-
1513509136404;-;-;2.830429;-2.755539;-1.1174164;-;-;-;-;-;-;-;-;-;-;-;-;-;-;-
1513509136425;-;-;5.216263;-0.9862213;-3.8288422;-;-;-;-;-;-;-;-;-;-;-;-;-;-;-
1513509136445;-;-;7.3423157;1.1206818;-4.6919556;-;-;-;-;-;-;-;-;-;-;-;-;-;-;-
1513509136465;-;-;9.199005;3.6226196;-4.2562103;-;-;-;-;-;-;-;-;-;-;-;-;-;-;-
1513509136486;-;-;10.046555;5.4529877;-6.686325;-;-;-;-;-;-;-;-;-;-;-;-;-;-;-
1513509136506;-;-;7.056198;5.1513214;-8.997925;-;-;-;-;-;-;-;-;-;-;-;-;-;-;-
1513509136526;-;-;8.381393;3.0935059;-8.153961;-;-;-;-;-;-;-;-;-;-;-;-;-;-;-
1513509136546;-;-;11.278381;3.6860657;-5.8866577;-;-;-;-;-;-;-;-;-;-;-;-;-;-;-
1513509136567;-;-;11.09642;3.4825592;-2.8376465;-;-;-;-;-;-;-;-;-;-;-;-;-;-;-
1513509136587;-;-;10.999451;1.4510803;-2.7322998;-;-;-;-;-;-;-;-;-;-;-;-;-;-;-
1513509136607;-;-;8.661514;-0.00819397;-4.9613037;-;-;-;-;-;-;-;-;-;-;-;-;-;-;-
1513509136628;-;-;4.5782013;1.9836426E-4;-8.904556;-;-;-;-;-;-;-;-;-;-;-;-;-;-;-
1513509136648;-;-;1.5746765;0.8501282;-6.880249;-;-;-;-;-;-;-;-;-;-;-;-;-;-;-
1513509136668;-;-;4.2980804;0.5376892;-5.2126923;-;-;-;-;-;-;-;-;-;-;-;-;-;-;-
1513509136689;-;-;8.971558;-0.502594;-7.0562286;-;-;-;-;-;-;-;-;-;-;-;-;-;-;-
1513509136709;-;-;9.339081;-0.82580566;-9.225372;-;-;-;-;-;-;-;-;-;-;-;-;-;-;-
1513509136730;-;-;4.020355;-0.5313263;-8.298813;-;-;-;-;-;-;-;-;-;-;-;-;-;-;-
1513509136750;-;-;3.5618591;0.30545044;-4.6452637;-;-;-;-;-;-;-;-;-;-;-;-;-;-;-
1513509136771;-;-;4.873886;1.0428619;-1.2658539;-;-;-;-;-;-;-;-;-;-;-;-;-;-;-
1513509136791;-;-;5.22583;1.0584259;0.1431427;-;-;-;-;-;-;-;-;-;-;-;-;-;-;-
1513509136811;-;-;5.4640503;0.16059875;-0.8289032;-;-;-;-;-;-;-;-;-;-;-;-;-;-;-
1513509136832;-;-;7.1711273;-2.7339935;-3.2422638;-;-;-;-;-;-;-;-;-;-;-;-;-;-;-
1513509136852;-;-;7.554199;-4.8133545;-4.991226;-;-;-;-;-;-;-;-;-;-;-;-;-;-;-
1513509136872;-;-;8.056976;-5.4537964;-5.692734;-;-;-;-;-;-;-;-;-;-;-;-;-;-;-
1513509136893;-;-;8.254501;-4.207611;-4.7398376;-;-;-;-;-;-;-;-;-;-;-;-;-;-;-
1513509136913;-;-;7.8917847;-1.5524445;-4.4896393;-;-;-;-;-;-;-;-;-;-;-;-;-;-;-
1513509136933;-;-;7.7361603;0.008575439;-4.7027283;-;-;-;-;-;-;-;-;-;-;-;-;-;-;-
1513509136954;-;-;9.023041;0.556839;-4.4692993;-;-;-;-;-;-;-;-;-;-;-;-;-;-;-
1513509136974;-;-;7.8043976;-2.151001;-4.572235;-;-;-;-;-;-;-;-;-;-;-;-;-;-;-
1513509136994;-;-;8.747711;-4.4183044;-4.186783;-;-;-;-;-;-;-;-;-;-;-;-;-;-;-
1513509137015;-;-;12.060089;-4.479355;-4.298111;-;-;-;-;-;-;-;-;-;-;-;-;-;-;-
1513509137035;-;-;14.499771;-2.6561737;-4.7577972;-;-;-;-;-;-;-;-;-;-;-;-;-;-;-
1513509137056;-;-;12.458725;-0.8282013;-8.278473;-;-;-;-;-;-;-;-;-;-;-;-;-;-;-
1513509137076;-;-;7.7493286;-1.819397;-14.303482;-;-;-;-;-;-;-;-;-;-;-;-;-;-;-
1513509137096;-;-;9.827484;-4.238739;-9.747314;-;-;-;-;-;-;-;-;-;-;-;-;-;-;-
1513509137117;-;-;16.045227;-3.6677246;-4.0155945;-;-;-;-;-;-;-;-;-;-;-;-;-;-;-
1513509137137;-;-;5.209076;-2.0839539;-13.058487;-;-;-;-;-;-;-;-;-;-;-;-;-;-;-
1513509137157;-;-;2.3851166;-0.502594;-15.947098;-;-;-;-;-;-;-;-;-;-;-;-;-;-;-
1513509137177;-;-;7.1687317;1.6378326;-8.204239;-;-;-;-;-;-;-;-;-;-;-;-;-;-;-
1513509137198;-;-;6.2194214;3.11026;-1.1473389;-;-;-;-;-;-;-;-;-;-;-;-;-;-;-
1513509137218;-;-;1.7039642;4.1589203;0.51065063;-;-;-;-;-;-;-;-;-;-;-;-;-;-;-
1513509137238;-;-;1.7877655;2.979782;-1.3496399;-;-;-;-;-;-;-;-;-;-;-;-;-;-;-
1513509137258;-;-;3.1117554;0.7136688;-3.0710754;-;-;-;-;-;-;-;-;-;-;-;-;-;-;-
1513509137278;-;-;4.517151;-1.5979309;-3.4457703;-;-;-;-;-;-;-;-;-;-;-;-;-;-;-
1513509137299;-;-;6.983185;-3.1673431;-3.5930176;-;-;-;-;-;-;-;-;-;-;-;-;-;-;-
1513509137319;-;-;7.4332886;-3.3014069;-3.903061;-;-;-;-;-;-;-;-;-;-;-;-;-;-;-
1513509137339;-;-;7.861847;0.42277527;-2.3049316;-;-;-;-;-;-;-;-;-;-;-;-;-;-;-
1513509137360;-;-;8.702209;2.9881592;-3.1069946;-;-;-;-;-;-;-;-;-;-;-;-;-;-;-
1513509137380;-;-;8.194641;4.27623;-5.5071716;-;-;-;-;-;-;-;-;-;-;-;-;-;-;-
1513509137400;-;-;9.755661;3.833313;-6.9484863;-;-;-;-;-;-;-;-;-;-;-;-;-;-;-
1513509137421;-;-;11.305908;3.1006775;-6.5654144;-;-;-;-;-;-;-;-;-;-;-;-;-;-;-
1513509137441;-;-;9.910095;2.663742;-3.4792938;-;-;-;-;-;-;-;-;-;-;-;-;-;-;-
1513509137461;-;-;8.317947;2.4602356;-3.7031403;-;-;-;-;-;-;-;-;-;-;-;-;-;-;-
1513509137482;-;-;5.7058716;1.6869049;-9.328323;-;-;-;-;-;-;-;-;-;-;-;-;-;-;-
1513509137502;-;-;5.5550385;1.0476532;-6.832367;-;-;-;-;-;-;-;-;-;-;-;-;-;-;-
1513509137522;-;-;10.76123;0.7531738;-8.28685;-;-;-;-;-;-;-;-;-;-;-;-;-;-;-
1513509137542;-;-;11.0030365;-1.1370544;-6.7521667;-;-;-;-;-;-;-;-;-;-;-;-;-;-;-
1513509137563;-;-;6.7138367;-0.22964478;-9.943634;-;-;-;-;-;-;-;-;-;-;-;-;-;-;-
1513509137583;-;-;3.9952087;-0.4152069;-9.464798;-;-;-;-;-;-;-;-;-;-;-;-;-;-;-
1513509137603;-;-;5.063034;0.105529785;-4.298111;-;-;-;-;-;-;-;-;-;-;-;-;-;-;-
1513509137624;-;-;5.8243866;0.61190796;-1.0587463;-;-;-;-;-;-;-;-;-;-;-;-;-;-;-
1513509137643;-;-;5.1683807;-0.00579834;-1.0419922;-;-;-;-;-;-;-;-;-;-;-;-;-;-;-
1513509137663;-;-;5.130066;-1.1011353;-2.128952;-;-;-;-;-;-;-;-;-;-;-;-;-;-;-
1513509137684;-;-;4.4417267;-3.4821777;-4.2526093;-;-;-;-;-;-;-;-;-;-;-;-;-;-;-
1513509137704;-;-;4.7996674;-5.507675;-4.259796;-;-;-;-;-;-;-;-;-;-;-;-;-;-;-
1513509137725;-;-;6.4600525;-6.235504;-3.9952393;-;-;-;-;-;-;-;-;-;-;-;-;-;-;-
1513509137745;-;-;8.162323;-4.389572;-4.828415;-;-;-;-;-;-;-;-;-;-;-;-;-;-;-
1513509137766;-;-;8.135986;-1.9570618;-5.843567;-;-;-;-;-;-;-;-;-;-;-;-;-;-;-
1513509137786;-;-;8.875793;-1.664978;-7.2956543;-;-;-;-;-;-;-;-;-;-;-;-;-;-;-
1513509137806;-;-;13.5720215;-0.8174286;-5.357544;-;-;-;-;-;-;-;-;-;-;-;-;-;-;-
1513509137826;-;-;15.268311;1.9790039;-5.646042;-;-;-;-;-;-;-;-;-;-;-;-;-;-;-
1513509137847;-;-;11.317886;2.3417206;-9.961594;-;-;-;-;-;-;-;-;-;-;-;-;-;-;-
1513509137867;-;-;5.537079;0.3317871;-17.229187;-;-;-;-;-;-;-;-;-;-;-;-;-;-;-
1513509137887;-;-;5.533493;-4.5763245;-11.510635;-;-;-;-;-;-;-;-;-;-;-;-;-;-;-
1513509137907;-;-;11.5525055;-4.523651;0.08328247;-;-;-;-;-;-;-;-;-;-;-;-;-;-;-
1513509137928;-;-;8.84227;-2.2204285;-9.154739;-;-;-;-;-;-;-;-;-;-;-;-;-;-;-
1513509137948;-;-;6.624054;-0.8569336;-11.100037;-;-;-;-;-;-;-;-;-;-;-;-;-;-;-
1513509137968;-;-;6.8479004;0.1905365;-8.362259;-;-;-;-;-;-;-;-;-;-;-;-;-;-;-
1513509137988;-;-;6.3427277;1.0332947;-4.2921143;-;-;-;-;-;-;-;-;-;-;-;-;-;-;-
1513509138008;-;-;3.8647308;2.129837;-1.634552;-;-;-;-;-;-;-;-;-;-;-;-;-;-;-
1513509138029;-;-;3.2913208;1.540863;-2.0631256;-;-;-;-;-;-;-;-;-;-;-;-;-;-;-
1513509138049;-;-;2.4892578;0.8118286;-3.1632538;-;-;-;-;-;-;-;-;-;-;-;-;-;-;-
1513509138069;-;-;1.4717255;-0.39006042;-3.6875916;-;-;-;-;-;-;-;-;-;-;-;-;-;-;-
1513509138090;-;-;2.8795166;-0.6354675;-3.5295715;-;-;-;-;-;-;-;-;-;-;-;-;-;-;-
1513509138110;-;-;4.4094086;0.10194397;-3.2087402;-;-;-;-;-;-;-;-;-;-;-;-;-;-;-
1513509138130;-;-;6.1643677;1.4438934;-3.6013947;-;-;-;-;-;-;-;-;-;-;-;-;-;-;-
1513509138151;-;-;6.874237;2.3740387;-4.124527;-;-;-;-;-;-;-;-;-;-;-;-;-;-;-
1513509138171;-;-;8.216187;2.576355;-4.562668;-;-;-;-;-;-;-;-;-;-;-;-;-;-;-
1513509138191;-;-;10.767212;3.0540009;-5.7478027;-;-;-;-;-;-;-;-;-;-;-;-;-;-;-
1513509138211;-;-;13.181763;3.5759277;-4.3208466;-;-;-;-;-;-;-;-;-;-;-;-;-;-;-
1513509138232;-;-;14.724823;3.7674713;-2.922638;-;-;-;-;-;-;-;-;-;-;-;-;-;-;-
1513509138251;-;-;14.0269165;3.3305206;-2.1433258;-;-;-;-;-;-;-;-;-;-;-;-;-;-;-
1513509138271;-;-;11.377731;2.169342;-4.026367;-;-;-;-;-;-;-;-;-;-;-;-;-;-;-
1513509138292;-;-;6.667145;1.5336761;-7.79245;-;-;-;-;-;-;-;-;-;-;-;-;-;-;-
1513509138312;-;-;4.0766144;2.876831;-6.226639;-;-;-;-;-;-;-;-;-;-;-;-;-;-;-
1513509138332;-;-;4.600952;3.402359;-4.3400116;-;-;-;-;-;-;-;-;-;-;-;-;-;-;-
1513509138353;-;-;9.203796;3.2503204;-8.601685;-;-;-;-;-;-;-;-;-;-;-;-;-;-;-
1513509138373;-;-;6.206253;1.0919495;-7.4189453;-;-;-;-;-;-;-;-;-;-;-;-;-;-;-
1513509138393;-;-;4.087387;0.8992157;-10.846252;-;-;-;-;-;-;-;-;-;-;-;-;-;-;-
1513509138413;-;-;7.9743805;-0.11831665;-6.426544;-;-;-;-;-;-;-;-;-;-;-;-;-;-;-
1513509138434;-;-;10.390121;-0.4846344;-2.737091;-;-;-;-;-;-;-;-;-;-;-;-;-;-;-
1513509138454;-;-;9.664688;0.112716675;-3.7462463;-;-;-;-;-;-;-;-;-;-;-;-;-;-;-
1513509138474;-;-;7.7577057;0.49339294;-4.665619;-;-;-;-;-;-;-;-;-;-;-;-;-;-;-
1513509138495;-;-;5.786072;0.7531738;-4.289734;-;-;-;-;-;-;-;-;-;-;-;-;-;-;-
1513509138515;-;-;3.9066315;0.4084015;-3.3607788;-;-;-;-;-;-;-;-;-;-;-;-;-;-;-
1513509138535;-;-;4.245407;-1.9702301;-1.0551605;-;-;-;-;-;-;-;-;-;-;-;-;-;-;-
1513509138556;-;-;4.7098846;-3.9705963;-2.0343933;-;-;-;-;-;-;-;-;-;-;-;-;-;-;-
1513509138576;-;-;4.905014;-3.914322;-3.6959686;-;-;-;-;-;-;-;-;-;-;-;-;-;-;-
1513509138596;-;-;4.7182617;-2.9961548;-3.5618896;-;-;-;-;-;-;-;-;-;-;-;-;-;-;-
1513509138617;-;-;4.980423;-2.135437;-2.7227173;-;-;-;-;-;-;-;-;-;-;-;-;-;-;-
1513509138637;-;-;5.7968445;-0.957489;-2.105011;-;-;-;-;-;-;-;-;-;-;-;-;-;-;-
1513509138657;-;-;6.146408;-0.05847168;-1.7411041;-;-;-;-;-;-;-;-;-;-;-;-;-;-;-
1513509138678;-;-;6.7413635;0.5376892;-1.7183533;-;-;-;-;-;-;-;-;-;-;-;-;-;-;-
1513509138698;-;-;7.3267517;0.94470215;-1.7997589;-;-;-;-;-;-;-;-;-;-;-;-;-;-;-
1513509138718;-;-;7.8750153;0.7651367;-1.4789276;-;-;-;-;-;-;-;-;-;-;-;-;-;-;-
1513509138739;-;-;8.76207;-0.7851105;-2.2534637;-;-;-;-;-;-;-;-;-;-;-;-;-;-;-
1513509138759;-;-;10.634338;-2.301834;-3.7510376;-;-;-;-;-;-;-;-;-;-;-;-;-;-;-
1513509138779;-;-;10.848618;-2.511322;-5.540695;-;-;-;-;-;-;-;-;-;-;-;-;-;-;-
1513509138799;-;-;7.4572296;-4.7355347;-4.839203;-;-;-;-;-;-;-;-;-;-;-;-;-;-;-
1513509138820;-;-;12.264786;-4.1250153;1.0744781;-;-;-;-;-;-;-;-;-;-;-;-;-;-;-
1513509138839;-;-;13.139862;-0.4271698;-0.4733734;-;-;-;-;-;-;-;-;-;-;-;-;-;-;-
1513509138860;-;-;8.618423;4.289398;-16.69049;-;-;-;-;-;-;-;-;-;-;-;-;-;-;-
1513509138879;-;-;13.283524;5.3105316;-11.431625;-;-;-;-;-;-;-;-;-;-;-;-;-;-;-
1513509138900;-;-;12.997406;2.612259;-3.7797546;-;-;-;-;-;-;-;-;-;-;-;-;-;-;-
1513509138920;-;-;10.962341;2.409958;-5.9572906;-;-;-;-;-;-;-;-;-;-;-;-;-;-;-
1513509138940;-;-;8.684265;2.2459564;-8.897369;-;-;-;-;-;-;-;-;-;-;-;-;-;-;-
1513509138960;-;-;7.2465363;0.5676117;-6.4205627;-;-;-;-;-;-;-;-;-;-;-;-;-;-;-
1513509138981;-;-;7.6188354;-1.0712128;-3.496048;-;-;-;-;-;-;-;-;-;-;-;-;-;-;-
1513509139001;-;-;6.4887695;-1.1095276;-2.0331879;-;-;-;-;-;-;-;-;-;-;-;-;-;-;-
1513509139021;-;-;4.561447;-0.2033081;-1.911087;-;-;-;-;-;-;-;-;-;-;-;-;-;-;-
1513509139041;-;-;4.2789307;0.062438965;-1.8488312;-;-;-;-;-;-;-;-;-;-;-;-;-;-;-
1513509139062;-;-;5.4688416;1.0811768;-1.0395966;-;-;-;-;-;-;-;-;-;-;-;-;-;-;-
1513509139082;-;-;5.2066803;0.793869;-0.23873901;-;-;-;-;-;-;-;-;-;-;-;-;-;-;-
1513509139102;-;-;4.937332;0.9590759;0.55374146;-;-;-;-;-;-;-;-;-;-;-;-;-;-;-
1513509139122;-;-;4.4393463;1.2068634;0.7033844;-;-;-;-;-;-;-;-;-;-;-;-;-;-;-
1513509139142;-;-;6.639618;1.0213165;-0.43745422;-;-;-;-;-;-;-;-;-;-;-;-;-;-;-
1513509139163;-;-;9.944809;0.58917236;-1.1916351;-;-;-;-;-;-;-;-;-;-;-;-;-;-;-
1513509139182;-;-;11.754822;0.20249939;-1.143753;-;-;-;-;-;-;-;-;-;-;-;-;-;-;-
1513509139202;-;-;14.589554;-0.24043274;-0.25190735;-;-;-;-;-;-;-;-;-;-;-;-;-;-;-
1513509139222;-;-;16.70842;-0.77194214;0.21496582;-;-;-;-;-;-;-;-;-;-;-;-;-;-;-
1513509139243;-;-;15.881226;0.71006775;-0.8169403;-;-;-;-;-;-;-;-;-;-;-;-;-;-;-
1513509139263;-;-;9.179855;2.9247131;-4.9062347;-;-;-;-;-;-;-;-;-;-;-;-;-;-;-
1513509139284;-;-;3.7007294;5.545166;-11.534576;-;-;-;-;-;-;-;-;-;-;-;-;-;-;-
1513509139304;-;-;1.5423584;5.427841;-10.488312;-;-;-;-;-;-;-;-;-;-;-;-;-;-;-
1513509139324;-;-;5.095352;2.785843;-8.975174;-;-;-;-;-;-;-;-;-;-;-;-;-;-;-
1513509139345;-;-;12.847778;-1.2112732;-11.259247;-;-;-;-;-;-;-;-;-;-;-;-;-;-;-
1513509139365;-;-;14.746384;-4.1142426;-13.764786;-;-;-;-;-;-;-;-;-;-;-;-;-;-;-
1513509139385;-;-;9.61441;-2.245575;-9.82991;-;-;-;-;-;-;-;-;-;-;-;-;-;-;-
1513509139406;-;-;9.766434;1.9035797;-2.294159;-;-;-;-;-;-;-;-;-;-;-;-;-;-;-
1513509139426;-;-;8.262878;2.0173035;-3.5187988;-;-;-;-;-;-;-;-;-;-;-;-;-;-;-
1513509139446;-;-;7.423706;-0.39126587;-5.0786133;-;-;-;-;-;-;-;-;-;-;-;-;-;-;-
1513509139466;-;-;6.3774414;-3.9286957;-6.037491;-;-;-;-;-;-;-;-;-;-;-;-;-;-;-
1513509139487;-;-;4.80925;-7.4182434;-4.7949066;-;-;-;-;-;-;-;-;-;-;-;-;-;-;-
1513509139507;-;-;4.1125336;-9.302475;-1.2251434;-;-;-;-;-;-;-;-;-;-;-;-;-;-;-
1513509139528;-;-;4.111328;-8.606964;0.88534546;-;-;-;-;-;-;-;-;-;-;-;-;-;-;-
1513509139547;-;-;4.6021423;-6.0738983;0.7979584;-;-;-;-;-;-;-;-;-;-;-;-;-;-;-
1513509139567;-;-;6.1715393;-3.045227;0.41726685;-;-;-;-;-;-;-;-;-;-;-;-;-;-;-
1513509139588;-;-;8.480759;-1.4219666;-1.0144653;-;-;-;-;-;-;-;-;-;-;-;-;-;-;-
1513509139608;-;-;11.1766205;-0.8018646;-4.1532593;-;-;-;-;-;-;-;-;-;-;-;-;-;-;-
1513509139628;-;-;12.85376;-0.34576416;-4.5423126;-;-;-;-;-;-;-;-;-;-;-;-;-;-;-
1513509139648;-;-;15.461044;-2.0468445;-3.3524017;-;-;-;-;-;-;-;-;-;-;-;-;-;-;-
1513509139669;-;-;18.736313;-4.7427216;-4.6991425;-;-;-;-;-;-;-;-;-;-;-;-;-;-;-
1513509139689;-;-;19.429443;-4.317749;-5.6280823;-;-;-;-;-;-;-;-;-;-;-;-;-;-;-
1513509139709;-;-;16.241562;-2.2407837;-4.598572;-;-;-;-;-;-;-;-;-;-;-;-;-;-;-
1513509139730;-;-;9.366608;-1.0604401;-5.793289;-;-;-;-;-;-;-;-;-;-;-;-;-;-;-
1513509139749;-;-;0.6325531;-2.5436401;-19.79338;-;-;-;-;-;-;-;-;-;-;-;-;-;-;-
1513509139770;-;-;-0.91648865;-3.8568726;-15.473038;-;-;-;-;-;-;-;-;-;-;-;-;-;-;-
1513509139790;-;-;5.726227;-2.5951233;-6.0147552;-;-;-;-;-;-;-;-;-;-;-;-;-;-;-
1513509139810;-;-;7.4895477;-2.317398;-15.735214;-;-;-;-;-;-;-;-;-;-;-;-;-;-;-
1513509139830;-;-;12.489838;-0.03213501;-11.009048;-;-;-;-;-;-;-;-;-;-;-;-;-;-;-
1513509139851;-;-;12.039734;2.912735;-7.251358;-;-;-;-;-;-;-;-;-;-;-;-;-;-;-
1513509139871;-;-;6.1990814;3.316162;-3.5056305;-;-;-;-;-;-;-;-;-;-;-;-;-;-;-
1513509139891;-;-;3.6444702;1.109909;-1.697998;-;-;-;-;-;-;-;-;-;-;-;-;-;-;-
1513509139912;-;-;3.8826904;-0.9550934;-0.922287;-;-;-;-;-;-;-;-;-;-;-;-;-;-;-
1513509139932;-;-;4.2657623;-2.4778137;-1.2239532;-;-;-;-;-;-;-;-;-;-;-;-;-;-;-
1513509139952;-;-;5.8519135;-3.0488281;-0.97735596;-;-;-;-;-;-;-;-;-;-;-;-;-;-;-
1513509139973;-;-;7.987549;-2.5161133;-2.601822;-;-;-;-;-;-;-;-;-;-;-;-;-;-;-
1513509139993;-;-;7.4297028;0.6741638;-2.6832123;-;-;-;-;-;-;-;-;-;-;-;-;-;-;-
1513509140014;-;-;4.482437;4.3408813;-3.0902252;-;-;-;-;-;-;-;-;-;-;-;-;-;-;-
1513509140034;-;-;7.566162;3.6609192;-3.7546234;-;-;-;-;-;-;-;-;-;-;-;-;-;-;-
1513509140055;-;-;11.407669;3.1725159;-3.9712982;-;-;-;-;-;-;-;-;-;-;-;-;-;-;-
1513509140075;-;-;12.347382;4.1649017;-4.5650635;-;-;-;-;-;-;-;-;-;-;-;-;-;-;-
1513509140095;-;-;10.308731;3.5352325;-3.432602;-;-;-;-;-;-;-;-;-;-;-;-;-;-;-
1513509140116;-;-;9.06134;1.3995972;-6.782089;-;-;-;-;-;-;-;-;-;-;-;-;-;-;-
1513509140136;-;-;5.596939;1.492981;-11.789566;-;-;-;-;-;-;-;-;-;-;-;-;-;-;-
1513509140156;-;-;2.7849426;2.102295;-7.1783295;-;-;-;-;-;-;-;-;-;-;-;-;-;-;-
1513509140177;-;-;8.952408;2.4087524;-8.353882;-;-;-;-;-;-;-;-;-;-;-;-;-;-;-
1513509140197;-;-;10.177048;-0.4439392;-8.053406;-;-;-;-;-;-;-;-;-;-;-;-;-;-;-
1513509140218;-;-;4.233444;-0.60554504;-9.230164;-;-;-;-;-;-;-;-;-;-;-;-;-;-;-
1513509140237;-;-;3.1512604;-0.9191742;-7.709839;-;-;-;-;-;-;-;-;-;-;-;-;-;-;-
1513509140257;-;-;5.7573547;-0.46427917;0.20658875;-;-;-;-;-;-;-;-;-;-;-;-;-;-;-
1513509140277;-;-;6.173935;-0.19732666;-0.9641876;-;-;-;-;-;-;-;-;-;-;-;-;-;-;-
1513509140298;-;-;5.040283;-0.60913086;-2.5048523;-;-;-;-;-;-;-;-;-;-;-;-;-;-;-
1513509140319;-;-;3.5079956;-1.028122;-3.0088348;-;-;-;-;-;-;-;-;-;-;-;-;-;-;-
1513509140338;-;-;3.4230042;-1.7942657;-3.2099457;-;-;-;-;-;-;-;-;-;-;-;-;-;-;-
1513509140358;-;-;4.6655884;-2.7256012;-4.026367;-;-;-;-;-;-;-;-;-;-;-;-;-;-;-
1513509140379;-;-;6.0219116;-3.4701996;-5.6496277;-;-;-;-;-;-;-;-;-;-;-;-;-;-;-
1513509140399;-;-;7.284851;-2.9566498;-5.729843;-;-;-;-;-;-;-;-;-;-;-;-;-;-;-
1513509140419;-;-;10.811508;-2.1079102;-4.5135803;-;-;-;-;-;-;-;-;-;-;-;-;-;-;-
1513509140439;-;-;14.381256;-1.9893951;-4.0910034;-;-;-;-;-;-;-;-;-;-;-;-;-;-;-
1513509140460;-;-;16.146988;-1.6685638;-5.848358;-;-;-;-;-;-;-;-;-;-;-;-;-;-;-
1513509140479;-;-;17.819336;-0.42956543;-7.227417;-;-;-;-;-;-;-;-;-;-;-;-;-;-;-
1513509140499;-;-;13.397247;1.8892212;-9.388184;-;-;-;-;-;-;-;-;-;-;-;-;-;-;-
1513509140520;-;-;6.6384125;0.5257263;-12.470718;-;-;-;-;-;-;-;-;-;-;-;-;-;-;-
1513509140539;-;-;1.584259;-2.6513824;-16.281082;-;-;-;-;-;-;-;-;-;-;-;-;-;-;-
1513509140560;-;-;3.1392822;-6.587448;-6.021927;-;-;-;-;-;-;-;-;-;-;-;-;-;-;-
1513509140580;-;-;13.421188;-3.4330902;1.7879486;-;-;-;-;-;-;-;-;-;-;-;-;-;-;-
1513509140600;-;-;8.571732;-1.1885223;-7.9325104;-;-;-;-;-;-;-;-;-;-;-;-;-;-;-
1513509140621;-;-;5.277313;1.090744;-10.931244;-;-;-;-;-;-;-;-;-;-;-;-;-;-;-
1513509140641;-;-;7.794815;0.9901886;-5.2737427;-;-;-;-;-;-;-;-;-;-;-;-;-;-;-
1513509140661;-;-;4.3543396;0.6214905;-0.3189392;-;-;-;-;-;-;-;-;-;-;-;-;-;-;-
1513509140682;-;-;2.9609222;0.72683716;0.14074707;-;-;-;-;-;-;-;-;-;-;-;-;-;-;-
1513509140702;-;-;3.0112;0.20010376;-1.8129272;-;-;-;-;-;-;-;-;-;-;-;-;-;-;-
1513509140722;-;-;2.1923828;0.888443;-3.247055;-;-;-;-;-;-;-;-;-;-;-;-;-;-;-
1513509140743;-;-;3.0626678;2.4123535;-3.2207184;-;-;-;-;-;-;-;-;-;-;-;-;-;-;-
1513509140763;-;-;4.300476;2.7475433;-3.5487213;-;-;-;-;-;-;-;-;-;-;-;-;-;-;-
1513509140783;-;-;5.853119;1.6725464;-4.2322693;-;-;-;-;-;-;-;-;-;-;-;-;-;-;-
1513509140804;-;-;7.4213104;0.888443;-4.2765656;-;-;-;-;-;-;-;-;-;-;-;-;-;-;-
1513509140823;-;-;12.237259;2.5979004;-3.788147;-;-;-;-;-;-;-;-;-;-;-;-;-;-;-
1513509140843;-;-;12.213318;4.303772;-5.1707916;-;-;-;-;-;-;-;-;-;-;-;-;-;-;-
1513509140863;-;-;13.300278;2.7607117;-3.863556;-;-;-;-;-;-;-;-;-;-;-;-;-;-;-
1513509140883;-;-;12.251617;2.411148;-2.65448;-;-;-;-;-;-;-;-;-;-;-;-;-;-;-
1513509140904;-;-;9.420471;1.5827637;-7.5266876;-;-;-;-;-;-;-;-;-;-;-;-;-;-;-
1513509140924;-;-;5.4604645;3.0540009;-12.267212;-;-;-;-;-;-;-;-;-;-;-;-;-;-;-
1513509140945;-;-;3.1584473;5.036392;-8.452042;-;-;-;-;-;-;-;-;-;-;-;-;-;-;-
1513509140965;-;-;8.138382;3.3700256;-3.3835144;-;-;-;-;-;-;-;-;-;-;-;-;-;-;-
1513509140985;-;-;9.436035;0.3964386;-11.000671;-;-;-;-;-;-;-;-;-;-;-;-;-;-;-
1513509141006;-;-;4.7517853;-2.827362;-7.738571;-;-;-;-;-;-;-;-;-;-;-;-;-;-;-
1513509141025;-;-;3.5965881;-3.0093231;-5.1971283;-;-;-;-;-;-;-;-;-;-;-;-;-;-;-
1513509141046;-;-;5.9788055;-2.5628052;-0.81933594;-;-;-;-;-;-;-;-;-;-;-;-;-;-;-
1513509141066;-;-;7.372238;-1.0376892;-1.3089447;-;-;-;-;-;-;-;-;-;-;-;-;-;-;-
1513509141086;-;-;4.7577667;-0.33738708;-3.183609;-;-;-;-;-;-;-;-;-;-;-;-;-;-;-
1513509141107;-;-;4.1711884;0.26475525;-3.077057;-;-;-;-;-;-;-;-;-;-;-;-;-;-;-
1513509141127;-;-;5.355118;-0.25479126;-3.2003632;-;-;-;-;-;-;-;-;-;-;-;-;-;-;-
1513509141148;-;-;5.8507233;-1.7188416;-3.377533;-;-;-;-;-;-;-;-;-;-;-;-;-;-;-
1513509141168;-;-;5.6172943;-3.1912842;-4.2574005;-;-;-;-;-;-;-;-;-;-;-;-;-;-;-
1513509141188;-;-;5.820801;-4.308182;-4.5064087;-;-;-;-;-;-;-;-;-;-;-;-;-;-;-
1513509141208;-;-;6.7844543;-4.077133;-4.61174;-;-;-;-;-;-;-;-;-;-;-;-;-;-;-
1513509141229;-;-;9.464767;-3.1805115;-3.1704407;-;-;-;-;-;-;-;-;-;-;-;-;-;-;-
1513509141250;-;-;12.553284;-0.7264557;-4.2813416;-;-;-;-;-;-;-;-;-;-;-;-;-;-;-
1513509141271;-;-;12.603561;0.79267883;-4.5614624;-;-;-;-;-;-;-;-;-;-;-;-;-;-;-
1513509141291;-;-;13.551666;-0.50138855;-4.1065674;-;-;-;-;-;-;-;-;-;-;-;-;-;-;-
1513509141311;-;-;13.82341;-0.98861694;-5.3312073;-;-;-;-;-;-;-;-;-;-;-;-;-;-;-
1513509141331;-;-;10.926422;-1.3812561;-9.833496;-;-;-;-;-;-;-;-;-;-;-;-;-;-;-
1513509141352;-;-;7.02388;-3.3780212;-17.778656;-;-;-;-;-;-;-;-;-;-;-;-;-;-;-
1513509141372;-;-;6.8945923;-6.204376;-13.290726;-;-;-;-;-;-;-;-;-;-;-;-;-;-;-
1513509141393;-;-;14.955872;-3.27388;-0.6792755;-;-;-;-;-;-;-;-;-;-;-;-;-;-;-
1513509141413;-;-;6.70784;-0.8748932;-8.904556;-;-;-;-;-;-;-;-;-;-;-;-;-;-;-
1513509141433;-;-;2.453354;1.3337555;-11.375366;-;-;-;-;-;-;-;-;-;-;-;-;-;-;-
1513509141454;-;-;7.9360657;1.7946472;-6.299652;-;-;-;-;-;-;-;-;-;-;-;-;-;-;-
1513509141474;-;-;7.0574036;1.6737366;-2.8053284;-;-;-;-;-;-;-;-;-;-;-;-;-;-;-
1513509141493;-;-;5.039093;0.8118286;-1.440628;-;-;-;-;-;-;-;-;-;-;-;-;-;-;-
1513509141513;-;-;5.1097107;-1.269928;-1.5328064;-;-;-;-;-;-;-;-;-;-;-;-;-;-;-
1513509141533;-;-;4.4094086;-1.7619476;-2.6197662;-;-;-;-;-;-;-;-;-;-;-;-;-;-;-
1513509141553;-;-;4.4130096;-1.9678345;-2.5144196;-;-;-;-;-;-;-;-;-;-;-;-;-;-;-
1513509141573;-;-;4.647629;-1.7344055;-1.8955231;-;-;-;-;-;-;-;-;-;-;-;-;-;-;-
1513509141594;-;-;4.1783752;0.4694519;-1.9146729;-;-;-;-;-;-;-;-;-;-;-;-;-;-;-
1513509141613;-;-;5.4760284;3.1270142;-2.5850525;-;-;-;-;-;-;-;-;-;-;-;-;-;-;-
1513509141633;-;-;6.8443146;3.5088959;-4.934967;-;-;-;-;-;-;-;-;-;-;-;-;-;-;-
1513509141653;-;-;8.498703;3.7028198;-6.433731;-;-;-;-;-;-;-;-;-;-;-;-;-;-;-
1513509141674;-;-;9.79158;3.8464813;-6.5809784;-;-;-;-;-;-;-;-;-;-;-;-;-;-;-
1513509141693;-;-;11.265213;3.6214294;-6.3020477;-;-;-;-;-;-;-;-;-;-;-;-;-;-;-
1513509141713;-;-;11.7500305;3.6585388;-4.7075195;-;-;-;-;-;-;-;-;-;-;-;-;-;-;-
1513509141733;-;-;9.208588;3.0420227;-3.6408997;-;-;-;-;-;-;-;-;-;-;-;-;-;-;-
1513509141754;-;-;7.43927;1.4008026;-4.551895;-;-;-;-;-;-;-;-;-;-;-;-;-;-;-
1513509141774;-;-;2.7011566;0.98420715;-12.055313;-;-;-;-;-;-;-;-;-;-;-;-;-;-;-
1513509141794;-;-;7.6858826;0.8716736;-7.0753784;-;-;-;-;-;-;-;-;-;-;-;-;-;-;-
1513509141814;-;-;12.427597;1.085968;-11.234116;-;-;-;-;-;-;-;-;-;-;-;-;-;-;-
1513509141835;-;-;10.360199;-0.3577423;-7.278885;-;-;-;-;-;-;-;-;-;-;-;-;-;-;-
1513509141855;-;-;3.3811035;-0.009384155;-9.25769;-;-;-;-;-;-;-;-;-;-;-;-;-;-;-
1513509141875;-;-;1.7446594;-1.1370544;-7.9444733;-;-;-;-;-;-;-;-;-;-;-;-;-;-;-
1513509141896;-;-;4.5446777;-2.1785278;-2.6054077;-;-;-;-;-;-;-;-;-;-;-;-;-;-;-
1513509141916;-;-;7.1292267;-1.0341034;-0.377594;-;-;-;-;-;-;-;-;-;-;-;-;-;-;-
1513509141936;-;-;5.216263;-0.7228546;-2.4174652;-;-;-;-;-;-;-;-;-;-;-;-;-;-;-
1513509141957;-;-;4.1676025;-1.1598053;-3.0662842;-;-;-;-;-;-;-;-;-;-;-;-;-;-;-
1513509141977;-;-;4.9433136;-1.937912;-3.1895905;-;-;-;-;-;-;-;-;-;-;-;-;-;-;-
1513509141998;-;-;6.2876587;-3.5252686;-3.0686798;-;-;-;-;-;-;-;-;-;-;-;-;-;-;-
1513509142018;-;-;7.9384613;-4.6948395;-4.2885284;-;-;-;-;-;-;-;-;-;-;-;-;-;-;-
1513509142039;-;-;10.509842;-4.1094513;-5.001999;-;-;-;-;-;-;-;-;-;-;-;-;-;-;-
1513509142059;-;-;12.267181;-0.62828064;-4.3950653;-;-;-;-;-;-;-;-;-;-;-;-;-;-;-
1513509142080;-;-;7.3147736;-1.131073;-8.610062;-;-;-;-;-;-;-;-;-;-;-;-;-;-;-
1513509142100;-;-;6.719818;-1.5476532;-5.800461;-;-;-;-;-;-;-;-;-;-;-;-;-;-;-
1513509142121;-;-;8.601654;-1.7703247;-4.4896393;-;-;-;-;-;-;-;-;-;-;-;-;-;-;-
1513509142141;-;-;10.110001;-1.4997711;-5.638855;-;-;-;-;-;-;-;-;-;-;-;-;-;-;-
1513509142161;-;-;13.057266;0.08758545;-6.8072357;-;-;-;-;-;-;-;-;-;-;-;-;-;-;-
1513509142182;-;-;8.155136;0.58917236;-13.06926;-;-;-;-;-;-;-;-;-;-;-;-;-;-;-
1513509142203;-;-;1.4932709;-2.1330414;-19.187653;-;-;-;-;-;-;-;-;-;-;-;-;-;-;-
1513509142223;-;-;8.265274;-5.988907;-4.077835;-;-;-;-;-;-;-;-;-;-;-;-;-;-;-
1513509142243;-;-;17.407532;-4.7594757;-2.630539;-;-;-;-;-;-;-;-;-;-;-;-;-;-;-
1513509142263;-;-;7.8175507;-2.6681519;-13.62233;-;-;-;-;-;-;-;-;-;-;-;-;-;-;-
1513509142284;-;-;4.5554657;-0.01776123;-12.906464;-;-;-;-;-;-;-;-;-;-;-;-;-;-;-
1513509142304;-;-;5.300049;1.0727997;-5.701111;-;-;-;-;-;-;-;-;-;-;-;-;-;-;-
1513509142324;-;-;4.198715;0.42636108;-0.9689636;-;-;-;-;-;-;-;-;-;-;-;-;-;-;-
1513509142344;-;-;2.7083282;-0.20930481;0.97273254;-;-;-;-;-;-;-;-;-;-;-;-;-;-;-
1513509142365;-;-;3.7007294;-0.41400146;-1.021637;-;-;-;-;-;-;-;-;-;-;-;-;-;-;-
1513509142385;-;-;2.8639526;0.4766388;-3.1884003;-;-;-;-;-;-;-;-;-;-;-;-;-;-;-
1513509142405;-;-;2.28096;1.1470184;-3.3966827;-;-;-;-;-;-;-;-;-;-;-;-;-;-;-
1513509142426;-;-;2.5634766;1.9335022;-3.6349182;-;-;-;-;-;-;-;-;-;-;-;-;-;-;-
1513509142446;-;-;3.371521;2.8935852;-3.111786;-;-;-;-;-;-;-;-;-;-;-;-;-;-;-
1513509142466;-;-;6.1009216;3.1198425;-3.2362823;-;-;-;-;-;-;-;-;-;-;-;-;-;-;-
1513509142486;-;-;10.521805;1.5516357;-6.880249;-;-;-;-;-;-;-;-;-;-;-;-;-;-;-
1513509142507;-;-;9.29718;1.4522705;-9.681473;-;-;-;-;-;-;-;-;-;-;-;-;-;-;-
1513509142527;-;-;10.355408;3.2431335;-8.678299;-;-;-;-;-;-;-;-;-;-;-;-;-;-;-
1513509142547;-;-;11.817078;2.3381348;-5.5921783;-;-;-;-;-;-;-;-;-;-;-;-;-;-;-
1513509142568;-;-;10.665466;3.8357086;-4.0323486;-;-;-;-;-;-;-;-;-;-;-;-;-;-;-
1513509142588;-;-;11.090439;4.209198;-3.1022034;-;-;-;-;-;-;-;-;-;-;-;-;-;-;-
1513509142608;-;-;10.259644;3.4167175;-2.9058838;-;-;-;-;-;-;-;-;-;-;-;-;-;-;-
1513509142629;-;-;7.5290527;1.829361;-8.985947;-;-;-;-;-;-;-;-;-;-;-;-;-;-;-
1513509142649;-;-;5.4257507;1.8257751;-12.052933;-;-;-;-;-;-;-;-;-;-;-;-;-;-;-
1513509142669;-;-;9.702988;1.3373566;-3.7522278;-;-;-;-;-;-;-;-;-;-;-;-;-;-;-
1513509142689;-;-;11.162262;0.13426208;-8.060593;-;-;-;-;-;-;-;-;-;-;-;-;-;-;-
1513509142710;-;-;8.159927;0.24798584;-6.298462;-;-;-;-;-;-;-;-;-;-;-;-;-;-;-
1513509142730;-;-;3.4876404;0.51135254;-9.104462;-;-;-;-;-;-;-;-;-;-;-;-;-;-;-
1513509142750;-;-;2.9118347;-0.36013794;-6.7485657;-;-;-;-;-;-;-;-;-;-;-;-;-;-;-
1513509142771;-;-;4.675171;-1.0101624;-3.8551788;-;-;-;-;-;-;-;-;-;-;-;-;-;-;-
1513509142790;-;-;8.210205;-1.0269165;-3.3595734;-;-;-;-;-;-;-;-;-;-;-;-;-;-;-
1513509142810;-;-;7.2944183;0.105529785;-3.4302063;-;-;-;-;-;-;-;-;-;-;-;-;-;-;-
1513509142831;-;-;5.6807404;1.0021667;-3.5151978;-;-;-;-;-;-;-;-;-;-;-;-;-;-;-
1513509142851;-;-;4.9433136;0.29109192;-4.323242;-;-;-;-;-;-;-;-;-;-;-;-;-;-;-
1513509142871;-;-;4.1532288;-0.62709045;-4.0634766;-;-;-;-;-;-;-;-;-;-;-;-;-;-;-
1513509142892;-;-;4.062256;-2.918335;-3.2506409;-;-;-;-;-;-;-;-;-;-;-;-;-;-;-
1513509142911;-;-;5.980011;-4.139389;-3.8970795;-;-;-;-;-;-;-;-;-;-;-;-;-;-;-
1513509142931;-;-;7.93367;-4.077133;-5.3647156;-;-;-;-;-;-;-;-;-;-;-;-;-;-;-
1513509142951;-;-;7.5051117;-3.045227;-5.4784546;-;-;-;-;-;-;-;-;-;-;-;-;-;-;-
1513509142971;-;-;6.269699;-1.8996124;-4.943344;-;-;-;-;-;-;-;-;-;-;-;-;-;-;-
1513509142992;-;-;7.0897217;-1.31781;-4.1903687;-;-;-;-;-;-;-;-;-;-;-;-;-;-;-
1513509143012;-;-;8.811157;-2.0025635;-4.156845;-;-;-;-;-;-;-;-;-;-;-;-;-;-;-
1513509143032;-;-;9.880157;-2.471817;-5.1157227;-;-;-;-;-;-;-;-;-;-;-;-;-;-;-
1513509143053;-;-;11.098816;-2.3664703;-4.8020782;-;-;-;-;-;-;-;-;-;-;-;-;-;-;-
1513509143073;-;-;12.941147;-2.1378326;-4.381897;-;-;-;-;-;-;-;-;-;-;-;-;-;-;-
1513509143093;-;-;15.094727;-1.5739899;-3.7210999;-;-;-;-;-;-;-;-;-;-;-;-;-;-;-
1513509143114;-;-;13.631882;-0.49421692;-4.2143097;-;-;-;-;-;-;-;-;-;-;-;-;-;-;-
1513509143133;-;-;3.4158173;-3.202057;-17.068771;-;-;-;-;-;-;-;-;-;-;-;-;-;-;-
1513509143153;-;-;2.1385193;-6.2798004;-6.590561;-;-;-;-;-;-;-;-;-;-;-;-;-;-;-
1513509143173;-;-;9.893326;-2.966217;4.4036255;-;-;-;-;-;-;-;-;-;-;-;-;-;-;-
1513509143194;-;-;7.968399;-0.80307007;-9.458801;-;-;-;-;-;-;-;-;-;-;-;-;-;-;-
1513509143214;-;-;7.264496;0.90400696;-14.981033;-;-;-;-;-;-;-;-;-;-;-;-;-;-;-
1513509143234;-;-;8.58609;2.6852875;-11.377762;-;-;-;-;-;-;-;-;-;-;-;-;-;-;-
1513509143255;-;-;8.240128;2.7415466;-6.211075;-;-;-;-;-;-;-;-;-;-;-;-;-;-;-
1513509143275;-;-;6.8910065;1.2954559;-1.7422943;-;-;-;-;-;-;-;-;-;-;-;-;-;-;-
1513509143295;-;-;5.632843;0.12588501;-2.4904785;-;-;-;-;-;-;-;-;-;-;-;-;-;-;-
1513509143316;-;-;4.517151;-0.3589325;-4.250229;-;-;-;-;-;-;-;-;-;-;-;-;-;-;-
1513509143336;-;-;4.1484375;-0.14465332;-4.5973816;-;-;-;-;-;-;-;-;-;-;-;-;-;-;-
1513509143356;-;-;3.7079163;0.4371338;-3.6947632;-;-;-;-;-;-;-;-;-;-;-;-;-;-;-
1513509143376;-;-;4.6308746;1.7024689;-3.0387573;-;-;-;-;-;-;-;-;-;-;-;-;-;-;-
1513509143397;-;-;5.403;2.5512085;-4.077835;-;-;-;-;-;-;-;-;-;-;-;-;-;-;-
1513509143417;-;-;5.4832153;2.387207;-4.5064087;-;-;-;-;-;-;-;-;-;-;-;-;-;-;-
1513509143437;-;-;5.696289;1.0033569;-4.262192;-;-;-;-;-;-;-;-;-;-;-;-;-;-;-
1513509143458;-;-;6.256546;0.2132721;-3.8096924;-;-;-;-;-;-;-;-;-;-;-;-;-;-;-
1513509143478;-;-;6.5438385;0.07081604;-3.350006;-;-;-;-;-;-;-;-;-;-;-;-;-;-;-
1513509143498;-;-;6.790451;0.30186462;-1.9781189;-;-;-;-;-;-;-;-;-;-;-;-;-;-;-
1513509143519;-;-;7.351883;0.16659546;-0.42907715;-;-;-;-;-;-;-;-;-;-;-;-;-;-;-
1513509143538;-;-;8.128799;-0.20211792;-0.25549316;-;-;-;-;-;-;-;-;-;-;-;-;-;-;-
1513509143558;-;-;8.4448395;-0.56962585;-1.1341705;-;-;-;-;-;-;-;-;-;-;-;-;-;-;-
1513509143578;-;-;8.542999;-0.29429626;-1.1748657;-;-;-;-;-;-;-;-;-;-;-;-;-;-;-
1513509143599;-;-;7.8403015;0.2348175;-0.9761505;-;-;-;-;-;-;-;-;-;-;-;-;-;-;-
1513509143619;-;-;8.084518;0.48980713;-0.40753174;-;-;-;-;-;-;-;-;-;-;-;-;-;-;-
1513509143640;-;-;10.279999;0.54367065;-0.43147278;-;-;-;-;-;-;-;-;-;-;-;-;-;-;-
1513509143661;-;-;10.847427;1.9670258;-8.3407135;-;-;-;-;-;-;-;-;-;-;-;-;-;-;-
1513509143681;-;-;6.7413635;5.473343;-14.376495;-;-;-;-;-;-;-;-;-;-;-;-;-;-;-
1513509143702;-;-;7.6080627;7.0151978;-11.90448;-;-;-;-;-;-;-;-;-;-;-;-;-;-;-
1513509143723;-;-;10.685806;3.6657104;-9.278046;-;-;-;-;-;-;-;-;-;-;-;-;-;-;-
1513509143744;-;-;10.730103;-1.7858887;-10.803146;-;-;-;-;-;-;-;-;-;-;-;-;-;-;-
1513509143764;-;-;7.1914673;-3.45224;-11.886536;-;-;-;-;-;-;-;-;-;-;-;-;-;-;-
1513509143785;-;-;7.581726;-0.33859253;-5.4317627;-;-;-;-;-;-;-;-;-;-;-;-;-;-;-
1513509143804;-;-;8.38858;3.3580627;-2.570694;-;-;-;-;-;-;-;-;-;-;-;-;-;-;-
