TimeStamp[ms];Prox[Cm];Lux[lux];AccX[m/s^2];AccY[m/s^2];AccZ[m/s^2];GyroX[rad/s];GyroY[rad/s];GyroZ[rad/s];MagnX[uT];MagnY[uT];MagnZ[uT];OrienYaw[degrees];OrienPitch[degrees];OrienRoll[degrees];Press[Pa];Temp[C°];Batt[%];Lat;Lng;Speed[m/s]
1513509166113;-;-;9.108032;-0.03453064;-0.906723;-;-;-;-;-;-;-;-;-;-;-;-;-;-;-
1513509166112;-;-;9.108032;-0.03453064;-0.906723;-;-;-;-;-;-;-;-;-;-;-;-;-;-;-
1513509166126;-;-;8.975159;0.05885315;-1.0036774;-;-;-;-;-;-;-;-;-;-;-;-;-;-;-
1513509166146;-;-;9.300766;-0.1590271;-0.9258728;-;-;-;-;-;-;-;-;-;-;-;-;-;-;-
1513509166167;-;-;9.243301;0.021743774;-0.7953949;-;-;-;-;-;-;-;-;-;-;-;-;-;-;-
1513509166187;-;-;9.21936;0.0061798096;-1.0132599;-;-;-;-;-;-;-;-;-;-;-;-;-;-;-
1513509166207;-;-;9.327103;0.1558075;-1.3472595;-;-;-;-;-;-;-;-;-;-;-;-;-;-;-
1513509166228;-;-;9.319916;0.2515869;-1.282608;-;-;-;-;-;-;-;-;-;-;-;-;-;-;-
1513509166248;-;-;9.031418;0.08518982;-1.1138153;-;-;-;-;-;-;-;-;-;-;-;-;-;-;-
1513509166269;-;-;8.944031;-0.13986206;-1.085083;-;-;-;-;-;-;-;-;-;-;-;-;-;-;-
1513509166289;-;-;8.802765;-0.24760437;-0.8360901;-;-;-;-;-;-;-;-;-;-;-;-;-;-;-
1513509166309;-;-;8.801575;-0.24401855;-0.8372803;-;-;-;-;-;-;-;-;-;-;-;-;-;-;-
1513509166330;-;-;8.874603;-0.16500854;-0.7307434;-;-;-;-;-;-;-;-;-;-;-;-;-;-;-
1513509166362;-;-;8.935654;-0.119522095;-0.827713;-;-;-;-;-;-;-;-;-;-;-;-;-;-;-
1513509166370;-;-;8.766861;-0.035720825;-0.97735596;-;-;-;-;-;-;-;-;-;-;-;-;-;-;-
1513509166390;-;-;9.072113;0.08279419;-1.0779114;-;-;-;-;-;-;-;-;-;-;-;-;-;-;-
1513509166411;-;-;9.327103;0.68133545;-1.0551605;-;-;-;-;-;-;-;-;-;-;-;-;-;-;-
1513509166430;-;-;8.632782;1.655777;-1.440628;-;-;-;-;-;-;-;-;-;-;-;-;-;-;-
1513509166451;-;-;8.493927;1.7874603;-1.2371216;-;-;-;-;-;-;-;-;-;-;-;-;-;-;-
1513509166470;-;-;7.423706;2.5021362;-1.3987274;-;-;-;-;-;-;-;-;-;-;-;-;-;-;-
1513509166490;-;-;8.884171;1.7383881;-1.6381531;-;-;-;-;-;-;-;-;-;-;-;-;-;-;-
1513509166510;-;-;9.117615;2.208847;-1.0431824;-;-;-;-;-;-;-;-;-;-;-;-;-;-;-
1513509166531;-;-;9.195419;1.7838745;-1.6477203;-;-;-;-;-;-;-;-;-;-;-;-;-;-;-
1513509166551;-;-;9.797562;1.6054993;-1.8512268;-;-;-;-;-;-;-;-;-;-;-;-;-;-;-
1513509166572;-;-;9.664688;1.7826691;-1.4813232;-;-;-;-;-;-;-;-;-;-;-;-;-;-;-
1513509166592;-;-;9.719757;2.2651062;-1.8153229;-;-;-;-;-;-;-;-;-;-;-;-;-;-;-
1513509166612;-;-;9.464767;2.5045319;-1.7159576;-;-;-;-;-;-;-;-;-;-;-;-;-;-;-
1513509166633;-;-;9.06015;2.2076416;-1.3149261;-;-;-;-;-;-;-;-;-;-;-;-;-;-;-
1513509166652;-;-;8.791992;1.8832245;-1.4597778;-;-;-;-;-;-;-;-;-;-;-;-;-;-;-
1513509166673;-;-;8.4292755;1.3217926;-1.6369476;-;-;-;-;-;-;-;-;-;-;-;-;-;-;-
1513509166692;-;-;8.307175;1.3170013;-1.3197174;-;-;-;-;-;-;-;-;-;-;-;-;-;-;-
1513509166713;-;-;8.569336;1.1326447;-1.3640137;-;-;-;-;-;-;-;-;-;-;-;-;-;-;-
1513509166732;-;-;6.956848;1.4151611;-1.480133;-;-;-;-;-;-;-;-;-;-;-;-;-;-;-
1513509166752;-;-;8.542999;1.3457336;-1.2239532;-;-;-;-;-;-;-;-;-;-;-;-;-;-;-
1513509166772;-;-;8.605255;1.5971222;-1.7063904;-;-;-;-;-;-;-;-;-;-;-;-;-;-;-
1513509166793;-;-;7.889389;2.1717377;-1.4753418;-;-;-;-;-;-;-;-;-;-;-;-;-;-;-
1513509166814;-;-;8.885376;2.2579193;-1.3831635;-;-;-;-;-;-;-;-;-;-;-;-;-;-;-
1513509166835;-;-;9.227737;2.9725952;-1.6956024;-;-;-;-;-;-;-;-;-;-;-;-;-;-;-
1513509166855;-;-;8.774048;3.5914917;1.3246765;-;-;-;-;-;-;-;-;-;-;-;-;-;-;-
1513509166875;-;-;9.786789;0.76034546;-1.7075806;-;-;-;-;-;-;-;-;-;-;-;-;-;-;-
1513509166895;-;-;10.405685;2.1154633;-0.7522888;-;-;-;-;-;-;-;-;-;-;-;-;-;-;-
1513509166916;-;-;11.264008;2.998932;-0.9976959;-;-;-;-;-;-;-;-;-;-;-;-;-;-;-
1513509166936;-;-;12.062485;2.9773865;-1.2263489;-;-;-;-;-;-;-;-;-;-;-;-;-;-;-
1513509166956;-;-;12.173813;3.972168;-0.78341675;-;-;-;-;-;-;-;-;-;-;-;-;-;-;-
1513509166977;-;-;8.847061;4.691635;-1.7542725;-;-;-;-;-;-;-;-;-;-;-;-;-;-;-
1513509166997;-;-;5.7094574;4.0128784;-5.8387756;-;-;-;-;-;-;-;-;-;-;-;-;-;-;-
1513509167017;-;-;5.8902283;4.504883;-6.081787;-;-;-;-;-;-;-;-;-;-;-;-;-;-;-
1513509167037;-;-;9.984314;2.6445923;-6.0674286;-;-;-;-;-;-;-;-;-;-;-;-;-;-;-
1513509167058;-;-;11.481888;-1.3872528;-8.752518;-;-;-;-;-;-;-;-;-;-;-;-;-;-;-
1513509167077;-;-;5.1408386;-1.4889984;-6.0470734;-;-;-;-;-;-;-;-;-;-;-;-;-;-;-
1513509167097;-;-;6.6467896;-2.087555;-5.8866577;-;-;-;-;-;-;-;-;-;-;-;-;-;-;-
1513509167118;-;-;7.5290527;-0.18296814;-4.685974;-;-;-;-;-;-;-;-;-;-;-;-;-;-;-
1513509167138;-;-;7.521881;0.16059875;-4.29451;-;-;-;-;-;-;-;-;-;-;-;-;-;-;-
1513509167158;-;-;8.559753;0.5197296;-5.6436462;-;-;-;-;-;-;-;-;-;-;-;-;-;-;-
1513509167179;-;-;10.1171875;-0.17459106;-6.8910217;-;-;-;-;-;-;-;-;-;-;-;-;-;-;-
1513509167199;-;-;9.566528;-0.4271698;-6.1990967;-;-;-;-;-;-;-;-;-;-;-;-;-;-;-
1513509167219;-;-;8.228165;-1.3537292;-4.788925;-;-;-;-;-;-;-;-;-;-;-;-;-;-;-
1513509167239;-;-;6.5198975;-1.6996918;-4.0790405;-;-;-;-;-;-;-;-;-;-;-;-;-;-;-
1513509167260;-;-;6.489975;-1.0460815;-4.737442;-;-;-;-;-;-;-;-;-;-;-;-;-;-;-
1513509167280;-;-;6.354706;-0.27275085;-4.073044;-;-;-;-;-;-;-;-;-;-;-;-;-;-;-
1513509167300;-;-;6.7018585;0.091171265;-4.129318;-;-;-;-;-;-;-;-;-;-;-;-;-;-;-
1513509167321;-;-;7.3135834;-0.030929565;-5.279724;-;-;-;-;-;-;-;-;-;-;-;-;-;-;-
1513509167341;-;-;6.592926;-0.8605194;-8.247345;-;-;-;-;-;-;-;-;-;-;-;-;-;-;-
1513509167361;-;-;7.612854;-3.1649475;-6.7701263;-;-;-;-;-;-;-;-;-;-;-;-;-;-;-
1513509167382;-;-;7.040634;-0.28471375;-4.301697;-;-;-;-;-;-;-;-;-;-;-;-;-;-;-
1513509167401;-;-;8.577713;-4.431473;-4.978058;-;-;-;-;-;-;-;-;-;-;-;-;-;-;-
1513509167421;-;-;9.307953;-3.9430542;0.16229248;-;-;-;-;-;-;-;-;-;-;-;-;-;-;-
1513509167442;-;-;4.047882;-1.273529;-1.0539703;-;-;-;-;-;-;-;-;-;-;-;-;-;-;-
1513509167462;-;-;7.5398254;-0.78630066;-1.188034;-;-;-;-;-;-;-;-;-;-;-;-;-;-;-
1513509167482;-;-;10.440399;-1.3740845;-2.79216;-;-;-;-;-;-;-;-;-;-;-;-;-;-;-
1513509167502;-;-;10.715744;-1.5668182;-3.7067413;-;-;-;-;-;-;-;-;-;-;-;-;-;-;-
1513509167522;-;-;11.460342;-1.4183655;-3.705536;-;-;-;-;-;-;-;-;-;-;-;-;-;-;-
1513509167542;-;-;10.353012;-1.1933136;-3.5211945;-;-;-;-;-;-;-;-;-;-;-;-;-;-;-
1513509167563;-;-;8.110855;-1.0436859;-5.8303986;-;-;-;-;-;-;-;-;-;-;-;-;-;-;-
1513509167583;-;-;6.515106;-0.19613647;-10.884552;-;-;-;-;-;-;-;-;-;-;-;-;-;-;-
1513509167603;-;-;10.246475;2.430313;-9.002716;-;-;-;-;-;-;-;-;-;-;-;-;-;-;-
1513509167623;-;-;13.3984375;3.8165436;-4.4393616;-;-;-;-;-;-;-;-;-;-;-;-;-;-;-
1513509167644;-;-;10.002274;1.679718;-5.9680634;-;-;-;-;-;-;-;-;-;-;-;-;-;-;-
1513509167664;-;-;9.850235;-1.6793365;-6.6683655;-;-;-;-;-;-;-;-;-;-;-;-;-;-;-
1513509167684;-;-;9.209793;-4.820526;-6.6336517;-;-;-;-;-;-;-;-;-;-;-;-;-;-;-
1513509167705;-;-;11.556107;-4.9749603;-5.571823;-;-;-;-;-;-;-;-;-;-;-;-;-;-;-
1513509167725;-;-;14.506958;-0.75756836;-2.4019012;-;-;-;-;-;-;-;-;-;-;-;-;-;-;-
1513509167745;-;-;9.962769;2.7750702;-2.6449127;-;-;-;-;-;-;-;-;-;-;-;-;-;-;-
1513509167766;-;-;7.6427765;5.2638397;-3.001648;-;-;-;-;-;-;-;-;-;-;-;-;-;-;-
1513509167786;-;-;5.7932587;4.7443085;-2.614975;-;-;-;-;-;-;-;-;-;-;-;-;-;-;-
1513509167806;-;-;4.721863;3.2874298;-0.67807007;-;-;-;-;-;-;-;-;-;-;-;-;-;-;-
1513509167826;-;-;3.8084717;1.3445435;0.3610077;-;-;-;-;-;-;-;-;-;-;-;-;-;-;-
1513509167847;-;-;3.7055206;-1.1957092;-0.3548584;-;-;-;-;-;-;-;-;-;-;-;-;-;-;-
1513509167867;-;-;3.2266693;-2.8177795;-1.3005676;-;-;-;-;-;-;-;-;-;-;-;-;-;-;-
1513509167888;-;-;3.6336975;-2.495758;-0.9438324;-;-;-;-;-;-;-;-;-;-;-;-;-;-;-
1513509167908;-;-;5.4401093;-0.21170044;-0.023254395;-;-;-;-;-;-;-;-;-;-;-;-;-;-;-
1513509167928;-;-;8.09169;3.0923004;0.6674652;-;-;-;-;-;-;-;-;-;-;-;-;-;-;-
1513509167948;-;-;12.342606;3.8955536;0.51423645;-;-;-;-;-;-;-;-;-;-;-;-;-;-;-
1513509167968;-;-;16.326553;4.992096;-1.6513214;-;-;-;-;-;-;-;-;-;-;-;-;-;-;-
1513509167989;-;-;16.562378;5.9234467;-3.4373932;-;-;-;-;-;-;-;-;-;-;-;-;-;-;-
1513509168009;-;-;17.168106;4.8029633;-3.2219086;-;-;-;-;-;-;-;-;-;-;-;-;-;-;-
1513509168029;-;-;15.273102;4.3384857;-5.24382;-;-;-;-;-;-;-;-;-;-;-;-;-;-;-
1513509168050;-;-;9.796371;4.6844482;-9.102066;-;-;-;-;-;-;-;-;-;-;-;-;-;-;-
1513509168070;-;-;9.87059;6.1628723;-6.464859;-;-;-;-;-;-;-;-;-;-;-;-;-;-;-
1513509168091;-;-;4.96846;5.7211304;-11.996658;-;-;-;-;-;-;-;-;-;-;-;-;-;-;-
1513509168111;-;-;4.541092;1.6138763;-8.976379;-;-;-;-;-;-;-;-;-;-;-;-;-;-;-
1513509168131;-;-;5.236603;-1.1562042;-8.830338;-;-;-;-;-;-;-;-;-;-;-;-;-;-;-
1513509168151;-;-;7.493149;-2.4837952;-9.499512;-;-;-;-;-;-;-;-;-;-;-;-;-;-;-
1513509168171;-;-;11.595612;-3.210434;-6.0171356;-;-;-;-;-;-;-;-;-;-;-;-;-;-;-
1513509168191;-;-;11.546524;-1.7822876;-2.467743;-;-;-;-;-;-;-;-;-;-;-;-;-;-;-
1513509168211;-;-;6.570175;1.2332001;-1.3292999;-;-;-;-;-;-;-;-;-;-;-;-;-;-;-
1513509168231;-;-;4.4285583;2.22081;-1.8260956;-;-;-;-;-;-;-;-;-;-;-;-;-;-;-
1513509168251;-;-;4.0610504;1.4570618;-2.0487518;-;-;-;-;-;-;-;-;-;-;-;-;-;-;-
1513509168271;-;-;3.857544;-0.038116455;-1.1856384;-;-;-;-;-;-;-;-;-;-;-;-;-;-;-
1513509168291;-;-;3.773758;-2.025299;-1.353241;-;-;-;-;-;-;-;-;-;-;-;-;-;-;-
1513509168312;-;-;4.0347137;-3.783844;-3.298523;-;-;-;-;-;-;-;-;-;-;-;-;-;-;-
1513509168332;-;-;6.4049835;-4.3033905;-4.3172607;-;-;-;-;-;-;-;-;-;-;-;-;-;-;-
1513509168353;-;-;7.881012;-3.0428314;-5.1348724;-;-;-;-;-;-;-;-;-;-;-;-;-;-;-
1513509168374;-;-;11.224503;-0.5732269;-5.7478027;-;-;-;-;-;-;-;-;-;-;-;-;-;-;-
1513509168394;-;-;12.693344;-0.23443604;-6.09375;-;-;-;-;-;-;-;-;-;-;-;-;-;-;-
1513509168414;-;-;11.224503;-0.8102417;-6.7126617;-;-;-;-;-;-;-;-;-;-;-;-;-;-;-
1513509168435;-;-;11.966705;-1.309433;-6.2098694;-;-;-;-;-;-;-;-;-;-;-;-;-;-;-
1513509168455;-;-;11.328659;0.22764587;-8.12883;-;-;-;-;-;-;-;-;-;-;-;-;-;-;-
1513509168475;-;-;5.217453;-0.81503296;-16.558807;-;-;-;-;-;-;-;-;-;-;-;-;-;-;-
1513509168495;-;-;5.019928;-4.214798;-14.581207;-;-;-;-;-;-;-;-;-;-;-;-;-;-;-
1513509168516;-;-;15.856094;-3.9191132;-1.456192;-;-;-;-;-;-;-;-;-;-;-;-;-;-;-
1513509168536;-;-;11.2951355;0.58677673;-7.4500732;-;-;-;-;-;-;-;-;-;-;-;-;-;-;-
1513509168556;-;-;2.4270172;1.9742126;-9.730545;-;-;-;-;-;-;-;-;-;-;-;-;-;-;-
1513509168577;-;-;1.9098663;1.1242676;-7.31839;-;-;-;-;-;-;-;-;-;-;-;-;-;-;-
1513509168597;-;-;2.7598114;-0.78630066;-3.1548767;-;-;-;-;-;-;-;-;-;-;-;-;-;-;-
1513509168617;-;-;3.7689667;-2.1557922;1.152298;-;-;-;-;-;-;-;-;-;-;-;-;-;-;-
1513509168638;-;-;6.651581;-1.7631378;-0.28063965;-;-;-;-;-;-;-;-;-;-;-;-;-;-;-
1513509168658;-;-;7.8199463;-0.74320984;-4.2406464;-;-;-;-;-;-;-;-;-;-;-;-;-;-;-
1513509168678;-;-;6.398987;1.2296143;-5.1576233;-;-;-;-;-;-;-;-;-;-;-;-;-;-;-
1513509168699;-;-;5.528702;2.9462585;-4.8930664;-;-;-;-;-;-;-;-;-;-;-;-;-;-;-
1513509168718;-;-;6.202667;3.7734528;-3.7977142;-;-;-;-;-;-;-;-;-;-;-;-;-;-;-
1513509168738;-;-;7.3901978;3.6034698;-4.8104706;-;-;-;-;-;-;-;-;-;-;-;-;-;-;-
1513509168759;-;-;8.857834;1.5444489;-6.8311768;-;-;-;-;-;-;-;-;-;-;-;-;-;-;-
1513509168779;-;-;10.179443;1.5109406;-6.6288605;-;-;-;-;-;-;-;-;-;-;-;-;-;-;-
1513509168799;-;-;9.941208;1.8425293;-7.6176605;-;-;-;-;-;-;-;-;-;-;-;-;-;-;-
1513509168820;-;-;8.5849;1.3565063;-5.0271454;-;-;-;-;-;-;-;-;-;-;-;-;-;-;-
1513509168840;-;-;9.187042;1.2068634;-3.3547974;-;-;-;-;-;-;-;-;-;-;-;-;-;-;-
1513509168860;-;-;6.695877;0.25756836;-10.2261505;-;-;-;-;-;-;-;-;-;-;-;-;-;-;-
1513509168880;-;-;2.4689178;2.3860168;-10.240509;-;-;-;-;-;-;-;-;-;-;-;-;-;-;-
1513509168901;-;-;3.1823883;6.130539;-6.3810577;-;-;-;-;-;-;-;-;-;-;-;-;-;-;-
1513509168921;-;-;7.4488525;6.442993;-7.6176605;-;-;-;-;-;-;-;-;-;-;-;-;-;-;-
1513509168941;-;-;4.7601624;2.8660583;-6.717453;-;-;-;-;-;-;-;-;-;-;-;-;-;-;-
1513509168962;-;-;4.57222;-0.26556396;-9.155945;-;-;-;-;-;-;-;-;-;-;-;-;-;-;-
1513509168982;-;-;5.244995;-2.5089264;-3.3057098;-;-;-;-;-;-;-;-;-;-;-;-;-;-;-
1513509169002;-;-;5.7214355;-3.2906342;-0.53681946;-;-;-;-;-;-;-;-;-;-;-;-;-;-;-
1513509169022;-;-;6.3223724;-1.8050385;-1.4669647;-;-;-;-;-;-;-;-;-;-;-;-;-;-;-
1513509169042;-;-;6.533066;-0.2392273;-2.3719635;-;-;-;-;-;-;-;-;-;-;-;-;-;-;-
1513509169063;-;-;6.7246094;-0.040512085;-4.086212;-;-;-;-;-;-;-;-;-;-;-;-;-;-;-
1513509169083;-;-;6.6036987;-1.7487793;-5.796875;-;-;-;-;-;-;-;-;-;-;-;-;-;-;-
1513509169103;-;-;7.600876;-3.5827332;-6.132065;-;-;-;-;-;-;-;-;-;-;-;-;-;-;-
1513509169123;-;-;9.461182;-4.515274;-7.093338;-;-;-;-;-;-;-;-;-;-;-;-;-;-;-
1513509169144;-;-;11.4687195;-3.9466553;-7.5853424;-;-;-;-;-;-;-;-;-;-;-;-;-;-;-
1513509169163;-;-;12.189377;-3.949051;-6.4505005;-;-;-;-;-;-;-;-;-;-;-;-;-;-;-
1513509169183;-;-;15.253952;-1.9199524;-6.6480103;-;-;-;-;-;-;-;-;-;-;-;-;-;-;-
1513509169203;-;-;15.1258545;1.4498749;-6.942505;-;-;-;-;-;-;-;-;-;-;-;-;-;-;-
1513509169224;-;-;7.0933075;2.2591248;-8.181503;-;-;-;-;-;-;-;-;-;-;-;-;-;-;-
1513509169244;-;-;1.4753113;1.3098145;-16.846115;-;-;-;-;-;-;-;-;-;-;-;-;-;-;-
1513509169264;-;-;-0.7441101;-0.28831482;-12.777176;-;-;-;-;-;-;-;-;-;-;-;-;-;-;-
1513509169284;-;-;3.450531;-3.989746;1.7173309;-;-;-;-;-;-;-;-;-;-;-;-;-;-;-
1513509169304;-;-;12.790314;-2.0899506;0.36460876;-;-;-;-;-;-;-;-;-;-;-;-;-;-;-
1513509169325;-;-;8.572922;-0.16500854;-11.163483;-;-;-;-;-;-;-;-;-;-;-;-;-;-;-
1513509169345;-;-;7.691864;1.169754;-10.42128;-;-;-;-;-;-;-;-;-;-;-;-;-;-;-
1513509169365;-;-;7.580536;1.492981;-4.314865;-;-;-;-;-;-;-;-;-;-;-;-;-;-;-
1513509169386;-;-;5.6184845;1.2918701;-0.65652466;-;-;-;-;-;-;-;-;-;-;-;-;-;-;-
1513509169406;-;-;4.4800415;1.1494141;-0.48414612;-;-;-;-;-;-;-;-;-;-;-;-;-;-;-
1513509169426;-;-;3.632492;0.68133545;-3.5247803;-;-;-;-;-;-;-;-;-;-;-;-;-;-;-
1513509169447;-;-;4.387863;0.36650085;-4.3914795;-;-;-;-;-;-;-;-;-;-;-;-;-;-;-
1513509169467;-;-;5.3060455;0.8668976;-5.037918;-;-;-;-;-;-;-;-;-;-;-;-;-;-;-
1513509169487;-;-;5.7130585;1.595932;-5.8543396;-;-;-;-;-;-;-;-;-;-;-;-;-;-;-
1513509169508;-;-;7.5589905;1.5121307;-5.8710938;-;-;-;-;-;-;-;-;-;-;-;-;-;-;-
1513509169528;-;-;10.715744;2.6014862;-4.1352997;-;-;-;-;-;-;-;-;-;-;-;-;-;-;-
1513509169552;-;-;12.6466675;3.1796875;-3.2290955;-;-;-;-;-;-;-;-;-;-;-;-;-;-;-
1513509169572;-;-;11.724899;2.9725952;-3.1656494;-;-;-;-;-;-;-;-;-;-;-;-;-;-;-
1513509169592;-;-;11.0772705;1.2463684;-2.89151;-;-;-;-;-;-;-;-;-;-;-;-;-;-;-
1513509169613;-;-;6.4396973;0.6573944;-9.61084;-;-;-;-;-;-;-;-;-;-;-;-;-;-;-
1513509169633;-;-;0.82888794;2.138214;-10.144745;-;-;-;-;-;-;-;-;-;-;-;-;-;-;-
1513509169652;-;-;1.5423584;2.5164948;-2.5539246;-;-;-;-;-;-;-;-;-;-;-;-;-;-;-
1513509169672;-;-;9.996277;2.073578;-6.8503265;-;-;-;-;-;-;-;-;-;-;-;-;-;-;-
1513509169692;-;-;8.970367;-0.9503021;-8.539429;-;-;-;-;-;-;-;-;-;-;-;-;-;-;-
1513509169712;-;-;4.8906403;-2.0827637;-6.021927;-;-;-;-;-;-;-;-;-;-;-;-;-;-;-
1513509169733;-;-;4.5315094;-0.9467163;-5.065445;-;-;-;-;-;-;-;-;-;-;-;-;-;-;-
1513509169754;-;-;6.3930054;-0.51815796;-2.527588;-;-;-;-;-;-;-;-;-;-;-;-;-;-;-
1513509169774;-;-;6.9077606;0.338974;-2.5180206;-;-;-;-;-;-;-;-;-;-;-;-;-;-;-
1513509169794;-;-;5.881851;0.03012085;-2.144516;-;-;-;-;-;-;-;-;-;-;-;-;-;-;-
1513509169814;-;-;6.2397766;-0.51934814;-2.9741058;-;-;-;-;-;-;-;-;-;-;-;-;-;-;-
1513509169835;-;-;7.134018;-2.2324066;-4.974472;-;-;-;-;-;-;-;-;-;-;-;-;-;-;-
1513509169855;-;-;7.6176453;-4.063965;-6.7701263;-;-;-;-;-;-;-;-;-;-;-;-;-;-;-
1513509169874;-;-;7.4213104;-5.100662;-7.0239105;-;-;-;-;-;-;-;-;-;-;-;-;-;-;-
1513509169895;-;-;9.311539;-3.5180817;-5.8615265;-;-;-;-;-;-;-;-;-;-;-;-;-;-;-
1513509169915;-;-;12.626312;-1.661377;-5.2928925;-;-;-;-;-;-;-;-;-;-;-;-;-;-;-
1513509169935;-;-;13.859329;-0.44992065;-4.954117;-;-;-;-;-;-;-;-;-;-;-;-;-;-;-
1513509169955;-;-;14.365692;0.4862213;-6.0566406;-;-;-;-;-;-;-;-;-;-;-;-;-;-;-
1513509169976;-;-;9.428848;0.81781006;-11.047363;-;-;-;-;-;-;-;-;-;-;-;-;-;-;-
1513509169996;-;-;3.830017;-1.9127808;-17.346512;-;-;-;-;-;-;-;-;-;-;-;-;-;-;-
1513509170016;-;-;6.1164703;-5.9039154;-10.149536;-;-;-;-;-;-;-;-;-;-;-;-;-;-;-
1513509170036;-;-;14.114304;-2.5915375;5.23201;-;-;-;-;-;-;-;-;-;-;-;-;-;-;-
1513509170057;-;-;8.855438;0.26115417;-5.9357452;-;-;-;-;-;-;-;-;-;-;-;-;-;-;-
1513509170077;-;-;3.3655396;0.50057983;-11.514236;-;-;-;-;-;-;-;-;-;-;-;-;-;-;-
1513509170097;-;-;4.3495636;1.5456543;-8.203049;-;-;-;-;-;-;-;-;-;-;-;-;-;-;-
1513509170118;-;-;4.1292877;2.7056427;-3.0303802;-;-;-;-;-;-;-;-;-;-;-;-;-;-;-
1513509170137;-;-;3.5894012;2.631424;0.21138;-;-;-;-;-;-;-;-;-;-;-;-;-;-;-
1513509170158;-;-;5.1599884;0.6454315;-0.76545715;-;-;-;-;-;-;-;-;-;-;-;-;-;-;-
1513509170178;-;-;6.1595764;-0.75398254;-4.583023;-;-;-;-;-;-;-;-;-;-;-;-;-;-;-
1513509170197;-;-;6.3115997;-0.9251709;-5.923767;-;-;-;-;-;-;-;-;-;-;-;-;-;-;-
1513509170217;-;-;6.5677795;-0.1482544;-4.0550995;-;-;-;-;-;-;-;-;-;-;-;-;-;-;-
1513509170237;-;-;7.106476;1.6869049;-3.729477;-;-;-;-;-;-;-;-;-;-;-;-;-;-;-
1513509170258;-;-;6.580948;4.0811157;-5.7669525;-;-;-;-;-;-;-;-;-;-;-;-;-;-;-
1513509170278;-;-;6.457657;5.1058197;-5.6161194;-;-;-;-;-;-;-;-;-;-;-;-;-;-;-
1513509170298;-;-;11.138321;4.992096;-5.4473267;-;-;-;-;-;-;-;-;-;-;-;-;-;-;-
1513509170319;-;-;12.810669;3.6956482;-5.6556244;-;-;-;-;-;-;-;-;-;-;-;-;-;-;-
1513509170339;-;-;10.179443;2.4386902;-5.4748535;-;-;-;-;-;-;-;-;-;-;-;-;-;-;-
1513509170359;-;-;9.029022;-0.13508606;-3.575058;-;-;-;-;-;-;-;-;-;-;-;-;-;-;-
1513509170380;-;-;4.063446;0.03970337;-12.0876465;-;-;-;-;-;-;-;-;-;-;-;-;-;-;-
1513509170400;-;-;0.2387085;1.0488586;-7.069397;-;-;-;-;-;-;-;-;-;-;-;-;-;-;-
1513509170420;-;-;7.4811707;1.9047852;-5.485626;-;-;-;-;-;-;-;-;-;-;-;-;-;-;-
1513509170441;-;-;12.41922;0.10194397;-10.16629;-;-;-;-;-;-;-;-;-;-;-;-;-;-;-
1513509170460;-;-;4.7134705;0.5185394;-9.713791;-;-;-;-;-;-;-;-;-;-;-;-;-;-;-
1513509170480;-;-;3.272171;1.6785278;-8.082138;-;-;-;-;-;-;-;-;-;-;-;-;-;-;-
1513509170501;-;-;5.3251953;1.0883636;-1.5651245;-;-;-;-;-;-;-;-;-;-;-;-;-;-;-
1513509170520;-;-;6.8766327;-0.24281311;-2.0475616;-;-;-;-;-;-;-;-;-;-;-;-;-;-;-
1513509170540;-;-;5.5382843;-0.63427734;-2.5216064;-;-;-;-;-;-;-;-;-;-;-;-;-;-;-
1513509170561;-;-;4.347168;-1.091568;-1.045578;-;-;-;-;-;-;-;-;-;-;-;-;-;-;-
1513509170580;-;-;6.099716;-2.8333435;-3.3871155;-;-;-;-;-;-;-;-;-;-;-;-;-;-;-
1513509170600;-;-;7.384201;-4.75708;-5.511963;-;-;-;-;-;-;-;-;-;-;-;-;-;-;-
1513509170620;-;-;7.477585;-5.2993774;-5.216278;-;-;-;-;-;-;-;-;-;-;-;-;-;-;-
1513509170641;-;-;6.2325897;-3.2068481;-4.179596;-;-;-;-;-;-;-;-;-;-;-;-;-;-;-
1513509170661;-;-;7.2836456;-0.97424316;-5.4150085;-;-;-;-;-;-;-;-;-;-;-;-;-;-;-
1513509170681;-;-;10.030991;-2.360489;-7.841522;-;-;-;-;-;-;-;-;-;-;-;-;-;-;-
1513509170702;-;-;12.604767;-2.0600128;-8.037842;-;-;-;-;-;-;-;-;-;-;-;-;-;-;-
1513509170722;-;-;14.557236;-0.25837708;-7.23938;-;-;-;-;-;-;-;-;-;-;-;-;-;-;-
1513509170743;-;-;15.056427;2.1106873;-6.776108;-;-;-;-;-;-;-;-;-;-;-;-;-;-;-
1513509170763;-;-;8.01149;2.2387695;-9.585693;-;-;-;-;-;-;-;-;-;-;-;-;-;-;-
1513509170783;-;-;1.8057251;-0.20570374;-18.421509;-;-;-;-;-;-;-;-;-;-;-;-;-;-;-
1513509170804;-;-;1.6943817;-6.6604767;-11.1910095;-;-;-;-;-;-;-;-;-;-;-;-;-;-;-
1513509170824;-;-;14.715256;-5.353241;5.7479706;-;-;-;-;-;-;-;-;-;-;-;-;-;-;-
1513509170845;-;-;9.797562;-2.4035797;-8.3012085;-;-;-;-;-;-;-;-;-;-;-;-;-;-;-
1513509170865;-;-;4.763748;0.78907776;-12.386917;-;-;-;-;-;-;-;-;-;-;-;-;-;-;-
1513509170886;-;-;5.9668427;2.3177795;-6.104538;-;-;-;-;-;-;-;-;-;-;-;-;-;-;-
1513509170906;-;-;3.8168488;1.8892212;-0.9917145;-;-;-;-;-;-;-;-;-;-;-;-;-;-;-
1513509170926;-;-;1.5507355;1.4367065;0.4184723;-;-;-;-;-;-;-;-;-;-;-;-;-;-;-
1513509170946;-;-;1.9457855;1.022522;-0.82173157;-;-;-;-;-;-;-;-;-;-;-;-;-;-;-
1513509170967;-;-;2.6365051;0.88604736;-3.4589386;-;-;-;-;-;-;-;-;-;-;-;-;-;-;-
1513509170987;-;-;3.8898773;0.7651367;-4.313675;-;-;-;-;-;-;-;-;-;-;-;-;-;-;-
1513509171007;-;-;5.69989;0.8920288;-3.9018707;-;-;-;-;-;-;-;-;-;-;-;-;-;-;-
1513509171028;-;-;7.348297;1.7970428;-4.784134;-;-;-;-;-;-;-;-;-;-;-;-;-;-;-
1513509171048;-;-;8.534622;2.758316;-5.51915;-;-;-;-;-;-;-;-;-;-;-;-;-;-;-
1513509171068;-;-;7.8833923;2.5117035;-5.412613;-;-;-;-;-;-;-;-;-;-;-;-;-;-;-
1513509171089;-;-;9.683838;2.2651062;-4.5662537;-;-;-;-;-;-;-;-;-;-;-;-;-;-;-
1513509171109;-;-;11.180222;2.4446716;-3.7426453;-;-;-;-;-;-;-;-;-;-;-;-;-;-;-
1513509171129;-;-;9.846649;3.7794342;-3.3332367;-;-;-;-;-;-;-;-;-;-;-;-;-;-;-
1513509171150;-;-;11.103607;4.039215;-1.9685516;-;-;-;-;-;-;-;-;-;-;-;-;-;-;-
1513509171170;-;-;10.707367;3.884781;-2.429428;-;-;-;-;-;-;-;-;-;-;-;-;-;-;-
1513509171190;-;-;10.444;2.8385162;-2.3157043;-;-;-;-;-;-;-;-;-;-;-;-;-;-;-
1513509171211;-;-;8.990723;1.8353424;-8.886597;-;-;-;-;-;-;-;-;-;-;-;-;-;-;-
1513509171231;-;-;6.2828674;4.628189;-6.322403;-;-;-;-;-;-;-;-;-;-;-;-;-;-;-
1513509171251;-;-;10.013046;4.9095;-3.792923;-;-;-;-;-;-;-;-;-;-;-;-;-;-;-
1513509171271;-;-;9.293579;4.0248413;-9.5976715;-;-;-;-;-;-;-;-;-;-;-;-;-;-;-
1513509171292;-;-;4.0371094;2.469818;-9.61084;-;-;-;-;-;-;-;-;-;-;-;-;-;-;-
1513509171313;-;-;0.67684937;1.5743866;-8.54303;-;-;-;-;-;-;-;-;-;-;-;-;-;-;-
1513509171333;-;-;0.30215454;-0.9658661;-4.737442;-;-;-;-;-;-;-;-;-;-;-;-;-;-;-
1513509171353;-;-;6.992752;-3.0559998;-1.5256195;-;-;-;-;-;-;-;-;-;-;-;-;-;-;-
1513509171373;-;-;12.037338;-2.3904114;-4.5291443;-;-;-;-;-;-;-;-;-;-;-;-;-;-;-
1513509171394;-;-;9.621582;1.1518097;-6.2386017;-;-;-;-;-;-;-;-;-;-;-;-;-;-;-
1513509171414;-;-;8.074936;2.4650269;-4.3088837;-;-;-;-;-;-;-;-;-;-;-;-;-;-;-
1513509171434;-;-;5.6544037;1.7264099;-3.6396942;-;-;-;-;-;-;-;-;-;-;-;-;-;-;-
1513509171455;-;-;4.31604;0.76034546;-3.3488007;-;-;-;-;-;-;-;-;-;-;-;-;-;-;-
1513509171475;-;-;5.229431;-1.2424011;-3.2793732;-;-;-;-;-;-;-;-;-;-;-;-;-;-;-
1513509171496;-;-;6.8874054;-2.6011047;-4.0550995;-;-;-;-;-;-;-;-;-;-;-;-;-;-;-
1513509171516;-;-;7.51828;-1.9678345;-4.7278595;-;-;-;-;-;-;-;-;-;-;-;-;-;-;-
1513509171536;-;-;6.158371;-0.17936707;-4.4669037;-;-;-;-;-;-;-;-;-;-;-;-;-;-;-
1513509171556;-;-;5.711853;0.53170776;-3.764206;-;-;-;-;-;-;-;-;-;-;-;-;-;-;-
1513509171577;-;-;6.0614166;0.25398254;-2.9058838;-;-;-;-;-;-;-;-;-;-;-;-;-;-;-
1513509171597;-;-;6.806015;-0.23324585;-2.0954437;-;-;-;-;-;-;-;-;-;-;-;-;-;-;-
1513509171617;-;-;7.508713;-0.2272644;-1.6118164;-;-;-;-;-;-;-;-;-;-;-;-;-;-;-
1513509171638;-;-;7.6966553;0.02532959;-1.7602539;-;-;-;-;-;-;-;-;-;-;-;-;-;-;-
1513509171658;-;-;7.572159;-0.24401855;-2.1134033;-;-;-;-;-;-;-;-;-;-;-;-;-;-;-
1513509171679;-;-;7.827133;-1.3345795;-2.207962;-;-;-;-;-;-;-;-;-;-;-;-;-;-;-
1513509171698;-;-;8.521454;-1.8996124;-2.8927155;-;-;-;-;-;-;-;-;-;-;-;-;-;-;-
1513509171718;-;-;8.252106;-1.388443;-4.441757;-;-;-;-;-;-;-;-;-;-;-;-;-;-;-
1513509171739;-;-;7.0969086;-2.6250458;-3.8659515;-;-;-;-;-;-;-;-;-;-;-;-;-;-;-
1513509171759;-;-;9.5737;-2.1785278;-2.954956;-;-;-;-;-;-;-;-;-;-;-;-;-;-;-
1513509171779;-;-;6.005142;-0.4738617;-11.74527;-;-;-;-;-;-;-;-;-;-;-;-;-;-;-
1513509171799;-;-;12.528152;2.5667725;-14.346573;-;-;-;-;-;-;-;-;-;-;-;-;-;-;-
1513509171819;-;-;19.91426;4.6377563;-5.9967957;-;-;-;-;-;-;-;-;-;-;-;-;-;-;-
1513509171840;-;-;16.270294;7.4293976;-7.5494385;-;-;-;-;-;-;-;-;-;-;-;-;-;-;-
1513509171859;-;-;9.050568;7.1205444;-8.6328125;-;-;-;-;-;-;-;-;-;-;-;-;-;-;-
1513509171879;-;-;5.892624;2.8385162;-6.384659;-;-;-;-;-;-;-;-;-;-;-;-;-;-;-
1513509171900;-;-;6.560608;-1.1801453;-3.2422638;-;-;-;-;-;-;-;-;-;-;-;-;-;-;-
1513509171920;-;-;6.099716;-1.3932343;-2.3611908;-;-;-;-;-;-;-;-;-;-;-;-;-;-;-
1513509171941;-;-;4.058655;0.05645752;-2.507248;-;-;-;-;-;-;-;-;-;-;-;-;-;-;-
1513509171960;-;-;3.019577;1.5947266;-1.6560974;-;-;-;-;-;-;-;-;-;-;-;-;-;-;-
1513509171980;-;-;4.7015076;2.6817017;-1.2478943;-;-;-;-;-;-;-;-;-;-;-;-;-;-;-
1513509172001;-;-;6.252945;2.2279968;-2.1672668;-;-;-;-;-;-;-;-;-;-;-;-;-;-;-
1513509172020;-;-;5.9201508;2.0615997;-2.0547333;-;-;-;-;-;-;-;-;-;-;-;-;-;-;-
1513509172040;-;-;4.88826;1.8724518;-1.7327118;-;-;-;-;-;-;-;-;-;-;-;-;-;-;-
1513509172061;-;-;5.87825;0.8273926;-1.8667908;-;-;-;-;-;-;-;-;-;-;-;-;-;-;-
1513509172081;-;-;8.562149;0.11392212;-0.72595215;-;-;-;-;-;-;-;-;-;-;-;-;-;-;-
1513509172101;-;-;11.179016;-0.43554688;-0.8899536;-;-;-;-;-;-;-;-;-;-;-;-;-;-;-
1513509172121;-;-;12.786728;-0.65701294;-1.1616974;-;-;-;-;-;-;-;-;-;-;-;-;-;-;-
1513509172142;-;-;14.187332;-0.36732483;-1.025238;-;-;-;-;-;-;-;-;-;-;-;-;-;-;-
1513509172162;-;-;13.795883;0.9854126;-0.43745422;-;-;-;-;-;-;-;-;-;-;-;-;-;-;-
1513509172182;-;-;8.861435;2.960617;-6.519928;-;-;-;-;-;-;-;-;-;-;-;-;-;-;-
1513509172203;-;-;2.6891785;6.407074;-11.655487;-;-;-;-;-;-;-;-;-;-;-;-;-;-;-
1513509172222;-;-;-0.3897705;7.205536;-8.213821;-;-;-;-;-;-;-;-;-;-;-;-;-;-;-
1513509172242;-;-;5.004364;4.4366455;-4.594986;-;-;-;-;-;-;-;-;-;-;-;-;-;-;-
1513509172263;-;-;12.763977;-2.5615997;-7.9528503;-;-;-;-;-;-;-;-;-;-;-;-;-;-;-
1513509172283;-;-;15.585541;-5.7542725;-11.958359;-;-;-;-;-;-;-;-;-;-;-;-;-;-;-
1513509172303;-;-;12.953125;-2.8285522;-8.355087;-;-;-;-;-;-;-;-;-;-;-;-;-;-;-
1513509172324;-;-;13.066849;2.0568085;-5.1636047;-;-;-;-;-;-;-;-;-;-;-;-;-;-;-
1513509172344;-;-;11.8050995;1.3457336;-4.8056793;-;-;-;-;-;-;-;-;-;-;-;-;-;-;-
1513509172364;-;-;9.63356;0.031311035;-5.8375854;-;-;-;-;-;-;-;-;-;-;-;-;-;-;-
1513509172384;-;-;6.8443146;-1.530899;-5.4042206;-;-;-;-;-;-;-;-;-;-;-;-;-;-;-
1513509172405;-;-;4.8643036;-4.044815;-3.3595734;-;-;-;-;-;-;-;-;-;-;-;-;-;-;-
1513509172425;-;-;3.2996979;-6.024811;-1.5974426;-;-;-;-;-;-;-;-;-;-;-;-;-;-;-
1513509172446;-;-;2.9501495;-6.06192;-0.79418945;-;-;-;-;-;-;-;-;-;-;-;-;-;-;-
1513509172465;-;-;5.003174;-4.6601257;-1.3915405;-;-;-;-;-;-;-;-;-;-;-;-;-;-;-
1513509172485;-;-;7.28125;-3.3756256;-2.278595;-;-;-;-;-;-;-;-;-;-;-;-;-;-;-
1513509172505;-;-;9.495895;-2.1940918;-3.326065;-;-;-;-;-;-;-;-;-;-;-;-;-;-;-
1513509172526;-;-;10.68222;-0.8198242;-3.7151184;-;-;-;-;-;-;-;-;-;-;-;-;-;-;-
1513509172546;-;-;10.166275;0.6849365;-3.9892578;-;-;-;-;-;-;-;-;-;-;-;-;-;-;-
1513509172566;-;-;9.88974;1.2296143;-2.780182;-;-;-;-;-;-;-;-;-;-;-;-;-;-;-
1513509172587;-;-;10.754044;-1.1430359;-2.0858612;-;-;-;-;-;-;-;-;-;-;-;-;-;-;-
1513509172606;-;-;12.24324;-1.664978;-3.0938263;-;-;-;-;-;-;-;-;-;-;-;-;-;-;-
1513509172626;-;-;14.490204;-1.467453;-3.887497;-;-;-;-;-;-;-;-;-;-;-;-;-;-;-
1513509172647;-;-;13.658218;-1.107132;-7.204666;-;-;-;-;-;-;-;-;-;-;-;-;-;-;-
1513509172667;-;-;9.076904;-2.9554443;-17.052017;-;-;-;-;-;-;-;-;-;-;-;-;-;-;-
1513509172687;-;-;11.90686;-4.899536;-6.061432;-;-;-;-;-;-;-;-;-;-;-;-;-;-;-
1513509172707;-;-;4.498001;-4.5248566;-9.157135;-;-;-;-;-;-;-;-;-;-;-;-;-;-;-
1513509172728;-;-;3.924591;-3.3947906;-12.966309;-;-;-;-;-;-;-;-;-;-;-;-;-;-;-
1513509172748;-;-;6.426529;-0.86172485;-8.44725;-;-;-;-;-;-;-;-;-;-;-;-;-;-;-
1513509172768;-;-;5.478424;1.4846039;-7.4464874;-;-;-;-;-;-;-;-;-;-;-;-;-;-;-
1513509172788;-;-;6.6815033;1.7276154;-4.560272;-;-;-;-;-;-;-;-;-;-;-;-;-;-;-
1513509172809;-;-;8.594482;0.9028015;-2.781372;-;-;-;-;-;-;-;-;-;-;-;-;-;-;-
1513509172828;-;-;8.769257;-0.27514648;-3.2662048;-;-;-;-;-;-;-;-;-;-;-;-;-;-;-
1513509172848;-;-;8.260483;-1.4375305;-5.069046;-;-;-;-;-;-;-;-;-;-;-;-;-;-;-
1513509172869;-;-;7.3111877;-2.1378326;-3.966507;-;-;-;-;-;-;-;-;-;-;-;-;-;-;-
1513509172889;-;-;5.8435364;-1.1346588;-2.6592712;-;-;-;-;-;-;-;-;-;-;-;-;-;-;-
1513509172909;-;-;4.691925;0.73161316;-2.3360596;-;-;-;-;-;-;-;-;-;-;-;-;-;-;-
1513509172929;-;-;4.660797;1.7467651;-3.274582;-;-;-;-;-;-;-;-;-;-;-;-;-;-;-
1513509172950;-;-;6.668335;1.9299164;-4.737442;-;-;-;-;-;-;-;-;-;-;-;-;-;-;-
1513509172970;-;-;7.308792;2.5572052;-5.2366333;-;-;-;-;-;-;-;-;-;-;-;-;-;-;-
1513509172990;-;-;7.493149;4.3887634;-4.4154205;-;-;-;-;-;-;-;-;-;-;-;-;-;-;-
1513509173011;-;-;8.811157;4.295395;-3.9102478;-;-;-;-;-;-;-;-;-;-;-;-;-;-;-
1513509173031;-;-;10.818695;4.1804657;-5.037918;-;-;-;-;-;-;-;-;-;-;-;-;-;-;-
1513509173052;-;-;12.267181;4.530014;-5.8220215;-;-;-;-;-;-;-;-;-;-;-;-;-;-;-
1513509173072;-;-;8.932053;2.991745;-4.9732666;-;-;-;-;-;-;-;-;-;-;-;-;-;-;-
1513509173092;-;-;6.299637;1.0141296;-4.720688;-;-;-;-;-;-;-;-;-;-;-;-;-;-;-
1513509173112;-;-;2.3384247;0.5089569;-10.531418;-;-;-;-;-;-;-;-;-;-;-;-;-;-;-
1513509173132;-;-;6.6072845;0.021743774;-2.6161804;-;-;-;-;-;-;-;-;-;-;-;-;-;-;-
1513509173153;-;-;12.605957;-1.4315338;-7.4428864;-;-;-;-;-;-;-;-;-;-;-;-;-;-;-
1513509173172;-;-;10.81749;-1.2687378;-8.005524;-;-;-;-;-;-;-;-;-;-;-;-;-;-;-
1513509173192;-;-;2.6496735;0.83935547;-9.35347;-;-;-;-;-;-;-;-;-;-;-;-;-;-;-
1513509173213;-;-;1.1233673;0.5664215;-7.6811066;-;-;-;-;-;-;-;-;-;-;-;-;-;-;-
1513509173232;-;-;2.7526245;0.4514923;-2.1936035;-;-;-;-;-;-;-;-;-;-;-;-;-;-;-
1513509173252;-;-;6.031479;-0.1302948;-0.6900482;-;-;-;-;-;-;-;-;-;-;-;-;-;-;-
1513509173273;-;-;7.7026367;-0.3541565;-2.820877;-;-;-;-;-;-;-;-;-;-;-;-;-;-;-
1513509173292;-;-;7.3937836;-0.45710754;-4.5973816;-;-;-;-;-;-;-;-;-;-;-;-;-;-;-
1513509173312;-;-;8.625595;-1.4782257;-6.322403;-;-;-;-;-;-;-;-;-;-;-;-;-;-;-
1513509173332;-;-;8.083313;-2.5340729;-5.765747;-;-;-;-;-;-;-;-;-;-;-;-;-;-;-
1513509173353;-;-;7.1364136;-2.9925537;-4.210724;-;-;-;-;-;-;-;-;-;-;-;-;-;-;-
1513509173373;-;-;6.206253;-2.3820343;-3.583435;-;-;-;-;-;-;-;-;-;-;-;-;-;-;-
1513509173393;-;-;6.233795;-1.5536499;-2.5012512;-;-;-;-;-;-;-;-;-;-;-;-;-;-;-
1513509173414;-;-;8.305969;-0.3074646;-2.5323792;-;-;-;-;-;-;-;-;-;-;-;-;-;-;-
1513509173434;-;-;9.87178;0.4514923;-3.0136108;-;-;-;-;-;-;-;-;-;-;-;-;-;-;-
1513509173454;-;-;8.036621;-1.1023407;-3.8396149;-;-;-;-;-;-;-;-;-;-;-;-;-;-;-
1513509173474;-;-;9.73053;-3.1026917;-2.6042023;-;-;-;-;-;-;-;-;-;-;-;-;-;-;-
1513509173495;-;-;12.664627;-4.5691376;-3.04953;-;-;-;-;-;-;-;-;-;-;-;-;-;-;-
1513509173515;-;-;15.73877;-3.2786713;-5.9405212;-;-;-;-;-;-;-;-;-;-;-;-;-;-;-
1513509173535;-;-;12.602371;-1.4483032;-9.98793;-;-;-;-;-;-;-;-;-;-;-;-;-;-;-
1513509173556;-;-;6.5977173;-1.704483;-19.565933;-;-;-;-;-;-;-;-;-;-;-;-;-;-;-
1513509173575;-;-;6.039856;-2.9279175;-12.522186;-;-;-;-;-;-;-;-;-;-;-;-;-;-;-
1513509173595;-;-;18.253876;-0.2320404;3.485443;-;-;-;-;-;-;-;-;-;-;-;-;-;-;-
1513509173615;-;-;11.259216;1.0356903;-6.7952576;-;-;-;-;-;-;-;-;-;-;-;-;-;-;-
1513509173635;-;-;0.98690796;1.6486053;-12.61557;-;-;-;-;-;-;-;-;-;-;-;-;-;-;-
1513509173655;-;-;1.0479584;0.93392944;-7.639221;-;-;-;-;-;-;-;-;-;-;-;-;-;-;-
1513509173676;-;-;3.0710602;-0.77433777;0.011459351;-;-;-;-;-;-;-;-;-;-;-;-;-;-;-
1513509173696;-;-;1.8955078;-1.8529205;2.484665;-;-;-;-;-;-;-;-;-;-;-;-;-;-;-
1513509173716;-;-;3.7138977;-1.9714355;-1.3269043;-;-;-;-;-;-;-;-;-;-;-;-;-;-;-
1513509173737;-;-;6.1679535;-1.2567596;-4.8188477;-;-;-;-;-;-;-;-;-;-;-;-;-;-;-
1513509173757;-;-;6.8275604;-0.44752502;-5.946518;-;-;-;-;-;-;-;-;-;-;-;-;-;-;-
1513509173778;-;-;7.4105377;0.89801025;-5.5921783;-;-;-;-;-;-;-;-;-;-;-;-;-;-;-
1513509173798;-;-;7.748123;2.8935852;-4.5303497;-;-;-;-;-;-;-;-;-;-;-;-;-;-;-
1513509173818;-;-;7.236969;4.679657;-5.143265;-;-;-;-;-;-;-;-;-;-;-;-;-;-;-
1513509173838;-;-;8.98114;4.422287;-7.282486;-;-;-;-;-;-;-;-;-;-;-;-;-;-;-
1513509173859;-;-;9.149933;4.758667;-8.300018;-;-;-;-;-;-;-;-;-;-;-;-;-;-;-
1513509173879;-;-;10.222534;3.6226196;-6.742584;-;-;-;-;-;-;-;-;-;-;-;-;-;-;-
1513509173899;-;-;11.012619;1.0967407;-3.0327759;-;-;-;-;-;-;-;-;-;-;-;-;-;-;-
1513509173919;-;-;7.34111;0.67774963;-1.9960785;-;-;-;-;-;-;-;-;-;-;-;-;-;-;-
1513509173940;-;-;3.66362;0.8848419;-6.8610992;-;-;-;-;-;-;-;-;-;-;-;-;-;-;-
1513509173960;-;-;2.3384247;0.6729584;-6.682724;-;-;-;-;-;-;-;-;-;-;-;-;-;-;-
1513509173981;-;-;9.896927;1.3936157;-6.626465;-;-;-;-;-;-;-;-;-;-;-;-;-;-;-
1513509174001;-;-;10.696579;2.4829865;-12.674225;-;-;-;-;-;-;-;-;-;-;-;-;-;-;-
1513509174021;-;-;10.883331;0.40361023;-7.175934;-;-;-;-;-;-;-;-;-;-;-;-;-;-;-
1513509174041;-;-;3.7617798;0.6274719;-8.462814;-;-;-;-;-;-;-;-;-;-;-;-;-;-;-
1513509174062;-;-;3.758194;0.24320984;-6.801239;-;-;-;-;-;-;-;-;-;-;-;-;-;-;-
1513509174082;-;-;6.35231;-1.2064819;-3.796524;-;-;-;-;-;-;-;-;-;-;-;-;-;-;-
1513509174103;-;-;7.8642426;-1.8050385;-2.5898438;-;-;-;-;-;-;-;-;-;-;-;-;-;-;-
1513509174123;-;-;5.6496124;-1.1777496;-2.4186554;-;-;-;-;-;-;-;-;-;-;-;-;-;-;-
1513509174143;-;-;4.57341;-0.3074646;-3.1500854;-;-;-;-;-;-;-;-;-;-;-;-;-;-;-
1513509174164;-;-;4.4417267;-1.1035309;-4.2562103;-;-;-;-;-;-;-;-;-;-;-;-;-;-;-
1513509174184;-;-;5.6172943;-2.6705475;-4.45253;-;-;-;-;-;-;-;-;-;-;-;-;-;-;-
1513509174204;-;-;6.857483;-2.8752441;-4.401062;-;-;-;-;-;-;-;-;-;-;-;-;-;-;-
1513509174224;-;-;7.6260223;-2.095932;-4.74942;-;-;-;-;-;-;-;-;-;-;-;-;-;-;-
1513509174245;-;-;7.173523;-1.4542847;-5.7525787;-;-;-;-;-;-;-;-;-;-;-;-;-;-;-
1513509174265;-;-;6.917343;-1.4530945;-6.7641296;-;-;-;-;-;-;-;-;-;-;-;-;-;-;-
1513509174285;-;-;8.631592;-2.2431793;-4.9493256;-;-;-;-;-;-;-;-;-;-;-;-;-;-;-
1513509174305;-;-;10.375763;-2.897995;-4.773361;-;-;-;-;-;-;-;-;-;-;-;-;-;-;-
1513509174326;-;-;12.139099;-4.08432;-4.809265;-;-;-;-;-;-;-;-;-;-;-;-;-;-;-
1513509174346;-;-;14.636246;-4.187271;-5.6520233;-;-;-;-;-;-;-;-;-;-;-;-;-;-;-
1513509174366;-;-;10.951569;-2.973404;-10.873779;-;-;-;-;-;-;-;-;-;-;-;-;-;-;-
1513509174387;-;-;4.209503;-2.8776398;-22.77536;-;-;-;-;-;-;-;-;-;-;-;-;-;-;-
1513509174406;-;-;10.04776;-4.127411;-6.1703796;-;-;-;-;-;-;-;-;-;-;-;-;-;-;-
1513509174426;-;-;11.635117;-0.54689026;-0.03881836;-;-;-;-;-;-;-;-;-;-;-;-;-;-;-
1513509174447;-;-;2.698761;1.051239;-10.321915;-;-;-;-;-;-;-;-;-;-;-;-;-;-;-
1513509174468;-;-;1.0611267;2.1645508;-10.3207245;-;-;-;-;-;-;-;-;-;-;-;-;-;-;-
1513509174489;-;-;4.581787;2.3417206;-3.2554321;-;-;-;-;-;-;-;-;-;-;-;-;-;-;-
1513509174509;-;-;2.9932404;0.536499;0.39811707;-;-;-;-;-;-;-;-;-;-;-;-;-;-;-
1513509174529;-;-;4.781708;-0.8461609;-0.48414612;-;-;-;-;-;-;-;-;-;-;-;-;-;-;-
1513509174550;-;-;6.6707306;-1.6972961;-3.4122467;-;-;-;-;-;-;-;-;-;-;-;-;-;-;-
1513509174570;-;-;7.5039215;-0.78630066;-5.3395844;-;-;-;-;-;-;-;-;-;-;-;-;-;-;-
1513509174590;-;-;6.984375;0.9506836;-5.4940033;-;-;-;-;-;-;-;-;-;-;-;-;-;-;-
1513509174610;-;-;5.355118;2.1334229;-4.19516;-;-;-;-;-;-;-;-;-;-;-;-;-;-;-
1513509174631;-;-;5.327591;2.7834473;-4.2610016;-;-;-;-;-;-;-;-;-;-;-;-;-;-;-
1513509174651;-;-;7.3255463;1.8676758;-5.362335;-;-;-;-;-;-;-;-;-;-;-;-;-;-;-
1513509174672;-;-;9.069733;0.81781006;-7.2764893;-;-;-;-;-;-;-;-;-;-;-;-;-;-;-
1513509174691;-;-;9.224152;2.6649323;-6.3331757;-;-;-;-;-;-;-;-;-;-;-;-;-;-;-
1513509174711;-;-;9.151123;3.9386597;-5.582596;-;-;-;-;-;-;-;-;-;-;-;-;-;-;-
1513509174731;-;-;10.822281;3.7495117;-5.250992;-;-;-;-;-;-;-;-;-;-;-;-;-;-;-
1513509174752;-;-;10.600815;3.3424988;-3.8072968;-;-;-;-;-;-;-;-;-;-;-;-;-;-;-
1513509174771;-;-;9.705383;1.7647247;-3.583435;-;-;-;-;-;-;-;-;-;-;-;-;-;-;-
1513509174791;-;-;5.783676;1.3301697;-8.2018585;-;-;-;-;-;-;-;-;-;-;-;-;-;-;-
1513509174812;-;-;1.0934448;2.0843506;-10.240509;-;-;-;-;-;-;-;-;-;-;-;-;-;-;-
1513509174832;-;-;2.3444061;2.303421;-4.536331;-;-;-;-;-;-;-;-;-;-;-;-;-;-;-
1513509174853;-;-;14.062836;-0.08958435;-4.559067;-;-;-;-;-;-;-;-;-;-;-;-;-;-;-
1513509174873;-;-;6.9939575;-2.2743073;-11.691406;-;-;-;-;-;-;-;-;-;-;-;-;-;-;-
1513509174893;-;-;4.9971924;-2.6118774;-7.754135;-;-;-;-;-;-;-;-;-;-;-;-;-;-;-
1513509174914;-;-;3.050705;-1.7463837;-5.3946533;-;-;-;-;-;-;-;-;-;-;-;-;-;-;-
1513509174934;-;-;5.2030945;-0.65940857;-2.5814667;-;-;-;-;-;-;-;-;-;-;-;-;-;-;-
1513509174954;-;-;7.41893;0.043289185;-4.0191803;-;-;-;-;-;-;-;-;-;-;-;-;-;-;-
1513509174975;-;-;7.173523;0.7950592;-3.7115326;-;-;-;-;-;-;-;-;-;-;-;-;-;-;-
1513509174995;-;-;6.364273;1.2272186;-3.686386;-;-;-;-;-;-;-;-;-;-;-;-;-;-;-
1513509175015;-;-;6.0889435;-0.5959625;-4.6835785;-;-;-;-;-;-;-;-;-;-;-;-;-;-;-
1513509175036;-;-;6.6300354;-2.2419739;-4.347183;-;-;-;-;-;-;-;-;-;-;-;-;-;-;-
1513509175056;-;-;7.810379;-4.1309967;-4.310074;-;-;-;-;-;-;-;-;-;-;-;-;-;-;-
1513509175076;-;-;7.2345734;-4.4302826;-4.3088837;-;-;-;-;-;-;-;-;-;-;-;-;-;-;-
1513509175096;-;-;6.5246887;-2.7746887;-3.1716309;-;-;-;-;-;-;-;-;-;-;-;-;-;-;-
1513509175117;-;-;7.9911346;-1.348938;-4.9481354;-;-;-;-;-;-;-;-;-;-;-;-;-;-;-
1513509175137;-;-;8.238937;-2.190506;-7.101715;-;-;-;-;-;-;-;-;-;-;-;-;-;-;-
1513509175158;-;-;8.578918;-3.5324554;-8.115662;-;-;-;-;-;-;-;-;-;-;-;-;-;-;-
1513509175177;-;-;11.3741455;-3.3660583;-5.962082;-;-;-;-;-;-;-;-;-;-;-;-;-;-;-
1513509175197;-;-;12.856155;-2.277893;-5.219879;-;-;-;-;-;-;-;-;-;-;-;-;-;-;-
1513509175217;-;-;12.372528;-0.6294861;-8.726181;-;-;-;-;-;-;-;-;-;-;-;-;-;-;-
1513509175238;-;-;6.9580383;-1.5009766;-16.13504;-;-;-;-;-;-;-;-;-;-;-;-;-;-;-
1513509175258;-;-;4.963669;-4.618225;-13.828232;-;-;-;-;-;-;-;-;-;-;-;-;-;-;-
1513509175278;-;-;10.472733;-2.8752441;0.7464752;-;-;-;-;-;-;-;-;-;-;-;-;-;-;-
1513509175298;-;-;7.2034454;-1.0173492;-10.272842;-;-;-;-;-;-;-;-;-;-;-;-;-;-;-
1513509175319;-;-;2.9429626;-0.45710754;-15.20369;-;-;-;-;-;-;-;-;-;-;-;-;-;-;-
1513509175339;-;-;4.9672546;1.6605682;-10.095673;-;-;-;-;-;-;-;-;-;-;-;-;-;-;-
1513509175359;-;-;5.493988;3.0671692;-5.737015;-;-;-;-;-;-;-;-;-;-;-;-;-;-;-
1513509175380;-;-;4.9888153;2.3105927;-2.0391846;-;-;-;-;-;-;-;-;-;-;-;-;-;-;-
1513509175400;-;-;6.0422516;0.4514923;-1.7794037;-;-;-;-;-;-;-;-;-;-;-;-;-;-;-
1513509175420;-;-;5.823181;-1.2974701;-3.9090424;-;-;-;-;-;-;-;-;-;-;-;-;-;-;-
1513509175441;-;-;6.2733;-2.490982;-4.484848;-;-;-;-;-;-;-;-;-;-;-;-;-;-;-
1513509175461;-;-;5.9069824;-3.1278381;-3.5882263;-;-;-;-;-;-;-;-;-;-;-;-;-;-;-
1513509175481;-;-;4.769745;-1.3740845;-2.5252075;-;-;-;-;-;-;-;-;-;-;-;-;-;-;-
1513509175502;-;-;4.4991913;1.3972015;-2.3635864;-;-;-;-;-;-;-;-;-;-;-;-;-;-;-
1513509175522;-;-;5.134857;2.5559998;-4.9636993;-;-;-;-;-;-;-;-;-;-;-;-;-;-;-
1513509175542;-;-;5.8435364;3.2850342;-5.2186737;-;-;-;-;-;-;-;-;-;-;-;-;-;-;-
1513509175563;-;-;7.750519;3.84169;-4.658432;-;-;-;-;-;-;-;-;-;-;-;-;-;-;-
1513509175583;-;-;8.7608795;3.0982819;-4.833206;-;-;-;-;-;-;-;-;-;-;-;-;-;-;-
1513509175603;-;-;9.604828;2.9031677;-5.796875;-;-;-;-;-;-;-;-;-;-;-;-;-;-;-
1513509175624;-;-;10.702576;3.1868744;-4.8691254;-;-;-;-;-;-;-;-;-;-;-;-;-;-;-
1513509175644;-;-;9.1523285;3.275467;-4.219101;-;-;-;-;-;-;-;-;-;-;-;-;-;-;-
1513509175665;-;-;7.3459015;2.2662964;-6.1380463;-;-;-;-;-;-;-;-;-;-;-;-;-;-;-
1513509175685;-;-;5.7789;2.9953308;-11.155106;-;-;-;-;-;-;-;-;-;-;-;-;-;-;-
1513509175705;-;-;14.328583;4.2187805;-6.48761;-;-;-;-;-;-;-;-;-;-;-;-;-;-;-
1513509175725;-;-;10.137543;2.8744354;-8.748932;-;-;-;-;-;-;-;-;-;-;-;-;-;-;-
1513509175746;-;-;4.627289;3.1126556;-9.446838;-;-;-;-;-;-;-;-;-;-;-;-;-;-;-
1513509175765;-;-;3.5977783;0.9016113;-10.033417;-;-;-;-;-;-;-;-;-;-;-;-;-;-;-
1513509175785;-;-;3.8647308;-2.230011;-6.591751;-;-;-;-;-;-;-;-;-;-;-;-;-;-;-
1513509175806;-;-;5.6974945;-3.5815277;-2.6269531;-;-;-;-;-;-;-;-;-;-;-;-;-;-;-
1513509175826;-;-;8.509476;-2.1605682;-0.551178;-;-;-;-;-;-;-;-;-;-;-;-;-;-;-
1513509175846;-;-;6.795227;-0.20930481;-3.784546;-;-;-;-;-;-;-;-;-;-;-;-;-;-;-
1513509175867;-;-;5.9225464;1.4762115;-4.1748047;-;-;-;-;-;-;-;-;-;-;-;-;-;-;-
1513509175887;-;-;4.781708;1.5755768;-4.302902;-;-;-;-;-;-;-;-;-;-;-;-;-;-;-
1513509175907;-;-;3.735443;-0.8473511;-4.7913055;-;-;-;-;-;-;-;-;-;-;-;-;-;-;-
1513509175928;-;-;4.853531;-3.4809723;-4.223892;-;-;-;-;-;-;-;-;-;-;-;-;-;-;-
1513509175948;-;-;6.62764;-4.3045807;-3.62294;-;-;-;-;-;-;-;-;-;-;-;-;-;-;-
1513509175968;-;-;7.806778;-3.1098785;-3.8144836;-;-;-;-;-;-;-;-;-;-;-;-;-;-;-
1513509175989;-;-;7.3470917;-1.9462891;-3.6576538;-;-;-;-;-;-;-;-;-;-;-;-;-;-;-
1513509176009;-;-;5.7525635;-1.1981049;-2.946579;-;-;-;-;-;-;-;-;-;-;-;-;-;-;-
1513509176029;-;-;4.7996674;-0.64624023;-2.7945404;-;-;-;-;-;-;-;-;-;-;-;-;-;-;-
1513509176050;-;-;5.0259247;-1.2220459;-4.4776764;-;-;-;-;-;-;-;-;-;-;-;-;-;-;-
1513509176070;-;-;6.6851044;-1.5356903;-5.67717;-;-;-;-;-;-;-;-;-;-;-;-;-;-;-
1513509176090;-;-;9.07811;-1.6362457;-5.409012;-;-;-;-;-;-;-;-;-;-;-;-;-;-;-
1513509176111;-;-;10.922836;-1.8517303;-5.4078217;-;-;-;-;-;-;-;-;-;-;-;-;-;-;-
1513509176130;-;-;12.129517;-2.677719;-5.176773;-;-;-;-;-;-;-;-;-;-;-;-;-;-;-
1513509176150;-;-;13.258377;-2.8656616;-5.053482;-;-;-;-;-;-;-;-;-;-;-;-;-;-;-
1513509176171;-;-;11.217331;-1.7894745;-10.458389;-;-;-;-;-;-;-;-;-;-;-;-;-;-;-
1513509176190;-;-;9.311539;-4.2399445;-10.951599;-;-;-;-;-;-;-;-;-;-;-;-;-;-;-
1513509176210;-;-;14.33577;-6.6592865;-2.2450714;-;-;-;-;-;-;-;-;-;-;-;-;-;-;-
1513509176231;-;-;10.351822;-2.949463;-4.7865295;-;-;-;-;-;-;-;-;-;-;-;-;-;-;-
1513509176250;-;-;9.347458;-2.423935;-10.812729;-;-;-;-;-;-;-;-;-;-;-;-;-;-;-
1513509176271;-;-;5.734604;-1.6314545;-10.470352;-;-;-;-;-;-;-;-;-;-;-;-;-;-;-
1513509176290;-;-;3.2099152;-0.30267334;-9.616821;-;-;-;-;-;-;-;-;-;-;-;-;-;-;-
1513509176311;-;-;4.193939;1.1984863;-7.120865;-;-;-;-;-;-;-;-;-;-;-;-;-;-;-
1513509176331;-;-;5.821991;1.5288849;-4.817642;-;-;-;-;-;-;-;-;-;-;-;-;-;-;-
1513509176351;-;-;7.451248;1.6138763;-4.425003;-;-;-;-;-;-;-;-;-;-;-;-;-;-;-
1513509176372;-;-;6.683899;1.4977722;-6.0315094;-;-;-;-;-;-;-;-;-;-;-;-;-;-;-
1513509176392;-;-;7.0214844;1.0404663;-7.3962097;-;-;-;-;-;-;-;-;-;-;-;-;-;-;-
1513509176413;-;-;6.999939;0.45030212;-6.923355;-;-;-;-;-;-;-;-;-;-;-;-;-;-;-
1513509176433;-;-;5.644821;0.23602295;-5.884262;-;-;-;-;-;-;-;-;-;-;-;-;-;-;-
1513509176453;-;-;4.762558;0.59394836;-6.021927;-;-;-;-;-;-;-;-;-;-;-;-;-;-;-
1513509176473;-;-;4.2513885;0.6741638;-5.5502777;-;-;-;-;-;-;-;-;-;-;-;-;-;-;-
1513509176494;-;-;3.5271454;0.635849;-4.6596375;-;-;-;-;-;-;-;-;-;-;-;-;-;-;-
1513509176514;-;-;3.5738373;0.5245209;-3.4062653;-;-;-;-;-;-;-;-;-;-;-;-;-;-;-
1513509176534;-;-;3.6743927;0.7878876;-2.3252869;-;-;-;-;-;-;-;-;-;-;-;-;-;-;-
1513509176555;-;-;3.3822937;1.279892;-1.990097;-;-;-;-;-;-;-;-;-;-;-;-;-;-;-
1513509176575;-;-;4.007187;1.0009613;-2.6293488;-;-;-;-;-;-;-;-;-;-;-;-;-;-;-
1513509176595;-;-;5.198303;0.5628357;-2.5611115;-;-;-;-;-;-;-;-;-;-;-;-;-;-;-
1513509176616;-;-;7.1447906;0.36410522;-1.7411041;-;-;-;-;-;-;-;-;-;-;-;-;-;-;-
1513509176636;-;-;8.853058;0.5185394;-1.634552;-;-;-;-;-;-;-;-;-;-;-;-;-;-;-
1513509176656;-;-;9.541382;0.5281067;-2.4318237;-;-;-;-;-;-;-;-;-;-;-;-;-;-;-
1513509176677;-;-;9.936432;0.5843811;-3.0207977;-;-;-;-;-;-;-;-;-;-;-;-;-;-;-
1513509176697;-;-;10.24408;1.1793365;-2.8328552;-;-;-;-;-;-;-;-;-;-;-;-;-;-;-
1513509176717;-;-;9.9077;2.311798;-1.9529877;-;-;-;-;-;-;-;-;-;-;-;-;-;-;-
1513509176737;-;-;9.580887;2.734375;-1.8811646;-;-;-;-;-;-;-;-;-;-;-;-;-;-;-
1513509176757;-;-;7.8558655;4.410309;-10.162704;-;-;-;-;-;-;-;-;-;-;-;-;-;-;-
1513509176778;-;-;4.3543396;5.9234467;-12.7999115;-;-;-;-;-;-;-;-;-;-;-;-;-;-;-
1513509176797;-;-;8.865021;3.1677246;-6.773712;-;-;-;-;-;-;-;-;-;-;-;-;-;-;-
1513509176817;-;-;12.936356;-1.9367218;-6.701889;-;-;-;-;-;-;-;-;-;-;-;-;-;-;-
1513509176837;-;-;9.971146;-4.055588;-11.097641;-;-;-;-;-;-;-;-;-;-;-;-;-;-;-
1513509176858;-;-;6.4492645;-1.7739105;-10.26326;-;-;-;-;-;-;-;-;-;-;-;-;-;-;-
1513509176878;-;-;4.849945;2.569168;-5.563446;-;-;-;-;-;-;-;-;-;-;-;-;-;-;-
1513509176898;-;-;7.633209;4.9705505;-2.7466583;-;-;-;-;-;-;-;-;-;-;-;-;-;-;-
1513509176919;-;-;10.604416;1.8844299;-7.2298126;-;-;-;-;-;-;-;-;-;-;-;-;-;-;-
1513509176939;-;-;10.789963;0.44432068;-8.314377;-;-;-;-;-;-;-;-;-;-;-;-;-;-;-
1513509176959;-;-;9.267242;-0.3864746;-8.46521;-;-;-;-;-;-;-;-;-;-;-;-;-;-;-
1513509176979;-;-;7.145981;-2.1713562;-7.8032227;-;-;-;-;-;-;-;-;-;-;-;-;-;-;-
1513509176999;-;-;5.2198486;-3.0979004;-4.665619;-;-;-;-;-;-;-;-;-;-;-;-;-;-;-
1513509177020;-;-;4.438141;-2.332962;-2.9489746;-;-;-;-;-;-;-;-;-;-;-;-;-;-;-
1513509177040;-;-;5.552643;-2.2000732;-2.5982208;-;-;-;-;-;-;-;-;-;-;-;-;-;-;-
1513509177061;-;-;5.5717926;-2.839325;-2.875946;-;-;-;-;-;-;-;-;-;-;-;-;-;-;-
1513509177081;-;-;4.7422028;-2.7746887;-2.5252075;-;-;-;-;-;-;-;-;-;-;-;-;-;-;-
1513509177101;-;-;4.659607;-2.4778137;-2.0200195;-;-;-;-;-;-;-;-;-;-;-;-;-;-;-
1513509177122;-;-;5.7405853;-2.7375793;-1.8835602;-;-;-;-;-;-;-;-;-;-;-;-;-;-;-
1513509177142;-;-;8.041412;-2.3988037;-1.100647;-;-;-;-;-;-;-;-;-;-;-;-;-;-;-
1513509177162;-;-;10.0298;-1.7188416;-1.9912872;-;-;-;-;-;-;-;-;-;-;-;-;-;-;-
1513509177182;-;-;12.554489;-1.0879669;-2.946579;-;-;-;-;-;-;-;-;-;-;-;-;-;-;-
1513509177203;-;-;13.996994;-0.86172485;-3.3919067;-;-;-;-;-;-;-;-;-;-;-;-;-;-;-
1513509177223;-;-;12.134308;-1.2711334;-5.1947327;-;-;-;-;-;-;-;-;-;-;-;-;-;-;-
1513509177243;-;-;8.815933;-1.7379913;-8.175522;-;-;-;-;-;-;-;-;-;-;-;-;-;-;-
1513509177264;-;-;8.332306;0.70529175;-12.501831;-;-;-;-;-;-;-;-;-;-;-;-;-;-;-
1513509177285;-;-;7.4261017;5.5786743;-11.970322;-;-;-;-;-;-;-;-;-;-;-;-;-;-;-
1513509177305;-;-;8.510681;5.4481964;-6.243393;-;-;-;-;-;-;-;-;-;-;-;-;-;-;-
1513509177325;-;-;8.770447;1.9921722;-7.227417;-;-;-;-;-;-;-;-;-;-;-;-;-;-;-
1513509177346;-;-;10.051346;-0.6151123;-6.7282257;-;-;-;-;-;-;-;-;-;-;-;-;-;-;-
1513509177366;-;-;12.303101;-2.7124329;-3.4469604;-;-;-;-;-;-;-;-;-;-;-;-;-;-;-
1513509177387;-;-;14.6147;-2.281479;-3.231491;-;-;-;-;-;-;-;-;-;-;-;-;-;-;-
1513509177407;-;-;11.897278;-0.23803711;-3.6133575;-;-;-;-;-;-;-;-;-;-;-;-;-;-;-
1513509177427;-;-;5.747772;0.35453796;-2.4485931;-;-;-;-;-;-;-;-;-;-;-;-;-;-;-
1513509177447;-;-;1.0443573;1.062027;-0.8396759;-;-;-;-;-;-;-;-;-;-;-;-;-;-;-
1513509177468;-;-;-0.50468445;1.8401337;1.1678619;-;-;-;-;-;-;-;-;-;-;-;-;-;-;-
1513509177489;-;-;1.6309357;2.1011047;1.3067169;-;-;-;-;-;-;-;-;-;-;-;-;-;-;-
1513509177510;-;-;4.8200226;1.6462097;0.602829;-;-;-;-;-;-;-;-;-;-;-;-;-;-;-
1513509177530;-;-;10.9982605;0.9818115;-0.38478088;-;-;-;-;-;-;-;-;-;-;-;-;-;-;-
1513509177550;-;-;13.672577;1.2427826;-2.962143;-;-;-;-;-;-;-;-;-;-;-;-;-;-;-
1513509177571;-;-;9.260071;4.3504486;-4.7482147;-;-;-;-;-;-;-;-;-;-;-;-;-;-;-
1513509177591;-;-;9.813126;5.675644;-4.651245;-;-;-;-;-;-;-;-;-;-;-;-;-;-;-
1513509177611;-;-;12.93277;6.675232;-1.8308868;-;-;-;-;-;-;-;-;-;-;-;-;-;-;-
1513509177631;-;-;11.967911;6.058716;-1.6752625;-;-;-;-;-;-;-;-;-;-;-;-;-;-;-
1513509177651;-;-;9.249298;3.6645203;-3.4936523;-;-;-;-;-;-;-;-;-;-;-;-;-;-;-
1513509177671;-;-;8.698624;4.2355347;-7.563797;-;-;-;-;-;-;-;-;-;-;-;-;-;-;-
1513509177691;-;-;12.641876;4.3061676;-3.5882263;-;-;-;-;-;-;-;-;-;-;-;-;-;-;-
1513509177712;-;-;7.5470123;2.2040558;-9.078125;-;-;-;-;-;-;-;-;-;-;-;-;-;-;-
1513509177732;-;-;7.509903;1.1865234;-11.102432;-;-;-;-;-;-;-;-;-;-;-;-;-;-;-
1513509177752;-;-;4.5147552;0.52931213;-9.878998;-;-;-;-;-;-;-;-;-;-;-;-;-;-;-
1513509177773;-;-;3.6899567;-0.9503021;-8.936874;-;-;-;-;-;-;-;-;-;-;-;-;-;-;-
1513509177793;-;-;7.2046356;-2.1318512;-5.398239;-;-;-;-;-;-;-;-;-;-;-;-;-;-;-
1513509177813;-;-;9.088882;-1.4542847;-2.728714;-;-;-;-;-;-;-;-;-;-;-;-;-;-;-
1513509177834;-;-;7.4440613;1.1936951;-1.8141174;-;-;-;-;-;-;-;-;-;-;-;-;-;-;-
1513509177854;-;-;6.355896;1.6976776;-2.962143;-;-;-;-;-;-;-;-;-;-;-;-;-;-;-
1513509177873;-;-;6.7641144;0.9925842;-4.3172607;-;-;-;-;-;-;-;-;-;-;-;-;-;-;-
1513509177893;-;-;6.94487;0.5448761;-3.741455;-;-;-;-;-;-;-;-;-;-;-;-;-;-;-
1513509177914;-;-;6.379837;-0.8485565;-3.0531158;-;-;-;-;-;-;-;-;-;-;-;-;-;-;-
1513509177934;-;-;5.8004456;-2.2719116;-2.8017273;-;-;-;-;-;-;-;-;-;-;-;-;-;-;-
1513509177954;-;-;6.142807;-2.8285522;-2.8053284;-;-;-;-;-;-;-;-;-;-;-;-;-;-;-
1513509177975;-;-;7.348297;-2.3820343;-3.1213531;-;-;-;-;-;-;-;-;-;-;-;-;-;-;-
1513509177995;-;-;8.660324;-1.6398315;-3.6983643;-;-;-;-;-;-;-;-;-;-;-;-;-;-;-
1513509178015;-;-;10.056137;-0.94911194;-4.220291;-;-;-;-;-;-;-;-;-;-;-;-;-;-;-
1513509178035;-;-;11.272385;-0.78630066;-4.638077;-;-;-;-;-;-;-;-;-;-;-;-;-;-;-
1513509178056;-;-;11.971497;-1.1693726;-5.3359985;-;-;-;-;-;-;-;-;-;-;-;-;-;-;-
1513509178075;-;-;10.648697;-2.7471619;-5.1899414;-;-;-;-;-;-;-;-;-;-;-;-;-;-;-
1513509178096;-;-;10.675034;-2.9386902;-4.930176;-;-;-;-;-;-;-;-;-;-;-;-;-;-;-
1513509178116;-;-;12.1414795;-2.4011993;-4.3986664;-;-;-;-;-;-;-;-;-;-;-;-;-;-;-
1513509178136;-;-;11.480682;-0.93833923;-7.5290833;-;-;-;-;-;-;-;-;-;-;-;-;-;-;-
1513509178156;-;-;5.9752197;-0.917984;-20.530792;-;-;-;-;-;-;-;-;-;-;-;-;-;-;-
1513509178177;-;-;3.9712677;-1.7667236;-12.452759;-;-;-;-;-;-;-;-;-;-;-;-;-;-;-
1513509178196;-;-;12.377319;-1.6673737;3.425583;-;-;-;-;-;-;-;-;-;-;-;-;-;-;-
1513509178216;-;-;8.588486;-1.3668976;-5.109741;-;-;-;-;-;-;-;-;-;-;-;-;-;-;-
1513509178236;-;-;4.134079;-0.59477234;-9.254105;-;-;-;-;-;-;-;-;-;-;-;-;-;-;-
1513509178257;-;-;4.7410126;-0.41281128;-7.3243713;-;-;-;-;-;-;-;-;-;-;-;-;-;-;-
1513509178276;-;-;4.1280975;-1.0616302;-3.8970795;-;-;-;-;-;-;-;-;-;-;-;-;-;-;-
1513509178296;-;-;4.1484375;-0.7707367;-0.7175751;-;-;-;-;-;-;-;-;-;-;-;-;-;-;-
1513509178317;-;-;5.691513;0.44192505;0.067718506;-;-;-;-;-;-;-;-;-;-;-;-;-;-;-
1513509178336;-;-;6.9700165;0.64183044;-3.0938263;-;-;-;-;-;-;-;-;-;-;-;-;-;-;-
1513509178356;-;-;6.5234985;0.675354;-5.511963;-;-;-;-;-;-;-;-;-;-;-;-;-;-;-
1513509178377;-;-;6.336746;1.0775757;-4.594986;-;-;-;-;-;-;-;-;-;-;-;-;-;-;-
1513509178396;-;-;6.869461;2.0173035;-2.883133;-;-;-;-;-;-;-;-;-;-;-;-;-;-;-
1513509178416;-;-;6.929306;2.746338;-2.8137054;-;-;-;-;-;-;-;-;-;-;-;-;-;-;-
1513509178436;-;-;5.7968445;2.390808;-3.3392334;-;-;-;-;-;-;-;-;-;-;-;-;-;-;-
1513509178457;-;-;6.3858185;1.3888245;-3.6361084;-;-;-;-;-;-;-;-;-;-;-;-;-;-;-
1513509178477;-;-;8.880585;0.1510315;-3.214737;-;-;-;-;-;-;-;-;-;-;-;-;-;-;-
1513509178497;-;-;9.282806;0.57121277;-2.9801025;-;-;-;-;-;-;-;-;-;-;-;-;-;-;-
1513509178518;-;-;9.529419;2.5177002;-3.5930176;-;-;-;-;-;-;-;-;-;-;-;-;-;-;-
1513509178538;-;-;10.082474;4.3253174;-4.7793427;-;-;-;-;-;-;-;-;-;-;-;-;-;-;-
1513509178558;-;-;11.754822;5.0028687;-4.456131;-;-;-;-;-;-;-;-;-;-;-;-;-;-;-
1513509178579;-;-;10.536179;4.209198;-3.8288422;-;-;-;-;-;-;-;-;-;-;-;-;-;-;-
1513509178599;-;-;8.294006;3.0372314;-9.556976;-;-;-;-;-;-;-;-;-;-;-;-;-;-;-
1513509178619;-;-;12.198944;2.3848114;-6.286484;-;-;-;-;-;-;-;-;-;-;-;-;-;-;-
1513509178639;-;-;8.34787;1.9347076;-8.468811;-;-;-;-;-;-;-;-;-;-;-;-;-;-;-
1513509178660;-;-;8.455612;-0.90122986;-6.8419495;-;-;-;-;-;-;-;-;-;-;-;-;-;-;-
1513509178680;-;-;4.853531;-1.1250763;-6.09256;-;-;-;-;-;-;-;-;-;-;-;-;-;-;-
1513509178700;-;-;2.5155945;-0.6905365;-6.2170563;-;-;-;-;-;-;-;-;-;-;-;-;-;-;-
1513509178721;-;-;3.0123901;-0.58039856;-5.492813;-;-;-;-;-;-;-;-;-;-;-;-;-;-;-
1513509178741;-;-;6.3930054;-0.4882202;-4.0119934;-;-;-;-;-;-;-;-;-;-;-;-;-;-;-
1513509178761;-;-;8.556168;0.2192688;-3.1393127;-;-;-;-;-;-;-;-;-;-;-;-;-;-;-
1513509178782;-;-;7.4284973;0.7735138;-3.705536;-;-;-;-;-;-;-;-;-;-;-;-;-;-;-
1513509178802;-;-;7.0454254;0.009765625;-4.559067;-;-;-;-;-;-;-;-;-;-;-;-;-;-;-
1513509178822;-;-;5.9979706;-1.4961853;-4.840393;-;-;-;-;-;-;-;-;-;-;-;-;-;-;-
1513509178842;-;-;5.959656;-2.9937592;-4.626114;-;-;-;-;-;-;-;-;-;-;-;-;-;-;-
1513509178862;-;-;6.84671;-3.5516052;-4.0072174;-;-;-;-;-;-;-;-;-;-;-;-;-;-;-
1513509178883;-;-;8.436462;-3.35289;-4.2334595;-;-;-;-;-;-;-;-;-;-;-;-;-;-;-
1513509178903;-;-;9.980713;-2.7746887;-5.1348724;-;-;-;-;-;-;-;-;-;-;-;-;-;-;-
1513509178924;-;-;10.4487915;-1.9295349;-6.5546417;-;-;-;-;-;-;-;-;-;-;-;-;-;-;-
1513509178945;-;-;9.463577;-2.4047852;-6.7725067;-;-;-;-;-;-;-;-;-;-;-;-;-;-;-
1513509178965;-;-;10.070496;-1.8517303;-5.4161987;-;-;-;-;-;-;-;-;-;-;-;-;-;-;-
1513509178985;-;-;11.680603;-1.5189362;-5.3719025;-;-;-;-;-;-;-;-;-;-;-;-;-;-;-
1513509179005;-;-;12.216904;-0.8964386;-5.1456604;-;-;-;-;-;-;-;-;-;-;-;-;-;-;-
1513509179025;-;-;8.989517;0.007369995;-7.410568;-;-;-;-;-;-;-;-;-;-;-;-;-;-;-
1513509179046;-;-;3.339203;-1.1107178;-17.524872;-;-;-;-;-;-;-;-;-;-;-;-;-;-;-
1513509179066;-;-;1.9385986;-0.38407898;-18.387985;-;-;-;-;-;-;-;-;-;-;-;-;-;-;-
1513509179087;-;-;11.05571;-0.29071045;5.9885864;-;-;-;-;-;-;-;-;-;-;-;-;-;-;-
1513509179107;-;-;8.922485;-0.22605896;-3.6768036;-;-;-;-;-;-;-;-;-;-;-;-;-;-;-
1513509179127;-;-;3.4074402;-1.012558;-11.32988;-;-;-;-;-;-;-;-;-;-;-;-;-;-;-
1513509179148;-;-;5.9393005;-1.7068787;-8.973984;-;-;-;-;-;-;-;-;-;-;-;-;-;-;-
1513509179168;-;-;4.0646515;-0.44752502;-3.1728363;-;-;-;-;-;-;-;-;-;-;-;-;-;-;-
1513509179188;-;-;2.446167;0.031311035;0.47354126;-;-;-;-;-;-;-;-;-;-;-;-;-;-;-
1513509179208;-;-;4.0442963;0.64782715;-1.5938568;-;-;-;-;-;-;-;-;-;-;-;-;-;-;-
1513509179229;-;-;6.13443;1.4869843;-4.4944305;-;-;-;-;-;-;-;-;-;-;-;-;-;-;-
1513509179249;-;-;8.718979;2.7319794;-6.876663;-;-;-;-;-;-;-;-;-;-;-;-;-;-;-
1513509179269;-;-;7.91333;3.4645996;-7.3997955;-;-;-;-;-;-;-;-;-;-;-;-;-;-;-
1513509179289;-;-;6.2936554;3.1354065;-8.362259;-;-;-;-;-;-;-;-;-;-;-;-;-;-;-
1513509179310;-;-;6.1488037;2.0544128;-7.4153595;-;-;-;-;-;-;-;-;-;-;-;-;-;-;-
1513509179330;-;-;8.701019;3.3736267;-5.116928;-;-;-;-;-;-;-;-;-;-;-;-;-;-;-
1513509179350;-;-;11.538147;3.1904602;-4.4669037;-;-;-;-;-;-;-;-;-;-;-;-;-;-;-
1513509179371;-;-;11.473511;2.4159393;-4.147278;-;-;-;-;-;-;-;-;-;-;-;-;-;-;-
1513509179391;-;-;8.68306;0.24798584;-2.500061;-;-;-;-;-;-;-;-;-;-;-;-;-;-;-
1513509179411;-;-;5.1994934;0.045684814;-8.508316;-;-;-;-;-;-;-;-;-;-;-;-;-;-;-
1513509179432;-;-;1.5519257;1.0416718;-11.758438;-;-;-;-;-;-;-;-;-;-;-;-;-;-;-
1513509179451;-;-;-0.459198;0.73161316;-5.389862;-;-;-;-;-;-;-;-;-;-;-;-;-;-;-
1513509179471;-;-;11.163452;1.4163666;-8.596893;-;-;-;-;-;-;-;-;-;-;-;-;-;-;-
1513509179491;-;-;9.595245;-1.0951538;-8.285645;-;-;-;-;-;-;-;-;-;-;-;-;-;-;-
1513509179512;-;-;5.837555;-1.7739105;-8.302414;-;-;-;-;-;-;-;-;-;-;-;-;-;-;-
1513509179532;-;-;5.893814;-2.4706268;-9.03743;-;-;-;-;-;-;-;-;-;-;-;-;-;-;-
1513509179553;-;-;6.6587677;-1.5237122;-3.010025;-;-;-;-;-;-;-;-;-;-;-;-;-;-;-
1513509179573;-;-;6.8479004;0.20370483;-1.8907318;-;-;-;-;-;-;-;-;-;-;-;-;-;-;-
1513509179593;-;-;4.150833;0.8788605;-2.4976654;-;-;-;-;-;-;-;-;-;-;-;-;-;-;-
1513509179613;-;-;3.34758;0.8202057;-2.3947144;-;-;-;-;-;-;-;-;-;-;-;-;-;-;-
1513509179633;-;-;3.3260345;-0.8569336;-4.2250824;-;-;-;-;-;-;-;-;-;-;-;-;-;-;-
1513509179654;-;-;5.3539276;-3.203247;-5.206711;-;-;-;-;-;-;-;-;-;-;-;-;-;-;-
1513509179674;-;-;8.356247;-4.223175;-4.9134216;-;-;-;-;-;-;-;-;-;-;-;-;-;-;-
1513509179694;-;-;10.725311;-3.0188904;-4.4082336;-;-;-;-;-;-;-;-;-;-;-;-;-;-;-
1513509179715;-;-;9.504272;-3.067978;-7.6404114;-;-;-;-;-;-;-;-;-;-;-;-;-;-;-
1513509179735;-;-;8.321533;-3.4701996;-7.433319;-;-;-;-;-;-;-;-;-;-;-;-;-;-;-
1513509179755;-;-;11.930801;-3.9191132;-6.164383;-;-;-;-;-;-;-;-;-;-;-;-;-;-;-
1513509179775;-;-;14.700882;-2.8441162;-5.333603;-;-;-;-;-;-;-;-;-;-;-;-;-;-;-
1513509179796;-;-;14.37648;-0.12908936;-5.0450897;-;-;-;-;-;-;-;-;-;-;-;-;-;-;-
1513509179816;-;-;7.5601807;-0.92277527;-10.252487;-;-;-;-;-;-;-;-;-;-;-;-;-;-;-
1513509179836;-;-;1.6860046;-1.6913147;-19.881958;-;-;-;-;-;-;-;-;-;-;-;-;-;-;-
1513509179857;-;-;5.6376343;-4.1537476;-0.8468628;-;-;-;-;-;-;-;-;-;-;-;-;-;-;-
1513509179877;-;-;10.810303;-2.3401337;-0.8504486;-;-;-;-;-;-;-;-;-;-;-;-;-;-;-
1513509179897;-;-;4.9301453;-1.2196503;-11.62915;-;-;-;-;-;-;-;-;-;-;-;-;-;-;-
1513509179918;-;-;6.4995575;0.38804626;-9.819138;-;-;-;-;-;-;-;-;-;-;-;-;-;-;-
1513509179938;-;-;5.2042847;2.2507477;-4.460907;-;-;-;-;-;-;-;-;-;-;-;-;-;-;-
1513509179959;-;-;2.9226074;2.0376587;-0.73553467;-;-;-;-;-;-;-;-;-;-;-;-;-;-;-
1513509179979;-;-;3.7929077;0.6717682;-1.8368683;-;-;-;-;-;-;-;-;-;-;-;-;-;-;-
1513509179999;-;-;5.3335724;-0.62709045;-3.317688;-;-;-;-;-;-;-;-;-;-;-;-;-;-;-
1513509180019;-;-;6.0183105;-0.5827942;-4.931366;-;-;-;-;-;-;-;-;-;-;-;-;-;-;-
1513509180040;-;-;6.6623535;0.16897583;-4.5914;-;-;-;-;-;-;-;-;-;-;-;-;-;-;-
1513509180060;-;-;5.69989;1.5480499;-4.2406464;-;-;-;-;-;-;-;-;-;-;-;-;-;-;-
1513509180080;-;-;5.6974945;2.6541595;-4.1113586;-;-;-;-;-;-;-;-;-;-;-;-;-;-;-
1513509180101;-;-;6.778473;2.5416412;-5.1073456;-;-;-;-;-;-;-;-;-;-;-;-;-;-;-
1513509180121;-;-;8.313156;1.6904907;-6.382263;-;-;-;-;-;-;-;-;-;-;-;-;-;-;-
1513509180141;-;-;9.207397;1.9490662;-5.594574;-;-;-;-;-;-;-;-;-;-;-;-;-;-;-
1513509180162;-;-;9.020645;2.521286;-4.349579;-;-;-;-;-;-;-;-;-;-;-;-;-;-;-
1513509180182;-;-;10.179443;2.9079437;-4.278946;-;-;-;-;-;-;-;-;-;-;-;-;-;-;-
1513509180202;-;-;11.083252;3.8787994;-3.8551788;-;-;-;-;-;-;-;-;-;-;-;-;-;-;-
1513509180223;-;-;8.778824;3.5304413;-4.298111;-;-;-;-;-;-;-;-;-;-;-;-;-;-;-
1513509180243;-;-;4.533905;2.2279968;-7.0670013;-;-;-;-;-;-;-;-;-;-;-;-;-;-;-
1513509180263;-;-;0.6756592;2.473404;-10.037003;-;-;-;-;-;-;-;-;-;-;-;-;-;-;-
1513509180283;-;-;5.4197693;1.7563324;-4.1460724;-;-;-;-;-;-;-;-;-;-;-;-;-;-;-
1513509180304;-;-;12.479065;-0.1925354;-8.729767;-;-;-;-;-;-;-;-;-;-;-;-;-;-;-
1513509180324;-;-;8.867416;-0.73243713;-11.56929;-;-;-;-;-;-;-;-;-;-;-;-;-;-;-
1513509180344;-;-;7.0334625;-0.29429626;-9.688644;-;-;-;-;-;-;-;-;-;-;-;-;-;-;-
1513509180365;-;-;3.5486908;-0.58758545;-8.413742;-;-;-;-;-;-;-;-;-;-;-;-;-;-;-
1513509180384;-;-;4.6452484;-0.91319275;-3.6217499;-;-;-;-;-;-;-;-;-;-;-;-;-;-;-
1513509180404;-;-;8.991913;-1.2136688;-2.8077087;-;-;-;-;-;-;-;-;-;-;-;-;-;-;-
1513509180425;-;-;6.723404;-1.1262817;-3.3356323;-;-;-;-;-;-;-;-;-;-;-;-;-;-;-
1513509180445;-;-;4.446518;-0.23443604;-3.369156;-;-;-;-;-;-;-;-;-;-;-;-;-;-;-
1513509180466;-;-;3.7929077;-0.3182373;-3.8659515;-;-;-;-;-;-;-;-;-;-;-;-;-;-;-
1513509180486;-;-;5.1731567;-1.546463;-4.148468;-;-;-;-;-;-;-;-;-;-;-;-;-;-;-
1513509180506;-;-;6.3582916;-3.0512238;-5.041504;-;-;-;-;-;-;-;-;-;-;-;-;-;-;-
1513509180526;-;-;7.1471863;-3.893982;-5.1588287;-;-;-;-;-;-;-;-;-;-;-;-;-;-;-
1513509180547;-;-;9.622787;-3.012909;-4.9445343;-;-;-;-;-;-;-;-;-;-;-;-;-;-;-
1513509180567;-;-;11.414841;-1.874466;-5.527527;-;-;-;-;-;-;-;-;-;-;-;-;-;-;-
1513509180588;-;-;8.210205;-2.1521912;-7.0873566;-;-;-;-;-;-;-;-;-;-;-;-;-;-;-
1513509180608;-;-;6.731781;-1.9259491;-5.5610504;-;-;-;-;-;-;-;-;-;-;-;-;-;-;-
1513509180628;-;-;8.783615;-2.3748627;-4.0000305;-;-;-;-;-;-;-;-;-;-;-;-;-;-;-
1513509180648;-;-;10.916855;-1.2866974;-4.3364105;-;-;-;-;-;-;-;-;-;-;-;-;-;-;-
1513509180669;-;-;11.522583;0.7016907;-6.426544;-;-;-;-;-;-;-;-;-;-;-;-;-;-;-
1513509180689;-;-;8.469971;1.082367;-11.355011;-;-;-;-;-;-;-;-;-;-;-;-;-;-;-
1513509180710;-;-;5.4520874;-0.996994;-12.274384;-;-;-;-;-;-;-;-;-;-;-;-;-;-;-
1513509180730;-;-;12.485062;-4.905533;-0.9953003;-;-;-;-;-;-;-;-;-;-;-;-;-;-;-
1513509180750;-;-;10.788757;-4.0268555;-9.805969;-;-;-;-;-;-;-;-;-;-;-;-;-;-;-
1513509180770;-;-;6.2780914;-3.4342957;-17.917526;-;-;-;-;-;-;-;-;-;-;-;-;-;-;-
1513509180791;-;-;7.5793304;-2.1091003;-14.45192;-;-;-;-;-;-;-;-;-;-;-;-;-;-;-
1513509180811;-;-;7.787628;0.54008484;-7.5494385;-;-;-;-;-;-;-;-;-;-;-;-;-;-;-
1513509180831;-;-;6.106903;2.1585693;-1.8452454;-;-;-;-;-;-;-;-;-;-;-;-;-;-;-
1513509180852;-;-;4.283722;2.9953308;-0.4817505;-;-;-;-;-;-;-;-;-;-;-;-;-;-;-
1513509180872;-;-;2.2558289;2.61586;-2.8376465;-;-;-;-;-;-;-;-;-;-;-;-;-;-;-
1513509180893;-;-;1.7614288;0.9243469;-4.11615;-;-;-;-;-;-;-;-;-;-;-;-;-;-;-
1513509180912;-;-;2.3252563;-0.06086731;-3.2686005;-;-;-;-;-;-;-;-;-;-;-;-;-;-;-
1513509180932;-;-;2.5359497;-0.34098816;-2.9477692;-;-;-;-;-;-;-;-;-;-;-;-;-;-;-
1513509180953;-;-;3.4481354;0.4371338;-3.0698853;-;-;-;-;-;-;-;-;-;-;-;-;-;-;-
1513509180973;-;-;5.264145;1.0392761;-2.5922394;-;-;-;-;-;-;-;-;-;-;-;-;-;-;-
1513509180993;-;-;7.414139;1.4486847;-3.282959;-;-;-;-;-;-;-;-;-;-;-;-;-;-;-
1513509181013;-;-;7.766083;1.4714355;-5.1576233;-;-;-;-;-;-;-;-;-;-;-;-;-;-;-
1513509181034;-;-;8.910507;1.1685638;-6.212265;-;-;-;-;-;-;-;-;-;-;-;-;-;-;-
1513509181053;-;-;9.644333;2.0137177;-5.228256;-;-;-;-;-;-;-;-;-;-;-;-;-;-;-
1513509181073;-;-;10.289566;3.6034698;-4.310074;-;-;-;-;-;-;-;-;-;-;-;-;-;-;-
1513509181094;-;-;9.592865;3.7590942;-3.1309357;-;-;-;-;-;-;-;-;-;-;-;-;-;-;-
1513509181113;-;-;10.331467;3.1138458;-2.373169;-;-;-;-;-;-;-;-;-;-;-;-;-;-;-
1513509181133;-;-;11.364563;2.1406097;-0.98213196;-;-;-;-;-;-;-;-;-;-;-;-;-;-;-
1513509181153;-;-;7.802002;0.46228027;-7.3878174;-;-;-;-;-;-;-;-;-;-;-;-;-;-;-
1513509181173;-;-;7.8474884;3.4634094;-6.8467407;-;-;-;-;-;-;-;-;-;-;-;-;-;-;-
1513509181194;-;-;7.8007965;7.466507;-5.44014;-;-;-;-;-;-;-;-;-;-;-;-;-;-;-
1513509181214;-;-;10.068115;6.193985;-7.1903076;-;-;-;-;-;-;-;-;-;-;-;-;-;-;-
1513509181234;-;-;7.2154236;3.984146;-7.761322;-;-;-;-;-;-;-;-;-;-;-;-;-;-;-
1513509181255;-;-;3.909027;1.6497955;-10.065735;-;-;-;-;-;-;-;-;-;-;-;-;-;-;-
1513509181275;-;-;6.2720947;-0.78271484;-9.436066;-;-;-;-;-;-;-;-;-;-;-;-;-;-;-
1513509181295;-;-;9.117615;-2.423935;-6.5534515;-;-;-;-;-;-;-;-;-;-;-;-;-;-;-
1513509181316;-;-;11.040161;-2.4837952;-5.1899414;-;-;-;-;-;-;-;-;-;-;-;-;-;-;-
1513509181336;-;-;8.496307;-0.3972473;-5.674774;-;-;-;-;-;-;-;-;-;-;-;-;-;-;-
1513509181356;-;-;5.7956543;0.6214905;-5.053482;-;-;-;-;-;-;-;-;-;-;-;-;-;-;-
1513509181378;-;-;3.498413;0.6454315;-4.617737;-;-;-;-;-;-;-;-;-;-;-;-;-;-;-
1513509181398;-;-;2.2821655;-0.13748169;-3.9341888;-;-;-;-;-;-;-;-;-;-;-;-;-;-;-
1513509181418;-;-;2.6508636;-1.1957092;-3.3116913;-;-;-;-;-;-;-;-;-;-;-;-;-;-;-
1513509181439;-;-;3.6516418;-1.9175568;-3.85997;-;-;-;-;-;-;-;-;-;-;-;-;-;-;-
1513509181459;-;-;7.161545;-0.6833496;-5.661606;-;-;-;-;-;-;-;-;-;-;-;-;-;-;-
