TimeStamp[ms];Prox[Cm];Lux[lux];AccX[m/s^2];AccY[m/s^2];AccZ[m/s^2];GyroX[rad/s];GyroY[rad/s];GyroZ[rad/s];MagnX[uT];MagnY[uT];MagnZ[uT];OrienYaw[degrees];OrienPitch[degrees];OrienRoll[degrees];Press[Pa];Temp[C°];Batt[%];Lat;Lng;Speed[m/s]
1514207661041;-;-;8.560959;-1.0831909;3.0401154;-;-;-;-;-;-;-;-;-;-;-;-;-;-;-
1514207661042;-;-;8.560959;-1.0831909;3.0401154;-;-;-;-;-;-;-;-;-;-;-;-;-;-;-
1514207661062;-;-;8.569336;-1.1849365;3.0473022;-;-;-;-;-;-;-;-;-;-;-;-;-;-;-
1514207661083;-;-;8.718979;-1.1562042;3.0676575;-;-;-;-;-;-;-;-;-;-;-;-;-;-;-
1514207661102;-;-;8.732147;-1.1657867;3.0054016;-;-;-;-;-;-;-;-;-;-;-;-;-;-;-
1514207661122;-;-;8.730942;-1.1394501;2.9623108;-;-;-;-;-;-;-;-;-;-;-;-;-;-;-
1514207661142;-;-;8.855438;-1.0819855;2.9766693;-;-;-;-;-;-;-;-;-;-;-;-;-;-;-
1514207661163;-;-;8.835098;-1.0496674;2.9252014;-;-;-;-;-;-;-;-;-;-;-;-;-;-;-
1514207661183;-;-;8.849457;-1.0005798;2.900055;-;-;-;-;-;-;-;-;-;-;-;-;-;-;-
1514207661203;-;-;8.863831;-0.97424316;2.8450012;-;-;-;-;-;-;-;-;-;-;-;-;-;-;-
1514207661224;-;-;8.944031;-0.9191742;2.86055;-;-;-;-;-;-;-;-;-;-;-;-;-;-;-
1514207661245;-;-;8.641159;-0.81144714;2.5768433;-;-;-;-;-;-;-;-;-;-;-;-;-;-;-
1514207661265;-;-;8.935654;-0.8353882;2.856964;-;-;-;-;-;-;-;-;-;-;-;-;-;-;-
1514207661293;-;-;8.975159;-0.8533478;2.797104;-;-;-;-;-;-;-;-;-;-;-;-;-;-;-
1514207661305;-;-;8.7656555;-1.0352936;2.7276764;-;-;-;-;-;-;-;-;-;-;-;-;-;-;-
1514207661326;-;-;8.686661;-1.2459869;2.792328;-;-;-;-;-;-;-;-;-;-;-;-;-;-;-
1514207661346;-;-;8.893753;-1.3297882;2.7994995;-;-;-;-;-;-;-;-;-;-;-;-;-;-;-
1514207661366;-;-;8.886566;-1.3920441;2.8809052;-;-;-;-;-;-;-;-;-;-;-;-;-;-;-
1514207661387;-;-;8.799179;-1.4243622;2.816269;-;-;-;-;-;-;-;-;-;-;-;-;-;-;-
1514207661407;-;-;8.729752;-1.273529;2.8689423;-;-;-;-;-;-;-;-;-;-;-;-;-;-;-
1514207661427;-;-;8.759674;-1.076004;2.8928833;-;-;-;-;-;-;-;-;-;-;-;-;-;-;-
1514207661447;-;-;8.887772;-1.0053711;2.7911224;-;-;-;-;-;-;-;-;-;-;-;-;-;-;-
1514207661468;-;-;8.930862;-0.8928528;2.6678162;-;-;-;-;-;-;-;-;-;-;-;-;-;-;-
1514207661488;-;-;8.592087;-0.49301147;2.4212189;-;-;-;-;-;-;-;-;-;-;-;-;-;-;-
1514207661508;-;-;8.965576;-0.95150757;2.4080505;-;-;-;-;-;-;-;-;-;-;-;-;-;-;-
1514207661529;-;-;8.582504;-1.1011353;2.3290405;-;-;-;-;-;-;-;-;-;-;-;-;-;-;-
1514207661549;-;-;7.866638;-0.92037964;2.0896301;-;-;-;-;-;-;-;-;-;-;-;-;-;-;-
1514207661569;-;-;7.976776;-0.72525024;1.6478882;-;-;-;-;-;-;-;-;-;-;-;-;-;-;-
1514207661590;-;-;9.329498;0.541275;2.086029;-;-;-;-;-;-;-;-;-;-;-;-;-;-;-
1514207661610;-;-;7.094513;0.417984;1.3270721;-;-;-;-;-;-;-;-;-;-;-;-;-;-;-
1514207661630;-;-;12.397659;-0.9550934;2.7085266;-;-;-;-;-;-;-;-;-;-;-;-;-;-;-
1514207661651;-;-;10.579269;-1.4997711;5.9490814;-;-;-;-;-;-;-;-;-;-;-;-;-;-;-
1514207661671;-;-;12.0421295;-0.7013092;4.8441467;-;-;-;-;-;-;-;-;-;-;-;-;-;-;-
1514207661691;-;-;8.52504;-0.59835815;-5.496399;-;-;-;-;-;-;-;-;-;-;-;-;-;-;-
1514207661712;-;-;7.592499;0.33418274;-2.1409302;-;-;-;-;-;-;-;-;-;-;-;-;-;-;-
1514207661732;-;-;8.478363;-0.47865295;0.6926117;-;-;-;-;-;-;-;-;-;-;-;-;-;-;-
1514207661752;-;-;8.587296;-0.6761627;-0.20402527;-;-;-;-;-;-;-;-;-;-;-;-;-;-;-
1514207661773;-;-;9.412094;-0.54689026;0.44599915;-;-;-;-;-;-;-;-;-;-;-;-;-;-;-
1514207661792;-;-;8.965576;-0.0069885254;0.08088684;-;-;-;-;-;-;-;-;-;-;-;-;-;-;-
1514207661812;-;-;9.166687;0.5736084;0.16348267;-;-;-;-;-;-;-;-;-;-;-;-;-;-;-
1514207661832;-;-;9.327103;0.64064026;0.23770142;-;-;-;-;-;-;-;-;-;-;-;-;-;-;-
1514207661853;-;-;9.578491;0.5089569;0.27122498;-;-;-;-;-;-;-;-;-;-;-;-;-;-;-
1514207661873;-;-;9.644333;0.46705627;0.18144226;-;-;-;-;-;-;-;-;-;-;-;-;-;-;-
1514207661893;-;-;9.464767;0.41079712;0.13356018;-;-;-;-;-;-;-;-;-;-;-;-;-;-;-
1514207661914;-;-;9.886154;-0.14465332;0.5166321;-;-;-;-;-;-;-;-;-;-;-;-;-;-;-
1514207661935;-;-;9.531799;0.8345642;0.45318604;-;-;-;-;-;-;-;-;-;-;-;-;-;-;-
1514207661955;-;-;9.184647;0.46466064;-0.0029144287;-;-;-;-;-;-;-;-;-;-;-;-;-;-;-
1514207661976;-;-;8.794388;0.5819855;0.4112854;-;-;-;-;-;-;-;-;-;-;-;-;-;-;-
1514207661996;-;-;9.213379;0.16778564;0.9930725;-;-;-;-;-;-;-;-;-;-;-;-;-;-;-
1514207662016;-;-;9.127182;0.20249939;0.32987976;-;-;-;-;-;-;-;-;-;-;-;-;-;-;-
1514207662036;-;-;9.293579;0.12948608;0.62916565;-;-;-;-;-;-;-;-;-;-;-;-;-;-;-
1514207662057;-;-;9.382172;0.046875;0.67344666;-;-;-;-;-;-;-;-;-;-;-;-;-;-;-
1514207662077;-;-;9.187042;-0.16142273;0.42684937;-;-;-;-;-;-;-;-;-;-;-;-;-;-;-
1514207662097;-;-;8.684265;1.7299957;0.49508667;-;-;-;-;-;-;-;-;-;-;-;-;-;-;-
1514207662118;-;-;8.952408;0.84773254;0.587265;-;-;-;-;-;-;-;-;-;-;-;-;-;-;-
1514207662138;-;-;9.184647;0.78549194;0.49627686;-;-;-;-;-;-;-;-;-;-;-;-;-;-;-
1514207662159;-;-;9.304352;0.7830963;0.60043335;-;-;-;-;-;-;-;-;-;-;-;-;-;-;-
1514207662178;-;-;8.975159;0.9794159;0.8949127;-;-;-;-;-;-;-;-;-;-;-;-;-;-;-
1514207662198;-;-;8.8051605;0.7759094;0.5992279;-;-;-;-;-;-;-;-;-;-;-;-;-;-;-
1514207662218;-;-;9.201401;0.65859985;0.75605774;-;-;-;-;-;-;-;-;-;-;-;-;-;-;-
1514207662238;-;-;9.1918335;0.59754944;0.83625793;-;-;-;-;-;-;-;-;-;-;-;-;-;-;-
1514207662259;-;-;9.142746;0.45628357;0.76322937;-;-;-;-;-;-;-;-;-;-;-;-;-;-;-
1514207662278;-;-;9.323517;0.3617096;0.8518219;-;-;-;-;-;-;-;-;-;-;-;-;-;-;-
1514207662299;-;-;9.282806;0.38685608;0.7620392;-;-;-;-;-;-;-;-;-;-;-;-;-;-;-
1514207662319;-;-;9.084091;0.36650085;0.6926117;-;-;-;-;-;-;-;-;-;-;-;-;-;-;-
1514207662339;-;-;9.029022;0.31982422;0.7859802;-;-;-;-;-;-;-;-;-;-;-;-;-;-;-
1514207662360;-;-;9.024231;0.37727356;0.7141571;-;-;-;-;-;-;-;-;-;-;-;-;-;-;-
1514207662380;-;-;9.035004;0.45269775;0.63993835;-;-;-;-;-;-;-;-;-;-;-;-;-;-;-
1514207662400;-;-;9.194229;0.4658661;0.54296875;-;-;-;-;-;-;-;-;-;-;-;-;-;-;-
1514207662421;-;-;9.388153;0.61190796;0.5992279;-;-;-;-;-;-;-;-;-;-;-;-;-;-;-
1514207662441;-;-;9.23851;0.70529175;0.64352417;-;-;-;-;-;-;-;-;-;-;-;-;-;-;-
1514207662461;-;-;9.169083;0.81781006;0.6255646;-;-;-;-;-;-;-;-;-;-;-;-;-;-;-
1514207662482;-;-;9.214569;0.9602661;0.43403625;-;-;-;-;-;-;-;-;-;-;-;-;-;-;-
1514207662502;-;-;9.182251;0.83935547;0.47233582;-;-;-;-;-;-;-;-;-;-;-;-;-;-;-
1514207662522;-;-;9.015854;0.77471924;0.53338623;-;-;-;-;-;-;-;-;-;-;-;-;-;-;-
1514207662542;-;-;9.007477;0.81781006;0.45558167;-;-;-;-;-;-;-;-;-;-;-;-;-;-;-
1514207662563;-;-;9.048172;0.80345154;0.29397583;-;-;-;-;-;-;-;-;-;-;-;-;-;-;-
1514207662583;-;-;9.123596;0.75675964;0.28559875;-;-;-;-;-;-;-;-;-;-;-;-;-;-;-
1514207662603;-;-;9.096069;0.67056274;0.15031433;-;-;-;-;-;-;-;-;-;-;-;-;-;-;-
1514207662624;-;-;8.568146;0.5700073;0.084472656;-;-;-;-;-;-;-;-;-;-;-;-;-;-;-
1514207662645;-;-;8.808762;0.517334;0.074905396;-;-;-;-;-;-;-;-;-;-;-;-;-;-;-
1514207662665;-;-;8.945221;0.35333252;0.13356018;-;-;-;-;-;-;-;-;-;-;-;-;-;-;-
1514207662685;-;-;8.84108;0.24798584;-0.047195435;-;-;-;-;-;-;-;-;-;-;-;-;-;-;-
1514207662706;-;-;8.739319;0.08758545;-0.08909607;-;-;-;-;-;-;-;-;-;-;-;-;-;-;-
1514207662726;-;-;9.085281;0.28630066;-0.24232483;-;-;-;-;-;-;-;-;-;-;-;-;-;-;-
1514207662746;-;-;9.268448;0.27671814;-0.43026733;-;-;-;-;-;-;-;-;-;-;-;-;-;-;-
1514207662767;-;-;9.130783;0.12109375;-0.5392151;-;-;-;-;-;-;-;-;-;-;-;-;-;-;-
1514207662787;-;-;9.0182495;-0.20092773;-0.41111755;-;-;-;-;-;-;-;-;-;-;-;-;-;-;-
1514207662807;-;-;9.134369;-0.40322876;-0.5715332;-;-;-;-;-;-;-;-;-;-;-;-;-;-;-
1514207662827;-;-;8.951218;-0.43554688;-0.5727234;-;-;-;-;-;-;-;-;-;-;-;-;-;-;-
1514207662848;-;-;8.76207;-0.53012085;-0.33929443;-;-;-;-;-;-;-;-;-;-;-;-;-;-;-
1514207662868;-;-;8.657928;-0.50019836;-0.23634338;-;-;-;-;-;-;-;-;-;-;-;-;-;-;-
1514207662888;-;-;8.550186;-0.49061584;-0.25309753;-;-;-;-;-;-;-;-;-;-;-;-;-;-;-
1514207662909;-;-;8.460403;-0.38287354;-0.15853882;-;-;-;-;-;-;-;-;-;-;-;-;-;-;-
1514207662929;-;-;8.320343;-0.30387878;-0.099868774;-;-;-;-;-;-;-;-;-;-;-;-;-;-;-
1514207662949;-;-;8.475967;-0.27035522;-0.15853882;-;-;-;-;-;-;-;-;-;-;-;-;-;-;-
1514207662969;-;-;8.273651;-0.7922821;-0.26028442;-;-;-;-;-;-;-;-;-;-;-;-;-;-;-
1514207662990;-;-;8.264084;-1.2519684;-0.5068817;-;-;-;-;-;-;-;-;-;-;-;-;-;-;-
1514207663010;-;-;7.901352;-1.1442413;-0.4853363;-;-;-;-;-;-;-;-;-;-;-;-;-;-;-
1514207663030;-;-;7.782837;-1.0747986;-0.3368988;-;-;-;-;-;-;-;-;-;-;-;-;-;-;-
1514207663051;-;-;7.6894684;-1.1238861;-0.34048462;-;-;-;-;-;-;-;-;-;-;-;-;-;-;-
1514207663071;-;-;8.246124;-1.3022614;-1.0431824;-;-;-;-;-;-;-;-;-;-;-;-;-;-;-
1514207663091;-;-;9.172684;-1.6889191;-2.3384552;-;-;-;-;-;-;-;-;-;-;-;-;-;-;-
1514207663112;-;-;8.928467;-1.1981049;-3.5056305;-;-;-;-;-;-;-;-;-;-;-;-;-;-;-
1514207663131;-;-;8.5633545;-0.61990356;-3.5499115;-;-;-;-;-;-;-;-;-;-;-;-;-;-;-
1514207663151;-;-;7.573349;0.457489;-3.1345215;-;-;-;-;-;-;-;-;-;-;-;-;-;-;-
1514207663171;-;-;7.111267;1.4079895;-2.483307;-;-;-;-;-;-;-;-;-;-;-;-;-;-;-
1514207663192;-;-;6.7641144;1.9849854;-3.1860046;-;-;-;-;-;-;-;-;-;-;-;-;-;-;-
1514207663213;-;-;6.8479004;2.011322;-4.204727;-;-;-;-;-;-;-;-;-;-;-;-;-;-;-
1514207663234;-;-;6.849106;2.1430054;-3.9126434;-;-;-;-;-;-;-;-;-;-;-;-;-;-;-
1514207663254;-;-;6.580948;1.8281708;-3.950943;-;-;-;-;-;-;-;-;-;-;-;-;-;-;-
1514207663274;-;-;6.1511993;0.8597107;-3.7941284;-;-;-;-;-;-;-;-;-;-;-;-;-;-;-
1514207663294;-;-;6.4049835;0.19293213;-3.724701;-;-;-;-;-;-;-;-;-;-;-;-;-;-;-
1514207663315;-;-;6.427719;-0.34217834;-3.7115326;-;-;-;-;-;-;-;-;-;-;-;-;-;-;-
1514207663335;-;-;6.723404;-1.0616302;-3.5954132;-;-;-;-;-;-;-;-;-;-;-;-;-;-;-
1514207663355;-;-;7.214218;-1.5165405;-4.186783;-;-;-;-;-;-;-;-;-;-;-;-;-;-;-
1514207663376;-;-;8.418503;-1.3262024;-4.7709656;-;-;-;-;-;-;-;-;-;-;-;-;-;-;-
1514207663396;-;-;8.9787445;-1.194519;-4.9253845;-;-;-;-;-;-;-;-;-;-;-;-;-;-;-
1514207663416;-;-;9.73172;-0.9682617;-4.0562897;-;-;-;-;-;-;-;-;-;-;-;-;-;-;-
1514207663436;-;-;9.400131;-0.43675232;-4.11615;-;-;-;-;-;-;-;-;-;-;-;-;-;-;-
1514207663457;-;-;8.383789;-0.58639526;-4.3435974;-;-;-;-;-;-;-;-;-;-;-;-;-;-;-
1514207663477;-;-;7.7409363;-0.5061798;-4.5925903;-;-;-;-;-;-;-;-;-;-;-;-;-;-;-
1514207663497;-;-;7.810379;-1.012558;-4.630905;-;-;-;-;-;-;-;-;-;-;-;-;-;-;-
1514207663517;-;-;8.106064;-1.5572357;-5.053482;-;-;-;-;-;-;-;-;-;-;-;-;-;-;-
1514207663537;-;-;8.972763;-1.7583466;-5.417389;-;-;-;-;-;-;-;-;-;-;-;-;-;-;-
1514207663558;-;-;9.359421;-1.8876343;-5.5766144;-;-;-;-;-;-;-;-;-;-;-;-;-;-;-
1514207663578;-;-;9.015854;-2.2348022;-5.4987946;-;-;-;-;-;-;-;-;-;-;-;-;-;-;-
1514207663598;-;-;10.242889;-2.4706268;-5.0247498;-;-;-;-;-;-;-;-;-;-;-;-;-;-;-
1514207663618;-;-;9.5737;-2.7423706;-4.9158173;-;-;-;-;-;-;-;-;-;-;-;-;-;-;-
1514207663639;-;-;9.342667;-2.1605682;-4.234665;-;-;-;-;-;-;-;-;-;-;-;-;-;-;-
1514207663660;-;-;8.997894;-1.953476;-4.3040924;-;-;-;-;-;-;-;-;-;-;-;-;-;-;-
1514207663680;-;-;9.167892;-1.3106384;-3.7977142;-;-;-;-;-;-;-;-;-;-;-;-;-;-;-
1514207663700;-;-;9.390549;-1.2124786;-4.425003;-;-;-;-;-;-;-;-;-;-;-;-;-;-;-
1514207663721;-;-;9.480331;-1.3764801;-4.3663483;-;-;-;-;-;-;-;-;-;-;-;-;-;-;-
1514207663741;-;-;9.4133;-1.4626617;-4.559067;-;-;-;-;-;-;-;-;-;-;-;-;-;-;-
1514207663761;-;-;9.74968;-1.3106384;-3.9928436;-;-;-;-;-;-;-;-;-;-;-;-;-;-;-
1514207663781;-;-;9.668274;-1.1334686;-4.0155945;-;-;-;-;-;-;-;-;-;-;-;-;-;-;-
1514207663802;-;-;9.390549;-0.6330719;-3.4230194;-;-;-;-;-;-;-;-;-;-;-;-;-;-;-
1514207663822;-;-;9.304352;-0.3972473;-3.85997;-;-;-;-;-;-;-;-;-;-;-;-;-;-;-
1514207663842;-;-;9.517441;-0.41281128;-4.0323486;-;-;-;-;-;-;-;-;-;-;-;-;-;-;-
1514207663863;-;-;9.8645935;-0.16619873;-4.385498;-;-;-;-;-;-;-;-;-;-;-;-;-;-;-
1514207663882;-;-;11.331055;0.04447937;-3.8647614;-;-;-;-;-;-;-;-;-;-;-;-;-;-;-
1514207663902;-;-;12.489838;0.16419983;-4.03714;-;-;-;-;-;-;-;-;-;-;-;-;-;-;-
1514207663922;-;-;13.9874115;0.3222046;-4.472885;-;-;-;-;-;-;-;-;-;-;-;-;-;-;-
1514207663943;-;-;13.606735;1.1374359;-5.2210693;-;-;-;-;-;-;-;-;-;-;-;-;-;-;-
1514207663963;-;-;14.3585205;-1.5572357;-3.1428986;-;-;-;-;-;-;-;-;-;-;-;-;-;-;-
1514207663983;-;-;11.799118;-0.25;-0.5236511;-;-;-;-;-;-;-;-;-;-;-;-;-;-;-
1514207664003;-;-;9.767639;0.4766388;-0.39076233;-;-;-;-;-;-;-;-;-;-;-;-;-;-;-
1514207664024;-;-;7.3973694;1.7647247;0.5800781;-;-;-;-;-;-;-;-;-;-;-;-;-;-;-
1514207664044;-;-;5.152817;1.8066101;0.17425537;-;-;-;-;-;-;-;-;-;-;-;-;-;-;-
1514207664064;-;-;4.7362213;1.4043884;-0.76187134;-;-;-;-;-;-;-;-;-;-;-;-;-;-;-
1514207664085;-;-;5.288086;0.25637817;-1.6130066;-;-;-;-;-;-;-;-;-;-;-;-;-;-;-
1514207664105;-;-;6.2864685;-0.85214233;-2.0702972;-;-;-;-;-;-;-;-;-;-;-;-;-;-;-
1514207664125;-;-;7.7205963;-1.1011353;-1.1066284;-;-;-;-;-;-;-;-;-;-;-;-;-;-;-
1514207664146;-;-;9.742493;-0.7886963;-0.7283478;-;-;-;-;-;-;-;-;-;-;-;-;-;-;-
1514207664166;-;-;11.080856;-0.29071045;0.084472656;-;-;-;-;-;-;-;-;-;-;-;-;-;-;-
1514207664186;-;-;11.584839;0.12948608;0.60762024;-;-;-;-;-;-;-;-;-;-;-;-;-;-;-
1514207664207;-;-;11.023392;0.35812378;0.22813416;-;-;-;-;-;-;-;-;-;-;-;-;-;-;-
1514207664227;-;-;9.7017975;0.30426025;0.027023315;-;-;-;-;-;-;-;-;-;-;-;-;-;-;-
1514207664247;-;-;8.48674;0.714859;0.4100952;-;-;-;-;-;-;-;-;-;-;-;-;-;-;-
1514207664269;-;-;7.829529;0.7256317;0.49388123;-;-;-;-;-;-;-;-;-;-;-;-;-;-;-
1514207664288;-;-;7.4572296;0.53289795;0.46276855;-;-;-;-;-;-;-;-;-;-;-;-;-;-;-
1514207664310;-;-;7.8283386;0.0049743652;0.5190277;-;-;-;-;-;-;-;-;-;-;-;-;-;-;-
1514207664330;-;-;8.527435;-0.14944458;0.21975708;-;-;-;-;-;-;-;-;-;-;-;-;-;-;-
1514207664350;-;-;9.046982;-0.11114502;-0.19444275;-;-;-;-;-;-;-;-;-;-;-;-;-;-;-
1514207664371;-;-;9.06134;-0.0069885254;-0.34288025;-;-;-;-;-;-;-;-;-;-;-;-;-;-;-
1514207664391;-;-;9.085281;-0.07043457;-0.28781128;-;-;-;-;-;-;-;-;-;-;-;-;-;-;-
1514207664411;-;-;9.09845;-0.02015686;-0.13697815;-;-;-;-;-;-;-;-;-;-;-;-;-;-;-
1514207664431;-;-;9.227737;0.2707367;0.10961914;-;-;-;-;-;-;-;-;-;-;-;-;-;-;-
1514207664452;-;-;8.936844;0.72802734;0.036590576;-;-;-;-;-;-;-;-;-;-;-;-;-;-;-
1514207664472;-;-;9.641937;0.66578674;-0.18127441;-;-;-;-;-;-;-;-;-;-;-;-;-;-;-
1514207664492;-;-;10.169861;0.19770813;-0.3835907;-;-;-;-;-;-;-;-;-;-;-;-;-;-;-
1514207664512;-;-;9.73172;-0.29429626;-0.80137634;-;-;-;-;-;-;-;-;-;-;-;-;-;-;-
1514207664533;-;-;9.77243;-0.38526917;-0.7199707;-;-;-;-;-;-;-;-;-;-;-;-;-;-;-
1514207664553;-;-;10.7456665;-0.090789795;-0.7522888;-;-;-;-;-;-;-;-;-;-;-;-;-;-;-
1514207664573;-;-;10.903687;0.32460022;-1.1928253;-;-;-;-;-;-;-;-;-;-;-;-;-;-;-
1514207664594;-;-;10.70137;0.24559021;-1.2131805;-;-;-;-;-;-;-;-;-;-;-;-;-;-;-
1514207664613;-;-;10.436813;-0.042907715;0.115600586;-;-;-;-;-;-;-;-;-;-;-;-;-;-;-
1514207664633;-;-;9.641937;-0.2799225;0.070114136;-;-;-;-;-;-;-;-;-;-;-;-;-;-;-
1514207664653;-;-;9.128387;-0.30986023;0.03540039;-;-;-;-;-;-;-;-;-;-;-;-;-;-;-
1514207664674;-;-;8.996704;0.04208374;0.27482605;-;-;-;-;-;-;-;-;-;-;-;-;-;-;-
1514207664695;-;-;8.4687805;-0.3541565;0.44480896;-;-;-;-;-;-;-;-;-;-;-;-;-;-;-
1514207664716;-;-;8.941635;-0.57681274;-0.56555176;-;-;-;-;-;-;-;-;-;-;-;-;-;-;-
1514207664736;-;-;10.30513;-0.25239563;-1.2478943;-;-;-;-;-;-;-;-;-;-;-;-;-;-;-
1514207664756;-;-;10.525406;-0.502594;-1.1293793;-;-;-;-;-;-;-;-;-;-;-;-;-;-;-
1514207664777;-;-;11.320282;-0.7276459;-0.69602966;-;-;-;-;-;-;-;-;-;-;-;-;-;-;-
1514207664797;-;-;9.747284;-0.4271698;-0.70321655;-;-;-;-;-;-;-;-;-;-;-;-;-;-;-
1514207664817;-;-;8.997894;0.117507935;0.27960205;-;-;-;-;-;-;-;-;-;-;-;-;-;-;-
1514207664838;-;-;9.65271;-0.1877594;-0.6840515;-;-;-;-;-;-;-;-;-;-;-;-;-;-;-
1514207664858;-;-;9.857422;1.0787811;0.103637695;-;-;-;-;-;-;-;-;-;-;-;-;-;-;-
1514207664878;-;-;8.220978;0.110321045;-0.417099;-;-;-;-;-;-;-;-;-;-;-;-;-;-;-
1514207664898;-;-;8.175491;0.28271484;-3.6804047;-;-;-;-;-;-;-;-;-;-;-;-;-;-;-
1514207664919;-;-;7.5230713;0.23242188;-4.887085;-;-;-;-;-;-;-;-;-;-;-;-;-;-;-
1514207664939;-;-;7.805588;0.7842865;-1.6788483;-;-;-;-;-;-;-;-;-;-;-;-;-;-;-
1514207664959;-;-;6.5797577;-0.045303345;0.5405731;-;-;-;-;-;-;-;-;-;-;-;-;-;-;-
1514207664979;-;-;5.775299;-0.24043274;-0.9115143;-;-;-;-;-;-;-;-;-;-;-;-;-;-;-
1514207664999;-;-;7.8355103;-0.5672302;0.20898438;-;-;-;-;-;-;-;-;-;-;-;-;-;-;-
1514207665019;-;-;8.619614;-0.81503296;-0.40393066;-;-;-;-;-;-;-;-;-;-;-;-;-;-;-
1514207665039;-;-;9.996277;-0.4056244;-0.012481689;-;-;-;-;-;-;-;-;-;-;-;-;-;-;-
1514207665059;-;-;10.422455;-0.6115265;0.086868286;-;-;-;-;-;-;-;-;-;-;-;-;-;-;-
1514207665080;-;-;10.269226;-1.1765594;-0.68525696;-;-;-;-;-;-;-;-;-;-;-;-;-;-;-
1514207665100;-;-;10.495468;-1.8708801;-1.188034;-;-;-;-;-;-;-;-;-;-;-;-;-;-;-
1514207665120;-;-;10.890518;-2.1893005;-0.46499634;-;-;-;-;-;-;-;-;-;-;-;-;-;-;-
1514207665140;-;-;10.987488;-2.0971222;0.860199;-;-;-;-;-;-;-;-;-;-;-;-;-;-;-
1514207665161;-;-;9.216965;-1.5656128;0.26643372;-;-;-;-;-;-;-;-;-;-;-;-;-;-;-
1514207665182;-;-;8.813553;-1.0508575;-0.0053100586;-;-;-;-;-;-;-;-;-;-;-;-;-;-;-
1514207665202;-;-;11.651871;-2.1007233;-0.08192444;-;-;-;-;-;-;-;-;-;-;-;-;-;-;-
1514207665222;-;-;10.071701;-1.7308197;-0.96777344;-;-;-;-;-;-;-;-;-;-;-;-;-;-;-
1514207665243;-;-;6.961624;-1.1609955;-1.6249847;-;-;-;-;-;-;-;-;-;-;-;-;-;-;-
1514207665263;-;-;6.5785522;-1.412384;0.9200592;-;-;-;-;-;-;-;-;-;-;-;-;-;-;-
1514207665283;-;-;5.6376343;-1.7164459;0.6207886;-;-;-;-;-;-;-;-;-;-;-;-;-;-;-
1514207665303;-;-;9.427658;-1.6841278;2.3673553;-;-;-;-;-;-;-;-;-;-;-;-;-;-;-
1514207665324;-;-;9.826294;-1.9881897;0.13237;-;-;-;-;-;-;-;-;-;-;-;-;-;-;-
1514207665344;-;-;9.51265;-1.3764801;-0.77264404;-;-;-;-;-;-;-;-;-;-;-;-;-;-;-
1514207665364;-;-;10.184219;-1.9008026;0.18504333;-;-;-;-;-;-;-;-;-;-;-;-;-;-;-
1514207665385;-;-;9.880157;-2.009735;1.8190765;-;-;-;-;-;-;-;-;-;-;-;-;-;-;-
1514207665405;-;-;9.597641;-0.6426544;3.0556793;-;-;-;-;-;-;-;-;-;-;-;-;-;-;-
1514207665425;-;-;9.509064;-0.28352356;1.1475067;-;-;-;-;-;-;-;-;-;-;-;-;-;-;-
1514207665445;-;-;10.768417;-1.0496674;1.136734;-;-;-;-;-;-;-;-;-;-;-;-;-;-;-
1514207665466;-;-;11.554901;-1.0580444;1.7137299;-;-;-;-;-;-;-;-;-;-;-;-;-;-;-
1514207665486;-;-;11.45195;-0.8425598;1.5581055;-;-;-;-;-;-;-;-;-;-;-;-;-;-;-
1514207665507;-;-;8.987122;-0.5361023;0.07849121;-;-;-;-;-;-;-;-;-;-;-;-;-;-;-
1514207665527;-;-;6.6036987;-0.088394165;1.8573914;-;-;-;-;-;-;-;-;-;-;-;-;-;-;-
1514207665547;-;-;7.240555;-0.0010070801;2.2212982;-;-;-;-;-;-;-;-;-;-;-;-;-;-;-
1514207665567;-;-;6.937683;0.42396545;3.5979767;-;-;-;-;-;-;-;-;-;-;-;-;-;-;-
1514207665588;-;-;7.435684;0.15222168;3.2101135;-;-;-;-;-;-;-;-;-;-;-;-;-;-;-
1514207665608;-;-;10.926422;0.21806335;2.8629456;-;-;-;-;-;-;-;-;-;-;-;-;-;-;-
1514207665628;-;-;8.325134;-0.20930481;2.306305;-;-;-;-;-;-;-;-;-;-;-;-;-;-;-
1514207665649;-;-;9.822708;1.0368805;1.6047974;-;-;-;-;-;-;-;-;-;-;-;-;-;-;-
1514207665669;-;-;9.738907;0.65141296;3.0808258;-;-;-;-;-;-;-;-;-;-;-;-;-;-;-
1514207665689;-;-;9.479141;0.59994507;3.9571075;-;-;-;-;-;-;-;-;-;-;-;-;-;-;-
1514207665710;-;-;9.262466;1.2296143;3.2113037;-;-;-;-;-;-;-;-;-;-;-;-;-;-;-
1514207665730;-;-;7.295624;1.5935364;4.06723;-;-;-;-;-;-;-;-;-;-;-;-;-;-;-
1514207665750;-;-;6.904175;1.7335968;2.6917725;-;-;-;-;-;-;-;-;-;-;-;-;-;-;-
1514207665770;-;-;6.331955;1.5133209;2.659439;-;-;-;-;-;-;-;-;-;-;-;-;-;-;-
1514207665791;-;-;7.3255463;1.0045624;3.3154602;-;-;-;-;-;-;-;-;-;-;-;-;-;-;-
1514207665811;-;-;9.579697;1.5360718;2.046524;-;-;-;-;-;-;-;-;-;-;-;-;-;-;-
1514207665832;-;-;7.9025574;1.3110199;3.5572662;-;-;-;-;-;-;-;-;-;-;-;-;-;-;-
1514207665852;-;-;7.4967346;1.5360718;3.2699585;-;-;-;-;-;-;-;-;-;-;-;-;-;-;-
1514207665872;-;-;8.865021;1.1553955;3.1753998;-;-;-;-;-;-;-;-;-;-;-;-;-;-;-
1514207665892;-;-;8.475967;1.0715942;3.9343567;-;-;-;-;-;-;-;-;-;-;-;-;-;-;-
1514207665913;-;-;8.003113;1.2607422;4.4359436;-;-;-;-;-;-;-;-;-;-;-;-;-;-;-
1514207665933;-;-;7.5709534;1.7611237;3.852951;-;-;-;-;-;-;-;-;-;-;-;-;-;-;-
1514207665953;-;-;7.051407;2.0340729;3.876892;-;-;-;-;-;-;-;-;-;-;-;-;-;-;-
1514207665973;-;-;7.6391907;1.8329468;3.5907898;-;-;-;-;-;-;-;-;-;-;-;-;-;-;-
1514207665994;-;-;8.4448395;1.4247437;3.7559814;-;-;-;-;-;-;-;-;-;-;-;-;-;-;-
1514207666013;-;-;9.269638;1.3612976;3.4004517;-;-;-;-;-;-;-;-;-;-;-;-;-;-;-
1514207666033;-;-;8.558563;1.0428619;4.4287567;-;-;-;-;-;-;-;-;-;-;-;-;-;-;-
1514207666054;-;-;7.908539;1.0105438;4.0169525;-;-;-;-;-;-;-;-;-;-;-;-;-;-;-
1514207666073;-;-;6.996353;1.1757507;3.5225525;-;-;-;-;-;-;-;-;-;-;-;-;-;-;-
1514207666093;-;-;7.320755;1.5312805;4.0373077;-;-;-;-;-;-;-;-;-;-;-;-;-;-;-
1514207666113;-;-;10.350616;2.6266327;5.5265045;-;-;-;-;-;-;-;-;-;-;-;-;-;-;-
1514207666134;-;-;10.169861;1.4127655;4.777115;-;-;-;-;-;-;-;-;-;-;-;-;-;-;-
1514207666154;-;-;11.0820465;0.8597107;3.5776215;-;-;-;-;-;-;-;-;-;-;-;-;-;-;-
1514207666174;-;-;10.096832;1.279892;2.5780334;-;-;-;-;-;-;-;-;-;-;-;-;-;-;-
1514207666195;-;-;7.8642426;1.7419739;1.8059082;-;-;-;-;-;-;-;-;-;-;-;-;-;-;-
1514207666215;-;-;6.8239594;1.5863495;2.1578522;-;-;-;-;-;-;-;-;-;-;-;-;-;-;-
1514207666235;-;-;7.592499;0.98779297;3.1322937;-;-;-;-;-;-;-;-;-;-;-;-;-;-;-
1514207666257;-;-;8.043808;1.7850647;4.555649;-;-;-;-;-;-;-;-;-;-;-;-;-;-;-
1514207666277;-;-;7.28125;2.268692;7.730362;-;-;-;-;-;-;-;-;-;-;-;-;-;-;-
1514207666297;-;-;7.7732697;2.5117035;5.916748;-;-;-;-;-;-;-;-;-;-;-;-;-;-;-
1514207666318;-;-;8.569336;1.9825897;3.5596619;-;-;-;-;-;-;-;-;-;-;-;-;-;-;-
1514207666338;-;-;6.814392;1.5145264;3.717682;-;-;-;-;-;-;-;-;-;-;-;-;-;-;-
1514207666358;-;-;6.0410614;1.5456543;4.48143;-;-;-;-;-;-;-;-;-;-;-;-;-;-;-
1514207666379;-;-;7.110077;1.9610443;4.5628357;-;-;-;-;-;-;-;-;-;-;-;-;-;-;-
1514207666399;-;-;6.730591;1.9766083;4.5101624;-;-;-;-;-;-;-;-;-;-;-;-;-;-;-
1514207666419;-;-;6.236191;1.5145264;3.7631683;-;-;-;-;-;-;-;-;-;-;-;-;-;-;-
1514207666440;-;-;6.45047;1.4019928;3.852951;-;-;-;-;-;-;-;-;-;-;-;-;-;-;-
1514207666460;-;-;6.9819794;1.374466;3.3992462;-;-;-;-;-;-;-;-;-;-;-;-;-;-;-
1514207666480;-;-;7.9145203;0.91477966;3.3729095;-;-;-;-;-;-;-;-;-;-;-;-;-;-;-
1514207666500;-;-;9.196625;0.66937256;3.9295654;-;-;-;-;-;-;-;-;-;-;-;-;-;-;-
1514207666520;-;-;9.117615;0.6095123;5.6773376;-;-;-;-;-;-;-;-;-;-;-;-;-;-;-
1514207666541;-;-;7.2309723;1.8784485;4.263565;-;-;-;-;-;-;-;-;-;-;-;-;-;-;-
1514207666561;-;-;11.080856;1.6845093;3.9822388;-;-;-;-;-;-;-;-;-;-;-;-;-;-;-
1514207666581;-;-;10.302734;0.95547485;0.5262146;-;-;-;-;-;-;-;-;-;-;-;-;-;-;-
1514207666602;-;-;6.893402;0.70648193;6.8277435;-;-;-;-;-;-;-;-;-;-;-;-;-;-;-
1514207666622;-;-;4.3531494;0.8118286;7.5867157;-;-;-;-;-;-;-;-;-;-;-;-;-;-;-
1514207666642;-;-;7.2788696;0.8273926;5.594742;-;-;-;-;-;-;-;-;-;-;-;-;-;-;-
1514207666662;-;-;7.229782;0.62628174;5.7048645;-;-;-;-;-;-;-;-;-;-;-;-;-;-;-
1514207666683;-;-;7.2022552;0.4514923;4.331787;-;-;-;-;-;-;-;-;-;-;-;-;-;-;-
1514207666703;-;-;9.1918335;-0.22845459;5.4438934;-;-;-;-;-;-;-;-;-;-;-;-;-;-;-
1514207666724;-;-;9.205002;-0.3768921;7.4861603;-;-;-;-;-;-;-;-;-;-;-;-;-;-;-
1514207666744;-;-;8.946426;-0.56604004;5.6845245;-;-;-;-;-;-;-;-;-;-;-;-;-;-;-
1514207666764;-;-;7.4320984;0.88365173;5.9921722;-;-;-;-;-;-;-;-;-;-;-;-;-;-;-
1514207666785;-;-;8.177887;0.7866821;0.7835846;-;-;-;-;-;-;-;-;-;-;-;-;-;-;-
1514207666805;-;-;7.6020813;0.6466217;0.5669098;-;-;-;-;-;-;-;-;-;-;-;-;-;-;-
1514207666825;-;-;7.7373505;0.8405609;5.1158905;-;-;-;-;-;-;-;-;-;-;-;-;-;-;-
1514207666846;-;-;8.220978;0.5065613;5.873657;-;-;-;-;-;-;-;-;-;-;-;-;-;-;-
1514207666866;-;-;8.661514;-0.47146606;5.612686;-;-;-;-;-;-;-;-;-;-;-;-;-;-;-
1514207666886;-;-;6.62764;2.9414673;3.1346893;-;-;-;-;-;-;-;-;-;-;-;-;-;-;-
1514207666906;-;-;7.315979;-1.1598053;6.8433075;-;-;-;-;-;-;-;-;-;-;-;-;-;-;-
1514207666927;-;-;8.84108;0.62028503;3.659027;-;-;-;-;-;-;-;-;-;-;-;-;-;-;-
1514207666947;-;-;9.653915;0.541275;4.5412903;-;-;-;-;-;-;-;-;-;-;-;-;-;-;-
1514207666967;-;-;8.617218;0.14144897;4.512558;-;-;-;-;-;-;-;-;-;-;-;-;-;-;-
1514207666988;-;-;8.054581;0.052871704;4.0289307;-;-;-;-;-;-;-;-;-;-;-;-;-;-;-
1514207667008;-;-;6.8131866;0.9195709;4.3497467;-;-;-;-;-;-;-;-;-;-;-;-;-;-;-
1514207667029;-;-;6.9736023;-0.02255249;4.687332;-;-;-;-;-;-;-;-;-;-;-;-;-;-;-
1514207667049;-;-;8.704605;0.25398254;4.888443;-;-;-;-;-;-;-;-;-;-;-;-;-;-;-
1514207667068;-;-;9.189438;0.17616272;5.0883636;-;-;-;-;-;-;-;-;-;-;-;-;-;-;-
1514207667088;-;-;7.7648926;0.4479065;4.5305176;-;-;-;-;-;-;-;-;-;-;-;-;-;-;-
1514207667108;-;-;7.8199463;0.37487793;4.4862213;-;-;-;-;-;-;-;-;-;-;-;-;-;-;-
1514207667129;-;-;8.283234;-0.1817627;4.4910126;-;-;-;-;-;-;-;-;-;-;-;-;-;-;-
1514207667149;-;-;8.1371765;0.05645752;4.6143036;-;-;-;-;-;-;-;-;-;-;-;-;-;-;-
1514207667169;-;-;7.786438;0.26715088;4.5472717;-;-;-;-;-;-;-;-;-;-;-;-;-;-;-
1514207667190;-;-;8.237747;0.20370483;4.6598053;-;-;-;-;-;-;-;-;-;-;-;-;-;-;-
1514207667210;-;-;8.250916;0.0049743652;4.768738;-;-;-;-;-;-;-;-;-;-;-;-;-;-;-
1514207667230;-;-;8.049789;-0.4738617;4.87648;-;-;-;-;-;-;-;-;-;-;-;-;-;-;-
1514207667251;-;-;7.9815674;-0.6522217;4.71846;-;-;-;-;-;-;-;-;-;-;-;-;-;-;-
1514207667271;-;-;7.8642426;-0.38168335;4.726837;-;-;-;-;-;-;-;-;-;-;-;-;-;-;-
1514207667291;-;-;8.088104;-0.38049316;4.6837463;-;-;-;-;-;-;-;-;-;-;-;-;-;-;-
1514207667311;-;-;8.402939;-0.44273376;4.89682;-;-;-;-;-;-;-;-;-;-;-;-;-;-;-
1514207667332;-;-;8.213791;-0.3589325;4.7711334;-;-;-;-;-;-;-;-;-;-;-;-;-;-;-
1514207667353;-;-;7.9911346;-0.14346313;4.8190155;-;-;-;-;-;-;-;-;-;-;-;-;-;-;-
1514207667373;-;-;7.7062225;0.08279419;4.8262024;-;-;-;-;-;-;-;-;-;-;-;-;-;-;-
1514207667393;-;-;7.6475677;0.26715088;4.5939636;-;-;-;-;-;-;-;-;-;-;-;-;-;-;-
1514207667414;-;-;7.8319244;-0.17817688;5.29187;-;-;-;-;-;-;-;-;-;-;-;-;-;-;-
1514207667433;-;-;7.9899445;0.15222168;4.936325;-;-;-;-;-;-;-;-;-;-;-;-;-;-;-
1514207667453;-;-;7.909729;0.08518982;4.936325;-;-;-;-;-;-;-;-;-;-;-;-;-;-;-
1514207667474;-;-;7.779251;0.02053833;4.840561;-;-;-;-;-;-;-;-;-;-;-;-;-;-;-
1514207667494;-;-;7.9600067;-0.05128479;4.8070374;-;-;-;-;-;-;-;-;-;-;-;-;-;-;-
1514207667514;-;-;8.1707;-0.009384155;4.7807007;-;-;-;-;-;-;-;-;-;-;-;-;-;-;-
1514207667534;-;-;8.201828;-0.16021729;4.8429565;-;-;-;-;-;-;-;-;-;-;-;-;-;-;-
1514207667555;-;-;8.021072;-0.33021545;4.7830963;-;-;-;-;-;-;-;-;-;-;-;-;-;-;-
1514207667575;-;-;8.106064;-0.38526917;4.6921234;-;-;-;-;-;-;-;-;-;-;-;-;-;-;-
1514207667595;-;-;8.07254;-0.29908752;4.73761;-;-;-;-;-;-;-;-;-;-;-;-;-;-;-
1514207667616;-;-;8.039017;-0.20211792;4.698105;-;-;-;-;-;-;-;-;-;-;-;-;-;-;-
1514207667636;-;-;8.118027;-0.2679596;4.6885223;-;-;-;-;-;-;-;-;-;-;-;-;-;-;-
1514207667656;-;-;8.045013;-0.19493103;4.7232513;-;-;-;-;-;-;-;-;-;-;-;-;-;-;-
1514207667676;-;-;7.988739;-0.107543945;4.7040863;-;-;-;-;-;-;-;-;-;-;-;-;-;-;-
1514207667696;-;-;8.039017;-0.1530304;4.682541;-;-;-;-;-;-;-;-;-;-;-;-;-;-;-
1514207667717;-;-;7.7421417;-0.016571045;3.6087494;-;-;-;-;-;-;-;-;-;-;-;-;-;-;-
1514207667737;-;-;8.108459;0.12828064;4.456299;-;-;-;-;-;-;-;-;-;-;-;-;-;-;-
1514207667757;-;-;8.374207;-0.09916687;4.7280273;-;-;-;-;-;-;-;-;-;-;-;-;-;-;-
1514207667777;-;-;8.102463;-0.19493103;4.474243;-;-;-;-;-;-;-;-;-;-;-;-;-;-;-
1514207667798;-;-;8.055786;0.12588501;4.5269165;-;-;-;-;-;-;-;-;-;-;-;-;-;-;-
1514207667818;-;-;7.995926;0.33059692;4.947098;-;-;-;-;-;-;-;-;-;-;-;-;-;-;-
1514207667838;-;-;8.045013;0.12709045;4.6969147;-;-;-;-;-;-;-;-;-;-;-;-;-;-;-
1514207667858;-;-;7.9995117;-0.105148315;4.592758;-;-;-;-;-;-;-;-;-;-;-;-;-;-;-
1514207667879;-;-;8.07135;-0.097976685;4.666977;-;-;-;-;-;-;-;-;-;-;-;-;-;-;-
1514207667899;-;-;8.139572;0.02053833;4.725647;-;-;-;-;-;-;-;-;-;-;-;-;-;-;-
1514207667919;-;-;8.074936;0.024139404;4.656204;-;-;-;-;-;-;-;-;-;-;-;-;-;-;-
1514207667939;-;-;8.183868;-0.17578125;4.651413;-;-;-;-;-;-;-;-;-;-;-;-;-;-;-
1514207667960;-;-;8.066559;-0.16261292;4.6406403;-;-;-;-;-;-;-;-;-;-;-;-;-;-;-
1514207667980;-;-;8.079727;-0.08720398;4.7172546;-;-;-;-;-;-;-;-;-;-;-;-;-;-;-
1514207668001;-;-;8.097687;-0.047698975;4.6813507;-;-;-;-;-;-;-;-;-;-;-;-;-;-;-
1514207668022;-;-;8.016281;-0.02973938;4.6681824;-;-;-;-;-;-;-;-;-;-;-;-;-;-;-
1514207668042;-;-;8.09169;-0.02734375;4.5963593;-;-;-;-;-;-;-;-;-;-;-;-;-;-;-
1514207668062;-;-;8.021072;-0.10395813;4.631073;-;-;-;-;-;-;-;-;-;-;-;-;-;-;-
1514207668082;-;-;8.144363;-0.17098999;4.6586;-;-;-;-;-;-;-;-;-;-;-;-;-;-;-
1514207668103;-;-;8.062958;-0.12310791;4.675354;-;-;-;-;-;-;-;-;-;-;-;-;-;-;-
1514207668123;-;-;8.001907;-0.09437561;4.583191;-;-;-;-;-;-;-;-;-;-;-;-;-;-;-
1514207668143;-;-;8.1324005;-0.15184021;4.671768;-;-;-;-;-;-;-;-;-;-;-;-;-;-;-
1514207668163;-;-;8.085709;-0.1817627;4.662201;-;-;-;-;-;-;-;-;-;-;-;-;-;-;-
1514207668183;-;-;8.118027;-0.069244385;4.7052917;-;-;-;-;-;-;-;-;-;-;-;-;-;-;-
1514207668204;-;-;8.035431;-0.117126465;4.6645813;-;-;-;-;-;-;-;-;-;-;-;-;-;-;-
1514207668224;-;-;8.096481;-0.18296814;4.6801453;-;-;-;-;-;-;-;-;-;-;-;-;-;-;-
1514207668244;-;-;8.349075;-0.47505188;4.7914734;-;-;-;-;-;-;-;-;-;-;-;-;-;-;-
1514207668265;-;-;7.6511536;0.107925415;4.453903;-;-;-;-;-;-;-;-;-;-;-;-;-;-;-
1514207668285;-;-;8.217392;-0.03453064;5.0883636;-;-;-;-;-;-;-;-;-;-;-;-;-;-;-
1514207668305;-;-;8.139572;-0.16500854;4.6011353;-;-;-;-;-;-;-;-;-;-;-;-;-;-;-
1514207668325;-;-;8.401749;-0.28710938;4.3796844;-;-;-;-;-;-;-;-;-;-;-;-;-;-;-
1514207668346;-;-;8.216187;0.16897583;4.473053;-;-;-;-;-;-;-;-;-;-;-;-;-;-;-
1514207668367;-;-;8.3897705;-0.03691101;4.690918;-;-;-;-;-;-;-;-;-;-;-;-;-;-;-
1514207668387;-;-;8.238937;-0.19013977;5.1781464;-;-;-;-;-;-;-;-;-;-;-;-;-;-;-
1514207668433;-;-;8.1371765;-0.02734375;4.7196503;-;-;-;-;-;-;-;-;-;-;-;-;-;-;-
1514207668433;-;-;8.1371765;-0.02734375;4.7196503;-;-;-;-;-;-;-;-;-;-;-;-;-;-;-
1514207668448;-;-;8.1324005;-0.09197998;4.6382446;-;-;-;-;-;-;-;-;-;-;-;-;-;-;-
1514207668468;-;-;8.077332;-0.117126465;4.607132;-;-;-;-;-;-;-;-;-;-;-;-;-;-;-
1514207668489;-;-;8.034241;-0.109939575;4.650223;-;-;-;-;-;-;-;-;-;-;-;-;-;-;-
1514207668511;-;-;7.9827576;-0.03691101;4.6993103;-;-;-;-;-;-;-;-;-;-;-;-;-;-;-
1514207668532;-;-;8.096481;-0.0069885254;4.689728;-;-;-;-;-;-;-;-;-;-;-;-;-;-;-
1514207668552;-;-;8.126404;-0.102752686;4.651413;-;-;-;-;-;-;-;-;-;-;-;-;-;-;-
1514207668572;-;-;8.077332;-0.21409607;4.610718;-;-;-;-;-;-;-;-;-;-;-;-;-;-;-
1514207668593;-;-;8.106064;-0.17459106;4.682541;-;-;-;-;-;-;-;-;-;-;-;-;-;-;-
1514207668613;-;-;8.088104;-0.10395813;4.6598053;-;-;-;-;-;-;-;-;-;-;-;-;-;-;-
1514207668634;-;-;8.018677;-0.09916687;4.656204;-;-;-;-;-;-;-;-;-;-;-;-;-;-;-
1514207668655;-;-;8.103668;-0.057266235;4.5903625;-;-;-;-;-;-;-;-;-;-;-;-;-;-;-
1514207668677;-;-;8.135986;-0.08480835;4.592758;-;-;-;-;-;-;-;-;-;-;-;-;-;-;-
1514207668697;-;-;7.9827576;-0.17936707;4.5496674;-;-;-;-;-;-;-;-;-;-;-;-;-;-;-
1514207668717;-;-;8.133591;-0.20211792;4.610718;-;-;-;-;-;-;-;-;-;-;-;-;-;-;-
1514207668737;-;-;8.115631;-0.035720825;4.7076874;-;-;-;-;-;-;-;-;-;-;-;-;-;-;-
1514207668757;-;-;8.210205;0.013366699;4.5987396;-;-;-;-;-;-;-;-;-;-;-;-;-;-;-
1514207668777;-;-;8.074936;-0.069244385;4.4862213;-;-;-;-;-;-;-;-;-;-;-;-;-;-;-
1514207668798;-;-;8.098877;-0.11831665;4.4706573;-;-;-;-;-;-;-;-;-;-;-;-;-;-;-
1514207668818;-;-;8.103668;-0.18057251;4.488617;-;-;-;-;-;-;-;-;-;-;-;-;-;-;-
1514207668839;-;-;8.1922455;-0.11352539;4.5975494;-;-;-;-;-;-;-;-;-;-;-;-;-;-;-
1514207668859;-;-;8.235352;-0.13627625;4.512558;-;-;-;-;-;-;-;-;-;-;-;-;-;-;-
1514207668879;-;-;8.203018;-0.6294861;4.259964;-;-;-;-;-;-;-;-;-;-;-;-;-;-;-
1514207668899;-;-;8.167114;-0.57681274;4.458679;-;-;-;-;-;-;-;-;-;-;-;-;-;-;-
1514207668920;-;-;7.881012;-0.28831482;4.3413696;-;-;-;-;-;-;-;-;-;-;-;-;-;-;-
1514207668940;-;-;7.6822815;0.4407196;4.6813507;-;-;-;-;-;-;-;-;-;-;-;-;-;-;-
1514207668960;-;-;8.371811;0.99497986;4.6609955;-;-;-;-;-;-;-;-;-;-;-;-;-;-;-
1514207668981;-;-;8.572922;0.30426025;4.1474457;-;-;-;-;-;-;-;-;-;-;-;-;-;-;-
1514207669001;-;-;8.288025;0.088775635;4.283905;-;-;-;-;-;-;-;-;-;-;-;-;-;-;-
1514207669021;-;-;8.52504;-0.37330627;4.1713867;-;-;-;-;-;-;-;-;-;-;-;-;-;-;-
1514207669042;-;-;8.246124;-0.48703003;4.282715;-;-;-;-;-;-;-;-;-;-;-;-;-;-;-
1514207669062;-;-;8.23056;-0.7108917;4.2132874;-;-;-;-;-;-;-;-;-;-;-;-;-;-;-
1514207669082;-;-;8.1766815;-0.46188354;4.327011;-;-;-;-;-;-;-;-;-;-;-;-;-;-;-
1514207669102;-;-;8.252106;-0.25958252;4.216873;-;-;-;-;-;-;-;-;-;-;-;-;-;-;-
1514207669123;-;-;8.212601;-0.015365601;4.2659607;-;-;-;-;-;-;-;-;-;-;-;-;-;-;-
1514207669144;-;-;8.24852;0.2192688;4.2072906;-;-;-;-;-;-;-;-;-;-;-;-;-;-;-
1514207669164;-;-;8.334702;0.043289185;4.2899017;-;-;-;-;-;-;-;-;-;-;-;-;-;-;-
1514207669184;-;-;8.922485;-0.5648346;3.9762573;-;-;-;-;-;-;-;-;-;-;-;-;-;-;-
1514207669205;-;-;8.157532;-0.68933105;4.0013885;-;-;-;-;-;-;-;-;-;-;-;-;-;-;-
1514207669225;-;-;8.224579;-0.03213501;4.425171;-;-;-;-;-;-;-;-;-;-;-;-;-;-;-
1514207669245;-;-;8.295197;0.50057983;4.464676;-;-;-;-;-;-;-;-;-;-;-;-;-;-;-
1514207669266;-;-;8.320343;-0.08480835;4.1953278;-;-;-;-;-;-;-;-;-;-;-;-;-;-;-
1514207669286;-;-;8.074936;-0.44631958;4.0959625;-;-;-;-;-;-;-;-;-;-;-;-;-;-;-
1514207669306;-;-;7.9839478;-0.5756073;4.1941223;-;-;-;-;-;-;-;-;-;-;-;-;-;-;-
1514207669327;-;-;8.323929;-0.35176086;4.2144775;-;-;-;-;-;-;-;-;-;-;-;-;-;-;-
1514207669346;-;-;8.085709;-0.1302948;4.16539;-;-;-;-;-;-;-;-;-;-;-;-;-;-;-
1514207669366;-;-;8.084518;-0.12550354;4.220459;-;-;-;-;-;-;-;-;-;-;-;-;-;-;-
1514207669386;-;-;8.315552;-0.05847168;4.4718475;-;-;-;-;-;-;-;-;-;-;-;-;-;-;-
1514207669407;-;-;8.440048;0.013366699;4.0600586;-;-;-;-;-;-;-;-;-;-;-;-;-;-;-
1514207669427;-;-;8.299988;-0.21409607;4.0373077;-;-;-;-;-;-;-;-;-;-;-;-;-;-;-
1514207669447;-;-;8.629196;-0.19134521;3.9894257;-;-;-;-;-;-;-;-;-;-;-;-;-;-;-
1514207669468;-;-;8.510681;-0.28352356;4.1199036;-;-;-;-;-;-;-;-;-;-;-;-;-;-;-
1514207669487;-;-;8.507095;-0.3649292;4.5388947;-;-;-;-;-;-;-;-;-;-;-;-;-;-;-
1514207669507;-;-;7.9815674;-0.050079346;4.592758;-;-;-;-;-;-;-;-;-;-;-;-;-;-;-
1514207669527;-;-;7.9360657;-0.46188354;4.338974;-;-;-;-;-;-;-;-;-;-;-;-;-;-;-
1514207669548;-;-;8.485535;-0.29908752;4.841751;-;-;-;-;-;-;-;-;-;-;-;-;-;-;-
1514207669568;-;-;8.632782;-0.6318817;4.113922;-;-;-;-;-;-;-;-;-;-;-;-;-;-;-
1514207669588;-;-;8.1324005;-0.33021545;4.078003;-;-;-;-;-;-;-;-;-;-;-;-;-;-;-
1514207669609;-;-;8.455612;-0.1925354;4.3521423;-;-;-;-;-;-;-;-;-;-;-;-;-;-;-
1514207669629;-;-;8.395752;-0.25958252;4.1582184;-;-;-;-;-;-;-;-;-;-;-;-;-;-;-
1514207669650;-;-;8.07254;-0.22247314;3.9774475;-;-;-;-;-;-;-;-;-;-;-;-;-;-;-
1514207669669;-;-;8.141968;-0.49780273;4.208496;-;-;-;-;-;-;-;-;-;-;-;-;-;-;-
1514207669689;-;-;8.282028;-0.4559021;4.021744;-;-;-;-;-;-;-;-;-;-;-;-;-;-;-
1514207669710;-;-;7.9743805;-0.45948792;4.2072906;-;-;-;-;-;-;-;-;-;-;-;-;-;-;-
1514207669729;-;-;8.24971;-0.6929321;4.098358;-;-;-;-;-;-;-;-;-;-;-;-;-;-;-
1514207669749;-;-;8.888962;-0.6725769;3.5369263;-;-;-;-;-;-;-;-;-;-;-;-;-;-;-
1514207669770;-;-;8.048599;-0.6354675;4.1354675;-;-;-;-;-;-;-;-;-;-;-;-;-;-;-
1514207669790;-;-;8.544205;-0.5648346;4.2252502;-;-;-;-;-;-;-;-;-;-;-;-;-;-;-
1514207669810;-;-;8.529831;-0.39604187;4.0397034;-;-;-;-;-;-;-;-;-;-;-;-;-;-;-
1514207669830;-;-;8.351471;-0.46548462;3.9918213;-;-;-;-;-;-;-;-;-;-;-;-;-;-;-
1514207669851;-;-;8.697433;-0.5540619;3.9439392;-;-;-;-;-;-;-;-;-;-;-;-;-;-;-
1514207669871;-;-;8.474762;-0.47865295;3.8733063;-;-;-;-;-;-;-;-;-;-;-;-;-;-;-
1514207669891;-;-;8.395752;-0.5444946;4.100754;-;-;-;-;-;-;-;-;-;-;-;-;-;-;-
1514207669911;-;-;8.340698;-0.4163971;4.180954;-;-;-;-;-;-;-;-;-;-;-;-;-;-;-
1514207669932;-;-;8.228165;-0.46188354;3.836197;-;-;-;-;-;-;-;-;-;-;-;-;-;-;-
1514207669952;-;-;8.771652;-0.636673;3.9211884;-;-;-;-;-;-;-;-;-;-;-;-;-;-;-
1514207669972;-;-;8.32753;-0.5504761;4.2575684;-;-;-;-;-;-;-;-;-;-;-;-;-;-;-
1514207669992;-;-;7.748123;-0.11592102;4.55925;-;-;-;-;-;-;-;-;-;-;-;-;-;-;-
1514207670012;-;-;8.390976;-0.25;4.3341827;-;-;-;-;-;-;-;-;-;-;-;-;-;-;-
1514207670033;-;-;8.247314;-0.10395813;3.4710846;-;-;-;-;-;-;-;-;-;-;-;-;-;-;-
1514207670053;-;-;8.668701;-0.48703003;2.963501;-;-;-;-;-;-;-;-;-;-;-;-;-;-;-
1514207670073;-;-;8.074936;-0.19134521;3.7440186;-;-;-;-;-;-;-;-;-;-;-;-;-;-;-
1514207670094;-;-;8.337097;-0.48223877;5.252365;-;-;-;-;-;-;-;-;-;-;-;-;-;-;-
1514207670114;-;-;8.232956;-0.069244385;4.887253;-;-;-;-;-;-;-;-;-;-;-;-;-;-;-
1514207670134;-;-;8.532227;0.16299438;0.9882965;-;-;-;-;-;-;-;-;-;-;-;-;-;-;-
1514207670155;-;-;6.2194214;-3.8856049;7.632202;-;-;-;-;-;-;-;-;-;-;-;-;-;-;-
1514207670175;-;-;10.839035;1.1410217;3.5848083;-;-;-;-;-;-;-;-;-;-;-;-;-;-;-
1514207670196;-;-;10.665466;0.57240295;2.9371643;-;-;-;-;-;-;-;-;-;-;-;-;-;-;-
1514207670215;-;-;8.916504;-0.6641998;5.039276;-;-;-;-;-;-;-;-;-;-;-;-;-;-;-
1514207670236;-;-;8.229355;0.3509369;4.512558;-;-;-;-;-;-;-;-;-;-;-;-;-;-;-
1514207670256;-;-;8.558563;0.25875854;3.5536804;-;-;-;-;-;-;-;-;-;-;-;-;-;-;-
1514207670276;-;-;6.3930054;-0.14944458;4.378479;-;-;-;-;-;-;-;-;-;-;-;-;-;-;-
1514207670297;-;-;8.6028595;-0.07522583;4.172577;-;-;-;-;-;-;-;-;-;-;-;-;-;-;-
1514207670317;-;-;9.501877;0.4467163;4.2863007;-;-;-;-;-;-;-;-;-;-;-;-;-;-;-
1514207670337;-;-;8.552582;-0.05128479;4.1558228;-;-;-;-;-;-;-;-;-;-;-;-;-;-;-
1514207670358;-;-;6.5163116;0.3569336;3.9499207;-;-;-;-;-;-;-;-;-;-;-;-;-;-;-
1514207670378;-;-;7.134018;0.52212524;5.410385;-;-;-;-;-;-;-;-;-;-;-;-;-;-;-
1514207670398;-;-;8.250916;-0.6139221;3.5057983;-;-;-;-;-;-;-;-;-;-;-;-;-;-;-
1514207670419;-;-;8.526245;0.4084015;2.4858704;-;-;-;-;-;-;-;-;-;-;-;-;-;-;-
1514207670439;-;-;8.430481;0.20610046;3.508194;-;-;-;-;-;-;-;-;-;-;-;-;-;-;-
1514207670459;-;-;8.097687;-0.50138855;4.4993896;-;-;-;-;-;-;-;-;-;-;-;-;-;-;-
1514207670479;-;-;9.366608;-0.6103363;3.726059;-;-;-;-;-;-;-;-;-;-;-;-;-;-;-
1514207670500;-;-;8.619614;-0.16381836;3.4998016;-;-;-;-;-;-;-;-;-;-;-;-;-;-;-
1514207670521;-;-;6.5115204;1.7443695;3.1167297;-;-;-;-;-;-;-;-;-;-;-;-;-;-;-
1514207670541;-;-;9.702988;-0.4056244;3.0592804;-;-;-;-;-;-;-;-;-;-;-;-;-;-;-
1514207670561;-;-;11.620743;-1.7822876;3.9822388;-;-;-;-;-;-;-;-;-;-;-;-;-;-;-
1514207670582;-;-;10.153107;-1.2316284;4.6059265;-;-;-;-;-;-;-;-;-;-;-;-;-;-;-
1514207670602;-;-;7.197464;-0.92277527;3.389679;-;-;-;-;-;-;-;-;-;-;-;-;-;-;-
1514207670623;-;-;6.9736023;0.4766388;4.1127167;-;-;-;-;-;-;-;-;-;-;-;-;-;-;-
1514207670642;-;-;8.0928955;1.3385468;3.647049;-;-;-;-;-;-;-;-;-;-;-;-;-;-;-
1514207670663;-;-;9.339081;-0.8748932;3.619522;-;-;-;-;-;-;-;-;-;-;-;-;-;-;-
1514207670683;-;-;8.201828;-0.5097656;0.5860596;-;-;-;-;-;-;-;-;-;-;-;-;-;-;-
1514207670703;-;-;9.090073;-1.1777496;3.5057983;-;-;-;-;-;-;-;-;-;-;-;-;-;-;-
1514207670724;-;-;8.381393;-0.40802002;2.5145874;-;-;-;-;-;-;-;-;-;-;-;-;-;-;-
1514207670744;-;-;8.740524;-0.1769867;3.3286285;-;-;-;-;-;-;-;-;-;-;-;-;-;-;-
1514207670764;-;-;8.560959;-0.1985321;3.022171;-;-;-;-;-;-;-;-;-;-;-;-;-;-;-
1514207670785;-;-;8.666306;-0.22845459;2.9132233;-;-;-;-;-;-;-;-;-;-;-;-;-;-;-
1514207670805;-;-;8.9787445;-0.4774475;2.8473816;-;-;-;-;-;-;-;-;-;-;-;-;-;-;-
1514207670825;-;-;9.331894;-0.72525024;2.9970245;-;-;-;-;-;-;-;-;-;-;-;-;-;-;-
1514207670846;-;-;8.964386;-0.660614;2.5864258;-;-;-;-;-;-;-;-;-;-;-;-;-;-;-
1514207670866;-;-;8.722565;-0.50138855;2.5816345;-;-;-;-;-;-;-;-;-;-;-;-;-;-;-
1514207670886;-;-;8.598068;-0.33859253;2.3015137;-;-;-;-;-;-;-;-;-;-;-;-;-;-;-
1514207670907;-;-;8.887772;-0.28352356;2.101593;-;-;-;-;-;-;-;-;-;-;-;-;-;-;-
1514207670927;-;-;9.230133;-0.41160583;1.883728;-;-;-;-;-;-;-;-;-;-;-;-;-;-;-
1514207670947;-;-;9.436035;-0.5540619;1.6957703;-;-;-;-;-;-;-;-;-;-;-;-;-;-;-
1514207670967;-;-;9.39653;-0.7491913;1.5102234;-;-;-;-;-;-;-;-;-;-;-;-;-;-;-
1514207670987;-;-;9.506668;-0.759964;1.5413513;-;-;-;-;-;-;-;-;-;-;-;-;-;-;-
1514207671008;-;-;9.249298;-0.6474457;1.6383209;-;-;-;-;-;-;-;-;-;-;-;-;-;-;-
1514207671028;-;-;9.054169;-0.5456848;1.7065582;-;-;-;-;-;-;-;-;-;-;-;-;-;-;-
1514207671048;-;-;8.887772;-0.49061584;1.5760651;-;-;-;-;-;-;-;-;-;-;-;-;-;-;-
1514207671069;-;-;8.764465;-0.3254242;1.3773499;-;-;-;-;-;-;-;-;-;-;-;-;-;-;-
1514207671088;-;-;8.903336;-0.29071045;1.3414307;-;-;-;-;-;-;-;-;-;-;-;-;-;-;-
1514207671108;-;-;9.340271;-0.41160583;1.4982605;-;-;-;-;-;-;-;-;-;-;-;-;-;-;-
1514207671128;-;-;9.509064;-0.59117126;1.3569946;-;-;-;-;-;-;-;-;-;-;-;-;-;-;-
1514207671149;-;-;9.303162;-0.6989136;1.5353699;-;-;-;-;-;-;-;-;-;-;-;-;-;-;-
1514207671169;-;-;9.039795;-0.97424316;2.1075745;-;-;-;-;-;-;-;-;-;-;-;-;-;-;-
1514207671189;-;-;9.024231;-1.1526184;2.2320862;-;-;-;-;-;-;-;-;-;-;-;-;-;-;-
1514207671210;-;-;8.966782;-0.9060211;2.2775726;-;-;-;-;-;-;-;-;-;-;-;-;-;-;-
1514207671230;-;-;8.904526;-0.6246948;1.9567413;-;-;-;-;-;-;-;-;-;-;-;-;-;-;-
1514207671250;-;-;8.927277;-0.67497253;1.4862823;-;-;-;-;-;-;-;-;-;-;-;-;-;-;-
1514207671271;-;-;9.041;-0.6031494;1.1235657;-;-;-;-;-;-;-;-;-;-;-;-;-;-;-
1514207671290;-;-;9.425262;-0.5432892;0.92245483;-;-;-;-;-;-;-;-;-;-;-;-;-;-;-
1514207671310;-;-;9.980713;-0.97184753;0.54776;-;-;-;-;-;-;-;-;-;-;-;-;-;-;-
1514207671330;-;-;10.473923;-1.7104645;0.48310852;-;-;-;-;-;-;-;-;-;-;-;-;-;-;-
1514207671351;-;-;10.884537;-2.214447;0.34065247;-;-;-;-;-;-;-;-;-;-;-;-;-;-;-
1514207671371;-;-;10.464355;-2.0827637;-0.03163147;-;-;-;-;-;-;-;-;-;-;-;-;-;-;-
1514207671391;-;-;10.113602;-1.3956299;0.0030822754;-;-;-;-;-;-;-;-;-;-;-;-;-;-;-
1514207671412;-;-;9.753265;-0.8485565;-0.18965149;-;-;-;-;-;-;-;-;-;-;-;-;-;-;-
1514207671432;-;-;9.273239;-0.8964386;-1.1054382;-;-;-;-;-;-;-;-;-;-;-;-;-;-;-
1514207671453;-;-;9.102051;-1.3824615;-1.5699158;-;-;-;-;-;-;-;-;-;-;-;-;-;-;-
1514207671473;-;-;8.923676;-2.2048645;-1.6824341;-;-;-;-;-;-;-;-;-;-;-;-;-;-;-
1514207671492;-;-;8.096481;-1.858902;-1.4837189;-;-;-;-;-;-;-;-;-;-;-;-;-;-;-
1514207671512;-;-;6.8826294;-1.1214905;-1.6596985;-;-;-;-;-;-;-;-;-;-;-;-;-;-;-
1514207671532;-;-;6.0374756;-1.1334686;-1.4621735;-;-;-;-;-;-;-;-;-;-;-;-;-;-;-
1514207671553;-;-;6.020706;-1.1382446;-1.4657593;-;-;-;-;-;-;-;-;-;-;-;-;-;-;-
1514207671574;-;-;6.454056;-1.3369751;-0.97735596;-;-;-;-;-;-;-;-;-;-;-;-;-;-;-
1514207671594;-;-;7.248932;-1.4303436;-1.0551605;-;-;-;-;-;-;-;-;-;-;-;-;-;-;-
1514207671614;-;-;7.556595;-1.1179047;-0.59547424;-;-;-;-;-;-;-;-;-;-;-;-;-;-;-
1514207671634;-;-;7.778061;-0.19972229;0.106033325;-;-;-;-;-;-;-;-;-;-;-;-;-;-;-
1514207671655;-;-;7.731369;0.5664215;0.32868958;-;-;-;-;-;-;-;-;-;-;-;-;-;-;-
1514207671674;-;-;8.903336;0.7447815;-0.22198486;-;-;-;-;-;-;-;-;-;-;-;-;-;-;-
1514207671694;-;-;11.284363;0.5448761;-1.4597778;-;-;-;-;-;-;-;-;-;-;-;-;-;-;-
1514207671715;-;-;12.011002;0.16419983;-2.8651733;-;-;-;-;-;-;-;-;-;-;-;-;-;-;-
1514207671735;-;-;12.610748;-0.0440979;-4.7314606;-;-;-;-;-;-;-;-;-;-;-;-;-;-;-
1514207671755;-;-;13.430771;-0.4547119;-5.0211487;-;-;-;-;-;-;-;-;-;-;-;-;-;-;-
1514207671775;-;-;14.123886;0.021743774;-3.8503876;-;-;-;-;-;-;-;-;-;-;-;-;-;-;-
1514207671795;-;-;12.415619;0.20489502;-1.5651245;-;-;-;-;-;-;-;-;-;-;-;-;-;-;-
1514207671815;-;-;10.1961975;0.69929504;0.09764099;-;-;-;-;-;-;-;-;-;-;-;-;-;-;-
1514207671836;-;-;8.361038;1.051239;1.2983398;-;-;-;-;-;-;-;-;-;-;-;-;-;-;-
1514207671856;-;-;5.581375;0.7124634;1.3522034;-;-;-;-;-;-;-;-;-;-;-;-;-;-;-
1514207671876;-;-;4.438141;0.27792358;0.7357025;-;-;-;-;-;-;-;-;-;-;-;-;-;-;-
1514207671896;-;-;5.7561493;-0.71447754;-0.2566986;-;-;-;-;-;-;-;-;-;-;-;-;-;-;-
1514207671917;-;-;8.065353;-0.9766388;-1.2119751;-;-;-;-;-;-;-;-;-;-;-;-;-;-;-
1514207671937;-;-;10.2907715;-0.61631775;-1.3472595;-;-;-;-;-;-;-;-;-;-;-;-;-;-;-
1514207671957;-;-;11.94397;-0.17338562;-1.4705505;-;-;-;-;-;-;-;-;-;-;-;-;-;-;-
1514207671978;-;-;11.966705;0.35453796;-1.9075012;-;-;-;-;-;-;-;-;-;-;-;-;-;-;-
1514207671998;-;-;9.732925;0.848938;-1.040802;-;-;-;-;-;-;-;-;-;-;-;-;-;-;-
1514207672018;-;-;9.074509;0.42037964;-0.097473145;-;-;-;-;-;-;-;-;-;-;-;-;-;-;-
1514207672038;-;-;8.7812195;0.2635498;-0.107055664;-;-;-;-;-;-;-;-;-;-;-;-;-;-;-
1514207672058;-;-;8.285629;0.70529175;-0.2758484;-;-;-;-;-;-;-;-;-;-;-;-;-;-;-
1514207672079;-;-;8.295197;0.45269775;-0.93904114;-;-;-;-;-;-;-;-;-;-;-;-;-;-;-
1514207672099;-;-;8.265274;-0.463089;-2.0858612;-;-;-;-;-;-;-;-;-;-;-;-;-;-;-
1514207672119;-;-;9.228943;-0.8282013;-1.7027893;-;-;-;-;-;-;-;-;-;-;-;-;-;-;-
1514207672140;-;-;10.959946;-0.17578125;-1.2119751;-;-;-;-;-;-;-;-;-;-;-;-;-;-;-
1514207672160;-;-;11.410065;-0.074035645;-1.2143707;-;-;-;-;-;-;-;-;-;-;-;-;-;-;-
1514207672180;-;-;10.001068;-0.38887024;-1.6968079;-;-;-;-;-;-;-;-;-;-;-;-;-;-;-
1514207672201;-;-;9.182251;-0.5612488;-1.832077;-;-;-;-;-;-;-;-;-;-;-;-;-;-;-
1514207672220;-;-;8.34668;-0.12789917;-0.7175751;-;-;-;-;-;-;-;-;-;-;-;-;-;-;-
1514207672240;-;-;8.365829;0.4862213;-0.085510254;-;-;-;-;-;-;-;-;-;-;-;-;-;-;-
1514207672260;-;-;8.531036;-0.100372314;-0.044799805;-;-;-;-;-;-;-;-;-;-;-;-;-;-;-
1514207672281;-;-;9.054169;-0.7084961;-1.109024;-;-;-;-;-;-;-;-;-;-;-;-;-;-;-
1514207672301;-;-;9.213379;-0.64624023;-0.9162903;-;-;-;-;-;-;-;-;-;-;-;-;-;-;-
1514207672321;-;-;9.691025;-0.55526733;-1.5663147;-;-;-;-;-;-;-;-;-;-;-;-;-;-;-
1514207672342;-;-;9.248093;-0.44273376;-1.6477203;-;-;-;-;-;-;-;-;-;-;-;-;-;-;-
1514207672361;-;-;8.932053;-0.58877563;-1.6465302;-;-;-;-;-;-;-;-;-;-;-;-;-;-;-
1514207672381;-;-;8.790802;-0.9048157;-1.9625702;-;-;-;-;-;-;-;-;-;-;-;-;-;-;-
1514207672402;-;-;8.988327;-1.2160645;-2.389923;-;-;-;-;-;-;-;-;-;-;-;-;-;-;-
1514207672422;-;-;9.340271;-1.5416718;-2.1959991;-;-;-;-;-;-;-;-;-;-;-;-;-;-;-
1514207672442;-;-;9.516251;-1.5141449;-1.6656799;-;-;-;-;-;-;-;-;-;-;-;-;-;-;-
1514207672463;-;-;9.102051;-1.0783997;-1.3568268;-;-;-;-;-;-;-;-;-;-;-;-;-;-;-
1514207672482;-;-;8.593277;-1.0724182;-1.3089447;-;-;-;-;-;-;-;-;-;-;-;-;-;-;-
1514207672502;-;-;8.922485;-1.4183655;-1.1377563;-;-;-;-;-;-;-;-;-;-;-;-;-;-;-
1514207672522;-;-;8.819534;-1.3393707;-1.2850037;-;-;-;-;-;-;-;-;-;-;-;-;-;-;-
1514207672543;-;-;8.806366;-1.3956299;-1.8691864;-;-;-;-;-;-;-;-;-;-;-;-;-;-;-
1514207672563;-;-;8.887772;-1.3190155;-2.120575;-;-;-;-;-;-;-;-;-;-;-;-;-;-;-
1514207672583;-;-;8.849457;-1.1131134;-1.6608887;-;-;-;-;-;-;-;-;-;-;-;-;-;-;-
1514207672603;-;-;8.850662;-0.9155884;-1.737503;-;-;-;-;-;-;-;-;-;-;-;-;-;-;-
1514207672624;-;-;8.729752;-0.6115265;-1.8548279;-;-;-;-;-;-;-;-;-;-;-;-;-;-;-
1514207672644;-;-;8.918884;-0.368515;-2.5503387;-;-;-;-;-;-;-;-;-;-;-;-;-;-;-
1514207672664;-;-;9.2313385;-0.85453796;-2.9489746;-;-;-;-;-;-;-;-;-;-;-;-;-;-;-
1514207672685;-;-;9.931641;-1.4722443;-3.2602234;-;-;-;-;-;-;-;-;-;-;-;-;-;-;-
1514207672705;-;-;9.790375;-1.4351349;-3.0543213;-;-;-;-;-;-;-;-;-;-;-;-;-;-;-
1514207672725;-;-;9.568924;-0.9443207;-3.151291;-;-;-;-;-;-;-;-;-;-;-;-;-;-;-
1514207672746;-;-;8.944031;-0.58399963;-3.4900665;-;-;-;-;-;-;-;-;-;-;-;-;-;-;-
1514207672766;-;-;8.774048;-0.50138855;-3.6396942;-;-;-;-;-;-;-;-;-;-;-;-;-;-;-
1514207672786;-;-;9.37619;-0.61631775;-3.9617157;-;-;-;-;-;-;-;-;-;-;-;-;-;-;-
1514207672806;-;-;9.287598;-0.66300964;-4.4034576;-;-;-;-;-;-;-;-;-;-;-;-;-;-;-
1514207672827;-;-;8.606445;-1.0831909;-4.2083282;-;-;-;-;-;-;-;-;-;-;-;-;-;-;-
1514207672847;-;-;7.818756;-1.5548401;-4.223892;-;-;-;-;-;-;-;-;-;-;-;-;-;-;-
1514207672867;-;-;8.07135;-1.8577118;-4.2095184;-;-;-;-;-;-;-;-;-;-;-;-;-;-;-
1514207672888;-;-;8.933258;-2.0289001;-3.8503876;-;-;-;-;-;-;-;-;-;-;-;-;-;-;-
1514207672908;-;-;9.044586;-2.111496;-3.361969;-;-;-;-;-;-;-;-;-;-;-;-;-;-;-
1514207672928;-;-;8.912903;-2.2647247;-1.2000122;-;-;-;-;-;-;-;-;-;-;-;-;-;-;-
1514207672948;-;-;8.547791;-1.1179047;-2.6868134;-;-;-;-;-;-;-;-;-;-;-;-;-;-;-
1514207672969;-;-;7.0657806;-0.67497253;-2.8412323;-;-;-;-;-;-;-;-;-;-;-;-;-;-;-
1514207672989;-;-;7.264496;-0.83418274;-3.151291;-;-;-;-;-;-;-;-;-;-;-;-;-;-;-
1514207673009;-;-;8.608841;-1.372879;-2.9741058;-;-;-;-;-;-;-;-;-;-;-;-;-;-;-
1514207673030;-;-;9.541382;-1.8301697;-3.0507202;-;-;-;-;-;-;-;-;-;-;-;-;-;-;-
1514207673050;-;-;9.372589;-1.8756714;-3.3116913;-;-;-;-;-;-;-;-;-;-;-;-;-;-;-
1514207673071;-;-;9.6072235;-1.7511597;-3.1656494;-;-;-;-;-;-;-;-;-;-;-;-;-;-;-
1514207673091;-;-;10.088455;-1.6218872;-2.7634277;-;-;-;-;-;-;-;-;-;-;-;-;-;-;-
1514207673111;-;-;10.208176;-1.0508575;-1.5854797;-;-;-;-;-;-;-;-;-;-;-;-;-;-;-
1514207673131;-;-;9.392944;-0.06086731;-0.4817505;-;-;-;-;-;-;-;-;-;-;-;-;-;-;-
1514207673152;-;-;8.437653;0.12828064;-0.15254211;-;-;-;-;-;-;-;-;-;-;-;-;-;-;-
1514207673171;-;-;7.9468384;-0.15663147;-0.59547424;-;-;-;-;-;-;-;-;-;-;-;-;-;-;-
1514207673191;-;-;8.875793;-0.51097107;-0.8205261;-;-;-;-;-;-;-;-;-;-;-;-;-;-;-
1514207673212;-;-;9.930435;-0.70370483;-0.66371155;-;-;-;-;-;-;-;-;-;-;-;-;-;-;-
1514207673232;-;-;10.010651;-0.8688965;-0.8971405;-;-;-;-;-;-;-;-;-;-;-;-;-;-;-
1514207673252;-;-;9.667084;-0.85572815;-0.64216614;-;-;-;-;-;-;-;-;-;-;-;-;-;-;-
1514207673272;-;-;8.875793;-0.54089355;-0.030441284;-;-;-;-;-;-;-;-;-;-;-;-;-;-;-
1514207673293;-;-;8.32872;-0.08720398;0.7728119;-;-;-;-;-;-;-;-;-;-;-;-;-;-;-
1514207673313;-;-;8.38858;0.09236145;1.0517426;-;-;-;-;-;-;-;-;-;-;-;-;-;-;-
1514207673333;-;-;8.972763;-0.095581055;0.91407776;-;-;-;-;-;-;-;-;-;-;-;-;-;-;-
1514207673353;-;-;9.208588;-0.34936523;0.41726685;-;-;-;-;-;-;-;-;-;-;-;-;-;-;-
1514207673373;-;-;9.360626;-0.38168335;0.41249084;-;-;-;-;-;-;-;-;-;-;-;-;-;-;-
1514207673394;-;-;9.266052;-0.32421875;0.53578186;-;-;-;-;-;-;-;-;-;-;-;-;-;-;-
1514207673414;-;-;9.363022;-0.3361969;0.4579773;-;-;-;-;-;-;-;-;-;-;-;-;-;-;-
1514207673435;-;-;9.355835;-0.41041565;0.61239624;-;-;-;-;-;-;-;-;-;-;-;-;-;-;-
1514207673454;-;-;9.068527;-0.29190063;0.70936584;-;-;-;-;-;-;-;-;-;-;-;-;-;-;-
1514207673474;-;-;8.795593;-0.21289063;0.6100006;-;-;-;-;-;-;-;-;-;-;-;-;-;-;-
1514207673495;-;-;8.867416;-0.3002777;0.31072998;-;-;-;-;-;-;-;-;-;-;-;-;-;-;-
1514207673515;-;-;9.155914;-0.41760254;-0.028045654;-;-;-;-;-;-;-;-;-;-;-;-;-;-;-
1514207673535;-;-;9.116409;-0.30506897;-0.14656067;-;-;-;-;-;-;-;-;-;-;-;-;-;-;-
1514207673555;-;-;8.960785;-0.33259583;-0.0914917;-;-;-;-;-;-;-;-;-;-;-;-;-;-;-
1514207673576;-;-;9.329498;-0.37210083;0.3310852;-;-;-;-;-;-;-;-;-;-;-;-;-;-;-
1514207673597;-;-;9.95079;-0.7013092;0.42326355;-;-;-;-;-;-;-;-;-;-;-;-;-;-;-
1514207673617;-;-;9.980713;-1.1478271;0.33706665;-;-;-;-;-;-;-;-;-;-;-;-;-;-;-
1514207673637;-;-;9.835876;-1.3010559;0.23651123;-;-;-;-;-;-;-;-;-;-;-;-;-;-;-
1514207673658;-;-;9.6072235;-1.7080688;-0.05558777;-;-;-;-;-;-;-;-;-;-;-;-;-;-;-
1514207673678;-;-;8.912903;-1.5548401;0.15151978;-;-;-;-;-;-;-;-;-;-;-;-;-;-;-
1514207673698;-;-;8.489136;-1.067627;0.2448883;-;-;-;-;-;-;-;-;-;-;-;-;-;-;-
1514207673719;-;-;8.745316;-0.6510315;-0.0053100586;-;-;-;-;-;-;-;-;-;-;-;-;-;-;-
1514207673739;-;-;9.312744;-0.4559021;-0.20162964;-;-;-;-;-;-;-;-;-;-;-;-;-;-;-
1514207673759;-;-;9.55455;-0.5600586;-0.55836487;-;-;-;-;-;-;-;-;-;-;-;-;-;-;-
1514207673779;-;-;9.704193;-0.6534271;-0.60266113;-;-;-;-;-;-;-;-;-;-;-;-;-;-;-
1514207673800;-;-;9.705383;-0.54927063;-0.41830444;-;-;-;-;-;-;-;-;-;-;-;-;-;-;-
1514207673820;-;-;9.250488;-0.3697052;-0.29859924;-;-;-;-;-;-;-;-;-;-;-;-;-;-;-
1514207673840;-;-;8.705811;-0.19613647;-0.28422546;-;-;-;-;-;-;-;-;-;-;-;-;-;-;-
1514207673860;-;-;8.654327;-0.21528625;-0.5284424;-;-;-;-;-;-;-;-;-;-;-;-;-;-;-
1514207673880;-;-;9.020645;-0.38887024;-0.74391174;-;-;-;-;-;-;-;-;-;-;-;-;-;-;-
1514207673901;-;-;9.408508;-0.4163971;-0.62779236;-;-;-;-;-;-;-;-;-;-;-;-;-;-;-
1514207673920;-;-;9.517441;-0.2966919;-0.35246277;-;-;-;-;-;-;-;-;-;-;-;-;-;-;-
1514207673940;-;-;9.038605;-0.11114502;-0.15493774;-;-;-;-;-;-;-;-;-;-;-;-;-;-;-
1514207673960;-;-;8.8003845;0.03491211;-0.11663818;-;-;-;-;-;-;-;-;-;-;-;-;-;-;-
1514207673981;-;-;8.862625;0.15701294;-0.17050171;-;-;-;-;-;-;-;-;-;-;-;-;-;-;-
1514207674001;-;-;9.353439;-0.22964478;-0.27105713;-;-;-;-;-;-;-;-;-;-;-;-;-;-;-
1514207674021;-;-;9.499481;-0.28471375;-0.37521362;-;-;-;-;-;-;-;-;-;-;-;-;-;-;-
1514207674041;-;-;9.452805;-0.29548645;0.09286499;-;-;-;-;-;-;-;-;-;-;-;-;-;-;-
1514207674062;-;-;9.4492035;-0.36611938;0.32510376;-;-;-;-;-;-;-;-;-;-;-;-;-;-;-
1514207674082;-;-;9.515045;-0.45231628;0.3789673;-;-;-;-;-;-;-;-;-;-;-;-;-;-;-
1514207674102;-;-;9.293579;-0.18415833;0.32389832;-;-;-;-;-;-;-;-;-;-;-;-;-;-;-
1514207674123;-;-;8.88298;0.026535034;0.50227356;-;-;-;-;-;-;-;-;-;-;-;-;-;-;-
1514207674143;-;-;8.716583;0.043289185;0.43522644;-;-;-;-;-;-;-;-;-;-;-;-;-;-;-
1514207674163;-;-;9.069733;-0.26197815;0.18981934;-;-;-;-;-;-;-;-;-;-;-;-;-;-;-
1514207674183;-;-;9.834671;-0.59117126;-0.159729;-;-;-;-;-;-;-;-;-;-;-;-;-;-;-
1514207674203;-;-;9.816711;-0.25;0.12397766;-;-;-;-;-;-;-;-;-;-;-;-;-;-;-
1514207674224;-;-;9.422867;-0.15782166;0.7548523;-;-;-;-;-;-;-;-;-;-;-;-;-;-;-
1514207674244;-;-;9.003891;-0.42837524;1.0996246;-;-;-;-;-;-;-;-;-;-;-;-;-;-;-
1514207674264;-;-;8.650742;-0.78630066;0.86380005;-;-;-;-;-;-;-;-;-;-;-;-;-;-;-
1514207674285;-;-;8.637573;-0.9000244;0.5549469;-;-;-;-;-;-;-;-;-;-;-;-;-;-;-
1514207674305;-;-;9.799957;-1.0580444;0.28918457;-;-;-;-;-;-;-;-;-;-;-;-;-;-;-
1514207674325;-;-;10.111206;-0.9467163;0.14912415;-;-;-;-;-;-;-;-;-;-;-;-;-;-;-
1514207674346;-;-;9.7808075;-0.91200256;0.54776;-;-;-;-;-;-;-;-;-;-;-;-;-;-;-
1514207674366;-;-;9.080505;-0.79707336;0.8721771;-;-;-;-;-;-;-;-;-;-;-;-;-;-;-
1514207674386;-;-;8.507095;-0.6139221;0.88653564;-;-;-;-;-;-;-;-;-;-;-;-;-;-;-
1514207674407;-;-;8.748901;-0.59716797;0.6315613;-;-;-;-;-;-;-;-;-;-;-;-;-;-;-
1514207674426;-;-;9.39653;-0.63905334;0.23770142;-;-;-;-;-;-;-;-;-;-;-;-;-;-;-
1514207674446;-;-;9.770035;-0.68814087;0.04975891;-;-;-;-;-;-;-;-;-;-;-;-;-;-;-
1514207674466;-;-;9.931641;-0.7587738;0.14672852;-;-;-;-;-;-;-;-;-;-;-;-;-;-;-
1514207674487;-;-;9.647919;-0.62828064;0.3610077;-;-;-;-;-;-;-;-;-;-;-;-;-;-;-
1514207674507;-;-;9.209793;-0.5157623;0.77041626;-;-;-;-;-;-;-;-;-;-;-;-;-;-;-
1514207674528;-;-;9.207397;-0.37809753;1.0194092;-;-;-;-;-;-;-;-;-;-;-;-;-;-;-
1514207674547;-;-;9.128387;-0.3361969;0.99427795;-;-;-;-;-;-;-;-;-;-;-;-;-;-;-
1514207674567;-;-;8.985931;-0.32901;0.81829834;-;-;-;-;-;-;-;-;-;-;-;-;-;-;-
1514207674587;-;-;9.007477;-0.26914978;0.8482361;-;-;-;-;-;-;-;-;-;-;-;-;-;-;-
1514207674608;-;-;9.239716;-0.22845459;0.8554077;-;-;-;-;-;-;-;-;-;-;-;-;-;-;-
1514207674628;-;-;9.070923;-0.43554688;0.81829834;-;-;-;-;-;-;-;-;-;-;-;-;-;-;-
1514207674648;-;-;9.031418;-0.54927063;0.76322937;-;-;-;-;-;-;-;-;-;-;-;-;-;-;-
1514207674668;-;-;9.209793;-0.30625916;0.5046692;-;-;-;-;-;-;-;-;-;-;-;-;-;-;-
1514207674689;-;-;9.171478;0.064834595;0.36819458;-;-;-;-;-;-;-;-;-;-;-;-;-;-;-
1514207674709;-;-;9.224152;0.32699585;0.52381897;-;-;-;-;-;-;-;-;-;-;-;-;-;-;-
1514207674729;-;-;9.175064;0.18693542;0.34425354;-;-;-;-;-;-;-;-;-;-;-;-;-;-;-
1514207674750;-;-;9.143951;0.0025787354;0.01864624;-;-;-;-;-;-;-;-;-;-;-;-;-;-;-
1514207674770;-;-;9.248093;-0.04170227;-0.15733337;-;-;-;-;-;-;-;-;-;-;-;-;-;-;-
1514207674790;-;-;9.361816;-0.0069885254;-0.049591064;-;-;-;-;-;-;-;-;-;-;-;-;-;-;-
1514207674811;-;-;9.347458;-0.0105896;-0.09628296;-;-;-;-;-;-;-;-;-;-;-;-;-;-;-
1514207674831;-;-;9.443222;-0.12071228;-0.25909424;-;-;-;-;-;-;-;-;-;-;-;-;-;-;-
1514207674852;-;-;9.531799;-0.21528625;-0.49971008;-;-;-;-;-;-;-;-;-;-;-;-;-;-;-
1514207674871;-;-;9.363022;0.052871704;-0.35125732;-;-;-;-;-;-;-;-;-;-;-;-;-;-;-
1514207674892;-;-;9.184647;0.2922821;-0.21479797;-;-;-;-;-;-;-;-;-;-;-;-;-;-;-
1514207674912;-;-;9.185837;0.3030548;-0.29260254;-;-;-;-;-;-;-;-;-;-;-;-;-;-;-
1514207674932;-;-;9.049377;0.31503296;-0.25190735;-;-;-;-;-;-;-;-;-;-;-;-;-;-;-
1514207674953;-;-;8.985931;0.4945984;-0.34887695;-;-;-;-;-;-;-;-;-;-;-;-;-;-;-
1514207674973;-;-;8.966782;0.81062317;-0.30337524;-;-;-;-;-;-;-;-;-;-;-;-;-;-;-
1514207674993;-;-;8.963181;1.0608215;-0.4458313;-;-;-;-;-;-;-;-;-;-;-;-;-;-;-
1514207675013;-;-;9.103241;0.66218567;-0.8169403;-;-;-;-;-;-;-;-;-;-;-;-;-;-;-
1514207675034;-;-;9.359421;0.26594543;-0.7630615;-;-;-;-;-;-;-;-;-;-;-;-;-;-;-
1514207675054;-;-;9.424072;0.122299194;-0.6325836;-;-;-;-;-;-;-;-;-;-;-;-;-;-;-
1514207675075;-;-;9.305557;0.27792358;-0.69363403;-;-;-;-;-;-;-;-;-;-;-;-;-;-;-
1514207675094;-;-;9.374985;0.5281067;-0.7606659;-;-;-;-;-;-;-;-;-;-;-;-;-;-;-
1514207675115;-;-;9.331894;0.5819855;-0.77145386;-;-;-;-;-;-;-;-;-;-;-;-;-;-;-
1514207675134;-;-;9.25528;0.517334;-0.77622986;-;-;-;-;-;-;-;-;-;-;-;-;-;-;-
1514207675154;-;-;9.149933;0.5185394;-0.5523834;-;-;-;-;-;-;-;-;-;-;-;-;-;-;-
1514207675174;-;-;9.131973;0.45509338;-0.50090027;-;-;-;-;-;-;-;-;-;-;-;-;-;-;-
1514207675195;-;-;9.106842;0.4012146;-0.4817505;-;-;-;-;-;-;-;-;-;-;-;-;-;-;-
1514207675214;-;-;9.175064;0.43354797;-0.48893738;-;-;-;-;-;-;-;-;-;-;-;-;-;-;-
1514207675234;-;-;9.244507;0.48860168;-0.42070007;-;-;-;-;-;-;-;-;-;-;-;-;-;-;-
1514207675254;-;-;9.321121;0.5460663;-0.42549133;-;-;-;-;-;-;-;-;-;-;-;-;-;-;-
1514207675274;-;-;9.353439;0.6238861;-0.39915466;-;-;-;-;-;-;-;-;-;-;-;-;-;-;-
1514207675294;-;-;9.222961;0.68133545;-0.40274048;-;-;-;-;-;-;-;-;-;-;-;-;-;-;-
1514207675315;-;-;9.220566;0.7244415;-0.27105713;-;-;-;-;-;-;-;-;-;-;-;-;-;-;-
1514207675335;-;-;9.200211;0.68733215;-0.159729;-;-;-;-;-;-;-;-;-;-;-;-;-;-;-
1514207675355;-;-;9.269638;0.54966736;-0.023254395;-;-;-;-;-;-;-;-;-;-;-;-;-;-;-
1514207675376;-;-;9.161896;0.42515564;-0.18367004;-;-;-;-;-;-;-;-;-;-;-;-;-;-;-
1514207675396;-;-;9.084091;0.51374817;-0.08909607;-;-;-;-;-;-;-;-;-;-;-;-;-;-;-
1514207675416;-;-;9.064941;0.54367065;-0.071136475;-;-;-;-;-;-;-;-;-;-;-;-;-;-;-
1514207675437;-;-;9.036209;0.57958984;-0.120224;-;-;-;-;-;-;-;-;-;-;-;-;-;-;-
1514207675457;-;-;9.125992;0.47903442;-0.23394775;-;-;-;-;-;-;-;-;-;-;-;-;-;-;-
1514207675477;-;-;9.21817;0.3222046;-0.25309753;-;-;-;-;-;-;-;-;-;-;-;-;-;-;-
1514207675497;-;-;9.347458;0.24440002;-0.372818;-;-;-;-;-;-;-;-;-;-;-;-;-;-;-
1514207675518;-;-;9.457581;0.3569336;-0.51885986;-;-;-;-;-;-;-;-;-;-;-;-;-;-;-
1514207675538;-;-;9.606033;0.9315338;-0.5571594;-;-;-;-;-;-;-;-;-;-;-;-;-;-;-
1514207675558;-;-;9.214569;1.0847626;-0.97135925;-;-;-;-;-;-;-;-;-;-;-;-;-;-;-
1514207675578;-;-;8.8602295;1.0524445;-1.0575562;-;-;-;-;-;-;-;-;-;-;-;-;-;-;-
1514207675599;-;-;9.13916;0.8812561;-1.0312195;-;-;-;-;-;-;-;-;-;-;-;-;-;-;-
1514207675619;-;-;9.815521;0.46826172;-0.81095886;-;-;-;-;-;-;-;-;-;-;-;-;-;-;-
1514207675639;-;-;9.401321;0.18933105;-0.95939636;-;-;-;-;-;-;-;-;-;-;-;-;-;-;-
1514207675660;-;-;9.011063;0.064834595;-0.83369446;-;-;-;-;-;-;-;-;-;-;-;-;-;-;-
1514207675680;-;-;8.928467;0.07800293;-0.90193176;-;-;-;-;-;-;-;-;-;-;-;-;-;-;-
1514207675700;-;-;8.799179;0.52931213;-0.6661072;-;-;-;-;-;-;-;-;-;-;-;-;-;-;-
1514207675721;-;-;8.7812195;0.6238861;-0.5212555;-;-;-;-;-;-;-;-;-;-;-;-;-;-;-
1514207675741;-;-;8.971558;0.45269775;-0.37161255;-;-;-;-;-;-;-;-;-;-;-;-;-;-;-
1514207675761;-;-;9.092468;0.08039856;-0.32731628;-;-;-;-;-;-;-;-;-;-;-;-;-;-;-
1514207675782;-;-;9.450409;-0.3086548;-0.26986694;-;-;-;-;-;-;-;-;-;-;-;-;-;-;-
1514207675802;-;-;9.533005;-0.51934814;-0.15135193;-;-;-;-;-;-;-;-;-;-;-;-;-;-;-
1514207675822;-;-;9.382172;-0.621109;0.04258728;-;-;-;-;-;-;-;-;-;-;-;-;-;-;-
1514207675843;-;-;9.260071;-0.7527771;0.1946106;-;-;-;-;-;-;-;-;-;-;-;-;-;-;-
1514207675862;-;-;9.084091;-0.720459;0.31671143;-;-;-;-;-;-;-;-;-;-;-;-;-;-;-
1514207675882;-;-;9.619202;-0.70610046;0.62916565;-;-;-;-;-;-;-;-;-;-;-;-;-;-;-
1514207675902;-;-;9.421677;-0.95150757;-0.24711609;-;-;-;-;-;-;-;-;-;-;-;-;-;-;-
1514207675923;-;-;9.099655;-0.9550934;-0.099868774;-;-;-;-;-;-;-;-;-;-;-;-;-;-;-
1514207675943;-;-;9.451599;-0.9036255;0.3430481;-;-;-;-;-;-;-;-;-;-;-;-;-;-;-
1514207675963;-;-;9.160706;-1.1729736;0.11201477;-;-;-;-;-;-;-;-;-;-;-;-;-;-;-
1514207675984;-;-;9.21817;-1.2902832;-0.09388733;-;-;-;-;-;-;-;-;-;-;-;-;-;-;-
1514207676004;-;-;9.90889;-1.0161438;0.13595581;-;-;-;-;-;-;-;-;-;-;-;-;-;-;-
1514207676024;-;-;9.756866;-0.62709045;0.176651;-;-;-;-;-;-;-;-;-;-;-;-;-;-;-
1514207676045;-;-;9.171478;-0.76475525;0.074905396;-;-;-;-;-;-;-;-;-;-;-;-;-;-;-
1514207676065;-;-;9.032608;-1.364502;0.08088684;-;-;-;-;-;-;-;-;-;-;-;-;-;-;-
1514207676085;-;-;9.147537;-1.6685638;0.22094727;-;-;-;-;-;-;-;-;-;-;-;-;-;-;-
1514207676105;-;-;9.209793;-1.5943451;0.5441742;-;-;-;-;-;-;-;-;-;-;-;-;-;-;-
1514207676126;-;-;9.384567;-1.5560455;0.71295166;-;-;-;-;-;-;-;-;-;-;-;-;-;-;-
1514207676146;-;-;9.500687;-1.6003265;0.60162354;-;-;-;-;-;-;-;-;-;-;-;-;-;-;-
1514207676166;-;-;9.45639;-1.5117493;0.72013855;-;-;-;-;-;-;-;-;-;-;-;-;-;-;-
1514207676186;-;-;9.3546295;-1.3082428;0.85661316;-;-;-;-;-;-;-;-;-;-;-;-;-;-;-
1514207676207;-;-;9.092468;-1.0712128;1.0852509;-;-;-;-;-;-;-;-;-;-;-;-;-;-;-
1514207676227;-;-;8.876999;-0.9550934;1.294754;-;-;-;-;-;-;-;-;-;-;-;-;-;-;-
1514207676247;-;-;8.976349;-1.0233307;1.5844421;-;-;-;-;-;-;-;-;-;-;-;-;-;-;-
1514207676267;-;-;8.938049;-1.3920441;1.8921051;-;-;-;-;-;-;-;-;-;-;-;-;-;-;-
1514207676288;-;-;8.908112;-1.6913147;2.0525208;-;-;-;-;-;-;-;-;-;-;-;-;-;-;-
1514207676309;-;-;8.896149;-1.7882843;1.9699097;-;-;-;-;-;-;-;-;-;-;-;-;-;-;-
1514207676330;-;-;8.898544;-1.7463837;1.8106995;-;-;-;-;-;-;-;-;-;-;-;-;-;-;-
1514207676349;-;-;8.914108;-1.491394;1.780777;-;-;-;-;-;-;-;-;-;-;-;-;-;-;-
1514207676369;-;-;8.969162;-1.0388947;1.7448578;-;-;-;-;-;-;-;-;-;-;-;-;-;-;-
