TimeStamp[ms];Prox[Cm];Lux[lux];AccX[m/s^2];AccY[m/s^2];AccZ[m/s^2];GyroX[rad/s];GyroY[rad/s];GyroZ[rad/s];MagnX[uT];MagnY[uT];MagnZ[uT];OrienYaw[degrees];OrienPitch[degrees];OrienRoll[degrees];Press[Pa];Temp[C°];Batt[%];Lat;Lng;Speed[m/s]
1514207337865;-;-;9.074509;-1.9462891;-0.36802673;-;-;-;-;-;-;-;-;-;-;-;-;-;-;-
1514207337869;-;-;8.911713;-2.2671204;-0.11663818;-;-;-;-;-;-;-;-;-;-;-;-;-;-;-
1514207337889;-;-;8.972763;-2.4538574;-0.21958923;-;-;-;-;-;-;-;-;-;-;-;-;-;-;-
1514207337910;-;-;8.930862;-2.3868256;-0.2962036;-;-;-;-;-;-;-;-;-;-;-;-;-;-;-
1514207337930;-;-;8.769257;-2.3940125;-0.30697632;-;-;-;-;-;-;-;-;-;-;-;-;-;-;-
1514207337950;-;-;8.690247;-2.1019135;-0.63616943;-;-;-;-;-;-;-;-;-;-;-;-;-;-;-
1514207337970;-;-;8.502304;-2.5256958;-0.6110382;-;-;-;-;-;-;-;-;-;-;-;-;-;-;-
1514207337991;-;-;8.710602;-2.6190643;-0.7858124;-;-;-;-;-;-;-;-;-;-;-;-;-;-;-
1514207338011;-;-;9.017059;-2.3461304;-0.7893982;-;-;-;-;-;-;-;-;-;-;-;-;-;-;-
1514207338031;-;-;9.357025;-2.0360718;-0.9546051;-;-;-;-;-;-;-;-;-;-;-;-;-;-;-
1514207338052;-;-;9.3893585;-1.819397;-0.8971405;-;-;-;-;-;-;-;-;-;-;-;-;-;-;-
1514207338072;-;-;9.339081;-1.7715149;-1.4118958;-;-;-;-;-;-;-;-;-;-;-;-;-;-;-
1514207338092;-;-;8.915298;-1.661377;-1.9553833;-;-;-;-;-;-;-;-;-;-;-;-;-;-;-
1514207338118;-;-;8.5849;-1.443512;-1.9625702;-;-;-;-;-;-;-;-;-;-;-;-;-;-;-
1514207338133;-;-;8.301193;-1.0400848;-1.6010437;-;-;-;-;-;-;-;-;-;-;-;-;-;-;-
1514207338153;-;-;8.778824;-1.0831909;-0.73672485;-;-;-;-;-;-;-;-;-;-;-;-;-;-;-
1514207338174;-;-;9.289993;0.2348175;-1.188034;-;-;-;-;-;-;-;-;-;-;-;-;-;-;-
1514207338194;-;-;9.452805;0.61550903;-1.9146729;-;-;-;-;-;-;-;-;-;-;-;-;-;-;-
1514207338214;-;-;9.4133;0.8405609;-2.373169;-;-;-;-;-;-;-;-;-;-;-;-;-;-;-
1514207338234;-;-;9.361816;0.6538086;-2.175644;-;-;-;-;-;-;-;-;-;-;-;-;-;-;-
1514207338255;-;-;8.904526;0.33657837;-2.2798004;-;-;-;-;-;-;-;-;-;-;-;-;-;-;-
1514207338275;-;-;8.138382;2.4362946;-1.4430237;-;-;-;-;-;-;-;-;-;-;-;-;-;-;-
1514207338295;-;-;8.280838;1.121872;-2.0870667;-;-;-;-;-;-;-;-;-;-;-;-;-;-;-
1514207338316;-;-;8.489136;1.3205872;-2.6999817;-;-;-;-;-;-;-;-;-;-;-;-;-;-;-
1514207338336;-;-;9.345062;1.6916962;-2.9298248;-;-;-;-;-;-;-;-;-;-;-;-;-;-;-
1514207338356;-;-;9.536591;1.3062286;-2.55513;-;-;-;-;-;-;-;-;-;-;-;-;-;-;-
1514207338377;-;-;10.429626;1.4702301;-2.2953491;-;-;-;-;-;-;-;-;-;-;-;-;-;-;-
1514207338397;-;-;10.806717;2.4207306;-2.3169098;-;-;-;-;-;-;-;-;-;-;-;-;-;-;-
1514207338417;-;-;10.944382;2.7367706;-1.7710266;-;-;-;-;-;-;-;-;-;-;-;-;-;-;-
1514207338437;-;-;9.608414;1.2583466;-1.8464508;-;-;-;-;-;-;-;-;-;-;-;-;-;-;-
1514207338458;-;-;8.481949;0.57121277;-1.7494812;-;-;-;-;-;-;-;-;-;-;-;-;-;-;-
1514207338478;-;-;8.605255;0.25517273;-1.6201935;-;-;-;-;-;-;-;-;-;-;-;-;-;-;-
1514207338499;-;-;7.9121246;1.1446228;-1.8368683;-;-;-;-;-;-;-;-;-;-;-;-;-;-;-
1514207338519;-;-;7.9815674;2.3644714;-1.3388672;-;-;-;-;-;-;-;-;-;-;-;-;-;-;-
1514207338540;-;-;8.595673;2.545227;-2.270218;-;-;-;-;-;-;-;-;-;-;-;-;-;-;-
1514207338560;-;-;8.854248;1.9382935;-1.0072784;-;-;-;-;-;-;-;-;-;-;-;-;-;-;-
1514207338580;-;-;8.5849;0.7531738;-1.4334412;-;-;-;-;-;-;-;-;-;-;-;-;-;-;-
1514207338601;-;-;7.842697;1.1422272;-1.1210022;-;-;-;-;-;-;-;-;-;-;-;-;-;-;-
1514207338621;-;-;7.669113;1.5755768;-1.7243347;-;-;-;-;-;-;-;-;-;-;-;-;-;-;-
1514207338641;-;-;8.753693;2.1729279;-2.3911285;-;-;-;-;-;-;-;-;-;-;-;-;-;-;-
1514207338662;-;-;8.066559;2.1489868;-2.6676483;-;-;-;-;-;-;-;-;-;-;-;-;-;-;-
1514207338682;-;-;9.407303;1.027298;-3.519989;-;-;-;-;-;-;-;-;-;-;-;-;-;-;-
1514207338703;-;-;11.089233;0.9854126;-3.3368378;-;-;-;-;-;-;-;-;-;-;-;-;-;-;-
1514207338723;-;-;10.574478;1.279892;-3.370346;-;-;-;-;-;-;-;-;-;-;-;-;-;-;-
1514207338743;-;-;10.233307;0.7866821;-3.5235748;-;-;-;-;-;-;-;-;-;-;-;-;-;-;-
1514207338764;-;-;10.651093;0.8441467;-3.4469604;-;-;-;-;-;-;-;-;-;-;-;-;-;-;-
1514207338784;-;-;10.011841;0.5257263;-4.0874176;-;-;-;-;-;-;-;-;-;-;-;-;-;-;-
1514207338804;-;-;7.509903;0.36650085;-3.6480865;-;-;-;-;-;-;-;-;-;-;-;-;-;-;-
1514207338824;-;-;7.3542786;0.33657837;-4.4118347;-;-;-;-;-;-;-;-;-;-;-;-;-;-;-
1514207338845;-;-;9.440826;-2.2563477;-5.666397;-;-;-;-;-;-;-;-;-;-;-;-;-;-;-
1514207338864;-;-;10.009445;-2.7279968;-4.651245;-;-;-;-;-;-;-;-;-;-;-;-;-;-;-
1514207338884;-;-;9.895721;-2.5125275;-3.5882263;-;-;-;-;-;-;-;-;-;-;-;-;-;-;-
1514207338904;-;-;8.872208;-2.4766083;-4.1101685;-;-;-;-;-;-;-;-;-;-;-;-;-;-;-
1514207338925;-;-;7.628418;-1.3357697;-4.365143;-;-;-;-;-;-;-;-;-;-;-;-;-;-;-
1514207338945;-;-;6.6144714;-1.5979309;-2.840042;-;-;-;-;-;-;-;-;-;-;-;-;-;-;-
1514207338965;-;-;6.7294006;-0.89404297;-2.389923;-;-;-;-;-;-;-;-;-;-;-;-;-;-;-
1514207338986;-;-;7.3219604;-1.0257263;-2.6748352;-;-;-;-;-;-;-;-;-;-;-;-;-;-;-
1514207339006;-;-;9.445618;-1.467453;-3.7797546;-;-;-;-;-;-;-;-;-;-;-;-;-;-;-
1514207339026;-;-;8.671097;-1.6949005;-3.0986176;-;-;-;-;-;-;-;-;-;-;-;-;-;-;-
1514207339046;-;-;7.9995117;-1.194519;-3.0626984;-;-;-;-;-;-;-;-;-;-;-;-;-;-;-
1514207339066;-;-;8.733337;-0.55166626;-2.6880035;-;-;-;-;-;-;-;-;-;-;-;-;-;-;-
1514207339087;-;-;9.427658;-0.5253296;-2.946579;-;-;-;-;-;-;-;-;-;-;-;-;-;-;-
1514207339107;-;-;10.160278;-1.0269165;-3.282959;-;-;-;-;-;-;-;-;-;-;-;-;-;-;-
1514207339127;-;-;10.283585;-0.9586792;-3.2051544;-;-;-;-;-;-;-;-;-;-;-;-;-;-;-
1514207339148;-;-;10.133942;-0.7420044;-2.7634277;-;-;-;-;-;-;-;-;-;-;-;-;-;-;-
1514207339168;-;-;9.12001;-0.9084015;-2.8101044;-;-;-;-;-;-;-;-;-;-;-;-;-;-;-
1514207339188;-;-;8.659119;-0.5780029;-2.389923;-;-;-;-;-;-;-;-;-;-;-;-;-;-;-
1514207339208;-;-;8.122818;-0.35653687;-2.567093;-;-;-;-;-;-;-;-;-;-;-;-;-;-;-
1514207339229;-;-;8.054581;-0.8569336;-2.1576843;-;-;-;-;-;-;-;-;-;-;-;-;-;-;-
1514207339249;-;-;8.405334;-0.36611938;-2.2690277;-;-;-;-;-;-;-;-;-;-;-;-;-;-;-
1514207339269;-;-;8.303574;-0.5672302;-2.5599213;-;-;-;-;-;-;-;-;-;-;-;-;-;-;-
1514207339290;-;-;7.6667175;-0.78630066;-2.551529;-;-;-;-;-;-;-;-;-;-;-;-;-;-;-
1514207339310;-;-;8.076126;-0.91319275;-2.2187347;-;-;-;-;-;-;-;-;-;-;-;-;-;-;-
1514207339330;-;-;7.7936096;-0.581604;-2.0200195;-;-;-;-;-;-;-;-;-;-;-;-;-;-;-
1514207339351;-;-;9.249298;-0.44992065;-2.9238281;-;-;-;-;-;-;-;-;-;-;-;-;-;-;-
1514207339371;-;-;9.184647;-1.6949005;-1.5651245;-;-;-;-;-;-;-;-;-;-;-;-;-;-;-
1514207339391;-;-;8.613632;-1.5967407;-2.1732483;-;-;-;-;-;-;-;-;-;-;-;-;-;-;-
1514207339412;-;-;9.06015;-2.1952972;-1.8883362;-;-;-;-;-;-;-;-;-;-;-;-;-;-;-
1514207339432;-;-;8.869812;-2.119873;-2.4461975;-;-;-;-;-;-;-;-;-;-;-;-;-;-;-
1514207339452;-;-;8.049789;-1.8050385;-2.55513;-;-;-;-;-;-;-;-;-;-;-;-;-;-;-
1514207339473;-;-;7.4560394;-1.7128601;-2.6401215;-;-;-;-;-;-;-;-;-;-;-;-;-;-;-
1514207339493;-;-;6.888611;-1.3944244;-2.4485931;-;-;-;-;-;-;-;-;-;-;-;-;-;-;-
1514207339513;-;-;6.919739;-1.6829376;-2.5802612;-;-;-;-;-;-;-;-;-;-;-;-;-;-;-
1514207339534;-;-;7.3506927;-2.183319;-2.8184967;-;-;-;-;-;-;-;-;-;-;-;-;-;-;-
1514207339554;-;-;7.9228973;-2.3509216;-2.898697;-;-;-;-;-;-;-;-;-;-;-;-;-;-;-
1514207339574;-;-;7.9600067;-2.2359924;-4.3902893;-;-;-;-;-;-;-;-;-;-;-;-;-;-;-
1514207339595;-;-;8.226959;-1.9403076;-5.353943;-;-;-;-;-;-;-;-;-;-;-;-;-;-;-
1514207339614;-;-;8.627991;-2.2419739;-4.7326508;-;-;-;-;-;-;-;-;-;-;-;-;-;-;-
1514207339634;-;-;8.789597;-3.0583954;-3.824051;-;-;-;-;-;-;-;-;-;-;-;-;-;-;-
1514207339654;-;-;9.768829;-2.2348022;-5.5263367;-;-;-;-;-;-;-;-;-;-;-;-;-;-;-
1514207339675;-;-;9.761642;-0.1925354;-9.462402;-;-;-;-;-;-;-;-;-;-;-;-;-;-;-
1514207339695;-;-;10.241684;1.7335968;-11.475922;-;-;-;-;-;-;-;-;-;-;-;-;-;-;-
1514207339715;-;-;13.009384;4.3935547;-1.9350281;-;-;-;-;-;-;-;-;-;-;-;-;-;-;-
1514207339736;-;-;10.584061;6.328064;-4.2657776;-;-;-;-;-;-;-;-;-;-;-;-;-;-;-
1514207339755;-;-;10.439209;6.431015;-4.94693;-;-;-;-;-;-;-;-;-;-;-;-;-;-;-
1514207339775;-;-;6.70784;2.718811;-4.5291443;-;-;-;-;-;-;-;-;-;-;-;-;-;-;-
1514207339797;-;-;5.5622253;0.48143005;-4.5375214;-;-;-;-;-;-;-;-;-;-;-;-;-;-;-
1514207339816;-;-;5.458069;-0.4056244;-4.622528;-;-;-;-;-;-;-;-;-;-;-;-;-;-;-
1514207339835;-;-;6.209854;-0.4666748;-4.3842926;-;-;-;-;-;-;-;-;-;-;-;-;-;-;-
1514207339855;-;-;6.5558167;0.088775635;-4.5183716;-;-;-;-;-;-;-;-;-;-;-;-;-;-;-
1514207339875;-;-;6.6455994;0.16059875;-4.4393616;-;-;-;-;-;-;-;-;-;-;-;-;-;-;-
1514207339896;-;-;6.0769806;-0.36253357;-3.6983643;-;-;-;-;-;-;-;-;-;-;-;-;-;-;-
1514207339915;-;-;5.2042847;-1.3633118;-2.9477692;-;-;-;-;-;-;-;-;-;-;-;-;-;-;-
1514207339935;-;-;4.4201813;-2.265915;-2.7310944;-;-;-;-;-;-;-;-;-;-;-;-;-;-;-
1514207339955;-;-;4.1233063;-2.590332;-2.939392;-;-;-;-;-;-;-;-;-;-;-;-;-;-;-
1514207339975;-;-;4.2813263;-2.3389435;-2.9513702;-;-;-;-;-;-;-;-;-;-;-;-;-;-;-
1514207339995;-;-;4.3651123;-1.6362457;-3.2290955;-;-;-;-;-;-;-;-;-;-;-;-;-;-;-
1514207340016;-;-;3.3140717;-1.5416718;-6.0398865;-;-;-;-;-;-;-;-;-;-;-;-;-;-;-
1514207340037;-;-;4.2082977;-0.8126373;-6.1572113;-;-;-;-;-;-;-;-;-;-;-;-;-;-;-
1514207340058;-;-;6.9700165;0.6573944;-3.9078522;-;-;-;-;-;-;-;-;-;-;-;-;-;-;-
1514207340078;-;-;8.6818695;1.8748474;-3.8444061;-;-;-;-;-;-;-;-;-;-;-;-;-;-;-
1514207340099;-;-;8.42688;2.4374847;-5.2976837;-;-;-;-;-;-;-;-;-;-;-;-;-;-;-
1514207340119;-;-;7.2824554;1.6677551;-5.2330475;-;-;-;-;-;-;-;-;-;-;-;-;-;-;-
1514207340139;-;-;6.3858185;0.028915405;-4.603363;-;-;-;-;-;-;-;-;-;-;-;-;-;-;-
1514207340159;-;-;6.0638123;-1.562027;-4.554291;-;-;-;-;-;-;-;-;-;-;-;-;-;-;-
1514207340180;-;-;7.5350494;-2.6873016;-4.2370605;-;-;-;-;-;-;-;-;-;-;-;-;-;-;-
1514207340199;-;-;9.258865;-3.27388;-4.4776764;-;-;-;-;-;-;-;-;-;-;-;-;-;-;-
1514207340220;-;-;10.175842;-2.8141937;-4.808075;-;-;-;-;-;-;-;-;-;-;-;-;-;-;-
1514207340239;-;-;10.788757;-2.4730225;-5.161209;-;-;-;-;-;-;-;-;-;-;-;-;-;-;-
1514207340260;-;-;10.056137;-2.0504456;-5.6280823;-;-;-;-;-;-;-;-;-;-;-;-;-;-;-
1514207340281;-;-;8.56575;-1.5811768;-4.804474;-;-;-;-;-;-;-;-;-;-;-;-;-;-;-
1514207340302;-;-;8.639969;-1.2555695;-4.175995;-;-;-;-;-;-;-;-;-;-;-;-;-;-;-
1514207340322;-;-;9.206192;-1.8002472;-3.8851013;-;-;-;-;-;-;-;-;-;-;-;-;-;-;-
1514207340342;-;-;9.425262;-2.7172241;-4.3483887;-;-;-;-;-;-;-;-;-;-;-;-;-;-;-
1514207340363;-;-;9.843048;-2.1952972;-5.5419006;-;-;-;-;-;-;-;-;-;-;-;-;-;-;-
1514207340383;-;-;10.076492;-0.6354675;-5.8543396;-;-;-;-;-;-;-;-;-;-;-;-;-;-;-
1514207340403;-;-;10.236893;-0.37210083;-5.3048706;-;-;-;-;-;-;-;-;-;-;-;-;-;-;-
1514207340424;-;-;10.148315;-1.5285034;-4.575836;-;-;-;-;-;-;-;-;-;-;-;-;-;-;-
1514207340444;-;-;10.271622;-2.1809235;-4.4118347;-;-;-;-;-;-;-;-;-;-;-;-;-;-;-
1514207340464;-;-;11.784744;-1.8648987;-3.7869415;-;-;-;-;-;-;-;-;-;-;-;-;-;-;-
1514207340485;-;-;13.449921;-1.372879;-3.685196;-;-;-;-;-;-;-;-;-;-;-;-;-;-;-
1514207340504;-;-;12.8094635;-1.0963593;-3.0830536;-;-;-;-;-;-;-;-;-;-;-;-;-;-;-
1514207340524;-;-;12.712509;-1.8960114;-4.499222;-;-;-;-;-;-;-;-;-;-;-;-;-;-;-
1514207340544;-;-;13.615112;-1.5536499;-3.8503876;-;-;-;-;-;-;-;-;-;-;-;-;-;-;-
1514207340565;-;-;14.41478;-1.0101624;-1.9039001;-;-;-;-;-;-;-;-;-;-;-;-;-;-;-
1514207340585;-;-;13.470276;-1.2232513;-1.2861938;-;-;-;-;-;-;-;-;-;-;-;-;-;-;-
1514207340605;-;-;11.953537;-0.9431305;-1.282608;-;-;-;-;-;-;-;-;-;-;-;-;-;-;-
1514207340626;-;-;9.561737;-0.1877594;-0.5894928;-;-;-;-;-;-;-;-;-;-;-;-;-;-;-
1514207340646;-;-;7.008316;0.35453796;0.69859314;-;-;-;-;-;-;-;-;-;-;-;-;-;-;-
1514207340666;-;-;5.48201;0.5161438;1.3881226;-;-;-;-;-;-;-;-;-;-;-;-;-;-;-
1514207340687;-;-;5.0654297;0.115112305;1.0397644;-;-;-;-;-;-;-;-;-;-;-;-;-;-;-
1514207340707;-;-;5.9452972;-0.49661255;0.14193726;-;-;-;-;-;-;-;-;-;-;-;-;-;-;-
1514207340727;-;-;7.4763794;-0.9143982;-0.17289734;-;-;-;-;-;-;-;-;-;-;-;-;-;-;-
1514207340748;-;-;9.009872;-0.6534271;-0.456604;-;-;-;-;-;-;-;-;-;-;-;-;-;-;-
1514207340767;-;-;10.4092865;-0.17098999;-0.6373749;-;-;-;-;-;-;-;-;-;-;-;-;-;-;-
1514207340787;-;-;11.219711;0.299469;-0.88038635;-;-;-;-;-;-;-;-;-;-;-;-;-;-;-
1514207340808;-;-;11.502228;0.42156982;-0.5236511;-;-;-;-;-;-;-;-;-;-;-;-;-;-;-
1514207340828;-;-;11.265213;0.23362732;-0.2794342;-;-;-;-;-;-;-;-;-;-;-;-;-;-;-
1514207340848;-;-;9.790375;0.37249756;0.004272461;-;-;-;-;-;-;-;-;-;-;-;-;-;-;-
1514207340869;-;-;8.569336;0.8226013;0.28199768;-;-;-;-;-;-;-;-;-;-;-;-;-;-;-
1514207340889;-;-;7.7972107;1.0596313;0.54776;-;-;-;-;-;-;-;-;-;-;-;-;-;-;-
1514207340909;-;-;7.5194855;0.86450195;0.39453125;-;-;-;-;-;-;-;-;-;-;-;-;-;-;-
1514207340929;-;-;7.8606567;0.6274719;-0.04360962;-;-;-;-;-;-;-;-;-;-;-;-;-;-;-
1514207340950;-;-;8.401749;0.4514923;-0.17408752;-;-;-;-;-;-;-;-;-;-;-;-;-;-;-
1514207340970;-;-;8.794388;0.33657837;-0.49371338;-;-;-;-;-;-;-;-;-;-;-;-;-;-;-
1514207340990;-;-;8.896149;0.3796692;-0.535614;-;-;-;-;-;-;-;-;-;-;-;-;-;-;-
1514207341011;-;-;8.938049;0.5233307;-0.4338684;-;-;-;-;-;-;-;-;-;-;-;-;-;-;-
1514207341031;-;-;8.930862;1.0237122;-0.1309967;-;-;-;-;-;-;-;-;-;-;-;-;-;-;-
1514207341053;-;-;9.017059;1.4510803;-0.21240234;-;-;-;-;-;-;-;-;-;-;-;-;-;-;-
1514207341071;-;-;9.133179;1.7312012;-0.5056915;-;-;-;-;-;-;-;-;-;-;-;-;-;-;-
1514207341092;-;-;9.195419;1.659378;-0.91270447;-;-;-;-;-;-;-;-;-;-;-;-;-;-;-
1514207341111;-;-;9.558136;1.3229828;-1.2335358;-;-;-;-;-;-;-;-;-;-;-;-;-;-;-
1514207341133;-;-;9.755661;0.9710388;-1.3424683;-;-;-;-;-;-;-;-;-;-;-;-;-;-;-
1514207341154;-;-;9.665878;0.42037964;-1.6549072;-;-;-;-;-;-;-;-;-;-;-;-;-;-;-
1514207341175;-;-;9.542587;-0.0021972656;-1.737503;-;-;-;-;-;-;-;-;-;-;-;-;-;-;-
1514207341195;-;-;9.663483;-0.4834442;-2.2462769;-;-;-;-;-;-;-;-;-;-;-;-;-;-;-
1514207341215;-;-;9.914871;-0.9981842;-2.3983002;-;-;-;-;-;-;-;-;-;-;-;-;-;-;-
1514207341236;-;-;10.471527;-1.0604401;-2.1768494;-;-;-;-;-;-;-;-;-;-;-;-;-;-;-
1514207341256;-;-;10.408081;-0.5935669;-1.6956024;-;-;-;-;-;-;-;-;-;-;-;-;-;-;-
1514207341276;-;-;9.774811;-0.23564148;-1.6477203;-;-;-;-;-;-;-;-;-;-;-;-;-;-;-
1514207341296;-;-;9.15712;-0.61990356;-1.5962524;-;-;-;-;-;-;-;-;-;-;-;-;-;-;-
1514207341317;-;-;9.128387;-0.4547119;-1.8440552;-;-;-;-;-;-;-;-;-;-;-;-;-;-;-
1514207341337;-;-;9.390549;-0.0440979;-1.7339172;-;-;-;-;-;-;-;-;-;-;-;-;-;-;-
1514207341357;-;-;9.329498;0.42515564;-1.7961731;-;-;-;-;-;-;-;-;-;-;-;-;-;-;-
1514207341377;-;-;9.069733;0.8022461;-1.9685516;-;-;-;-;-;-;-;-;-;-;-;-;-;-;-
1514207341398;-;-;9.1918335;0.7866821;-1.9170685;-;-;-;-;-;-;-;-;-;-;-;-;-;-;-
1514207341418;-;-;9.434845;0.23841858;-1.8248901;-;-;-;-;-;-;-;-;-;-;-;-;-;-;-
1514207341438;-;-;9.125992;-0.2679596;-1.6968079;-;-;-;-;-;-;-;-;-;-;-;-;-;-;-
1514207341459;-;-;8.600464;-0.37091064;-1.2502899;-;-;-;-;-;-;-;-;-;-;-;-;-;-;-
1514207341479;-;-;9.371399;-0.2715454;-1.1832428;-;-;-;-;-;-;-;-;-;-;-;-;-;-;-
1514207341499;-;-;9.685028;0.057647705;-1.456192;-;-;-;-;-;-;-;-;-;-;-;-;-;-;-
1514207341519;-;-;9.372589;0.27313232;-1.7123718;-;-;-;-;-;-;-;-;-;-;-;-;-;-;-
1514207341540;-;-;9.318726;-0.11592102;-1.5483704;-;-;-;-;-;-;-;-;-;-;-;-;-;-;-
1514207341560;-;-;9.440826;-0.9934082;-1.5567474;-;-;-;-;-;-;-;-;-;-;-;-;-;-;-
1514207341581;-;-;9.311539;-1.4303436;-2.286972;-;-;-;-;-;-;-;-;-;-;-;-;-;-;-
1514207341601;-;-;8.90213;-1.2232513;-2.855606;-;-;-;-;-;-;-;-;-;-;-;-;-;-;-
1514207341621;-;-;9.002686;-1.2411957;-3.2578278;-;-;-;-;-;-;-;-;-;-;-;-;-;-;-
1514207341641;-;-;9.054169;-1.2567596;-3.6313171;-;-;-;-;-;-;-;-;-;-;-;-;-;-;-
1514207341662;-;-;9.522232;-0.8856659;-4.377121;-;-;-;-;-;-;-;-;-;-;-;-;-;-;-
1514207341683;-;-;9.592865;-0.42118835;-4.673996;-;-;-;-;-;-;-;-;-;-;-;-;-;-;-
1514207341704;-;-;9.230133;0.714859;-3.95813;-;-;-;-;-;-;-;-;-;-;-;-;-;-;-
1514207341723;-;-;8.707001;1.4115753;-2.5994263;-;-;-;-;-;-;-;-;-;-;-;-;-;-;-
1514207341743;-;-;8.156342;1.3624878;-1.9182739;-;-;-;-;-;-;-;-;-;-;-;-;-;-;-
1514207341764;-;-;7.711014;0.5257263;-2.1265717;-;-;-;-;-;-;-;-;-;-;-;-;-;-;-
1514207341784;-;-;7.890579;0.5053711;-2.2965546;-;-;-;-;-;-;-;-;-;-;-;-;-;-;-
1514207341804;-;-;8.112045;0.8381653;-2.120575;-;-;-;-;-;-;-;-;-;-;-;-;-;-;-
1514207341824;-;-;9.058945;1.3241882;-1.5028687;-;-;-;-;-;-;-;-;-;-;-;-;-;-;-
1514207341845;-;-;9.230133;1.2870789;-1.3125305;-;-;-;-;-;-;-;-;-;-;-;-;-;-;-
1514207341865;-;-;9.365402;0.59994507;-1.2466888;-;-;-;-;-;-;-;-;-;-;-;-;-;-;-
1514207341885;-;-;9.249298;0.48501587;-1.1760712;-;-;-;-;-;-;-;-;-;-;-;-;-;-;-
1514207341906;-;-;9.345062;0.7040863;-0.88157654;-;-;-;-;-;-;-;-;-;-;-;-;-;-;-
1514207341926;-;-;9.020645;1.1577911;-1.2119751;-;-;-;-;-;-;-;-;-;-;-;-;-;-;-
1514207341946;-;-;8.887772;1.1553955;-1.2179718;-;-;-;-;-;-;-;-;-;-;-;-;-;-;-
1514207341966;-;-;9.063736;1.0596313;-0.95339966;-;-;-;-;-;-;-;-;-;-;-;-;-;-;-
1514207341986;-;-;8.894943;0.81781006;-0.6230011;-;-;-;-;-;-;-;-;-;-;-;-;-;-;-
1514207342007;-;-;8.813553;0.1558075;-1.2909851;-;-;-;-;-;-;-;-;-;-;-;-;-;-;-
1514207342027;-;-;8.438858;-0.08958435;-1.1329651;-;-;-;-;-;-;-;-;-;-;-;-;-;-;-
1514207342047;-;-;8.511871;0.21687317;-0.55955505;-;-;-;-;-;-;-;-;-;-;-;-;-;-;-
1514207342067;-;-;8.958389;0.5460663;-0.7786255;-;-;-;-;-;-;-;-;-;-;-;-;-;-;-
1514207342088;-;-;9.181061;0.6382446;-1.6908264;-;-;-;-;-;-;-;-;-;-;-;-;-;-;-
1514207342107;-;-;9.289993;0.22644043;-2.9034882;-;-;-;-;-;-;-;-;-;-;-;-;-;-;-
1514207342127;-;-;9.900513;0.56044006;-4.7949066;-;-;-;-;-;-;-;-;-;-;-;-;-;-;-
1514207342147;-;-;10.088455;-0.6151123;-1.5208282;-;-;-;-;-;-;-;-;-;-;-;-;-;-;-
1514207342168;-;-;8.74411;-1.7870789;0.3885498;-;-;-;-;-;-;-;-;-;-;-;-;-;-;-
1514207342187;-;-;8.294006;-1.6721649;-0.7199707;-;-;-;-;-;-;-;-;-;-;-;-;-;-;-
1514207342207;-;-;8.811157;-0.69532776;-1.5220337;-;-;-;-;-;-;-;-;-;-;-;-;-;-;-
1514207342227;-;-;8.958389;0.1330719;-0.6481476;-;-;-;-;-;-;-;-;-;-;-;-;-;-;-
1514207342248;-;-;8.958389;0.3796692;-0.08909607;-;-;-;-;-;-;-;-;-;-;-;-;-;-;-
1514207342269;-;-;8.893753;-0.06564331;-0.25430298;-;-;-;-;-;-;-;-;-;-;-;-;-;-;-
1514207342289;-;-;9.426468;-0.92996216;-0.9629822;-;-;-;-;-;-;-;-;-;-;-;-;-;-;-
1514207342309;-;-;11.357391;-1.4973755;-2.278595;-;-;-;-;-;-;-;-;-;-;-;-;-;-;-
1514207342329;-;-;12.019379;-2.293457;-3.3081055;-;-;-;-;-;-;-;-;-;-;-;-;-;-;-
1514207342350;-;-;10.568497;-1.3704834;-3.3679657;-;-;-;-;-;-;-;-;-;-;-;-;-;-;-
1514207342370;-;-;8.746506;-0.8605194;-4.0407257;-;-;-;-;-;-;-;-;-;-;-;-;-;-;-
1514207342390;-;-;8.3897705;-0.35295105;-5.266556;-;-;-;-;-;-;-;-;-;-;-;-;-;-;-
1514207342411;-;-;9.831085;-0.10395813;-3.93898;-;-;-;-;-;-;-;-;-;-;-;-;-;-;-
1514207342432;-;-;9.87178;0.73161316;-3.753418;-;-;-;-;-;-;-;-;-;-;-;-;-;-;-
1514207342451;-;-;7.2621;1.0943451;-3.9856567;-;-;-;-;-;-;-;-;-;-;-;-;-;-;-
1514207342471;-;-;6.869461;0.51135254;-2.6125946;-;-;-;-;-;-;-;-;-;-;-;-;-;-;-
1514207342492;-;-;6.791641;0.11152649;-2.642517;-;-;-;-;-;-;-;-;-;-;-;-;-;-;-
1514207342512;-;-;7.2309723;0.6430359;-2.278595;-;-;-;-;-;-;-;-;-;-;-;-;-;-;-
1514207342532;-;-;8.357452;1.0129395;-2.1229706;-;-;-;-;-;-;-;-;-;-;-;-;-;-;-
1514207342552;-;-;10.360199;0.7400055;-2.0188293;-;-;-;-;-;-;-;-;-;-;-;-;-;-;-
1514207342573;-;-;11.402878;-0.2966919;-0.5248413;-;-;-;-;-;-;-;-;-;-;-;-;-;-;-
1514207342593;-;-;10.619965;-1.0652313;-0.36083984;-;-;-;-;-;-;-;-;-;-;-;-;-;-;-
1514207342612;-;-;10.18782;-1.2507782;-0.55477905;-;-;-;-;-;-;-;-;-;-;-;-;-;-;-
1514207342632;-;-;10.56012;-1.1538086;-0.47816467;-;-;-;-;-;-;-;-;-;-;-;-;-;-;-
1514207342653;-;-;10.752853;-0.783905;-0.74391174;-;-;-;-;-;-;-;-;-;-;-;-;-;-;-
1514207342673;-;-;9.9436035;-0.16859436;-0.8241272;-;-;-;-;-;-;-;-;-;-;-;-;-;-;-
1514207342693;-;-;7.810379;0.27192688;-0.5799103;-;-;-;-;-;-;-;-;-;-;-;-;-;-;-
1514207342713;-;-;6.8993835;-0.29908752;-0.43266296;-;-;-;-;-;-;-;-;-;-;-;-;-;-;-
1514207342734;-;-;7.6906586;-0.5851898;-0.7463074;-;-;-;-;-;-;-;-;-;-;-;-;-;-;-
1514207342754;-;-;9.548569;-0.090789795;-0.7295532;-;-;-;-;-;-;-;-;-;-;-;-;-;-;-
1514207342774;-;-;10.744476;0.06842041;-0.3548584;-;-;-;-;-;-;-;-;-;-;-;-;-;-;-
1514207342795;-;-;10.030991;-0.107543945;-1.3328857;-;-;-;-;-;-;-;-;-;-;-;-;-;-;-
1514207342815;-;-;9.555756;-0.19374084;-1.5615387;-;-;-;-;-;-;-;-;-;-;-;-;-;-;-
1514207342835;-;-;9.473145;0.019348145;-1.1317749;-;-;-;-;-;-;-;-;-;-;-;-;-;-;-
1514207342856;-;-;8.693832;0.23721313;-1.2909851;-;-;-;-;-;-;-;-;-;-;-;-;-;-;-
1514207342876;-;-;8.550186;0.338974;-1.0312195;-;-;-;-;-;-;-;-;-;-;-;-;-;-;-
1514207342896;-;-;9.550964;0.35333252;-0.6194153;-;-;-;-;-;-;-;-;-;-;-;-;-;-;-
1514207342917;-;-;9.170288;0.5532532;-0.33810425;-;-;-;-;-;-;-;-;-;-;-;-;-;-;-
1514207342937;-;-;8.550186;0.17497253;-0.44343567;-;-;-;-;-;-;-;-;-;-;-;-;-;-;-
1514207342957;-;-;8.302383;-0.41281128;-0.5631561;-;-;-;-;-;-;-;-;-;-;-;-;-;-;-
1514207342977;-;-;9.418076;-0.59954834;-0.5499878;-;-;-;-;-;-;-;-;-;-;-;-;-;-;-
1514207342998;-;-;9.92804;-0.14225769;-0.79060364;-;-;-;-;-;-;-;-;-;-;-;-;-;-;-
1514207343018;-;-;9.391739;0.15940857;-1.0862885;-;-;-;-;-;-;-;-;-;-;-;-;-;-;-
1514207343038;-;-;8.758484;0.30784607;-0.8312988;-;-;-;-;-;-;-;-;-;-;-;-;-;-;-
1514207343059;-;-;9.072113;0.30903625;-0.6397705;-;-;-;-;-;-;-;-;-;-;-;-;-;-;-
1514207343079;-;-;9.329498;0.18693542;-1.2694397;-;-;-;-;-;-;-;-;-;-;-;-;-;-;-
1514207343099;-;-;9.600037;0.112716675;-1.8763733;-;-;-;-;-;-;-;-;-;-;-;-;-;-;-
1514207343120;-;-;9.972336;-0.14465332;-2.3157043;-;-;-;-;-;-;-;-;-;-;-;-;-;-;-
1514207343140;-;-;10.485901;-0.55526733;-2.2438812;-;-;-;-;-;-;-;-;-;-;-;-;-;-;-
1514207343160;-;-;10.457169;-1.5021667;-2.6473083;-;-;-;-;-;-;-;-;-;-;-;-;-;-;-
1514207343180;-;-;10.200989;-2.6980743;-3.44458;-;-;-;-;-;-;-;-;-;-;-;-;-;-;-
1514207343201;-;-;10.648697;-3.2774658;-3.8851013;-;-;-;-;-;-;-;-;-;-;-;-;-;-;-
1514207343221;-;-;11.35379;-2.6178741;-4.322052;-;-;-;-;-;-;-;-;-;-;-;-;-;-;-
1514207343242;-;-;10.417664;-0.07762146;-4.5770264;-;-;-;-;-;-;-;-;-;-;-;-;-;-;-
1514207343262;-;-;7.1998596;2.2256012;-3.298523;-;-;-;-;-;-;-;-;-;-;-;-;-;-;-
1514207343282;-;-;3.90065;1.2332001;-2.2127533;-;-;-;-;-;-;-;-;-;-;-;-;-;-;-
1514207343303;-;-;3.7174835;-1.4267578;-1.8967285;-;-;-;-;-;-;-;-;-;-;-;-;-;-;-
1514207343323;-;-;5.636444;-3.507309;-2.389923;-;-;-;-;-;-;-;-;-;-;-;-;-;-;-
1514207343343;-;-;7.545822;-3.404358;-3.073471;-;-;-;-;-;-;-;-;-;-;-;-;-;-;-
1514207343363;-;-;7.738556;-1.6158905;-2.709549;-;-;-;-;-;-;-;-;-;-;-;-;-;-;-
1514207343384;-;-;6.62883;-0.47865295;-2.4330292;-;-;-;-;-;-;-;-;-;-;-;-;-;-;-
1514207343404;-;-;5.9584656;-0.41160583;-1.7123718;-;-;-;-;-;-;-;-;-;-;-;-;-;-;-
1514207343424;-;-;6.919739;-0.3481598;-0.8372803;-;-;-;-;-;-;-;-;-;-;-;-;-;-;-
1514207343445;-;-;7.952835;0.5448761;-1.3472595;-;-;-;-;-;-;-;-;-;-;-;-;-;-;-
1514207343466;-;-;10.3697815;1.0691986;-2.5168152;-;-;-;-;-;-;-;-;-;-;-;-;-;-;-
1514207343486;-;-;12.173813;2.0280762;-2.796936;-;-;-;-;-;-;-;-;-;-;-;-;-;-;-
1514207343506;-;-;11.850586;1.2667236;-4.2933197;-;-;-;-;-;-;-;-;-;-;-;-;-;-;-
1514207343526;-;-;13.345764;-0.43554688;-4.9924316;-;-;-;-;-;-;-;-;-;-;-;-;-;-;-
1514207343547;-;-;14.831375;-2.6669464;-4.028763;-;-;-;-;-;-;-;-;-;-;-;-;-;-;-
1514207343567;-;-;15.179733;-3.7862396;-4.226288;-;-;-;-;-;-;-;-;-;-;-;-;-;-;-
1514207343587;-;-;12.197754;-3.562378;-3.5223846;-;-;-;-;-;-;-;-;-;-;-;-;-;-;-
1514207343608;-;-;8.191055;-2.0684052;-1.5519562;-;-;-;-;-;-;-;-;-;-;-;-;-;-;-
1514207343627;-;-;6.588135;-0.62350464;0.4867096;-;-;-;-;-;-;-;-;-;-;-;-;-;-;-
1514207343647;-;-;5.9117737;0.65979004;0.35861206;-;-;-;-;-;-;-;-;-;-;-;-;-;-;-
1514207343667;-;-;4.7362213;1.7443695;0.09526062;-;-;-;-;-;-;-;-;-;-;-;-;-;-;-
1514207343688;-;-;5.486801;1.3576965;0.027023315;-;-;-;-;-;-;-;-;-;-;-;-;-;-;-
1514207343708;-;-;8.027054;0.7328186;-0.927063;-;-;-;-;-;-;-;-;-;-;-;-;-;-;-
1514207343728;-;-;10.654694;0.5771942;-1.9230652;-;-;-;-;-;-;-;-;-;-;-;-;-;-;-
1514207343749;-;-;12.669403;-0.4163971;-1.8596191;-;-;-;-;-;-;-;-;-;-;-;-;-;-;-
1514207343769;-;-;12.046921;-1.5165405;-0.6708832;-;-;-;-;-;-;-;-;-;-;-;-;-;-;-
1514207343789;-;-;10.702576;-1.5440674;0.41488647;-;-;-;-;-;-;-;-;-;-;-;-;-;-;-
1514207343810;-;-;9.339081;-1.601532;0.99069214;-;-;-;-;-;-;-;-;-;-;-;-;-;-;-
1514207343830;-;-;7.949234;-1.1562042;1.2815857;-;-;-;-;-;-;-;-;-;-;-;-;-;-;-
1514207343850;-;-;7.9815674;-0.41760254;1.0122375;-;-;-;-;-;-;-;-;-;-;-;-;-;-;-
1514207343870;-;-;8.777634;0.0061798096;0.69140625;-;-;-;-;-;-;-;-;-;-;-;-;-;-;-
1514207343891;-;-;8.728546;0.30545044;0.32748413;-;-;-;-;-;-;-;-;-;-;-;-;-;-;-
1514207343910;-;-;8.371811;0.38565063;0.16229248;-;-;-;-;-;-;-;-;-;-;-;-;-;-;-
1514207343930;-;-;8.4843445;0.18814087;0.20179749;-;-;-;-;-;-;-;-;-;-;-;-;-;-;-
1514207343950;-;-;9.0733185;-0.27275085;0.50704956;-;-;-;-;-;-;-;-;-;-;-;-;-;-;-
1514207343970;-;-;9.428848;-1.0137482;0.8805542;-;-;-;-;-;-;-;-;-;-;-;-;-;-;-
1514207343991;-;-;9.346252;-1.625473;1.1331329;-;-;-;-;-;-;-;-;-;-;-;-;-;-;-
1514207344011;-;-;9.47554;-1.6158905;1.2097473;-;-;-;-;-;-;-;-;-;-;-;-;-;-;-
1514207344031;-;-;9.771225;-1.2184601;0.99427795;-;-;-;-;-;-;-;-;-;-;-;-;-;-;-
1514207344051;-;-;9.700592;-0.6917267;0.75845337;-;-;-;-;-;-;-;-;-;-;-;-;-;-;-
1514207344072;-;-;9.537796;-0.17936707;0.5944519;-;-;-;-;-;-;-;-;-;-;-;-;-;-;-
1514207344092;-;-;9.170288;-0.02015686;0.42086792;-;-;-;-;-;-;-;-;-;-;-;-;-;-;-
1514207344112;-;-;8.932053;-0.14465332;0.5274048;-;-;-;-;-;-;-;-;-;-;-;-;-;-;-
1514207344133;-;-;8.918884;-0.19493103;0.60162354;-;-;-;-;-;-;-;-;-;-;-;-;-;-;-
1514207344153;-;-;9.172684;-0.03691101;0.6207886;-;-;-;-;-;-;-;-;-;-;-;-;-;-;-
1514207344173;-;-;9.384567;0.2707367;1.0397644;-;-;-;-;-;-;-;-;-;-;-;-;-;-;-
1514207344194;-;-;8.789597;-0.012969971;0.7141571;-;-;-;-;-;-;-;-;-;-;-;-;-;-;-
1514207344214;-;-;9.379776;-1.2639465;0.53578186;-;-;-;-;-;-;-;-;-;-;-;-;-;-;-
1514207344234;-;-;9.9986725;-1.4470978;0.28320313;-;-;-;-;-;-;-;-;-;-;-;-;-;-;-
1514207344255;-;-;10.189011;-1.0065765;-0.3476715;-;-;-;-;-;-;-;-;-;-;-;-;-;-;-
1514207344274;-;-;9.838257;-0.6725769;-0.84446716;-;-;-;-;-;-;-;-;-;-;-;-;-;-;-
1514207344294;-;-;9.380966;-0.35295105;-0.9007416;-;-;-;-;-;-;-;-;-;-;-;-;-;-;-
1514207344314;-;-;9.249298;-0.3002777;-1.164093;-;-;-;-;-;-;-;-;-;-;-;-;-;-;-
1514207344335;-;-;9.3498535;-0.10874939;-1.337677;-;-;-;-;-;-;-;-;-;-;-;-;-;-;-
1514207344355;-;-;9.462372;0.0025787354;-1.3149261;-;-;-;-;-;-;-;-;-;-;-;-;-;-;-
1514207344375;-;-;9.668274;-0.40203857;-1.2131805;-;-;-;-;-;-;-;-;-;-;-;-;-;-;-
1514207344396;-;-;9.578491;-0.30387878;-0.8372803;-;-;-;-;-;-;-;-;-;-;-;-;-;-;-
1514207344416;-;-;9.3546295;-0.51934814;0.12159729;-;-;-;-;-;-;-;-;-;-;-;-;-;-;-
1514207344436;-;-;9.391739;-0.46427917;0.13595581;-;-;-;-;-;-;-;-;-;-;-;-;-;-;-
1514207344457;-;-;8.898544;-0.7420044;0.30593872;-;-;-;-;-;-;-;-;-;-;-;-;-;-;-
1514207344477;-;-;9.421677;-0.9862213;-0.24232483;-;-;-;-;-;-;-;-;-;-;-;-;-;-;-
1514207344497;-;-;9.5677185;-0.9503021;-0.20521545;-;-;-;-;-;-;-;-;-;-;-;-;-;-;-
1514207344517;-;-;9.364212;-0.42358398;-0.64694214;-;-;-;-;-;-;-;-;-;-;-;-;-;-;-
1514207344538;-;-;9.136765;-0.4918213;-0.5248413;-;-;-;-;-;-;-;-;-;-;-;-;-;-;-
1514207344557;-;-;9.469559;-1.0628357;-0.7558899;-;-;-;-;-;-;-;-;-;-;-;-;-;-;-
1514207344577;-;-;9.585678;-1.3118286;-0.9737549;-;-;-;-;-;-;-;-;-;-;-;-;-;-;-
1514207344598;-;-;9.694611;-1.2244415;-0.922287;-;-;-;-;-;-;-;-;-;-;-;-;-;-;-
1514207344618;-;-;9.303162;-0.83418274;-0.55596924;-;-;-;-;-;-;-;-;-;-;-;-;-;-;-
1514207344638;-;-;8.64476;-0.5708313;0.08807373;-;-;-;-;-;-;-;-;-;-;-;-;-;-;-
1514207344659;-;-;8.60405;-0.55766296;0.18144226;-;-;-;-;-;-;-;-;-;-;-;-;-;-;-
1514207344679;-;-;8.797989;-0.5600586;0.20059204;-;-;-;-;-;-;-;-;-;-;-;-;-;-;-
1514207344699;-;-;9.131973;-0.65701294;0.31791687;-;-;-;-;-;-;-;-;-;-;-;-;-;-;-
1514207344719;-;-;9.668274;-0.7228546;-0.121414185;-;-;-;-;-;-;-;-;-;-;-;-;-;-;-
1514207344740;-;-;9.583282;-0.6498413;-0.23275757;-;-;-;-;-;-;-;-;-;-;-;-;-;-;-
1514207344760;-;-;9.760452;-0.71447754;-5.187988E-4;-;-;-;-;-;-;-;-;-;-;-;-;-;-;-
1514207344781;-;-;9.2313385;-0.8688965;0.17785645;-;-;-;-;-;-;-;-;-;-;-;-;-;-;-
1514207344801;-;-;9.003891;-1.0951538;0.16708374;-;-;-;-;-;-;-;-;-;-;-;-;-;-;-
1514207344821;-;-;8.876999;-1.2986603;0.12637329;-;-;-;-;-;-;-;-;-;-;-;-;-;-;-
1514207344842;-;-;8.915298;-1.4327393;0.44360352;-;-;-;-;-;-;-;-;-;-;-;-;-;-;-
1514207344862;-;-;8.716583;-1.2711334;0.38494873;-;-;-;-;-;-;-;-;-;-;-;-;-;-;-
1514207344882;-;-;9.209793;-1.067627;0.40530396;-;-;-;-;-;-;-;-;-;-;-;-;-;-;-
1514207344903;-;-;9.92804;-1.1059265;0.27243042;-;-;-;-;-;-;-;-;-;-;-;-;-;-;-
1514207344922;-;-;10.321899;-1.0221252;0.27243042;-;-;-;-;-;-;-;-;-;-;-;-;-;-;-
1514207344942;-;-;9.823898;-0.7192688;0.0054779053;-;-;-;-;-;-;-;-;-;-;-;-;-;-;-
1514207344962;-;-;9.09845;-0.16740417;0.25805664;-;-;-;-;-;-;-;-;-;-;-;-;-;-;-
1514207344983;-;-;9.035004;0.033706665;0.37417603;-;-;-;-;-;-;-;-;-;-;-;-;-;-;-
1514207345003;-;-;9.102051;-0.057266235;0.3322754;-;-;-;-;-;-;-;-;-;-;-;-;-;-;-
1514207345023;-;-;9.925659;-0.3577423;0.77401733;-;-;-;-;-;-;-;-;-;-;-;-;-;-;-
1514207345044;-;-;9.73172;-0.7731323;0.6746521;-;-;-;-;-;-;-;-;-;-;-;-;-;-;-
1514207345065;-;-;9.778412;-0.9658661;0.78718567;-;-;-;-;-;-;-;-;-;-;-;-;-;-;-
1514207345085;-;-;9.979523;-0.61750793;0.26524353;-;-;-;-;-;-;-;-;-;-;-;-;-;-;-
1514207345105;-;-;9.47554;0.24440002;0.16947937;-;-;-;-;-;-;-;-;-;-;-;-;-;-;-
1514207345125;-;-;8.667496;0.54008484;0.37417603;-;-;-;-;-;-;-;-;-;-;-;-;-;-;-
1514207345146;-;-;7.956421;0.6346588;0.86380005;-;-;-;-;-;-;-;-;-;-;-;-;-;-;-
1514207345166;-;-;8.043808;0.59994507;1.2803802;-;-;-;-;-;-;-;-;-;-;-;-;-;-;-
1514207345186;-;-;8.876999;0.42156982;1.2241211;-;-;-;-;-;-;-;-;-;-;-;-;-;-;-
1514207345207;-;-;9.628769;-0.12550354;1.2959442;-;-;-;-;-;-;-;-;-;-;-;-;-;-;-
1514207345227;-;-;9.827484;-0.660614;0.7033844;-;-;-;-;-;-;-;-;-;-;-;-;-;-;-
1514207345247;-;-;9.839462;-0.9934082;0.8949127;-;-;-;-;-;-;-;-;-;-;-;-;-;-;-
1514207345268;-;-;9.197815;-1.1681824;1.409668;-;-;-;-;-;-;-;-;-;-;-;-;-;-;-
1514207345288;-;-;8.944031;-1.3417511;1.3797455;-;-;-;-;-;-;-;-;-;-;-;-;-;-;-
1514207345308;-;-;9.025436;-1.4147797;1.3115082;-;-;-;-;-;-;-;-;-;-;-;-;-;-;-
1514207345329;-;-;9.444412;-1.4099884;1.3294678;-;-;-;-;-;-;-;-;-;-;-;-;-;-;-
1514207345349;-;-;9.638351;-1.313034;1.2504578;-;-;-;-;-;-;-;-;-;-;-;-;-;-;-
1514207345369;-;-;9.418076;-0.99938965;1.2289124;-;-;-;-;-;-;-;-;-;-;-;-;-;-;-
1514207345389;-;-;9.216965;-0.6821594;1.3629761;-;-;-;-;-;-;-;-;-;-;-;-;-;-;-
1514207345410;-;-;9.145142;-0.47265625;1.3282623;-;-;-;-;-;-;-;-;-;-;-;-;-;-;-
1514207345429;-;-;9.455185;-0.30267334;1.2097473;-;-;-;-;-;-;-;-;-;-;-;-;-;-;-
1514207345449;-;-;9.291183;-0.064453125;0.9715271;-;-;-;-;-;-;-;-;-;-;-;-;-;-;-
1514207345469;-;-;8.540604;0.06842041;0.3023529;-;-;-;-;-;-;-;-;-;-;-;-;-;-;-
1514207345490;-;-;9.322311;-0.109939575;1.7089386;-;-;-;-;-;-;-;-;-;-;-;-;-;-;-
1514207345510;-;-;9.467163;0.2803192;2.0740662;-;-;-;-;-;-;-;-;-;-;-;-;-;-;-
1514207345530;-;-;8.363434;0.01574707;1.5569153;-;-;-;-;-;-;-;-;-;-;-;-;-;-;-
1514207345550;-;-;8.497513;0.3210144;1.3474274;-;-;-;-;-;-;-;-;-;-;-;-;-;-;-
1514207345570;-;-;9.811935;1.0201263;1.8106995;-;-;-;-;-;-;-;-;-;-;-;-;-;-;-
1514207345591;-;-;10.727707;1.1290588;1.8035126;-;-;-;-;-;-;-;-;-;-;-;-;-;-;-
1514207345611;-;-;9.483917;0.2850952;1.1068115;-;-;-;-;-;-;-;-;-;-;-;-;-;-;-
1514207345631;-;-;8.402939;-0.49661255;1.0014648;-;-;-;-;-;-;-;-;-;-;-;-;-;-;-
1514207345651;-;-;8.859039;-1.0783997;1.6933899;-;-;-;-;-;-;-;-;-;-;-;-;-;-;-
1514207345672;-;-;9.3103485;-0.8138428;2.125534;-;-;-;-;-;-;-;-;-;-;-;-;-;-;-
1514207345692;-;-;9.109222;-0.87968445;2.10997;-;-;-;-;-;-;-;-;-;-;-;-;-;-;-
1514207345712;-;-;8.812347;-1.1143036;1.6849976;-;-;-;-;-;-;-;-;-;-;-;-;-;-;-
1514207345732;-;-;8.701019;-1.115509;1.6790161;-;-;-;-;-;-;-;-;-;-;-;-;-;-;-
1514207345752;-;-;8.938049;-0.8892517;1.9962463;-;-;-;-;-;-;-;-;-;-;-;-;-;-;-
1514207345773;-;-;8.890167;-0.9084015;2.0489197;-;-;-;-;-;-;-;-;-;-;-;-;-;-;-
1514207345793;-;-;8.562149;-0.89404297;1.7400665;-;-;-;-;-;-;-;-;-;-;-;-;-;-;-
1514207345813;-;-;8.460403;-0.40322876;1.7137299;-;-;-;-;-;-;-;-;-;-;-;-;-;-;-
1514207345833;-;-;8.797989;0.26594543;2.0572968;-;-;-;-;-;-;-;-;-;-;-;-;-;-;-
1514207345854;-;-;8.537018;0.45269775;2.0980072;-;-;-;-;-;-;-;-;-;-;-;-;-;-;-
1514207345874;-;-;8.657928;0.12588501;2.1231384;-;-;-;-;-;-;-;-;-;-;-;-;-;-;-
1514207345894;-;-;8.955994;-0.47505188;2.0166016;-;-;-;-;-;-;-;-;-;-;-;-;-;-;-
1514207345914;-;-;9.342667;-0.94192505;1.701767;-;-;-;-;-;-;-;-;-;-;-;-;-;-;-
1514207345934;-;-;9.589264;-0.8282013;1.4467773;-;-;-;-;-;-;-;-;-;-;-;-;-;-;-
1514207345955;-;-;9.777206;-0.43196106;1.239685;-;-;-;-;-;-;-;-;-;-;-;-;-;-;-
1514207345975;-;-;9.872986;-0.30148315;1.212143;-;-;-;-;-;-;-;-;-;-;-;-;-;-;-
1514207345995;-;-;9.640747;-0.16261292;1.097229;-;-;-;-;-;-;-;-;-;-;-;-;-;-;-
1514207346016;-;-;9.175064;0.3030548;1.2720032;-;-;-;-;-;-;-;-;-;-;-;-;-;-;-
1514207346037;-;-;8.930862;0.6214905;1.5389557;-;-;-;-;-;-;-;-;-;-;-;-;-;-;-
1514207346056;-;-;8.944031;0.4072113;1.4790955;-;-;-;-;-;-;-;-;-;-;-;-;-;-;-
1514207346076;-;-;9.33429;-0.093185425;1.4455872;-;-;-;-;-;-;-;-;-;-;-;-;-;-;-
1514207346097;-;-;9.565323;-0.29071045;1.2013702;-;-;-;-;-;-;-;-;-;-;-;-;-;-;-
1514207346116;-;-;9.571304;-0.34576416;0.82069397;-;-;-;-;-;-;-;-;-;-;-;-;-;-;-
1514207346136;-;-;9.121201;-0.22964478;0.71655273;-;-;-;-;-;-;-;-;-;-;-;-;-;-;-
1514207346157;-;-;8.910507;-0.29309082;0.73091125;-;-;-;-;-;-;-;-;-;-;-;-;-;-;-
1514207346177;-;-;9.133179;-0.34936523;0.7979584;-;-;-;-;-;-;-;-;-;-;-;-;-;-;-
1514207346197;-;-;9.458786;-0.14704895;0.83506775;-;-;-;-;-;-;-;-;-;-;-;-;-;-;-
1514207346218;-;-;9.546173;0.095962524;0.74768066;-;-;-;-;-;-;-;-;-;-;-;-;-;-;-
1514207346238;-;-;9.534195;0.15940857;0.6961975;-;-;-;-;-;-;-;-;-;-;-;-;-;-;-
1514207346258;-;-;9.598846;0.010971069;0.7512665;-;-;-;-;-;-;-;-;-;-;-;-;-;-;-
1514207346279;-;-;9.698196;-0.25479126;0.8123169;-;-;-;-;-;-;-;-;-;-;-;-;-;-;-
1514207346299;-;-;9.518631;-0.4092102;0.74768066;-;-;-;-;-;-;-;-;-;-;-;-;-;-;-
1514207346319;-;-;9.239716;-0.3984375;0.71894836;-;-;-;-;-;-;-;-;-;-;-;-;-;-;-
1514207346340;-;-;9.183456;-0.1769867;1.002655;-;-;-;-;-;-;-;-;-;-;-;-;-;-;-
1514207346359;-;-;9.295975;0.040893555;1.1080017;-;-;-;-;-;-;-;-;-;-;-;-;-;-;-
1514207346379;-;-;9.23613;0.03012085;1.1319427;-;-;-;-;-;-;-;-;-;-;-;-;-;-;-
1514207346399;-;-;9.269638;-0.12908936;0.86499023;-;-;-;-;-;-;-;-;-;-;-;-;-;-;-
1514207346420;-;-;9.248093;-0.13986206;0.9308319;-;-;-;-;-;-;-;-;-;-;-;-;-;-;-
1514207346440;-;-;9.400131;-0.17219543;1.3629761;-;-;-;-;-;-;-;-;-;-;-;-;-;-;-
1514207346460;-;-;9.49231;-0.3182373;1.0673065;-;-;-;-;-;-;-;-;-;-;-;-;-;-;-
1514207346481;-;-;9.011063;-0.25958252;0.6638794;-;-;-;-;-;-;-;-;-;-;-;-;-;-;-
1514207346500;-;-;9.145142;-0.23564148;1.231308;-;-;-;-;-;-;-;-;-;-;-;-;-;-;-
1514207346520;-;-;9.543777;-0.6031494;1.0325775;-;-;-;-;-;-;-;-;-;-;-;-;-;-;-
1514207346541;-;-;9.355835;-0.71687317;0.47712708;-;-;-;-;-;-;-;-;-;-;-;-;-;-;-
1514207346560;-;-;9.199005;-0.542099;0.65190125;-;-;-;-;-;-;-;-;-;-;-;-;-;-;-
1514207346580;-;-;9.329498;-0.37449646;1.1798248;-;-;-;-;-;-;-;-;-;-;-;-;-;-;-
1514207346601;-;-;8.959595;-0.23324585;1.2923584;-;-;-;-;-;-;-;-;-;-;-;-;-;-;-
1514207346621;-;-;8.718979;-0.37928772;1.0158234;-;-;-;-;-;-;-;-;-;-;-;-;-;-;-
1514207346641;-;-;8.861435;-0.3002777;0.92485046;-;-;-;-;-;-;-;-;-;-;-;-;-;-;-
1514207346661;-;-;9.25528;-0.42956543;1.0984192;-;-;-;-;-;-;-;-;-;-;-;-;-;-;-
1514207346682;-;-;9.674255;-0.5504761;1.3007355;-;-;-;-;-;-;-;-;-;-;-;-;-;-;-
1514207346702;-;-;10.173447;-0.80784607;1.7197266;-;-;-;-;-;-;-;-;-;-;-;-;-;-;-
1514207346722;-;-;9.932831;-1.0939636;1.8526001;-;-;-;-;-;-;-;-;-;-;-;-;-;-;-
1514207346742;-;-;9.438431;-1.2052917;1.5784607;-;-;-;-;-;-;-;-;-;-;-;-;-;-;-
1514207346763;-;-;8.7261505;-0.69532776;1.7687988;-;-;-;-;-;-;-;-;-;-;-;-;-;-;-
1514207346783;-;-;8.76207;-0.20930481;2.4032593;-;-;-;-;-;-;-;-;-;-;-;-;-;-;-
1514207346803;-;-;8.972763;-0.21647644;2.3553772;-;-;-;-;-;-;-;-;-;-;-;-;-;-;-
1514207346824;-;-;9.011063;-0.47027588;2.1973572;-;-;-;-;-;-;-;-;-;-;-;-;-;-;-
1514207346844;-;-;8.780029;-0.917984;1.9759064;-;-;-;-;-;-;-;-;-;-;-;-;-;-;-
1514207346864;-;-;9.048172;-1.3297882;2.1770172;-;-;-;-;-;-;-;-;-;-;-;-;-;-;-
1514207346885;-;-;9.042191;-0.6689911;2.4188232;-;-;-;-;-;-;-;-;-;-;-;-;-;-;-
1514207346905;-;-;8.624405;-0.2775421;2.540924;-;-;-;-;-;-;-;-;-;-;-;-;-;-;-
1514207346925;-;-;8.601654;-0.38287354;2.580429;-;-;-;-;-;-;-;-;-;-;-;-;-;-;-
1514207346945;-;-;8.853058;-0.59117126;2.393692;-;-;-;-;-;-;-;-;-;-;-;-;-;-;-
1514207346966;-;-;8.880585;-0.31225586;2.3122864;-;-;-;-;-;-;-;-;-;-;-;-;-;-;-
1514207346985;-;-;8.90094;0.15222168;2.3434143;-;-;-;-;-;-;-;-;-;-;-;-;-;-;-
1514207347005;-;-;8.8602295;0.44911194;2.2332764;-;-;-;-;-;-;-;-;-;-;-;-;-;-;-
1514207347025;-;-;9.032608;0.42636108;2.0596924;-;-;-;-;-;-;-;-;-;-;-;-;-;-;-
1514207347046;-;-;9.149933;0.42636108;1.8765411;-;-;-;-;-;-;-;-;-;-;-;-;-;-;-
1514207347066;-;-;9.234924;0.43234253;1.8813324;-;-;-;-;-;-;-;-;-;-;-;-;-;-;-
1514207347086;-;-;9.307953;0.5532532;2.002243;-;-;-;-;-;-;-;-;-;-;-;-;-;-;-
1514207347107;-;-;9.245697;0.5257263;1.9615326;-;-;-;-;-;-;-;-;-;-;-;-;-;-;-
1514207347127;-;-;9.064941;0.5305023;1.9136505;-;-;-;-;-;-;-;-;-;-;-;-;-;-;-
1514207347147;-;-;8.994308;0.4467163;1.7268982;-;-;-;-;-;-;-;-;-;-;-;-;-;-;-
1514207347168;-;-;9.087677;0.36531067;1.6873932;-;-;-;-;-;-;-;-;-;-;-;-;-;-;-
1514207347187;-;-;9.21936;0.24559021;1.6275482;-;-;-;-;-;-;-;-;-;-;-;-;-;-;-
1514207347207;-;-;9.29837;0.07321167;1.5557098;-;-;-;-;-;-;-;-;-;-;-;-;-;-;-
1514207347228;-;-;9.207397;0.040893555;1.5222015;-;-;-;-;-;-;-;-;-;-;-;-;-;-;-
1514207347248;-;-;9.145142;-0.00579834;1.5892334;-;-;-;-;-;-;-;-;-;-;-;-;-;-;-
1514207347268;-;-;9.199005;-0.033325195;1.6143799;-;-;-;-;-;-;-;-;-;-;-;-;-;-;-
1514207347289;-;-;9.17746;-0.050079346;1.6095886;-;-;-;-;-;-;-;-;-;-;-;-;-;-;-
1514207347308;-;-;9.21817;-0.08241272;1.5617065;-;-;-;-;-;-;-;-;-;-;-;-;-;-;-
1514207347328;-;-;9.293579;-0.1985321;1.4647369;-;-;-;-;-;-;-;-;-;-;-;-;-;-;-
1514207347349;-;-;9.25647;-0.23085022;1.3977051;-;-;-;-;-;-;-;-;-;-;-;-;-;-;-
1514207347369;-;-;9.278015;-0.18655396;1.622757;-;-;-;-;-;-;-;-;-;-;-;-;-;-;-
1514207347389;-;-;9.202606;-0.210495;1.6742249;-;-;-;-;-;-;-;-;-;-;-;-;-;-;-
1514207347409;-;-;9.200211;-0.28710938;1.789154;-;-;-;-;-;-;-;-;-;-;-;-;-;-;-
1514207347430;-;-;9.195419;-0.39245605;1.780777;-;-;-;-;-;-;-;-;-;-;-;-;-;-;-
1514207347450;-;-;9.005081;-0.43315125;1.8813324;-;-;-;-;-;-;-;-;-;-;-;-;-;-;-
1514207347470;-;-;8.972763;-0.45710754;2.0572968;-;-;-;-;-;-;-;-;-;-;-;-;-;-;-
1514207347491;-;-;8.989517;-0.5049896;2.0968018;-;-;-;-;-;-;-;-;-;-;-;-;-;-;-
1514207347511;-;-;8.969162;-0.5349121;2.2212982;-;-;-;-;-;-;-;-;-;-;-;-;-;-;-
1514207347531;-;-;8.930862;-0.56243896;2.228485;-;-;-;-;-;-;-;-;-;-;-;-;-;-;-
1514207347551;-;-;9.088882;-0.57681274;2.1817932;-;-;-;-;-;-;-;-;-;-;-;-;-;-;-
1514207347572;-;-;9.091278;-0.47505188;2.0872345;-;-;-;-;-;-;-;-;-;-;-;-;-;-;-
1514207347592;-;-;9.070923;-0.34217834;2.0010376;-;-;-;-;-;-;-;-;-;-;-;-;-;-;-
1514207347612;-;-;9.151123;-0.24880981;1.9735107;-;-;-;-;-;-;-;-;-;-;-;-;-;-;-
1514207347633;-;-;9.141556;-0.22366333;2.0549011;-;-;-;-;-;-;-;-;-;-;-;-;-;-;-
1514207347653;-;-;9.115219;-0.25479126;2.165039;-;-;-;-;-;-;-;-;-;-;-;-;-;-;-
1514207347674;-;-;8.926071;-0.25958252;2.0549011;-;-;-;-;-;-;-;-;-;-;-;-;-;-;-
1514207347693;-;-;8.996704;-0.32661438;2.0752563;-;-;-;-;-;-;-;-;-;-;-;-;-;-;-
1514207347713;-;-;9.232529;-0.45829773;1.967514;-;-;-;-;-;-;-;-;-;-;-;-;-;-;-
1514207347733;-;-;9.169083;-0.43554688;1.7640076;-;-;-;-;-;-;-;-;-;-;-;-;-;-;-
1514207347753;-;-;9.045776;-0.47625732;1.5892334;-;-;-;-;-;-;-;-;-;-;-;-;-;-;-
1514207347773;-;-;9.181061;-0.5277252;1.5138245;-;-;-;-;-;-;-;-;-;-;-;-;-;-;-
1514207347793;-;-;9.3151245;-0.3864746;1.591629;-;-;-;-;-;-;-;-;-;-;-;-;-;-;-
1514207347813;-;-;9.300766;-0.25239563;1.6873932;-;-;-;-;-;-;-;-;-;-;-;-;-;-;-
1514207347833;-;-;9.207397;-0.107543945;1.8789368;-;-;-;-;-;-;-;-;-;-;-;-;-;-;-
1514207347853;-;-;9.15712;-0.109939575;1.9974518;-;-;-;-;-;-;-;-;-;-;-;-;-;-;-
1514207347873;-;-;9.094864;-0.13148499;1.923233;-;-;-;-;-;-;-;-;-;-;-;-;-;-;-
1514207347894;-;-;8.98114;-0.15065002;1.8621674;-;-;-;-;-;-;-;-;-;-;-;-;-;-;-
1514207347915;-;-;9.049377;-0.16619873;1.8956909;-;-;-;-;-;-;-;-;-;-;-;-;-;-;-
1514207347935;-;-;9.114014;-0.17817688;1.8418274;-;-;-;-;-;-;-;-;-;-;-;-;-;-;-
1514207347955;-;-;9.1523285;-0.21768188;2.01062;-;-;-;-;-;-;-;-;-;-;-;-;-;-;-
1514207347976;-;-;9.215775;-0.22007751;2.0788574;-;-;-;-;-;-;-;-;-;-;-;-;-;-;-
1514207347996;-;-;9.189438;-0.27394104;2.0393524;-;-;-;-;-;-;-;-;-;-;-;-;-;-;-
1514207348016;-;-;9.085281;-0.26556396;1.9663239;-;-;-;-;-;-;-;-;-;-;-;-;-;-;-
1514207348037;-;-;9.042191;-0.210495;1.8908997;-;-;-;-;-;-;-;-;-;-;-;-;-;-;-
1514207348057;-;-;9.160706;-0.21647644;1.8945007;-;-;-;-;-;-;-;-;-;-;-;-;-;-;-
1514207348077;-;-;9.091278;-0.3541565;1.848999;-;-;-;-;-;-;-;-;-;-;-;-;-;-;-
1514207348098;-;-;9.076904;-0.43675232;1.9124603;-;-;-;-;-;-;-;-;-;-;-;-;-;-;-
1514207348118;-;-;9.213379;-0.47265625;1.8071136;-;-;-;-;-;-;-;-;-;-;-;-;-;-;-
1514207348138;-;-;9.214569;-0.45350647;1.6885986;-;-;-;-;-;-;-;-;-;-;-;-;-;-;-
1514207348158;-;-;9.148727;-0.33499146;1.6083832;-;-;-;-;-;-;-;-;-;-;-;-;-;-;-
1514207348179;-;-;9.167892;-0.2212677;1.5880432;-;-;-;-;-;-;-;-;-;-;-;-;-;-;-
1514207348199;-;-;9.166687;-0.23683167;1.6179657;-;-;-;-;-;-;-;-;-;-;-;-;-;-;-
1514207348220;-;-;9.199005;-0.27394104;1.5904388;-;-;-;-;-;-;-;-;-;-;-;-;-;-;-
1514207348240;-;-;9.185837;-0.28352356;1.504242;-;-;-;-;-;-;-;-;-;-;-;-;-;-;-
1514207348260;-;-;9.185837;-0.22486877;1.4898834;-;-;-;-;-;-;-;-;-;-;-;-;-;-;-
1514207348280;-;-;9.234924;-0.121917725;1.5054321;-;-;-;-;-;-;-;-;-;-;-;-;-;-;-
1514207348300;-;-;9.266052;-0.06086731;1.5593109;-;-;-;-;-;-;-;-;-;-;-;-;-;-;-
1514207348320;-;-;9.206192;-0.02494812;1.4850922;-;-;-;-;-;-;-;-;-;-;-;-;-;-;-
1514207348341;-;-;9.134369;0.05645752;1.5114288;-;-;-;-;-;-;-;-;-;-;-;-;-;-;-
1514207348361;-;-;9.104446;0.0756073;1.4527588;-;-;-;-;-;-;-;-;-;-;-;-;-;-;-
1514207348382;-;-;9.136765;0.12828064;1.3929138;-;-;-;-;-;-;-;-;-;-;-;-;-;-;-
1514207348402;-;-;9.154724;0.17497253;1.4372101;-;-;-;-;-;-;-;-;-;-;-;-;-;-;-
1514207348422;-;-;9.151123;0.115112305;1.4755096;-;-;-;-;-;-;-;-;-;-;-;-;-;-;-
1514207348443;-;-;9.190628;0.105529785;1.4707184;-;-;-;-;-;-;-;-;-;-;-;-;-;-;-
1514207348463;-;-;9.175064;0.055252075;1.4803009;-;-;-;-;-;-;-;-;-;-;-;-;-;-;-
1514207348483;-;-;9.17627;0.086380005;1.4779053;-;-;-;-;-;-;-;-;-;-;-;-;-;-;-
1514207348504;-;-;9.178665;0.08039856;1.4683228;-;-;-;-;-;-;-;-;-;-;-;-;-;-;-
1514207348524;-;-;9.173874;0.06602478;1.5138245;-;-;-;-;-;-;-;-;-;-;-;-;-;-;-
1514207348545;-;-;9.190628;0.067230225;1.4431915;-;-;-;-;-;-;-;-;-;-;-;-;-;-;-
1514207348565;-;-;9.208588;0.06124878;1.4288177;-;-;-;-;-;-;-;-;-;-;-;-;-;-;-
1514207348585;-;-;9.1523285;0.02532959;1.5054321;-;-;-;-;-;-;-;-;-;-;-;-;-;-;-
1514207348605;-;-;9.224152;0.02053833;1.5485382;-;-;-;-;-;-;-;-;-;-;-;-;-;-;-
1514207348626;-;-;9.239716;-0.03213501;1.4623413;-;-;-;-;-;-;-;-;-;-;-;-;-;-;-
1514207348646;-;-;9.121201;-0.04649353;1.4743195;-;-;-;-;-;-;-;-;-;-;-;-;-;-;-
1514207348666;-;-;9.15712;-0.018966675;1.4922638;-;-;-;-;-;-;-;-;-;-;-;-;-;-;-
1514207348687;-;-;9.23613;-0.011779785;1.4372101;-;-;-;-;-;-;-;-;-;-;-;-;-;-;-
1514207348707;-;-;9.183456;-0.0728302;1.4767151;-;-;-;-;-;-;-;-;-;-;-;-;-;-;-
1514207348727;-;-;9.175064;-0.12071228;1.5006561;-;-;-;-;-;-;-;-;-;-;-;-;-;-;-
1514207348747;-;-;9.17746;-0.114730835;1.5485382;-;-;-;-;-;-;-;-;-;-;-;-;-;-;-
1514207348767;-;-;9.185837;-0.07043457;1.512619;-;-;-;-;-;-;-;-;-;-;-;-;-;-;-
1514207348787;-;-;9.183456;-0.05847168;1.5497284;-;-;-;-;-;-;-;-;-;-;-;-;-;-;-
1514207348807;-;-;9.134369;0.0049743652;1.4898834;-;-;-;-;-;-;-;-;-;-;-;-;-;-;-
1514207348827;-;-;9.159515;0.028915405;1.5078278;-;-;-;-;-;-;-;-;-;-;-;-;-;-;-
1514207348847;-;-;9.165497;0.0037841797;1.512619;-;-;-;-;-;-;-;-;-;-;-;-;-;-;-
1514207348867;-;-;9.205002;-0.030929565;1.45755;-;-;-;-;-;-;-;-;-;-;-;-;-;-;-
1514207348887;-;-;9.21817;-0.03930664;1.5329742;-;-;-;-;-;-;-;-;-;-;-;-;-;-;-
1514207348907;-;-;9.210983;-0.03213501;1.5497284;-;-;-;-;-;-;-;-;-;-;-;-;-;-;-
1514207348927;-;-;9.195419;-0.00819397;1.5413513;-;-;-;-;-;-;-;-;-;-;-;-;-;-;-
1514207348947;-;-;9.195419;0.02772522;1.5305786;-;-;-;-;-;-;-;-;-;-;-;-;-;-;-
1514207348967;-;-;9.184647;0.033706665;1.5425415;-;-;-;-;-;-;-;-;-;-;-;-;-;-;-
1514207348987;-;-;9.165497;0.06124878;1.5233917;-;-;-;-;-;-;-;-;-;-;-;-;-;-;-
1514207349007;-;-;9.153519;0.08998108;1.5138245;-;-;-;-;-;-;-;-;-;-;-;-;-;-;-
1514207349028;-;-;9.194229;0.06124878;1.5222015;-;-;-;-;-;-;-;-;-;-;-;-;-;-;-
1514207349048;-;-;9.1523285;0.036102295;1.5425415;-;-;-;-;-;-;-;-;-;-;-;-;-;-;-
1514207349068;-;-;9.133179;0.02532959;1.5030518;-;-;-;-;-;-;-;-;-;-;-;-;-;-;-
1514207349088;-;-;9.207397;0.036102295;1.4611511;-;-;-;-;-;-;-;-;-;-;-;-;-;-;-
1514207349108;-;-;9.210983;0.098358154;1.5090332;-;-;-;-;-;-;-;-;-;-;-;-;-;-;-
1514207349129;-;-;9.208588;0.17376709;1.5233917;-;-;-;-;-;-;-;-;-;-;-;-;-;-;-
1514207349150;-;-;9.15712;0.20968628;1.5377655;-;-;-;-;-;-;-;-;-;-;-;-;-;-;-
1514207349170;-;-;9.151123;0.2240448;1.5485382;-;-;-;-;-;-;-;-;-;-;-;-;-;-;-
1514207349191;-;-;9.154724;0.22045898;1.5329742;-;-;-;-;-;-;-;-;-;-;-;-;-;-;-
1514207349211;-;-;9.108032;0.26715088;1.6047974;-;-;-;-;-;-;-;-;-;-;-;-;-;-;-
1514207349232;-;-;9.199005;0.2527771;1.5664978;-;-;-;-;-;-;-;-;-;-;-;-;-;-;-
1514207349252;-;-;9.239716;0.2743225;1.5174103;-;-;-;-;-;-;-;-;-;-;-;-;-;-;-
1514207349272;-;-;9.170288;0.2886963;1.5006561;-;-;-;-;-;-;-;-;-;-;-;-;-;-;-
1514207349293;-;-;9.09845;0.2743225;1.4755096;-;-;-;-;-;-;-;-;-;-;-;-;-;-;-
1514207349313;-;-;9.096069;0.25038147;1.5628967;-;-;-;-;-;-;-;-;-;-;-;-;-;-;-
1514207349333;-;-;9.099655;0.24679565;1.5868378;-;-;-;-;-;-;-;-;-;-;-;-;-;-;-
1514207349353;-;-;9.161896;0.21208191;1.5892334;-;-;-;-;-;-;-;-;-;-;-;-;-;-;-
1514207349374;-;-;9.133179;0.23602295;1.6251526;-;-;-;-;-;-;-;-;-;-;-;-;-;-;-
1514207349394;-;-;9.07811;0.2743225;1.6443024;-;-;-;-;-;-;-;-;-;-;-;-;-;-;-
1514207349414;-;-;9.0793;0.2635498;1.6490936;-;-;-;-;-;-;-;-;-;-;-;-;-;-;-
1514207349435;-;-;9.082901;0.2695465;1.6574707;-;-;-;-;-;-;-;-;-;-;-;-;-;-;-
1514207349455;-;-;9.117615;0.1797638;1.7077484;-;-;-;-;-;-;-;-;-;-;-;-;-;-;-
1514207349475;-;-;9.151123;0.14025879;1.7831726;-;-;-;-;-;-;-;-;-;-;-;-;-;-;-
1514207349496;-;-;9.160706;0.15461731;1.7592316;-;-;-;-;-;-;-;-;-;-;-;-;-;-;-
1514207349516;-;-;9.115219;0.1797638;1.749649;-;-;-;-;-;-;-;-;-;-;-;-;-;-;-
1514207349536;-;-;9.066132;0.17616272;1.7137299;-;-;-;-;-;-;-;-;-;-;-;-;-;-;-
1514207349556;-;-;9.127182;0.14743042;1.6179657;-;-;-;-;-;-;-;-;-;-;-;-;-;-;-
1514207349577;-;-;9.117615;0.105529785;1.5449371;-;-;-;-;-;-;-;-;-;-;-;-;-;-;-
1514207349597;-;-;9.147537;0.098358154;1.418045;-;-;-;-;-;-;-;-;-;-;-;-;-;-;-
1514207349618;-;-;9.17746;0.11631775;1.4395905;-;-;-;-;-;-;-;-;-;-;-;-;-;-;-
1514207349638;-;-;9.2313385;0.076812744;1.4695282;-;-;-;-;-;-;-;-;-;-;-;-;-;-;-
1514207349658;-;-;9.216965;-0.02015686;1.5090332;-;-;-;-;-;-;-;-;-;-;-;-;-;-;-
1514207349678;-;-;9.262466;-0.13986206;1.4755096;-;-;-;-;-;-;-;-;-;-;-;-;-;-;-
1514207349699;-;-;9.266052;-0.22007751;1.4826965;-;-;-;-;-;-;-;-;-;-;-;-;-;-;-
1514207349719;-;-;9.248093;-0.24043274;1.4419861;-;-;-;-;-;-;-;-;-;-;-;-;-;-;-
1514207349740;-;-;9.263657;-0.18296814;1.4192505;-;-;-;-;-;-;-;-;-;-;-;-;-;-;-
1514207349759;-;-;9.257675;-0.16859436;1.4001007;-;-;-;-;-;-;-;-;-;-;-;-;-;-;-
1514207349780;-;-;9.14035;-0.13388062;1.4647369;-;-;-;-;-;-;-;-;-;-;-;-;-;-;-
1514207349800;-;-;9.147537;-0.14346313;1.5317688;-;-;-;-;-;-;-;-;-;-;-;-;-;-;-
1514207349820;-;-;9.222961;-0.117126465;1.4695282;-;-;-;-;-;-;-;-;-;-;-;-;-;-;-
1514207349842;-;-;9.194229;-0.1410675;1.4587555;-;-;-;-;-;-;-;-;-;-;-;-;-;-;-
1514207349861;-;-;9.201401;-0.16740417;1.5245972;-;-;-;-;-;-;-;-;-;-;-;-;-;-;-
1514207349881;-;-;9.208588;-0.13269043;1.5952148;-;-;-;-;-;-;-;-;-;-;-;-;-;-;-
1514207349902;-;-;9.205002;-0.1925354;1.6730347;-;-;-;-;-;-;-;-;-;-;-;-;-;-;-
1514207349922;-;-;9.171478;-0.13867188;1.6909943;-;-;-;-;-;-;-;-;-;-;-;-;-;-;-
1514207349942;-;-;9.134369;-0.083602905;1.7316895;-;-;-;-;-;-;-;-;-;-;-;-;-;-;-
1514207349963;-;-;9.116409;-0.04170227;1.7233124;-;-;-;-;-;-;-;-;-;-;-;-;-;-;-
1514207349982;-;-;9.167892;-0.076416016;1.5880432;-;-;-;-;-;-;-;-;-;-;-;-;-;-;-
1514207350002;-;-;9.181061;-0.026138306;1.5605011;-;-;-;-;-;-;-;-;-;-;-;-;-;-;-
1514207350023;-;-;9.175064;-0.02015686;1.5413513;-;-;-;-;-;-;-;-;-;-;-;-;-;-;-
1514207350043;-;-;9.160706;0.033706665;1.5389557;-;-;-;-;-;-;-;-;-;-;-;-;-;-;-
1514207350063;-;-;9.188232;0.031311035;1.5209961;-;-;-;-;-;-;-;-;-;-;-;-;-;-;-
1514207350083;-;-;9.196625;0.05166626;1.4587555;-;-;-;-;-;-;-;-;-;-;-;-;-;-;-
1514207350104;-;-;9.164291;0.07081604;1.4264374;-;-;-;-;-;-;-;-;-;-;-;-;-;-;-
1514207350125;-;-;9.190628;0.12709045;1.4647369;-;-;-;-;-;-;-;-;-;-;-;-;-;-;-
1514207350145;-;-;9.170288;0.10913086;1.5114288;-;-;-;-;-;-;-;-;-;-;-;-;-;-;-
1514207350165;-;-;9.178665;0.069625854;1.5293732;-;-;-;-;-;-;-;-;-;-;-;-;-;-;-
1514207350185;-;-;9.143951;0.08758545;1.5605011;-;-;-;-;-;-;-;-;-;-;-;-;-;-;-
1514207350206;-;-;9.15831;0.08279419;1.5688782;-;-;-;-;-;-;-;-;-;-;-;-;-;-;-
1514207350226;-;-;9.164291;0.048080444;1.6047974;-;-;-;-;-;-;-;-;-;-;-;-;-;-;-
1514207350246;-;-;9.15831;0.03251648;1.5952148;-;-;-;-;-;-;-;-;-;-;-;-;-;-;-
1514207350267;-;-;9.153519;0.014556885;1.5700836;-;-;-;-;-;-;-;-;-;-;-;-;-;-;-
1514207350287;-;-;9.159515;-0.009384155;1.5605011;-;-;-;-;-;-;-;-;-;-;-;-;-;-;-
1514207350307;-;-;9.171478;0.014556885;1.5605011;-;-;-;-;-;-;-;-;-;-;-;-;-;-;-
1514207350328;-;-;9.147537;-0.0105896;1.5628967;-;-;-;-;-;-;-;-;-;-;-;-;-;-;-
1514207350348;-;-;9.214569;-0.012969971;1.5724792;-;-;-;-;-;-;-;-;-;-;-;-;-;-;-
1514207350368;-;-;9.222961;-0.045303345;1.5413513;-;-;-;-;-;-;-;-;-;-;-;-;-;-;-
1514207350389;-;-;9.1128235;-0.047698975;1.552124;-;-;-;-;-;-;-;-;-;-;-;-;-;-;-
1514207350409;-;-;9.212173;-0.06324768;1.488678;-;-;-;-;-;-;-;-;-;-;-;-;-;-;-
1514207350430;-;-;9.182251;0.026535034;1.4204407;-;-;-;-;-;-;-;-;-;-;-;-;-;-;-
1514207350450;-;-;9.121201;-0.03213501;1.4503784;-;-;-;-;-;-;-;-;-;-;-;-;-;-;-
1514207350470;-;-;9.164291;-0.052474976;1.5712738;-;-;-;-;-;-;-;-;-;-;-;-;-;-;-
1514207350490;-;-;9.2313385;-0.08241272;1.6215515;-;-;-;-;-;-;-;-;-;-;-;-;-;-;-
1514207350511;-;-;9.2313385;-0.11114502;1.6490936;-;-;-;-;-;-;-;-;-;-;-;-;-;-;-
1514207350531;-;-;9.163101;-0.112335205;1.6742249;-;-;-;-;-;-;-;-;-;-;-;-;-;-;-
1514207350552;-;-;9.117615;-0.07043457;1.6598663;-;-;-;-;-;-;-;-;-;-;-;-;-;-;-
1514207350572;-;-;9.170288;-0.05847168;1.6790161;-;-;-;-;-;-;-;-;-;-;-;-;-;-;-
1514207350592;-;-;9.167892;-0.04170227;1.6203613;-;-;-;-;-;-;-;-;-;-;-;-;-;-;-
1514207350612;-;-;9.146347;-0.06564331;1.6203613;-;-;-;-;-;-;-;-;-;-;-;-;-;-;-
1514207350633;-;-;9.141556;-0.038116455;1.6107788;-;-;-;-;-;-;-;-;-;-;-;-;-;-;-
1514207350653;-;-;9.137955;-0.050079346;1.6478882;-;-;-;-;-;-;-;-;-;-;-;-;-;-;-
1514207350673;-;-;9.185837;-0.016571045;1.5712738;-;-;-;-;-;-;-;-;-;-;-;-;-;-;-
1514207350693;-;-;9.143951;-0.00819397;1.591629;-;-;-;-;-;-;-;-;-;-;-;-;-;-;-
1514207350713;-;-;9.179855;-0.012969971;1.6107788;-;-;-;-;-;-;-;-;-;-;-;-;-;-;-
1514207350733;-;-;9.175064;-0.02734375;1.5868378;-;-;-;-;-;-;-;-;-;-;-;-;-;-;-
1514207350753;-;-;9.194229;-0.018966675;1.5688782;-;-;-;-;-;-;-;-;-;-;-;-;-;-;-
1514207350773;-;-;9.189438;-0.074035645;1.5892334;-;-;-;-;-;-;-;-;-;-;-;-;-;-;-
1514207350794;-;-;9.149933;-0.04649353;1.5605011;-;-;-;-;-;-;-;-;-;-;-;-;-;-;-
1514207350814;-;-;9.141556;-0.06564331;1.6083832;-;-;-;-;-;-;-;-;-;-;-;-;-;-;-
1514207350833;-;-;9.151123;-0.04170227;1.5904388;-;-;-;-;-;-;-;-;-;-;-;-;-;-;-
1514207350853;-;-;9.15712;-0.038116455;1.5964203;-;-;-;-;-;-;-;-;-;-;-;-;-;-;-
1514207350874;-;-;9.208588;-0.05847168;1.6024017;-;-;-;-;-;-;-;-;-;-;-;-;-;-;-
1514207350894;-;-;9.224152;-0.057266235;1.5988159;-;-;-;-;-;-;-;-;-;-;-;-;-;-;-
1514207350914;-;-;9.220566;-0.05607605;1.5688782;-;-;-;-;-;-;-;-;-;-;-;-;-;-;-
1514207350934;-;-;9.201401;-0.074035645;1.5186005;-;-;-;-;-;-;-;-;-;-;-;-;-;-;-
1514207350954;-;-;9.172684;-0.081207275;1.5054321;-;-;-;-;-;-;-;-;-;-;-;-;-;-;-
1514207350975;-;-;9.212173;-0.076416016;1.543747;-;-;-;-;-;-;-;-;-;-;-;-;-;-;-
1514207350995;-;-;9.169083;-0.057266235;1.5162201;-;-;-;-;-;-;-;-;-;-;-;-;-;-;-
1514207351015;-;-;9.188232;-0.023742676;1.5748749;-;-;-;-;-;-;-;-;-;-;-;-;-;-;-
1514207351036;-;-;9.222961;-0.0440979;1.5700836;-;-;-;-;-;-;-;-;-;-;-;-;-;-;-
1514207351056;-;-;9.184647;-0.090789795;1.4803009;-;-;-;-;-;-;-;-;-;-;-;-;-;-;-
1514207351076;-;-;9.199005;-0.083602905;1.4012909;-;-;-;-;-;-;-;-;-;-;-;-;-;-;-
1514207351097;-;-;9.201401;0.021743774;1.3079224;-;-;-;-;-;-;-;-;-;-;-;-;-;-;-
1514207351117;-;-;9.187042;0.03491211;1.2444763;-;-;-;-;-;-;-;-;-;-;-;-;-;-;-
1514207351137;-;-;9.172684;0.050476074;1.2528534;-;-;-;-;-;-;-;-;-;-;-;-;-;-;-
1514207351158;-;-;9.172684;0.074417114;1.2971497;-;-;-;-;-;-;-;-;-;-;-;-;-;-;-
1514207351178;-;-;9.143951;0.076812744;1.3510132;-;-;-;-;-;-;-;-;-;-;-;-;-;-;-
1514207351198;-;-;9.196625;0.040893555;1.3677673;-;-;-;-;-;-;-;-;-;-;-;-;-;-;-
1514207351219;-;-;9.187042;0.0013885498;1.4288177;-;-;-;-;-;-;-;-;-;-;-;-;-;-;-
1514207351239;-;-;9.215775;-0.02255249;1.4144592;-;-;-;-;-;-;-;-;-;-;-;-;-;-;-
1514207351259;-;-;9.160706;-0.0440979;1.4671326;-;-;-;-;-;-;-;-;-;-;-;-;-;-;-
1514207351280;-;-;9.190628;-0.00819397;1.4707184;-;-;-;-;-;-;-;-;-;-;-;-;-;-;-
1514207351300;-;-;9.169083;0.014556885;1.4060822;-;-;-;-;-;-;-;-;-;-;-;-;-;-;-
1514207351320;-;-;9.166687;0.055252075;1.354599;-;-;-;-;-;-;-;-;-;-;-;-;-;-;-
1514207351340;-;-;9.185837;0.07081604;1.294754;-;-;-;-;-;-;-;-;-;-;-;-;-;-;-
1514207351360;-;-;9.2313385;0.013366699;1.2839813;-;-;-;-;-;-;-;-;-;-;-;-;-;-;-
1514207351381;-;-;9.239716;-0.03691101;1.246872;-;-;-;-;-;-;-;-;-;-;-;-;-;-;-
1514207351401;-;-;9.264847;-0.08001709;1.2576447;-;-;-;-;-;-;-;-;-;-;-;-;-;-;-
1514207351421;-;-;9.232529;-0.117126465;1.2564392;-;-;-;-;-;-;-;-;-;-;-;-;-;-;-
1514207351441;-;-;9.216965;-0.14225769;1.2791901;-;-;-;-;-;-;-;-;-;-;-;-;-;-;-
1514207351461;-;-;9.199005;-0.1817627;1.2791901;-;-;-;-;-;-;-;-;-;-;-;-;-;-;-
1514207351481;-;-;9.254074;-0.19493103;1.310318;-;-;-;-;-;-;-;-;-;-;-;-;-;-;-
1514207351501;-;-;9.254074;-0.17817688;1.3641815;-;-;-;-;-;-;-;-;-;-;-;-;-;-;-
1514207351521;-;-;9.239716;-0.12550354;1.4024811;-;-;-;-;-;-;-;-;-;-;-;-;-;-;-
1514207351542;-;-;9.183456;-0.03691101;1.3821411;-;-;-;-;-;-;-;-;-;-;-;-;-;-;-
1514207351562;-;-;9.209793;0.0061798096;1.3857269;-;-;-;-;-;-;-;-;-;-;-;-;-;-;-
1514207351582;-;-;9.23613;0.04927063;1.3929138;-;-;-;-;-;-;-;-;-;-;-;-;-;-;-
1514207351603;-;-;9.167892;0.1043396;1.3725586;-;-;-;-;-;-;-;-;-;-;-;-;-;-;-
1514207351623;-;-;9.190628;0.112716675;1.4240417;-;-;-;-;-;-;-;-;-;-;-;-;-;-;-
1514207351643;-;-;9.23732;0.05406189;1.3713684;-;-;-;-;-;-;-;-;-;-;-;-;-;-;-
1514207351664;-;-;9.155914;0.13786316;1.2959442;-;-;-;-;-;-;-;-;-;-;-;-;-;-;-
1514207351684;-;-;9.17746;0.12348938;1.315094;-;-;-;-;-;-;-;-;-;-;-;-;-;-;-
1514207351704;-;-;9.173874;0.13067627;1.4012909;-;-;-;-;-;-;-;-;-;-;-;-;-;-;-
1514207351724;-;-;9.207397;0.11392212;1.5030518;-;-;-;-;-;-;-;-;-;-;-;-;-;-;-
1514207351745;-;-;9.165497;0.13426208;1.5090332;-;-;-;-;-;-;-;-;-;-;-;-;-;-;-
1514207351765;-;-;9.163101;0.124694824;1.5198059;-;-;-;-;-;-;-;-;-;-;-;-;-;-;-
1514207351786;-;-;9.155914;0.14982605;1.5485382;-;-;-;-;-;-;-;-;-;-;-;-;-;-;-
1514207351806;-;-;9.195419;0.14743042;1.5174103;-;-;-;-;-;-;-;-;-;-;-;-;-;-;-
1514207351826;-;-;9.209793;0.08039856;1.4838867;-;-;-;-;-;-;-;-;-;-;-;-;-;-;-
1514207351847;-;-;9.179855;0.13426208;1.4407959;-;-;-;-;-;-;-;-;-;-;-;-;-;-;-
1514207351866;-;-;9.197815;0.105529785;1.4192505;-;-;-;-;-;-;-;-;-;-;-;-;-;-;-
1514207351886;-;-;9.294785;0.14743042;1.3426361;-;-;-;-;-;-;-;-;-;-;-;-;-;-;-
1514207351907;-;-;9.2313385;0.24440002;1.3270721;-;-;-;-;-;-;-;-;-;-;-;-;-;-;-
1514207351927;-;-;9.00029;0.1797638;1.413269;-;-;-;-;-;-;-;-;-;-;-;-;-;-;-
1514207351947;-;-;9.037399;0.08039856;1.4240417;-;-;-;-;-;-;-;-;-;-;-;-;-;-;-
1514207351967;-;-;9.222961;0.014556885;1.4072723;-;-;-;-;-;-;-;-;-;-;-;-;-;-;-
1514207351987;-;-;9.295975;0.009765625;1.3893127;-;-;-;-;-;-;-;-;-;-;-;-;-;-;-
1514207352008;-;-;9.25647;0.03970337;1.4898834;-;-;-;-;-;-;-;-;-;-;-;-;-;-;-
1514207352028;-;-;9.214569;-0.0045928955;1.4384003;-;-;-;-;-;-;-;-;-;-;-;-;-;-;-
1514207352048;-;-;9.179855;-0.0105896;1.4838867;-;-;-;-;-;-;-;-;-;-;-;-;-;-;-
1514207352069;-;-;9.155914;0.06602478;1.4719238;-;-;-;-;-;-;-;-;-;-;-;-;-;-;-
1514207352089;-;-;9.212173;0.03012085;1.4264374;-;-;-;-;-;-;-;-;-;-;-;-;-;-;-
1514207352109;-;-;9.214569;-0.0105896;1.3677673;-;-;-;-;-;-;-;-;-;-;-;-;-;-;-
1514207352130;-;-;9.21817;-0.03691101;1.3593903;-;-;-;-;-;-;-;-;-;-;-;-;-;-;-
1514207352150;-;-;9.273239;0.019348145;1.3845367;-;-;-;-;-;-;-;-;-;-;-;-;-;-;-
1514207352170;-;-;9.282806;0.052871704;1.3749542;-;-;-;-;-;-;-;-;-;-;-;-;-;-;-
1514207352190;-;-;9.25647;0.02772522;1.4467773;-;-;-;-;-;-;-;-;-;-;-;-;-;-;-
1514207352211;-;-;9.070923;0.036102295;1.5617065;-;-;-;-;-;-;-;-;-;-;-;-;-;-;-
1514207352231;-;-;9.072113;0.062438965;1.6191559;-;-;-;-;-;-;-;-;-;-;-;-;-;-;-
1514207352251;-;-;9.201401;0.1043396;1.6802216;-;-;-;-;-;-;-;-;-;-;-;-;-;-;-
1514207352272;-;-;9.137955;0.11392212;1.6431122;-;-;-;-;-;-;-;-;-;-;-;-;-;-;-
1514207352291;-;-;9.099655;0.072021484;1.7879486;-;-;-;-;-;-;-;-;-;-;-;-;-;-;-
1514207352311;-;-;9.058945;0.0756073;1.883728;-;-;-;-;-;-;-;-;-;-;-;-;-;-;-
1514207352332;-;-;9.093674;0.033706665;1.9052734;-;-;-;-;-;-;-;-;-;-;-;-;-;-;-
1514207352352;-;-;9.146347;0.062438965;1.8789368;-;-;-;-;-;-;-;-;-;-;-;-;-;-;-
1514207352372;-;-;9.136765;0.007369995;1.8190765;-;-;-;-;-;-;-;-;-;-;-;-;-;-;-
1514207352393;-;-;9.142746;-0.09916687;1.825058;-;-;-;-;-;-;-;-;-;-;-;-;-;-;-
1514207352413;-;-;9.125992;-0.1482544;1.8549957;-;-;-;-;-;-;-;-;-;-;-;-;-;-;-
1514207352434;-;-;9.088882;-0.16619873;1.9735107;-;-;-;-;-;-;-;-;-;-;-;-;-;-;-
1514207352454;-;-;9.093674;-0.13269043;2.0213928;-;-;-;-;-;-;-;-;-;-;-;-;-;-;-
1514207352474;-;-;9.133179;-0.07762146;1.9411774;-;-;-;-;-;-;-;-;-;-;-;-;-;-;-
1514207352495;-;-;9.183456;-0.07762146;1.8968964;-;-;-;-;-;-;-;-;-;-;-;-;-;-;-
1514207352515;-;-;9.175064;-0.078811646;1.8777313;-;-;-;-;-;-;-;-;-;-;-;-;-;-;-
1514207352535;-;-;9.100845;-0.023742676;1.7676086;-;-;-;-;-;-;-;-;-;-;-;-;-;-;-
1514207352555;-;-;9.090073;0.033706665;1.7544403;-;-;-;-;-;-;-;-;-;-;-;-;-;-;-
1514207352576;-;-;9.102051;-0.0010070801;1.7544403;-;-;-;-;-;-;-;-;-;-;-;-;-;-;-
1514207352595;-;-;9.127182;0.010971069;1.8466187;-;-;-;-;-;-;-;-;-;-;-;-;-;-;-
1514207352615;-;-;9.127182;0.031311035;1.8310547;-;-;-;-;-;-;-;-;-;-;-;-;-;-;-
1514207352635;-;-;9.153519;0.05166626;1.8573914;-;-;-;-;-;-;-;-;-;-;-;-;-;-;-
1514207352656;-;-;9.118805;0.064834595;1.8346405;-;-;-;-;-;-;-;-;-;-;-;-;-;-;-
1514207352676;-;-;9.082901;0.100753784;1.8310547;-;-;-;-;-;-;-;-;-;-;-;-;-;-;-
1514207352696;-;-;9.0577545;0.12828064;1.8789368;-;-;-;-;-;-;-;-;-;-;-;-;-;-;-
1514207352716;-;-;9.080505;0.13905334;1.9100647;-;-;-;-;-;-;-;-;-;-;-;-;-;-;-
1514207352737;-;-;9.088882;0.07081604;1.8813324;-;-;-;-;-;-;-;-;-;-;-;-;-;-;-
1514207352756;-;-;9.093674;0.107925415;1.9052734;-;-;-;-;-;-;-;-;-;-;-;-;-;-;-
1514207352776;-;-;9.122391;0.05645752;1.8298492;-;-;-;-;-;-;-;-;-;-;-;-;-;-;-
1514207352796;-;-;9.142746;0.115112305;1.8298492;-;-;-;-;-;-;-;-;-;-;-;-;-;-;-
1514207352816;-;-;9.110428;0.028915405;1.8693542;-;-;-;-;-;-;-;-;-;-;-;-;-;-;-
1514207352837;-;-;9.131973;0.03491211;1.7999268;-;-;-;-;-;-;-;-;-;-;-;-;-;-;-
1514207352857;-;-;9.160706;0.095962524;1.6945801;-;-;-;-;-;-;-;-;-;-;-;-;-;-;-
1514207352877;-;-;9.094864;0.115112305;1.5844421;-;-;-;-;-;-;-;-;-;-;-;-;-;-;-
1514207352898;-;-;9.15712;0.07321167;1.6215515;-;-;-;-;-;-;-;-;-;-;-;-;-;-;-
1514207352918;-;-;9.188232;0.0061798096;1.6646576;-;-;-;-;-;-;-;-;-;-;-;-;-;-;-
1514207352938;-;-;9.15712;-0.045303345;1.6682434;-;-;-;-;-;-;-;-;-;-;-;-;-;-;-
1514207352959;-;-;9.131973;-0.078811646;1.6646576;-;-;-;-;-;-;-;-;-;-;-;-;-;-;-
1514207352979;-;-;9.137955;-0.057266235;1.7879486;-;-;-;-;-;-;-;-;-;-;-;-;-;-;-
1514207352999;-;-;9.181061;-0.038116455;1.7233124;-;-;-;-;-;-;-;-;-;-;-;-;-;-;-
1514207353019;-;-;9.184647;0.0049743652;1.6814117;-;-;-;-;-;-;-;-;-;-;-;-;-;-;-
1514207353040;-;-;9.175064;0.081588745;1.710144;-;-;-;-;-;-;-;-;-;-;-;-;-;-;-
1514207353060;-;-;9.127182;0.08758545;1.6670532;-;-;-;-;-;-;-;-;-;-;-;-;-;-;-
1514207353080;-;-;9.121201;0.112716675;1.7424622;-;-;-;-;-;-;-;-;-;-;-;-;-;-;-
1514207353100;-;-;9.100845;0.119903564;1.7221069;-;-;-;-;-;-;-;-;-;-;-;-;-;-;-
1514207353120;-;-;9.114014;0.12588501;1.7735901;-;-;-;-;-;-;-;-;-;-;-;-;-;-;-
1514207353140;-;-;9.116409;0.18814087;1.7436676;-;-;-;-;-;-;-;-;-;-;-;-;-;-;-
1514207353161;-;-;9.116409;0.21087646;1.7604218;-;-;-;-;-;-;-;-;-;-;-;-;-;-;-
1514207353181;-;-;9.122391;0.23721313;1.7460632;-;-;-;-;-;-;-;-;-;-;-;-;-;-;-
