TimeStamp[ms];Prox[Cm];Lux[lux];AccX[m/s^2];AccY[m/s^2];AccZ[m/s^2];GyroX[rad/s];GyroY[rad/s];GyroZ[rad/s];MagnX[uT];MagnY[uT];MagnZ[uT];OrienYaw[degrees];OrienPitch[degrees];OrienRoll[degrees];Press[Pa];Temp[C°];Batt[%];Lat;Lng;Speed[m/s]
1514208825712;-;-;8.728546;-2.5125275;2.5337524;-;-;-;-;-;-;-;-;-;-;-;-;-;-;-
1514208825716;-;-;8.559753;-2.4969635;2.580429;-;-;-;-;-;-;-;-;-;-;-;-;-;-;-
1514208825736;-;-;8.289215;-2.637024;2.7887268;-;-;-;-;-;-;-;-;-;-;-;-;-;-;-
1514208825757;-;-;8.286819;-2.5855408;2.3793182;-;-;-;-;-;-;-;-;-;-;-;-;-;-;-
1514208825777;-;-;8.373016;-2.435913;2.3685455;-;-;-;-;-;-;-;-;-;-;-;-;-;-;-
1514208825798;-;-;8.7608795;-2.253952;2.2644043;-;-;-;-;-;-;-;-;-;-;-;-;-;-;-
1514208825818;-;-;9.598846;-1.5823822;2.2608032;-;-;-;-;-;-;-;-;-;-;-;-;-;-;-
1514208825838;-;-;8.746506;-2.1330414;1.4168549;-;-;-;-;-;-;-;-;-;-;-;-;-;-;-
1514208825858;-;-;9.935226;-2.559204;1.8669586;-;-;-;-;-;-;-;-;-;-;-;-;-;-;-
1514208825879;-;-;9.82869;-2.3712616;1.4300232;-;-;-;-;-;-;-;-;-;-;-;-;-;-;-
1514208825899;-;-;9.446808;-1.7715149;1.0720825;-;-;-;-;-;-;-;-;-;-;-;-;-;-;-
1514208825919;-;-;9.175064;-1.4267578;1.4683228;-;-;-;-;-;-;-;-;-;-;-;-;-;-;-
1514208825939;-;-;8.60405;-1.0855713;1.5641022;-;-;-;-;-;-;-;-;-;-;-;-;-;-;-
1514208825964;-;-;5.924942;-1.9462891;1.5114288;-;-;-;-;-;-;-;-;-;-;-;-;-;-;-
1514208825980;-;-;8.717773;-1.5632172;1.7616119;-;-;-;-;-;-;-;-;-;-;-;-;-;-;-
1514208826000;-;-;8.735733;-2.3102112;1.1558838;-;-;-;-;-;-;-;-;-;-;-;-;-;-;-
1514208826020;-;-;9.165497;-2.2982483;2.4355927;-;-;-;-;-;-;-;-;-;-;-;-;-;-;-
1514208826041;-;-;7.056198;-1.4291534;-0.12501526;-;-;-;-;-;-;-;-;-;-;-;-;-;-;-
1514208826061;-;-;9.044586;-1.7679291;-0.16571045;-;-;-;-;-;-;-;-;-;-;-;-;-;-;-
1514208826081;-;-;9.261261;-2.2671204;1.780777;-;-;-;-;-;-;-;-;-;-;-;-;-;-;-
1514208826102;-;-;8.815933;-1.6470184;1.1247559;-;-;-;-;-;-;-;-;-;-;-;-;-;-;-
1514208826122;-;-;7.6739044;-2.1737366;0.76322937;-;-;-;-;-;-;-;-;-;-;-;-;-;-;-
1514208826142;-;-;9.227737;-3.3480988;1.6682434;-;-;-;-;-;-;-;-;-;-;-;-;-;-;-
1514208826162;-;-;7.8786163;-2.0671997;2.0716705;-;-;-;-;-;-;-;-;-;-;-;-;-;-;-
1514208826183;-;-;8.301193;-0.51934814;1.3582001;-;-;-;-;-;-;-;-;-;-;-;-;-;-;-
1514208826203;-;-;9.23732;-1.704483;1.962738;-;-;-;-;-;-;-;-;-;-;-;-;-;-;-
1514208826223;-;-;8.92128;-1.4087982;1.8083038;-;-;-;-;-;-;-;-;-;-;-;-;-;-;-
1514208826243;-;-;8.863831;0.033706665;0.35144043;-;-;-;-;-;-;-;-;-;-;-;-;-;-;-
1514208826263;-;-;9.7808075;-1.0783997;-0.01008606;-;-;-;-;-;-;-;-;-;-;-;-;-;-;-
1514208826283;-;-;9.305557;-2.3269653;0.6447296;-;-;-;-;-;-;-;-;-;-;-;-;-;-;-
1514208826303;-;-;10.637924;-2.4383087;-0.4530182;-;-;-;-;-;-;-;-;-;-;-;-;-;-;-
1514208826324;-;-;9.012268;-1.5093536;0.39572144;-;-;-;-;-;-;-;-;-;-;-;-;-;-;-
1514208826344;-;-;9.102051;-1.6194916;0.8123169;-;-;-;-;-;-;-;-;-;-;-;-;-;-;-
1514208826364;-;-;8.9991;-1.4183655;0.98350525;-;-;-;-;-;-;-;-;-;-;-;-;-;-;-
1514208826385;-;-;9.3498535;-1.5201263;1.1486969;-;-;-;-;-;-;-;-;-;-;-;-;-;-;-
1514208826405;-;-;8.770447;-1.0293121;0.96315;-;-;-;-;-;-;-;-;-;-;-;-;-;-;-
1514208826425;-;-;8.733337;-1.1382446;0.4112854;-;-;-;-;-;-;-;-;-;-;-;-;-;-;-
1514208826446;-;-;10.053741;-2.8728485;0.03300476;-;-;-;-;-;-;-;-;-;-;-;-;-;-;-
1514208826466;-;-;8.569336;-0.5959625;0.43522644;-;-;-;-;-;-;-;-;-;-;-;-;-;-;-
1514208826486;-;-;8.827911;-1.3046417;1.0481415;-;-;-;-;-;-;-;-;-;-;-;-;-;-;-
1514208826506;-;-;8.637573;-1.9091797;1.8705597;-;-;-;-;-;-;-;-;-;-;-;-;-;-;-
1514208826527;-;-;9.118805;-0.7420044;-0.46020508;-;-;-;-;-;-;-;-;-;-;-;-;-;-;-
1514208826547;-;-;9.355835;-1.0795898;0.3717804;-;-;-;-;-;-;-;-;-;-;-;-;-;-;-
1514208826567;-;-;9.766434;-0.8748932;-1.4130859;-;-;-;-;-;-;-;-;-;-;-;-;-;-;-
1514208826587;-;-;8.582504;-1.5548401;0.9032898;-;-;-;-;-;-;-;-;-;-;-;-;-;-;-
1514208826608;-;-;8.5849;-2.997345;0.48789978;-;-;-;-;-;-;-;-;-;-;-;-;-;-;-
1514208826628;-;-;11.147888;-2.2886658;0.08328247;-;-;-;-;-;-;-;-;-;-;-;-;-;-;-
1514208826649;-;-;8.853058;-1.878067;0.21736145;-;-;-;-;-;-;-;-;-;-;-;-;-;-;-
1514208826669;-;-;9.096069;-1.3525391;0.28320313;-;-;-;-;-;-;-;-;-;-;-;-;-;-;-
1514208826689;-;-;8.824326;-0.84376526;-0.17529297;-;-;-;-;-;-;-;-;-;-;-;-;-;-;-
1514208826709;-;-;9.402527;-0.8701019;-0.011291504;-;-;-;-;-;-;-;-;-;-;-;-;-;-;-
1514208826730;-;-;8.775238;-1.7774963;-1.1473389;-;-;-;-;-;-;-;-;-;-;-;-;-;-;-
1514208826750;-;-;9.893326;-1.9558716;-1.8835602;-;-;-;-;-;-;-;-;-;-;-;-;-;-;-
1514208826770;-;-;10.30513;-2.372467;0.21017456;-;-;-;-;-;-;-;-;-;-;-;-;-;-;-
1514208826791;-;-;10.281189;-2.1845245;0.16108704;-;-;-;-;-;-;-;-;-;-;-;-;-;-;-
1514208826811;-;-;10.648697;-3.0428314;0.34425354;-;-;-;-;-;-;-;-;-;-;-;-;-;-;-
1514208826831;-;-;7.240555;0.040893555;-0.6325836;-;-;-;-;-;-;-;-;-;-;-;-;-;-;-
1514208826851;-;-;7.9540253;-2.716034;-1.2550812;-;-;-;-;-;-;-;-;-;-;-;-;-;-;-
1514208826872;-;-;11.473511;2.2579193;-3.678009;-;-;-;-;-;-;-;-;-;-;-;-;-;-;-
1514208826892;-;-;8.572922;2.263916;-0.21838379;-;-;-;-;-;-;-;-;-;-;-;-;-;-;-
1514208826912;-;-;7.6260223;2.6350098;1.6239471;-;-;-;-;-;-;-;-;-;-;-;-;-;-;-
1514208826932;-;-;8.259293;2.1789093;-0.81214905;-;-;-;-;-;-;-;-;-;-;-;-;-;-;-
1514208826953;-;-;8.892548;1.6378326;-1.7279358;-;-;-;-;-;-;-;-;-;-;-;-;-;-;-
1514208826973;-;-;8.965576;0.046875;-0.98573303;-;-;-;-;-;-;-;-;-;-;-;-;-;-;-
1514208826993;-;-;8.934448;-0.18296814;-1.6094208;-;-;-;-;-;-;-;-;-;-;-;-;-;-;-
1514208827014;-;-;10.106415;-0.6510315;-0.63616943;-;-;-;-;-;-;-;-;-;-;-;-;-;-;-
1514208827034;-;-;8.471176;-1.0999451;-0.60983276;-;-;-;-;-;-;-;-;-;-;-;-;-;-;-
1514208827054;-;-;9.73053;-0.641449;-1.4358368;-;-;-;-;-;-;-;-;-;-;-;-;-;-;-
1514208827075;-;-;9.565323;-0.4152069;-2.247467;-;-;-;-;-;-;-;-;-;-;-;-;-;-;-
1514208827095;-;-;9.461182;0.3210144;-0.57751465;-;-;-;-;-;-;-;-;-;-;-;-;-;-;-
1514208827116;-;-;8.917694;-0.18057251;-0.64694214;-;-;-;-;-;-;-;-;-;-;-;-;-;-;-
1514208827136;-;-;9.062546;0.0181427;-0.86361694;-;-;-;-;-;-;-;-;-;-;-;-;-;-;-
1514208827156;-;-;10.399704;-0.4451294;-0.5463867;-;-;-;-;-;-;-;-;-;-;-;-;-;-;-
1514208827177;-;-;8.560959;-0.14704895;-0.60983276;-;-;-;-;-;-;-;-;-;-;-;-;-;-;-
1514208827197;-;-;8.680664;-0.088394165;-0.080718994;-;-;-;-;-;-;-;-;-;-;-;-;-;-;-
1514208827217;-;-;9.623978;-0.18057251;-1.1664886;-;-;-;-;-;-;-;-;-;-;-;-;-;-;-
1514208827237;-;-;7.3973694;0.11152649;-0.7343445;-;-;-;-;-;-;-;-;-;-;-;-;-;-;-
1514208827258;-;-;8.736938;-0.07522583;-1.3652039;-;-;-;-;-;-;-;-;-;-;-;-;-;-;-
1514208827279;-;-;9.1128235;-0.38407898;-0.99890137;-;-;-;-;-;-;-;-;-;-;-;-;-;-;-
1514208827299;-;-;9.313934;0.20489502;-1.2012024;-;-;-;-;-;-;-;-;-;-;-;-;-;-;-
1514208827320;-;-;9.560532;0.30426025;-0.92826843;-;-;-;-;-;-;-;-;-;-;-;-;-;-;-
1514208827340;-;-;8.952408;0.14503479;-0.63497925;-;-;-;-;-;-;-;-;-;-;-;-;-;-;-
1514208827360;-;-;8.598068;-0.21170044;0.83506775;-;-;-;-;-;-;-;-;-;-;-;-;-;-;-
1514208827380;-;-;8.708206;-0.19374084;-1.2419128;-;-;-;-;-;-;-;-;-;-;-;-;-;-;-
1514208827400;-;-;10.060928;-0.41160583;-1.0384064;-;-;-;-;-;-;-;-;-;-;-;-;-;-;-
1514208827421;-;-;9.815521;-0.8425598;-0.99290466;-;-;-;-;-;-;-;-;-;-;-;-;-;-;-
1514208827441;-;-;10.100433;-1.2998657;-2.0104523;-;-;-;-;-;-;-;-;-;-;-;-;-;-;-
1514208827462;-;-;7.8881836;0.6466217;-1.6513214;-;-;-;-;-;-;-;-;-;-;-;-;-;-;-
1514208827482;-;-;9.165497;0.15342712;-0.40872192;-;-;-;-;-;-;-;-;-;-;-;-;-;-;-
1514208827502;-;-;9.329498;0.87527466;-1.2155762;-;-;-;-;-;-;-;-;-;-;-;-;-;-;-
1514208827523;-;-;8.9991;0.51135254;-1.5471649;-;-;-;-;-;-;-;-;-;-;-;-;-;-;-
1514208827542;-;-;8.912903;0.22644043;-0.6505432;-;-;-;-;-;-;-;-;-;-;-;-;-;-;-
1514208827563;-;-;8.177887;-0.61750793;-1.2395172;-;-;-;-;-;-;-;-;-;-;-;-;-;-;-
1514208827583;-;-;8.165909;-0.4044342;-0.39315796;-;-;-;-;-;-;-;-;-;-;-;-;-;-;-
1514208827603;-;-;8.596878;-0.37210083;-2.282196;-;-;-;-;-;-;-;-;-;-;-;-;-;-;-
1514208827624;-;-;10.04895;-0.8677063;-1.8967285;-;-;-;-;-;-;-;-;-;-;-;-;-;-;-
1514208827644;-;-;11.461533;-0.13748169;-1.7794037;-;-;-;-;-;-;-;-;-;-;-;-;-;-;-
1514208827664;-;-;9.513855;-0.29429626;-2.108612;-;-;-;-;-;-;-;-;-;-;-;-;-;-;-
1514208827685;-;-;8.697433;-0.30986023;-1.3879547;-;-;-;-;-;-;-;-;-;-;-;-;-;-;-
1514208827705;-;-;8.660324;-0.06324768;-2.0834656;-;-;-;-;-;-;-;-;-;-;-;-;-;-;-
1514208827725;-;-;8.153946;-0.07762146;-2.184021;-;-;-;-;-;-;-;-;-;-;-;-;-;-;-
1514208827746;-;-;10.386536;-0.18057251;-3.2171173;-;-;-;-;-;-;-;-;-;-;-;-;-;-;-
1514208827766;-;-;9.264847;-0.41160583;-1.9146729;-;-;-;-;-;-;-;-;-;-;-;-;-;-;-
1514208827786;-;-;8.283234;0.2886963;-1.9051056;-;-;-;-;-;-;-;-;-;-;-;-;-;-;-
1514208827806;-;-;9.165497;0.11152649;-0.8660126;-;-;-;-;-;-;-;-;-;-;-;-;-;-;-
1514208827827;-;-;9.303162;-0.4487152;-2.0667114;-;-;-;-;-;-;-;-;-;-;-;-;-;-;-
1514208827847;-;-;8.994308;0.19172668;-2.0092468;-;-;-;-;-;-;-;-;-;-;-;-;-;-;-
1514208827867;-;-;8.928467;0.4371338;-1.2562714;-;-;-;-;-;-;-;-;-;-;-;-;-;-;-
1514208827888;-;-;8.278442;-0.03453064;-1.7159576;-;-;-;-;-;-;-;-;-;-;-;-;-;-;-
1514208827908;-;-;8.923676;-3.1015015;-2.1708527;-;-;-;-;-;-;-;-;-;-;-;-;-;-;-
1514208827928;-;-;10.400894;1.343338;-1.7734222;-;-;-;-;-;-;-;-;-;-;-;-;-;-;-
1514208827949;-;-;8.66391;-0.076416016;-4.189163;-;-;-;-;-;-;-;-;-;-;-;-;-;-;-
1514208827969;-;-;8.910507;-0.21170044;-2.4641418;-;-;-;-;-;-;-;-;-;-;-;-;-;-;-
1514208827989;-;-;9.49231;-0.76475525;-1.0683289;-;-;-;-;-;-;-;-;-;-;-;-;-;-;-
1514208828010;-;-;9.224152;-0.56243896;-0.88757324;-;-;-;-;-;-;-;-;-;-;-;-;-;-;-
1514208828030;-;-;8.698624;0.28749084;-1.5914612;-;-;-;-;-;-;-;-;-;-;-;-;-;-;-
1514208828050;-;-;8.732147;-0.07762146;-1.7566681;-;-;-;-;-;-;-;-;-;-;-;-;-;-;-
1514208828070;-;-;9.013458;-1.0149536;-1.9494019;-;-;-;-;-;-;-;-;-;-;-;-;-;-;-
1514208828091;-;-;9.122391;-0.6318817;-2.0068512;-;-;-;-;-;-;-;-;-;-;-;-;-;-;-
1514208828111;-;-;8.751297;-0.65940857;-1.8991089;-;-;-;-;-;-;-;-;-;-;-;-;-;-;-
1514208828131;-;-;8.801575;-0.38287354;-1.8967285;-;-;-;-;-;-;-;-;-;-;-;-;-;-;-
1514208828152;-;-;9.068527;-0.8066559;-1.6285706;-;-;-;-;-;-;-;-;-;-;-;-;-;-;-
1514208828171;-;-;9.064941;-0.6761627;-1.7901764;-;-;-;-;-;-;-;-;-;-;-;-;-;-;-
1514208828191;-;-;8.472366;1.1170807;-1.2802124;-;-;-;-;-;-;-;-;-;-;-;-;-;-;-
1514208828212;-;-;9.309143;-0.38887024;-1.9446106;-;-;-;-;-;-;-;-;-;-;-;-;-;-;-
1514208828231;-;-;9.37619;-0.56962585;-1.9637604;-;-;-;-;-;-;-;-;-;-;-;-;-;-;-
1514208828251;-;-;9.608414;-1.269928;-2.4952698;-;-;-;-;-;-;-;-;-;-;-;-;-;-;-
1514208828272;-;-;9.629974;-1.285492;-2.1505127;-;-;-;-;-;-;-;-;-;-;-;-;-;-;-
1514208828292;-;-;8.911713;-0.39485168;-1.8464508;-;-;-;-;-;-;-;-;-;-;-;-;-;-;-
1514208828312;-;-;8.854248;0.0049743652;-1.5842743;-;-;-;-;-;-;-;-;-;-;-;-;-;-;-
1514208828332;-;-;8.576523;-0.13269043;-2.0643158;-;-;-;-;-;-;-;-;-;-;-;-;-;-;-
1514208828353;-;-;8.996704;-0.4056244;-2.373169;-;-;-;-;-;-;-;-;-;-;-;-;-;-;-
1514208828373;-;-;9.090073;-0.6127167;-2.4952698;-;-;-;-;-;-;-;-;-;-;-;-;-;-;-
1514208828393;-;-;9.2756195;-0.18894958;-1.9470062;-;-;-;-;-;-;-;-;-;-;-;-;-;-;-
1514208828414;-;-;9.0972595;-0.28471375;-2.0080566;-;-;-;-;-;-;-;-;-;-;-;-;-;-;-
1514208828435;-;-;8.768051;-0.29071045;-2.1971893;-;-;-;-;-;-;-;-;-;-;-;-;-;-;-
1514208828454;-;-;8.975159;-0.17936707;-1.6944122;-;-;-;-;-;-;-;-;-;-;-;-;-;-;-
1514208828474;-;-;9.081696;0.1618042;-1.7063904;-;-;-;-;-;-;-;-;-;-;-;-;-;-;-
1514208828494;-;-;9.131973;-0.5444946;-2.1373444;-;-;-;-;-;-;-;-;-;-;-;-;-;-;-
1514208828514;-;-;9.281616;-0.46188354;-1.9039001;-;-;-;-;-;-;-;-;-;-;-;-;-;-;-
1514208828535;-;-;9.282806;-0.621109;-1.9230652;-;-;-;-;-;-;-;-;-;-;-;-;-;-;-
1514208828555;-;-;9.001495;-0.64505005;-2.0990295;-;-;-;-;-;-;-;-;-;-;-;-;-;-;-
1514208828576;-;-;8.677078;-0.26316833;-1.9194641;-;-;-;-;-;-;-;-;-;-;-;-;-;-;-
1514208828596;-;-;8.996704;-0.43675232;-1.7985535;-;-;-;-;-;-;-;-;-;-;-;-;-;-;-
1514208828616;-;-;8.970367;-0.39485168;-2.041565;-;-;-;-;-;-;-;-;-;-;-;-;-;-;-
1514208828636;-;-;9.013458;-0.621109;-2.0463562;-;-;-;-;-;-;-;-;-;-;-;-;-;-;-
1514208828657;-;-;9.070923;-0.4056244;-1.9877014;-;-;-;-;-;-;-;-;-;-;-;-;-;-;-
1514208828677;-;-;9.07811;-0.34457397;-1.8847504;-;-;-;-;-;-;-;-;-;-;-;-;-;-;-
1514208828697;-;-;9.175064;-0.56843567;-1.9086914;-;-;-;-;-;-;-;-;-;-;-;-;-;-;-
1514208828718;-;-;9.6622925;-0.8820648;-2.151703;-;-;-;-;-;-;-;-;-;-;-;-;-;-;-
1514208828738;-;-;9.25647;-0.6522217;-2.266632;-;-;-;-;-;-;-;-;-;-;-;-;-;-;-
1514208828758;-;-;9.09845;-0.5456848;-1.9302368;-;-;-;-;-;-;-;-;-;-;-;-;-;-;-
1514208828779;-;-;8.654327;-0.74679565;-1.7973633;-;-;-;-;-;-;-;-;-;-;-;-;-;-;-
1514208828799;-;-;8.277252;-0.4666748;-2.0188293;-;-;-;-;-;-;-;-;-;-;-;-;-;-;-
1514208828819;-;-;8.977554;-0.5732269;-1.9541779;-;-;-;-;-;-;-;-;-;-;-;-;-;-;-
1514208828839;-;-;9.124786;-0.289505;-2.1349487;-;-;-;-;-;-;-;-;-;-;-;-;-;-;-
1514208828859;-;-;9.524628;-0.9359436;-2.1074066;-;-;-;-;-;-;-;-;-;-;-;-;-;-;-
1514208828880;-;-;9.876572;-1.5524445;-2.0044556;-;-;-;-;-;-;-;-;-;-;-;-;-;-;-
1514208828900;-;-;9.352234;-0.32302856;-1.8763733;-;-;-;-;-;-;-;-;-;-;-;-;-;-;-
1514208828920;-;-;8.542999;0.5927582;-1.1940308;-;-;-;-;-;-;-;-;-;-;-;-;-;-;-
1514208828940;-;-;8.472366;0.08998108;-0.82173157;-;-;-;-;-;-;-;-;-;-;-;-;-;-;-
1514208828961;-;-;8.461594;0.4514923;-1.5459747;-;-;-;-;-;-;-;-;-;-;-;-;-;-;-
1514208828980;-;-;9.360626;-0.3469696;-1.3364716;-;-;-;-;-;-;-;-;-;-;-;-;-;-;-
1514208829000;-;-;9.0972595;0.088775635;-1.0443878;-;-;-;-;-;-;-;-;-;-;-;-;-;-;-
1514208829020;-;-;9.956772;-0.32302856;-1.5196381;-;-;-;-;-;-;-;-;-;-;-;-;-;-;-
1514208829041;-;-;9.042191;0.3425598;-1.4753418;-;-;-;-;-;-;-;-;-;-;-;-;-;-;-
1514208829061;-;-;8.423294;0.417984;-1.5244293;-;-;-;-;-;-;-;-;-;-;-;-;-;-;-
1514208829081;-;-;9.29718;-0.23564148;-0.7678528;-;-;-;-;-;-;-;-;-;-;-;-;-;-;-
1514208829101;-;-;8.825516;-0.054870605;-1.1964111;-;-;-;-;-;-;-;-;-;-;-;-;-;-;-
1514208829122;-;-;8.496307;0.2803192;-1.5603333;-;-;-;-;-;-;-;-;-;-;-;-;-;-;-
1514208829141;-;-;9.145142;0.36531067;-1.7865906;-;-;-;-;-;-;-;-;-;-;-;-;-;-;-
1514208829161;-;-;9.547363;-0.018966675;-1.2993622;-;-;-;-;-;-;-;-;-;-;-;-;-;-;-
1514208829182;-;-;9.246902;0.079193115;-1.492096;-;-;-;-;-;-;-;-;-;-;-;-;-;-;-
1514208829202;-;-;8.891357;0.24919128;-1.7458801;-;-;-;-;-;-;-;-;-;-;-;-;-;-;-
1514208829222;-;-;8.8997345;0.12709045;-1.2646484;-;-;-;-;-;-;-;-;-;-;-;-;-;-;-
1514208829242;-;-;10.254852;-1.4351349;-1.48732;-;-;-;-;-;-;-;-;-;-;-;-;-;-;-
1514208829262;-;-;8.772842;-0.34936523;-1.6070251;-;-;-;-;-;-;-;-;-;-;-;-;-;-;-
1514208829283;-;-;8.947617;0.21687317;-0.72595215;-;-;-;-;-;-;-;-;-;-;-;-;-;-;-
1514208829303;-;-;8.641159;0.7016907;-1.3089447;-;-;-;-;-;-;-;-;-;-;-;-;-;-;-
1514208829323;-;-;9.459976;1.0105438;-1.1652985;-;-;-;-;-;-;-;-;-;-;-;-;-;-;-
1514208829343;-;-;8.520264;1.0500488;-1.6429291;-;-;-;-;-;-;-;-;-;-;-;-;-;-;-
1514208829363;-;-;8.510681;0.76034546;-0.6792755;-;-;-;-;-;-;-;-;-;-;-;-;-;-;-
1514208829384;-;-;8.977554;0.2850952;-1.6836395;-;-;-;-;-;-;-;-;-;-;-;-;-;-;-
1514208829404;-;-;9.67067;0.28630066;-2.2342987;-;-;-;-;-;-;-;-;-;-;-;-;-;-;-
1514208829424;-;-;7.738556;-0.9981842;-2.1744537;-;-;-;-;-;-;-;-;-;-;-;-;-;-;-
1514208829444;-;-;8.64595;1.1158905;-2.9094696;-;-;-;-;-;-;-;-;-;-;-;-;-;-;-
1514208829465;-;-;8.879379;-0.36013794;-2.1110077;-;-;-;-;-;-;-;-;-;-;-;-;-;-;-
1514208829486;-;-;9.347458;-0.0010070801;-1.6441345;-;-;-;-;-;-;-;-;-;-;-;-;-;-;-
1514208829506;-;-;9.453995;0.44311523;-1.7075806;-;-;-;-;-;-;-;-;-;-;-;-;-;-;-
1514208829526;-;-;9.264847;0.064834595;-2.029602;-;-;-;-;-;-;-;-;-;-;-;-;-;-;-
1514208829546;-;-;8.232956;-0.1769867;-1.2790222;-;-;-;-;-;-;-;-;-;-;-;-;-;-;-
1514208829567;-;-;7.758896;0.82499695;-2.3647919;-;-;-;-;-;-;-;-;-;-;-;-;-;-;-
1514208829587;-;-;11.248444;-0.23564148;-3.9473572;-;-;-;-;-;-;-;-;-;-;-;-;-;-;-
1514208829607;-;-;9.054169;-0.21887207;-1.8368683;-;-;-;-;-;-;-;-;-;-;-;-;-;-;-
1514208829627;-;-;9.330688;-1.6494141;-2.1469116;-;-;-;-;-;-;-;-;-;-;-;-;-;-;-
1514208829648;-;-;6.752136;0.16659546;-1.9218597;-;-;-;-;-;-;-;-;-;-;-;-;-;-;-
1514208829668;-;-;8.622009;-0.76356506;-1.9494019;-;-;-;-;-;-;-;-;-;-;-;-;-;-;-
1514208829688;-;-;8.594482;-0.9048157;-2.2738037;-;-;-;-;-;-;-;-;-;-;-;-;-;-;-
1514208829709;-;-;9.3893585;-2.8764343;-1.9673462;-;-;-;-;-;-;-;-;-;-;-;-;-;-;-
1514208829730;-;-;9.510254;-3.7706757;-2.215149;-;-;-;-;-;-;-;-;-;-;-;-;-;-;-
1514208829750;-;-;8.811157;-4.2686768;-0.6577301;-;-;-;-;-;-;-;-;-;-;-;-;-;-;-
1514208829771;-;-;8.396957;-3.1817017;-1.4813232;-;-;-;-;-;-;-;-;-;-;-;-;-;-;-
1514208829792;-;-;5.763336;-3.2559204;-0.7558899;-;-;-;-;-;-;-;-;-;-;-;-;-;-;-
1514208829812;-;-;10.7851715;-3.0416412;-2.3911285;-;-;-;-;-;-;-;-;-;-;-;-;-;-;-
1514208829832;-;-;8.554977;-2.2000732;-1.9278412;-;-;-;-;-;-;-;-;-;-;-;-;-;-;-
1514208829853;-;-;7.9552307;-2.2395782;-0.006500244;-;-;-;-;-;-;-;-;-;-;-;-;-;-;-
1514208829873;-;-;8.437653;-0.9155884;-2.8747559;-;-;-;-;-;-;-;-;-;-;-;-;-;-;-
1514208829893;-;-;8.32872;-1.225647;-2.4174652;-;-;-;-;-;-;-;-;-;-;-;-;-;-;-
1514208829913;-;-;8.581314;-1.4255524;-2.041565;-;-;-;-;-;-;-;-;-;-;-;-;-;-;-
1514208829933;-;-;8.34787;-1.7787018;-2.0547333;-;-;-;-;-;-;-;-;-;-;-;-;-;-;-
1514208829953;-;-;8.717773;-2.9015808;-3.136917;-;-;-;-;-;-;-;-;-;-;-;-;-;-;-
1514208829974;-;-;11.038956;-2.9925537;-2.045166;-;-;-;-;-;-;-;-;-;-;-;-;-;-;-
1514208829995;-;-;10.130356;-2.736374;-3.6911774;-;-;-;-;-;-;-;-;-;-;-;-;-;-;-
1514208830016;-;-;9.048172;-2.4287262;-1.7387085;-;-;-;-;-;-;-;-;-;-;-;-;-;-;-
1514208830036;-;-;9.583282;-3.0559998;-1.7602539;-;-;-;-;-;-;-;-;-;-;-;-;-;-;-
1514208830056;-;-;8.775238;-2.8213806;-2.0619202;-;-;-;-;-;-;-;-;-;-;-;-;-;-;-
1514208830077;-;-;8.1874695;-2.3006287;-1.7830048;-;-;-;-;-;-;-;-;-;-;-;-;-;-;-
1514208830097;-;-;8.417313;-2.8309479;-1.7482758;-;-;-;-;-;-;-;-;-;-;-;-;-;-;-
1514208830117;-;-;8.616028;-2.5065308;-1.3783722;-;-;-;-;-;-;-;-;-;-;-;-;-;-;-
1514208830138;-;-;8.469971;-2.143814;-1.9709473;-;-;-;-;-;-;-;-;-;-;-;-;-;-;-
1514208830157;-;-;7.526657;-2.008545;-2.053543;-;-;-;-;-;-;-;-;-;-;-;-;-;-;-
1514208830177;-;-;8.036621;-2.2683105;-1.7195587;-;-;-;-;-;-;-;-;-;-;-;-;-;-;-
1514208830197;-;-;8.928467;-3.0153046;-1.5064697;-;-;-;-;-;-;-;-;-;-;-;-;-;-;-
1514208830218;-;-;8.991913;-2.9805908;-1.4262543;-;-;-;-;-;-;-;-;-;-;-;-;-;-;-
1514208830238;-;-;8.107254;-2.9602356;-2.084671;-;-;-;-;-;-;-;-;-;-;-;-;-;-;-
1514208830258;-;-;8.349075;-2.573578;-1.9553833;-;-;-;-;-;-;-;-;-;-;-;-;-;-;-
1514208830279;-;-;8.335907;-2.360489;-1.7901764;-;-;-;-;-;-;-;-;-;-;-;-;-;-;-
1514208830299;-;-;9.33548;-2.0588226;-2.9369965;-;-;-;-;-;-;-;-;-;-;-;-;-;-;-
1514208830319;-;-;9.706589;-2.456253;-3.1620636;-;-;-;-;-;-;-;-;-;-;-;-;-;-;-
1514208830340;-;-;10.283585;-2.5340729;-2.8125;-;-;-;-;-;-;-;-;-;-;-;-;-;-;-
1514208830360;-;-;8.588486;-1.1274719;-3.6504822;-;-;-;-;-;-;-;-;-;-;-;-;-;-;-
1514208830380;-;-;7.724182;-1.483017;-3.662445;-;-;-;-;-;-;-;-;-;-;-;-;-;-;-
1514208830400;-;-;8.150345;-1.3273926;-3.0315704;-;-;-;-;-;-;-;-;-;-;-;-;-;-;-
1514208830421;-;-;9.616806;-2.1581879;-2.3121185;-;-;-;-;-;-;-;-;-;-;-;-;-;-;-
1514208830440;-;-;8.788406;-2.1809235;-2.8232727;-;-;-;-;-;-;-;-;-;-;-;-;-;-;-
1514208830460;-;-;7.9264984;-1.8948212;-3.5259705;-;-;-;-;-;-;-;-;-;-;-;-;-;-;-
1514208830481;-;-;8.006699;-1.6685638;-3.3595734;-;-;-;-;-;-;-;-;-;-;-;-;-;-;-
1514208830501;-;-;8.607651;-2.111496;-3.0064392;-;-;-;-;-;-;-;-;-;-;-;-;-;-;-
1514208830521;-;-;9.074509;-2.0360718;-3.1153717;-;-;-;-;-;-;-;-;-;-;-;-;-;-;-
1514208830542;-;-;9.498291;-1.4782257;-3.017212;-;-;-;-;-;-;-;-;-;-;-;-;-;-;-
1514208830562;-;-;9.841858;-1.5440674;-4.1341095;-;-;-;-;-;-;-;-;-;-;-;-;-;-;-
1514208830582;-;-;9.2756195;-1.7391968;-3.5894165;-;-;-;-;-;-;-;-;-;-;-;-;-;-;-
1514208830603;-;-;8.204224;-1.2902832;-3.827652;-;-;-;-;-;-;-;-;-;-;-;-;-;-;-
1514208830623;-;-;11.880524;-2.5125275;-2.7873688;-;-;-;-;-;-;-;-;-;-;-;-;-;-;-
1514208830644;-;-;6.601303;-1.3226013;-2.4234467;-;-;-;-;-;-;-;-;-;-;-;-;-;-;-
1514208830665;-;-;8.238937;-0.51216125;-3.2973328;-;-;-;-;-;-;-;-;-;-;-;-;-;-;-
1514208830685;-;-;7.6870728;-1.6529999;-1.7889862;-;-;-;-;-;-;-;-;-;-;-;-;-;-;-
1514208830706;-;-;7.7134094;-1.4327393;-2.093048;-;-;-;-;-;-;-;-;-;-;-;-;-;-;-
1514208830726;-;-;7.7062225;-1.1957092;-2.0882568;-;-;-;-;-;-;-;-;-;-;-;-;-;-;-
1514208830747;-;-;6.2936554;-1.1131134;-3.097412;-;-;-;-;-;-;-;-;-;-;-;-;-;-;-
1514208830769;-;-;8.03064;-1.641037;-4.068268;-;-;-;-;-;-;-;-;-;-;-;-;-;-;-
1514208830789;-;-;7.810379;-1.6326599;-4.144882;-;-;-;-;-;-;-;-;-;-;-;-;-;-;-
1514208830810;-;-;7.9073334;-1.530899;-3.7079315;-;-;-;-;-;-;-;-;-;-;-;-;-;-;-
1514208830829;-;-;8.149155;-1.4291534;-4.4321747;-;-;-;-;-;-;-;-;-;-;-;-;-;-;-
1514208830849;-;-;9.529419;-1.1442413;-4.0802307;-;-;-;-;-;-;-;-;-;-;-;-;-;-;-
1514208830869;-;-;9.922058;-1.1657867;-3.2123413;-;-;-;-;-;-;-;-;-;-;-;-;-;-;-
1514208830890;-;-;9.111618;-0.6402588;-2.3396454;-;-;-;-;-;-;-;-;-;-;-;-;-;-;-
1514208830910;-;-;7.5206757;0.16419983;-2.029602;-;-;-;-;-;-;-;-;-;-;-;-;-;-;-
1514208830931;-;-;6.1954803;0.8561249;-2.0523376;-;-;-;-;-;-;-;-;-;-;-;-;-;-;-
1514208830951;-;-;6.9628296;0.51374817;-2.5934296;-;-;-;-;-;-;-;-;-;-;-;-;-;-;-
1514208830971;-;-;8.393356;-0.24880981;-3.1572723;-;-;-;-;-;-;-;-;-;-;-;-;-;-;-
1514208830992;-;-;11.208939;-1.1849365;-4.049103;-;-;-;-;-;-;-;-;-;-;-;-;-;-;-
1514208831012;-;-;12.060089;-1.937912;-3.2171173;-;-;-;-;-;-;-;-;-;-;-;-;-;-;-
1514208831031;-;-;12.273163;-1.9295349;-4.219101;-;-;-;-;-;-;-;-;-;-;-;-;-;-;-
1514208831052;-;-;11.27478;-1.7571564;-3.2326813;-;-;-;-;-;-;-;-;-;-;-;-;-;-;-
1514208831072;-;-;10.980301;-1.8577118;-3.3092957;-;-;-;-;-;-;-;-;-;-;-;-;-;-;-
1514208831092;-;-;9.755661;-0.9371338;-3.5427399;-;-;-;-;-;-;-;-;-;-;-;-;-;-;-
1514208831113;-;-;8.325134;0.4000244;-2.4222565;-;-;-;-;-;-;-;-;-;-;-;-;-;-;-
1514208831133;-;-;7.197464;-0.078811646;-2.728714;-;-;-;-;-;-;-;-;-;-;-;-;-;-;-
1514208831153;-;-;8.037827;-0.08720398;-2.0750885;-;-;-;-;-;-;-;-;-;-;-;-;-;-;-
1514208831174;-;-;8.056976;0.02532959;-1.9637604;-;-;-;-;-;-;-;-;-;-;-;-;-;-;-
1514208831194;-;-;8.077332;0.5676117;-2.4473877;-;-;-;-;-;-;-;-;-;-;-;-;-;-;-
1514208831214;-;-;6.8131866;0.9925842;-2.5754852;-;-;-;-;-;-;-;-;-;-;-;-;-;-;-
1514208831235;-;-;6.3535004;0.94351196;-2.7454681;-;-;-;-;-;-;-;-;-;-;-;-;-;-;-
1514208831255;-;-;7.588913;1.0931396;-2.9597473;-;-;-;-;-;-;-;-;-;-;-;-;-;-;-
1514208831275;-;-;8.40773;0.8046417;-2.6353302;-;-;-;-;-;-;-;-;-;-;-;-;-;-;-
1514208831296;-;-;9.048172;0.85731506;-2.5060425;-;-;-;-;-;-;-;-;-;-;-;-;-;-;-
1514208831316;-;-;9.3941345;1.2344055;-2.6473083;-;-;-;-;-;-;-;-;-;-;-;-;-;-;-
1514208831336;-;-;9.378571;1.9777985;-2.9609375;-;-;-;-;-;-;-;-;-;-;-;-;-;-;-
1514208831357;-;-;9.874176;1.6701508;-3.2279053;-;-;-;-;-;-;-;-;-;-;-;-;-;-;-
1514208831377;-;-;9.807144;0.9315338;-3.072281;-;-;-;-;-;-;-;-;-;-;-;-;-;-;-
1514208831397;-;-;9.533005;0.23841858;-2.7227173;-;-;-;-;-;-;-;-;-;-;-;-;-;-;-
1514208831418;-;-;8.42688;0.20370483;-2.8053284;-;-;-;-;-;-;-;-;-;-;-;-;-;-;-
1514208831438;-;-;8.896149;0.019348145;-2.685608;-;-;-;-;-;-;-;-;-;-;-;-;-;-;-
1514208831458;-;-;8.406525;-0.057266235;-3.0555115;-;-;-;-;-;-;-;-;-;-;-;-;-;-;-
1514208831478;-;-;8.102463;0.06124878;-3.9677124;-;-;-;-;-;-;-;-;-;-;-;-;-;-;-
1514208831498;-;-;7.446457;0.7112732;-2.8508148;-;-;-;-;-;-;-;-;-;-;-;-;-;-;-
1514208831519;-;-;7.8594513;0.79745483;-2.6484985;-;-;-;-;-;-;-;-;-;-;-;-;-;-;-
1514208831539;-;-;8.535812;0.87646484;-2.625763;-;-;-;-;-;-;-;-;-;-;-;-;-;-;-
1514208831559;-;-;8.871002;0.6633911;-2.9429932;-;-;-;-;-;-;-;-;-;-;-;-;-;-;-
1514208831579;-;-;9.153519;0.43832397;-2.8472137;-;-;-;-;-;-;-;-;-;-;-;-;-;-;-
1514208831599;-;-;9.249298;0.39523315;-2.7310944;-;-;-;-;-;-;-;-;-;-;-;-;-;-;-
1514208831620;-;-;9.006287;0.24440002;-2.3707733;-;-;-;-;-;-;-;-;-;-;-;-;-;-;-
1514208831640;-;-;8.611237;0.16419983;-2.2355042;-;-;-;-;-;-;-;-;-;-;-;-;-;-;-
1514208831660;-;-;8.301193;0.07800293;-2.2342987;-;-;-;-;-;-;-;-;-;-;-;-;-;-;-
1514208831680;-;-;8.253296;-0.00579834;-2.3133087;-;-;-;-;-;-;-;-;-;-;-;-;-;-;-
1514208831701;-;-;8.569336;0.119903564;-2.6233673;-;-;-;-;-;-;-;-;-;-;-;-;-;-;-
1514208831721;-;-;8.960785;0.54367065;-3.7210999;-;-;-;-;-;-;-;-;-;-;-;-;-;-;-
1514208831741;-;-;9.877762;0.5628357;-5.096573;-;-;-;-;-;-;-;-;-;-;-;-;-;-;-
1514208831762;-;-;10.521805;0.09236145;-4.978058;-;-;-;-;-;-;-;-;-;-;-;-;-;-;-
1514208831782;-;-;9.194229;0.25038147;-3.3488007;-;-;-;-;-;-;-;-;-;-;-;-;-;-;-
1514208831802;-;-;7.643982;-0.02494812;-2.2965546;-;-;-;-;-;-;-;-;-;-;-;-;-;-;-
1514208831822;-;-;6.6300354;-0.42358398;-1.8260956;-;-;-;-;-;-;-;-;-;-;-;-;-;-;-
1514208831843;-;-;6.3810425;-0.8018646;-1.5543518;-;-;-;-;-;-;-;-;-;-;-;-;-;-;-
1514208831863;-;-;7.473984;-1.0867767;-2.0583344;-;-;-;-;-;-;-;-;-;-;-;-;-;-;-
1514208831883;-;-;9.084091;-1.2555695;-2.7670135;-;-;-;-;-;-;-;-;-;-;-;-;-;-;-
1514208831904;-;-;10.172256;-0.720459;-3.440979;-;-;-;-;-;-;-;-;-;-;-;-;-;-;-
1514208831924;-;-;10.536179;0.0025787354;-3.4146423;-;-;-;-;-;-;-;-;-;-;-;-;-;-;-
1514208831944;-;-;9.905304;0.3138275;-3.1536713;-;-;-;-;-;-;-;-;-;-;-;-;-;-;-
1514208831965;-;-;9.31752;-0.04888916;-3.0591125;-;-;-;-;-;-;-;-;-;-;-;-;-;-;-
1514208831985;-;-;8.802765;-0.41400146;-2.8065186;-;-;-;-;-;-;-;-;-;-;-;-;-;-;-
1514208832005;-;-;8.392166;-0.51815796;-2.4952698;-;-;-;-;-;-;-;-;-;-;-;-;-;-;-
1514208832026;-;-;8.448425;-0.41760254;-2.203186;-;-;-;-;-;-;-;-;-;-;-;-;-;-;-
1514208832046;-;-;8.778824;-0.42118835;-2.1098022;-;-;-;-;-;-;-;-;-;-;-;-;-;-;-
1514208832066;-;-;9.021835;-0.8317871;-2.3600006;-;-;-;-;-;-;-;-;-;-;-;-;-;-;-
1514208832087;-;-;9.194229;-1.2112732;-2.5982208;-;-;-;-;-;-;-;-;-;-;-;-;-;-;-
1514208832107;-;-;9.313934;-1.3082428;-2.6640625;-;-;-;-;-;-;-;-;-;-;-;-;-;-;-
1514208832127;-;-;9.279221;-1.0460815;-2.804123;-;-;-;-;-;-;-;-;-;-;-;-;-;-;-
1514208832147;-;-;9.147537;-0.75756836;-2.8460236;-;-;-;-;-;-;-;-;-;-;-;-;-;-;-
1514208832168;-;-;8.909317;-0.5648346;-2.939392;-;-;-;-;-;-;-;-;-;-;-;-;-;-;-
1514208832188;-;-;8.623199;-0.4379425;-2.9585571;-;-;-;-;-;-;-;-;-;-;-;-;-;-;-
1514208832208;-;-;8.383789;-0.4343567;-2.840042;-;-;-;-;-;-;-;-;-;-;-;-;-;-;-
1514208832228;-;-;8.356247;-0.5720215;-2.7897644;-;-;-;-;-;-;-;-;-;-;-;-;-;-;-
1514208832249;-;-;8.431671;-0.720459;-2.6604767;-;-;-;-;-;-;-;-;-;-;-;-;-;-;-
1514208832269;-;-;8.675873;-0.71687317;-2.79216;-;-;-;-;-;-;-;-;-;-;-;-;-;-;-
1514208832289;-;-;8.938049;-0.5157623;-2.9753113;-;-;-;-;-;-;-;-;-;-;-;-;-;-;-
1514208832309;-;-;9.044586;-0.31344604;-3.2530365;-;-;-;-;-;-;-;-;-;-;-;-;-;-;-
1514208832330;-;-;8.9392395;-0.3469696;-3.5367432;-;-;-;-;-;-;-;-;-;-;-;-;-;-;-
1514208832350;-;-;8.678268;-0.6007538;-3.5128021;-;-;-;-;-;-;-;-;-;-;-;-;-;-;-
1514208832370;-;-;8.315552;-0.8186188;-3.183609;-;-;-;-;-;-;-;-;-;-;-;-;-;-;-
1514208832390;-;-;8.216187;-0.8856659;-3.04953;-;-;-;-;-;-;-;-;-;-;-;-;-;-;-
1514208832410;-;-;8.054581;-0.7779236;-3.056717;-;-;-;-;-;-;-;-;-;-;-;-;-;-;-
1514208832431;-;-;8.228165;-0.36132813;-3.0698853;-;-;-;-;-;-;-;-;-;-;-;-;-;-;-
1514208832451;-;-;8.7812195;-0.12669373;-3.2123413;-;-;-;-;-;-;-;-;-;-;-;-;-;-;-
1514208832471;-;-;9.080505;0.008575439;-3.2554321;-;-;-;-;-;-;-;-;-;-;-;-;-;-;-
1514208832491;-;-;8.942825;0.0013885498;-3.1907806;-;-;-;-;-;-;-;-;-;-;-;-;-;-;-
1514208832512;-;-;8.894943;-0.18894958;-3.1632538;-;-;-;-;-;-;-;-;-;-;-;-;-;-;-
1514208832532;-;-;8.766861;-0.39604187;-3.0303802;-;-;-;-;-;-;-;-;-;-;-;-;-;-;-
1514208832552;-;-;8.717773;-0.5732269;-2.8232727;-;-;-;-;-;-;-;-;-;-;-;-;-;-;-
1514208832572;-;-;8.716583;-0.660614;-2.8448334;-;-;-;-;-;-;-;-;-;-;-;-;-;-;-
1514208832592;-;-;8.666306;-0.6989136;-2.9609375;-;-;-;-;-;-;-;-;-;-;-;-;-;-;-
1514208832612;-;-;8.74292;-0.6318817;-2.9884796;-;-;-;-;-;-;-;-;-;-;-;-;-;-;-
1514208832633;-;-;8.788406;-0.5277252;-3.116562;-;-;-;-;-;-;-;-;-;-;-;-;-;-;-
1514208832653;-;-;8.784821;-0.58039856;-3.0626984;-;-;-;-;-;-;-;-;-;-;-;-;-;-;-
1514208832673;-;-;8.8003845;-0.680954;-3.0591125;-;-;-;-;-;-;-;-;-;-;-;-;-;-;-
1514208832694;-;-;8.748901;-0.7551727;-3.0710754;-;-;-;-;-;-;-;-;-;-;-;-;-;-;-
1514208832714;-;-;8.707001;-0.7228546;-3.1740265;-;-;-;-;-;-;-;-;-;-;-;-;-;-;-
1514208832734;-;-;8.677078;-0.71687317;-3.214737;-;-;-;-;-;-;-;-;-;-;-;-;-;-;-
1514208832755;-;-;8.666306;-0.84376526;-3.2518463;-;-;-;-;-;-;-;-;-;-;-;-;-;-;-
1514208832775;-;-;8.660324;-0.87968445;-3.223114;-;-;-;-;-;-;-;-;-;-;-;-;-;-;-
1514208832795;-;-;8.794388;0.038497925;-2.151703;-;-;-;-;-;-;-;-;-;-;-;-;-;-;-
1514208832816;-;-;8.871002;-1.0436859;-1.5615387;-;-;-;-;-;-;-;-;-;-;-;-;-;-;-
1514208832836;-;-;8.80397;-0.9622803;-3.350006;-;-;-;-;-;-;-;-;-;-;-;-;-;-;-
1514208832856;-;-;8.898544;-0.3146515;-3.0303802;-;-;-;-;-;-;-;-;-;-;-;-;-;-;-
1514208832877;-;-;8.651932;-0.1985321;-3.111786;-;-;-;-;-;-;-;-;-;-;-;-;-;-;-
1514208832897;-;-;8.685455;-0.16142273;-3.140503;-;-;-;-;-;-;-;-;-;-;-;-;-;-;-
1514208832918;-;-;8.826721;-0.29788208;-3.0399475;-;-;-;-;-;-;-;-;-;-;-;-;-;-;-
1514208832938;-;-;8.838684;-0.3984375;-3.0064392;-;-;-;-;-;-;-;-;-;-;-;-;-;-;-
1514208832958;-;-;8.884171;-0.3397827;-2.954956;-;-;-;-;-;-;-;-;-;-;-;-;-;-;-
1514208832978;-;-;8.778824;-0.20092773;-3.0471344;-;-;-;-;-;-;-;-;-;-;-;-;-;-;-
1514208832999;-;-;8.734543;-0.10635376;-3.0447388;-;-;-;-;-;-;-;-;-;-;-;-;-;-;-
1514208833019;-;-;8.74411;-0.10635376;-3.0603027;-;-;-;-;-;-;-;-;-;-;-;-;-;-;-
1514208833039;-;-;8.8051605;-0.25360107;-2.9417877;-;-;-;-;-;-;-;-;-;-;-;-;-;-;-
1514208833059;-;-;8.748901;-0.43315125;-2.9729156;-;-;-;-;-;-;-;-;-;-;-;-;-;-;-
1514208833079;-;-;8.693832;-0.41281128;-3.156067;-;-;-;-;-;-;-;-;-;-;-;-;-;-;-
1514208833100;-;-;8.775238;-0.581604;-3.203949;-;-;-;-;-;-;-;-;-;-;-;-;-;-;-
1514208833120;-;-;9.024231;-0.45829773;-3.2446594;-;-;-;-;-;-;-;-;-;-;-;-;-;-;-
1514208833141;-;-;8.835098;-0.47027588;-3.1428986;-;-;-;-;-;-;-;-;-;-;-;-;-;-;-
1514208833161;-;-;8.807556;-0.6151123;-2.6987762;-;-;-;-;-;-;-;-;-;-;-;-;-;-;-
1514208833181;-;-;8.124023;-0.38887024;-2.9932709;-;-;-;-;-;-;-;-;-;-;-;-;-;-;-
1514208833202;-;-;8.9787445;0.014556885;-3.1333313;-;-;-;-;-;-;-;-;-;-;-;-;-;-;-
1514208833222;-;-;8.879379;-0.43077087;-2.9166565;-;-;-;-;-;-;-;-;-;-;-;-;-;-;-
1514208833242;-;-;8.607651;-0.89045715;-2.5204163;-;-;-;-;-;-;-;-;-;-;-;-;-;-;-
1514208833263;-;-;8.502304;-1.2124786;-3.1572723;-;-;-;-;-;-;-;-;-;-;-;-;-;-;-
1514208833282;-;-;8.442444;-0.8748932;-2.9765015;-;-;-;-;-;-;-;-;-;-;-;-;-;-;-
1514208833302;-;-;8.910507;-0.76356506;-2.630539;-;-;-;-;-;-;-;-;-;-;-;-;-;-;-
1514208833322;-;-;8.824326;-0.8270111;-2.8077087;-;-;-;-;-;-;-;-;-;-;-;-;-;-;-
1514208833343;-;-;8.686661;-0.83299255;-2.8424377;-;-;-;-;-;-;-;-;-;-;-;-;-;-;-
1514208833363;-;-;8.754883;-0.77433777;-2.8089142;-;-;-;-;-;-;-;-;-;-;-;-;-;-;-
1514208833383;-;-;8.813553;-0.59954834;-2.8172913;-;-;-;-;-;-;-;-;-;-;-;-;-;-;-
1514208833404;-;-;8.903336;-0.7013092;-2.7598267;-;-;-;-;-;-;-;-;-;-;-;-;-;-;-
1514208833423;-;-;9.001495;-0.9191742;-2.7789917;-;-;-;-;-;-;-;-;-;-;-;-;-;-;-
1514208833443;-;-;8.934448;-0.8892517;-2.7909546;-;-;-;-;-;-;-;-;-;-;-;-;-;-;-
1514208833464;-;-;8.903336;-0.81503296;-2.7981415;-;-;-;-;-;-;-;-;-;-;-;-;-;-;-
1514208833484;-;-;8.599258;-0.75398254;-2.977707;-;-;-;-;-;-;-;-;-;-;-;-;-;-;-
1514208833504;-;-;8.745316;-0.7372284;-2.8137054;-;-;-;-;-;-;-;-;-;-;-;-;-;-;-
1514208833524;-;-;8.851852;-0.720459;-2.7586365;-;-;-;-;-;-;-;-;-;-;-;-;-;-;-
1514208833545;-;-;8.780029;-0.56962585;-2.6377258;-;-;-;-;-;-;-;-;-;-;-;-;-;-;-
1514208833565;-;-;8.82312;-0.64505005;-2.9010925;-;-;-;-;-;-;-;-;-;-;-;-;-;-;-
1514208833585;-;-;8.990723;-0.67855835;-2.7227173;-;-;-;-;-;-;-;-;-;-;-;-;-;-;-
1514208833606;-;-;8.703415;-0.66300964;-2.7239227;-;-;-;-;-;-;-;-;-;-;-;-;-;-;-
1514208833625;-;-;9.008667;-0.7264557;-2.8711548;-;-;-;-;-;-;-;-;-;-;-;-;-;-;-
1514208833645;-;-;8.587296;-0.60194397;-2.898697;-;-;-;-;-;-;-;-;-;-;-;-;-;-;-
1514208833666;-;-;8.627991;-0.6330719;-2.819687;-;-;-;-;-;-;-;-;-;-;-;-;-;-;-
1514208833685;-;-;8.844666;-0.720459;-2.8340454;-;-;-;-;-;-;-;-;-;-;-;-;-;-;-
1514208833705;-;-;8.914108;-0.63786316;-2.625763;-;-;-;-;-;-;-;-;-;-;-;-;-;-;-
1514208833726;-;-;8.836288;-0.79348755;-2.7586365;-;-;-;-;-;-;-;-;-;-;-;-;-;-;-
1514208833746;-;-;8.814743;-0.81503296;-2.749054;-;-;-;-;-;-;-;-;-;-;-;-;-;-;-
1514208833766;-;-;8.712982;-0.7444;-2.7310944;-;-;-;-;-;-;-;-;-;-;-;-;-;-;-
1514208833786;-;-;8.571732;-0.63905334;-2.6868134;-;-;-;-;-;-;-;-;-;-;-;-;-;-;-
1514208833807;-;-;8.780029;-0.68574524;-2.7299042;-;-;-;-;-;-;-;-;-;-;-;-;-;-;-
1514208833827;-;-;8.953613;-0.7587738;-2.7083588;-;-;-;-;-;-;-;-;-;-;-;-;-;-;-
1514208833847;-;-;8.712982;-0.739624;-2.768219;-;-;-;-;-;-;-;-;-;-;-;-;-;-;-
1514208833868;-;-;8.997894;-0.56243896;-2.764618;-;-;-;-;-;-;-;-;-;-;-;-;-;-;-
1514208833888;-;-;8.477158;-0.23803711;-2.4964752;-;-;-;-;-;-;-;-;-;-;-;-;-;-;-
1514208833908;-;-;8.936844;-0.76475525;-2.9561615;-;-;-;-;-;-;-;-;-;-;-;-;-;-;-
1514208833929;-;-;8.884171;-0.82341003;-2.875946;-;-;-;-;-;-;-;-;-;-;-;-;-;-;-
1514208833948;-;-;8.819534;-0.7276459;-2.9812927;-;-;-;-;-;-;-;-;-;-;-;-;-;-;-
1514208833968;-;-;8.830307;-0.51097107;-3.0746765;-;-;-;-;-;-;-;-;-;-;-;-;-;-;-
1514208833988;-;-;8.734543;-0.6713867;-3.0710754;-;-;-;-;-;-;-;-;-;-;-;-;-;-;-
1514208834009;-;-;8.671097;-0.76594543;-2.9058838;-;-;-;-;-;-;-;-;-;-;-;-;-;-;-
1514208834029;-;-;8.660324;-0.86531067;-2.8137054;-;-;-;-;-;-;-;-;-;-;-;-;-;-;-
1514208834049;-;-;8.638763;-0.7671509;-2.8855286;-;-;-;-;-;-;-;-;-;-;-;-;-;-;-
1514208834070;-;-;8.924881;-0.72883606;-2.9525604;-;-;-;-;-;-;-;-;-;-;-;-;-;-;-
1514208834090;-;-;9.412094;-0.6079407;-3.1105804;-;-;-;-;-;-;-;-;-;-;-;-;-;-;-
1514208834110;-;-;9.012268;-0.66300964;-3.0555115;-;-;-;-;-;-;-;-;-;-;-;-;-;-;-
1514208834131;-;-;8.964386;-0.069244385;-3.3511963;-;-;-;-;-;-;-;-;-;-;-;-;-;-;-
1514208834150;-;-;8.616028;-1.0472717;-3.0626984;-;-;-;-;-;-;-;-;-;-;-;-;-;-;-
1514208834170;-;-;8.528641;-0.76594543;-3.0148163;-;-;-;-;-;-;-;-;-;-;-;-;-;-;-
1514208834190;-;-;8.623199;-1.0341034;-3.0698853;-;-;-;-;-;-;-;-;-;-;-;-;-;-;-
1514208834211;-;-;8.503494;-0.6546173;-2.9274292;-;-;-;-;-;-;-;-;-;-;-;-;-;-;-
1514208834231;-;-;8.651932;-0.4774475;-3.3739471;-;-;-;-;-;-;-;-;-;-;-;-;-;-;-
1514208834251;-;-;8.390976;-0.54689026;-3.2087402;-;-;-;-;-;-;-;-;-;-;-;-;-;-;-
1514208834272;-;-;8.371811;-0.63427734;-3.326065;-;-;-;-;-;-;-;-;-;-;-;-;-;-;-
1514208834292;-;-;8.260483;-0.63427734;-3.5080261;-;-;-;-;-;-;-;-;-;-;-;-;-;-;-
1514208834312;-;-;8.596878;0.34376526;-3.5702667;-;-;-;-;-;-;-;-;-;-;-;-;-;-;-
1514208834332;-;-;8.942825;-0.15542603;-3.772583;-;-;-;-;-;-;-;-;-;-;-;-;-;-;-
1514208834353;-;-;8.957199;-0.36013794;-3.8180695;-;-;-;-;-;-;-;-;-;-;-;-;-;-;-
1514208834373;-;-;8.660324;-0.3936615;-3.3045197;-;-;-;-;-;-;-;-;-;-;-;-;-;-;-
1514208834394;-;-;8.054581;0.112716675;-3.5918121;-;-;-;-;-;-;-;-;-;-;-;-;-;-;-
1514208834414;-;-;8.322739;0.11152649;-3.942566;-;-;-;-;-;-;-;-;-;-;-;-;-;-;-
1514208834434;-;-;8.728546;-0.06324768;-3.9569397;-;-;-;-;-;-;-;-;-;-;-;-;-;-;-
1514208834455;-;-;8.857834;-0.08958435;-3.820465;-;-;-;-;-;-;-;-;-;-;-;-;-;-;-
1514208834474;-;-;8.960785;-0.26316833;-3.7306824;-;-;-;-;-;-;-;-;-;-;-;-;-;-;-
1514208834494;-;-;8.392166;-0.25598145;-3.5307617;-;-;-;-;-;-;-;-;-;-;-;-;-;-;-
1514208834514;-;-;8.485535;-0.21289063;-3.504425;-;-;-;-;-;-;-;-;-;-;-;-;-;-;-
1514208834535;-;-;8.545395;-0.21409607;-3.1979675;-;-;-;-;-;-;-;-;-;-;-;-;-;-;-
1514208834555;-;-;8.527435;-0.5097656;-3.203949;-;-;-;-;-;-;-;-;-;-;-;-;-;-;-
1514208834575;-;-;7.9205017;-0.621109;-3.4816895;-;-;-;-;-;-;-;-;-;-;-;-;-;-;-
1514208834595;-;-;8.356247;-0.50738525;-3.4302063;-;-;-;-;-;-;-;-;-;-;-;-;-;-;-
1514208834616;-;-;8.622009;-0.3433838;-3.4936523;-;-;-;-;-;-;-;-;-;-;-;-;-;-;-
1514208834636;-;-;8.739319;-0.23803711;-3.5343628;-;-;-;-;-;-;-;-;-;-;-;-;-;-;-
1514208834656;-;-;8.788406;-0.13388062;-3.401474;-;-;-;-;-;-;-;-;-;-;-;-;-;-;-
1514208834676;-;-;8.703415;-0.050079346;-3.4529572;-;-;-;-;-;-;-;-;-;-;-;-;-;-;-
1514208834697;-;-;8.590881;-0.00340271;-3.4182434;-;-;-;-;-;-;-;-;-;-;-;-;-;-;-
1514208834717;-;-;8.571732;-0.03930664;-3.4110565;-;-;-;-;-;-;-;-;-;-;-;-;-;-;-
1514208834737;-;-;8.697433;-0.038116455;-3.3739471;-;-;-;-;-;-;-;-;-;-;-;-;-;-;-
1514208834758;-;-;8.876999;-0.085998535;-3.2159271;-;-;-;-;-;-;-;-;-;-;-;-;-;-;-
1514208834777;-;-;8.918884;-0.24520874;-3.3787384;-;-;-;-;-;-;-;-;-;-;-;-;-;-;-
1514208834797;-;-;8.894943;-0.50019836;-3.4062653;-;-;-;-;-;-;-;-;-;-;-;-;-;-;-
1514208834818;-;-;8.82312;-0.73483276;-3.2099457;-;-;-;-;-;-;-;-;-;-;-;-;-;-;-
1514208834838;-;-;8.758484;-0.7120819;-3.0926208;-;-;-;-;-;-;-;-;-;-;-;-;-;-;-
1514208834858;-;-;8.587296;-0.5037842;-3.112976;-;-;-;-;-;-;-;-;-;-;-;-;-;-;-
1514208834878;-;-;8.526245;-0.28471375;-3.262619;-;-;-;-;-;-;-;-;-;-;-;-;-;-;-
1514208834899;-;-;8.588486;-0.22605896;-3.4457703;-;-;-;-;-;-;-;-;-;-;-;-;-;-;-
1514208834919;-;-;8.677078;-0.19613647;-3.4469604;-;-;-;-;-;-;-;-;-;-;-;-;-;-;-
1514208834939;-;-;8.7608795;-0.29071045;-3.3954926;-;-;-;-;-;-;-;-;-;-;-;-;-;-;-
1514208834960;-;-;8.668701;-0.29908752;-3.417038;-;-;-;-;-;-;-;-;-;-;-;-;-;-;-
1514208834980;-;-;8.616028;-0.29548645;-3.4589386;-;-;-;-;-;-;-;-;-;-;-;-;-;-;-
1514208835000;-;-;8.509476;-0.24641418;-3.456543;-;-;-;-;-;-;-;-;-;-;-;-;-;-;-
1514208835021;-;-;8.490326;-0.29071045;-3.4182434;-;-;-;-;-;-;-;-;-;-;-;-;-;-;-
1514208835041;-;-;8.531036;-0.27633667;-3.3990784;-;-;-;-;-;-;-;-;-;-;-;-;-;-;-
1514208835061;-;-;8.590881;-0.24401855;-3.417038;-;-;-;-;-;-;-;-;-;-;-;-;-;-;-
1514208835082;-;-;8.598068;-0.121917725;-3.5020294;-;-;-;-;-;-;-;-;-;-;-;-;-;-;-
1514208835102;-;-;8.580109;-0.10635376;-3.429016;-;-;-;-;-;-;-;-;-;-;-;-;-;-;-
1514208835122;-;-;8.608841;-0.15423584;-3.405075;-;-;-;-;-;-;-;-;-;-;-;-;-;-;-
1514208835143;-;-;8.629196;-0.22964478;-3.4218292;-;-;-;-;-;-;-;-;-;-;-;-;-;-;-
1514208835163;-;-;8.611237;-0.22007751;-3.3978882;-;-;-;-;-;-;-;-;-;-;-;-;-;-;-
1514208835183;-;-;8.56575;-0.26914978;-3.432602;-;-;-;-;-;-;-;-;-;-;-;-;-;-;-
1514208835204;-;-;8.546585;-0.29429626;-3.432602;-;-;-;-;-;-;-;-;-;-;-;-;-;-;-
1514208835224;-;-;8.629196;-0.24043274;-3.3919067;-;-;-;-;-;-;-;-;-;-;-;-;-;-;-
1514208835244;-;-;8.675873;-0.1769867;-3.4314117;-;-;-;-;-;-;-;-;-;-;-;-;-;-;-
1514208835265;-;-;8.641159;-0.17219543;-3.4900665;-;-;-;-;-;-;-;-;-;-;-;-;-;-;-
1514208835285;-;-;8.596878;-0.18415833;-3.3739471;-;-;-;-;-;-;-;-;-;-;-;-;-;-;-
1514208835305;-;-;8.610046;-0.25239563;-3.4397888;-;-;-;-;-;-;-;-;-;-;-;-;-;-;-
1514208835325;-;-;8.611237;-0.28112793;-3.4469604;-;-;-;-;-;-;-;-;-;-;-;-;-;-;-
1514208835346;-;-;8.598068;-0.3002777;-3.3679657;-;-;-;-;-;-;-;-;-;-;-;-;-;-;-
1514208835365;-;-;8.576523;-0.24760437;-3.5391388;-;-;-;-;-;-;-;-;-;-;-;-;-;-;-
1514208835385;-;-;8.596878;-0.2859192;-3.4314117;-;-;-;-;-;-;-;-;-;-;-;-;-;-;-
1514208835405;-;-;8.627991;-0.31704712;-3.4194336;-;-;-;-;-;-;-;-;-;-;-;-;-;-;-
1514208835426;-;-;8.653137;-0.31105042;-3.3595734;-;-;-;-;-;-;-;-;-;-;-;-;-;-;-
1514208835445;-;-;8.660324;-0.33021545;-3.326065;-;-;-;-;-;-;-;-;-;-;-;-;-;-;-
1514208835465;-;-;8.589691;-0.368515;-3.326065;-;-;-;-;-;-;-;-;-;-;-;-;-;-;-
1514208835486;-;-;8.635178;-0.33738708;-3.3739471;-;-;-;-;-;-;-;-;-;-;-;-;-;-;-
1514208835506;-;-;8.611237;-0.32781982;-3.3607788;-;-;-;-;-;-;-;-;-;-;-;-;-;-;-
1514208835526;-;-;8.612427;-0.33380127;-3.381134;-;-;-;-;-;-;-;-;-;-;-;-;-;-;-
1514208835547;-;-;8.636368;-0.35534668;-3.28656;-;-;-;-;-;-;-;-;-;-;-;-;-;-;-
1514208835566;-;-;8.654327;-0.36013794;-3.3069;-;-;-;-;-;-;-;-;-;-;-;-;-;-;-
1514208835586;-;-;8.635178;-0.3481598;-3.3236694;-;-;-;-;-;-;-;-;-;-;-;-;-;-;-
1514208835606;-;-;8.598068;-0.22845459;-3.3368378;-;-;-;-;-;-;-;-;-;-;-;-;-;-;-
1514208835627;-;-;8.611237;-0.21887207;-3.3428192;-;-;-;-;-;-;-;-;-;-;-;-;-;-;-
1514208835647;-;-;8.651932;-0.22007751;-3.401474;-;-;-;-;-;-;-;-;-;-;-;-;-;-;-
1514208835667;-;-;8.655533;-0.16859436;-3.4541473;-;-;-;-;-;-;-;-;-;-;-;-;-;-;-
1514208835687;-;-;8.60405;-0.2392273;-3.4158478;-;-;-;-;-;-;-;-;-;-;-;-;-;-;-
1514208835708;-;-;8.599258;-0.32063293;-3.3787384;-;-;-;-;-;-;-;-;-;-;-;-;-;-;-
1514208835728;-;-;8.576523;-0.3589325;-3.3404236;-;-;-;-;-;-;-;-;-;-;-;-;-;-;-
1514208835748;-;-;8.577713;-0.2799225;-3.3272552;-;-;-;-;-;-;-;-;-;-;-;-;-;-;-
1514208835768;-;-;8.56694;-0.33140564;-3.3799286;-;-;-;-;-;-;-;-;-;-;-;-;-;-;-
1514208835789;-;-;8.636368;-0.4271698;-3.3978882;-;-;-;-;-;-;-;-;-;-;-;-;-;-;-
1514208835809;-;-;8.693832;-0.5432892;-3.401474;-;-;-;-;-;-;-;-;-;-;-;-;-;-;-
1514208835829;-;-;8.68306;-0.5540619;-3.425415;-;-;-;-;-;-;-;-;-;-;-;-;-;-;-
1514208835850;-;-;8.624405;-0.53012085;-3.440979;-;-;-;-;-;-;-;-;-;-;-;-;-;-;-
1514208835871;-;-;8.611237;-0.44273376;-3.5187988;-;-;-;-;-;-;-;-;-;-;-;-;-;-;-
1514208835890;-;-;8.572922;-0.46548462;-3.6217499;-;-;-;-;-;-;-;-;-;-;-;-;-;-;-
1514208835910;-;-;8.6028595;-0.5720215;-3.6337128;-;-;-;-;-;-;-;-;-;-;-;-;-;-;-
1514208835930;-;-;8.619614;-0.60194397;-3.54393;-;-;-;-;-;-;-;-;-;-;-;-;-;-;-
1514208835950;-;-;8.58609;-0.5720215;-3.4745026;-;-;-;-;-;-;-;-;-;-;-;-;-;-;-
1514208835971;-;-;8.517868;-0.53012085;-3.4505615;-;-;-;-;-;-;-;-;-;-;-;-;-;-;-
1514208835991;-;-;8.502304;-0.60554504;-3.3966827;-;-;-;-;-;-;-;-;-;-;-;-;-;-;-
1514208836011;-;-;8.534622;-0.63786316;-3.5367432;-;-;-;-;-;-;-;-;-;-;-;-;-;-;-
1514208836032;-;-;8.546585;-0.6007538;-3.6085815;-;-;-;-;-;-;-;-;-;-;-;-;-;-;-
1514208836052;-;-;8.574127;-0.5049896;-3.484085;-;-;-;-;-;-;-;-;-;-;-;-;-;-;-
1514208836072;-;-;8.631592;-0.44752502;-3.5020294;-;-;-;-;-;-;-;-;-;-;-;-;-;-;-
1514208836093;-;-;8.674683;-0.44154358;-3.487671;-;-;-;-;-;-;-;-;-;-;-;-;-;-;-
1514208836113;-;-;8.637573;-0.4882202;-3.4900665;-;-;-;-;-;-;-;-;-;-;-;-;-;-;-
1514208836133;-;-;8.529831;-0.47027588;-3.4972534;-;-;-;-;-;-;-;-;-;-;-;-;-;-;-
1514208836153;-;-;8.552582;-0.4092102;-3.5427399;-;-;-;-;-;-;-;-;-;-;-;-;-;-;-
1514208836173;-;-;8.595673;-0.35534668;-3.5092163;-;-;-;-;-;-;-;-;-;-;-;-;-;-;-
1514208836194;-;-;8.610046;-0.31704712;-3.5726624;-;-;-;-;-;-;-;-;-;-;-;-;-;-;-
1514208836214;-;-;8.570541;-0.31344604;-3.606186;-;-;-;-;-;-;-;-;-;-;-;-;-;-;-
1514208836235;-;-;8.533432;-0.29071045;-3.6349182;-;-;-;-;-;-;-;-;-;-;-;-;-;-;-
1514208836255;-;-;8.471176;-0.31105042;-3.6097717;-;-;-;-;-;-;-;-;-;-;-;-;-;-;-
1514208836275;-;-;8.474762;-0.27633667;-3.6121674;-;-;-;-;-;-;-;-;-;-;-;-;-;-;-
1514208836295;-;-;8.556168;-0.2775421;-3.5918121;-;-;-;-;-;-;-;-;-;-;-;-;-;-;-
1514208836315;-;-;8.527435;-0.33140564;-3.6432953;-;-;-;-;-;-;-;-;-;-;-;-;-;-;-
1514208836336;-;-;8.538208;-0.33738708;-3.598999;-;-;-;-;-;-;-;-;-;-;-;-;-;-;-
1514208836356;-;-;8.529831;-0.34217834;-3.575058;-;-;-;-;-;-;-;-;-;-;-;-;-;-;-
1514208836376;-;-;8.516663;-0.5169525;-3.5942078;-;-;-;-;-;-;-;-;-;-;-;-;-;-;-
1514208836397;-;-;8.601654;-0.62709045;-3.6253357;-;-;-;-;-;-;-;-;-;-;-;-;-;-;-
1514208836417;-;-;8.638763;-0.6222992;-3.5487213;-;-;-;-;-;-;-;-;-;-;-;-;-;-;-
1514208836437;-;-;8.655533;-0.5444946;-3.5080261;-;-;-;-;-;-;-;-;-;-;-;-;-;-;-
1514208836458;-;-;8.545395;-0.48104858;-3.4936523;-;-;-;-;-;-;-;-;-;-;-;-;-;-;-
1514208836477;-;-;8.498703;-0.41160583;-3.4709167;-;-;-;-;-;-;-;-;-;-;-;-;-;-;-
1514208836497;-;-;8.556168;-0.37809753;-3.4792938;-;-;-;-;-;-;-;-;-;-;-;-;-;-;-
1514208836517;-;-;8.589691;-0.34457397;-3.686386;-;-;-;-;-;-;-;-;-;-;-;-;-;-;-
1514208836537;-;-;8.590881;-0.32781982;-3.8072968;-;-;-;-;-;-;-;-;-;-;-;-;-;-;-
1514208836558;-;-;8.550186;-0.30625916;-3.7665863;-;-;-;-;-;-;-;-;-;-;-;-;-;-;-
1514208836578;-;-;8.529831;-0.2607727;-3.6480865;-;-;-;-;-;-;-;-;-;-;-;-;-;-;-
1514208836598;-;-;8.465195;-0.368515;-3.528366;-;-;-;-;-;-;-;-;-;-;-;-;-;-;-
1514208836618;-;-;8.459198;-0.43554688;-3.480484;-;-;-;-;-;-;-;-;-;-;-;-;-;-;-
1514208836638;-;-;8.489136;-0.4271698;-3.6265259;-;-;-;-;-;-;-;-;-;-;-;-;-;-;-
1514208836659;-;-;8.537018;-0.42956543;-3.6600494;-;-;-;-;-;-;-;-;-;-;-;-;-;-;-
1514208836679;-;-;8.553772;-0.41879272;-3.5726624;-;-;-;-;-;-;-;-;-;-;-;-;-;-;-
1514208836699;-;-;8.616028;-0.42837524;-3.4864655;-;-;-;-;-;-;-;-;-;-;-;-;-;-;-
1514208836720;-;-;8.623199;-0.49661255;-3.4577484;-;-;-;-;-;-;-;-;-;-;-;-;-;-;-
1514208836740;-;-;8.625595;-0.5217438;-3.468521;-;-;-;-;-;-;-;-;-;-;-;-;-;-;-
1514208836760;-;-;8.581314;-0.59477234;-3.4709167;-;-;-;-;-;-;-;-;-;-;-;-;-;-;-
1514208836781;-;-;8.580109;-0.6007538;-3.4852753;-;-;-;-;-;-;-;-;-;-;-;-;-;-;-
1514208836802;-;-;8.576523;-0.56843567;-3.4948578;-;-;-;-;-;-;-;-;-;-;-;-;-;-;-
1514208836822;-;-;8.667496;-0.50138855;-3.4266205;-;-;-;-;-;-;-;-;-;-;-;-;-;-;-
1514208836842;-;-;8.657928;-0.43675232;-3.4230194;-;-;-;-;-;-;-;-;-;-;-;-;-;-;-
1514208836862;-;-;8.576523;-0.47146606;-3.4529572;-;-;-;-;-;-;-;-;-;-;-;-;-;-;-
1514208836883;-;-;8.545395;-0.44273376;-3.5151978;-;-;-;-;-;-;-;-;-;-;-;-;-;-;-
1514208836903;-;-;8.540604;-0.34936523;-3.4936523;-;-;-;-;-;-;-;-;-;-;-;-;-;-;-
1514208836923;-;-;8.578918;-0.30625916;-3.5307617;-;-;-;-;-;-;-;-;-;-;-;-;-;-;-
1514208836943;-;-;8.617218;-0.25479126;-3.4900665;-;-;-;-;-;-;-;-;-;-;-;-;-;-;-
1514208836964;-;-;8.619614;-0.28231812;-3.5235748;-;-;-;-;-;-;-;-;-;-;-;-;-;-;-
1514208836983;-;-;8.598068;-0.32661438;-3.4828796;-;-;-;-;-;-;-;-;-;-;-;-;-;-;-
1514208837003;-;-;8.56694;-0.40083313;-3.4553528;-;-;-;-;-;-;-;-;-;-;-;-;-;-;-
1514208837023;-;-;8.6028595;-0.42237854;-3.4661255;-;-;-;-;-;-;-;-;-;-;-;-;-;-;-
1514208837043;-;-;8.613632;-0.3768921;-3.456543;-;-;-;-;-;-;-;-;-;-;-;-;-;-;-
1514208837063;-;-;8.624405;-0.37210083;-3.4613342;-;-;-;-;-;-;-;-;-;-;-;-;-;-;-
1514208837084;-;-;8.60405;-0.40083313;-3.4673157;-;-;-;-;-;-;-;-;-;-;-;-;-;-;-
1514208837104;-;-;8.635178;-0.40682983;-3.432602;-;-;-;-;-;-;-;-;-;-;-;-;-;-;-
1514208837125;-;-;8.635178;-0.4774475;-3.4457703;-;-;-;-;-;-;-;-;-;-;-;-;-;-;-
1514208837145;-;-;8.594482;-0.4882202;-3.408661;-;-;-;-;-;-;-;-;-;-;-;-;-;-;-
1514208837166;-;-;8.580109;-0.4666748;-3.3643646;-;-;-;-;-;-;-;-;-;-;-;-;-;-;-
1514208837186;-;-;8.618423;-0.50138855;-3.4697113;-;-;-;-;-;-;-;-;-;-;-;-;-;-;-
1514208837206;-;-;8.662704;-0.542099;-3.401474;-;-;-;-;-;-;-;-;-;-;-;-;-;-;-
1514208837227;-;-;8.596878;-0.58758545;-3.2889557;-;-;-;-;-;-;-;-;-;-;-;-;-;-;-
1514208837247;-;-;8.582504;-0.54089355;-3.4852753;-;-;-;-;-;-;-;-;-;-;-;-;-;-;-
1514208837267;-;-;8.601654;-0.49661255;-3.4242249;-;-;-;-;-;-;-;-;-;-;-;-;-;-;-
1514208837288;-;-;8.619614;-0.51097107;-3.3284607;-;-;-;-;-;-;-;-;-;-;-;-;-;-;-
1514208837308;-;-;8.692642;-0.47146606;-3.338028;-;-;-;-;-;-;-;-;-;-;-;-;-;-;-
1514208837328;-;-;8.691437;-0.49780273;-3.3823242;-;-;-;-;-;-;-;-;-;-;-;-;-;-;-
1514208837349;-;-;8.624405;-0.5049896;-3.389511;-;-;-;-;-;-;-;-;-;-;-;-;-;-;-
1514208837369;-;-;8.574127;-0.5037842;-3.417038;-;-;-;-;-;-;-;-;-;-;-;-;-;-;-
1514208837389;-;-;8.596878;-0.4954071;-3.3978882;-;-;-;-;-;-;-;-;-;-;-;-;-;-;-
1514208837410;-;-;8.607651;-0.47505188;-3.3943024;-;-;-;-;-;-;-;-;-;-;-;-;-;-;-
1514208837430;-;-;8.64595;-0.4271698;-3.4385834;-;-;-;-;-;-;-;-;-;-;-;-;-;-;-
1514208837450;-;-;8.632782;-0.4044342;-3.4146423;-;-;-;-;-;-;-;-;-;-;-;-;-;-;-
1514208837470;-;-;8.594482;-0.40802002;-3.401474;-;-;-;-;-;-;-;-;-;-;-;-;-;-;-
1514208837491;-;-;8.620819;-0.41760254;-3.4589386;-;-;-;-;-;-;-;-;-;-;-;-;-;-;-
1514208837511;-;-;8.616028;-0.42358398;-3.432602;-;-;-;-;-;-;-;-;-;-;-;-;-;-;-
1514208837531;-;-;8.631592;-0.40802002;-3.4158478;-;-;-;-;-;-;-;-;-;-;-;-;-;-;-
1514208837551;-;-;8.638763;-0.39604187;-3.3511963;-;-;-;-;-;-;-;-;-;-;-;-;-;-;-
1514208837571;-;-;8.6028595;-0.38887024;-3.3871155;-;-;-;-;-;-;-;-;-;-;-;-;-;-;-
1514208837592;-;-;8.599258;-0.43554688;-3.3308563;-;-;-;-;-;-;-;-;-;-;-;-;-;-;-
1514208837612;-;-;8.612427;-0.43196106;-3.3751373;-;-;-;-;-;-;-;-;-;-;-;-;-;-;-
1514208837632;-;-;8.648346;-0.44752502;-3.377533;-;-;-;-;-;-;-;-;-;-;-;-;-;-;-
1514208837653;-;-;8.638763;-0.5049896;-3.4278107;-;-;-;-;-;-;-;-;-;-;-;-;-;-;-
1514208837673;-;-;8.587296;-0.4918213;-3.4361877;-;-;-;-;-;-;-;-;-;-;-;-;-;-;-
1514208837693;-;-;8.569336;-0.51934814;-3.3524017;-;-;-;-;-;-;-;-;-;-;-;-;-;-;-
1514208837713;-;-;8.58371;-0.463089;-3.3368378;-;-;-;-;-;-;-;-;-;-;-;-;-;-;-
1514208837734;-;-;8.608841;-0.41879272;-3.3212738;-;-;-;-;-;-;-;-;-;-;-;-;-;-;-
1514208837754;-;-;8.649536;-0.38887024;-3.3595734;-;-;-;-;-;-;-;-;-;-;-;-;-;-;-
1514208837774;-;-;8.635178;-0.3984375;-3.3823242;-;-;-;-;-;-;-;-;-;-;-;-;-;-;-
1514208837794;-;-;8.630386;-0.4092102;-3.409851;-;-;-;-;-;-;-;-;-;-;-;-;-;-;-
1514208837815;-;-;8.629196;-0.42477417;-3.4469604;-;-;-;-;-;-;-;-;-;-;-;-;-;-;-
1514208837835;-;-;8.624405;-0.463089;-3.5008392;-;-;-;-;-;-;-;-;-;-;-;-;-;-;-
1514208837855;-;-;8.595673;-0.49061584;-3.5008392;-;-;-;-;-;-;-;-;-;-;-;-;-;-;-
1514208837875;-;-;8.58609;-0.44033813;-3.5942078;-;-;-;-;-;-;-;-;-;-;-;-;-;-;-
1514208837896;-;-;8.611237;-0.37449646;-3.5331573;-;-;-;-;-;-;-;-;-;-;-;-;-;-;-
1514208837916;-;-;8.612427;-0.39245605;-3.5630798;-;-;-;-;-;-;-;-;-;-;-;-;-;-;-
1514208837937;-;-;8.611237;-0.4559021;-3.5690765;-;-;-;-;-;-;-;-;-;-;-;-;-;-;-
1514208837957;-;-;8.599258;-0.49301147;-3.5092163;-;-;-;-;-;-;-;-;-;-;-;-;-;-;-
1514208837977;-;-;8.516663;-0.44631958;-3.5211945;-;-;-;-;-;-;-;-;-;-;-;-;-;-;-
1514208837998;-;-;8.5238495;-0.4271698;-3.5738678;-;-;-;-;-;-;-;-;-;-;-;-;-;-;-
1514208838018;-;-;8.56694;-0.46788025;-3.5475311;-;-;-;-;-;-;-;-;-;-;-;-;-;-;-
1514208838038;-;-;8.606445;-0.5061798;-3.5642853;-;-;-;-;-;-;-;-;-;-;-;-;-;-;-
1514208838058;-;-;8.623199;-0.5205536;-3.5570984;-;-;-;-;-;-;-;-;-;-;-;-;-;-;-
1514208838079;-;-;8.577713;-0.55885315;-3.5403442;-;-;-;-;-;-;-;-;-;-;-;-;-;-;-
1514208838100;-;-;8.560959;-0.6103363;-3.5499115;-;-;-;-;-;-;-;-;-;-;-;-;-;-;-
1514208838121;-;-;8.558563;-0.64505005;-3.5846405;-;-;-;-;-;-;-;-;-;-;-;-;-;-;-
1514208838140;-;-;8.582504;-0.6582184;-3.5499115;-;-;-;-;-;-;-;-;-;-;-;-;-;-;-
1514208838160;-;-;8.576523;-0.66300964;-3.5583038;-;-;-;-;-;-;-;-;-;-;-;-;-;-;-
1514208838181;-;-;8.540604;-0.5959625;-3.5858307;-;-;-;-;-;-;-;-;-;-;-;-;-;-;-
1514208838201;-;-;8.503494;-0.5169525;-3.5798492;-;-;-;-;-;-;-;-;-;-;-;-;-;-;-
1514208838221;-;-;8.507095;-0.39964294;-3.5618896;-;-;-;-;-;-;-;-;-;-;-;-;-;-;-
1514208838241;-;-;8.493927;-0.3254242;-3.6217499;-;-;-;-;-;-;-;-;-;-;-;-;-;-;-
1514208838262;-;-;8.541809;-0.25360107;-3.6744232;-;-;-;-;-;-;-;-;-;-;-;-;-;-;-
1514208838282;-;-;8.535812;-0.25120544;-3.7067413;-;-;-;-;-;-;-;-;-;-;-;-;-;-;-
1514208838303;-;-;8.539413;-0.25598145;-3.6492767;-;-;-;-;-;-;-;-;-;-;-;-;-;-;-
1514208838323;-;-;8.526245;-0.23683167;-3.6361084;-;-;-;-;-;-;-;-;-;-;-;-;-;-;-
1514208838343;-;-;8.497513;-0.1817627;-3.6193542;-;-;-;-;-;-;-;-;-;-;-;-;-;-;-
1514208838363;-;-;8.462799;-0.10395813;-3.70195;-;-;-;-;-;-;-;-;-;-;-;-;-;-;-
1514208838384;-;-;8.535812;-0.15663147;-3.7618103;-;-;-;-;-;-;-;-;-;-;-;-;-;-;-
1514208838404;-;-;8.647156;-0.26197815;-3.748642;-;-;-;-;-;-;-;-;-;-;-;-;-;-;-
1514208838424;-;-;8.629196;-0.2571869;-3.6971588;-;-;-;-;-;-;-;-;-;-;-;-;-;-;-
1514208838445;-;-;8.56694;-0.31584167;-3.535553;-;-;-;-;-;-;-;-;-;-;-;-;-;-;-
1514208838465;-;-;8.513077;-0.35176086;-3.5606995;-;-;-;-;-;-;-;-;-;-;-;-;-;-;-
1514208838485;-;-;8.459198;-0.32781982;-3.5606995;-;-;-;-;-;-;-;-;-;-;-;-;-;-;-
1514208838506;-;-;8.432861;-0.42837524;-3.5080261;-;-;-;-;-;-;-;-;-;-;-;-;-;-;-
1514208838525;-;-;8.539413;-0.48703003;-3.5475311;-;-;-;-;-;-;-;-;-;-;-;-;-;-;-
1514208838545;-;-;8.610046;-0.4834442;-3.5547028;-;-;-;-;-;-;-;-;-;-;-;-;-;-;-
1514208838566;-;-;8.661514;-0.4738617;-3.6049805;-;-;-;-;-;-;-;-;-;-;-;-;-;-;-
1514208838587;-;-;8.630386;-0.4152069;-3.693573;-;-;-;-;-;-;-;-;-;-;-;-;-;-;-
1514208838606;-;-;8.534622;-0.4487152;-3.6672363;-;-;-;-;-;-;-;-;-;-;-;-;-;-;-
1514208838626;-;-;8.50589;-0.4379425;-3.606186;-;-;-;-;-;-;-;-;-;-;-;-;-;-;-
1514208838647;-;-;8.56575;-0.45111084;-3.5367432;-;-;-;-;-;-;-;-;-;-;-;-;-;-;-
1514208838667;-;-;8.546585;-0.42477417;-3.5187988;-;-;-;-;-;-;-;-;-;-;-;-;-;-;-
1514208838687;-;-;8.548981;-0.44992065;-3.566681;-;-;-;-;-;-;-;-;-;-;-;-;-;-;-
1514208838708;-;-;8.541809;-0.42237854;-3.6444855;-;-;-;-;-;-;-;-;-;-;-;-;-;-;-
1514208838728;-;-;8.532227;-0.44154358;-3.6277313;-;-;-;-;-;-;-;-;-;-;-;-;-;-;-
1514208838748;-;-;8.519058;-0.4487152;-3.654068;-;-;-;-;-;-;-;-;-;-;-;-;-;-;-
1514208838769;-;-;8.56575;-0.47865295;-3.5331573;-;-;-;-;-;-;-;-;-;-;-;-;-;-;-
1514208838789;-;-;8.556168;-0.42477417;-3.5642853;-;-;-;-;-;-;-;-;-;-;-;-;-;-;-
1514208838809;-;-;8.554977;-0.38526917;-3.5523071;-;-;-;-;-;-;-;-;-;-;-;-;-;-;-
1514208838829;-;-;8.50589;-0.3397827;-3.5702667;-;-;-;-;-;-;-;-;-;-;-;-;-;-;-
1514208838850;-;-;8.545395;-0.32063293;-3.5810394;-;-;-;-;-;-;-;-;-;-;-;-;-;-;-
1514208838870;-;-;8.548981;-0.36253357;-3.519989;-;-;-;-;-;-;-;-;-;-;-;-;-;-;-
1514208838890;-;-;8.570541;-0.33380127;-3.4984436;-;-;-;-;-;-;-;-;-;-;-;-;-;-;-
1514208838910;-;-;8.58371;-0.30506897;-3.5367432;-;-;-;-;-;-;-;-;-;-;-;-;-;-;-
1514208838930;-;-;8.560959;-0.29190063;-3.5235748;-;-;-;-;-;-;-;-;-;-;-;-;-;-;-
1514208838951;-;-;8.526245;-0.2679596;-3.5714722;-;-;-;-;-;-;-;-;-;-;-;-;-;-;-
1514208838971;-;-;8.520264;-0.22964478;-3.5319672;-;-;-;-;-;-;-;-;-;-;-;-;-;-;-
1514208838991;-;-;8.56694;-0.27275085;-3.5547028;-;-;-;-;-;-;-;-;-;-;-;-;-;-;-
1514208839011;-;-;8.559753;-0.3074646;-3.5259705;-;-;-;-;-;-;-;-;-;-;-;-;-;-;-
1514208839032;-;-;8.587296;-0.29788208;-3.598999;-;-;-;-;-;-;-;-;-;-;-;-;-;-;-
1514208839052;-;-;8.544205;-0.20092773;-3.7390594;-;-;-;-;-;-;-;-;-;-;-;-;-;-;-
1514208839072;-;-;8.547791;-0.13508606;-3.607376;-;-;-;-;-;-;-;-;-;-;-;-;-;-;-
1514208839092;-;-;8.581314;-0.20211792;-3.5774536;-;-;-;-;-;-;-;-;-;-;-;-;-;-;-
1514208839112;-;-;8.643555;-0.27275085;-3.5379486;-;-;-;-;-;-;-;-;-;-;-;-;-;-;-
1514208839133;-;-;8.629196;-0.24401855;-3.5559082;-;-;-;-;-;-;-;-;-;-;-;-;-;-;-
1514208839153;-;-;8.556168;-0.27275085;-3.5942078;-;-;-;-;-;-;-;-;-;-;-;-;-;-;-
1514208839173;-;-;8.513077;-0.2799225;-3.614563;-;-;-;-;-;-;-;-;-;-;-;-;-;-;-
1514208839194;-;-;8.497513;-0.26437378;-3.5978088;-;-;-;-;-;-;-;-;-;-;-;-;-;-;-
1514208839213;-;-;8.544205;-0.30387878;-3.6025848;-;-;-;-;-;-;-;-;-;-;-;-;-;-;-
1514208839233;-;-;8.572922;-0.29429626;-3.5379486;-;-;-;-;-;-;-;-;-;-;-;-;-;-;-
1514208839253;-;-;8.559753;-0.25120544;-3.5259705;-;-;-;-;-;-;-;-;-;-;-;-;-;-;-
1514208839273;-;-;8.522644;-0.26316833;-3.5810394;-;-;-;-;-;-;-;-;-;-;-;-;-;-;-
1514208839294;-;-;8.521454;-0.19493103;-3.5487213;-;-;-;-;-;-;-;-;-;-;-;-;-;-;-
1514208839314;-;-;8.531036;-0.14704895;-3.5918121;-;-;-;-;-;-;-;-;-;-;-;-;-;-;-
1514208839334;-;-;8.613632;-0.16859436;-3.598999;-;-;-;-;-;-;-;-;-;-;-;-;-;-;-
1514208839354;-;-;8.612427;-0.26437378;-3.6085815;-;-;-;-;-;-;-;-;-;-;-;-;-;-;-
1514208839375;-;-;8.601654;-0.2775421;-3.551117;-;-;-;-;-;-;-;-;-;-;-;-;-;-;-
1514208839395;-;-;8.594482;-0.31105042;-3.4984436;-;-;-;-;-;-;-;-;-;-;-;-;-;-;-
1514208839415;-;-;8.612427;-0.3397827;-3.472107;-;-;-;-;-;-;-;-;-;-;-;-;-;-;-
1514208839436;-;-;8.595673;-0.35295105;-3.4541473;-;-;-;-;-;-;-;-;-;-;-;-;-;-;-
1514208839456;-;-;8.60405;-0.36013794;-3.4062653;-;-;-;-;-;-;-;-;-;-;-;-;-;-;-
1514208839476;-;-;8.580109;-0.4259796;-3.3751373;-;-;-;-;-;-;-;-;-;-;-;-;-;-;-
1514208839497;-;-;8.612427;-0.42956543;-3.4349976;-;-;-;-;-;-;-;-;-;-;-;-;-;-;-
1514208839517;-;-;8.657928;-0.40203857;-3.4529572;-;-;-;-;-;-;-;-;-;-;-;-;-;-;-
1514208839539;-;-;8.622009;-0.36132813;-3.417038;-;-;-;-;-;-;-;-;-;-;-;-;-;-;-
1514208839559;-;-;8.592087;-0.3876648;-3.4613342;-;-;-;-;-;-;-;-;-;-;-;-;-;-;-
1514208839579;-;-;8.577713;-0.38887024;-3.4828796;-;-;-;-;-;-;-;-;-;-;-;-;-;-;-
1514208839599;-;-;8.608841;-0.3864746;-3.405075;-;-;-;-;-;-;-;-;-;-;-;-;-;-;-
1514208839620;-;-;8.613632;-0.34098816;-3.4194336;-;-;-;-;-;-;-;-;-;-;-;-;-;-;-
1514208839640;-;-;8.550186;-0.29071045;-3.5810394;-;-;-;-;-;-;-;-;-;-;-;-;-;-;-
1514208839660;-;-;8.541809;-0.27035522;-3.4780884;-;-;-;-;-;-;-;-;-;-;-;-;-;-;-
1514208839681;-;-;8.576523;-0.25239563;-3.480484;-;-;-;-;-;-;-;-;-;-;-;-;-;-;-
1514208839701;-;-;8.611237;-0.32182312;-3.4792938;-;-;-;-;-;-;-;-;-;-;-;-;-;-;-
1514208839721;-;-;8.572922;-0.35295105;-3.433792;-;-;-;-;-;-;-;-;-;-;-;-;-;-;-
1514208839742;-;-;8.554977;-0.29548645;-3.4697113;-;-;-;-;-;-;-;-;-;-;-;-;-;-;-
1514208839761;-;-;8.469971;-0.2715454;-3.4709167;-;-;-;-;-;-;-;-;-;-;-;-;-;-;-
1514208839781;-;-;8.534622;-0.25360107;-3.5343628;-;-;-;-;-;-;-;-;-;-;-;-;-;-;-
1514208839802;-;-;8.558563;-0.32421875;-3.5846405;-;-;-;-;-;-;-;-;-;-;-;-;-;-;-
1514208839823;-;-;8.590881;-0.33259583;-3.5810394;-;-;-;-;-;-;-;-;-;-;-;-;-;-;-
1514208839843;-;-;8.592087;-0.3768921;-3.5499115;-;-;-;-;-;-;-;-;-;-;-;-;-;-;-
1514208839863;-;-;8.569336;-0.39006042;-3.5499115;-;-;-;-;-;-;-;-;-;-;-;-;-;-;-
1514208839884;-;-;8.499908;-0.36253357;-3.5547028;-;-;-;-;-;-;-;-;-;-;-;-;-;-;-
1514208839904;-;-;8.514267;-0.4044342;-3.5343628;-;-;-;-;-;-;-;-;-;-;-;-;-;-;-
1514208839924;-;-;8.556168;-0.41041565;-3.551117;-;-;-;-;-;-;-;-;-;-;-;-;-;-;-
1514208839945;-;-;8.593277;-0.38407898;-3.5858307;-;-;-;-;-;-;-;-;-;-;-;-;-;-;-
1514208839965;-;-;8.577713;-0.37091064;-3.662445;-;-;-;-;-;-;-;-;-;-;-;-;-;-;-
1514208839985;-;-;8.562149;-0.40802002;-3.6396942;-;-;-;-;-;-;-;-;-;-;-;-;-;-;-
1514208840006;-;-;8.56694;-0.44273376;-3.638504;-;-;-;-;-;-;-;-;-;-;-;-;-;-;-
1514208840026;-;-;8.535812;-0.46188354;-3.6432953;-;-;-;-;-;-;-;-;-;-;-;-;-;-;-
1514208840047;-;-;8.511871;-0.5217438;-3.606186;-;-;-;-;-;-;-;-;-;-;-;-;-;-;-
1514208840067;-;-;8.540604;-0.5349121;-3.567871;-;-;-;-;-;-;-;-;-;-;-;-;-;-;-
1514208840087;-;-;8.551376;-0.54808044;-3.5403442;-;-;-;-;-;-;-;-;-;-;-;-;-;-;-
1514208840107;-;-;8.540604;-0.5540619;-3.5738678;-;-;-;-;-;-;-;-;-;-;-;-;-;-;-
1514208840128;-;-;8.526245;-0.6115265;-3.6169586;-;-;-;-;-;-;-;-;-;-;-;-;-;-;-
1514208840148;-;-;8.571732;-0.58039856;-3.5295715;-;-;-;-;-;-;-;-;-;-;-;-;-;-;-
1514208840168;-;-;8.56575;-0.54927063;-3.5762482;-;-;-;-;-;-;-;-;-;-;-;-;-;-;-
1514208840188;-;-;8.514267;-0.49899292;-3.5630798;-;-;-;-;-;-;-;-;-;-;-;-;-;-;-
1514208840208;-;-;8.513077;-0.47265625;-3.6181488;-;-;-;-;-;-;-;-;-;-;-;-;-;-;-
1514208840229;-;-;8.519058;-0.4163971;-3.6839905;-;-;-;-;-;-;-;-;-;-;-;-;-;-;-
1514208840249;-;-;8.491531;-0.368515;-3.6337128;-;-;-;-;-;-;-;-;-;-;-;-;-;-;-
1514208840269;-;-;8.537018;-0.32661438;-3.645691;-;-;-;-;-;-;-;-;-;-;-;-;-;-;-
1514208840290;-;-;8.541809;-0.31704712;-3.6313171;-;-;-;-;-;-;-;-;-;-;-;-;-;-;-
1514208840310;-;-;8.510681;-0.25958252;-3.6396942;-;-;-;-;-;-;-;-;-;-;-;-;-;-;-
1514208840331;-;-;8.442444;-0.26437378;-3.705536;-;-;-;-;-;-;-;-;-;-;-;-;-;-;-
1514208840351;-;-;8.456802;-0.31704712;-3.8013153;-;-;-;-;-;-;-;-;-;-;-;-;-;-;-
1514208840371;-;-;8.572922;-0.3361969;-3.693573;-;-;-;-;-;-;-;-;-;-;-;-;-;-;-
1514208840391;-;-;8.594482;-0.35055542;-3.662445;-;-;-;-;-;-;-;-;-;-;-;-;-;-;-
1514208840412;-;-;8.545395;-0.33259583;-3.6648407;-;-;-;-;-;-;-;-;-;-;-;-;-;-;-
1514208840431;-;-;8.497513;-0.3086548;-3.6504822;-;-;-;-;-;-;-;-;-;-;-;-;-;-;-
1514208840451;-;-;8.473572;-0.32781982;-3.6109772;-;-;-;-;-;-;-;-;-;-;-;-;-;-;-
1514208840472;-;-;8.475967;-0.4487152;-3.5918121;-;-;-;-;-;-;-;-;-;-;-;-;-;-;-
1514208840492;-;-;8.553772;-0.5145569;-3.5032349;-;-;-;-;-;-;-;-;-;-;-;-;-;-;-
1514208840513;-;-;8.5633545;-0.5720215;-3.5379486;-;-;-;-;-;-;-;-;-;-;-;-;-;-;-
1514208840533;-;-;8.559753;-0.52293396;-3.5846405;-;-;-;-;-;-;-;-;-;-;-;-;-;-;-
1514208840553;-;-;8.574127;-0.48223877;-3.6576538;-;-;-;-;-;-;-;-;-;-;-;-;-;-;-
1514208840573;-;-;8.588486;-0.4882202;-3.6277313;-;-;-;-;-;-;-;-;-;-;-;-;-;-;-
1514208840594;-;-;8.588486;-0.5049896;-3.5523071;-;-;-;-;-;-;-;-;-;-;-;-;-;-;-
1514208840614;-;-;8.589691;-0.56962585;-3.4924622;-;-;-;-;-;-;-;-;-;-;-;-;-;-;-
1514208840634;-;-;8.575317;-0.58039856;-3.4745026;-;-;-;-;-;-;-;-;-;-;-;-;-;-;-
1514208840654;-;-;8.52504;-0.5349121;-3.5295715;-;-;-;-;-;-;-;-;-;-;-;-;-;-;-
1514208840675;-;-;8.519058;-0.48942566;-3.4948578;-;-;-;-;-;-;-;-;-;-;-;-;-;-;-
1514208840695;-;-;8.510681;-0.38287354;-3.5367432;-;-;-;-;-;-;-;-;-;-;-;-;-;-;-
1514208840715;-;-;8.515472;-0.24162292;-3.5032349;-;-;-;-;-;-;-;-;-;-;-;-;-;-;-
1514208840736;-;-;8.598068;-0.20809937;-3.5391388;-;-;-;-;-;-;-;-;-;-;-;-;-;-;-
1514208840755;-;-;8.600464;-0.12669373;-3.6097717;-;-;-;-;-;-;-;-;-;-;-;-;-;-;-
1514208840775;-;-;8.559753;-0.15065002;-3.5367432;-;-;-;-;-;-;-;-;-;-;-;-;-;-;-
1514208840796;-;-;8.5047;-0.16021729;-3.729477;-;-;-;-;-;-;-;-;-;-;-;-;-;-;-
1514208840816;-;-;8.535812;-0.15423584;-3.7594147;-;-;-;-;-;-;-;-;-;-;-;-;-;-;-
1514208840836;-;-;8.546585;-0.17578125;-3.638504;-;-;-;-;-;-;-;-;-;-;-;-;-;-;-
1514208840857;-;-;8.606445;-0.23443604;-3.5403442;-;-;-;-;-;-;-;-;-;-;-;-;-;-;-
1514208840877;-;-;8.6423645;-0.24281311;-3.4816895;-;-;-;-;-;-;-;-;-;-;-;-;-;-;-
1514208840897;-;-;8.562149;-0.3074646;-3.496048;-;-;-;-;-;-;-;-;-;-;-;-;-;-;-
1514208840917;-;-;8.556168;-0.38887024;-3.4768982;-;-;-;-;-;-;-;-;-;-;-;-;-;-;-
1514208840938;-;-;8.570541;-0.4056244;-3.4637299;-;-;-;-;-;-;-;-;-;-;-;-;-;-;-
1514208840958;-;-;8.617218;-0.48582458;-3.3990784;-;-;-;-;-;-;-;-;-;-;-;-;-;-;-
