TimeStamp[ms];Prox[Cm];Lux[lux];AccX[m/s^2];AccY[m/s^2];AccZ[m/s^2];GyroX[rad/s];GyroY[rad/s];GyroZ[rad/s];MagnX[uT];MagnY[uT];MagnZ[uT];OrienYaw[degrees];OrienPitch[degrees];OrienRoll[degrees];Press[Pa];Temp[C°];Batt[%];Lat;Lng;Speed[m/s]
1514209123252;-;-;8.435257;-2.0612183;2.26799;-;-;-;-;-;-;-;-;-;-;-;-;-;-;-
1514209123253;-;-;8.435257;-2.0612183;2.26799;-;-;-;-;-;-;-;-;-;-;-;-;-;-;-
1514209123265;-;-;8.204224;-2.0851593;2.307495;-;-;-;-;-;-;-;-;-;-;-;-;-;-;-
1514209123286;-;-;7.906143;-2.1845245;2.165039;-;-;-;-;-;-;-;-;-;-;-;-;-;-;-
1514209123306;-;-;8.618423;-1.4770355;2.2644043;-;-;-;-;-;-;-;-;-;-;-;-;-;-;-
1514209123326;-;-;9.486313;-2.1378326;2.2189178;-;-;-;-;-;-;-;-;-;-;-;-;-;-;-
1514209123346;-;-;9.266052;-1.7858887;1.5138245;-;-;-;-;-;-;-;-;-;-;-;-;-;-;-
1514209123367;-;-;9.066132;-1.8636932;1.6191559;-;-;-;-;-;-;-;-;-;-;-;-;-;-;-
1514209123387;-;-;9.2756195;-1.6362457;1.3330536;-;-;-;-;-;-;-;-;-;-;-;-;-;-;-
1514209123408;-;-;8.872208;-1.867279;1.1870117;-;-;-;-;-;-;-;-;-;-;-;-;-;-;-
1514209123428;-;-;9.081696;-1.6697693;1.1379242;-;-;-;-;-;-;-;-;-;-;-;-;-;-;-
1514209123448;-;-;8.707001;-1.3800659;0.48910522;-;-;-;-;-;-;-;-;-;-;-;-;-;-;-
1514209123469;-;-;8.997894;-2.0372772;2.0477295;-;-;-;-;-;-;-;-;-;-;-;-;-;-;-
1514209123501;-;-;8.460403;-2.5065308;1.2564392;-;-;-;-;-;-;-;-;-;-;-;-;-;-;-
1514209123509;-;-;8.669891;-2.5771637;1.2791901;-;-;-;-;-;-;-;-;-;-;-;-;-;-;-
1514209123530;-;-;9.934036;-2.4538574;1.2085571;-;-;-;-;-;-;-;-;-;-;-;-;-;-;-
1514209123550;-;-;9.960373;-1.8002472;0.171875;-;-;-;-;-;-;-;-;-;-;-;-;-;-;-
1514209123570;-;-;9.951996;-1.2196503;-0.011291504;-;-;-;-;-;-;-;-;-;-;-;-;-;-;-
1514209123590;-;-;9.445618;-1.0747986;-0.09867859;-;-;-;-;-;-;-;-;-;-;-;-;-;-;-
1514209123611;-;-;9.263657;-1.4327393;-0.11543274;-;-;-;-;-;-;-;-;-;-;-;-;-;-;-
1514209123631;-;-;9.464767;-1.819397;0.1658783;-;-;-;-;-;-;-;-;-;-;-;-;-;-;-
1514209123651;-;-;7.988739;-2.080368;-0.3081665;-;-;-;-;-;-;-;-;-;-;-;-;-;-;-
1514209123672;-;-;8.553772;-2.2276154;0.017440796;-;-;-;-;-;-;-;-;-;-;-;-;-;-;-
1514209123693;-;-;8.8051605;-2.559204;0.4867096;-;-;-;-;-;-;-;-;-;-;-;-;-;-;-
1514209123713;-;-;8.8003845;-2.629837;-0.07234192;-;-;-;-;-;-;-;-;-;-;-;-;-;-;-
1514209123733;-;-;9.224152;-2.313797;0.3430481;-;-;-;-;-;-;-;-;-;-;-;-;-;-;-
1514209123754;-;-;8.763275;-2.8165894;0.64711;-;-;-;-;-;-;-;-;-;-;-;-;-;-;-
1514209123774;-;-;9.17627;-2.5999146;-0.3871765;-;-;-;-;-;-;-;-;-;-;-;-;-;-;-
1514209123794;-;-;9.228943;-2.5795593;-0.16091919;-;-;-;-;-;-;-;-;-;-;-;-;-;-;-
1514209123815;-;-;9.299576;-2.5364685;-0.43266296;-;-;-;-;-;-;-;-;-;-;-;-;-;-;-
1514209123835;-;-;9.481522;-1.5979309;-0.59906006;-;-;-;-;-;-;-;-;-;-;-;-;-;-;-
1514209123855;-;-;8.927277;-1.1993103;-0.38238525;-;-;-;-;-;-;-;-;-;-;-;-;-;-;-
1514209123876;-;-;8.242523;-1.3190155;-0.3835907;-;-;-;-;-;-;-;-;-;-;-;-;-;-;-
1514209123896;-;-;8.243729;-1.1585999;-0.38957214;-;-;-;-;-;-;-;-;-;-;-;-;-;-;-
1514209123916;-;-;9.159515;-1.0221252;-0.669693;-;-;-;-;-;-;-;-;-;-;-;-;-;-;-
1514209123937;-;-;9.148727;-1.4028168;-0.3656311;-;-;-;-;-;-;-;-;-;-;-;-;-;-;-
1514209123957;-;-;9.477936;-1.6829376;-0.38478088;-;-;-;-;-;-;-;-;-;-;-;-;-;-;-
1514209123978;-;-;9.268448;-2.095932;-0.39915466;-;-;-;-;-;-;-;-;-;-;-;-;-;-;-
1514209123998;-;-;9.858612;-2.3580933;-1.2059937;-;-;-;-;-;-;-;-;-;-;-;-;-;-;-
1514209124018;-;-;10.253662;-2.8225708;-1.1114197;-;-;-;-;-;-;-;-;-;-;-;-;-;-;-
1514209124038;-;-;9.233734;-0.41400146;-0.54759216;-;-;-;-;-;-;-;-;-;-;-;-;-;-;-
1514209124058;-;-;9.9986725;-3.2080383;-0.39915466;-;-;-;-;-;-;-;-;-;-;-;-;-;-;-
1514209124079;-;-;9.955582;-2.5628052;-0.8325043;-;-;-;-;-;-;-;-;-;-;-;-;-;-;-
1514209124099;-;-;10.112396;-3.285843;-0.1884613;-;-;-;-;-;-;-;-;-;-;-;-;-;-;-
1514209124120;-;-;9.676651;-2.5041504;-0.99890137;-;-;-;-;-;-;-;-;-;-;-;-;-;-;-
1514209124140;-;-;7.2393646;-2.329361;-0.8325043;-;-;-;-;-;-;-;-;-;-;-;-;-;-;-
1514209124161;-;-;7.0933075;-1.6589966;-1.1293793;-;-;-;-;-;-;-;-;-;-;-;-;-;-;-
1514209124180;-;-;6.536667;-1.6793365;-0.85884094;-;-;-;-;-;-;-;-;-;-;-;-;-;-;-
1514209124201;-;-;6.6898956;-1.1502228;-0.8564453;-;-;-;-;-;-;-;-;-;-;-;-;-;-;-
1514209124221;-;-;7.2896423;-1.6458282;-2.2977448;-;-;-;-;-;-;-;-;-;-;-;-;-;-;-
1514209124241;-;-;7.477585;-2.104309;-1.9338379;-;-;-;-;-;-;-;-;-;-;-;-;-;-;-
1514209124262;-;-;8.115631;-0.9646759;-1.8895416;-;-;-;-;-;-;-;-;-;-;-;-;-;-;-
1514209124282;-;-;7.3614655;0.043289185;-1.4334412;-;-;-;-;-;-;-;-;-;-;-;-;-;-;-
1514209124302;-;-;5.5394745;0.31982422;-1.8512268;-;-;-;-;-;-;-;-;-;-;-;-;-;-;-
1514209124323;-;-;7.810379;-0.8186188;-3.317688;-;-;-;-;-;-;-;-;-;-;-;-;-;-;-
1514209124343;-;-;8.167114;-2.2132416;-4.2011414;-;-;-;-;-;-;-;-;-;-;-;-;-;-;-
1514209124363;-;-;4.4967957;0.3425598;-3.9856567;-;-;-;-;-;-;-;-;-;-;-;-;-;-;-
1514209124384;-;-;6.600113;-0.6067352;-4.811661;-;-;-;-;-;-;-;-;-;-;-;-;-;-;-
1514209124404;-;-;11.887695;-1.036499;-4.8607483;-;-;-;-;-;-;-;-;-;-;-;-;-;-;-
1514209124425;-;-;11.580048;-1.2411957;-3.2662048;-;-;-;-;-;-;-;-;-;-;-;-;-;-;-
1514209124445;-;-;13.245209;-3.0081177;-3.745041;-;-;-;-;-;-;-;-;-;-;-;-;-;-;-
1514209124465;-;-;13.688141;-3.8808136;-3.9054565;-;-;-;-;-;-;-;-;-;-;-;-;-;-;-
1514209124485;-;-;13.216476;-2.8477173;-3.38591;-;-;-;-;-;-;-;-;-;-;-;-;-;-;-
1514209124506;-;-;13.018967;-2.854889;-3.693573;-;-;-;-;-;-;-;-;-;-;-;-;-;-;-
1514209124526;-;-;12.566452;-2.324585;-3.8288422;-;-;-;-;-;-;-;-;-;-;-;-;-;-;-
1514209124546;-;-;11.738068;-1.2268372;-2.9657288;-;-;-;-;-;-;-;-;-;-;-;-;-;-;-
1514209124567;-;-;9.718552;-0.30148315;-1.8141174;-;-;-;-;-;-;-;-;-;-;-;-;-;-;-
1514209124587;-;-;6.35231;0.49938965;-0.97016907;-;-;-;-;-;-;-;-;-;-;-;-;-;-;-
1514209124607;-;-;5.636444;0.42396545;-1.4885101;-;-;-;-;-;-;-;-;-;-;-;-;-;-;-
1514209124627;-;-;5.644821;1.5695953;-1.0156555;-;-;-;-;-;-;-;-;-;-;-;-;-;-;-
1514209124648;-;-;6.4373016;2.2064514;-0.88757324;-;-;-;-;-;-;-;-;-;-;-;-;-;-;-
1514209124667;-;-;5.695099;2.409958;-2.7394867;-;-;-;-;-;-;-;-;-;-;-;-;-;-;-
1514209124687;-;-;6.5115204;3.125824;-3.567871;-;-;-;-;-;-;-;-;-;-;-;-;-;-;-
1514209124707;-;-;7.734955;3.1138458;-3.370346;-;-;-;-;-;-;-;-;-;-;-;-;-;-;-
1514209124728;-;-;8.633987;2.5596008;-3.559494;-;-;-;-;-;-;-;-;-;-;-;-;-;-;-
1514209124747;-;-;9.846649;1.877243;-3.8468018;-;-;-;-;-;-;-;-;-;-;-;-;-;-;-
1514209124767;-;-;9.823898;1.5576172;-3.9329834;-;-;-;-;-;-;-;-;-;-;-;-;-;-;-
1514209124788;-;-;10.68103;0.7232361;-3.5475311;-;-;-;-;-;-;-;-;-;-;-;-;-;-;-
1514209124807;-;-;9.309143;0.7519684;-3.3308563;-;-;-;-;-;-;-;-;-;-;-;-;-;-;-
1514209124827;-;-;8.323929;0.8237915;-3.195572;-;-;-;-;-;-;-;-;-;-;-;-;-;-;-
1514209124848;-;-;7.473984;0.9315338;-2.9717255;-;-;-;-;-;-;-;-;-;-;-;-;-;-;-
1514209124868;-;-;7.3470917;1.2954559;-2.8424377;-;-;-;-;-;-;-;-;-;-;-;-;-;-;-
1514209124888;-;-;7.7804413;1.3541107;-2.649704;-;-;-;-;-;-;-;-;-;-;-;-;-;-;-
1514209124908;-;-;7.2836456;1.1877136;-3.6887817;-;-;-;-;-;-;-;-;-;-;-;-;-;-;-
1514209124929;-;-;7.969589;0.29826355;-5.4150085;-;-;-;-;-;-;-;-;-;-;-;-;-;-;-
1514209124949;-;-;8.280838;0.378479;-7.223816;-;-;-;-;-;-;-;-;-;-;-;-;-;-;-
1514209124969;-;-;8.964386;0.7807007;-5.009186;-;-;-;-;-;-;-;-;-;-;-;-;-;-;-
1514209124990;-;-;8.228165;0.29588318;-3.9952393;-;-;-;-;-;-;-;-;-;-;-;-;-;-;-
1514209125010;-;-;9.122391;-1.1454315;-4.1065674;-;-;-;-;-;-;-;-;-;-;-;-;-;-;-
1514209125030;-;-;10.536179;-2.4371033;-5.5526733;-;-;-;-;-;-;-;-;-;-;-;-;-;-;-
1514209125050;-;-;11.243668;-2.4442902;-4.8822937;-;-;-;-;-;-;-;-;-;-;-;-;-;-;-
1514209125070;-;-;9.37738;-1.9666443;-3.151291;-;-;-;-;-;-;-;-;-;-;-;-;-;-;-
1514209125091;-;-;7.494339;-2.1330414;-1.9565735;-;-;-;-;-;-;-;-;-;-;-;-;-;-;-
1514209125111;-;-;6.922119;-2.30542;-1.5938568;-;-;-;-;-;-;-;-;-;-;-;-;-;-;-
1514209125131;-;-;7.18309;-2.3760529;-2.3013458;-;-;-;-;-;-;-;-;-;-;-;-;-;-;-
1514209125151;-;-;8.120422;-2.040863;-3.2793732;-;-;-;-;-;-;-;-;-;-;-;-;-;-;-
1514209125171;-;-;8.875793;-1.4291534;-4.0957947;-;-;-;-;-;-;-;-;-;-;-;-;-;-;-
1514209125192;-;-;9.29718;-1.1430359;-4.6524506;-;-;-;-;-;-;-;-;-;-;-;-;-;-;-
1514209125213;-;-;9.5354;-1.1095276;-4.69075;-;-;-;-;-;-;-;-;-;-;-;-;-;-;-
1514209125234;-;-;9.3498535;-1.1526184;-4.2729645;-;-;-;-;-;-;-;-;-;-;-;-;-;-;-
1514209125254;-;-;8.847061;-1.0807953;-3.6791992;-;-;-;-;-;-;-;-;-;-;-;-;-;-;-
1514209125274;-;-;8.307175;-0.9395294;-3.2398682;-;-;-;-;-;-;-;-;-;-;-;-;-;-;-
1514209125294;-;-;8.070145;-1.0221252;-3.203949;-;-;-;-;-;-;-;-;-;-;-;-;-;-;-
1514209125315;-;-;8.209015;-1.3273926;-3.2841644;-;-;-;-;-;-;-;-;-;-;-;-;-;-;-
1514209125336;-;-;8.668701;-1.4578705;-3.1967773;-;-;-;-;-;-;-;-;-;-;-;-;-;-;-
1514209125356;-;-;9.110428;-1.3800659;-3.0459442;-;-;-;-;-;-;-;-;-;-;-;-;-;-;-
1514209125376;-;-;9.102051;-1.1238861;-3.1249542;-;-;-;-;-;-;-;-;-;-;-;-;-;-;-
1514209125396;-;-;8.849457;-0.7815094;-3.033966;-;-;-;-;-;-;-;-;-;-;-;-;-;-;-
1514209125417;-;-;8.529831;-0.40083313;-2.978897;-;-;-;-;-;-;-;-;-;-;-;-;-;-;-
1514209125437;-;-;8.259293;-0.12310791;-2.8807373;-;-;-;-;-;-;-;-;-;-;-;-;-;-;-
1514209125457;-;-;8.1874695;-0.081207275;-2.7957458;-;-;-;-;-;-;-;-;-;-;-;-;-;-;-
1514209125478;-;-;8.368225;-0.34098816;-2.7071533;-;-;-;-;-;-;-;-;-;-;-;-;-;-;-
1514209125498;-;-;8.6423645;-0.56243896;-2.6245575;-;-;-;-;-;-;-;-;-;-;-;-;-;-;-
1514209125518;-;-;8.836288;-0.56843567;-2.4821014;-;-;-;-;-;-;-;-;-;-;-;-;-;-;-
1514209125539;-;-;8.929672;-0.34576416;-2.527588;-;-;-;-;-;-;-;-;-;-;-;-;-;-;-
1514209125559;-;-;9.067337;-0.1985321;-2.4868927;-;-;-;-;-;-;-;-;-;-;-;-;-;-;-
1514209125579;-;-;8.945221;0.079193115;-2.5192108;-;-;-;-;-;-;-;-;-;-;-;-;-;-;-
1514209125600;-;-;8.772842;0.29467773;-2.4665375;-;-;-;-;-;-;-;-;-;-;-;-;-;-;-
1514209125620;-;-;8.649536;0.45269775;-2.349228;-;-;-;-;-;-;-;-;-;-;-;-;-;-;-
1514209125640;-;-;8.596878;0.45988464;-2.211563;-;-;-;-;-;-;-;-;-;-;-;-;-;-;-
1514209125661;-;-;8.72377;0.22644043;-2.1672668;-;-;-;-;-;-;-;-;-;-;-;-;-;-;-
1514209125681;-;-;8.880585;-0.016571045;-2.2582397;-;-;-;-;-;-;-;-;-;-;-;-;-;-;-
1514209125701;-;-;9.058945;-0.08958435;-2.3851318;-;-;-;-;-;-;-;-;-;-;-;-;-;-;-
1514209125721;-;-;8.9991;-0.052474976;-2.3743591;-;-;-;-;-;-;-;-;-;-;-;-;-;-;-
1514209125742;-;-;8.98114;-0.0440979;-2.3947144;-;-;-;-;-;-;-;-;-;-;-;-;-;-;-
1514209125762;-;-;9.009872;-0.04170227;-2.4438019;-;-;-;-;-;-;-;-;-;-;-;-;-;-;-
1514209125783;-;-;9.020645;-0.033325195;-2.4090881;-;-;-;-;-;-;-;-;-;-;-;-;-;-;-
1514209125803;-;-;9.017059;-0.06564331;-2.4593658;-;-;-;-;-;-;-;-;-;-;-;-;-;-;-
1514209125823;-;-;9.001495;0.076812744;-2.5802612;-;-;-;-;-;-;-;-;-;-;-;-;-;-;-
1514209125843;-;-;8.996704;0.29109192;-2.6987762;-;-;-;-;-;-;-;-;-;-;-;-;-;-;-
1514209125864;-;-;8.976349;0.4766388;-2.855606;-;-;-;-;-;-;-;-;-;-;-;-;-;-;-
1514209125884;-;-;8.97995;0.49938965;-2.768219;-;-;-;-;-;-;-;-;-;-;-;-;-;-;-
1514209125904;-;-;8.83989;0.4586792;-2.527588;-;-;-;-;-;-;-;-;-;-;-;-;-;-;-
1514209125925;-;-;8.832703;0.16539001;-2.2570496;-;-;-;-;-;-;-;-;-;-;-;-;-;-;-
1514209125945;-;-;8.887772;-0.14465332;-2.1540985;-;-;-;-;-;-;-;-;-;-;-;-;-;-;-
1514209125965;-;-;8.896149;-0.34457397;-2.108612;-;-;-;-;-;-;-;-;-;-;-;-;-;-;-
1514209125985;-;-;8.736938;-0.5959625;-2.0104523;-;-;-;-;-;-;-;-;-;-;-;-;-;-;-
1514209126006;-;-;8.747711;-0.8964386;-1.753067;-;-;-;-;-;-;-;-;-;-;-;-;-;-;-
1514209126026;-;-;8.866211;-1.0029755;-1.4825287;-;-;-;-;-;-;-;-;-;-;-;-;-;-;-
1514209126046;-;-;9.043396;-1.1274719;-1.4430237;-;-;-;-;-;-;-;-;-;-;-;-;-;-;-
1514209126066;-;-;9.041;-1.234024;-1.4573822;-;-;-;-;-;-;-;-;-;-;-;-;-;-;-
1514209126087;-;-;8.96199;-1.2280273;-1.5471649;-;-;-;-;-;-;-;-;-;-;-;-;-;-;-
1514209126107;-;-;9.080505;-1.0233307;-1.634552;-;-;-;-;-;-;-;-;-;-;-;-;-;-;-
1514209126127;-;-;9.274429;-0.87368774;-1.7638397;-;-;-;-;-;-;-;-;-;-;-;-;-;-;-
1514209126149;-;-;9.285202;-0.8593292;-1.9086914;-;-;-;-;-;-;-;-;-;-;-;-;-;-;-
1514209126168;-;-;9.100845;-0.7312317;-2.0702972;-;-;-;-;-;-;-;-;-;-;-;-;-;-;-
1514209126188;-;-;8.8207245;-0.53012085;-2.0870667;-;-;-;-;-;-;-;-;-;-;-;-;-;-;-
1514209126208;-;-;8.623199;-0.16619873;-2.014038;-;-;-;-;-;-;-;-;-;-;-;-;-;-;-
1514209126229;-;-;8.8003845;0.22525024;-1.9829102;-;-;-;-;-;-;-;-;-;-;-;-;-;-;-
1514209126249;-;-;9.021835;0.58677673;-1.9841156;-;-;-;-;-;-;-;-;-;-;-;-;-;-;-
1514209126269;-;-;9.33429;0.7759094;-2.0834656;-;-;-;-;-;-;-;-;-;-;-;-;-;-;-
1514209126290;-;-;9.506668;0.73161316;-2.3588104;-;-;-;-;-;-;-;-;-;-;-;-;-;-;-
1514209126310;-;-;9.638351;0.60113525;-2.4928741;-;-;-;-;-;-;-;-;-;-;-;-;-;-;-
1514209126330;-;-;9.353439;0.5185394;-2.08107;-;-;-;-;-;-;-;-;-;-;-;-;-;-;-
1514209126350;-;-;9.100845;0.51016235;-1.3879547;-;-;-;-;-;-;-;-;-;-;-;-;-;-;-
1514209126371;-;-;9.066132;0.1558075;-2.468933;-;-;-;-;-;-;-;-;-;-;-;-;-;-;-
1514209126391;-;-;8.692642;-0.42237854;-3.3320465;-;-;-;-;-;-;-;-;-;-;-;-;-;-;-
1514209126411;-;-;8.886566;-0.56962585;-2.5754852;-;-;-;-;-;-;-;-;-;-;-;-;-;-;-
1514209126431;-;-;9.3546295;-0.47984314;-0.9294586;-;-;-;-;-;-;-;-;-;-;-;-;-;-;-
1514209126452;-;-;9.190628;-0.5732269;-0.7451172;-;-;-;-;-;-;-;-;-;-;-;-;-;-;-
1514209126472;-;-;8.747711;-0.85453796;-0.9079132;-;-;-;-;-;-;-;-;-;-;-;-;-;-;-
1514209126492;-;-;8.489136;-1.3202057;-0.83010864;-;-;-;-;-;-;-;-;-;-;-;-;-;-;-
1514209126512;-;-;8.520264;-1.4327393;-0.7570801;-;-;-;-;-;-;-;-;-;-;-;-;-;-;-
1514209126533;-;-;8.766861;-1.0197449;-0.95700073;-;-;-;-;-;-;-;-;-;-;-;-;-;-;-
1514209126552;-;-;8.985931;-0.58639526;-1.2478943;-;-;-;-;-;-;-;-;-;-;-;-;-;-;-
1514209126572;-;-;9.476746;0.04208374;-1.808136;-;-;-;-;-;-;-;-;-;-;-;-;-;-;-
1514209126592;-;-;9.682648;0.36291504;-2.1253662;-;-;-;-;-;-;-;-;-;-;-;-;-;-;-
1514209126613;-;-;9.744888;0.54248047;-2.2462769;-;-;-;-;-;-;-;-;-;-;-;-;-;-;-
1514209126632;-;-;9.525818;0.7232361;-2.2977448;-;-;-;-;-;-;-;-;-;-;-;-;-;-;-
1514209126652;-;-;9.183456;0.6957092;-2.2809906;-;-;-;-;-;-;-;-;-;-;-;-;-;-;-
1514209126673;-;-;8.854248;0.44311523;-1.9745331;-;-;-;-;-;-;-;-;-;-;-;-;-;-;-
1514209126692;-;-;8.797989;0.2850952;-1.322113;-;-;-;-;-;-;-;-;-;-;-;-;-;-;-
1514209126713;-;-;8.878189;0.20610046;-1.401123;-;-;-;-;-;-;-;-;-;-;-;-;-;-;-
1514209126733;-;-;9.055359;-0.02015686;-2.0702972;-;-;-;-;-;-;-;-;-;-;-;-;-;-;-
1514209126753;-;-;9.146347;-0.081207275;-2.302536;-;-;-;-;-;-;-;-;-;-;-;-;-;-;-
1514209126774;-;-;9.032608;0.067230225;-2.0200195;-;-;-;-;-;-;-;-;-;-;-;-;-;-;-
1514209126794;-;-;8.783615;0.15701294;-1.8667908;-;-;-;-;-;-;-;-;-;-;-;-;-;-;-
1514209126814;-;-;8.777634;0.2515869;-1.6417389;-;-;-;-;-;-;-;-;-;-;-;-;-;-;-
1514209126834;-;-;8.849457;0.15342712;-1.4657593;-;-;-;-;-;-;-;-;-;-;-;-;-;-;-
1514209126855;-;-;8.969162;0.021743774;-1.4585876;-;-;-;-;-;-;-;-;-;-;-;-;-;-;-
1514209126875;-;-;8.98233;-0.117126465;-1.3783722;-;-;-;-;-;-;-;-;-;-;-;-;-;-;-
1514209126895;-;-;9.056564;-0.27633667;-1.3843689;-;-;-;-;-;-;-;-;-;-;-;-;-;-;-
1514209126915;-;-;9.115219;-0.29908752;-1.3783722;-;-;-;-;-;-;-;-;-;-;-;-;-;-;-
1514209126936;-;-;9.091278;-0.21528625;-1.2550812;-;-;-;-;-;-;-;-;-;-;-;-;-;-;-
1514209126956;-;-;9.1128235;-0.18655396;-1.3436584;-;-;-;-;-;-;-;-;-;-;-;-;-;-;-
1514209126976;-;-;9.058945;-0.13388062;-1.5579376;-;-;-;-;-;-;-;-;-;-;-;-;-;-;-
1514209126996;-;-;9.081696;-0.08958435;-1.5914612;-;-;-;-;-;-;-;-;-;-;-;-;-;-;-
1514209127016;-;-;9.068527;-0.03691101;-1.5962524;-;-;-;-;-;-;-;-;-;-;-;-;-;-;-
1514209127036;-;-;9.175064;0.012161255;-1.4585876;-;-;-;-;-;-;-;-;-;-;-;-;-;-;-
1514209127057;-;-;9.199005;0.02293396;-1.4777374;-;-;-;-;-;-;-;-;-;-;-;-;-;-;-
1514209127077;-;-;9.193024;0.010971069;-1.4741516;-;-;-;-;-;-;-;-;-;-;-;-;-;-;-
1514209127097;-;-;9.199005;0.050476074;-1.4154816;-;-;-;-;-;-;-;-;-;-;-;-;-;-;-
1514209127118;-;-;9.085281;0.05166626;-1.3747864;-;-;-;-;-;-;-;-;-;-;-;-;-;-;-
1514209127139;-;-;8.926071;0.103149414;-1.3328857;-;-;-;-;-;-;-;-;-;-;-;-;-;-;-
1514209127159;-;-;8.843475;0.098358154;-1.4059143;-;-;-;-;-;-;-;-;-;-;-;-;-;-;-
1514209127180;-;-;8.959595;0.11152649;-1.4777374;-;-;-;-;-;-;-;-;-;-;-;-;-;-;-
1514209127200;-;-;9.133179;0.10913086;-1.6213837;-;-;-;-;-;-;-;-;-;-;-;-;-;-;-
1514209127220;-;-;9.319916;0.14743042;-1.4681549;-;-;-;-;-;-;-;-;-;-;-;-;-;-;-
1514209127240;-;-;9.33429;0.2527771;-1.416687;-;-;-;-;-;-;-;-;-;-;-;-;-;-;-
1514209127260;-;-;9.183456;0.20968628;-1.5375977;-;-;-;-;-;-;-;-;-;-;-;-;-;-;-
1514209127280;-;-;9.104446;0.0049743652;-1.7087708;-;-;-;-;-;-;-;-;-;-;-;-;-;-;-
1514209127301;-;-;9.062546;-0.014175415;-1.7207489;-;-;-;-;-;-;-;-;-;-;-;-;-;-;-
1514209127321;-;-;9.092468;0.100753784;-1.6956024;-;-;-;-;-;-;-;-;-;-;-;-;-;-;-
1514209127341;-;-;9.104446;0.26834106;-1.784195;-;-;-;-;-;-;-;-;-;-;-;-;-;-;-
1514209127362;-;-;9.137955;0.31263733;-1.8524323;-;-;-;-;-;-;-;-;-;-;-;-;-;-;-
1514209127382;-;-;9.0577545;0.34495544;-1.8835602;-;-;-;-;-;-;-;-;-;-;-;-;-;-;-
1514209127402;-;-;8.905716;0.34376526;-1.990097;-;-;-;-;-;-;-;-;-;-;-;-;-;-;-
1514209127422;-;-;8.905716;0.34854126;-2.0715027;-;-;-;-;-;-;-;-;-;-;-;-;-;-;-
1514209127442;-;-;8.82193;0.20489502;-2.1732483;-;-;-;-;-;-;-;-;-;-;-;-;-;-;-
1514209127462;-;-;8.917694;0.18334961;-2.2690277;-;-;-;-;-;-;-;-;-;-;-;-;-;-;-
1514209127482;-;-;9.0793;0.2803192;-1.8691864;-;-;-;-;-;-;-;-;-;-;-;-;-;-;-
1514209127502;-;-;9.457581;0.2300415;-1.164093;-;-;-;-;-;-;-;-;-;-;-;-;-;-;-
1514209127523;-;-;9.276825;0.18334961;-1.3759766;-;-;-;-;-;-;-;-;-;-;-;-;-;-;-
1514209127543;-;-;9.12001;0.062438965;-1.4944916;-;-;-;-;-;-;-;-;-;-;-;-;-;-;-
1514209127563;-;-;8.989517;0.08039856;-1.5579376;-;-;-;-;-;-;-;-;-;-;-;-;-;-;-
1514209127584;-;-;8.930862;0.16059875;-1.6872253;-;-;-;-;-;-;-;-;-;-;-;-;-;-;-
1514209127604;-;-;8.960785;0.10913086;-1.7865906;-;-;-;-;-;-;-;-;-;-;-;-;-;-;-
1514209127624;-;-;8.96199;0.08998108;-1.8284912;-;-;-;-;-;-;-;-;-;-;-;-;-;-;-
1514209127645;-;-;8.924881;0.07800293;-1.8141174;-;-;-;-;-;-;-;-;-;-;-;-;-;-;-
1514209127665;-;-;9.002686;0.18214417;-1.74469;-;-;-;-;-;-;-;-;-;-;-;-;-;-;-
1514209127685;-;-;9.068527;0.16659546;-1.7710266;-;-;-;-;-;-;-;-;-;-;-;-;-;-;-
1514209127705;-;-;9.117615;0.16778564;-1.7614441;-;-;-;-;-;-;-;-;-;-;-;-;-;-;-
1514209127726;-;-;9.116409;0.1558075;-1.6800537;-;-;-;-;-;-;-;-;-;-;-;-;-;-;-
1514209127746;-;-;9.075714;0.1330719;-1.6046295;-;-;-;-;-;-;-;-;-;-;-;-;-;-;-
1514209127766;-;-;9.037399;0.17497253;-1.5830841;-;-;-;-;-;-;-;-;-;-;-;-;-;-;-
1514209127787;-;-;9.043396;0.12109375;-1.6201935;-;-;-;-;-;-;-;-;-;-;-;-;-;-;-
1514209127807;-;-;9.125992;0.16539001;-1.7267303;-;-;-;-;-;-;-;-;-;-;-;-;-;-;-
1514209127827;-;-;9.163101;0.20249939;-1.753067;-;-;-;-;-;-;-;-;-;-;-;-;-;-;-
1514209127847;-;-;9.13916;0.16897583;-1.8979187;-;-;-;-;-;-;-;-;-;-;-;-;-;-;-
1514209127867;-;-;9.105637;0.19412231;-1.8859406;-;-;-;-;-;-;-;-;-;-;-;-;-;-;-
1514209127888;-;-;9.013458;0.24559021;-1.8656006;-;-;-;-;-;-;-;-;-;-;-;-;-;-;-
1514209127908;-;-;9.013458;0.28271484;-1.7806091;-;-;-;-;-;-;-;-;-;-;-;-;-;-;-
1514209127928;-;-;9.042191;0.30186462;-1.7662354;-;-;-;-;-;-;-;-;-;-;-;-;-;-;-
1514209127949;-;-;9.043396;0.33059692;-1.7171631;-;-;-;-;-;-;-;-;-;-;-;-;-;-;-
1514209127969;-;-;9.069733;0.3317871;-1.7147675;-;-;-;-;-;-;-;-;-;-;-;-;-;-;-
1514209127989;-;-;9.039795;0.28630066;-1.7411041;-;-;-;-;-;-;-;-;-;-;-;-;-;-;-
1514209128009;-;-;9.029022;0.30065918;-1.6992035;-;-;-;-;-;-;-;-;-;-;-;-;-;-;-
1514209128030;-;-;8.997894;0.2886963;-1.7398987;-;-;-;-;-;-;-;-;-;-;-;-;-;-;-
1514209128050;-;-;8.958389;0.34016418;-1.7111664;-;-;-;-;-;-;-;-;-;-;-;-;-;-;-
1514209128071;-;-;8.975159;0.3892517;-1.777008;-;-;-;-;-;-;-;-;-;-;-;-;-;-;-
1514209128091;-;-;8.97995;0.38087463;-1.8201141;-;-;-;-;-;-;-;-;-;-;-;-;-;-;-
1514209128111;-;-;9.054169;0.34735107;-1.8272858;-;-;-;-;-;-;-;-;-;-;-;-;-;-;-
1514209128132;-;-;9.087677;0.25398254;-1.8512268;-;-;-;-;-;-;-;-;-;-;-;-;-;-;-
1514209128152;-;-;9.063736;0.2300415;-1.8727875;-;-;-;-;-;-;-;-;-;-;-;-;-;-;-
1514209128172;-;-;9.019455;0.2886963;-1.9673462;-;-;-;-;-;-;-;-;-;-;-;-;-;-;-
1514209128192;-;-;9.002686;0.338974;-2.0152283;-;-;-;-;-;-;-;-;-;-;-;-;-;-;-
1514209128213;-;-;9.006287;0.32939148;-1.9877014;-;-;-;-;-;-;-;-;-;-;-;-;-;-;-
1514209128233;-;-;9.056564;0.30545044;-2.0032654;-;-;-;-;-;-;-;-;-;-;-;-;-;-;-
1514209128253;-;-;9.031418;0.28271484;-2.0008698;-;-;-;-;-;-;-;-;-;-;-;-;-;-;-
1514209128274;-;-;9.056564;0.26594543;-2.0894623;-;-;-;-;-;-;-;-;-;-;-;-;-;-;-
1514209128294;-;-;9.003891;0.27192688;-2.0068512;-;-;-;-;-;-;-;-;-;-;-;-;-;-;-
1514209128314;-;-;8.976349;0.22285461;-1.9075012;-;-;-;-;-;-;-;-;-;-;-;-;-;-;-
1514209128335;-;-;8.973953;0.20729065;-1.911087;-;-;-;-;-;-;-;-;-;-;-;-;-;-;-
1514209128355;-;-;8.972763;0.1725769;-1.8656006;-;-;-;-;-;-;-;-;-;-;-;-;-;-;-
1514209128376;-;-;8.967972;0.1618042;-1.8189087;-;-;-;-;-;-;-;-;-;-;-;-;-;-;-
1514209128395;-;-;8.955994;0.2240448;-1.9398193;-;-;-;-;-;-;-;-;-;-;-;-;-;-;-
1514209128416;-;-;8.898544;0.31982422;-1.9984741;-;-;-;-;-;-;-;-;-;-;-;-;-;-;-
1514209128435;-;-;8.892548;0.29707336;-2.0116425;-;-;-;-;-;-;-;-;-;-;-;-;-;-;-
1514209128455;-;-;8.9392395;0.31622314;-2.0619202;-;-;-;-;-;-;-;-;-;-;-;-;-;-;-
1514209128475;-;-;8.985931;0.3102417;-2.0870667;-;-;-;-;-;-;-;-;-;-;-;-;-;-;-
1514209128496;-;-;8.98233;0.27911377;-2.0643158;-;-;-;-;-;-;-;-;-;-;-;-;-;-;-
1514209128515;-;-;8.927277;0.25517273;-2.0750885;-;-;-;-;-;-;-;-;-;-;-;-;-;-;-
1514209128535;-;-;8.948822;0.1618042;-1.9697418;-;-;-;-;-;-;-;-;-;-;-;-;-;-;-
1514209128556;-;-;9.017059;0.124694824;-1.9098969;-;-;-;-;-;-;-;-;-;-;-;-;-;-;-
1514209128576;-;-;9.046982;0.110321045;-1.8727875;-;-;-;-;-;-;-;-;-;-;-;-;-;-;-
1514209128596;-;-;9.0733185;0.14743042;-1.9015045;-;-;-;-;-;-;-;-;-;-;-;-;-;-;-
1514209128617;-;-;9.043396;0.21806335;-2.0499573;-;-;-;-;-;-;-;-;-;-;-;-;-;-;-
1514209128637;-;-;8.9991;0.2707367;-2.084671;-;-;-;-;-;-;-;-;-;-;-;-;-;-;-
1514209128657;-;-;8.983536;0.31982422;-2.0715027;-;-;-;-;-;-;-;-;-;-;-;-;-;-;-
1514209128678;-;-;9.002686;0.36291504;-2.1552887;-;-;-;-;-;-;-;-;-;-;-;-;-;-;-
1514209128698;-;-;9.030228;0.37608337;-2.1217804;-;-;-;-;-;-;-;-;-;-;-;-;-;-;-
1514209128718;-;-;8.96199;0.2815094;-2.168457;-;-;-;-;-;-;-;-;-;-;-;-;-;-;-
1514209128738;-;-;8.965576;0.23841858;-2.1098022;-;-;-;-;-;-;-;-;-;-;-;-;-;-;-
1514209128759;-;-;8.935654;0.15222168;-2.0427704;-;-;-;-;-;-;-;-;-;-;-;-;-;-;-
1514209128778;-;-;8.960785;0.13186646;-2.0427704;-;-;-;-;-;-;-;-;-;-;-;-;-;-;-
1514209128798;-;-;9.058945;0.12109375;-1.9984741;-;-;-;-;-;-;-;-;-;-;-;-;-;-;-
1514209128818;-;-;9.080505;0.11869812;-2.0918427;-;-;-;-;-;-;-;-;-;-;-;-;-;-;-
1514209128839;-;-;9.041;0.04447937;-2.0918427;-;-;-;-;-;-;-;-;-;-;-;-;-;-;-
1514209128859;-;-;8.969162;0.008575439;-2.0092468;-;-;-;-;-;-;-;-;-;-;-;-;-;-;-
1514209128879;-;-;8.991913;-0.04888916;-1.9996796;-;-;-;-;-;-;-;-;-;-;-;-;-;-;-
1514209128899;-;-;9.003891;-0.012969971;-2.076294;-;-;-;-;-;-;-;-;-;-;-;-;-;-;-
1514209128920;-;-;9.086487;0.0181427;-2.1529083;-;-;-;-;-;-;-;-;-;-;-;-;-;-;-
1514209128939;-;-;9.104446;0.11392212;-2.1660767;-;-;-;-;-;-;-;-;-;-;-;-;-;-;-
1514209128959;-;-;8.964386;0.19891357;-2.1457214;-;-;-;-;-;-;-;-;-;-;-;-;-;-;-
1514209128979;-;-;8.865021;0.19293213;-2.1313477;-;-;-;-;-;-;-;-;-;-;-;-;-;-;-
1514209129000;-;-;8.873398;0.18693542;-2.1193848;-;-;-;-;-;-;-;-;-;-;-;-;-;-;-
1514209129019;-;-;8.914108;0.22164917;-2.1529083;-;-;-;-;-;-;-;-;-;-;-;-;-;-;-
1514209129039;-;-;8.984726;0.23242188;-2.1864166;-;-;-;-;-;-;-;-;-;-;-;-;-;-;-
1514209129059;-;-;8.966782;0.22525024;-2.2175446;-;-;-;-;-;-;-;-;-;-;-;-;-;-;-
1514209129080;-;-;8.951218;0.29826355;-2.2450714;-;-;-;-;-;-;-;-;-;-;-;-;-;-;-
1514209129101;-;-;8.905716;0.2635498;-2.148117;-;-;-;-;-;-;-;-;-;-;-;-;-;-;-
1514209129121;-;-;8.859039;0.1797638;-2.100235;-;-;-;-;-;-;-;-;-;-;-;-;-;-;-
1514209129141;-;-;8.856644;0.13905334;-2.0224152;-;-;-;-;-;-;-;-;-;-;-;-;-;-;-
1514209129161;-;-;8.987122;0.16897583;-2.093048;-;-;-;-;-;-;-;-;-;-;-;-;-;-;-
1514209129182;-;-;9.041;0.27792358;-2.1313477;-;-;-;-;-;-;-;-;-;-;-;-;-;-;-
1514209129202;-;-;9.037399;0.3138275;-2.1588898;-;-;-;-;-;-;-;-;-;-;-;-;-;-;-
1514209129222;-;-;9.017059;0.28271484;-2.1888123;-;-;-;-;-;-;-;-;-;-;-;-;-;-;-
1514209129243;-;-;9.006287;0.2815094;-2.1660767;-;-;-;-;-;-;-;-;-;-;-;-;-;-;-
1514209129263;-;-;8.989517;0.3174286;-2.175644;-;-;-;-;-;-;-;-;-;-;-;-;-;-;-
1514209129283;-;-;8.966782;0.37727356;-2.263031;-;-;-;-;-;-;-;-;-;-;-;-;-;-;-
1514209129304;-;-;8.96199;0.37487793;-2.2582397;-;-;-;-;-;-;-;-;-;-;-;-;-;-;-
1514209129324;-;-;8.940445;0.35333252;-2.2833862;-;-;-;-;-;-;-;-;-;-;-;-;-;-;-
1514209129344;-;-;8.935654;0.299469;-2.278595;-;-;-;-;-;-;-;-;-;-;-;-;-;-;-
1514209129365;-;-;8.990723;0.31263733;-2.302536;-;-;-;-;-;-;-;-;-;-;-;-;-;-;-
1514209129385;-;-;8.951218;0.3317871;-2.3037415;-;-;-;-;-;-;-;-;-;-;-;-;-;-;-
1514209129406;-;-;8.942825;0.35333252;-2.254654;-;-;-;-;-;-;-;-;-;-;-;-;-;-;-
1514209129426;-;-;8.951218;0.31143188;-2.2019806;-;-;-;-;-;-;-;-;-;-;-;-;-;-;-
1514209129446;-;-;8.934448;0.21806335;-2.187622;-;-;-;-;-;-;-;-;-;-;-;-;-;-;-
1514209129467;-;-;8.972763;0.16778564;-2.191208;-;-;-;-;-;-;-;-;-;-;-;-;-;-;-
1514209129486;-;-;9.003891;0.1845398;-2.179245;-;-;-;-;-;-;-;-;-;-;-;-;-;-;-
1514209129506;-;-;9.012268;0.2013092;-2.2259216;-;-;-;-;-;-;-;-;-;-;-;-;-;-;-
1514209129526;-;-;9.00029;0.27911377;-2.211563;-;-;-;-;-;-;-;-;-;-;-;-;-;-;-
1514209129547;-;-;9.019455;0.3174286;-2.215149;-;-;-;-;-;-;-;-;-;-;-;-;-;-;-
1514209129567;-;-;9.033813;0.299469;-2.231903;-;-;-;-;-;-;-;-;-;-;-;-;-;-;-
1514209129587;-;-;9.068527;0.33776855;-2.2175446;-;-;-;-;-;-;-;-;-;-;-;-;-;-;-
1514209129607;-;-;8.990723;0.3617096;-2.191208;-;-;-;-;-;-;-;-;-;-;-;-;-;-;-
1514209129628;-;-;8.928467;0.3222046;-2.151703;-;-;-;-;-;-;-;-;-;-;-;-;-;-;-
1514209129648;-;-;8.891357;0.2850952;-2.128952;-;-;-;-;-;-;-;-;-;-;-;-;-;-;-
1514209129668;-;-;8.92009;0.21566772;-2.1768494;-;-;-;-;-;-;-;-;-;-;-;-;-;-;-
1514209129688;-;-;8.914108;0.15461731;-2.1971893;-;-;-;-;-;-;-;-;-;-;-;-;-;-;-
1514209129708;-;-;8.903336;0.08039856;-2.1828308;-;-;-;-;-;-;-;-;-;-;-;-;-;-;-
1514209129729;-;-;8.929672;0.046875;-2.1852264;-;-;-;-;-;-;-;-;-;-;-;-;-;-;-
1514209129749;-;-;8.958389;0.02293396;-2.1936035;-;-;-;-;-;-;-;-;-;-;-;-;-;-;-
1514209129769;-;-;8.955994;-0.03453064;-2.1457214;-;-;-;-;-;-;-;-;-;-;-;-;-;-;-
1514209129790;-;-;9.037399;-0.0105896;-2.105011;-;-;-;-;-;-;-;-;-;-;-;-;-;-;-
1514209129810;-;-;9.066132;-0.12310791;-2.108612;-;-;-;-;-;-;-;-;-;-;-;-;-;-;-
1514209129830;-;-;9.023041;-0.14585876;-2.1385345;-;-;-;-;-;-;-;-;-;-;-;-;-;-;-
1514209129850;-;-;8.977554;0.0025787354;-2.0942383;-;-;-;-;-;-;-;-;-;-;-;-;-;-;-
1514209129871;-;-;8.990723;0.10913086;-2.0595245;-;-;-;-;-;-;-;-;-;-;-;-;-;-;-
1514209129891;-;-;9.030228;0.02293396;-2.0834656;-;-;-;-;-;-;-;-;-;-;-;-;-;-;-
1514209129910;-;-;9.037399;-0.069244385;-2.0595245;-;-;-;-;-;-;-;-;-;-;-;-;-;-;-
1514209129930;-;-;9.0182495;-0.095581055;-2.1110077;-;-;-;-;-;-;-;-;-;-;-;-;-;-;-
1514209129950;-;-;8.959595;-0.04888916;-2.084671;-;-;-;-;-;-;-;-;-;-;-;-;-;-;-
1514209129971;-;-;8.924881;-0.0045928955;-2.0272064;-;-;-;-;-;-;-;-;-;-;-;-;-;-;-
1514209129992;-;-;8.975159;0.008575439;-2.029602;-;-;-;-;-;-;-;-;-;-;-;-;-;-;-
1514209130012;-;-;9.030228;-0.012969971;-2.0283966;-;-;-;-;-;-;-;-;-;-;-;-;-;-;-
1514209130032;-;-;9.023041;-0.00819397;-2.0343933;-;-;-;-;-;-;-;-;-;-;-;-;-;-;-
1514209130052;-;-;8.954803;0.02772522;-2.0104523;-;-;-;-;-;-;-;-;-;-;-;-;-;-;-
1514209130073;-;-;8.973953;-0.0010070801;-2.0104523;-;-;-;-;-;-;-;-;-;-;-;-;-;-;-
1514209130093;-;-;8.9787445;0.014556885;-2.0272064;-;-;-;-;-;-;-;-;-;-;-;-;-;-;-
1514209130113;-;-;8.996704;0.05406189;-2.0104523;-;-;-;-;-;-;-;-;-;-;-;-;-;-;-
1514209130134;-;-;9.026627;0.05406189;-2.0044556;-;-;-;-;-;-;-;-;-;-;-;-;-;-;-
1514209130154;-;-;9.033813;0.09715271;-2.0068512;-;-;-;-;-;-;-;-;-;-;-;-;-;-;-
1514209130174;-;-;9.023041;0.05645752;-1.966156;-;-;-;-;-;-;-;-;-;-;-;-;-;-;-
1514209130194;-;-;8.964386;0.06124878;-2.0248108;-;-;-;-;-;-;-;-;-;-;-;-;-;-;-
1514209130215;-;-;8.98114;0.17497253;-2.0523376;-;-;-;-;-;-;-;-;-;-;-;-;-;-;-
1514209130235;-;-;9.013458;0.20729065;-2.0164337;-;-;-;-;-;-;-;-;-;-;-;-;-;-;-
1514209130255;-;-;9.024231;0.15940857;-2.029602;-;-;-;-;-;-;-;-;-;-;-;-;-;-;-
1514209130275;-;-;9.003891;0.17616272;-1.9613647;-;-;-;-;-;-;-;-;-;-;-;-;-;-;-
1514209130295;-;-;8.967972;0.1845398;-1.9924927;-;-;-;-;-;-;-;-;-;-;-;-;-;-;-
1514209130316;-;-;8.952408;0.18933105;-2.0152283;-;-;-;-;-;-;-;-;-;-;-;-;-;-;-
1514209130337;-;-;8.932053;0.20848083;-2.0355835;-;-;-;-;-;-;-;-;-;-;-;-;-;-;-
1514209130357;-;-;8.9787445;0.23602295;-2.0116425;-;-;-;-;-;-;-;-;-;-;-;-;-;-;-
1514209130377;-;-;8.994308;0.2707367;-1.9589691;-;-;-;-;-;-;-;-;-;-;-;-;-;-;-
1514209130397;-;-;9.021835;0.20489502;-1.9733429;-;-;-;-;-;-;-;-;-;-;-;-;-;-;-
1514209130418;-;-;9.017059;0.25398254;-1.942215;-;-;-;-;-;-;-;-;-;-;-;-;-;-;-
1514209130438;-;-;8.983536;0.3030548;-1.942215;-;-;-;-;-;-;-;-;-;-;-;-;-;-;-
1514209130458;-;-;8.977554;0.29588318;-1.9517822;-;-;-;-;-;-;-;-;-;-;-;-;-;-;-
1514209130479;-;-;8.976349;0.29588318;-1.9302368;-;-;-;-;-;-;-;-;-;-;-;-;-;-;-
1514209130500;-;-;8.994308;0.25756836;-1.9170685;-;-;-;-;-;-;-;-;-;-;-;-;-;-;-
1514209130520;-;-;9.050568;0.25637817;-1.950592;-;-;-;-;-;-;-;-;-;-;-;-;-;-;-
1514209130540;-;-;9.068527;0.2515869;-1.9458008;-;-;-;-;-;-;-;-;-;-;-;-;-;-;-
1514209130561;-;-;9.0182495;0.2850952;-1.9458008;-;-;-;-;-;-;-;-;-;-;-;-;-;-;-
1514209130581;-;-;8.987122;0.25875854;-1.9673462;-;-;-;-;-;-;-;-;-;-;-;-;-;-;-
1514209130601;-;-;8.990723;0.2515869;-1.9350281;-;-;-;-;-;-;-;-;-;-;-;-;-;-;-
1514209130621;-;-;9.008667;0.23123169;-1.9805145;-;-;-;-;-;-;-;-;-;-;-;-;-;-;-
1514209130642;-;-;9.06015;0.27911377;-2.0008698;-;-;-;-;-;-;-;-;-;-;-;-;-;-;-
1514209130661;-;-;9.042191;0.25398254;-1.9481964;-;-;-;-;-;-;-;-;-;-;-;-;-;-;-
1514209130681;-;-;9.062546;0.26475525;-1.9912872;-;-;-;-;-;-;-;-;-;-;-;-;-;-;-
1514209130701;-;-;8.983536;0.24081421;-1.9924927;-;-;-;-;-;-;-;-;-;-;-;-;-;-;-
1514209130721;-;-;9.017059;0.24320984;-1.9685516;-;-;-;-;-;-;-;-;-;-;-;-;-;-;-
1514209130742;-;-;9.027832;0.2695465;-2.0044556;-;-;-;-;-;-;-;-;-;-;-;-;-;-;-
1514209130762;-;-;9.017059;0.22644043;-1.9529877;-;-;-;-;-;-;-;-;-;-;-;-;-;-;-
1514209130782;-;-;9.0182495;0.16778564;-1.990097;-;-;-;-;-;-;-;-;-;-;-;-;-;-;-
1514209130802;-;-;8.983536;0.22883606;-1.98172;-;-;-;-;-;-;-;-;-;-;-;-;-;-;-
1514209130823;-;-;8.984726;0.28390503;-1.9757233;-;-;-;-;-;-;-;-;-;-;-;-;-;-;-
1514209130843;-;-;9.027832;0.24559021;-2.0104523;-;-;-;-;-;-;-;-;-;-;-;-;-;-;-
1514209130863;-;-;9.003891;0.19651794;-1.9936829;-;-;-;-;-;-;-;-;-;-;-;-;-;-;-
1514209130884;-;-;8.946426;0.21208191;-1.9936829;-;-;-;-;-;-;-;-;-;-;-;-;-;-;-
1514209130904;-;-;8.971558;0.2515869;-1.9517822;-;-;-;-;-;-;-;-;-;-;-;-;-;-;-
1514209130924;-;-;8.969162;0.27552795;-2.0008698;-;-;-;-;-;-;-;-;-;-;-;-;-;-;-
1514209130944;-;-;8.958389;0.29467773;-1.9745331;-;-;-;-;-;-;-;-;-;-;-;-;-;-;-
1514209130964;-;-;9.0182495;0.24798584;-1.9302368;-;-;-;-;-;-;-;-;-;-;-;-;-;-;-
1514209130985;-;-;9.001495;0.22883606;-1.9386139;-;-;-;-;-;-;-;-;-;-;-;-;-;-;-
1514209131005;-;-;9.026627;0.20010376;-1.8979187;-;-;-;-;-;-;-;-;-;-;-;-;-;-;-
1514209131025;-;-;8.995499;0.2635498;-1.9481964;-;-;-;-;-;-;-;-;-;-;-;-;-;-;-
1514209131046;-;-;9.006287;0.25038147;-1.90271;-;-;-;-;-;-;-;-;-;-;-;-;-;-;-
1514209131066;-;-;9.015854;0.19412231;-1.8931274;-;-;-;-;-;-;-;-;-;-;-;-;-;-;-
1514209131086;-;-;9.045776;0.19770813;-1.9051056;-;-;-;-;-;-;-;-;-;-;-;-;-;-;-
1514209131107;-;-;9.027832;0.15820313;-1.9003143;-;-;-;-;-;-;-;-;-;-;-;-;-;-;-
1514209131127;-;-;9.019455;0.20010376;-1.9206696;-;-;-;-;-;-;-;-;-;-;-;-;-;-;-
1514209131147;-;-;9.013458;0.21087646;-1.9541779;-;-;-;-;-;-;-;-;-;-;-;-;-;-;-
1514209131168;-;-;9.006287;0.24919128;-1.9398193;-;-;-;-;-;-;-;-;-;-;-;-;-;-;-
1514209131188;-;-;9.019455;0.28390503;-1.9326324;-;-;-;-;-;-;-;-;-;-;-;-;-;-;-
1514209131208;-;-;9.041;0.26715088;-1.9290466;-;-;-;-;-;-;-;-;-;-;-;-;-;-;-
1514209131228;-;-;8.995499;0.23602295;-1.9182739;-;-;-;-;-;-;-;-;-;-;-;-;-;-;-
1514209131249;-;-;9.00029;0.24919128;-1.9003143;-;-;-;-;-;-;-;-;-;-;-;-;-;-;-
1514209131269;-;-;8.996704;0.26594543;-1.9158783;-;-;-;-;-;-;-;-;-;-;-;-;-;-;-
1514209131289;-;-;9.021835;0.25398254;-1.9146729;-;-;-;-;-;-;-;-;-;-;-;-;-;-;-
1514209131309;-;-;9.033813;0.27552795;-1.911087;-;-;-;-;-;-;-;-;-;-;-;-;-;-;-
1514209131329;-;-;8.989517;0.22883606;-1.9230652;-;-;-;-;-;-;-;-;-;-;-;-;-;-;-
1514209131350;-;-;9.005081;0.2300415;-1.8883362;-;-;-;-;-;-;-;-;-;-;-;-;-;-;-
1514209131370;-;-;8.995499;0.24559021;-1.8859406;-;-;-;-;-;-;-;-;-;-;-;-;-;-;-
1514209131390;-;-;9.019455;0.27192688;-1.9158783;-;-;-;-;-;-;-;-;-;-;-;-;-;-;-
1514209131410;-;-;9.007477;0.299469;-1.9206696;-;-;-;-;-;-;-;-;-;-;-;-;-;-;-
1514209131431;-;-;9.049377;0.26715088;-1.8811646;-;-;-;-;-;-;-;-;-;-;-;-;-;-;-
1514209131451;-;-;9.007477;0.2850952;-1.9206696;-;-;-;-;-;-;-;-;-;-;-;-;-;-;-
1514209131471;-;-;9.020645;0.24440002;-1.9625702;-;-;-;-;-;-;-;-;-;-;-;-;-;-;-
1514209131492;-;-;9.051773;0.22644043;-1.9206696;-;-;-;-;-;-;-;-;-;-;-;-;-;-;-
1514209131512;-;-;8.993118;0.23242188;-1.8679962;-;-;-;-;-;-;-;-;-;-;-;-;-;-;-
1514209131532;-;-;8.955994;0.26715088;-1.8679962;-;-;-;-;-;-;-;-;-;-;-;-;-;-;-
1514209131552;-;-;9.019455;0.29707336;-1.911087;-;-;-;-;-;-;-;-;-;-;-;-;-;-;-
1514209131573;-;-;9.041;0.33059692;-1.9757233;-;-;-;-;-;-;-;-;-;-;-;-;-;-;-
1514209131592;-;-;9.037399;0.2886963;-1.9350281;-;-;-;-;-;-;-;-;-;-;-;-;-;-;-
1514209131612;-;-;9.035004;0.26115417;-1.9230652;-;-;-;-;-;-;-;-;-;-;-;-;-;-;-
1514209131632;-;-;9.033813;0.28988647;-1.8931274;-;-;-;-;-;-;-;-;-;-;-;-;-;-;-
1514209131653;-;-;9.024231;0.28390503;-1.9553833;-;-;-;-;-;-;-;-;-;-;-;-;-;-;-
1514209131672;-;-;9.005081;0.31503296;-1.9086914;-;-;-;-;-;-;-;-;-;-;-;-;-;-;-
1514209131692;-;-;8.9991;0.30545044;-1.9146729;-;-;-;-;-;-;-;-;-;-;-;-;-;-;-
1514209131712;-;-;8.990723;0.30784607;-1.8907318;-;-;-;-;-;-;-;-;-;-;-;-;-;-;-
1514209131733;-;-;9.029022;0.23841858;-1.9122772;-;-;-;-;-;-;-;-;-;-;-;-;-;-;-
1514209131754;-;-;9.033813;0.23960876;-1.9182739;-;-;-;-;-;-;-;-;-;-;-;-;-;-;-
1514209131775;-;-;9.006287;0.2886963;-1.9062958;-;-;-;-;-;-;-;-;-;-;-;-;-;-;-
1514209131795;-;-;8.988327;0.2886963;-1.9338379;-;-;-;-;-;-;-;-;-;-;-;-;-;-;-
1514209131815;-;-;9.014664;0.26834106;-1.9182739;-;-;-;-;-;-;-;-;-;-;-;-;-;-;-
1514209131835;-;-;9.008667;0.2635498;-1.9254456;-;-;-;-;-;-;-;-;-;-;-;-;-;-;-
1514209131855;-;-;9.008667;0.24320984;-1.9290466;-;-;-;-;-;-;-;-;-;-;-;-;-;-;-
1514209131876;-;-;9.029022;0.24679565;-1.9194641;-;-;-;-;-;-;-;-;-;-;-;-;-;-;-
1514209131896;-;-;9.020645;0.2850952;-1.9098969;-;-;-;-;-;-;-;-;-;-;-;-;-;-;-
1514209131917;-;-;8.993118;0.3102417;-1.9146729;-;-;-;-;-;-;-;-;-;-;-;-;-;-;-
1514209131937;-;-;9.005081;0.27192688;-1.8811646;-;-;-;-;-;-;-;-;-;-;-;-;-;-;-
1514209131957;-;-;9.003891;0.2515869;-1.9182739;-;-;-;-;-;-;-;-;-;-;-;-;-;-;-
1514209131977;-;-;9.012268;0.2527771;-1.9158783;-;-;-;-;-;-;-;-;-;-;-;-;-;-;-
1514209131998;-;-;9.009872;0.23960876;-1.9170685;-;-;-;-;-;-;-;-;-;-;-;-;-;-;-
1514209132018;-;-;8.987122;0.2635498;-1.8979187;-;-;-;-;-;-;-;-;-;-;-;-;-;-;-
1514209132038;-;-;9.006287;0.2348175;-1.9015045;-;-;-;-;-;-;-;-;-;-;-;-;-;-;-
1514209132058;-;-;9.023041;0.22883606;-1.9003143;-;-;-;-;-;-;-;-;-;-;-;-;-;-;-
1514209132078;-;-;8.995499;0.20010376;-1.9302368;-;-;-;-;-;-;-;-;-;-;-;-;-;-;-
1514209132099;-;-;9.015854;0.20610046;-1.9206696;-;-;-;-;-;-;-;-;-;-;-;-;-;-;-
1514209132119;-;-;9.032608;0.23841858;-1.9146729;-;-;-;-;-;-;-;-;-;-;-;-;-;-;-
1514209132139;-;-;9.06015;0.21087646;-1.9565735;-;-;-;-;-;-;-;-;-;-;-;-;-;-;-
1514209132159;-;-;9.035004;0.19651794;-1.8799591;-;-;-;-;-;-;-;-;-;-;-;-;-;-;-
1514209132180;-;-;8.960785;0.22644043;-1.8739777;-;-;-;-;-;-;-;-;-;-;-;-;-;-;-
1514209132200;-;-;9.001495;0.18933105;-1.8727875;-;-;-;-;-;-;-;-;-;-;-;-;-;-;-
1514209132220;-;-;8.984726;0.28988647;-1.9350281;-;-;-;-;-;-;-;-;-;-;-;-;-;-;-
1514209132241;-;-;9.06134;0.2743225;-1.9494019;-;-;-;-;-;-;-;-;-;-;-;-;-;-;-
1514209132261;-;-;9.014664;0.21208191;-1.9302368;-;-;-;-;-;-;-;-;-;-;-;-;-;-;-
1514209132281;-;-;9.024231;0.22525024;-1.8691864;-;-;-;-;-;-;-;-;-;-;-;-;-;-;-
1514209132301;-;-;9.001495;0.26715088;-1.9182739;-;-;-;-;-;-;-;-;-;-;-;-;-;-;-
1514209132322;-;-;9.002686;0.23721313;-1.9122772;-;-;-;-;-;-;-;-;-;-;-;-;-;-;-
1514209132342;-;-;9.048172;0.24320984;-1.9254456;-;-;-;-;-;-;-;-;-;-;-;-;-;-;-
1514209132362;-;-;9.009872;0.24320984;-1.9182739;-;-;-;-;-;-;-;-;-;-;-;-;-;-;-
1514209132383;-;-;9.026627;0.27313232;-1.9254456;-;-;-;-;-;-;-;-;-;-;-;-;-;-;-
1514209132403;-;-;9.008667;0.22764587;-1.950592;-;-;-;-;-;-;-;-;-;-;-;-;-;-;-
1514209132423;-;-;9.007477;0.2300415;-1.9338379;-;-;-;-;-;-;-;-;-;-;-;-;-;-;-
1514209132444;-;-;8.987122;0.26475525;-1.9625702;-;-;-;-;-;-;-;-;-;-;-;-;-;-;-
1514209132463;-;-;8.988327;0.26115417;-1.926651;-;-;-;-;-;-;-;-;-;-;-;-;-;-;-
1514209132483;-;-;9.006287;0.2695465;-1.9577789;-;-;-;-;-;-;-;-;-;-;-;-;-;-;-
1514209132503;-;-;9.011063;0.23721313;-1.966156;-;-;-;-;-;-;-;-;-;-;-;-;-;-;-
1514209132524;-;-;9.039795;0.2695465;-1.9733429;-;-;-;-;-;-;-;-;-;-;-;-;-;-;-
1514209132544;-;-;8.985931;0.25517273;-1.990097;-;-;-;-;-;-;-;-;-;-;-;-;-;-;-
1514209132564;-;-;8.976349;0.23242188;-1.9757233;-;-;-;-;-;-;-;-;-;-;-;-;-;-;-
1514209132585;-;-;8.996704;0.2515869;-1.9877014;-;-;-;-;-;-;-;-;-;-;-;-;-;-;-
1514209132604;-;-;9.015854;0.21687317;-1.9517822;-;-;-;-;-;-;-;-;-;-;-;-;-;-;-
1514209132624;-;-;9.008667;0.20848083;-1.966156;-;-;-;-;-;-;-;-;-;-;-;-;-;-;-
1514209132644;-;-;9.0182495;0.22764587;-1.9721375;-;-;-;-;-;-;-;-;-;-;-;-;-;-;-
1514209132664;-;-;9.020645;0.23362732;-1.9541779;-;-;-;-;-;-;-;-;-;-;-;-;-;-;-
1514209132685;-;-;8.995499;0.20968628;-1.9793243;-;-;-;-;-;-;-;-;-;-;-;-;-;-;-
1514209132704;-;-;8.993118;0.2635498;-1.9960785;-;-;-;-;-;-;-;-;-;-;-;-;-;-;-
1514209132724;-;-;8.98233;0.24320984;-1.9757233;-;-;-;-;-;-;-;-;-;-;-;-;-;-;-
1514209132745;-;-;9.020645;0.24440002;-1.9697418;-;-;-;-;-;-;-;-;-;-;-;-;-;-;-
1514209132765;-;-;9.023041;0.25038147;-1.9541779;-;-;-;-;-;-;-;-;-;-;-;-;-;-;-
1514209132785;-;-;9.024231;0.21566772;-1.98172;-;-;-;-;-;-;-;-;-;-;-;-;-;-;-
1514209132806;-;-;9.012268;0.2515869;-1.9553833;-;-;-;-;-;-;-;-;-;-;-;-;-;-;-
1514209132825;-;-;9.0182495;0.22045898;-1.9721375;-;-;-;-;-;-;-;-;-;-;-;-;-;-;-
1514209132845;-;-;8.995499;0.2013092;-1.9565735;-;-;-;-;-;-;-;-;-;-;-;-;-;-;-
1514209132865;-;-;8.96199;0.18574524;-1.9577789;-;-;-;-;-;-;-;-;-;-;-;-;-;-;-
1514209132886;-;-;8.987122;0.22164917;-1.9446106;-;-;-;-;-;-;-;-;-;-;-;-;-;-;-
1514209132906;-;-;8.977554;0.2192688;-2.014038;-;-;-;-;-;-;-;-;-;-;-;-;-;-;-
1514209132926;-;-;9.036209;0.22285461;-2.0559387;-;-;-;-;-;-;-;-;-;-;-;-;-;-;-
1514209132946;-;-;9.044586;0.23721313;-1.9254456;-;-;-;-;-;-;-;-;-;-;-;-;-;-;-
1514209132966;-;-;9.008667;0.2240448;-1.8823547;-;-;-;-;-;-;-;-;-;-;-;-;-;-;-
1514209132987;-;-;9.003891;0.24919128;-1.942215;-;-;-;-;-;-;-;-;-;-;-;-;-;-;-
1514209133007;-;-;8.98114;0.22285461;-1.9853058;-;-;-;-;-;-;-;-;-;-;-;-;-;-;-
1514209133027;-;-;8.997894;0.2192688;-1.9434052;-;-;-;-;-;-;-;-;-;-;-;-;-;-;-
1514209133048;-;-;9.050568;0.21687317;-2.021225;-;-;-;-;-;-;-;-;-;-;-;-;-;-;-
1514209133068;-;-;9.031418;0.1797638;-1.9793243;-;-;-;-;-;-;-;-;-;-;-;-;-;-;-
1514209133088;-;-;9.014664;0.22525024;-1.9577789;-;-;-;-;-;-;-;-;-;-;-;-;-;-;-
1514209133108;-;-;9.006287;0.22285461;-1.98172;-;-;-;-;-;-;-;-;-;-;-;-;-;-;-
1514209133129;-;-;9.006287;0.24081421;-1.9960785;-;-;-;-;-;-;-;-;-;-;-;-;-;-;-
1514209133148;-;-;8.9787445;0.25637817;-1.9853058;-;-;-;-;-;-;-;-;-;-;-;-;-;-;-
1514209133168;-;-;9.00029;0.26475525;-1.9685516;-;-;-;-;-;-;-;-;-;-;-;-;-;-;-
1514209133188;-;-;9.048172;0.2886963;-2.0200195;-;-;-;-;-;-;-;-;-;-;-;-;-;-;-
1514209133209;-;-;9.021835;0.26475525;-1.9853058;-;-;-;-;-;-;-;-;-;-;-;-;-;-;-
1514209133229;-;-;8.975159;0.25875854;-2.0080566;-;-;-;-;-;-;-;-;-;-;-;-;-;-;-
1514209133249;-;-;8.954803;0.28630066;-1.9936829;-;-;-;-;-;-;-;-;-;-;-;-;-;-;-
1514209133270;-;-;8.97995;0.2695465;-1.9841156;-;-;-;-;-;-;-;-;-;-;-;-;-;-;-
1514209133290;-;-;9.00029;0.26115417;-1.9733429;-;-;-;-;-;-;-;-;-;-;-;-;-;-;-
1514209133310;-;-;9.019455;0.2695465;-1.9625702;-;-;-;-;-;-;-;-;-;-;-;-;-;-;-
1514209133331;-;-;9.00029;0.259964;-1.9709473;-;-;-;-;-;-;-;-;-;-;-;-;-;-;-
1514209133351;-;-;9.001495;0.30065918;-2.0116425;-;-;-;-;-;-;-;-;-;-;-;-;-;-;-
1514209133371;-;-;8.98114;0.26115417;-1.9948883;-;-;-;-;-;-;-;-;-;-;-;-;-;-;-
1514209133392;-;-;8.963181;0.25398254;-2.0116425;-;-;-;-;-;-;-;-;-;-;-;-;-;-;-
1514209133411;-;-;8.995499;0.26235962;-1.9745331;-;-;-;-;-;-;-;-;-;-;-;-;-;-;-
1514209133431;-;-;9.001495;0.2635498;-1.9877014;-;-;-;-;-;-;-;-;-;-;-;-;-;-;-
1514209133451;-;-;9.024231;0.31143188;-2.0068512;-;-;-;-;-;-;-;-;-;-;-;-;-;-;-
1514209133472;-;-;9.013458;0.35572815;-2.0200195;-;-;-;-;-;-;-;-;-;-;-;-;-;-;-
1514209133491;-;-;9.003891;0.338974;-2.0116425;-;-;-;-;-;-;-;-;-;-;-;-;-;-;-
1514209133511;-;-;9.007477;0.29467773;-2.021225;-;-;-;-;-;-;-;-;-;-;-;-;-;-;-
1514209133531;-;-;9.00029;0.2635498;-2.0044556;-;-;-;-;-;-;-;-;-;-;-;-;-;-;-
1514209133552;-;-;8.959595;0.27552795;-1.9877014;-;-;-;-;-;-;-;-;-;-;-;-;-;-;-
1514209133571;-;-;9.013458;0.32939148;-1.9494019;-;-;-;-;-;-;-;-;-;-;-;-;-;-;-
1514209133591;-;-;8.984726;0.34735107;-2.0439606;-;-;-;-;-;-;-;-;-;-;-;-;-;-;-
1514209133612;-;-;9.012268;0.33418274;-2.0726929;-;-;-;-;-;-;-;-;-;-;-;-;-;-;-
1514209133632;-;-;8.984726;0.26475525;-2.0092468;-;-;-;-;-;-;-;-;-;-;-;-;-;-;-
1514209133652;-;-;9.002686;0.24320984;-1.9769287;-;-;-;-;-;-;-;-;-;-;-;-;-;-;-
1514209133673;-;-;9.006287;0.2635498;-2.0044556;-;-;-;-;-;-;-;-;-;-;-;-;-;-;-
1514209133693;-;-;9.0182495;0.29467773;-2.017624;-;-;-;-;-;-;-;-;-;-;-;-;-;-;-
1514209133713;-;-;9.014664;0.26235962;-2.0164337;-;-;-;-;-;-;-;-;-;-;-;-;-;-;-
1514209133733;-;-;9.026627;0.28749084;-2.0008698;-;-;-;-;-;-;-;-;-;-;-;-;-;-;-
1514209133753;-;-;8.984726;0.25756836;-2.0224152;-;-;-;-;-;-;-;-;-;-;-;-;-;-;-
1514209133774;-;-;8.97995;0.2635498;-2.021225;-;-;-;-;-;-;-;-;-;-;-;-;-;-;-
1514209133794;-;-;9.007477;0.2707367;-2.0475616;-;-;-;-;-;-;-;-;-;-;-;-;-;-;-
1514209133815;-;-;9.006287;0.29348755;-1.9972839;-;-;-;-;-;-;-;-;-;-;-;-;-;-;-
1514209133835;-;-;8.989517;0.2815094;-2.005661;-;-;-;-;-;-;-;-;-;-;-;-;-;-;-
1514209133855;-;-;8.993118;0.28749084;-1.9793243;-;-;-;-;-;-;-;-;-;-;-;-;-;-;-
1514209133875;-;-;8.988327;0.25517273;-1.9601746;-;-;-;-;-;-;-;-;-;-;-;-;-;-;-
1514209133896;-;-;9.025436;0.23362732;-1.9912872;-;-;-;-;-;-;-;-;-;-;-;-;-;-;-
1514209133916;-;-;9.00029;0.29109192;-1.9877014;-;-;-;-;-;-;-;-;-;-;-;-;-;-;-
1514209133936;-;-;9.030228;0.28390503;-1.9733429;-;-;-;-;-;-;-;-;-;-;-;-;-;-;-
1514209133957;-;-;9.017059;0.25756836;-1.9841156;-;-;-;-;-;-;-;-;-;-;-;-;-;-;-
1514209133977;-;-;9.011063;0.2420044;-1.9494019;-;-;-;-;-;-;-;-;-;-;-;-;-;-;-
1514209133997;-;-;9.042191;0.27671814;-1.9565735;-;-;-;-;-;-;-;-;-;-;-;-;-;-;-
1514209134018;-;-;9.021835;0.2707367;-1.9685516;-;-;-;-;-;-;-;-;-;-;-;-;-;-;-
1514209134039;-;-;9.001495;0.30065918;-1.9709473;-;-;-;-;-;-;-;-;-;-;-;-;-;-;-
1514209134059;-;-;8.990723;0.25398254;-1.9529877;-;-;-;-;-;-;-;-;-;-;-;-;-;-;-
1514209134079;-;-;8.995499;0.27552795;-1.9218597;-;-;-;-;-;-;-;-;-;-;-;-;-;-;-
1514209134100;-;-;8.98233;0.26475525;-1.9242554;-;-;-;-;-;-;-;-;-;-;-;-;-;-;-
1514209134120;-;-;9.002686;0.28749084;-1.9182739;-;-;-;-;-;-;-;-;-;-;-;-;-;-;-
1514209134140;-;-;9.013458;0.299469;-1.9733429;-;-;-;-;-;-;-;-;-;-;-;-;-;-;-
1514209134160;-;-;8.973953;0.29109192;-1.9541779;-;-;-;-;-;-;-;-;-;-;-;-;-;-;-
1514209134180;-;-;8.987122;0.28390503;-1.9697418;-;-;-;-;-;-;-;-;-;-;-;-;-;-;-
1514209134200;-;-;9.052963;0.27552795;-1.9470062;-;-;-;-;-;-;-;-;-;-;-;-;-;-;-
1514209134221;-;-;9.048172;0.2192688;-1.9517822;-;-;-;-;-;-;-;-;-;-;-;-;-;-;-
1514209134241;-;-;8.996704;0.23123169;-1.9170685;-;-;-;-;-;-;-;-;-;-;-;-;-;-;-
1514209134261;-;-;9.0182495;0.32460022;-1.9218597;-;-;-;-;-;-;-;-;-;-;-;-;-;-;-
1514209134283;-;-;8.997894;0.30784607;-1.9517822;-;-;-;-;-;-;-;-;-;-;-;-;-;-;-
1514209134302;-;-;9.003891;0.29467773;-2.0403748;-;-;-;-;-;-;-;-;-;-;-;-;-;-;-
1514209134323;-;-;8.997894;0.25517273;-1.942215;-;-;-;-;-;-;-;-;-;-;-;-;-;-;-
1514209134343;-;-;8.990723;0.20249939;-1.8907318;-;-;-;-;-;-;-;-;-;-;-;-;-;-;-
1514209134363;-;-;9.024231;0.2850952;-1.9374237;-;-;-;-;-;-;-;-;-;-;-;-;-;-;-
1514209134384;-;-;9.014664;0.2922821;-1.950592;-;-;-;-;-;-;-;-;-;-;-;-;-;-;-
1514209134404;-;-;9.033813;0.27671814;-1.9218597;-;-;-;-;-;-;-;-;-;-;-;-;-;-;-
1514209134424;-;-;9.001495;0.24081421;-1.9242554;-;-;-;-;-;-;-;-;-;-;-;-;-;-;-
1514209134445;-;-;8.951218;0.2420044;-1.9314423;-;-;-;-;-;-;-;-;-;-;-;-;-;-;-
1514209134466;-;-;8.984726;0.21087646;-1.863205;-;-;-;-;-;-;-;-;-;-;-;-;-;-;-
1514209134487;-;-;9.025436;0.21806335;-1.9075012;-;-;-;-;-;-;-;-;-;-;-;-;-;-;-
1514209134507;-;-;9.015854;0.22045898;-1.9158783;-;-;-;-;-;-;-;-;-;-;-;-;-;-;-
1514209134527;-;-;8.987122;0.22764587;-1.9062958;-;-;-;-;-;-;-;-;-;-;-;-;-;-;-
1514209134547;-;-;9.014664;0.21806335;-1.9218597;-;-;-;-;-;-;-;-;-;-;-;-;-;-;-
1514209134568;-;-;9.005081;0.25398254;-1.9242554;-;-;-;-;-;-;-;-;-;-;-;-;-;-;-
1514209134589;-;-;9.032608;0.2300415;-1.8847504;-;-;-;-;-;-;-;-;-;-;-;-;-;-;-
1514209134610;-;-;9.037399;0.28630066;-1.9098969;-;-;-;-;-;-;-;-;-;-;-;-;-;-;-
1514209134629;-;-;9.006287;0.2527771;-1.9122772;-;-;-;-;-;-;-;-;-;-;-;-;-;-;-
1514209134649;-;-;9.007477;0.22285461;-1.8859406;-;-;-;-;-;-;-;-;-;-;-;-;-;-;-
1514209134669;-;-;9.007477;0.20489502;-1.9098969;-;-;-;-;-;-;-;-;-;-;-;-;-;-;-
1514209134690;-;-;9.005081;0.23362732;-1.9302368;-;-;-;-;-;-;-;-;-;-;-;-;-;-;-
1514209134709;-;-;8.997894;0.2527771;-1.9051056;-;-;-;-;-;-;-;-;-;-;-;-;-;-;-
1514209134729;-;-;9.021835;0.26235962;-1.9015045;-;-;-;-;-;-;-;-;-;-;-;-;-;-;-
1514209134750;-;-;9.041;0.2515869;-1.9051056;-;-;-;-;-;-;-;-;-;-;-;-;-;-;-
1514209134770;-;-;9.015854;0.24320984;-1.9086914;-;-;-;-;-;-;-;-;-;-;-;-;-;-;-
1514209134790;-;-;9.015854;0.28271484;-1.911087;-;-;-;-;-;-;-;-;-;-;-;-;-;-;-
1514209134811;-;-;9.024231;0.2707367;-1.9003143;-;-;-;-;-;-;-;-;-;-;-;-;-;-;-
1514209134831;-;-;9.024231;0.24798584;-1.9182739;-;-;-;-;-;-;-;-;-;-;-;-;-;-;-
1514209134851;-;-;9.009872;0.2515869;-1.9398193;-;-;-;-;-;-;-;-;-;-;-;-;-;-;-
1514209134872;-;-;9.015854;0.3174286;-1.9158783;-;-;-;-;-;-;-;-;-;-;-;-;-;-;-
1514209134892;-;-;9.088882;0.26715088;-1.9230652;-;-;-;-;-;-;-;-;-;-;-;-;-;-;-
1514209134912;-;-;9.044586;0.22883606;-1.8679962;-;-;-;-;-;-;-;-;-;-;-;-;-;-;-
1514209134933;-;-;8.97995;0.18933105;-1.8859406;-;-;-;-;-;-;-;-;-;-;-;-;-;-;-
1514209134953;-;-;8.996704;0.22164917;-1.8943329;-;-;-;-;-;-;-;-;-;-;-;-;-;-;-
1514209134973;-;-;9.027832;0.25038147;-1.9458008;-;-;-;-;-;-;-;-;-;-;-;-;-;-;-
1514209134993;-;-;9.012268;0.2815094;-1.9853058;-;-;-;-;-;-;-;-;-;-;-;-;-;-;-
1514209135014;-;-;9.017059;0.23362732;-1.9051056;-;-;-;-;-;-;-;-;-;-;-;-;-;-;-
1514209135034;-;-;9.005081;0.17137146;-1.9015045;-;-;-;-;-;-;-;-;-;-;-;-;-;-;-
1514209135054;-;-;9.00029;0.22164917;-1.8967285;-;-;-;-;-;-;-;-;-;-;-;-;-;-;-
1514209135074;-;-;8.983536;0.23242188;-1.9458008;-;-;-;-;-;-;-;-;-;-;-;-;-;-;-
1514209135094;-;-;9.014664;0.26115417;-1.9541779;-;-;-;-;-;-;-;-;-;-;-;-;-;-;-
1514209135115;-;-;9.041;0.23362732;-1.9637604;-;-;-;-;-;-;-;-;-;-;-;-;-;-;-
1514209135135;-;-;9.035004;0.20489502;-1.9529877;-;-;-;-;-;-;-;-;-;-;-;-;-;-;-
1514209135155;-;-;8.997894;0.1845398;-1.9410095;-;-;-;-;-;-;-;-;-;-;-;-;-;-;-
1514209135175;-;-;8.9991;0.20010376;-1.9577789;-;-;-;-;-;-;-;-;-;-;-;-;-;-;-
1514209135195;-;-;8.993118;0.25038147;-1.9146729;-;-;-;-;-;-;-;-;-;-;-;-;-;-;-
1514209135216;-;-;9.027832;0.23721313;-1.887146;-;-;-;-;-;-;-;-;-;-;-;-;-;-;-
1514209135236;-;-;9.019455;0.27192688;-1.9194641;-;-;-;-;-;-;-;-;-;-;-;-;-;-;-
1514209135256;-;-;8.9991;0.2013092;-1.9015045;-;-;-;-;-;-;-;-;-;-;-;-;-;-;-
1514209135276;-;-;8.995499;0.19651794;-1.9062958;-;-;-;-;-;-;-;-;-;-;-;-;-;-;-
1514209135297;-;-;8.975159;0.2132721;-1.8799591;-;-;-;-;-;-;-;-;-;-;-;-;-;-;-
1514209135317;-;-;9.001495;0.25756836;-1.9194641;-;-;-;-;-;-;-;-;-;-;-;-;-;-;-
1514209135337;-;-;9.041;0.27792358;-1.9326324;-;-;-;-;-;-;-;-;-;-;-;-;-;-;-
1514209135357;-;-;9.013458;0.24081421;-1.9278412;-;-;-;-;-;-;-;-;-;-;-;-;-;-;-
1514209135378;-;-;9.006287;0.23841858;-1.8883362;-;-;-;-;-;-;-;-;-;-;-;-;-;-;-
1514209135398;-;-;9.015854;0.23242188;-1.90271;-;-;-;-;-;-;-;-;-;-;-;-;-;-;-
1514209135418;-;-;9.039795;0.26715088;-1.9386139;-;-;-;-;-;-;-;-;-;-;-;-;-;-;-
1514209135439;-;-;9.058945;0.2922821;-1.9314423;-;-;-;-;-;-;-;-;-;-;-;-;-;-;-
1514209135459;-;-;9.035004;0.29109192;-1.9290466;-;-;-;-;-;-;-;-;-;-;-;-;-;-;-
1514209135479;-;-;9.044586;0.25038147;-1.9182739;-;-;-;-;-;-;-;-;-;-;-;-;-;-;-
1514209135500;-;-;9.043396;0.23242188;-1.8943329;-;-;-;-;-;-;-;-;-;-;-;-;-;-;-
1514209135520;-;-;9.012268;0.23841858;-1.8464508;-;-;-;-;-;-;-;-;-;-;-;-;-;-;-
1514209135540;-;-;9.012268;0.23721313;-1.8859406;-;-;-;-;-;-;-;-;-;-;-;-;-;-;-
1514209135561;-;-;8.991913;0.2922821;-1.8667908;-;-;-;-;-;-;-;-;-;-;-;-;-;-;-
1514209135581;-;-;9.031418;0.27671814;-1.9098969;-;-;-;-;-;-;-;-;-;-;-;-;-;-;-
1514209135601;-;-;9.070923;0.23960876;-1.9086914;-;-;-;-;-;-;-;-;-;-;-;-;-;-;-
1514209135622;-;-;9.006287;0.22525024;-1.8691864;-;-;-;-;-;-;-;-;-;-;-;-;-;-;-
1514209135642;-;-;8.971558;0.29707336;-1.8596191;-;-;-;-;-;-;-;-;-;-;-;-;-;-;-
1514209135662;-;-;9.014664;0.28271484;-1.8404541;-;-;-;-;-;-;-;-;-;-;-;-;-;-;-
1514209135682;-;-;9.039795;0.35333252;-1.942215;-;-;-;-;-;-;-;-;-;-;-;-;-;-;-
1514209135702;-;-;9.017059;0.2635498;-1.9589691;-;-;-;-;-;-;-;-;-;-;-;-;-;-;-
1514209135723;-;-;9.017059;0.23841858;-1.8536224;-;-;-;-;-;-;-;-;-;-;-;-;-;-;-
1514209135743;-;-;9.009872;0.22525024;-1.8093262;-;-;-;-;-;-;-;-;-;-;-;-;-;-;-
1514209135764;-;-;8.975159;0.26235962;-1.8428497;-;-;-;-;-;-;-;-;-;-;-;-;-;-;-
1514209135784;-;-;9.005081;0.31143188;-1.8787689;-;-;-;-;-;-;-;-;-;-;-;-;-;-;-
1514209135804;-;-;9.044586;0.27192688;-1.8488312;-;-;-;-;-;-;-;-;-;-;-;-;-;-;-
1514209135824;-;-;9.023041;0.2420044;-1.8811646;-;-;-;-;-;-;-;-;-;-;-;-;-;-;-
1514209135845;-;-;9.0182495;0.21687317;-1.8667908;-;-;-;-;-;-;-;-;-;-;-;-;-;-;-
1514209135865;-;-;9.021835;0.22764587;-1.9051056;-;-;-;-;-;-;-;-;-;-;-;-;-;-;-
1514209135885;-;-;9.009872;0.22525024;-1.911087;-;-;-;-;-;-;-;-;-;-;-;-;-;-;-
1514209135906;-;-;8.990723;0.29707336;-1.8931274;-;-;-;-;-;-;-;-;-;-;-;-;-;-;-
1514209135926;-;-;9.020645;0.2815094;-1.8883362;-;-;-;-;-;-;-;-;-;-;-;-;-;-;-
1514209135946;-;-;9.042191;0.30186462;-1.8895416;-;-;-;-;-;-;-;-;-;-;-;-;-;-;-
1514209135967;-;-;9.023041;0.21806335;-1.8775635;-;-;-;-;-;-;-;-;-;-;-;-;-;-;-
1514209135987;-;-;9.009872;0.23602295;-1.8667908;-;-;-;-;-;-;-;-;-;-;-;-;-;-;-
1514209136007;-;-;8.963181;0.25756836;-1.8763733;-;-;-;-;-;-;-;-;-;-;-;-;-;-;-
1514209136028;-;-;8.996704;0.26834106;-1.8608093;-;-;-;-;-;-;-;-;-;-;-;-;-;-;-
1514209136048;-;-;9.008667;0.26235962;-1.9134827;-;-;-;-;-;-;-;-;-;-;-;-;-;-;-
1514209136068;-;-;9.032608;0.2707367;-1.9338379;-;-;-;-;-;-;-;-;-;-;-;-;-;-;-
1514209136089;-;-;9.007477;0.2707367;-1.8967285;-;-;-;-;-;-;-;-;-;-;-;-;-;-;-
1514209136109;-;-;9.029022;0.2707367;-1.9134827;-;-;-;-;-;-;-;-;-;-;-;-;-;-;-
1514209136133;-;-;9.008667;0.25637817;-1.9254456;-;-;-;-;-;-;-;-;-;-;-;-;-;-;-
1514209136154;-;-;9.012268;0.27552795;-1.9326324;-;-;-;-;-;-;-;-;-;-;-;-;-;-;-
1514209136173;-;-;9.029022;0.259964;-1.9529877;-;-;-;-;-;-;-;-;-;-;-;-;-;-;-
1514209136193;-;-;8.994308;0.30903625;-1.9410095;-;-;-;-;-;-;-;-;-;-;-;-;-;-;-
1514209136213;-;-;9.008667;0.27552795;-1.9314423;-;-;-;-;-;-;-;-;-;-;-;-;-;-;-
1514209136234;-;-;8.976349;0.25038147;-1.9362335;-;-;-;-;-;-;-;-;-;-;-;-;-;-;-
1514209136254;-;-;9.015854;0.27792358;-1.9470062;-;-;-;-;-;-;-;-;-;-;-;-;-;-;-
1514209136274;-;-;9.050568;0.23960876;-1.9649506;-;-;-;-;-;-;-;-;-;-;-;-;-;-;-
1514209136295;-;-;8.9991;0.22045898;-1.9529877;-;-;-;-;-;-;-;-;-;-;-;-;-;-;-
1514209136315;-;-;8.965576;0.21806335;-1.9158783;-;-;-;-;-;-;-;-;-;-;-;-;-;-;-
1514209136335;-;-;8.970367;0.20489502;-1.9481964;-;-;-;-;-;-;-;-;-;-;-;-;-;-;-
1514209136356;-;-;9.020645;0.24320984;-1.9362335;-;-;-;-;-;-;-;-;-;-;-;-;-;-;-
1514209136376;-;-;9.003891;0.22883606;-1.9912872;-;-;-;-;-;-;-;-;-;-;-;-;-;-;-
1514209136396;-;-;9.0182495;0.24679565;-1.9853058;-;-;-;-;-;-;-;-;-;-;-;-;-;-;-
1514209136416;-;-;9.027832;0.2240448;-1.9613647;-;-;-;-;-;-;-;-;-;-;-;-;-;-;-
1514209136437;-;-;8.997894;0.24081421;-1.9338379;-;-;-;-;-;-;-;-;-;-;-;-;-;-;-
1514209136457;-;-;9.037399;0.23721313;-2.0044556;-;-;-;-;-;-;-;-;-;-;-;-;-;-;-
1514209136478;-;-;9.014664;0.24559021;-1.990097;-;-;-;-;-;-;-;-;-;-;-;-;-;-;-
1514209136498;-;-;9.068527;0.23123169;-1.9877014;-;-;-;-;-;-;-;-;-;-;-;-;-;-;-
1514209136518;-;-;9.063736;0.2132721;-1.9936829;-;-;-;-;-;-;-;-;-;-;-;-;-;-;-
1514209136538;-;-;8.994308;0.17497253;-1.950592;-;-;-;-;-;-;-;-;-;-;-;-;-;-;-
1514209136559;-;-;9.017059;0.2013092;-1.9829102;-;-;-;-;-;-;-;-;-;-;-;-;-;-;-
1514209136578;-;-;8.963181;0.22045898;-1.9841156;-;-;-;-;-;-;-;-;-;-;-;-;-;-;-
1514209136598;-;-;8.98233;0.25756836;-1.9685516;-;-;-;-;-;-;-;-;-;-;-;-;-;-;-
1514209136618;-;-;9.011063;0.24081421;-1.9637604;-;-;-;-;-;-;-;-;-;-;-;-;-;-;-
1514209136639;-;-;9.007477;0.24559021;-1.9721375;-;-;-;-;-;-;-;-;-;-;-;-;-;-;-
1514209136658;-;-;8.995499;0.26235962;-1.9553833;-;-;-;-;-;-;-;-;-;-;-;-;-;-;-
1514209136678;-;-;8.972763;0.19293213;-1.9733429;-;-;-;-;-;-;-;-;-;-;-;-;-;-;-
1514209136699;-;-;8.950012;0.25038147;-1.9685516;-;-;-;-;-;-;-;-;-;-;-;-;-;-;-
1514209136718;-;-;8.953613;0.27792358;-1.990097;-;-;-;-;-;-;-;-;-;-;-;-;-;-;-
1514209136738;-;-;9.007477;0.2803192;-2.0008698;-;-;-;-;-;-;-;-;-;-;-;-;-;-;-
1514209136759;-;-;8.990723;0.29826355;-2.021225;-;-;-;-;-;-;-;-;-;-;-;-;-;-;-
1514209136778;-;-;9.024231;0.27192688;-1.98172;-;-;-;-;-;-;-;-;-;-;-;-;-;-;-
1514209136798;-;-;8.984726;0.2300415;-1.9757233;-;-;-;-;-;-;-;-;-;-;-;-;-;-;-
1514209136819;-;-;9.021835;0.24559021;-2.0080566;-;-;-;-;-;-;-;-;-;-;-;-;-;-;-
1514209136838;-;-;8.983536;0.27313232;-2.0008698;-;-;-;-;-;-;-;-;-;-;-;-;-;-;-
1514209136858;-;-;9.007477;0.30784607;-1.9709473;-;-;-;-;-;-;-;-;-;-;-;-;-;-;-
1514209136878;-;-;9.021835;0.30903625;-2.0044556;-;-;-;-;-;-;-;-;-;-;-;-;-;-;-
1514209136898;-;-;8.995499;0.2707367;-1.9984741;-;-;-;-;-;-;-;-;-;-;-;-;-;-;-
1514209136919;-;-;8.960785;0.25517273;-2.0032654;-;-;-;-;-;-;-;-;-;-;-;-;-;-;-
1514209136939;-;-;8.977554;0.24440002;-2.017624;-;-;-;-;-;-;-;-;-;-;-;-;-;-;-
1514209136959;-;-;8.976349;0.31143188;-2.029602;-;-;-;-;-;-;-;-;-;-;-;-;-;-;-
1514209136980;-;-;8.9991;0.29467773;-2.036789;-;-;-;-;-;-;-;-;-;-;-;-;-;-;-
1514209137000;-;-;8.990723;0.30545044;-2.021225;-;-;-;-;-;-;-;-;-;-;-;-;-;-;-
1514209137021;-;-;8.97995;0.25875854;-2.0750885;-;-;-;-;-;-;-;-;-;-;-;-;-;-;-
1514209137041;-;-;8.971558;0.31503296;-2.0032654;-;-;-;-;-;-;-;-;-;-;-;-;-;-;-
1514209137061;-;-;8.952408;0.35333252;-2.0798798;-;-;-;-;-;-;-;-;-;-;-;-;-;-;-
1514209137082;-;-;8.990723;0.34854126;-2.0906525;-;-;-;-;-;-;-;-;-;-;-;-;-;-;-
1514209137102;-;-;8.997894;0.2922821;-2.0439606;-;-;-;-;-;-;-;-;-;-;-;-;-;-;-
1514209137122;-;-;9.017059;0.22525024;-2.0487518;-;-;-;-;-;-;-;-;-;-;-;-;-;-;-
1514209137143;-;-;8.984726;0.2348175;-2.0152283;-;-;-;-;-;-;-;-;-;-;-;-;-;-;-
1514209137163;-;-;8.994308;0.24798584;-2.065506;-;-;-;-;-;-;-;-;-;-;-;-;-;-;-
1514209137183;-;-;8.994308;0.27792358;-2.053543;-;-;-;-;-;-;-;-;-;-;-;-;-;-;-
1514209137203;-;-;9.002686;0.27911377;-2.0439606;-;-;-;-;-;-;-;-;-;-;-;-;-;-;-
1514209137223;-;-;8.995499;0.24440002;-2.0595245;-;-;-;-;-;-;-;-;-;-;-;-;-;-;-
1514209137244;-;-;8.987122;0.24798584;-2.0822754;-;-;-;-;-;-;-;-;-;-;-;-;-;-;-
1514209137264;-;-;8.994308;0.23123169;-2.0631256;-;-;-;-;-;-;-;-;-;-;-;-;-;-;-
1514209137285;-;-;8.9787445;0.23242188;-2.0439606;-;-;-;-;-;-;-;-;-;-;-;-;-;-;-
1514209137305;-;-;8.991913;0.2695465;-2.084671;-;-;-;-;-;-;-;-;-;-;-;-;-;-;-
1514209137326;-;-;8.991913;0.28271484;-2.124176;-;-;-;-;-;-;-;-;-;-;-;-;-;-;-
1514209137347;-;-;9.036209;0.22883606;-2.0786743;-;-;-;-;-;-;-;-;-;-;-;-;-;-;-
1514209137367;-;-;8.987122;0.21447754;-2.0774841;-;-;-;-;-;-;-;-;-;-;-;-;-;-;-
1514209137388;-;-;9.014664;0.2743225;-2.0260162;-;-;-;-;-;-;-;-;-;-;-;-;-;-;-
1514209137408;-;-;8.9991;0.26115417;-2.08107;-;-;-;-;-;-;-;-;-;-;-;-;-;-;-
1514209137428;-;-;8.965576;0.24320984;-2.0511475;-;-;-;-;-;-;-;-;-;-;-;-;-;-;-
1514209137449;-;-;8.997894;0.22764587;-2.0906525;-;-;-;-;-;-;-;-;-;-;-;-;-;-;-
1514209137469;-;-;8.98233;0.24679565;-2.0715027;-;-;-;-;-;-;-;-;-;-;-;-;-;-;-
1514209137489;-;-;9.002686;0.23841858;-2.105011;-;-;-;-;-;-;-;-;-;-;-;-;-;-;-
1514209137509;-;-;9.00029;0.2695465;-2.1074066;-;-;-;-;-;-;-;-;-;-;-;-;-;-;-
1514209137530;-;-;8.955994;0.2515869;-2.0990295;-;-;-;-;-;-;-;-;-;-;-;-;-;-;-
1514209137550;-;-;8.957199;0.24559021;-2.0702972;-;-;-;-;-;-;-;-;-;-;-;-;-;-;-
1514209137570;-;-;8.988327;0.24919128;-2.0726929;-;-;-;-;-;-;-;-;-;-;-;-;-;-;-
1514209137590;-;-;9.012268;0.25517273;-2.0786743;-;-;-;-;-;-;-;-;-;-;-;-;-;-;-
1514209137611;-;-;9.005081;0.26475525;-2.100235;-;-;-;-;-;-;-;-;-;-;-;-;-;-;-
1514209137631;-;-;8.995499;0.2850952;-2.076294;-;-;-;-;-;-;-;-;-;-;-;-;-;-;-
1514209137651;-;-;9.00029;0.2922821;-2.0667114;-;-;-;-;-;-;-;-;-;-;-;-;-;-;-
1514209137671;-;-;9.024231;0.26834106;-2.0679016;-;-;-;-;-;-;-;-;-;-;-;-;-;-;-
1514209137692;-;-;8.955994;0.22883606;-2.0439606;-;-;-;-;-;-;-;-;-;-;-;-;-;-;-
1514209137712;-;-;8.934448;0.20610046;-2.017624;-;-;-;-;-;-;-;-;-;-;-;-;-;-;-
1514209137732;-;-;8.987122;0.26475525;-2.0164337;-;-;-;-;-;-;-;-;-;-;-;-;-;-;-
1514209137753;-;-;8.960785;0.36291504;-2.1265717;-;-;-;-;-;-;-;-;-;-;-;-;-;-;-
1514209137773;-;-;8.993118;0.38804626;-2.1169891;-;-;-;-;-;-;-;-;-;-;-;-;-;-;-
1514209137793;-;-;8.969162;0.3138275;-2.0355835;-;-;-;-;-;-;-;-;-;-;-;-;-;-;-
1514209137814;-;-;8.983536;0.28390503;-2.0008698;-;-;-;-;-;-;-;-;-;-;-;-;-;-;-
1514209137833;-;-;8.997894;0.28988647;-2.0643158;-;-;-;-;-;-;-;-;-;-;-;-;-;-;-
1514209137853;-;-;9.036209;0.3509369;-2.1074066;-;-;-;-;-;-;-;-;-;-;-;-;-;-;-
1514209137873;-;-;9.030228;0.32460022;-2.0511475;-;-;-;-;-;-;-;-;-;-;-;-;-;-;-
1514209137894;-;-;9.019455;0.32341003;-2.0702972;-;-;-;-;-;-;-;-;-;-;-;-;-;-;-
1514209137914;-;-;9.046982;0.33537292;-2.096634;-;-;-;-;-;-;-;-;-;-;-;-;-;-;-
1514209137934;-;-;8.995499;0.299469;-2.0439606;-;-;-;-;-;-;-;-;-;-;-;-;-;-;-
1514209137955;-;-;8.971558;0.26235962;-2.053543;-;-;-;-;-;-;-;-;-;-;-;-;-;-;-
1514209137975;-;-;8.941635;0.29588318;-2.0200195;-;-;-;-;-;-;-;-;-;-;-;-;-;-;-
1514209137995;-;-;8.955994;0.25398254;-2.0499573;-;-;-;-;-;-;-;-;-;-;-;-;-;-;-
1514209138015;-;-;8.98114;0.2815094;-2.08107;-;-;-;-;-;-;-;-;-;-;-;-;-;-;-
1514209138035;-;-;8.967972;0.25637817;-2.0738983;-;-;-;-;-;-;-;-;-;-;-;-;-;-;-
1514209138056;-;-;8.955994;0.29707336;-2.08107;-;-;-;-;-;-;-;-;-;-;-;-;-;-;-
1514209138076;-;-;8.959595;0.30903625;-2.0738983;-;-;-;-;-;-;-;-;-;-;-;-;-;-;-
1514209138096;-;-;8.9787445;0.38804626;-2.053543;-;-;-;-;-;-;-;-;-;-;-;-;-;-;-
1514209138117;-;-;9.020645;0.42515564;-2.0523376;-;-;-;-;-;-;-;-;-;-;-;-;-;-;-
1514209138137;-;-;8.997894;0.3282013;-2.0834656;-;-;-;-;-;-;-;-;-;-;-;-;-;-;-
1514209138158;-;-;8.916504;0.29707336;-2.0116425;-;-;-;-;-;-;-;-;-;-;-;-;-;-;-
1514209138177;-;-;8.898544;0.25517273;-1.9936829;-;-;-;-;-;-;-;-;-;-;-;-;-;-;-
1514209138197;-;-;8.905716;0.29707336;-2.0307922;-;-;-;-;-;-;-;-;-;-;-;-;-;-;-
1514209138217;-;-;8.940445;0.29348755;-2.1145935;-;-;-;-;-;-;-;-;-;-;-;-;-;-;-
1514209138238;-;-;8.983536;0.20848083;-2.105011;-;-;-;-;-;-;-;-;-;-;-;-;-;-;-
1514209138258;-;-;8.983536;0.25637817;-2.1313477;-;-;-;-;-;-;-;-;-;-;-;-;-;-;-
1514209138279;-;-;9.033813;0.29109192;-2.124176;-;-;-;-;-;-;-;-;-;-;-;-;-;-;-
1514209138299;-;-;9.029022;0.34016418;-2.1469116;-;-;-;-;-;-;-;-;-;-;-;-;-;-;-
1514209138320;-;-;9.013458;0.36889648;-2.100235;-;-;-;-;-;-;-;-;-;-;-;-;-;-;-
1514209138340;-;-;9.002686;0.41319275;-2.0679016;-;-;-;-;-;-;-;-;-;-;-;-;-;-;-
1514209138360;-;-;9.006287;0.32939148;-2.0427704;-;-;-;-;-;-;-;-;-;-;-;-;-;-;-
1514209138380;-;-;8.983536;0.23960876;-2.012848;-;-;-;-;-;-;-;-;-;-;-;-;-;-;-
1514209138401;-;-;8.941635;0.16299438;-1.926651;-;-;-;-;-;-;-;-;-;-;-;-;-;-;-
1514209138421;-;-;8.994308;0.122299194;-1.8895416;-;-;-;-;-;-;-;-;-;-;-;-;-;-;-
1514209138442;-;-;9.044586;0.16778564;-1.9972839;-;-;-;-;-;-;-;-;-;-;-;-;-;-;-
1514209138462;-;-;9.062546;0.14503479;-1.9948883;-;-;-;-;-;-;-;-;-;-;-;-;-;-;-
1514209138482;-;-;9.017059;0.08279419;-1.9242554;-;-;-;-;-;-;-;-;-;-;-;-;-;-;-
1514209138502;-;-;9.026627;0.09954834;-1.8691864;-;-;-;-;-;-;-;-;-;-;-;-;-;-;-
1514209138523;-;-;8.96199;0.18574524;-1.9481964;-;-;-;-;-;-;-;-;-;-;-;-;-;-;-
1514209138543;-;-;8.96199;0.1905365;-1.9745331;-;-;-;-;-;-;-;-;-;-;-;-;-;-;-
1514209138563;-;-;8.953613;0.19172668;-1.966156;-;-;-;-;-;-;-;-;-;-;-;-;-;-;-
1514209138583;-;-;8.991913;0.19891357;-2.0307922;-;-;-;-;-;-;-;-;-;-;-;-;-;-;-
1514209138603;-;-;9.046982;0.25398254;-2.0343933;-;-;-;-;-;-;-;-;-;-;-;-;-;-;-
