TimeStamp[ms];Prox[Cm];Lux[lux];AccX[m/s^2];AccY[m/s^2];AccZ[m/s^2];GyroX[rad/s];GyroY[rad/s];GyroZ[rad/s];MagnX[uT];MagnY[uT];MagnZ[uT];OrienYaw[degrees];OrienPitch[degrees];OrienRoll[degrees];Press[Pa];Temp[C°];Batt[%];Lat;Lng;Speed[m/s]
1514208559591;-;-;9.064941;-1.2040863;-0.38598633;-;-;-;-;-;-;-;-;-;-;-;-;-;-;-
1514208559601;-;-;8.880585;-1.1262817;-0.33929443;-;-;-;-;-;-;-;-;-;-;-;-;-;-;-
1514208559622;-;-;8.988327;-1.1011353;-0.5032959;-;-;-;-;-;-;-;-;-;-;-;-;-;-;-
1514208559642;-;-;8.856644;-0.9586792;-0.5128784;-;-;-;-;-;-;-;-;-;-;-;-;-;-;-
1514208559662;-;-;8.528641;-1.1298676;-1.6010437;-;-;-;-;-;-;-;-;-;-;-;-;-;-;-
1514208559683;-;-;10.28717;-1.9235535;-0.10346985;-;-;-;-;-;-;-;-;-;-;-;-;-;-;-
1514208559703;-;-;8.984726;-1.2747192;-0.7187805;-;-;-;-;-;-;-;-;-;-;-;-;-;-;-
1514208559723;-;-;9.131973;-1.1011353;-0.52963257;-;-;-;-;-;-;-;-;-;-;-;-;-;-;-
1514208559744;-;-;8.915298;-0.63067627;-1.2323303;-;-;-;-;-;-;-;-;-;-;-;-;-;-;-
1514208559764;-;-;9.062546;-0.30625916;-1.2562714;-;-;-;-;-;-;-;-;-;-;-;-;-;-;-
1514208559784;-;-;9.110428;-0.39006042;-0.54759216;-;-;-;-;-;-;-;-;-;-;-;-;-;-;-
1514208559804;-;-;9.649124;0.13905334;-2.0487518;-;-;-;-;-;-;-;-;-;-;-;-;-;-;-
1514208559825;-;-;10.479904;-0.19732666;-1.353241;-;-;-;-;-;-;-;-;-;-;-;-;-;-;-
1514208559859;-;-;9.45639;0.24919128;-1.7985535;-;-;-;-;-;-;-;-;-;-;-;-;-;-;-
1514208559865;-;-;9.523422;0.3317871;-1.7674408;-;-;-;-;-;-;-;-;-;-;-;-;-;-;-
1514208559886;-;-;9.39653;0.5592346;-1.0515747;-;-;-;-;-;-;-;-;-;-;-;-;-;-;-
1514208559906;-;-;9.635956;0.54008484;-1.5519562;-;-;-;-;-;-;-;-;-;-;-;-;-;-;-
1514208559926;-;-;8.572922;0.4287567;-0.535614;-;-;-;-;-;-;-;-;-;-;-;-;-;-;-
1514208559947;-;-;8.812347;-0.3254242;-0.20402527;-;-;-;-;-;-;-;-;-;-;-;-;-;-;-
1514208559967;-;-;9.213379;-0.78630066;-0.05319214;-;-;-;-;-;-;-;-;-;-;-;-;-;-;-
1514208559988;-;-;9.324707;-0.6989136;-0.2962036;-;-;-;-;-;-;-;-;-;-;-;-;-;-;-
1514208560007;-;-;9.55455;0.050476074;-1.0599518;-;-;-;-;-;-;-;-;-;-;-;-;-;-;-
1514208560027;-;-;9.63237;0.46228027;-0.94262695;-;-;-;-;-;-;-;-;-;-;-;-;-;-;-
1514208560048;-;-;9.128387;0.2886963;-0.17408752;-;-;-;-;-;-;-;-;-;-;-;-;-;-;-
1514208560068;-;-;8.934448;0.32341003;-0.40274048;-;-;-;-;-;-;-;-;-;-;-;-;-;-;-
1514208560088;-;-;8.984726;0.512558;-0.36921692;-;-;-;-;-;-;-;-;-;-;-;-;-;-;-
1514208560108;-;-;9.096069;0.1725769;-0.43626404;-;-;-;-;-;-;-;-;-;-;-;-;-;-;-
1514208560129;-;-;9.278015;0.30065918;-2.3647919;-;-;-;-;-;-;-;-;-;-;-;-;-;-;-
1514208560148;-;-;9.787979;1.1793365;-1.5435791;-;-;-;-;-;-;-;-;-;-;-;-;-;-;-
1514208560168;-;-;9.130783;1.4989624;-0.21479797;-;-;-;-;-;-;-;-;-;-;-;-;-;-;-
1514208560189;-;-;11.053314;0.9075928;-0.7403259;-;-;-;-;-;-;-;-;-;-;-;-;-;-;-
1514208560208;-;-;10.171051;0.52212524;-0.5176544;-;-;-;-;-;-;-;-;-;-;-;-;-;-;-
1514208560228;-;-;8.994308;0.20729065;-0.46858215;-;-;-;-;-;-;-;-;-;-;-;-;-;-;-
1514208560249;-;-;8.965576;0.4191742;-0.3261261;-;-;-;-;-;-;-;-;-;-;-;-;-;-;-
1514208560268;-;-;8.572922;-0.02734375;0.16827393;-;-;-;-;-;-;-;-;-;-;-;-;-;-;-
1514208560288;-;-;7.9360657;0.008575439;0.9427948;-;-;-;-;-;-;-;-;-;-;-;-;-;-;-
1514208560309;-;-;7.746933;0.31861877;0.55015564;-;-;-;-;-;-;-;-;-;-;-;-;-;-;-
1514208560329;-;-;8.400543;0.067230225;-0.06755066;-;-;-;-;-;-;-;-;-;-;-;-;-;-;-
1514208560349;-;-;8.774048;0.95428467;-0.33570862;-;-;-;-;-;-;-;-;-;-;-;-;-;-;-
1514208560369;-;-;9.049377;1.413971;-1.0791016;-;-;-;-;-;-;-;-;-;-;-;-;-;-;-
1514208560390;-;-;10.214157;1.2739105;-2.8663788;-;-;-;-;-;-;-;-;-;-;-;-;-;-;-
1514208560411;-;-;11.271194;0.63345337;-2.8220825;-;-;-;-;-;-;-;-;-;-;-;-;-;-;-
1514208560432;-;-;12.493439;1.0727997;-3.7390594;-;-;-;-;-;-;-;-;-;-;-;-;-;-;-
1514208560452;-;-;12.060089;1.2691193;-4.784134;-;-;-;-;-;-;-;-;-;-;-;-;-;-;-
1514208560472;-;-;11.46991;0.3030548;-3.176422;-;-;-;-;-;-;-;-;-;-;-;-;-;-;-
1514208560493;-;-;9.724533;-0.5959625;-3.0279846;-;-;-;-;-;-;-;-;-;-;-;-;-;-;-
1514208560513;-;-;6.9747925;-0.47265625;-3.2243042;-;-;-;-;-;-;-;-;-;-;-;-;-;-;-
1514208560533;-;-;6.4408875;-0.8748932;-1.5531616;-;-;-;-;-;-;-;-;-;-;-;-;-;-;-
1514208560553;-;-;7.149582;-2.5915375;-2.9250336;-;-;-;-;-;-;-;-;-;-;-;-;-;-;-
1514208560574;-;-;9.325912;-4.1022797;-4.8296204;-;-;-;-;-;-;-;-;-;-;-;-;-;-;-
1514208560594;-;-;6.275696;-1.6865234;-0.8504486;-;-;-;-;-;-;-;-;-;-;-;-;-;-;-
1514208560614;-;-;8.853058;-1.0831909;-2.8579865;-;-;-;-;-;-;-;-;-;-;-;-;-;-;-
1514208560634;-;-;10.180634;-0.36732483;-3.0698853;-;-;-;-;-;-;-;-;-;-;-;-;-;-;-
1514208560655;-;-;7.396179;-0.50857544;-2.207962;-;-;-;-;-;-;-;-;-;-;-;-;-;-;-
1514208560675;-;-;10.507446;-0.43675232;-2.207962;-;-;-;-;-;-;-;-;-;-;-;-;-;-;-
1514208560695;-;-;9.37738;-0.7515869;-2.1169891;-;-;-;-;-;-;-;-;-;-;-;-;-;-;-
1514208560716;-;-;8.758484;-1.700882;-1.2478943;-;-;-;-;-;-;-;-;-;-;-;-;-;-;-
1514208560736;-;-;11.54892;-2.7651062;-3.6444855;-;-;-;-;-;-;-;-;-;-;-;-;-;-;-
1514208560756;-;-;7.4129333;-1.2747192;-1.0515747;-;-;-;-;-;-;-;-;-;-;-;-;-;-;-
1514208560777;-;-;7.062195;-1.4243622;-1.0563507;-;-;-;-;-;-;-;-;-;-;-;-;-;-;-
1514208560796;-;-;7.0262756;-0.38287354;-0.6182251;-;-;-;-;-;-;-;-;-;-;-;-;-;-;-
1514208560816;-;-;7.463211;0.11152649;-0.48773193;-;-;-;-;-;-;-;-;-;-;-;-;-;-;-
1514208560837;-;-;6.3846283;-0.56243896;-0.19204712;-;-;-;-;-;-;-;-;-;-;-;-;-;-;-
1514208560857;-;-;8.149155;-0.6929321;-1.6010437;-;-;-;-;-;-;-;-;-;-;-;-;-;-;-
1514208560877;-;-;7.0609894;-0.5600586;-4.756592;-;-;-;-;-;-;-;-;-;-;-;-;-;-;-
1514208560898;-;-;8.936844;-0.25598145;-2.1816254;-;-;-;-;-;-;-;-;-;-;-;-;-;-;-
1514208560918;-;-;12.285141;-1.5344849;-0.15014648;-;-;-;-;-;-;-;-;-;-;-;-;-;-;-
1514208560938;-;-;9.430054;-2.1330414;-1.1652985;-;-;-;-;-;-;-;-;-;-;-;-;-;-;-
1514208560958;-;-;9.500687;-2.4466858;-1.1593018;-;-;-;-;-;-;-;-;-;-;-;-;-;-;-
1514208560979;-;-;9.13916;-1.9953766;-0.5284424;-;-;-;-;-;-;-;-;-;-;-;-;-;-;-
1514208560999;-;-;8.771652;-1.6877136;-0.5140686;-;-;-;-;-;-;-;-;-;-;-;-;-;-;-
1514208561019;-;-;8.24971;-1.8445435;-1.0623474;-;-;-;-;-;-;-;-;-;-;-;-;-;-;-
1514208561039;-;-;8.180283;-1.7942657;-1.0348053;-;-;-;-;-;-;-;-;-;-;-;-;-;-;-
1514208561060;-;-;8.146759;-1.5368805;-0.5416107;-;-;-;-;-;-;-;-;-;-;-;-;-;-;-
1514208561080;-;-;8.414917;-1.491394;-0.41830444;-;-;-;-;-;-;-;-;-;-;-;-;-;-;-
1514208561100;-;-;9.3151245;-1.6158905;-0.29859924;-;-;-;-;-;-;-;-;-;-;-;-;-;-;-
1514208561120;-;-;11.177826;-1.6506042;-0.06755066;-;-;-;-;-;-;-;-;-;-;-;-;-;-;-
1514208561141;-;-;12.643066;-1.6446228;-0.17648315;-;-;-;-;-;-;-;-;-;-;-;-;-;-;-
1514208561160;-;-;12.854965;-1.9714355;-0.7199707;-;-;-;-;-;-;-;-;-;-;-;-;-;-;-
1514208561181;-;-;10.79953;-2.7040558;-7.033478;-;-;-;-;-;-;-;-;-;-;-;-;-;-;-
1514208561200;-;-;10.283585;-2.6884918;-7.7589264;-;-;-;-;-;-;-;-;-;-;-;-;-;-;-
1514208561220;-;-;9.685028;-3.179306;-6.1595917;-;-;-;-;-;-;-;-;-;-;-;-;-;-;-
1514208561240;-;-;9.063736;-2.3664703;-4.520767;-;-;-;-;-;-;-;-;-;-;-;-;-;-;-
1514208561261;-;-;9.251678;-0.6821594;-4.11615;-;-;-;-;-;-;-;-;-;-;-;-;-;-;-
1514208561281;-;-;8.507095;1.027298;-3.8683472;-;-;-;-;-;-;-;-;-;-;-;-;-;-;-
1514208561301;-;-;7.3506927;1.3936157;-3.950943;-;-;-;-;-;-;-;-;-;-;-;-;-;-;-
1514208561322;-;-;7.414139;1.2523651;-2.922638;-;-;-;-;-;-;-;-;-;-;-;-;-;-;-
1514208561342;-;-;8.308365;0.64183044;-2.2103577;-;-;-;-;-;-;-;-;-;-;-;-;-;-;-
1514208561362;-;-;9.426468;-0.20690918;-2.3540192;-;-;-;-;-;-;-;-;-;-;-;-;-;-;-
1514208561382;-;-;10.536179;-0.30625916;-2.7514496;-;-;-;-;-;-;-;-;-;-;-;-;-;-;-
1514208561403;-;-;9.996277;-0.4343567;-2.7705994;-;-;-;-;-;-;-;-;-;-;-;-;-;-;-
1514208561423;-;-;8.116837;-0.58399963;-2.1433258;-;-;-;-;-;-;-;-;-;-;-;-;-;-;-
1514208561443;-;-;6.340332;-0.016571045;-1.4609833;-;-;-;-;-;-;-;-;-;-;-;-;-;-;-
1514208561464;-;-;5.6196747;0.03251648;-0.94981384;-;-;-;-;-;-;-;-;-;-;-;-;-;-;-
1514208561484;-;-;6.0266876;-0.32781982;-1.1784668;-;-;-;-;-;-;-;-;-;-;-;-;-;-;-
1514208561504;-;-;7.3267517;-0.9981842;-1.697998;-;-;-;-;-;-;-;-;-;-;-;-;-;-;-
1514208561525;-;-;7.9205017;-1.4231567;-2.0319977;-;-;-;-;-;-;-;-;-;-;-;-;-;-;-
1514208561545;-;-;8.226959;-1.1370544;-1.9577789;-;-;-;-;-;-;-;-;-;-;-;-;-;-;-
1514208561565;-;-;7.9181213;-0.5313263;-1.8799591;-;-;-;-;-;-;-;-;-;-;-;-;-;-;-
1514208561586;-;-;6.977188;-0.011779785;-1.5830841;-;-;-;-;-;-;-;-;-;-;-;-;-;-;-
1514208561606;-;-;5.7525635;0.11392212;-1.2969818;-;-;-;-;-;-;-;-;-;-;-;-;-;-;-
1514208561626;-;-;4.999588;0.17376709;-0.8767853;-;-;-;-;-;-;-;-;-;-;-;-;-;-;-
1514208561647;-;-;5.1516113;0.3509369;-0.8456726;-;-;-;-;-;-;-;-;-;-;-;-;-;-;-
1514208561667;-;-;6.671936;0.23721313;-1.4837189;-;-;-;-;-;-;-;-;-;-;-;-;-;-;-
1514208561687;-;-;8.255692;0.31622314;-2.527588;-;-;-;-;-;-;-;-;-;-;-;-;-;-;-
1514208561707;-;-;9.07811;0.3425598;-3.1632538;-;-;-;-;-;-;-;-;-;-;-;-;-;-;-
1514208561728;-;-;8.606445;-0.42837524;-1.8512268;-;-;-;-;-;-;-;-;-;-;-;-;-;-;-
1514208561748;-;-;8.422089;-0.6869507;-0.9689636;-;-;-;-;-;-;-;-;-;-;-;-;-;-;-
1514208561768;-;-;8.867416;-0.20451355;-1.8799591;-;-;-;-;-;-;-;-;-;-;-;-;-;-;-
1514208561788;-;-;9.850235;0.9171753;-2.7059631;-;-;-;-;-;-;-;-;-;-;-;-;-;-;-
1514208561809;-;-;10.615189;2.0448456;-2.7083588;-;-;-;-;-;-;-;-;-;-;-;-;-;-;-
1514208561829;-;-;10.157883;1.5025482;-3.377533;-;-;-;-;-;-;-;-;-;-;-;-;-;-;-
1514208561849;-;-;7.908539;-0.047698975;-4.475281;-;-;-;-;-;-;-;-;-;-;-;-;-;-;-
1514208561870;-;-;5.786072;-2.3365479;-5.240219;-;-;-;-;-;-;-;-;-;-;-;-;-;-;-
1514208561890;-;-;4.848755;-2.8237762;-3.4026794;-;-;-;-;-;-;-;-;-;-;-;-;-;-;-
1514208561910;-;-;5.300049;-2.3975983;-1.3173218;-;-;-;-;-;-;-;-;-;-;-;-;-;-;-
1514208561931;-;-;8.315552;-2.7890472;-5.907013;-;-;-;-;-;-;-;-;-;-;-;-;-;-;-
1514208561951;-;-;15.56041;-3.0105133;-4.1341095;-;-;-;-;-;-;-;-;-;-;-;-;-;-;-
1514208561971;-;-;21.029953;-2.5867462;-3.097412;-;-;-;-;-;-;-;-;-;-;-;-;-;-;-
1514208561992;-;-;24.47641;-3.103897;-4.259796;-;-;-;-;-;-;-;-;-;-;-;-;-;-;-
1514208562012;-;-;18.929047;-2.7184296;-1.0395966;-;-;-;-;-;-;-;-;-;-;-;-;-;-;-
1514208562032;-;-;13.58638;-1.8026428;-2.4821014;-;-;-;-;-;-;-;-;-;-;-;-;-;-;-
1514208562052;-;-;7.746933;-1.4686584;-0.90911865;-;-;-;-;-;-;-;-;-;-;-;-;-;-;-
1514208562073;-;-;4.17717;-0.8353882;-0.8097534;-;-;-;-;-;-;-;-;-;-;-;-;-;-;-
1514208562093;-;-;2.6245422;-0.52293396;-1.8404541;-;-;-;-;-;-;-;-;-;-;-;-;-;-;-
1514208562113;-;-;2.4868622;0.5376892;-2.6245575;-;-;-;-;-;-;-;-;-;-;-;-;-;-;-
1514208562134;-;-;3.8168488;1.6462097;-1.6285706;-;-;-;-;-;-;-;-;-;-;-;-;-;-;-
1514208562154;-;-;5.0690155;1.5983276;-1.2131805;-;-;-;-;-;-;-;-;-;-;-;-;-;-;-
1514208562174;-;-;6.5270844;0.28988647;-2.231903;-;-;-;-;-;-;-;-;-;-;-;-;-;-;-
1514208562194;-;-;8.3897705;-1.3992157;-2.2414856;-;-;-;-;-;-;-;-;-;-;-;-;-;-;-
1514208562215;-;-;7.722992;-1.8660889;-2.16008;-;-;-;-;-;-;-;-;-;-;-;-;-;-;-
1514208562235;-;-;7.032257;-1.9989624;-1.6800537;-;-;-;-;-;-;-;-;-;-;-;-;-;-;-
1514208562256;-;-;7.4129333;-1.9738312;-0.94862366;-;-;-;-;-;-;-;-;-;-;-;-;-;-;-
1514208562276;-;-;8.422089;-1.8840485;-0.91989136;-;-;-;-;-;-;-;-;-;-;-;-;-;-;-
1514208562296;-;-;8.679474;-2.0037537;-1.7159576;-;-;-;-;-;-;-;-;-;-;-;-;-;-;-
1514208562317;-;-;8.492722;-1.696106;-2.1900177;-;-;-;-;-;-;-;-;-;-;-;-;-;-;-
1514208562337;-;-;8.410126;-0.783905;-1.8739777;-;-;-;-;-;-;-;-;-;-;-;-;-;-;-
1514208562357;-;-;8.374207;-0.27275085;-1.5292053;-;-;-;-;-;-;-;-;-;-;-;-;-;-;-
1514208562378;-;-;8.704605;-0.7084961;-1.4968872;-;-;-;-;-;-;-;-;-;-;-;-;-;-;-
1514208562398;-;-;8.788406;-1.724823;-1.3256989;-;-;-;-;-;-;-;-;-;-;-;-;-;-;-
1514208562418;-;-;8.307175;-2.535263;-1.0551605;-;-;-;-;-;-;-;-;-;-;-;-;-;-;-
1514208562438;-;-;8.418503;-2.818985;-2.9896698;-;-;-;-;-;-;-;-;-;-;-;-;-;-;-
1514208562458;-;-;9.390549;-1.372879;-4.2454376;-;-;-;-;-;-;-;-;-;-;-;-;-;-;-
1514208562478;-;-;10.762421;1.2966461;-4.171219;-;-;-;-;-;-;-;-;-;-;-;-;-;-;-
1514208562499;-;-;9.716156;4.1002655;-2.978897;-;-;-;-;-;-;-;-;-;-;-;-;-;-;-
1514208562520;-;-;11.538147;2.6266327;-1.7662354;-;-;-;-;-;-;-;-;-;-;-;-;-;-;-
1514208562541;-;-;14.267532;0.03491211;-2.3037415;-;-;-;-;-;-;-;-;-;-;-;-;-;-;-
1514208562562;-;-;16.64737;-0.53970337;-5.5885773;-;-;-;-;-;-;-;-;-;-;-;-;-;-;-
1514208562583;-;-;17.886368;-0.5097656;-2.531189;-;-;-;-;-;-;-;-;-;-;-;-;-;-;-
1514208562603;-;-;11.995438;0.61190796;-1.1210022;-;-;-;-;-;-;-;-;-;-;-;-;-;-;-
1514208562623;-;-;8.118027;1.1769409;-1.006073;-;-;-;-;-;-;-;-;-;-;-;-;-;-;-
1514208562643;-;-;5.3072357;1.6426086;-1.1928253;-;-;-;-;-;-;-;-;-;-;-;-;-;-;-
1514208562663;-;-;3.940155;1.3134155;-0.9629822;-;-;-;-;-;-;-;-;-;-;-;-;-;-;-
1514208562683;-;-;3.754593;0.7878876;-0.9833374;-;-;-;-;-;-;-;-;-;-;-;-;-;-;-
1514208562704;-;-;5.1288757;0.5771942;-0.9438324;-;-;-;-;-;-;-;-;-;-;-;-;-;-;-
1514208562724;-;-;6.94487;-0.21647644;-1.3316956;-;-;-;-;-;-;-;-;-;-;-;-;-;-;-
1514208562744;-;-;8.291611;-1.6865234;-2.1277618;-;-;-;-;-;-;-;-;-;-;-;-;-;-;-
1514208562765;-;-;8.698624;-2.5077362;-2.4019012;-;-;-;-;-;-;-;-;-;-;-;-;-;-;-
1514208562785;-;-;7.403366;-1.2064819;-1.5280151;-;-;-;-;-;-;-;-;-;-;-;-;-;-;-
1514208562805;-;-;6.1883087;0.417984;-1.5818787;-;-;-;-;-;-;-;-;-;-;-;-;-;-;-
1514208562825;-;-;5.5550385;1.130249;-1.6860352;-;-;-;-;-;-;-;-;-;-;-;-;-;-;-
1514208562846;-;-;5.568207;1.1194763;-1.1281891;-;-;-;-;-;-;-;-;-;-;-;-;-;-;-
1514208562866;-;-;6.1763306;1.4881897;0.14074707;-;-;-;-;-;-;-;-;-;-;-;-;-;-;-
1514208562886;-;-;7.174713;1.6725464;-0.788208;-;-;-;-;-;-;-;-;-;-;-;-;-;-;-
1514208562907;-;-;7.763687;1.4869843;-2.7454681;-;-;-;-;-;-;-;-;-;-;-;-;-;-;-
1514208562927;-;-;8.614822;0.9171753;-2.9537659;-;-;-;-;-;-;-;-;-;-;-;-;-;-;-
1514208562947;-;-;9.17746;0.6214905;-0.94262695;-;-;-;-;-;-;-;-;-;-;-;-;-;-;-
1514208562968;-;-;9.0972595;0.05645752;-1.7746124;-;-;-;-;-;-;-;-;-;-;-;-;-;-;-
1514208562988;-;-;9.029022;-0.67855835;-3.9880524;-;-;-;-;-;-;-;-;-;-;-;-;-;-;-
1514208563008;-;-;8.325134;-1.8708801;-5.1396637;-;-;-;-;-;-;-;-;-;-;-;-;-;-;-
1514208563029;-;-;8.316742;-2.9375;-5.206711;-;-;-;-;-;-;-;-;-;-;-;-;-;-;-
1514208563049;-;-;9.252884;-3.4977417;-4.124527;-;-;-;-;-;-;-;-;-;-;-;-;-;-;-
1514208563069;-;-;11.073669;-1.7559509;-1.8224945;-;-;-;-;-;-;-;-;-;-;-;-;-;-;-
1514208563090;-;-;12.520966;0.03730774;-1.4178772;-;-;-;-;-;-;-;-;-;-;-;-;-;-;-
1514208563109;-;-;14.034103;-0.85453796;-6.796463;-;-;-;-;-;-;-;-;-;-;-;-;-;-;-
1514208563129;-;-;18.44661;-1.5991364;-1.0144653;-;-;-;-;-;-;-;-;-;-;-;-;-;-;-
1514208563149;-;-;20.321274;-6.783783;-3.784546;-;-;-;-;-;-;-;-;-;-;-;-;-;-;-
1514208563170;-;-;18.531616;-6.484497;-2.2798004;-;-;-;-;-;-;-;-;-;-;-;-;-;-;-
1514208563190;-;-;11.94397;-2.8261566;-1.7794037;-;-;-;-;-;-;-;-;-;-;-;-;-;-;-
1514208563210;-;-;5.968033;-0.038116455;-1.9194641;-;-;-;-;-;-;-;-;-;-;-;-;-;-;-
1514208563231;-;-;2.2223053;1.7886658;-1.7853851;-;-;-;-;-;-;-;-;-;-;-;-;-;-;-
1514208563251;-;-;1.5435486;1.7599335;-1.0348053;-;-;-;-;-;-;-;-;-;-;-;-;-;-;-
1514208563271;-;-;4.700302;-0.5253296;-2.16008;-;-;-;-;-;-;-;-;-;-;-;-;-;-;-
1514208563292;-;-;6.6384125;-1.4399261;-2.1217804;-;-;-;-;-;-;-;-;-;-;-;-;-;-;-
1514208563312;-;-;5.636444;-1.8804474;-1.9625702;-;-;-;-;-;-;-;-;-;-;-;-;-;-;-
1514208563332;-;-;5.007965;-1.7284241;-2.3623962;-;-;-;-;-;-;-;-;-;-;-;-;-;-;-
1514208563353;-;-;5.0462646;-1.7032776;-2.029602;-;-;-;-;-;-;-;-;-;-;-;-;-;-;-
1514208563373;-;-;6.6779175;-1.7846832;-1.4454193;-;-;-;-;-;-;-;-;-;-;-;-;-;-;-
1514208563393;-;-;8.319138;-1.5153351;-0.85884094;-;-;-;-;-;-;-;-;-;-;-;-;-;-;-
1514208563413;-;-;8.406525;-1.210083;-0.8887634;-;-;-;-;-;-;-;-;-;-;-;-;-;-;-
1514208563434;-;-;7.803192;-1.2759247;-0.8947449;-;-;-;-;-;-;-;-;-;-;-;-;-;-;-
1514208563454;-;-;7.6810913;-1.7164459;-0.74391174;-;-;-;-;-;-;-;-;-;-;-;-;-;-;-
1514208563474;-;-;8.953613;-1.6697693;-1.1269836;-;-;-;-;-;-;-;-;-;-;-;-;-;-;-
1514208563494;-;-;10.183029;-0.58639526;-1.5962524;-;-;-;-;-;-;-;-;-;-;-;-;-;-;-
1514208563515;-;-;10.651093;-0.02015686;-1.6812439;-;-;-;-;-;-;-;-;-;-;-;-;-;-;-
1514208563535;-;-;9.861008;-0.41760254;-2.0858612;-;-;-;-;-;-;-;-;-;-;-;-;-;-;-
1514208563555;-;-;8.1371765;-0.5217438;-4.097;-;-;-;-;-;-;-;-;-;-;-;-;-;-;-
1514208563576;-;-;6.596512;-0.3972473;-4.998413;-;-;-;-;-;-;-;-;-;-;-;-;-;-;-
1514208563596;-;-;7.648773;0.28390503;-4.954117;-;-;-;-;-;-;-;-;-;-;-;-;-;-;-
1514208563617;-;-;10.992264;2.0388489;-3.0615082;-;-;-;-;-;-;-;-;-;-;-;-;-;-;-
1514208563637;-;-;13.781509;1.5659943;-2.8424377;-;-;-;-;-;-;-;-;-;-;-;-;-;-;-
1514208563657;-;-;15.63942;-0.26914978;-2.4569702;-;-;-;-;-;-;-;-;-;-;-;-;-;-;-
1514208563678;-;-;14.705673;1.279892;-6.5426636;-;-;-;-;-;-;-;-;-;-;-;-;-;-;-
1514208563697;-;-;16.603088;2.69487;-4.744629;-;-;-;-;-;-;-;-;-;-;-;-;-;-;-
1514208563717;-;-;15.113892;0.40242004;-2.282196;-;-;-;-;-;-;-;-;-;-;-;-;-;-;-
1514208563737;-;-;11.620743;-0.8688965;-1.322113;-;-;-;-;-;-;-;-;-;-;-;-;-;-;-
1514208563758;-;-;8.424484;-0.07522583;-2.8065186;-;-;-;-;-;-;-;-;-;-;-;-;-;-;-
1514208563778;-;-;5.335968;1.5983276;-2.0355835;-;-;-;-;-;-;-;-;-;-;-;-;-;-;-
1514208563798;-;-;2.9633179;1.892807;-0.76187134;-;-;-;-;-;-;-;-;-;-;-;-;-;-;-
1514208563819;-;-;1.402298;0.22525024;-1.0084686;-;-;-;-;-;-;-;-;-;-;-;-;-;-;-
1514208563839;-;-;1.9146576;-0.81503296;-0.9581909;-;-;-;-;-;-;-;-;-;-;-;-;-;-;-
1514208563859;-;-;5.866287;-1.0221252;-1.4549866;-;-;-;-;-;-;-;-;-;-;-;-;-;-;-
1514208563880;-;-;8.110855;-0.8533478;-2.3384552;-;-;-;-;-;-;-;-;-;-;-;-;-;-;-
1514208563900;-;-;9.424072;-0.44631958;-1.9769287;-;-;-;-;-;-;-;-;-;-;-;-;-;-;-
1514208563921;-;-;10.348236;-0.42358398;-1.6956024;-;-;-;-;-;-;-;-;-;-;-;-;-;-;-
1514208563941;-;-;9.793976;-0.6474457;-2.3348541;-;-;-;-;-;-;-;-;-;-;-;-;-;-;-
1514208563961;-;-;7.0538025;-0.083602905;-2.5024567;-;-;-;-;-;-;-;-;-;-;-;-;-;-;-
1514208563982;-;-;5.035492;0.9901886;-1.5591431;-;-;-;-;-;-;-;-;-;-;-;-;-;-;-
1514208564002;-;-;4.453705;2.011322;-0.47816467;-;-;-;-;-;-;-;-;-;-;-;-;-;-;-
1514208564022;-;-;6.427719;2.473404;-0.6014557;-;-;-;-;-;-;-;-;-;-;-;-;-;-;-
1514208564043;-;-;8.313156;1.8425293;-2.4222565;-;-;-;-;-;-;-;-;-;-;-;-;-;-;-
1514208564064;-;-;9.182251;0.6143036;-2.7897644;-;-;-;-;-;-;-;-;-;-;-;-;-;-;-
1514208564083;-;-;8.928467;-0.1985321;-1.6309662;-;-;-;-;-;-;-;-;-;-;-;-;-;-;-
1514208564103;-;-;7.8403015;-0.12908936;-2.076294;-;-;-;-;-;-;-;-;-;-;-;-;-;-;-
1514208564124;-;-;6.3032227;-1.0484619;-4.6165314;-;-;-;-;-;-;-;-;-;-;-;-;-;-;-
1514208564143;-;-;7.1759186;-2.182129;-4.579422;-;-;-;-;-;-;-;-;-;-;-;-;-;-;-
1514208564163;-;-;9.245697;-3.601883;-2.895111;-;-;-;-;-;-;-;-;-;-;-;-;-;-;-
1514208564183;-;-;10.349426;-3.1577606;-1.2227478;-;-;-;-;-;-;-;-;-;-;-;-;-;-;-
1514208564204;-;-;12.391678;-2.3066254;-1.2215576;-;-;-;-;-;-;-;-;-;-;-;-;-;-;-
1514208564223;-;-;18.000092;-4.24234;-3.3883057;-;-;-;-;-;-;-;-;-;-;-;-;-;-;-
1514208564243;-;-;24.626053;-7.3069153;-4.9876404;-;-;-;-;-;-;-;-;-;-;-;-;-;-;-
1514208564264;-;-;25.399384;-3.2966309;-4.4513397;-;-;-;-;-;-;-;-;-;-;-;-;-;-;-
1514208564283;-;-;15.077972;1.0811768;-1.1988068;-;-;-;-;-;-;-;-;-;-;-;-;-;-;-
1514208564303;-;-;6.9496613;1.0763855;-1.5878754;-;-;-;-;-;-;-;-;-;-;-;-;-;-;-
1514208564324;-;-;2.343216;0.21208191;-2.3312683;-;-;-;-;-;-;-;-;-;-;-;-;-;-;-
1514208564344;-;-;-0.9703522;0.07081604;-1.104248;-;-;-;-;-;-;-;-;-;-;-;-;-;-;-
1514208564364;-;-;2.497635;-1.7978516;-1.6704712;-;-;-;-;-;-;-;-;-;-;-;-;-;-;-
1514208564385;-;-;6.7736816;-1.1897278;-2.302536;-;-;-;-;-;-;-;-;-;-;-;-;-;-;-
1514208564405;-;-;8.359848;-0.73483276;-1.9541779;-;-;-;-;-;-;-;-;-;-;-;-;-;-;-
1514208564425;-;-;7.2872467;-0.9610748;-1.3041534;-;-;-;-;-;-;-;-;-;-;-;-;-;-;-
1514208564445;-;-;6.683899;-0.96347046;-1.8105316;-;-;-;-;-;-;-;-;-;-;-;-;-;-;-
1514208564466;-;-;7.0298615;-1.1562042;-2.2965546;-;-;-;-;-;-;-;-;-;-;-;-;-;-;-
1514208564486;-;-;8.035431;-1.4626617;-1.8392639;-;-;-;-;-;-;-;-;-;-;-;-;-;-;-
1514208564506;-;-;8.76207;-1.4949799;-1.7961731;-;-;-;-;-;-;-;-;-;-;-;-;-;-;-
1514208564527;-;-;7.5350494;-1.1669769;-1.1233978;-;-;-;-;-;-;-;-;-;-;-;-;-;-;-
1514208564547;-;-;6.5342712;-1.1669769;-0.2973938;-;-;-;-;-;-;-;-;-;-;-;-;-;-;-
1514208564568;-;-;7.2501373;-1.2208557;0.038986206;-;-;-;-;-;-;-;-;-;-;-;-;-;-;-
1514208564588;-;-;8.480759;-1.0496674;-0.3871765;-;-;-;-;-;-;-;-;-;-;-;-;-;-;-
1514208564607;-;-;9.45639;-0.7024994;-1.2909851;-;-;-;-;-;-;-;-;-;-;-;-;-;-;-
1514208564627;-;-;8.917694;-0.700119;-1.3712006;-;-;-;-;-;-;-;-;-;-;-;-;-;-;-
1514208564647;-;-;8.025848;-1.3573151;-1.9924927;-;-;-;-;-;-;-;-;-;-;-;-;-;-;-
1514208564668;-;-;6.8598785;-1.0269165;-5.231842;-;-;-;-;-;-;-;-;-;-;-;-;-;-;-
1514208564688;-;-;6.533066;0.0181427;-5.5897827;-;-;-;-;-;-;-;-;-;-;-;-;-;-;-
1514208564708;-;-;8.210205;1.7084503;-3.93898;-;-;-;-;-;-;-;-;-;-;-;-;-;-;-
1514208564729;-;-;11.387314;3.0743408;-3.9186249;-;-;-;-;-;-;-;-;-;-;-;-;-;-;-
1514208564749;-;-;15.735184;0.12109375;-2.0355835;-;-;-;-;-;-;-;-;-;-;-;-;-;-;-
1514208564769;-;-;16.795807;-0.3086548;-7.4117584;-;-;-;-;-;-;-;-;-;-;-;-;-;-;-
1514208564790;-;-;21.141296;2.3764343;-5.2893066;-;-;-;-;-;-;-;-;-;-;-;-;-;-;-
1514208564810;-;-;19.856796;1.145813;-4.2885284;-;-;-;-;-;-;-;-;-;-;-;-;-;-;-
1514208564830;-;-;13.454712;-0.11831665;-3.4361877;-;-;-;-;-;-;-;-;-;-;-;-;-;-;-
1514208564851;-;-;7.9540253;0.024139404;-3.4026794;-;-;-;-;-;-;-;-;-;-;-;-;-;-;-
1514208564871;-;-;4.280121;0.8776703;-3.5547028;-;-;-;-;-;-;-;-;-;-;-;-;-;-;-
1514208564891;-;-;2.743042;1.5659943;-2.4078827;-;-;-;-;-;-;-;-;-;-;-;-;-;-;-
1514208564912;-;-;2.9417725;0.9818115;-1.7949677;-;-;-;-;-;-;-;-;-;-;-;-;-;-;-
1514208564931;-;-;3.76297;-0.59117126;-1.0958557;-;-;-;-;-;-;-;-;-;-;-;-;-;-;-
1514208564951;-;-;5.1647797;-1.704483;-1.0156555;-;-;-;-;-;-;-;-;-;-;-;-;-;-;-
1514208564972;-;-;6.378647;-1.6877136;-1.3987274;-;-;-;-;-;-;-;-;-;-;-;-;-;-;-
1514208564992;-;-;6.904175;-1.3226013;-1.7494812;-;-;-;-;-;-;-;-;-;-;-;-;-;-;-
1514208565012;-;-;8.1527405;-0.41281128;-1.7806091;-;-;-;-;-;-;-;-;-;-;-;-;-;-;-
1514208565032;-;-;8.576523;0.33059692;-2.2091675;-;-;-;-;-;-;-;-;-;-;-;-;-;-;-
1514208565053;-;-;7.9588165;0.20968628;-3.2817688;-;-;-;-;-;-;-;-;-;-;-;-;-;-;-
1514208565072;-;-;5.9189606;-0.58758545;-2.5419617;-;-;-;-;-;-;-;-;-;-;-;-;-;-;-
1514208565092;-;-;4.4872284;-0.73483276;-1.0910797;-;-;-;-;-;-;-;-;-;-;-;-;-;-;-
1514208565112;-;-;4.2944946;0.26115417;-1.3640137;-;-;-;-;-;-;-;-;-;-;-;-;-;-;-
1514208565133;-;-;6.9855804;1.109909;-2.0858612;-;-;-;-;-;-;-;-;-;-;-;-;-;-;-
1514208565153;-;-;9.388153;1.264328;-3.097412;-;-;-;-;-;-;-;-;-;-;-;-;-;-;-
1514208565173;-;-;10.250061;1.461853;-3.7989197;-;-;-;-;-;-;-;-;-;-;-;-;-;-;-
1514208565194;-;-;9.463577;0.84295654;-3.4230194;-;-;-;-;-;-;-;-;-;-;-;-;-;-;-
1514208565213;-;-;8.076126;-0.3146515;-4.282547;-;-;-;-;-;-;-;-;-;-;-;-;-;-;-
1514208565233;-;-;7.2190094;-0.5899811;-5.595764;-;-;-;-;-;-;-;-;-;-;-;-;-;-;-
1514208565254;-;-;8.375412;-0.5540619;-5.1743774;-;-;-;-;-;-;-;-;-;-;-;-;-;-;-
1514208565274;-;-;9.476746;-0.31105042;-3.4397888;-;-;-;-;-;-;-;-;-;-;-;-;-;-;-
1514208565294;-;-;11.155075;-1.8493347;-3.8551788;-;-;-;-;-;-;-;-;-;-;-;-;-;-;-
1514208565315;-;-;15.468231;-4.448242;-5.7286377;-;-;-;-;-;-;-;-;-;-;-;-;-;-;-
1514208565335;-;-;20.832443;-4.8779907;-2.5287933;-;-;-;-;-;-;-;-;-;-;-;-;-;-;-
1514208565355;-;-;21.764984;-3.012909;-2.6604767;-;-;-;-;-;-;-;-;-;-;-;-;-;-;-
1514208565376;-;-;14.402817;-1.3668976;-1.3783722;-;-;-;-;-;-;-;-;-;-;-;-;-;-;-
1514208565397;-;-;10.180634;-1.3585205;-0.75109863;-;-;-;-;-;-;-;-;-;-;-;-;-;-;-
1514208565417;-;-;6.691086;-2.024109;-1.3245087;-;-;-;-;-;-;-;-;-;-;-;-;-;-;-
1514208565438;-;-;3.6217194;-2.0456543;-1.1928253;-;-;-;-;-;-;-;-;-;-;-;-;-;-;-
1514208565458;-;-;7.8367157;-1.9666443;-2.4306335;-;-;-;-;-;-;-;-;-;-;-;-;-;-;-
1514208565478;-;-;9.5737;-1.0101624;-3.6373138;-;-;-;-;-;-;-;-;-;-;-;-;-;-;-
1514208565499;-;-;9.388153;0.16059875;-2.570694;-;-;-;-;-;-;-;-;-;-;-;-;-;-;-
1514208565519;-;-;7.1088715;0.29467773;-1.3628082;-;-;-;-;-;-;-;-;-;-;-;-;-;-;-
1514208565539;-;-;5.608902;-0.42118835;-0.50808716;-;-;-;-;-;-;-;-;-;-;-;-;-;-;-
1514208565560;-;-;5.533493;-1.6637726;-0.47816467;-;-;-;-;-;-;-;-;-;-;-;-;-;-;-
1514208565579;-;-;6.3175964;-2.4610443;-1.674057;-;-;-;-;-;-;-;-;-;-;-;-;-;-;-
1514208565600;-;-;6.044647;-2.3700714;-1.8224945;-;-;-;-;-;-;-;-;-;-;-;-;-;-;-
1514208565620;-;-;5.7166443;-2.1079102;-1.4214783;-;-;-;-;-;-;-;-;-;-;-;-;-;-;-
1514208565640;-;-;5.9033966;-1.6985016;-0.4063263;-;-;-;-;-;-;-;-;-;-;-;-;-;-;-
1514208565661;-;-;7.348297;-1.8636932;-0.03881836;-;-;-;-;-;-;-;-;-;-;-;-;-;-;-
1514208565680;-;-;8.351471;-1.8217926;-0.22676086;-;-;-;-;-;-;-;-;-;-;-;-;-;-;-
1514208565700;-;-;8.855438;-1.4770355;-0.7977905;-;-;-;-;-;-;-;-;-;-;-;-;-;-;-
1514208565721;-;-;8.954803;-1.0604401;-1.1533203;-;-;-;-;-;-;-;-;-;-;-;-;-;-;-
1514208565741;-;-;9.127182;-0.5432892;-0.86361694;-;-;-;-;-;-;-;-;-;-;-;-;-;-;-
1514208565762;-;-;9.226547;-0.65940857;-0.2459259;-;-;-;-;-;-;-;-;-;-;-;-;-;-;-
1514208565782;-;-;8.253296;-1.5273132;-1.0862885;-;-;-;-;-;-;-;-;-;-;-;-;-;-;-
1514208565802;-;-;7.36026;-1.7882843;-4.2322693;-;-;-;-;-;-;-;-;-;-;-;-;-;-;-
1514208565823;-;-;7.2788696;-1.1179047;-4.9205933;-;-;-;-;-;-;-;-;-;-;-;-;-;-;-
1514208565843;-;-;8.708206;0.63105774;-4.45253;-;-;-;-;-;-;-;-;-;-;-;-;-;-;-
1514208565863;-;-;10.442795;3.1330109;-3.270996;-;-;-;-;-;-;-;-;-;-;-;-;-;-;-
1514208565884;-;-;11.940369;3.948227;-3.9401703;-;-;-;-;-;-;-;-;-;-;-;-;-;-;-
1514208565904;-;-;12.337814;1.5695953;-3.93898;-;-;-;-;-;-;-;-;-;-;-;-;-;-;-
1514208565924;-;-;11.8446045;-0.51216125;-2.5527344;-;-;-;-;-;-;-;-;-;-;-;-;-;-;-
1514208565945;-;-;14.25676;-0.8270111;-5.0522766;-;-;-;-;-;-;-;-;-;-;-;-;-;-;-
1514208565965;-;-;16.266693;0.37608337;-3.9677124;-;-;-;-;-;-;-;-;-;-;-;-;-;-;-
1514208565985;-;-;14.211273;0.23841858;-2.7777863;-;-;-;-;-;-;-;-;-;-;-;-;-;-;-
1514208566006;-;-;9.798767;0.052871704;-2.522812;-;-;-;-;-;-;-;-;-;-;-;-;-;-;-
1514208566025;-;-;6.260132;-0.25120544;-2.6353302;-;-;-;-;-;-;-;-;-;-;-;-;-;-;-
1514208566045;-;-;3.4206085;-0.3074646;-2.0786743;-;-;-;-;-;-;-;-;-;-;-;-;-;-;-
1514208566066;-;-;2.8328247;-0.2715454;-0.51885986;-;-;-;-;-;-;-;-;-;-;-;-;-;-;-
1514208566087;-;-;4.6452484;-0.5708313;0.39453125;-;-;-;-;-;-;-;-;-;-;-;-;-;-;-
1514208566107;-;-;6.7796783;-1.2663422;-0.69721985;-;-;-;-;-;-;-;-;-;-;-;-;-;-;-
1514208566127;-;-;7.93367;-1.2986603;-2.7466583;-;-;-;-;-;-;-;-;-;-;-;-;-;-;-
1514208566147;-;-;7.988739;-0.5145569;-2.6844177;-;-;-;-;-;-;-;-;-;-;-;-;-;-;-
1514208566170;-;-;8.430481;0.4191742;-2.0954437;-;-;-;-;-;-;-;-;-;-;-;-;-;-;-
1514208566188;-;-;9.656311;1.0368805;-2.1385345;-;-;-;-;-;-;-;-;-;-;-;-;-;-;-
1514208566208;-;-;9.808334;1.0129395;-2.6640625;-;-;-;-;-;-;-;-;-;-;-;-;-;-;-
1514208566229;-;-;8.572922;1.0057526;-1.8512268;-;-;-;-;-;-;-;-;-;-;-;-;-;-;-
1514208566249;-;-;6.984375;1.3888245;-1.0886841;-;-;-;-;-;-;-;-;-;-;-;-;-;-;-
1514208566269;-;-;6.497162;1.600708;-0.9761505;-;-;-;-;-;-;-;-;-;-;-;-;-;-;-
1514208566289;-;-;8.229355;1.5923309;-1.3939362;-;-;-;-;-;-;-;-;-;-;-;-;-;-;-
1514208566310;-;-;9.589264;0.47782898;-1.5687103;-;-;-;-;-;-;-;-;-;-;-;-;-;-;-
1514208566330;-;-;10.02861;-0.48703003;-1.7758179;-;-;-;-;-;-;-;-;-;-;-;-;-;-;-
1514208566350;-;-;8.547791;-2.490982;-3.768982;-;-;-;-;-;-;-;-;-;-;-;-;-;-;-
1514208566371;-;-;6.8203735;-4.587097;-6.5977325;-;-;-;-;-;-;-;-;-;-;-;-;-;-;-
1514208566391;-;-;8.509476;-5.2646637;-5.345566;-;-;-;-;-;-;-;-;-;-;-;-;-;-;-
1514208566411;-;-;10.819885;-3.9227142;-4.1616364;-;-;-;-;-;-;-;-;-;-;-;-;-;-;-
1514208566432;-;-;15.118683;-4.570343;-8.839905;-;-;-;-;-;-;-;-;-;-;-;-;-;-;-
1514208566452;-;-;22.494019;-4.2100067;-4.792511;-;-;-;-;-;-;-;-;-;-;-;-;-;-;-
1514208566472;-;-;20.848007;-3.6078644;-5.6017456;-;-;-;-;-;-;-;-;-;-;-;-;-;-;-
1514208566492;-;-;14.563217;-2.771103;-3.0004425;-;-;-;-;-;-;-;-;-;-;-;-;-;-;-
1514208566513;-;-;8.522644;-2.4215393;-1.9410095;-;-;-;-;-;-;-;-;-;-;-;-;-;-;-
1514208566533;-;-;4.513565;-2.6286469;-2.6951904;-;-;-;-;-;-;-;-;-;-;-;-;-;-;-
1514208566553;-;-;2.865158;-2.447876;-3.191986;-;-;-;-;-;-;-;-;-;-;-;-;-;-;-
1514208566574;-;-;3.8503723;-2.3784485;-3.156067;-;-;-;-;-;-;-;-;-;-;-;-;-;-;-
1514208566594;-;-;7.41893;-1.5560455;-3.449356;-;-;-;-;-;-;-;-;-;-;-;-;-;-;-
1514208566614;-;-;9.029022;0.23242188;-3.5762482;-;-;-;-;-;-;-;-;-;-;-;-;-;-;-
1514208566635;-;-;7.961212;0.20610046;-3.12854;-;-;-;-;-;-;-;-;-;-;-;-;-;-;-
1514208566655;-;-;6.3451233;-0.8820648;-1.7734222;-;-;-;-;-;-;-;-;-;-;-;-;-;-;-
1514208566675;-;-;6.13443;-2.0779724;-1.1066284;-;-;-;-;-;-;-;-;-;-;-;-;-;-;-
1514208566696;-;-;6.5007477;-2.5711823;-0.69721985;-;-;-;-;-;-;-;-;-;-;-;-;-;-;-
1514208566716;-;-;6.849106;-2.7579346;-0.74391174;-;-;-;-;-;-;-;-;-;-;-;-;-;-;-
1514208566736;-;-;6.898178;-3.021286;-1.2718353;-;-;-;-;-;-;-;-;-;-;-;-;-;-;-
1514208566756;-;-;6.8287506;-3.45224;-1.8811646;-;-;-;-;-;-;-;-;-;-;-;-;-;-;-
1514208566777;-;-;9.183456;-3.4366913;-1.8284912;-;-;-;-;-;-;-;-;-;-;-;-;-;-;-
1514208566797;-;-;11.278381;-1.1382446;-1.7315216;-;-;-;-;-;-;-;-;-;-;-;-;-;-;-
1514208566817;-;-;12.573639;0.6609955;-2.0559387;-;-;-;-;-;-;-;-;-;-;-;-;-;-;-
1514208566837;-;-;12.440765;0.6729584;-1.3783722;-;-;-;-;-;-;-;-;-;-;-;-;-;-;-
1514208566858;-;-;12.225281;-1.2268372;-0.7295532;-;-;-;-;-;-;-;-;-;-;-;-;-;-;-
1514208566878;-;-;11.128738;-2.2335968;-1.1078339;-;-;-;-;-;-;-;-;-;-;-;-;-;-;-
1514208566898;-;-;9.104446;-2.6729279;-2.5934296;-;-;-;-;-;-;-;-;-;-;-;-;-;-;-
1514208566919;-;-;7.396179;-3.9921417;-9.124817;-;-;-;-;-;-;-;-;-;-;-;-;-;-;-
1514208566939;-;-;7.1567535;-4.4230957;-6.950882;-;-;-;-;-;-;-;-;-;-;-;-;-;-;-
1514208566959;-;-;6.680313;-0.79348755;-3.70076;-;-;-;-;-;-;-;-;-;-;-;-;-;-;-
1514208566979;-;-;7.6583405;1.5887451;-2.776596;-;-;-;-;-;-;-;-;-;-;-;-;-;-;-
1514208567000;-;-;10.740875;1.2571411;-4.4633026;-;-;-;-;-;-;-;-;-;-;-;-;-;-;-
1514208567019;-;-;13.850952;-0.9945984;-5.377884;-;-;-;-;-;-;-;-;-;-;-;-;-;-;-
1514208567039;-;-;14.631454;-2.3712616;-4.334015;-;-;-;-;-;-;-;-;-;-;-;-;-;-;-
1514208567059;-;-;11.179016;-1.3262024;-2.977707;-;-;-;-;-;-;-;-;-;-;-;-;-;-;-
1514208567080;-;-;8.383789;-1.3776703;-3.0591125;-;-;-;-;-;-;-;-;-;-;-;-;-;-;-
1514208567100;-;-;6.537857;-1.6362457;-2.9130554;-;-;-;-;-;-;-;-;-;-;-;-;-;-;-
1514208567121;-;-;4.88945;-1.5751953;-2.883133;-;-;-;-;-;-;-;-;-;-;-;-;-;-;-
1514208567141;-;-;4.0730286;-0.67736816;-2.8735504;-;-;-;-;-;-;-;-;-;-;-;-;-;-;-
1514208567161;-;-;4.684738;0.2850952;-3.2051544;-;-;-;-;-;-;-;-;-;-;-;-;-;-;-
1514208567181;-;-;7.125641;0.68733215;-3.6408997;-;-;-;-;-;-;-;-;-;-;-;-;-;-;-
1514208567202;-;-;9.637146;0.2803192;-3.5343628;-;-;-;-;-;-;-;-;-;-;-;-;-;-;-
1514208567221;-;-;11.061707;-0.33380127;-2.9597473;-;-;-;-;-;-;-;-;-;-;-;-;-;-;-
1514208567241;-;-;10.291962;-0.59117126;-2.800537;-;-;-;-;-;-;-;-;-;-;-;-;-;-;-
1514208567262;-;-;7.9707794;-0.5432892;-3.3966827;-;-;-;-;-;-;-;-;-;-;-;-;-;-;-
1514208567282;-;-;7.1160583;-0.23324585;-3.472107;-;-;-;-;-;-;-;-;-;-;-;-;-;-;-
1514208567302;-;-;7.216614;0.19412231;-2.3623962;-;-;-;-;-;-;-;-;-;-;-;-;-;-;-
1514208567323;-;-;7.748123;0.5341034;-2.7945404;-;-;-;-;-;-;-;-;-;-;-;-;-;-;-
1514208567343;-;-;8.853058;0.793869;-3.3236694;-;-;-;-;-;-;-;-;-;-;-;-;-;-;-
1514208567363;-;-;9.841858;1.1398315;-3.5379486;-;-;-;-;-;-;-;-;-;-;-;-;-;-;-
1514208567383;-;-;9.691025;1.8485107;-3.175232;-;-;-;-;-;-;-;-;-;-;-;-;-;-;-
1514208567404;-;-;8.708206;0.9423065;-2.47612;-;-;-;-;-;-;-;-;-;-;-;-;-;-;-
1514208567424;-;-;8.222183;-0.38526917;-2.9693298;-;-;-;-;-;-;-;-;-;-;-;-;-;-;-
1514208567444;-;-;7.750519;-1.7523651;-4.8810883;-;-;-;-;-;-;-;-;-;-;-;-;-;-;-
1514208567465;-;-;8.462799;-3.9825592;-7.756531;-;-;-;-;-;-;-;-;-;-;-;-;-;-;-
1514208567485;-;-;9.470749;-4.827713;-5.388672;-;-;-;-;-;-;-;-;-;-;-;-;-;-;-
1514208567505;-;-;9.3103485;-3.6365967;-4.9876404;-;-;-;-;-;-;-;-;-;-;-;-;-;-;-
1514208567526;-;-;10.215347;-1.1214905;-5.813629;-;-;-;-;-;-;-;-;-;-;-;-;-;-;-
1514208567546;-;-;11.722504;1.4965668;-5.9931946;-;-;-;-;-;-;-;-;-;-;-;-;-;-;-
1514208567566;-;-;11.82785;2.0915222;-4.685974;-;-;-;-;-;-;-;-;-;-;-;-;-;-;-
1514208567587;-;-;10.586456;-0.4846344;-3.0483398;-;-;-;-;-;-;-;-;-;-;-;-;-;-;-
1514208567607;-;-;8.56694;-2.0600128;-2.7634277;-;-;-;-;-;-;-;-;-;-;-;-;-;-;-
1514208567627;-;-;6.6851044;-2.6944885;-2.7071533;-;-;-;-;-;-;-;-;-;-;-;-;-;-;-
1514208567648;-;-;4.985214;-2.676529;-2.1337433;-;-;-;-;-;-;-;-;-;-;-;-;-;-;-
1514208567668;-;-;3.9569092;-2.4622498;-1.871582;-;-;-;-;-;-;-;-;-;-;-;-;-;-;-
1514208567688;-;-;4.0610504;-2.1079102;-2.179245;-;-;-;-;-;-;-;-;-;-;-;-;-;-;-
1514208567708;-;-;5.691513;-1.3309784;-3.1728363;-;-;-;-;-;-;-;-;-;-;-;-;-;-;-
1514208567729;-;-;8.677078;0.18095398;-3.0231934;-;-;-;-;-;-;-;-;-;-;-;-;-;-;-
1514208567749;-;-;10.880936;1.4271393;-2.7777863;-;-;-;-;-;-;-;-;-;-;-;-;-;-;-
1514208567769;-;-;11.299927;1.2966461;-2.9585571;-;-;-;-;-;-;-;-;-;-;-;-;-;-;-
1514208567790;-;-;10.756439;0.27671814;-2.500061;-;-;-;-;-;-;-;-;-;-;-;-;-;-;-
1514208567810;-;-;10.531387;-1.0065765;-1.2634583;-;-;-;-;-;-;-;-;-;-;-;-;-;-;-
1514208567830;-;-;10.090851;-1.8349609;-0.6732788;-;-;-;-;-;-;-;-;-;-;-;-;-;-;-
1514208567851;-;-;9.058945;-1.5596313;-1.1389618;-;-;-;-;-;-;-;-;-;-;-;-;-;-;-
1514208567870;-;-;8.121628;-2.04924;-3.7378693;-;-;-;-;-;-;-;-;-;-;-;-;-;-;-
1514208567891;-;-;8.72496;-3.988556;-8.156357;-;-;-;-;-;-;-;-;-;-;-;-;-;-;-
1514208567911;-;-;9.340271;-3.1338196;-4.92778;-;-;-;-;-;-;-;-;-;-;-;-;-;-;-
1514208567931;-;-;8.16951;-0.53970337;-4.8775024;-;-;-;-;-;-;-;-;-;-;-;-;-;-;-
1514208567952;-;-;7.256119;2.1621552;-4.3914795;-;-;-;-;-;-;-;-;-;-;-;-;-;-;-
1514208567972;-;-;6.299637;3.4765778;-4.8930664;-;-;-;-;-;-;-;-;-;-;-;-;-;-;-
1514208567992;-;-;7.3889923;1.8952026;-6.552246;-;-;-;-;-;-;-;-;-;-;-;-;-;-;-
1514208568012;-;-;10.873764;-0.02494812;-3.9473572;-;-;-;-;-;-;-;-;-;-;-;-;-;-;-
1514208568033;-;-;11.851791;-1.3106384;-3.4505615;-;-;-;-;-;-;-;-;-;-;-;-;-;-;-
1514208568053;-;-;11.35379;-0.72406006;-3.2338867;-;-;-;-;-;-;-;-;-;-;-;-;-;-;-
1514208568073;-;-;10.720535;-0.75756836;-3.1728363;-;-;-;-;-;-;-;-;-;-;-;-;-;-;-
1514208568093;-;-;8.837494;-1.2376099;-2.1947937;-;-;-;-;-;-;-;-;-;-;-;-;-;-;-
1514208568113;-;-;6.2110443;-1.5763855;-0.6601105;-;-;-;-;-;-;-;-;-;-;-;-;-;-;-
1514208568133;-;-;4.07901;-0.8772888;-0.06755066;-;-;-;-;-;-;-;-;-;-;-;-;-;-;-
1514208568153;-;-;3.004013;-0.19972229;-0.3189392;-;-;-;-;-;-;-;-;-;-;-;-;-;-;-
1514208568174;-;-;2.8435974;-0.13148499;-0.73313904;-;-;-;-;-;-;-;-;-;-;-;-;-;-;-
1514208568194;-;-;5.8040314;-0.8533478;-1.0755157;-;-;-;-;-;-;-;-;-;-;-;-;-;-;-
1514208568214;-;-;7.5434265;-1.1574097;-1.6201935;-;-;-;-;-;-;-;-;-;-;-;-;-;-;-
1514208568235;-;-;8.18866;-1.4746399;-2.0427704;-;-;-;-;-;-;-;-;-;-;-;-;-;-;-
1514208568255;-;-;8.904526;-1.1717682;-1.3065491;-;-;-;-;-;-;-;-;-;-;-;-;-;-;-
1514208568275;-;-;9.179855;-0.23683167;-0.91989136;-;-;-;-;-;-;-;-;-;-;-;-;-;-;-
1514208568296;-;-;9.333084;0.42515564;-1.3316956;-;-;-;-;-;-;-;-;-;-;-;-;-;-;-
1514208568316;-;-;9.104446;0.32699585;-2.5587158;-;-;-;-;-;-;-;-;-;-;-;-;-;-;-
1514208568336;-;-;9.032608;0.29707336;-3.9689026;-;-;-;-;-;-;-;-;-;-;-;-;-;-;-
1514208568356;-;-;8.587296;1.1721497;-4.9098206;-;-;-;-;-;-;-;-;-;-;-;-;-;-;-
1514208568377;-;-;8.121628;1.7970428;-3.7821503;-;-;-;-;-;-;-;-;-;-;-;-;-;-;-
1514208568397;-;-;8.349075;1.6773376;-3.44458;-;-;-;-;-;-;-;-;-;-;-;-;-;-;-
1514208568417;-;-;7.335129;0.30903625;-4.7793427;-;-;-;-;-;-;-;-;-;-;-;-;-;-;-
1514208568438;-;-;7.114853;-1.9570618;-6.3810577;-;-;-;-;-;-;-;-;-;-;-;-;-;-;-
1514208568457;-;-;7.415329;-3.601883;-6.997574;-;-;-;-;-;-;-;-;-;-;-;-;-;-;-
1514208568477;-;-;9.171478;-2.9805908;-4.480072;-;-;-;-;-;-;-;-;-;-;-;-;-;-;-
1514208568498;-;-;11.623138;-2.056427;-2.6688538;-;-;-;-;-;-;-;-;-;-;-;-;-;-;-
1514208568518;-;-;13.087189;-2.0217133;-4.2526093;-;-;-;-;-;-;-;-;-;-;-;-;-;-;-
1514208568539;-;-;13.117126;-2.7603302;-1.9781189;-;-;-;-;-;-;-;-;-;-;-;-;-;-;-
1514208568559;-;-;13.294296;-4.3787994;-2.8484192;-;-;-;-;-;-;-;-;-;-;-;-;-;-;-
1514208568579;-;-;14.903198;-5.274231;-4.5578766;-;-;-;-;-;-;-;-;-;-;-;-;-;-;-
1514208568600;-;-;14.135849;-2.8884125;-3.5211945;-;-;-;-;-;-;-;-;-;-;-;-;-;-;-
1514208568620;-;-;10.475128;-0.5923767;-2.7346954;-;-;-;-;-;-;-;-;-;-;-;-;-;-;-
1514208568640;-;-;6.5797577;1.0189209;-3.0914307;-;-;-;-;-;-;-;-;-;-;-;-;-;-;-
1514208568660;-;-;3.2757568;2.2315826;-2.4222565;-;-;-;-;-;-;-;-;-;-;-;-;-;-;-
1514208568681;-;-;2.0678864;2.5344543;-1.9733429;-;-;-;-;-;-;-;-;-;-;-;-;-;-;-
1514208568701;-;-;4.1280975;0.9758301;-2.057129;-;-;-;-;-;-;-;-;-;-;-;-;-;-;-
1514208568721;-;-;5.3251953;-0.5923767;-2.187622;-;-;-;-;-;-;-;-;-;-;-;-;-;-;-
1514208568741;-;-;5.564621;-1.3441467;-2.2055817;-;-;-;-;-;-;-;-;-;-;-;-;-;-;-
1514208568762;-;-;5.359909;-1.775116;-3.0279846;-;-;-;-;-;-;-;-;-;-;-;-;-;-;-
1514208568782;-;-;6.5390472;-1.6158905;-2.6556854;-;-;-;-;-;-;-;-;-;-;-;-;-;-;-
1514208568802;-;-;8.791992;-1.4099884;-0.8504486;-;-;-;-;-;-;-;-;-;-;-;-;-;-;-
1514208568822;-;-;10.931213;-1.7571564;-0.05558777;-;-;-;-;-;-;-;-;-;-;-;-;-;-;-
1514208568843;-;-;11.151489;-2.7172241;-1.3544312;-;-;-;-;-;-;-;-;-;-;-;-;-;-;-
1514208568863;-;-;10.124374;-2.9243317;-2.2127533;-;-;-;-;-;-;-;-;-;-;-;-;-;-;-
1514208568883;-;-;8.830307;-1.6709595;-1.7650452;-;-;-;-;-;-;-;-;-;-;-;-;-;-;-
1514208568904;-;-;7.968399;-0.63067627;-2.6772308;-;-;-;-;-;-;-;-;-;-;-;-;-;-;-
1514208568923;-;-;7.446457;0.2922821;-6.3164215;-;-;-;-;-;-;-;-;-;-;-;-;-;-;-
1514208568943;-;-;7.1232452;1.1242676;-6.32959;-;-;-;-;-;-;-;-;-;-;-;-;-;-;-
1514208568963;-;-;8.819534;2.6038818;-4.01799;-;-;-;-;-;-;-;-;-;-;-;-;-;-;-
1514208568984;-;-;11.392105;3.3017883;-3.2997284;-;-;-;-;-;-;-;-;-;-;-;-;-;-;-
1514208569003;-;-;14.69371;1.9023895;-4.3603516;-;-;-;-;-;-;-;-;-;-;-;-;-;-;-
1514208569023;-;-;14.8684845;-0.8353882;-3.0160065;-;-;-;-;-;-;-;-;-;-;-;-;-;-;-
1514208569044;-;-;12.437164;-2.4766083;-2.7418823;-;-;-;-;-;-;-;-;-;-;-;-;-;-;-
1514208569064;-;-;11.934387;-1.5045624;-5.4868317;-;-;-;-;-;-;-;-;-;-;-;-;-;-;-
1514208569084;-;-;12.1762085;1.2463684;-3.9329834;-;-;-;-;-;-;-;-;-;-;-;-;-;-;-
1514208569105;-;-;10.503845;3.0264587;-2.7191315;-;-;-;-;-;-;-;-;-;-;-;-;-;-;-
1514208569125;-;-;8.322739;3.2539063;-2.428238;-;-;-;-;-;-;-;-;-;-;-;-;-;-;-
1514208569145;-;-;6.0925293;2.6900787;-1.8643951;-;-;-;-;-;-;-;-;-;-;-;-;-;-;-
1514208569165;-;-;4.0131683;1.5588226;-1.0288239;-;-;-;-;-;-;-;-;-;-;-;-;-;-;-
1514208569186;-;-;2.8867035;0.29109192;-0.5499878;-;-;-;-;-;-;-;-;-;-;-;-;-;-;-
1514208569206;-;-;3.656433;-0.78630066;-1.2383118;-;-;-;-;-;-;-;-;-;-;-;-;-;-;-
1514208569226;-;-;7.3686523;-1.4949799;-1.143753;-;-;-;-;-;-;-;-;-;-;-;-;-;-;-
1514208569247;-;-;9.537796;-1.6230774;-0.9342499;-;-;-;-;-;-;-;-;-;-;-;-;-;-;-
1514208569267;-;-;9.813126;-1.3633118;-1.693222;-;-;-;-;-;-;-;-;-;-;-;-;-;-;-
1514208569287;-;-;9.61441;-0.463089;-2.0463562;-;-;-;-;-;-;-;-;-;-;-;-;-;-;-
1514208569307;-;-;9.210983;0.6837311;-2.5491486;-;-;-;-;-;-;-;-;-;-;-;-;-;-;-
1514208569328;-;-;7.7888336;1.0787811;-2.828064;-;-;-;-;-;-;-;-;-;-;-;-;-;-;-
1514208569351;-;-;6.256546;1.2774963;-2.5371704;-;-;-;-;-;-;-;-;-;-;-;-;-;-;-
1514208569371;-;-;5.3024445;0.9135742;-1.8787689;-;-;-;-;-;-;-;-;-;-;-;-;-;-;-
1514208569391;-;-;6.738968;0.7651367;-1.2730255;-;-;-;-;-;-;-;-;-;-;-;-;-;-;-
1514208569411;-;-;9.285202;1.0021667;-1.629776;-;-;-;-;-;-;-;-;-;-;-;-;-;-;-
1514208569432;-;-;10.416458;1.4367065;-3.70076;-;-;-;-;-;-;-;-;-;-;-;-;-;-;-
1514208569451;-;-;9.288788;0.72683716;-4.445343;-;-;-;-;-;-;-;-;-;-;-;-;-;-;-
1514208569471;-;-;6.904175;-0.62350464;-3.1488953;-;-;-;-;-;-;-;-;-;-;-;-;-;-;-
1514208569492;-;-;4.9038086;-2.851303;-3.851593;-;-;-;-;-;-;-;-;-;-;-;-;-;-;-
1514208569511;-;-;5.3096313;-4.9522095;-4.7326508;-;-;-;-;-;-;-;-;-;-;-;-;-;-;-
1514208569531;-;-;9.090073;-5.4142914;-3.9557343;-;-;-;-;-;-;-;-;-;-;-;-;-;-;-
1514208569552;-;-;13.510971;-3.8592682;-3.0626984;-;-;-;-;-;-;-;-;-;-;-;-;-;-;-
1514208569572;-;-;16.661743;-1.2028961;-5.4030304;-;-;-;-;-;-;-;-;-;-;-;-;-;-;-
1514208569592;-;-;18.917084;-0.24281311;-5.0355225;-;-;-;-;-;-;-;-;-;-;-;-;-;-;-
1514208569613;-;-;20.24826;0.057647705;-3.5547028;-;-;-;-;-;-;-;-;-;-;-;-;-;-;-
1514208569633;-;-;16.981369;-1.6063232;-2.5575256;-;-;-;-;-;-;-;-;-;-;-;-;-;-;-
1514208569653;-;-;10.8246765;-2.016922;-1.7482758;-;-;-;-;-;-;-;-;-;-;-;-;-;-;-
1514208569674;-;-;5.9704285;-1.6158905;-1.0431824;-;-;-;-;-;-;-;-;-;-;-;-;-;-;-
1514208569694;-;-;2.4712982;-1.2376099;-0.8935547;-;-;-;-;-;-;-;-;-;-;-;-;-;-;-
1514208569714;-;-;1.03479;-0.70610046;-0.6577301;-;-;-;-;-;-;-;-;-;-;-;-;-;-;-
1514208569734;-;-;4.707489;0.44911194;-0.78222656;-;-;-;-;-;-;-;-;-;-;-;-;-;-;-
1514208569755;-;-;6.6982727;0.2013092;-2.4581604;-;-;-;-;-;-;-;-;-;-;-;-;-;-;-
1514208569775;-;-;7.2980194;-0.9143982;-2.9238281;-;-;-;-;-;-;-;-;-;-;-;-;-;-;-
1514208569795;-;-;7.4320984;-1.1873322;-2.3851318;-;-;-;-;-;-;-;-;-;-;-;-;-;-;-
1514208569816;-;-;7.422516;-0.6007538;-2.0547333;-;-;-;-;-;-;-;-;-;-;-;-;-;-;-
1514208569836;-;-;7.8678436;-0.00819397;-2.898697;-;-;-;-;-;-;-;-;-;-;-;-;-;-;-
1514208569856;-;-;7.288437;0.4909973;-2.1732483;-;-;-;-;-;-;-;-;-;-;-;-;-;-;-
1514208569877;-;-;6.4528656;-0.44631958;-0.5535736;-;-;-;-;-;-;-;-;-;-;-;-;-;-;-
1514208569897;-;-;6.8610687;-2.5520325;0.0054779053;-;-;-;-;-;-;-;-;-;-;-;-;-;-;-
1514208569917;-;-;7.9276886;-2.9518585;-1.1593018;-;-;-;-;-;-;-;-;-;-;-;-;-;-;-
1514208569938;-;-;9.240906;-1.6949005;-2.658081;-;-;-;-;-;-;-;-;-;-;-;-;-;-;-
1514208569958;-;-;10.104019;-1.1047363;-2.4006958;-;-;-;-;-;-;-;-;-;-;-;-;-;-;-
1514208569978;-;-;10.379349;-1.4842072;-2.6089935;-;-;-;-;-;-;-;-;-;-;-;-;-;-;-
1514208569999;-;-;10.013046;-1.4889984;-2.4078827;-;-;-;-;-;-;-;-;-;-;-;-;-;-;-
1514208570019;-;-;8.131195;-0.9826355;-2.539566;-;-;-;-;-;-;-;-;-;-;-;-;-;-;-
1514208570039;-;-;6.205063;0.055252075;-5.0427094;-;-;-;-;-;-;-;-;-;-;-;-;-;-;-
1514208570060;-;-;5.95726;1.9694214;-4.141281;-;-;-;-;-;-;-;-;-;-;-;-;-;-;-
1514208570080;-;-;7.7050323;2.7128296;-2.2642365;-;-;-;-;-;-;-;-;-;-;-;-;-;-;-
1514208570100;-;-;10.750458;2.418335;-4.7111053;-;-;-;-;-;-;-;-;-;-;-;-;-;-;-
1514208570120;-;-;15.386826;-1.3262024;-2.4162598;-;-;-;-;-;-;-;-;-;-;-;-;-;-;-
1514208570141;-;-;15.733994;-3.3804169;-2.2055817;-;-;-;-;-;-;-;-;-;-;-;-;-;-;-
1514208570161;-;-;16.898758;-1.2208557;-6.914963;-;-;-;-;-;-;-;-;-;-;-;-;-;-;-
1514208570181;-;-;17.170502;2.239975;-4.2298737;-;-;-;-;-;-;-;-;-;-;-;-;-;-;-
1514208570202;-;-;13.560043;3.7686615;-3.4852753;-;-;-;-;-;-;-;-;-;-;-;-;-;-;-
1514208570222;-;-;8.084518;2.7140198;-2.7933502;-;-;-;-;-;-;-;-;-;-;-;-;-;-;-
1514208570242;-;-;4.2873077;1.477417;-2.4545746;-;-;-;-;-;-;-;-;-;-;-;-;-;-;-
1514208570262;-;-;2.4880676;0.2815094;-1.1210022;-;-;-;-;-;-;-;-;-;-;-;-;-;-;-
1514208570283;-;-;3.671997;-1.1334686;-0.2973938;-;-;-;-;-;-;-;-;-;-;-;-;-;-;-
1514208570303;-;-;6.493561;-2.1174774;-0.82292175;-;-;-;-;-;-;-;-;-;-;-;-;-;-;-
1514208570323;-;-;7.7062225;-2.0851593;-1.990097;-;-;-;-;-;-;-;-;-;-;-;-;-;-;-
1514208570344;-;-;6.862274;-1.4794312;-1.4190826;-;-;-;-;-;-;-;-;-;-;-;-;-;-;-
1514208570364;-;-;5.8315735;-1.3381653;-1.0264282;-;-;-;-;-;-;-;-;-;-;-;-;-;-;-
1514208570384;-;-;6.8203735;-0.6127167;-1.7722168;-;-;-;-;-;-;-;-;-;-;-;-;-;-;-
1514208570404;-;-;8.479553;-0.033325195;-2.6329346;-;-;-;-;-;-;-;-;-;-;-;-;-;-;-
1514208570425;-;-;8.977554;0.6430359;-2.7275085;-;-;-;-;-;-;-;-;-;-;-;-;-;-;-
1514208570445;-;-;7.85347;1.3864288;-2.460556;-;-;-;-;-;-;-;-;-;-;-;-;-;-;-
1514208570465;-;-;7.9205017;1.9107666;-2.4773102;-;-;-;-;-;-;-;-;-;-;-;-;-;-;-
1514208570486;-;-;8.707001;1.5336761;-2.6987762;-;-;-;-;-;-;-;-;-;-;-;-;-;-;-
1514208570506;-;-;9.625183;0.53289795;-2.9082794;-;-;-;-;-;-;-;-;-;-;-;-;-;-;-
1514208570526;-;-;10.2512665;0.7005005;-2.2163544;-;-;-;-;-;-;-;-;-;-;-;-;-;-;-
1514208570546;-;-;10.053741;1.5851593;-3.70076;-;-;-;-;-;-;-;-;-;-;-;-;-;-;-
1514208570567;-;-;9.386963;1.7826691;-5.57901;-;-;-;-;-;-;-;-;-;-;-;-;-;-;-
1514208570587;-;-;8.987122;0.7016907;-5.877075;-;-;-;-;-;-;-;-;-;-;-;-;-;-;-
1514208570607;-;-;8.40773;-1.3860474;-4.7829285;-;-;-;-;-;-;-;-;-;-;-;-;-;-;-
1514208570628;-;-;7.889389;-3.069168;-2.0858612;-;-;-;-;-;-;-;-;-;-;-;-;-;-;-
1514208570648;-;-;8.971558;-3.8520813;-0.9797363;-;-;-;-;-;-;-;-;-;-;-;-;-;-;-
1514208570668;-;-;10.420059;-4.7510986;-2.4928741;-;-;-;-;-;-;-;-;-;-;-;-;-;-;-
1514208570689;-;-;13.066849;-5.273041;-2.6233673;-;-;-;-;-;-;-;-;-;-;-;-;-;-;-
1514208570709;-;-;16.943054;-5.306549;-1.653717;-;-;-;-;-;-;-;-;-;-;-;-;-;-;-
1514208570729;-;-;18.534012;-1.4997711;-0.72236633;-;-;-;-;-;-;-;-;-;-;-;-;-;-;-
1514208570749;-;-;15.240784;1.2200317;-3.314087;-;-;-;-;-;-;-;-;-;-;-;-;-;-;-
1514208570770;-;-;11.395691;0.7866821;-2.5359802;-;-;-;-;-;-;-;-;-;-;-;-;-;-;-
1514208570790;-;-;6.8036194;-0.3757019;-2.3683777;-;-;-;-;-;-;-;-;-;-;-;-;-;-;-
1514208570810;-;-;4.134079;-1.3309784;-2.0391846;-;-;-;-;-;-;-;-;-;-;-;-;-;-;-
1514208570831;-;-;3.5187683;-1.4794312;-1.7147675;-;-;-;-;-;-;-;-;-;-;-;-;-;-;-
1514208570851;-;-;4.841568;-1.1107178;-1.9122772;-;-;-;-;-;-;-;-;-;-;-;-;-;-;-
1514208570871;-;-;5.557434;-0.30625916;-2.0870667;-;-;-;-;-;-;-;-;-;-;-;-;-;-;-
1514208570891;-;-;5.873459;0.2348175;-1.4334412;-;-;-;-;-;-;-;-;-;-;-;-;-;-;-
1514208570912;-;-;6.4528656;-0.31225586;-1.9051056;-;-;-;-;-;-;-;-;-;-;-;-;-;-;-
1514208570932;-;-;7.1244354;-1.2112732;-1.9374237;-;-;-;-;-;-;-;-;-;-;-;-;-;-;-
1514208570952;-;-;7.134018;-1.9869995;-2.065506;-;-;-;-;-;-;-;-;-;-;-;-;-;-;-
1514208570972;-;-;6.5821533;-2.4107666;-2.3683777;-;-;-;-;-;-;-;-;-;-;-;-;-;-;-
1514208570993;-;-;6.422943;-2.1689606;-1.2502899;-;-;-;-;-;-;-;-;-;-;-;-;-;-;-
1514208571013;-;-;6.9269104;-1.7739105;-0.377594;-;-;-;-;-;-;-;-;-;-;-;-;-;-;-
1514208571033;-;-;7.961212;-1.9450989;0.51065063;-;-;-;-;-;-;-;-;-;-;-;-;-;-;-
1514208571054;-;-;9.378571;-1.9582672;0.017440796;-;-;-;-;-;-;-;-;-;-;-;-;-;-;-
1514208571073;-;-;9.956772;-2.0995178;-0.60624695;-;-;-;-;-;-;-;-;-;-;-;-;-;-;-
1514208571093;-;-;9.862213;-1.858902;-2.4713287;-;-;-;-;-;-;-;-;-;-;-;-;-;-;-
1514208571113;-;-;8.453217;-0.641449;-1.6704712;-;-;-;-;-;-;-;-;-;-;-;-;-;-;-
1514208571134;-;-;7.794815;0.29467773;-1.4933014;-;-;-;-;-;-;-;-;-;-;-;-;-;-;-
1514208571154;-;-;8.356247;0.42755127;-3.1728363;-;-;-;-;-;-;-;-;-;-;-;-;-;-;-
1514208571174;-;-;9.754471;-0.34457397;-4.9181976;-;-;-;-;-;-;-;-;-;-;-;-;-;-;-
1514208571194;-;-;11.599197;0.5233307;-5.298889;-;-;-;-;-;-;-;-;-;-;-;-;-;-;-
1514208571214;-;-;12.972275;2.5500183;-4.993622;-;-;-;-;-;-;-;-;-;-;-;-;-;-;-
1514208571234;-;-;15.538864;3.5699463;-4.345993;-;-;-;-;-;-;-;-;-;-;-;-;-;-;-
1514208571255;-;-;13.464279;2.0795593;-2.8699646;-;-;-;-;-;-;-;-;-;-;-;-;-;-;-
1514208571275;-;-;10.918045;0.57240295;-4.5135803;-;-;-;-;-;-;-;-;-;-;-;-;-;-;-
1514208571295;-;-;9.625183;0.78907776;-3.4780884;-;-;-;-;-;-;-;-;-;-;-;-;-;-;-
1514208571316;-;-;10.106415;0.6573944;-2.0092468;-;-;-;-;-;-;-;-;-;-;-;-;-;-;-
1514208571336;-;-;10.177048;0.30784607;-1.9470062;-;-;-;-;-;-;-;-;-;-;-;-;-;-;-
1514208571356;-;-;8.887772;0.635849;-1.7351074;-;-;-;-;-;-;-;-;-;-;-;-;-;-;-
1514208571377;-;-;6.9795837;1.0644073;-0.9174957;-;-;-;-;-;-;-;-;-;-;-;-;-;-;-
1514208571397;-;-;5.5035553;0.5987396;-0.590683;-;-;-;-;-;-;-;-;-;-;-;-;-;-;-
1514208571417;-;-;5.6268616;-0.6905365;-0.93785095;-;-;-;-;-;-;-;-;-;-;-;-;-;-;-
1514208571437;-;-;6.636017;-0.99938965;-1.0551605;-;-;-;-;-;-;-;-;-;-;-;-;-;-;-
1514208571458;-;-;7.2668915;-0.5827942;-1.432251;-;-;-;-;-;-;-;-;-;-;-;-;-;-;-
1514208571478;-;-;7.9588165;-0.96707153;-1.4729462;-;-;-;-;-;-;-;-;-;-;-;-;-;-;-
1514208571498;-;-;8.096481;-1.759552;-1.6046295;-;-;-;-;-;-;-;-;-;-;-;-;-;-;-
1514208571519;-;-;7.8630524;-2.0360718;-2.096634;-;-;-;-;-;-;-;-;-;-;-;-;-;-;-
1514208571539;-;-;7.3542786;-1.2052917;-2.5335846;-;-;-;-;-;-;-;-;-;-;-;-;-;-;-
1514208571559;-;-;6.6707306;0.17736816;-2.3193054;-;-;-;-;-;-;-;-;-;-;-;-;-;-;-
1514208571580;-;-;5.6579895;1.7072601;-2.084671;-;-;-;-;-;-;-;-;-;-;-;-;-;-;-
1514208571600;-;-;5.406601;2.7367706;-1.98172;-;-;-;-;-;-;-;-;-;-;-;-;-;-;-
1514208571620;-;-;6.6503906;3.1246185;-2.041565;-;-;-;-;-;-;-;-;-;-;-;-;-;-;-
1514208571640;-;-;7.866638;2.2675018;-2.069107;-;-;-;-;-;-;-;-;-;-;-;-;-;-;-
1514208571661;-;-;8.452026;1.3014374;-2.8843231;-;-;-;-;-;-;-;-;-;-;-;-;-;-;-
1514208571680;-;-;7.714615;0.13426208;-5.3946533;-;-;-;-;-;-;-;-;-;-;-;-;-;-;-
1514208571700;-;-;7.2345734;-1.1717682;-6.907791;-;-;-;-;-;-;-;-;-;-;-;-;-;-;-
1514208571721;-;-;8.930862;-1.9606628;-4.9852448;-;-;-;-;-;-;-;-;-;-;-;-;-;-;-
1514208571741;-;-;10.983887;-2.6837158;-3.350006;-;-;-;-;-;-;-;-;-;-;-;-;-;-;-
1514208571761;-;-;12.908829;-3.855667;-2.73349;-;-;-;-;-;-;-;-;-;-;-;-;-;-;-
1514208571782;-;-;18.064743;-4.1226196;-1.0886841;-;-;-;-;-;-;-;-;-;-;-;-;-;-;-
1514208571801;-;-;22.149246;-4.589493;0.66986084;-;-;-;-;-;-;-;-;-;-;-;-;-;-;-
1514208571821;-;-;21.70871;-6.4031067;-1.9122772;-;-;-;-;-;-;-;-;-;-;-;-;-;-;-
1514208571841;-;-;16.006927;-4.0184784;-1.4214783;-;-;-;-;-;-;-;-;-;-;-;-;-;-;-
1514208571862;-;-;11.339432;-1.8888397;-0.33810425;-;-;-;-;-;-;-;-;-;-;-;-;-;-;-
1514208571882;-;-;7.348297;-0.6510315;-1.1868439;-;-;-;-;-;-;-;-;-;-;-;-;-;-;-
1514208571902;-;-;3.3691254;0.0181427;-2.3228912;-;-;-;-;-;-;-;-;-;-;-;-;-;-;-
1514208571923;-;-;1.6488953;0.5664215;-2.0954437;-;-;-;-;-;-;-;-;-;-;-;-;-;-;-
1514208571943;-;-;3.6073608;1.3086243;-1.7554626;-;-;-;-;-;-;-;-;-;-;-;-;-;-;-
1514208571963;-;-;5.3802643;1.3780518;-2.0942383;-;-;-;-;-;-;-;-;-;-;-;-;-;-;-
1514208571984;-;-;5.6747437;-0.04888916;-2.4066925;-;-;-;-;-;-;-;-;-;-;-;-;-;-;-
1514208572004;-;-;5.9117737;-1.3956299;-2.5012512;-;-;-;-;-;-;-;-;-;-;-;-;-;-;-
1514208572024;-;-;6.285263;-2.2443695;-2.6903992;-;-;-;-;-;-;-;-;-;-;-;-;-;-;-
1514208572045;-;-;7.1136627;-2.2551422;-2.2199402;-;-;-;-;-;-;-;-;-;-;-;-;-;-;-
1514208572065;-;-;7.763687;-1.5739899;-0.89115906;-;-;-;-;-;-;-;-;-;-;-;-;-;-;-
1514208572085;-;-;7.2357635;-2.1342316;-0.46020508;-;-;-;-;-;-;-;-;-;-;-;-;-;-;-
1514208572105;-;-;6.9867706;-3.0392456;-0.03642273;-;-;-;-;-;-;-;-;-;-;-;-;-;-;-
1514208572126;-;-;7.8283386;-3.558792;0.32389832;-;-;-;-;-;-;-;-;-;-;-;-;-;-;-
1514208572146;-;-;8.947617;-3.1362152;0.6638794;-;-;-;-;-;-;-;-;-;-;-;-;-;-;-
1514208572166;-;-;10.270416;-2.2443695;0.0569458;-;-;-;-;-;-;-;-;-;-;-;-;-;-;-
1514208572186;-;-;9.916077;-1.7320099;-1.784195;-;-;-;-;-;-;-;-;-;-;-;-;-;-;-
1514208572207;-;-;7.803192;-1.0831909;-3.1309357;-;-;-;-;-;-;-;-;-;-;-;-;-;-;-
1514208572227;-;-;4.790085;-0.23803711;-4.223892;-;-;-;-;-;-;-;-;-;-;-;-;-;-;-
1514208572247;-;-;4.5758057;0.0049743652;-4.76857;-;-;-;-;-;-;-;-;-;-;-;-;-;-;-
1514208572268;-;-;7.1723175;1.1841278;-4.1341095;-;-;-;-;-;-;-;-;-;-;-;-;-;-;-
1514208572288;-;-;11.123947;4.1601105;-5.437744;-;-;-;-;-;-;-;-;-;-;-;-;-;-;-
1514208572308;-;-;14.975021;5.347641;-5.152832;-;-;-;-;-;-;-;-;-;-;-;-;-;-;-
1514208572329;-;-;17.612244;0.87646484;-1.9326324;-;-;-;-;-;-;-;-;-;-;-;-;-;-;-
1514208572349;-;-;19.242691;-0.8353882;-7.764908;-;-;-;-;-;-;-;-;-;-;-;-;-;-;-
1514208572369;-;-;18.534012;1.1158905;-4.857147;-;-;-;-;-;-;-;-;-;-;-;-;-;-;-
1514208572389;-;-;13.320633;1.2894745;-1.3400726;-;-;-;-;-;-;-;-;-;-;-;-;-;-;-
1514208572410;-;-;8.560959;0.7651367;-0.6804657;-;-;-;-;-;-;-;-;-;-;-;-;-;-;-
1514208572430;-;-;4.6536255;-0.1590271;-2.045166;-;-;-;-;-;-;-;-;-;-;-;-;-;-;-
1514208572450;-;-;2.4725037;-0.41041565;-1.9733429;-;-;-;-;-;-;-;-;-;-;-;-;-;-;-
1514208572471;-;-;2.5515137;-0.40682983;-1.085083;-;-;-;-;-;-;-;-;-;-;-;-;-;-;-
1514208572491;-;-;5.170761;-1.5285034;-1.1030426;-;-;-;-;-;-;-;-;-;-;-;-;-;-;-
1514208572511;-;-;7.442871;-1.9953766;-1.5172424;-;-;-;-;-;-;-;-;-;-;-;-;-;-;-
1514208572531;-;-;8.7812195;-1.2663422;-2.2402954;-;-;-;-;-;-;-;-;-;-;-;-;-;-;-
1514208572552;-;-;7.869034;0.18693542;-2.3803558;-;-;-;-;-;-;-;-;-;-;-;-;-;-;-
1514208572572;-;-;6.806015;0.68852234;-1.535202;-;-;-;-;-;-;-;-;-;-;-;-;-;-;-
1514208572592;-;-;7.315979;0.1845398;-1.8428497;-;-;-;-;-;-;-;-;-;-;-;-;-;-;-
1514208572613;-;-;7.9911346;-0.6618042;-2.9034882;-;-;-;-;-;-;-;-;-;-;-;-;-;-;-
1514208572633;-;-;7.18309;-0.8928528;-2.2893677;-;-;-;-;-;-;-;-;-;-;-;-;-;-;-
1514208572653;-;-;5.4772186;-0.119522095;-0.7774353;-;-;-;-;-;-;-;-;-;-;-;-;-;-;-
1514208572674;-;-;6.6875;1.2966461;0.14553833;-;-;-;-;-;-;-;-;-;-;-;-;-;-;-
1514208572693;-;-;10.034592;2.1202545;-1.2790222;-;-;-;-;-;-;-;-;-;-;-;-;-;-;-
1514208572713;-;-;11.773972;1.8090057;-3.0603027;-;-;-;-;-;-;-;-;-;-;-;-;-;-;-
1514208572733;-;-;9.910095;0.86808777;-2.467743;-;-;-;-;-;-;-;-;-;-;-;-;-;-;-
1514208572754;-;-;6.561798;0.4479065;-1.025238;-;-;-;-;-;-;-;-;-;-;-;-;-;-;-
1514208572774;-;-;5.8279724;0.060043335;-1.571106;-;-;-;-;-;-;-;-;-;-;-;-;-;-;-
1514208572794;-;-;6.8239594;-0.91319275;-5.9764404;-;-;-;-;-;-;-;-;-;-;-;-;-;-;-
1514208572814;-;-;8.001907;-1.8397522;-8.234177;-;-;-;-;-;-;-;-;-;-;-;-;-;-;-
1514208572834;-;-;10.8582;-2.0791779;-6.1021423;-;-;-;-;-;-;-;-;-;-;-;-;-;-;-
1514208572855;-;-;13.396042;-2.2419739;-6.4433136;-;-;-;-;-;-;-;-;-;-;-;-;-;-;-
1514208572875;-;-;19.3181;-3.2391663;-7.208252;-;-;-;-;-;-;-;-;-;-;-;-;-;-;-
1514208572895;-;-;23.280502;-3.8401031;-6.030304;-;-;-;-;-;-;-;-;-;-;-;-;-;-;-
1514208572915;-;-;20.60379;-2.8201752;-6.733017;-;-;-;-;-;-;-;-;-;-;-;-;-;-;-
1514208572936;-;-;14.505768;-1.7655334;-4.1855774;-;-;-;-;-;-;-;-;-;-;-;-;-;-;-
1514208572957;-;-;8.247314;-1.3692932;-2.831665;-;-;-;-;-;-;-;-;-;-;-;-;-;-;-
1514208572977;-;-;3.988037;-1.2483826;-2.2953491;-;-;-;-;-;-;-;-;-;-;-;-;-;-;-
1514208572997;-;-;2.727478;-1.8553162;-3.0902252;-;-;-;-;-;-;-;-;-;-;-;-;-;-;-
1514208573017;-;-;5.3623047;-1.9427032;-2.6125946;-;-;-;-;-;-;-;-;-;-;-;-;-;-;-
1514208573038;-;-;8.025848;-1.1430359;-2.820877;-;-;-;-;-;-;-;-;-;-;-;-;-;-;-
1514208573058;-;-;7.509903;-0.51934814;-3.223114;-;-;-;-;-;-;-;-;-;-;-;-;-;-;-
1514208573078;-;-;6.0650024;-0.73243713;-2.6796265;-;-;-;-;-;-;-;-;-;-;-;-;-;-;-
1514208573099;-;-;5.64003;-1.4698486;-1.5136566;-;-;-;-;-;-;-;-;-;-;-;-;-;-;-
1514208573119;-;-;6.470825;-1.9630585;-1.4394226;-;-;-;-;-;-;-;-;-;-;-;-;-;-;-
1514208573139;-;-;7.4129333;-1.8361664;-1.8069458;-;-;-;-;-;-;-;-;-;-;-;-;-;-;-
1514208573160;-;-;7.846283;-1.8505249;-1.4825287;-;-;-;-;-;-;-;-;-;-;-;-;-;-;-
1514208573180;-;-;8.1922455;-2.6813202;-0.78222656;-;-;-;-;-;-;-;-;-;-;-;-;-;-;-
1514208573200;-;-;8.035431;-4.0065002;-0.5894928;-;-;-;-;-;-;-;-;-;-;-;-;-;-;-
1514208573220;-;-;8.042618;-3.8568726;-1.2646484;-;-;-;-;-;-;-;-;-;-;-;-;-;-;-
1514208573241;-;-;8.826721;-2.1378326;-1.911087;-;-;-;-;-;-;-;-;-;-;-;-;-;-;-
1514208573260;-;-;10.279999;-0.4918213;-1.8667908;-;-;-;-;-;-;-;-;-;-;-;-;-;-;-
1514208573281;-;-;11.812286;0.1725769;-1.2873993;-;-;-;-;-;-;-;-;-;-;-;-;-;-;-
1514208573302;-;-;12.918411;-0.4044342;-1.1162109;-;-;-;-;-;-;-;-;-;-;-;-;-;-;-
1514208573323;-;-;12.463501;-2.3377533;-0.66371155;-;-;-;-;-;-;-;-;-;-;-;-;-;-;-
1514208573343;-;-;10.70018;-2.6717377;-0.15614319;-;-;-;-;-;-;-;-;-;-;-;-;-;-;-
1514208573363;-;-;9.062546;-2.356903;-1.1030426;-;-;-;-;-;-;-;-;-;-;-;-;-;-;-
1514208573383;-;-;7.6571503;-3.428299;-8.066574;-;-;-;-;-;-;-;-;-;-;-;-;-;-;-
1514208573404;-;-;7.2106323;-3.1984558;-7.73378;-;-;-;-;-;-;-;-;-;-;-;-;-;-;-
1514208573424;-;-;7.3818207;0.29467773;-5.26416;-;-;-;-;-;-;-;-;-;-;-;-;-;-;-
1514208573444;-;-;8.041412;3.510086;-2.8771515;-;-;-;-;-;-;-;-;-;-;-;-;-;-;-
1514208573465;-;-;9.511459;3.1713104;-4.7039185;-;-;-;-;-;-;-;-;-;-;-;-;-;-;-
1514208573484;-;-;13.027344;-0.2033081;-5.3755035;-;-;-;-;-;-;-;-;-;-;-;-;-;-;-
1514208573504;-;-;13.716873;-2.7651062;-4.5219574;-;-;-;-;-;-;-;-;-;-;-;-;-;-;-
1514208573524;-;-;10.657074;-1.743988;-3.827652;-;-;-;-;-;-;-;-;-;-;-;-;-;-;-
1514208573545;-;-;7.739746;-0.20809937;-3.4996338;-;-;-;-;-;-;-;-;-;-;-;-;-;-;-
1514208573565;-;-;6.1200714;-0.08720398;-3.1608582;-;-;-;-;-;-;-;-;-;-;-;-;-;-;-
1514208573585;-;-;4.518341;-0.29309082;-2.776596;-;-;-;-;-;-;-;-;-;-;-;-;-;-;-
1514208573605;-;-;3.5822144;-0.08241272;-2.9262238;-;-;-;-;-;-;-;-;-;-;-;-;-;-;-
1514208573626;-;-;4.0502777;0.6286621;-2.9968567;-;-;-;-;-;-;-;-;-;-;-;-;-;-;-
1514208573646;-;-;5.568207;1.2906647;-3.3284607;-;-;-;-;-;-;-;-;-;-;-;-;-;-;-
1514208573666;-;-;8.241333;1.121872;-3.4385834;-;-;-;-;-;-;-;-;-;-;-;-;-;-;-
1514208573686;-;-;10.588852;0.47424316;-3.191986;-;-;-;-;-;-;-;-;-;-;-;-;-;-;-
1514208573707;-;-;11.006638;0.42755127;-3.2757874;-;-;-;-;-;-;-;-;-;-;-;-;-;-;-
1514208573727;-;-;9.33548;1.1326447;-3.2614136;-;-;-;-;-;-;-;-;-;-;-;-;-;-;-
1514208573747;-;-;7.9707794;1.3624878;-3.0626984;-;-;-;-;-;-;-;-;-;-;-;-;-;-;-
1514208573767;-;-;7.897766;0.47903442;-2.8472137;-;-;-;-;-;-;-;-;-;-;-;-;-;-;-
1514208573788;-;-;8.396957;0.17137146;-3.2853546;-;-;-;-;-;-;-;-;-;-;-;-;-;-;-
1514208573808;-;-;8.286819;0.8345642;-3.3787384;-;-;-;-;-;-;-;-;-;-;-;-;-;-;-
1514208573828;-;-;8.637573;1.4546661;-3.1536713;-;-;-;-;-;-;-;-;-;-;-;-;-;-;-
1514208573849;-;-;9.222961;1.1338501;-3.2757874;-;-;-;-;-;-;-;-;-;-;-;-;-;-;-
1514208573869;-;-;9.498291;0.50177;-2.3408508;-;-;-;-;-;-;-;-;-;-;-;-;-;-;-
1514208573889;-;-;8.8997345;-0.00579834;-1.4537964;-;-;-;-;-;-;-;-;-;-;-;-;-;-;-
1514208573909;-;-;9.114014;-0.44752502;-3.2554321;-;-;-;-;-;-;-;-;-;-;-;-;-;-;-
1514208573930;-;-;9.88974;-0.26437378;-6.610901;-;-;-;-;-;-;-;-;-;-;-;-;-;-;-
1514208573951;-;-;10.714539;-2.5256958;-8.158752;-;-;-;-;-;-;-;-;-;-;-;-;-;-;-
1514208573972;-;-;12.08522;-4.198044;-6.6599884;-;-;-;-;-;-;-;-;-;-;-;-;-;-;-
1514208573992;-;-;9.4133;-3.2930298;-4.9684753;-;-;-;-;-;-;-;-;-;-;-;-;-;-;-
1514208574012;-;-;6.4600525;-1.9307251;-3.7977142;-;-;-;-;-;-;-;-;-;-;-;-;-;-;-
1514208574033;-;-;4.1364746;-0.0045928955;-3.6528625;-;-;-;-;-;-;-;-;-;-;-;-;-;-;-
1514208574053;-;-;4.434555;1.0141296;-4.5854034;-;-;-;-;-;-;-;-;-;-;-;-;-;-;-
1514208574073;-;-;6.011139;1.461853;-6.0051727;-;-;-;-;-;-;-;-;-;-;-;-;-;-;-
1514208574094;-;-;9.954376;0.38685608;-4.1939545;-;-;-;-;-;-;-;-;-;-;-;-;-;-;-
1514208574113;-;-;11.341827;-0.7671509;-4.183182;-;-;-;-;-;-;-;-;-;-;-;-;-;-;-
1514208574133;-;-;11.733276;-2.103119;-3.5559082;-;-;-;-;-;-;-;-;-;-;-;-;-;-;-
1514208574154;-;-;10.915649;-3.131424;-2.7406769;-;-;-;-;-;-;-;-;-;-;-;-;-;-;-
1514208574173;-;-;8.653137;-3.6365967;-2.3169098;-;-;-;-;-;-;-;-;-;-;-;-;-;-;-
1514208574193;-;-;6.506729;-3.4175262;-2.7634277;-;-;-;-;-;-;-;-;-;-;-;-;-;-;-
1514208574214;-;-;4.15683;-1.8158112;-2.5431519;-;-;-;-;-;-;-;-;-;-;-;-;-;-;-
1514208574234;-;-;5.416168;0.20249939;-2.8927155;-;-;-;-;-;-;-;-;-;-;-;-;-;-;-
1514208574254;-;-;7.082535;2.2303925;-3.8623657;-;-;-;-;-;-;-;-;-;-;-;-;-;-;-
1514208574275;-;-;8.8997345;3.0970917;-3.254242;-;-;-;-;-;-;-;-;-;-;-;-;-;-;-
1514208574295;-;-;10.579269;2.4793854;-3.1177673;-;-;-;-;-;-;-;-;-;-;-;-;-;-;-
1514208574315;-;-;11.344223;1.2715149;-3.203949;-;-;-;-;-;-;-;-;-;-;-;-;-;-;-
1514208574336;-;-;10.233307;-0.066848755;-2.7358856;-;-;-;-;-;-;-;-;-;-;-;-;-;-;-
1514208574356;-;-;9.085281;-1.404007;-2.0798798;-;-;-;-;-;-;-;-;-;-;-;-;-;-;-
1514208574376;-;-;7.849884;-3.3433075;-6.7150574;-;-;-;-;-;-;-;-;-;-;-;-;-;-;-
1514208574396;-;-;8.26767;-3.4725952;-6.0961456;-;-;-;-;-;-;-;-;-;-;-;-;-;-;-
1514208574417;-;-;6.794037;-1.5895538;-3.017212;-;-;-;-;-;-;-;-;-;-;-;-;-;-;-
1514208574437;-;-;6.315201;-0.30625916;-3.4517517;-;-;-;-;-;-;-;-;-;-;-;-;-;-;-
1514208574457;-;-;7.1292267;1.4127655;-3.243454;-;-;-;-;-;-;-;-;-;-;-;-;-;-;-
1514208574478;-;-;8.906921;1.4163666;-4.1783905;-;-;-;-;-;-;-;-;-;-;-;-;-;-;-
1514208574498;-;-;11.234085;0.99858093;-5.8423615;-;-;-;-;-;-;-;-;-;-;-;-;-;-;-
1514208574518;-;-;14.382462;0.56881714;-4.468094;-;-;-;-;-;-;-;-;-;-;-;-;-;-;-
1514208574538;-;-;13.07164;1.2080688;-3.3715515;-;-;-;-;-;-;-;-;-;-;-;-;-;-;-
1514208574559;-;-;10.263229;1.1087036;-3.0351715;-;-;-;-;-;-;-;-;-;-;-;-;-;-;-
1514208574579;-;-;7.284851;-0.095581055;-1.9553833;-;-;-;-;-;-;-;-;-;-;-;-;-;-;-
1514208574599;-;-;4.8559265;-1.4387207;-1.001297;-;-;-;-;-;-;-;-;-;-;-;-;-;-;-
1514208574620;-;-;3.0566864;-2.1486053;-0.13458252;-;-;-;-;-;-;-;-;-;-;-;-;-;-;-
1514208574641;-;-;2.5036316;-1.6721649;0.26643372;-;-;-;-;-;-;-;-;-;-;-;-;-;-;-
1514208574661;-;-;3.379898;-0.2272644;-0.52723694;-;-;-;-;-;-;-;-;-;-;-;-;-;-;-
1514208574681;-;-;7.6152496;0.16897583;-1.8763733;-;-;-;-;-;-;-;-;-;-;-;-;-;-;-
1514208574702;-;-;9.993881;-0.03691101;-2.1014252;-;-;-;-;-;-;-;-;-;-;-;-;-;-;-
1514208574721;-;-;11.460342;-0.51216125;-2.168457;-;-;-;-;-;-;-;-;-;-;-;-;-;-;-
1514208574741;-;-;10.70137;-0.44273376;-2.3408508;-;-;-;-;-;-;-;-;-;-;-;-;-;-;-
1514208574762;-;-;9.443222;-0.15782166;-2.0870667;-;-;-;-;-;-;-;-;-;-;-;-;-;-;-
1514208574782;-;-;7.1842957;-0.44992065;-2.0272064;-;-;-;-;-;-;-;-;-;-;-;-;-;-;-
1514208574803;-;-;6.1475983;-0.49301147;-2.491684;-;-;-;-;-;-;-;-;-;-;-;-;-;-;-
1514208574823;-;-;6.0290833;0.16299438;-2.7562408;-;-;-;-;-;-;-;-;-;-;-;-;-;-;-
1514208574843;-;-;6.427719;1.4343262;-2.1612854;-;-;-;-;-;-;-;-;-;-;-;-;-;-;-
1514208574863;-;-;8.07135;1.9442902;-1.5256195;-;-;-;-;-;-;-;-;-;-;-;-;-;-;-
1514208574884;-;-;9.9077;2.0951233;-2.6640625;-;-;-;-;-;-;-;-;-;-;-;-;-;-;-
