TimeStamp[ms];Prox[Cm];Lux[lux];AccX[m/s^2];AccY[m/s^2];AccZ[m/s^2];GyroX[rad/s];GyroY[rad/s];GyroZ[rad/s];MagnX[uT];MagnY[uT];MagnZ[uT];OrienYaw[degrees];OrienPitch[degrees];OrienRoll[degrees];Press[Pa];Temp[C°];Batt[%];Lat;Lng;Speed[m/s]
1514208604741;-;-;8.144363;-1.5021667;3.576416;-;-;-;-;-;-;-;-;-;-;-;-;-;-;-
1514208604747;-;-;8.150345;-1.5153351;3.4962158;-;-;-;-;-;-;-;-;-;-;-;-;-;-;-
1514208604767;-;-;8.270065;-1.7260284;3.5225525;-;-;-;-;-;-;-;-;-;-;-;-;-;-;-
1514208604788;-;-;8.343079;-1.7296143;3.4902344;-;-;-;-;-;-;-;-;-;-;-;-;-;-;-
1514208604808;-;-;8.449631;-1.7774963;3.5345306;-;-;-;-;-;-;-;-;-;-;-;-;-;-;-
1514208604828;-;-;8.503494;-1.8026428;3.4172058;-;-;-;-;-;-;-;-;-;-;-;-;-;-;-
1514208604849;-;-;8.475967;-1.7966614;3.437561;-;-;-;-;-;-;-;-;-;-;-;-;-;-;-
1514208604868;-;-;8.509476;-1.7918701;3.33461;-;-;-;-;-;-;-;-;-;-;-;-;-;-;-
1514208604889;-;-;8.520264;-1.7320099;3.1346893;-;-;-;-;-;-;-;-;-;-;-;-;-;-;-
1514208604908;-;-;8.386185;-1.6577911;2.955124;-;-;-;-;-;-;-;-;-;-;-;-;-;-;-
1514208604928;-;-;8.158737;-1.467453;2.4762878;-;-;-;-;-;-;-;-;-;-;-;-;-;-;-
1514208604949;-;-;8.304779;-1.4889984;2.0572968;-;-;-;-;-;-;-;-;-;-;-;-;-;-;-
1514208604969;-;-;8.471176;-1.6290588;1.5449371;-;-;-;-;-;-;-;-;-;-;-;-;-;-;-
1514208604996;-;-;8.080917;-1.9343262;0.37538147;-;-;-;-;-;-;-;-;-;-;-;-;-;-;-
1514208605010;-;-;8.568146;-1.7224426;0.3705902;-;-;-;-;-;-;-;-;-;-;-;-;-;-;-
1514208605030;-;-;8.847061;-0.95269775;0.31910706;-;-;-;-;-;-;-;-;-;-;-;-;-;-;-
1514208605050;-;-;10.392517;-0.9167938;0.06892395;-;-;-;-;-;-;-;-;-;-;-;-;-;-;-
1514208605070;-;-;10.475128;-0.5504761;0.96195984;-;-;-;-;-;-;-;-;-;-;-;-;-;-;-
1514208605091;-;-;9.361816;-2.016922;-0.03642273;-;-;-;-;-;-;-;-;-;-;-;-;-;-;-
1514208605111;-;-;9.847839;-1.1250763;-0.19683838;-;-;-;-;-;-;-;-;-;-;-;-;-;-;-
1514208605132;-;-;9.437241;-1.8074341;0.15270996;-;-;-;-;-;-;-;-;-;-;-;-;-;-;-
1514208605151;-;-;8.83989;-1.7511597;0.017440796;-;-;-;-;-;-;-;-;-;-;-;-;-;-;-
1514208605172;-;-;8.259293;-1.6625824;-0.056777954;-;-;-;-;-;-;-;-;-;-;-;-;-;-;-
1514208605192;-;-;8.648346;-1.6134949;-0.6685028;-;-;-;-;-;-;-;-;-;-;-;-;-;-;-
1514208605213;-;-;9.172684;-1.8170013;-0.456604;-;-;-;-;-;-;-;-;-;-;-;-;-;-;-
1514208605233;-;-;9.039795;-2.151001;-0.21598816;-;-;-;-;-;-;-;-;-;-;-;-;-;-;-
1514208605253;-;-;10.70137;-2.4502716;0.50704956;-;-;-;-;-;-;-;-;-;-;-;-;-;-;-
1514208605274;-;-;10.48111;-1.9570618;-0.20881653;-;-;-;-;-;-;-;-;-;-;-;-;-;-;-
1514208605294;-;-;9.511459;-1.4351349;-0.19204712;-;-;-;-;-;-;-;-;-;-;-;-;-;-;-
1514208605314;-;-;8.513077;-0.58877563;-0.45899963;-;-;-;-;-;-;-;-;-;-;-;-;-;-;-
1514208605334;-;-;8.778824;-0.8569336;-1.2873993;-;-;-;-;-;-;-;-;-;-;-;-;-;-;-
1514208605355;-;-;9.653915;-1.1143036;-0.14416504;-;-;-;-;-;-;-;-;-;-;-;-;-;-;-
1514208605375;-;-;8.490326;-1.2651367;1.3007355;-;-;-;-;-;-;-;-;-;-;-;-;-;-;-
1514208605395;-;-;9.339081;-0.8425598;0.26524353;-;-;-;-;-;-;-;-;-;-;-;-;-;-;-
1514208605416;-;-;8.944031;-0.7276459;-0.35006714;-;-;-;-;-;-;-;-;-;-;-;-;-;-;-
1514208605436;-;-;8.705811;-0.8880615;-0.6948395;-;-;-;-;-;-;-;-;-;-;-;-;-;-;-
1514208605456;-;-;8.638763;-0.028533936;-1.5926514;-;-;-;-;-;-;-;-;-;-;-;-;-;-;-
1514208605476;-;-;8.819534;-0.64863586;0.48550415;-;-;-;-;-;-;-;-;-;-;-;-;-;-;-
1514208605496;-;-;8.955994;-0.8760834;-0.25190735;-;-;-;-;-;-;-;-;-;-;-;-;-;-;-
1514208605517;-;-;10.18782;-1.0017853;-1.3484497;-;-;-;-;-;-;-;-;-;-;-;-;-;-;-
1514208605537;-;-;12.43956;-0.8868561;-1.1329651;-;-;-;-;-;-;-;-;-;-;-;-;-;-;-
1514208605557;-;-;2.5479126;-0.7336273;1.0888519;-;-;-;-;-;-;-;-;-;-;-;-;-;-;-
1514208605578;-;-;9.072113;-1.696106;-0.79060364;-;-;-;-;-;-;-;-;-;-;-;-;-;-;-
1514208605598;-;-;7.9145203;-0.76356506;-1.1389618;-;-;-;-;-;-;-;-;-;-;-;-;-;-;-
1514208605618;-;-;7.8833923;-0.85095215;-1.7746124;-;-;-;-;-;-;-;-;-;-;-;-;-;-;-
1514208605639;-;-;7.252533;-0.92396545;-0.9905243;-;-;-;-;-;-;-;-;-;-;-;-;-;-;-
1514208605659;-;-;7.008316;-0.28710938;-2.673645;-;-;-;-;-;-;-;-;-;-;-;-;-;-;-
1514208605679;-;-;7.3183746;0.12948608;-3.8731384;-;-;-;-;-;-;-;-;-;-;-;-;-;-;-
1514208605700;-;-;9.036209;0.8273926;-4.107773;-;-;-;-;-;-;-;-;-;-;-;-;-;-;-
1514208605720;-;-;11.129929;2.2387695;-4.793701;-;-;-;-;-;-;-;-;-;-;-;-;-;-;-
1514208605740;-;-;12.989029;1.3696747;-3.6241455;-;-;-;-;-;-;-;-;-;-;-;-;-;-;-
1514208605760;-;-;12.534134;0.3497467;-3.646881;-;-;-;-;-;-;-;-;-;-;-;-;-;-;-
1514208605781;-;-;11.60997;0.28749084;-2.1229706;-;-;-;-;-;-;-;-;-;-;-;-;-;-;-
1514208605802;-;-;10.293167;0.25637817;-1.9924927;-;-;-;-;-;-;-;-;-;-;-;-;-;-;-
1514208605822;-;-;8.311966;-0.5432892;-0.49491882;-;-;-;-;-;-;-;-;-;-;-;-;-;-;-
1514208605843;-;-;7.7493286;0.4766388;-0.377594;-;-;-;-;-;-;-;-;-;-;-;-;-;-;-
1514208605863;-;-;7.3111877;0.9004059;-0.5104828;-;-;-;-;-;-;-;-;-;-;-;-;-;-;-
1514208605883;-;-;7.67511;0.24798584;0.017440796;-;-;-;-;-;-;-;-;-;-;-;-;-;-;-
1514208605904;-;-;7.9181213;0.15940857;-0.5332184;-;-;-;-;-;-;-;-;-;-;-;-;-;-;-
1514208605923;-;-;8.270065;-1.4339294;-0.25549316;-;-;-;-;-;-;-;-;-;-;-;-;-;-;-
1514208605943;-;-;7.8558655;-2.095932;0.4867096;-;-;-;-;-;-;-;-;-;-;-;-;-;-;-
1514208605963;-;-;7.1136627;-2.1474;-0.32133484;-;-;-;-;-;-;-;-;-;-;-;-;-;-;-
1514208605983;-;-;7.1555634;-2.0348816;-0.8492584;-;-;-;-;-;-;-;-;-;-;-;-;-;-;-
1514208606004;-;-;7.502716;-1.6302643;-1.0886841;-;-;-;-;-;-;-;-;-;-;-;-;-;-;-
1514208606023;-;-;8.653137;0.35932922;-2.1062164;-;-;-;-;-;-;-;-;-;-;-;-;-;-;-
1514208606043;-;-;9.285202;-1.1598053;-2.0092468;-;-;-;-;-;-;-;-;-;-;-;-;-;-;-
1514208606063;-;-;9.843048;3.5938873;-2.2283173;-;-;-;-;-;-;-;-;-;-;-;-;-;-;-
1514208606084;-;-;9.63237;5.1764526;-2.0499573;-;-;-;-;-;-;-;-;-;-;-;-;-;-;-
1514208606104;-;-;10.264435;4.144562;-1.5914612;-;-;-;-;-;-;-;-;-;-;-;-;-;-;-
1514208606124;-;-;10.79715;2.979782;-1.7159576;-;-;-;-;-;-;-;-;-;-;-;-;-;-;-
1514208606147;-;-;10.120773;1.1374359;-1.6489258;-;-;-;-;-;-;-;-;-;-;-;-;-;-;-
1514208606165;-;-;9.469559;-0.2320404;-1.0994568;-;-;-;-;-;-;-;-;-;-;-;-;-;-;-
1514208606185;-;-;8.422089;-1.696106;0.1251831;-;-;-;-;-;-;-;-;-;-;-;-;-;-;-
1514208606205;-;-;8.119232;-1.6949005;-0.8325043;-;-;-;-;-;-;-;-;-;-;-;-;-;-;-
1514208606226;-;-;9.146347;-0.71328735;-4.6835785;-;-;-;-;-;-;-;-;-;-;-;-;-;-;-
1514208606246;-;-;10.828262;0.8046417;-5.048691;-;-;-;-;-;-;-;-;-;-;-;-;-;-;-
1514208606266;-;-;12.45752;2.5572052;-4.9792633;-;-;-;-;-;-;-;-;-;-;-;-;-;-;-
1514208606287;-;-;11.977478;2.572754;-5.4341583;-;-;-;-;-;-;-;-;-;-;-;-;-;-;-
1514208606307;-;-;9.013458;-0.6929321;-3.5858307;-;-;-;-;-;-;-;-;-;-;-;-;-;-;-
1514208606327;-;-;6.76651;-3.2307892;-2.5694885;-;-;-;-;-;-;-;-;-;-;-;-;-;-;-
1514208606347;-;-;6.1488037;-4.978546;-2.460556;-;-;-;-;-;-;-;-;-;-;-;-;-;-;-
1514208606368;-;-;8.133591;-3.3361359;-4.1700134;-;-;-;-;-;-;-;-;-;-;-;-;-;-;-
1514208606388;-;-;10.154297;0.15461731;-4.970871;-;-;-;-;-;-;-;-;-;-;-;-;-;-;-
1514208606408;-;-;11.19339;2.9139404;-4.61055;-;-;-;-;-;-;-;-;-;-;-;-;-;-;-
1514208606430;-;-;10.416458;3.101883;-3.9401703;-;-;-;-;-;-;-;-;-;-;-;-;-;-;-
1514208606450;-;-;8.970367;0.9195709;-2.9633331;-;-;-;-;-;-;-;-;-;-;-;-;-;-;-
1514208606471;-;-;8.507095;-2.0971222;-1.9697418;-;-;-;-;-;-;-;-;-;-;-;-;-;-;-
1514208606491;-;-;7.6343994;-3.388794;-1.5806885;-;-;-;-;-;-;-;-;-;-;-;-;-;-;-
1514208606511;-;-;5.9297333;-3.0188904;-1.5663147;-;-;-;-;-;-;-;-;-;-;-;-;-;-;-
1514208606532;-;-;5.1168976;-1.3920441;-2.6628723;-;-;-;-;-;-;-;-;-;-;-;-;-;-;-
1514208606552;-;-;4.9157867;0.13546753;-3.2051544;-;-;-;-;-;-;-;-;-;-;-;-;-;-;-
1514208606572;-;-;6.2709045;0.83935547;-3.270996;-;-;-;-;-;-;-;-;-;-;-;-;-;-;-
1514208606593;-;-;7.5625763;0.80345154;-3.056717;-;-;-;-;-;-;-;-;-;-;-;-;-;-;-
1514208606613;-;-;8.651932;-0.00340271;-3.0435486;-;-;-;-;-;-;-;-;-;-;-;-;-;-;-
1514208606633;-;-;8.570541;-0.3182373;-2.4617462;-;-;-;-;-;-;-;-;-;-;-;-;-;-;-
1514208606653;-;-;8.07254;-1.0831909;-1.9781189;-;-;-;-;-;-;-;-;-;-;-;-;-;-;-
1514208606674;-;-;7.478775;-1.5273132;-1.7470856;-;-;-;-;-;-;-;-;-;-;-;-;-;-;-
1514208606694;-;-;7.4105377;-1.1693726;-2.06073;-;-;-;-;-;-;-;-;-;-;-;-;-;-;-
1514208606714;-;-;6.668335;-0.9143982;-1.9757233;-;-;-;-;-;-;-;-;-;-;-;-;-;-;-
1514208606735;-;-;5.750168;-1.0700226;-1.8332825;-;-;-;-;-;-;-;-;-;-;-;-;-;-;-
1514208606755;-;-;5.902191;-1.1765594;-1.2897949;-;-;-;-;-;-;-;-;-;-;-;-;-;-;-
1514208606775;-;-;7.632004;-0.4834442;-1.1018524;-;-;-;-;-;-;-;-;-;-;-;-;-;-;-
1514208606795;-;-;8.910507;-0.06564331;-1.5890656;-;-;-;-;-;-;-;-;-;-;-;-;-;-;-
1514208606816;-;-;9.919662;-0.078811646;-2.3169098;-;-;-;-;-;-;-;-;-;-;-;-;-;-;-
1514208606837;-;-;10.368576;-0.38407898;-2.381546;-;-;-;-;-;-;-;-;-;-;-;-;-;-;-
1514208606857;-;-;10.069305;-0.82221985;-2.2989502;-;-;-;-;-;-;-;-;-;-;-;-;-;-;-
1514208606877;-;-;9.781998;-1.0221252;-2.2522583;-;-;-;-;-;-;-;-;-;-;-;-;-;-;-
1514208606898;-;-;9.5354;-0.720459;-1.7578583;-;-;-;-;-;-;-;-;-;-;-;-;-;-;-
1514208606918;-;-;8.763275;-0.3757019;-2.5575256;-;-;-;-;-;-;-;-;-;-;-;-;-;-;-
1514208606939;-;-;8.44603;-0.052474976;-5.223465;-;-;-;-;-;-;-;-;-;-;-;-;-;-;-
1514208606959;-;-;8.280838;1.343338;-7.037079;-;-;-;-;-;-;-;-;-;-;-;-;-;-;-
1514208606980;-;-;8.255692;3.2539063;-6.148819;-;-;-;-;-;-;-;-;-;-;-;-;-;-;-
1514208606999;-;-;8.9991;4.403122;-3.9102478;-;-;-;-;-;-;-;-;-;-;-;-;-;-;-
1514208607019;-;-;11.45076;2.8229523;-2.1768494;-;-;-;-;-;-;-;-;-;-;-;-;-;-;-
1514208607040;-;-;13.424774;1.319397;-4.061081;-;-;-;-;-;-;-;-;-;-;-;-;-;-;-
1514208607060;-;-;17.508087;-0.033325195;-4.4429626;-;-;-;-;-;-;-;-;-;-;-;-;-;-;-
1514208607080;-;-;17.804977;-0.20930481;-2.5958252;-;-;-;-;-;-;-;-;-;-;-;-;-;-;-
1514208607100;-;-;12.48027;0.5257263;-2.2953491;-;-;-;-;-;-;-;-;-;-;-;-;-;-;-
1514208607121;-;-;8.5849;0.5927582;-3.1871948;-;-;-;-;-;-;-;-;-;-;-;-;-;-;-
1514208607140;-;-;4.533905;0.3605194;-2.0164337;-;-;-;-;-;-;-;-;-;-;-;-;-;-;-
1514208607160;-;-;2.8196564;0.036102295;-0.74272156;-;-;-;-;-;-;-;-;-;-;-;-;-;-;-
1514208607180;-;-;3.3775177;0.22164917;-0.0914917;-;-;-;-;-;-;-;-;-;-;-;-;-;-;-
1514208607201;-;-;5.2988586;0.20249939;-0.19683838;-;-;-;-;-;-;-;-;-;-;-;-;-;-;-
1514208607221;-;-;7.035858;-0.2679596;-1.0084686;-;-;-;-;-;-;-;-;-;-;-;-;-;-;-
1514208607241;-;-;7.8486786;-0.6067352;-1.1197968;-;-;-;-;-;-;-;-;-;-;-;-;-;-;-
1514208607262;-;-;8.813553;-0.62828064;-0.9976959;-;-;-;-;-;-;-;-;-;-;-;-;-;-;-
1514208607282;-;-;9.462372;-0.114730835;-1.2299347;-;-;-;-;-;-;-;-;-;-;-;-;-;-;-
1514208607302;-;-;8.818329;0.86450195;-1.5411835;-;-;-;-;-;-;-;-;-;-;-;-;-;-;-
1514208607323;-;-;6.9795837;0.9171753;-1.871582;-;-;-;-;-;-;-;-;-;-;-;-;-;-;-
1514208607342;-;-;4.5434875;0.45509338;-1.3843689;-;-;-;-;-;-;-;-;-;-;-;-;-;-;-
1514208607362;-;-;3.4086304;0.45388794;0.21257019;-;-;-;-;-;-;-;-;-;-;-;-;-;-;-
1514208607382;-;-;4.3651123;0.8453522;0.9966736;-;-;-;-;-;-;-;-;-;-;-;-;-;-;-
1514208607403;-;-;6.240982;0.7328186;-0.78341675;-;-;-;-;-;-;-;-;-;-;-;-;-;-;-
1514208607423;-;-;8.554977;0.5592346;-1.9601746;-;-;-;-;-;-;-;-;-;-;-;-;-;-;-
1514208607443;-;-;10.3697815;1.0021667;-2.7191315;-;-;-;-;-;-;-;-;-;-;-;-;-;-;-
1514208607463;-;-;11.672226;1.7383881;-2.8017273;-;-;-;-;-;-;-;-;-;-;-;-;-;-;-
1514208607484;-;-;11.842209;2.1358185;-3.3033142;-;-;-;-;-;-;-;-;-;-;-;-;-;-;-
1514208607504;-;-;9.9986725;1.8485107;-3.1237488;-;-;-;-;-;-;-;-;-;-;-;-;-;-;-
1514208607524;-;-;7.961212;0.9315338;-2.8148956;-;-;-;-;-;-;-;-;-;-;-;-;-;-;-
1514208607544;-;-;7.126831;-0.63427734;-5.298889;-;-;-;-;-;-;-;-;-;-;-;-;-;-;-
1514208607565;-;-;9.269638;-2.7279968;-4.9409485;-;-;-;-;-;-;-;-;-;-;-;-;-;-;-
1514208607586;-;-;11.299927;-2.8201752;-3.8108826;-;-;-;-;-;-;-;-;-;-;-;-;-;-;-
1514208607606;-;-;12.632294;-2.0528412;-2.7873688;-;-;-;-;-;-;-;-;-;-;-;-;-;-;-
1514208607626;-;-;15.480194;-1.9163666;-2.2690277;-;-;-;-;-;-;-;-;-;-;-;-;-;-;-
1514208607646;-;-;19.521606;-4.905533;-2.5108337;-;-;-;-;-;-;-;-;-;-;-;-;-;-;-
1514208607666;-;-;20.656464;-6.5659027;-3.405075;-;-;-;-;-;-;-;-;-;-;-;-;-;-;-
1514208607687;-;-;16.09311;-1.9008026;-0.99650574;-;-;-;-;-;-;-;-;-;-;-;-;-;-;-
1514208607706;-;-;7.451248;1.2954559;-0.82292175;-;-;-;-;-;-;-;-;-;-;-;-;-;-;-
1514208607726;-;-;2.1169586;2.2698975;-1.7746124;-;-;-;-;-;-;-;-;-;-;-;-;-;-;-
1514208607746;-;-;1.0000763;2.7164154;-1.2227478;-;-;-;-;-;-;-;-;-;-;-;-;-;-;-
1514208607766;-;-;4.23822;0.8525238;-1.4837189;-;-;-;-;-;-;-;-;-;-;-;-;-;-;-
1514208607787;-;-;6.557007;-0.4163971;-2.4701385;-;-;-;-;-;-;-;-;-;-;-;-;-;-;-
1514208607807;-;-;7.5841217;-1.2376099;-2.2726135;-;-;-;-;-;-;-;-;-;-;-;-;-;-;-
1514208607827;-;-;7.6260223;-1.4602661;-2.342041;-;-;-;-;-;-;-;-;-;-;-;-;-;-;-
1514208607848;-;-;7.485962;-0.9479065;-2.515625;-;-;-;-;-;-;-;-;-;-;-;-;-;-;-
1514208607868;-;-;6.746155;-0.13148499;-1.7183533;-;-;-;-;-;-;-;-;-;-;-;-;-;-;-
1514208607888;-;-;6.304428;-0.67378235;-1.045578;-;-;-;-;-;-;-;-;-;-;-;-;-;-;-
1514208607908;-;-;5.237808;-1.4866028;-1.0324097;-;-;-;-;-;-;-;-;-;-;-;-;-;-;-
1514208607929;-;-;4.5434875;-1.803833;-1.1281891;-;-;-;-;-;-;-;-;-;-;-;-;-;-;-
1514208607950;-;-;5.509552;-2.1126862;-0.16452026;-;-;-;-;-;-;-;-;-;-;-;-;-;-;-
1514208607971;-;-;7.269287;-2.009735;0.68063354;-;-;-;-;-;-;-;-;-;-;-;-;-;-;-
1514208607990;-;-;9.239716;-1.743988;-0.21240234;-;-;-;-;-;-;-;-;-;-;-;-;-;-;-
1514208608010;-;-;10.76123;-1.3824615;-1.8979187;-;-;-;-;-;-;-;-;-;-;-;-;-;-;-
1514208608030;-;-;10.915649;0.057647705;-2.8663788;-;-;-;-;-;-;-;-;-;-;-;-;-;-;-
1514208608051;-;-;9.645538;0.63705444;-1.784195;-;-;-;-;-;-;-;-;-;-;-;-;-;-;-
1514208608072;-;-;8.373016;-0.5744171;-3.1871948;-;-;-;-;-;-;-;-;-;-;-;-;-;-;-
1514208608091;-;-;7.320755;-0.7623596;-6.5019684;-;-;-;-;-;-;-;-;-;-;-;-;-;-;-
1514208608111;-;-;7.4284973;0.71965027;-5.0606537;-;-;-;-;-;-;-;-;-;-;-;-;-;-;-
1514208608131;-;-;8.973953;2.6409912;-2.4569702;-;-;-;-;-;-;-;-;-;-;-;-;-;-;-
1514208608151;-;-;12.327042;3.355667;-2.6999817;-;-;-;-;-;-;-;-;-;-;-;-;-;-;-
1514208608171;-;-;16.96939;1.477417;-2.4629517;-;-;-;-;-;-;-;-;-;-;-;-;-;-;-
1514208608192;-;-;18.222763;0.5185394;-5.7525787;-;-;-;-;-;-;-;-;-;-;-;-;-;-;-
1514208608212;-;-;20.741455;0.6933136;-5.16481;-;-;-;-;-;-;-;-;-;-;-;-;-;-;-
1514208608232;-;-;14.345352;0.52212524;-1.5842743;-;-;-;-;-;-;-;-;-;-;-;-;-;-;-
1514208608252;-;-;8.228165;0.019348145;-0.5679474;-;-;-;-;-;-;-;-;-;-;-;-;-;-;-
1514208608273;-;-;3.3487854;0.64782715;-1.1269836;-;-;-;-;-;-;-;-;-;-;-;-;-;-;-
1514208608293;-;-;0.39793396;1.8461151;-1.1688843;-;-;-;-;-;-;-;-;-;-;-;-;-;-;-
1514208608313;-;-;0.6014404;2.081955;-1.1629028;-;-;-;-;-;-;-;-;-;-;-;-;-;-;-
1514208608333;-;-;5.0103607;1.7671051;-1.5004883;-;-;-;-;-;-;-;-;-;-;-;-;-;-;-
1514208608353;-;-;8.994308;1.062027;-1.2454987;-;-;-;-;-;-;-;-;-;-;-;-;-;-;-
1514208608373;-;-;11.277176;-0.19732666;-1.2179718;-;-;-;-;-;-;-;-;-;-;-;-;-;-;-
1514208608393;-;-;11.414841;-1.4111938;-1.9170685;-;-;-;-;-;-;-;-;-;-;-;-;-;-;-
1514208608414;-;-;10.495468;-1.6194916;-2.1457214;-;-;-;-;-;-;-;-;-;-;-;-;-;-;-
1514208608434;-;-;8.495117;-0.05128479;-2.467743;-;-;-;-;-;-;-;-;-;-;-;-;-;-;-
1514208608454;-;-;6.182312;0.72802734;-1.9529877;-;-;-;-;-;-;-;-;-;-;-;-;-;-;-
1514208608475;-;-;3.5702515;1.109909;-1.0551605;-;-;-;-;-;-;-;-;-;-;-;-;-;-;-
1514208608494;-;-;2.1875916;1.5312805;-0.91030884;-;-;-;-;-;-;-;-;-;-;-;-;-;-;-
1514208608515;-;-;2.6173553;1.5839539;-2.2905731;-;-;-;-;-;-;-;-;-;-;-;-;-;-;-
1514208608536;-;-;4.6416473;1.0249176;-2.752655;-;-;-;-;-;-;-;-;-;-;-;-;-;-;-
1514208608557;-;-;7.027466;1.046463;-1.4514008;-;-;-;-;-;-;-;-;-;-;-;-;-;-;-
1514208608578;-;-;8.289215;1.7515564;-1.942215;-;-;-;-;-;-;-;-;-;-;-;-;-;-;-
1514208608598;-;-;7.317169;1.2715149;-4.788925;-;-;-;-;-;-;-;-;-;-;-;-;-;-;-
1514208608618;-;-;5.940506;0.046875;-6.5498505;-;-;-;-;-;-;-;-;-;-;-;-;-;-;-
1514208608639;-;-;7.849884;-1.020935;-6.207489;-;-;-;-;-;-;-;-;-;-;-;-;-;-;-
1514208608659;-;-;12.4730835;-3.218811;-5.89624;-;-;-;-;-;-;-;-;-;-;-;-;-;-;-
1514208608680;-;-;16.29184;-3.5432281;-1.6213837;-;-;-;-;-;-;-;-;-;-;-;-;-;-;-
1514208608700;-;-;23.090164;-3.067978;-1.8117218;-;-;-;-;-;-;-;-;-;-;-;-;-;-;-
1514208608720;-;-;21.843994;-4.3704224;-1.5423737;-;-;-;-;-;-;-;-;-;-;-;-;-;-;-
1514208608740;-;-;22.369522;-4.6397705;-2.4821014;-;-;-;-;-;-;-;-;-;-;-;-;-;-;-
1514208608761;-;-;15.117477;-2.9291077;0.79556274;-;-;-;-;-;-;-;-;-;-;-;-;-;-;-
1514208608781;-;-;9.566528;-1.2112732;-0.9115143;-;-;-;-;-;-;-;-;-;-;-;-;-;-;-
1514208608801;-;-;6.4959564;0.110321045;-2.263031;-;-;-;-;-;-;-;-;-;-;-;-;-;-;-
1514208608822;-;-;4.67157;1.2475739;-1.8643951;-;-;-;-;-;-;-;-;-;-;-;-;-;-;-
1514208608842;-;-;4.714676;1.5157166;-1.5615387;-;-;-;-;-;-;-;-;-;-;-;-;-;-;-
1514208608862;-;-;4.532715;0.68852234;-2.7011719;-;-;-;-;-;-;-;-;-;-;-;-;-;-;-
1514208608882;-;-;4.4680634;0.20729065;-3.0782623;-;-;-;-;-;-;-;-;-;-;-;-;-;-;-
1514208608903;-;-;5.296463;-0.38168335;-2.1277618;-;-;-;-;-;-;-;-;-;-;-;-;-;-;-
1514208608923;-;-;5.4413147;-0.72525024;-2.069107;-;-;-;-;-;-;-;-;-;-;-;-;-;-;-
1514208608943;-;-;5.842346;-0.6522217;-2.836441;-;-;-;-;-;-;-;-;-;-;-;-;-;-;-
1514208608964;-;-;6.331955;-1.0963593;-2.6508942;-;-;-;-;-;-;-;-;-;-;-;-;-;-;-
1514208608984;-;-;6.3068237;-1.8206024;-2.4378052;-;-;-;-;-;-;-;-;-;-;-;-;-;-;-
1514208609004;-;-;6.2709045;-1.8553162;-1.3496399;-;-;-;-;-;-;-;-;-;-;-;-;-;-;-
1514208609024;-;-;6.58934;-1.1095276;0.60043335;-;-;-;-;-;-;-;-;-;-;-;-;-;-;-
1514208609045;-;-;8.133591;-0.5720215;0.9212494;-;-;-;-;-;-;-;-;-;-;-;-;-;-;-
1514208609065;-;-;7.909729;-0.7551727;-1.0671387;-;-;-;-;-;-;-;-;-;-;-;-;-;-;-
1514208609085;-;-;8.009094;-1.4494934;-1.3652039;-;-;-;-;-;-;-;-;-;-;-;-;-;-;-
1514208609105;-;-;8.627991;-1.7763062;-0.8312988;-;-;-;-;-;-;-;-;-;-;-;-;-;-;-
1514208609125;-;-;9.042191;-1.8002472;-1.6848297;-;-;-;-;-;-;-;-;-;-;-;-;-;-;-
1514208609146;-;-;8.90094;-0.51934814;-3.3116913;-;-;-;-;-;-;-;-;-;-;-;-;-;-;-
1514208609166;-;-;8.52504;1.1709595;-5.140869;-;-;-;-;-;-;-;-;-;-;-;-;-;-;-
1514208609186;-;-;9.398926;1.9047852;-4.2083282;-;-;-;-;-;-;-;-;-;-;-;-;-;-;-
1514208609206;-;-;11.360977;2.3740387;-1.9374237;-;-;-;-;-;-;-;-;-;-;-;-;-;-;-
1514208609227;-;-;15.297043;2.8229523;-2.5192108;-;-;-;-;-;-;-;-;-;-;-;-;-;-;-
1514208609247;-;-;18.258667;2.3680573;-3.6636505;-;-;-;-;-;-;-;-;-;-;-;-;-;-;-
1514208609267;-;-;22.198334;1.916748;-5.358734;-;-;-;-;-;-;-;-;-;-;-;-;-;-;-
1514208609287;-;-;18.304169;0.7723236;-3.38591;-;-;-;-;-;-;-;-;-;-;-;-;-;-;-
1514208609308;-;-;11.747635;0.27192688;-2.5766754;-;-;-;-;-;-;-;-;-;-;-;-;-;-;-
1514208609328;-;-;6.7653046;0.29348755;-1.9877014;-;-;-;-;-;-;-;-;-;-;-;-;-;-;-
1514208609350;-;-;2.0187988;0.8632965;-1.3017578;-;-;-;-;-;-;-;-;-;-;-;-;-;-;-
1514208609370;-;-;0.45059204;0.9087982;-1.4178772;-;-;-;-;-;-;-;-;-;-;-;-;-;-;-
1514208609391;-;-;1.1927948;0.58677673;-1.2514801;-;-;-;-;-;-;-;-;-;-;-;-;-;-;-
1514208609411;-;-;4.8068542;0.47305298;-1.579483;-;-;-;-;-;-;-;-;-;-;-;-;-;-;-
1514208609431;-;-;7.0849304;1.130249;-1.48732;-;-;-;-;-;-;-;-;-;-;-;-;-;-;-
1514208609452;-;-;7.976776;1.6078949;-1.6453247;-;-;-;-;-;-;-;-;-;-;-;-;-;-;-
1514208609472;-;-;8.316742;1.6174774;-1.7817993;-;-;-;-;-;-;-;-;-;-;-;-;-;-;-
1514208609492;-;-;9.774811;0.84295654;-0.93785095;-;-;-;-;-;-;-;-;-;-;-;-;-;-;-
1514208609512;-;-;10.755249;-0.08958435;-0.8767853;-;-;-;-;-;-;-;-;-;-;-;-;-;-;-
1514208609533;-;-;10.096832;-0.20092773;-1.4298553;-;-;-;-;-;-;-;-;-;-;-;-;-;-;-
1514208609553;-;-;7.679886;0.44432068;-1.4310455;-;-;-;-;-;-;-;-;-;-;-;-;-;-;-
1514208609573;-;-;5.7920685;0.91238403;-1.6225891;-;-;-;-;-;-;-;-;-;-;-;-;-;-;-
1514208609593;-;-;5.086975;0.88604736;-1.9877014;-;-;-;-;-;-;-;-;-;-;-;-;-;-;-
1514208609614;-;-;5.8950195;0.43354797;-1.4741516;-;-;-;-;-;-;-;-;-;-;-;-;-;-;-
1514208609634;-;-;7.961212;0.9243469;-0.7463074;-;-;-;-;-;-;-;-;-;-;-;-;-;-;-
1514208609655;-;-;8.90213;2.272293;-2.4701385;-;-;-;-;-;-;-;-;-;-;-;-;-;-;-
1514208609676;-;-;7.6547546;2.8911896;-4.2885284;-;-;-;-;-;-;-;-;-;-;-;-;-;-;-
1514208609696;-;-;5.861496;2.058014;-3.9497528;-;-;-;-;-;-;-;-;-;-;-;-;-;-;-
1514208609716;-;-;4.82959;0.81422424;-2.468933;-;-;-;-;-;-;-;-;-;-;-;-;-;-;-
1514208609736;-;-;7.0214844;-0.9610748;-1.8524323;-;-;-;-;-;-;-;-;-;-;-;-;-;-;-
1514208609757;-;-;11.278381;-3.7120209;-6.6611786;-;-;-;-;-;-;-;-;-;-;-;-;-;-;-
1514208609777;-;-;15.189301;-4.226776;-3.856369;-;-;-;-;-;-;-;-;-;-;-;-;-;-;-
1514208609797;-;-;19.412674;-4.195648;-0.65652466;-;-;-;-;-;-;-;-;-;-;-;-;-;-;-
1514208609818;-;-;20.83603;-4.5212555;-1.0467834;-;-;-;-;-;-;-;-;-;-;-;-;-;-;-
1514208609839;-;-;20.312897;-4.1573334;-2.3001404;-;-;-;-;-;-;-;-;-;-;-;-;-;-;-
1514208609859;-;-;15.611877;-2.2431793;-0.08430481;-;-;-;-;-;-;-;-;-;-;-;-;-;-;-
1514208609878;-;-;10.95636;-1.2208557;-0.6601105;-;-;-;-;-;-;-;-;-;-;-;-;-;-;-
1514208609898;-;-;6.9472656;0.18214417;-2.179245;-;-;-;-;-;-;-;-;-;-;-;-;-;-;-
1514208609919;-;-;4.264557;0.8381653;-2.3528137;-;-;-;-;-;-;-;-;-;-;-;-;-;-;-
1514208609940;-;-;4.01915;0.92196655;-1.3209229;-;-;-;-;-;-;-;-;-;-;-;-;-;-;-
1514208609960;-;-;6.233795;0.6322632;-2.1433258;-;-;-;-;-;-;-;-;-;-;-;-;-;-;-
1514208609980;-;-;6.560608;0.25875854;-2.7107544;-;-;-;-;-;-;-;-;-;-;-;-;-;-;-
1514208610000;-;-;5.686722;-0.56604004;-2.5168152;-;-;-;-;-;-;-;-;-;-;-;-;-;-;-
1514208610021;-;-;5.1492157;-1.0999451;-2.9262238;-;-;-;-;-;-;-;-;-;-;-;-;-;-;-
1514208610041;-;-;4.881073;-1.2986603;-3.0950165;-;-;-;-;-;-;-;-;-;-;-;-;-;-;-
1514208610061;-;-;4.719467;-1.4602661;-2.852005;-;-;-;-;-;-;-;-;-;-;-;-;-;-;-
1514208610082;-;-;4.745804;-1.6194916;-2.005661;-;-;-;-;-;-;-;-;-;-;-;-;-;-;-
1514208610102;-;-;5.1791534;-1.4902039;-0.93185425;-;-;-;-;-;-;-;-;-;-;-;-;-;-;-
1514208610122;-;-;6.2541504;-1.3752747;-0.36802673;-;-;-;-;-;-;-;-;-;-;-;-;-;-;-
1514208610142;-;-;6.8515015;-1.3513336;0.21975708;-;-;-;-;-;-;-;-;-;-;-;-;-;-;-
1514208610162;-;-;7.99234;-1.6925049;0.8410492;-;-;-;-;-;-;-;-;-;-;-;-;-;-;-
1514208610183;-;-;9.905304;-2.4981537;0.23532104;-;-;-;-;-;-;-;-;-;-;-;-;-;-;-
1514208610203;-;-;10.647507;-2.4407043;-1.4346466;-;-;-;-;-;-;-;-;-;-;-;-;-;-;-
1514208610223;-;-;8.705811;-1.3788757;-3.0004425;-;-;-;-;-;-;-;-;-;-;-;-;-;-;-
1514208610244;-;-;8.0905;-0.83418274;-6.6564026;-;-;-;-;-;-;-;-;-;-;-;-;-;-;-
1514208610264;-;-;9.115219;0.59036255;-5.8148346;-;-;-;-;-;-;-;-;-;-;-;-;-;-;-
1514208610285;-;-;12.366547;3.573532;-5.231842;-;-;-;-;-;-;-;-;-;-;-;-;-;-;-
1514208610305;-;-;15.960236;5.680435;-4.4896393;-;-;-;-;-;-;-;-;-;-;-;-;-;-;-
1514208610325;-;-;18.947006;3.3101807;-4.773361;-;-;-;-;-;-;-;-;-;-;-;-;-;-;-
1514208610345;-;-;18.754272;2.3465118;-8.9691925;-;-;-;-;-;-;-;-;-;-;-;-;-;-;-
1514208610366;-;-;16.525269;1.4893799;-3.9282074;-;-;-;-;-;-;-;-;-;-;-;-;-;-;-
1514208610386;-;-;12.348587;-0.9790344;-2.2642365;-;-;-;-;-;-;-;-;-;-;-;-;-;-;-
1514208610406;-;-;8.8207245;-1.7236328;-2.4701385;-;-;-;-;-;-;-;-;-;-;-;-;-;-;-
1514208610427;-;-;6.554611;-0.72406006;-2.859192;-;-;-;-;-;-;-;-;-;-;-;-;-;-;-
1514208610446;-;-;4.842758;1.0931396;-2.8244781;-;-;-;-;-;-;-;-;-;-;-;-;-;-;-
1514208610466;-;-;3.3499756;2.371643;-2.2522583;-;-;-;-;-;-;-;-;-;-;-;-;-;-;-
1514208610486;-;-;2.837616;1.7228241;-1.5280151;-;-;-;-;-;-;-;-;-;-;-;-;-;-;-
1514208610507;-;-;4.660797;0.14263916;-1.1186066;-;-;-;-;-;-;-;-;-;-;-;-;-;-;-
1514208610527;-;-;6.62764;-1.3226013;-0.9917145;-;-;-;-;-;-;-;-;-;-;-;-;-;-;-
1514208610547;-;-;7.462021;-1.5847626;-1.8979187;-;-;-;-;-;-;-;-;-;-;-;-;-;-;-
1514208610567;-;-;7.525467;-1.1286774;-2.029602;-;-;-;-;-;-;-;-;-;-;-;-;-;-;-
1514208610588;-;-;8.033035;-0.28231812;-1.1928253;-;-;-;-;-;-;-;-;-;-;-;-;-;-;-
1514208610608;-;-;8.326324;0.5448761;-0.87080383;-;-;-;-;-;-;-;-;-;-;-;-;-;-;-
1514208610628;-;-;7.509903;0.65141296;-1.4549866;-;-;-;-;-;-;-;-;-;-;-;-;-;-;-
1514208610649;-;-;6.436096;0.47424316;-2.977707;-;-;-;-;-;-;-;-;-;-;-;-;-;-;-
1514208610669;-;-;5.917755;0.7687378;-2.4713287;-;-;-;-;-;-;-;-;-;-;-;-;-;-;-
1514208610689;-;-;7.111267;1.2463684;-1.2419128;-;-;-;-;-;-;-;-;-;-;-;-;-;-;-
1514208610709;-;-;8.635178;1.9670258;-1.8907318;-;-;-;-;-;-;-;-;-;-;-;-;-;-;-
1514208610730;-;-;8.375412;2.050827;-3.4756927;-;-;-;-;-;-;-;-;-;-;-;-;-;-;-
1514208610750;-;-;6.5282745;1.1434174;-3.270996;-;-;-;-;-;-;-;-;-;-;-;-;-;-;-
1514208610770;-;-;4.7134705;0.08039856;-2.4138641;-;-;-;-;-;-;-;-;-;-;-;-;-;-;-
1514208610791;-;-;4.642853;-0.97424316;-2.9489746;-;-;-;-;-;-;-;-;-;-;-;-;-;-;-
1514208610811;-;-;6.6611633;-1.4794312;-4.634491;-;-;-;-;-;-;-;-;-;-;-;-;-;-;-
1514208610831;-;-;8.994308;-1.6063232;-5.0510864;-;-;-;-;-;-;-;-;-;-;-;-;-;-;-
1514208610852;-;-;12.971085;-1.5321045;-3.0698853;-;-;-;-;-;-;-;-;-;-;-;-;-;-;-
1514208610872;-;-;16.459427;-1.6817322;-4.714691;-;-;-;-;-;-;-;-;-;-;-;-;-;-;-
1514208610892;-;-;23.868286;-3.069168;-3.2099457;-;-;-;-;-;-;-;-;-;-;-;-;-;-;-
1514208610913;-;-;24.98877;-4.5727386;-4.9577026;-;-;-;-;-;-;-;-;-;-;-;-;-;-;-
1514208610934;-;-;20.427826;-2.7782745;-0.6661072;-;-;-;-;-;-;-;-;-;-;-;-;-;-;-
1514208610954;-;-;11.230499;-1.7212372;-0.2566986;-;-;-;-;-;-;-;-;-;-;-;-;-;-;-
1514208610974;-;-;4.793686;-2.332962;-0.64694214;-;-;-;-;-;-;-;-;-;-;-;-;-;-;-
1514208610993;-;-;2.743042;-2.2731018;-1.7207489;-;-;-;-;-;-;-;-;-;-;-;-;-;-;-
1514208611013;-;-;2.0211945;-1.2040863;-1.4226685;-;-;-;-;-;-;-;-;-;-;-;-;-;-;-
1514208611033;-;-;5.8710785;-0.61750793;-2.625763;-;-;-;-;-;-;-;-;-;-;-;-;-;-;-
1514208611054;-;-;7.632004;0.7651367;-4.1987457;-;-;-;-;-;-;-;-;-;-;-;-;-;-;-
1514208611074;-;-;7.051407;1.2739105;-2.7143402;-;-;-;-;-;-;-;-;-;-;-;-;-;-;-
1514208611094;-;-;4.664398;0.72084045;-1.1820526;-;-;-;-;-;-;-;-;-;-;-;-;-;-;-
1514208611115;-;-;3.8790894;-0.39964294;-1.0755157;-;-;-;-;-;-;-;-;-;-;-;-;-;-;-
1514208611135;-;-;4.848755;-1.4447021;-1.8356628;-;-;-;-;-;-;-;-;-;-;-;-;-;-;-
1514208611155;-;-;6.6539764;-2.0504456;-2.9501648;-;-;-;-;-;-;-;-;-;-;-;-;-;-;-
1514208611175;-;-;8.542999;-2.1976929;-1.5926514;-;-;-;-;-;-;-;-;-;-;-;-;-;-;-
1514208611195;-;-;9.7808075;-2.2647247;2.5445251;-;-;-;-;-;-;-;-;-;-;-;-;-;-;-
1514208611216;-;-;9.014664;-3.1697388;2.3841095;-;-;-;-;-;-;-;-;-;-;-;-;-;-;-
1514208611235;-;-;8.655533;-3.7850342;1.2827759;-;-;-;-;-;-;-;-;-;-;-;-;-;-;-
1514208611255;-;-;8.48793;-2.28508;1.6921844;-;-;-;-;-;-;-;-;-;-;-;-;-;-;-
1514208611276;-;-;9.249298;-0.07522583;1.8789368;-;-;-;-;-;-;-;-;-;-;-;-;-;-;-
1514208611296;-;-;10.221344;0.91477966;-1.8260956;-;-;-;-;-;-;-;-;-;-;-;-;-;-;-
1514208611316;-;-;9.659897;-0.5444946;-10.032227;-;-;-;-;-;-;-;-;-;-;-;-;-;-;-
1514208611337;-;-;9.71257;-0.3469696;-10.904907;-;-;-;-;-;-;-;-;-;-;-;-;-;-;-
1514208611356;-;-;12.1762085;1.6964874;-6.360718;-;-;-;-;-;-;-;-;-;-;-;-;-;-;-
1514208611377;-;-;13.058472;3.8452759;-3.8982697;-;-;-;-;-;-;-;-;-;-;-;-;-;-;-
1514208611397;-;-;15.177338;2.7020416;-8.804001;-;-;-;-;-;-;-;-;-;-;-;-;-;-;-
1514208611417;-;-;17.584702;0.7016907;-7.8451233;-;-;-;-;-;-;-;-;-;-;-;-;-;-;-
1514208611437;-;-;16.07994;-1.8720703;-4.962494;-;-;-;-;-;-;-;-;-;-;-;-;-;-;-
1514208611458;-;-;13.251205;-2.016922;-4.347183;-;-;-;-;-;-;-;-;-;-;-;-;-;-;-
1514208611478;-;-;10.123169;-0.90960693;-2.547943;-;-;-;-;-;-;-;-;-;-;-;-;-;-;-
1514208611498;-;-;8.879379;0.040893555;-2.2259216;-;-;-;-;-;-;-;-;-;-;-;-;-;-;-
1514208611518;-;-;6.29126;1.659378;-2.5012512;-;-;-;-;-;-;-;-;-;-;-;-;-;-;-
1514208611539;-;-;4.0802155;1.9442902;-2.898697;-;-;-;-;-;-;-;-;-;-;-;-;-;-;-
1514208611559;-;-;3.3667297;0.6214905;-2.3863373;-;-;-;-;-;-;-;-;-;-;-;-;-;-;-
1514208611579;-;-;7.5194855;-0.49061584;-1.1688843;-;-;-;-;-;-;-;-;-;-;-;-;-;-;-
1514208611600;-;-;9.133179;0.08758545;-1.8296814;-;-;-;-;-;-;-;-;-;-;-;-;-;-;-
1514208611620;-;-;7.319565;0.69091797;-2.5659027;-;-;-;-;-;-;-;-;-;-;-;-;-;-;-
1514208611640;-;-;6.576172;1.1170807;-1.8679962;-;-;-;-;-;-;-;-;-;-;-;-;-;-;-
1514208611661;-;-;6.434906;1.6067047;-1.9613647;-;-;-;-;-;-;-;-;-;-;-;-;-;-;-
1514208611681;-;-;6.7401733;1.453476;-2.3516235;-;-;-;-;-;-;-;-;-;-;-;-;-;-;-
1514208611701;-;-;7.4895477;1.1793365;-2.3959198;-;-;-;-;-;-;-;-;-;-;-;-;-;-;-
1514208611721;-;-;8.856644;1.9287262;-2.444992;-;-;-;-;-;-;-;-;-;-;-;-;-;-;-
1514208611742;-;-;9.90889;2.311798;-3.3009186;-;-;-;-;-;-;-;-;-;-;-;-;-;-;-
1514208611762;-;-;10.313507;1.8197784;-2.2187347;-;-;-;-;-;-;-;-;-;-;-;-;-;-;-
1514208611782;-;-;10.230911;1.3409424;-0.28182983;-;-;-;-;-;-;-;-;-;-;-;-;-;-;-
1514208611803;-;-;10.283585;-0.33021545;0.71295166;-;-;-;-;-;-;-;-;-;-;-;-;-;-;-
1514208611823;-;-;10.139938;-1.7619476;-3.156067;-;-;-;-;-;-;-;-;-;-;-;-;-;-;-
1514208611843;-;-;10.343445;-3.2319794;-9.106857;-;-;-;-;-;-;-;-;-;-;-;-;-;-;-
1514208611864;-;-;11.158661;-3.7060394;-5.899826;-;-;-;-;-;-;-;-;-;-;-;-;-;-;-
1514208611884;-;-;10.924042;-2.909958;-6.5618286;-;-;-;-;-;-;-;-;-;-;-;-;-;-;-
1514208611904;-;-;9.999878;-4.590683;-5.938141;-;-;-;-;-;-;-;-;-;-;-;-;-;-;-
1514208611925;-;-;10.209366;-3.8975677;-5.50119;-;-;-;-;-;-;-;-;-;-;-;-;-;-;-
1514208611945;-;-;10.163879;-0.88446045;-5.3910522;-;-;-;-;-;-;-;-;-;-;-;-;-;-;-
1514208611965;-;-;9.407303;1.0500488;-5.3910522;-;-;-;-;-;-;-;-;-;-;-;-;-;-;-
1514208611985;-;-;8.527435;1.3205872;-4.94693;-;-;-;-;-;-;-;-;-;-;-;-;-;-;-
1514208612005;-;-;8.065353;0.5747986;-4.8140564;-;-;-;-;-;-;-;-;-;-;-;-;-;-;-
1514208612026;-;-;8.162323;-0.8856659;-4.219101;-;-;-;-;-;-;-;-;-;-;-;-;-;-;-
1514208612046;-;-;8.025848;-1.5009766;-3.4768982;-;-;-;-;-;-;-;-;-;-;-;-;-;-;-
1514208612066;-;-;7.2309723;-1.5596313;-2.938202;-;-;-;-;-;-;-;-;-;-;-;-;-;-;-
1514208612086;-;-;6.1368256;-1.6865234;-2.1098022;-;-;-;-;-;-;-;-;-;-;-;-;-;-;-
1514208612107;-;-;5.097748;-1.743988;-1.9254456;-;-;-;-;-;-;-;-;-;-;-;-;-;-;-
1514208612127;-;-;4.7206573;-1.2579651;-2.3145142;-;-;-;-;-;-;-;-;-;-;-;-;-;-;-
1514208612147;-;-;5.5478516;-0.9143982;-2.4557648;-;-;-;-;-;-;-;-;-;-;-;-;-;-;-
1514208612168;-;-;6.3774414;-0.59954834;-2.4006958;-;-;-;-;-;-;-;-;-;-;-;-;-;-;-
1514208612187;-;-;7.1399994;-0.80545044;-2.0427704;-;-;-;-;-;-;-;-;-;-;-;-;-;-;-
1514208612207;-;-;7.8211517;-1.0137482;-1.8416595;-;-;-;-;-;-;-;-;-;-;-;-;-;-;-
1514208612228;-;-;8.623199;-1.1238861;-1.9685516;-;-;-;-;-;-;-;-;-;-;-;-;-;-;-
1514208612248;-;-;9.96875;-1.5919495;-2.215149;-;-;-;-;-;-;-;-;-;-;-;-;-;-;-
1514208612268;-;-;11.74884;-1.1250763;-1.9829102;-;-;-;-;-;-;-;-;-;-;-;-;-;-;-
1514208612289;-;-;12.048111;-0.23683167;-2.4114685;-;-;-;-;-;-;-;-;-;-;-;-;-;-;-
1514208612309;-;-;10.964737;-0.09197998;-1.6082153;-;-;-;-;-;-;-;-;-;-;-;-;-;-;-
1514208612329;-;-;9.916077;-0.9826355;0.48431396;-;-;-;-;-;-;-;-;-;-;-;-;-;-;-
1514208612350;-;-;9.515045;-2.3736572;-0.42189026;-;-;-;-;-;-;-;-;-;-;-;-;-;-;-
1514208612370;-;-;9.341461;-5.871582;-9.422897;-;-;-;-;-;-;-;-;-;-;-;-;-;-;-
1514208612390;-;-;11.96431;-6.4857025;-5.9094086;-;-;-;-;-;-;-;-;-;-;-;-;-;-;-
1514208612411;-;-;9.504272;-3.594696;-5.5382996;-;-;-;-;-;-;-;-;-;-;-;-;-;-;-
1514208612430;-;-;7.3530884;0.34495544;-5.795685;-;-;-;-;-;-;-;-;-;-;-;-;-;-;-
1514208612450;-;-;5.8351593;3.7483215;-5.721466;-;-;-;-;-;-;-;-;-;-;-;-;-;-;-
1514208612470;-;-;7.980362;3.2323608;-5.397049;-;-;-;-;-;-;-;-;-;-;-;-;-;-;-
1514208612491;-;-;10.4140625;-0.9467163;-5.669983;-;-;-;-;-;-;-;-;-;-;-;-;-;-;-
1514208612511;-;-;11.994247;-4.001709;-5.015167;-;-;-;-;-;-;-;-;-;-;-;-;-;-;-
1514208612532;-;-;12.333023;-4.305786;-4.033554;-;-;-;-;-;-;-;-;-;-;-;-;-;-;-
1514208612552;-;-;11.574066;-2.8536987;-4.4190063;-;-;-;-;-;-;-;-;-;-;-;-;-;-;-
1514208612572;-;-;9.740097;-1.3273926;-4.6488495;-;-;-;-;-;-;-;-;-;-;-;-;-;-;-
1514208612592;-;-;6.5749664;0.43952942;-4.2921143;-;-;-;-;-;-;-;-;-;-;-;-;-;-;-
1514208612613;-;-;2.908249;1.4403076;-4.239441;-;-;-;-;-;-;-;-;-;-;-;-;-;-;-
1514208612633;-;-;2.0200043;1.6186676;-4.140091;-;-;-;-;-;-;-;-;-;-;-;-;-;-;-
1514208612653;-;-;4.928955;1.0691986;-3.5786438;-;-;-;-;-;-;-;-;-;-;-;-;-;-;-
1514208612674;-;-;8.539413;0.9075928;-3.9724884;-;-;-;-;-;-;-;-;-;-;-;-;-;-;-
1514208612694;-;-;9.913681;1.5671997;-3.9377747;-;-;-;-;-;-;-;-;-;-;-;-;-;-;-
1514208612714;-;-;8.639969;2.4961395;-3.2302856;-;-;-;-;-;-;-;-;-;-;-;-;-;-;-
1514208612735;-;-;7.803192;3.1030731;-2.5527344;-;-;-;-;-;-;-;-;-;-;-;-;-;-;-
1514208612755;-;-;7.6308136;3.101883;-2.1110077;-;-;-;-;-;-;-;-;-;-;-;-;-;-;-
1514208612775;-;-;8.218582;1.1829224;-1.4382324;-;-;-;-;-;-;-;-;-;-;-;-;-;-;-
1514208612796;-;-;8.851852;0.13665771;-1.3065491;-;-;-;-;-;-;-;-;-;-;-;-;-;-;-
1514208612815;-;-;8.82193;0.37727356;-1.7231445;-;-;-;-;-;-;-;-;-;-;-;-;-;-;-
1514208612835;-;-;8.659119;1.1601868;-1.7578583;-;-;-;-;-;-;-;-;-;-;-;-;-;-;-
1514208612855;-;-;8.097687;1.6545868;-1.8141174;-;-;-;-;-;-;-;-;-;-;-;-;-;-;-
1514208612876;-;-;7.9995117;2.2543335;-1.6800537;-;-;-;-;-;-;-;-;-;-;-;-;-;-;-
1514208612896;-;-;8.163513;2.5823364;-0.6397705;-;-;-;-;-;-;-;-;-;-;-;-;-;-;-
1514208612916;-;-;9.21936;1.5121307;0.5968323;-;-;-;-;-;-;-;-;-;-;-;-;-;-;-
1514208612937;-;-;10.612793;0.045684814;-1.5926514;-;-;-;-;-;-;-;-;-;-;-;-;-;-;-
1514208612957;-;-;11.0772705;0.26475525;-7.622452;-;-;-;-;-;-;-;-;-;-;-;-;-;-;-
1514208612977;-;-;12.845383;-0.07522583;-9.741318;-;-;-;-;-;-;-;-;-;-;-;-;-;-;-
1514208612998;-;-;12.712509;-1.3585205;-6.600128;-;-;-;-;-;-;-;-;-;-;-;-;-;-;-
1514208613018;-;-;9.026627;-2.7866516;-6.4109955;-;-;-;-;-;-;-;-;-;-;-;-;-;-;-
1514208613038;-;-;7.545822;-3.6078644;-5.345566;-;-;-;-;-;-;-;-;-;-;-;-;-;-;-
1514208613058;-;-;8.074936;-2.2252197;-4.507599;-;-;-;-;-;-;-;-;-;-;-;-;-;-;-
1514208613079;-;-;9.246902;-0.015365601;-3.9090424;-;-;-;-;-;-;-;-;-;-;-;-;-;-;-
1514208613099;-;-;10.115997;1.062027;-4.0155945;-;-;-;-;-;-;-;-;-;-;-;-;-;-;-
1514208613119;-;-;8.908112;1.5659943;-3.5690765;-;-;-;-;-;-;-;-;-;-;-;-;-;-;-
1514208613140;-;-;7.552994;1.1434174;-3.496048;-;-;-;-;-;-;-;-;-;-;-;-;-;-;-
1514208613160;-;-;6.704254;0.14025879;-2.6880035;-;-;-;-;-;-;-;-;-;-;-;-;-;-;-
1514208613180;-;-;5.553833;-1.0352936;-1.9362335;-;-;-;-;-;-;-;-;-;-;-;-;-;-;-
1514208613200;-;-;5.1994934;-1.4734344;-1.6441345;-;-;-;-;-;-;-;-;-;-;-;-;-;-;-
1514208613220;-;-;4.530319;-1.0317078;-1.8931274;-;-;-;-;-;-;-;-;-;-;-;-;-;-;-
1514208613240;-;-;5.3096313;0.0037841797;-2.2750092;-;-;-;-;-;-;-;-;-;-;-;-;-;-;-
1514208613260;-;-;7.1208496;1.2032776;-2.8184967;-;-;-;-;-;-;-;-;-;-;-;-;-;-;-
1514208613280;-;-;8.104858;1.659378;-3.2279053;-;-;-;-;-;-;-;-;-;-;-;-;-;-;-
1514208613300;-;-;7.5601807;1.5935364;-2.567093;-;-;-;-;-;-;-;-;-;-;-;-;-;-;-
1514208613321;-;-;6.557007;0.89442444;-1.6788483;-;-;-;-;-;-;-;-;-;-;-;-;-;-;-
1514208613341;-;-;5.9943695;0.01574707;-0.8935547;-;-;-;-;-;-;-;-;-;-;-;-;-;-;-
1514208613361;-;-;5.928528;-1.170578;-1.4597778;-;-;-;-;-;-;-;-;-;-;-;-;-;-;-
1514208613381;-;-;5.947693;-1.9283447;-1.5124512;-;-;-;-;-;-;-;-;-;-;-;-;-;-;-
1514208613402;-;-;6.2637177;-2.1390228;-1.2778168;-;-;-;-;-;-;-;-;-;-;-;-;-;-;-
1514208613423;-;-;7.526657;-1.2292328;-2.1193848;-;-;-;-;-;-;-;-;-;-;-;-;-;-;-
1514208613444;-;-;8.849457;-0.16381836;-3.4912567;-;-;-;-;-;-;-;-;-;-;-;-;-;-;-
1514208613465;-;-;9.689819;1.2990417;-3.7941284;-;-;-;-;-;-;-;-;-;-;-;-;-;-;-
1514208613485;-;-;10.100433;0.9111786;-3.3188782;-;-;-;-;-;-;-;-;-;-;-;-;-;-;-
1514208613506;-;-;10.106415;-0.47505188;-4.464508;-;-;-;-;-;-;-;-;-;-;-;-;-;-;-
1514208613526;-;-;9.835876;-1.5105438;-7.4512634;-;-;-;-;-;-;-;-;-;-;-;-;-;-;-
1514208613546;-;-;9.807144;-1.0149536;-7.1196747;-;-;-;-;-;-;-;-;-;-;-;-;-;-;-
1514208613566;-;-;10.564911;0.24081421;-4.189163;-;-;-;-;-;-;-;-;-;-;-;-;-;-;-
1514208613587;-;-;11.094025;1.710846;-2.9573517;-;-;-;-;-;-;-;-;-;-;-;-;-;-;-
1514208613607;-;-;11.44957;2.248352;-2.1744537;-;-;-;-;-;-;-;-;-;-;-;-;-;-;-
1514208613627;-;-;11.012619;2.177719;-5.638855;-;-;-;-;-;-;-;-;-;-;-;-;-;-;-
1514208613647;-;-;12.459915;3.0755463;-7.306427;-;-;-;-;-;-;-;-;-;-;-;-;-;-;-
1514208613668;-;-;14.420761;3.1521606;-4.183182;-;-;-;-;-;-;-;-;-;-;-;-;-;-;-
1514208613688;-;-;12.9674835;2.2268066;-3.7043457;-;-;-;-;-;-;-;-;-;-;-;-;-;-;-
1514208613708;-;-;10.351822;1.7407837;-3.535553;-;-;-;-;-;-;-;-;-;-;-;-;-;-;-
1514208613728;-;-;7.5961;1.813797;-2.9477692;-;-;-;-;-;-;-;-;-;-;-;-;-;-;-
1514208613748;-;-;4.896637;1.8102112;-1.8512268;-;-;-;-;-;-;-;-;-;-;-;-;-;-;-
1514208613768;-;-;2.446167;0.73880005;-1.1940308;-;-;-;-;-;-;-;-;-;-;-;-;-;-;-
1514208613788;-;-;1.6405182;-0.71447754;-0.9043274;-;-;-;-;-;-;-;-;-;-;-;-;-;-;-
1514208613809;-;-;3.8743134;-1.6147003;-1.0671387;-;-;-;-;-;-;-;-;-;-;-;-;-;-;-
1514208613829;-;-;8.2712555;-0.9957886;-1.3759766;-;-;-;-;-;-;-;-;-;-;-;-;-;-;-
1514208613849;-;-;9.710175;-0.5672302;-2.1505127;-;-;-;-;-;-;-;-;-;-;-;-;-;-;-
1514208613869;-;-;9.436035;-0.75756836;-3.0231934;-;-;-;-;-;-;-;-;-;-;-;-;-;-;-
1514208613889;-;-;8.262878;-1.131073;-2.7502594;-;-;-;-;-;-;-;-;-;-;-;-;-;-;-
1514208613910;-;-;6.7928467;-1.0712128;-3.0231934;-;-;-;-;-;-;-;-;-;-;-;-;-;-;-
1514208613930;-;-;5.2030945;-0.51815796;-2.7203217;-;-;-;-;-;-;-;-;-;-;-;-;-;-;-
1514208613950;-;-;3.545105;0.730423;-1.8153229;-;-;-;-;-;-;-;-;-;-;-;-;-;-;-
1514208613970;-;-;3.7414246;2.5488129;-1.6968079;-;-;-;-;-;-;-;-;-;-;-;-;-;-;-
1514208613990;-;-;6.4169464;4.1481476;-2.0990295;-;-;-;-;-;-;-;-;-;-;-;-;-;-;-
1514208614010;-;-;8.103668;4.1553345;-3.3559875;-;-;-;-;-;-;-;-;-;-;-;-;-;-;-
1514208614030;-;-;7.336319;1.2427826;-4.004822;-;-;-;-;-;-;-;-;-;-;-;-;-;-;-
1514208614051;-;-;5.988388;-1.2184601;-4.6536407;-;-;-;-;-;-;-;-;-;-;-;-;-;-;-
1514208614071;-;-;7.2585144;-2.4526672;-6.598938;-;-;-;-;-;-;-;-;-;-;-;-;-;-;-
1514208614092;-;-;11.395691;-1.8313751;-5.977646;-;-;-;-;-;-;-;-;-;-;-;-;-;-;-
1514208614111;-;-;16.471405;-2.1067047;-7.954056;-;-;-;-;-;-;-;-;-;-;-;-;-;-;-
1514208614132;-;-;22.709488;-3.2044525;-6.033905;-;-;-;-;-;-;-;-;-;-;-;-;-;-;-
1514208614152;-;-;22.845963;-4.41951;-4.857147;-;-;-;-;-;-;-;-;-;-;-;-;-;-;-
1514208614172;-;-;18.039597;-2.755539;-5.1384735;-;-;-;-;-;-;-;-;-;-;-;-;-;-;-
1514208614193;-;-;12.766373;-0.5217438;-1.6177979;-;-;-;-;-;-;-;-;-;-;-;-;-;-;-
1514208614212;-;-;8.01149;0.42037964;-0.5056915;-;-;-;-;-;-;-;-;-;-;-;-;-;-;-
1514208614232;-;-;4.015564;0.42277527;-0.7738342;-;-;-;-;-;-;-;-;-;-;-;-;-;-;-
1514208614252;-;-;2.4246216;-0.12908936;-1.7518768;-;-;-;-;-;-;-;-;-;-;-;-;-;-;-
1514208614273;-;-;5.6220703;-1.3106384;-2.405487;-;-;-;-;-;-;-;-;-;-;-;-;-;-;-
1514208614293;-;-;9.436035;-2.071991;-2.9262238;-;-;-;-;-;-;-;-;-;-;-;-;-;-;-
1514208614314;-;-;10.54335;-1.3740845;-3.0626984;-;-;-;-;-;-;-;-;-;-;-;-;-;-;-
1514208614334;-;-;8.596878;-1.1083221;-2.8663788;-;-;-;-;-;-;-;-;-;-;-;-;-;-;-
1514208614354;-;-;6.0219116;-0.759964;-2.7083588;-;-;-;-;-;-;-;-;-;-;-;-;-;-;-
1514208614375;-;-;4.549469;-0.26437378;-2.725113;-;-;-;-;-;-;-;-;-;-;-;-;-;-;-
1514208614394;-;-;5.4688416;0.007369995;-2.7442627;-;-;-;-;-;-;-;-;-;-;-;-;-;-;-
1514208614414;-;-;7.296814;0.2635498;-2.939392;-;-;-;-;-;-;-;-;-;-;-;-;-;-;-
1514208614434;-;-;6.1799316;-0.34098816;-2.6808167;-;-;-;-;-;-;-;-;-;-;-;-;-;-;-
1514208614455;-;-;4.058655;-1.2998657;-1.9122772;-;-;-;-;-;-;-;-;-;-;-;-;-;-;-
1514208614475;-;-;4.1233063;-2.1581879;-0.5691376;-;-;-;-;-;-;-;-;-;-;-;-;-;-;-
1514208614495;-;-;6.505539;-2.3556976;0.5956421;-;-;-;-;-;-;-;-;-;-;-;-;-;-;-
1514208614516;-;-;9.797562;-1.7379913;0.09046936;-;-;-;-;-;-;-;-;-;-;-;-;-;-;-
1514208614536;-;-;10.422455;-1.4291534;-2.053543;-;-;-;-;-;-;-;-;-;-;-;-;-;-;-
1514208614556;-;-;10.050156;-1.8110199;-2.0942383;-;-;-;-;-;-;-;-;-;-;-;-;-;-;-
1514208614577;-;-;8.236542;-0.9910126;-1.7339172;-;-;-;-;-;-;-;-;-;-;-;-;-;-;-
1514208614596;-;-;6.7892456;0.03491211;-2.594635;-;-;-;-;-;-;-;-;-;-;-;-;-;-;-
1514208614616;-;-;7.83432;0.13905334;-6.303253;-;-;-;-;-;-;-;-;-;-;-;-;-;-;-
1514208614636;-;-;10.828262;0.5664215;-5.477249;-;-;-;-;-;-;-;-;-;-;-;-;-;-;-
1514208614657;-;-;12.949524;2.5153046;-4.2382507;-;-;-;-;-;-;-;-;-;-;-;-;-;-;-
1514208614677;-;-;14.817001;3.0276642;-4.3328247;-;-;-;-;-;-;-;-;-;-;-;-;-;-;-
1514208614697;-;-;15.399994;2.1322327;-4.421402;-;-;-;-;-;-;-;-;-;-;-;-;-;-;-
1514208614718;-;-;15.686096;3.1294098;-6.8144073;-;-;-;-;-;-;-;-;-;-;-;-;-;-;-
1514208614738;-;-;17.749908;3.1078644;-3.448166;-;-;-;-;-;-;-;-;-;-;-;-;-;-;-
1514208614759;-;-;13.46788;-0.72883606;-3.168045;-;-;-;-;-;-;-;-;-;-;-;-;-;-;-
1514208614779;-;-;9.446808;-1.4758301;-2.9884796;-;-;-;-;-;-;-;-;-;-;-;-;-;-;-
1514208614799;-;-;6.11528;-0.77911377;-2.9932709;-;-;-;-;-;-;-;-;-;-;-;-;-;-;-
1514208614819;-;-;3.0171814;0.8130188;-2.0643158;-;-;-;-;-;-;-;-;-;-;-;-;-;-;-
1514208614839;-;-;1.999649;1.6043091;-2.1110077;-;-;-;-;-;-;-;-;-;-;-;-;-;-;-
1514208614860;-;-;1.6572723;0.7830963;-1.5591431;-;-;-;-;-;-;-;-;-;-;-;-;-;-;-
1514208614880;-;-;4.4525146;-0.5169525;-1.5052643;-;-;-;-;-;-;-;-;-;-;-;-;-;-;-
1514208614900;-;-;7.0729675;-0.2859192;-1.6716614;-;-;-;-;-;-;-;-;-;-;-;-;-;-;-
1514208614921;-;-;7.3854065;0.5245209;-1.8548279;-;-;-;-;-;-;-;-;-;-;-;-;-;-;-
1514208614941;-;-;7.75531;0.7902832;-1.4430237;-;-;-;-;-;-;-;-;-;-;-;-;-;-;-
1514208614961;-;-;8.905716;0.7076721;-1.4621735;-;-;-;-;-;-;-;-;-;-;-;-;-;-;-
1514208614982;-;-;8.574127;0.6382446;-1.452591;-;-;-;-;-;-;-;-;-;-;-;-;-;-;-
1514208615002;-;-;7.1124725;0.4000244;-1.4370422;-;-;-;-;-;-;-;-;-;-;-;-;-;-;-
1514208615022;-;-;5.4880066;0.8848419;-1.6573029;-;-;-;-;-;-;-;-;-;-;-;-;-;-;-
1514208615043;-;-;4.7362213;1.3612976;-1.8931274;-;-;-;-;-;-;-;-;-;-;-;-;-;-;-
1514208615062;-;-;5.8363495;0.596344;-2.342041;-;-;-;-;-;-;-;-;-;-;-;-;-;-;-
1514208615082;-;-;7.782837;0.028915405;-2.5766754;-;-;-;-;-;-;-;-;-;-;-;-;-;-;-
1514208615102;-;-;9.189438;0.27192688;-2.163681;-;-;-;-;-;-;-;-;-;-;-;-;-;-;-
1514208615123;-;-;9.1523285;0.9064026;-4.014389;-;-;-;-;-;-;-;-;-;-;-;-;-;-;-
1514208615143;-;-;7.763687;0.9997711;-5.7430115;-;-;-;-;-;-;-;-;-;-;-;-;-;-;-
1514208615163;-;-;7.044235;0.98420715;-5.6208954;-;-;-;-;-;-;-;-;-;-;-;-;-;-;-
1514208615184;-;-;8.226959;0.48262024;-3.8156738;-;-;-;-;-;-;-;-;-;-;-;-;-;-;-
1514208615204;-;-;10.439209;-0.097976685;-3.8192596;-;-;-;-;-;-;-;-;-;-;-;-;-;-;-
1514208615224;-;-;12.7651825;-0.057266235;-3.9497528;-;-;-;-;-;-;-;-;-;-;-;-;-;-;-
1514208615245;-;-;16.802994;-0.11831665;-6.7114563;-;-;-;-;-;-;-;-;-;-;-;-;-;-;-
1514208615265;-;-;21.423813;-2.519699;-4.0359344;-;-;-;-;-;-;-;-;-;-;-;-;-;-;-
1514208615285;-;-;23.10933;-6.927429;-4.8368073;-;-;-;-;-;-;-;-;-;-;-;-;-;-;-
1514208615305;-;-;15.71843;-5.4190826;-1.1760712;-;-;-;-;-;-;-;-;-;-;-;-;-;-;-
1514208615326;-;-;9.79277;-2.913559;-1.2059937;-;-;-;-;-;-;-;-;-;-;-;-;-;-;-
1514208615347;-;-;4.8008575;-0.32302856;-1.1521301;-;-;-;-;-;-;-;-;-;-;-;-;-;-;-
1514208615366;-;-;2.296524;0.8213959;-1.3496399;-;-;-;-;-;-;-;-;-;-;-;-;-;-;-
1514208615387;-;-;2.4868622;0.3210144;-1.9589691;-;-;-;-;-;-;-;-;-;-;-;-;-;-;-
1514208615406;-;-;3.0518951;-0.5133667;-2.2295227;-;-;-;-;-;-;-;-;-;-;-;-;-;-;-
1514208615427;-;-;4.3687134;-1.1262817;-2.1385345;-;-;-;-;-;-;-;-;-;-;-;-;-;-;-
1514208615447;-;-;5.746567;-1.764328;-2.4270325;-;-;-;-;-;-;-;-;-;-;-;-;-;-;-
1514208615467;-;-;6.9664154;-1.7559509;-3.527176;-;-;-;-;-;-;-;-;-;-;-;-;-;-;-
1514208615488;-;-;7.526657;-0.9431305;-2.9022827;-;-;-;-;-;-;-;-;-;-;-;-;-;-;-
1514208615508;-;-;9.002686;-0.8210144;-2.2414856;-;-;-;-;-;-;-;-;-;-;-;-;-;-;-
1514208615528;-;-;8.710602;-0.9143982;-2.1026306;-;-;-;-;-;-;-;-;-;-;-;-;-;-;-
1514208615549;-;-;7.063385;-0.9945984;-1.4286499;-;-;-;-;-;-;-;-;-;-;-;-;-;-;-
1514208615568;-;-;6.031479;-1.269928;-0.14057922;-;-;-;-;-;-;-;-;-;-;-;-;-;-;-
1514208615588;-;-;6.489975;-1.9331207;-0.22077942;-;-;-;-;-;-;-;-;-;-;-;-;-;-;-
1514208615608;-;-;7.9205017;-1.9235535;-1.4669647;-;-;-;-;-;-;-;-;-;-;-;-;-;-;-
1514208615629;-;-;9.014664;-0.5384979;-1.4537964;-;-;-;-;-;-;-;-;-;-;-;-;-;-;-
1514208615649;-;-;9.841858;0.26115417;-1.0551605;-;-;-;-;-;-;-;-;-;-;-;-;-;-;-
1514208615669;-;-;9.786789;-0.1590271;-1.9086914;-;-;-;-;-;-;-;-;-;-;-;-;-;-;-
1514208615690;-;-;9.592865;-1.0448761;-2.9920654;-;-;-;-;-;-;-;-;-;-;-;-;-;-;-
1514208615710;-;-;9.811935;-1.0508575;-3.6648407;-;-;-;-;-;-;-;-;-;-;-;-;-;-;-
1514208615730;-;-;11.341827;-0.1015625;-4.8942566;-;-;-;-;-;-;-;-;-;-;-;-;-;-;-
1514208615750;-;-;12.580826;1.6773376;-4.8942566;-;-;-;-;-;-;-;-;-;-;-;-;-;-;-
1514208615771;-;-;13.182968;3.3604584;-4.9241943;-;-;-;-;-;-;-;-;-;-;-;-;-;-;-
1514208615790;-;-;12.854965;2.9701996;-3.3116913;-;-;-;-;-;-;-;-;-;-;-;-;-;-;-
1514208615810;-;-;10.982697;1.5863495;-3.2614136;-;-;-;-;-;-;-;-;-;-;-;-;-;-;-
1514208615830;-;-;9.248093;2.339325;-5.0403137;-;-;-;-;-;-;-;-;-;-;-;-;-;-;-
1514208615851;-;-;10.702576;2.6541595;-2.5575256;-;-;-;-;-;-;-;-;-;-;-;-;-;-;-
1514208615871;-;-;11.983475;1.4127655;-2.5611115;-;-;-;-;-;-;-;-;-;-;-;-;-;-;-
1514208615891;-;-;11.472305;1.1158905;-2.9358063;-;-;-;-;-;-;-;-;-;-;-;-;-;-;-
1514208615911;-;-;9.439636;1.4391022;-2.5575256;-;-;-;-;-;-;-;-;-;-;-;-;-;-;-
1514208615932;-;-;6.2421722;1.7156372;-1.8488312;-;-;-;-;-;-;-;-;-;-;-;-;-;-;-
1514208615953;-;-;4.284912;1.0332947;-0.9953003;-;-;-;-;-;-;-;-;-;-;-;-;-;-;-
1514208615973;-;-;4.035919;-0.093185425;-0.44224548;-;-;-;-;-;-;-;-;-;-;-;-;-;-;-
1514208615993;-;-;5.4018097;-0.7024994;-0.5691376;-;-;-;-;-;-;-;-;-;-;-;-;-;-;-
1514208616014;-;-;7.3147736;0.119903564;-1.6249847;-;-;-;-;-;-;-;-;-;-;-;-;-;-;-
1514208616034;-;-;7.7050323;0.66937256;-1.8272858;-;-;-;-;-;-;-;-;-;-;-;-;-;-;-
1514208616054;-;-;7.8594513;0.7076721;-1.7817993;-;-;-;-;-;-;-;-;-;-;-;-;-;-;-
1514208616074;-;-;7.971985;0.05406189;-1.7578583;-;-;-;-;-;-;-;-;-;-;-;-;-;-;-
1514208616095;-;-;7.643982;-0.37330627;-1.6776581;-;-;-;-;-;-;-;-;-;-;-;-;-;-;-
1514208616115;-;-;6.005142;-0.18894958;-1.6920166;-;-;-;-;-;-;-;-;-;-;-;-;-;-;-
1514208616135;-;-;4.343567;0.43952942;-1.298172;-;-;-;-;-;-;-;-;-;-;-;-;-;-;-
1514208616156;-;-;3.4206085;1.4498749;-0.7451172;-;-;-;-;-;-;-;-;-;-;-;-;-;-;-
1514208616176;-;-;4.577011;2.734375;-0.7103882;-;-;-;-;-;-;-;-;-;-;-;-;-;-;-
1514208616196;-;-;6.960434;2.3249664;-1.1329651;-;-;-;-;-;-;-;-;-;-;-;-;-;-;-
1514208616217;-;-;7.336319;1.4558716;-3.1500854;-;-;-;-;-;-;-;-;-;-;-;-;-;-;-
1514208616236;-;-;7.5278625;-0.06086731;-5.285721;-;-;-;-;-;-;-;-;-;-;-;-;-;-;-
1514208616256;-;-;8.540604;-1.2280273;-7.1747437;-;-;-;-;-;-;-;-;-;-;-;-;-;-;-
1514208616277;-;-;11.615952;-1.6781464;-4.062271;-;-;-;-;-;-;-;-;-;-;-;-;-;-;-
1514208616296;-;-;15.0312805;-2.388031;-5.3132477;-;-;-;-;-;-;-;-;-;-;-;-;-;-;-
1514208616316;-;-;19.331268;-3.5480194;-4.559067;-;-;-;-;-;-;-;-;-;-;-;-;-;-;-
1514208616337;-;-;24.705063;-4.4183044;-2.8855286;-;-;-;-;-;-;-;-;-;-;-;-;-;-;-
1514208616356;-;-;22.049896;-4.1286163;-4.3208466;-;-;-;-;-;-;-;-;-;-;-;-;-;-;-
1514208616376;-;-;16.427109;-1.7451782;-1.8284912;-;-;-;-;-;-;-;-;-;-;-;-;-;-;-
1514208616396;-;-;10.335068;-0.46907043;-0.6289978;-;-;-;-;-;-;-;-;-;-;-;-;-;-;-
1514208616417;-;-;6.807205;-0.22845459;-0.36323547;-;-;-;-;-;-;-;-;-;-;-;-;-;-;-
1514208616437;-;-;3.9030457;-0.17098999;-1.2012024;-;-;-;-;-;-;-;-;-;-;-;-;-;-;-
1514208616457;-;-;5.5562286;-0.37330627;-2.1229706;-;-;-;-;-;-;-;-;-;-;-;-;-;-;-
1514208616477;-;-;8.079727;-0.82221985;-2.772995;-;-;-;-;-;-;-;-;-;-;-;-;-;-;-
1514208616498;-;-;7.794815;-0.4487152;-3.1022034;-;-;-;-;-;-;-;-;-;-;-;-;-;-;-
1514208616518;-;-;5.7046814;-0.3182373;-2.4198608;-;-;-;-;-;-;-;-;-;-;-;-;-;-;-
1514208616538;-;-;4.1292877;-0.28710938;-1.1413574;-;-;-;-;-;-;-;-;-;-;-;-;-;-;-
1514208616558;-;-;3.7653656;-0.38407898;-1.0659332;-;-;-;-;-;-;-;-;-;-;-;-;-;-;-
1514208616579;-;-;6.2625275;-1.0041809;-1.5280151;-;-;-;-;-;-;-;-;-;-;-;-;-;-;-
1514208616598;-;-;8.553772;-1.443512;-2.5252075;-;-;-;-;-;-;-;-;-;-;-;-;-;-;-
1514208616618;-;-;7.7541046;-1.862503;-2.8687744;-;-;-;-;-;-;-;-;-;-;-;-;-;-;-
1514208616638;-;-;6.2074585;-1.6386414;-1.9984741;-;-;-;-;-;-;-;-;-;-;-;-;-;-;-
1514208616659;-;-;6.102112;-0.9550934;-0.1956482;-;-;-;-;-;-;-;-;-;-;-;-;-;-;-
1514208616679;-;-;7.667923;-1.4854126;0.54177856;-;-;-;-;-;-;-;-;-;-;-;-;-;-;-
1514208616699;-;-;8.787216;-1.8325653;0.48910522;-;-;-;-;-;-;-;-;-;-;-;-;-;-;-
1514208616720;-;-;9.193024;-1.9008026;0.4579773;-;-;-;-;-;-;-;-;-;-;-;-;-;-;-
1514208616740;-;-;9.21817;-2.095932;-0.17887878;-;-;-;-;-;-;-;-;-;-;-;-;-;-;-
1514208616760;-;-;8.969162;-1.4746399;-0.6110382;-;-;-;-;-;-;-;-;-;-;-;-;-;-;-
1514208616781;-;-;8.395752;-0.4379425;-0.49971008;-;-;-;-;-;-;-;-;-;-;-;-;-;-;-
1514208616801;-;-;7.7182007;-0.6330719;-0.7570801;-;-;-;-;-;-;-;-;-;-;-;-;-;-;-
1514208616821;-;-;7.885788;-1.3680878;-4.204727;-;-;-;-;-;-;-;-;-;-;-;-;-;-;-
1514208616841;-;-;9.974731;-0.41160583;-5.642456;-;-;-;-;-;-;-;-;-;-;-;-;-;-;-
1514208616862;-;-;11.939178;2.0053406;-4.547104;-;-;-;-;-;-;-;-;-;-;-;-;-;-;-
1514208616882;-;-;12.757996;4.4833374;-5.065445;-;-;-;-;-;-;-;-;-;-;-;-;-;-;-
1514208616902;-;-;15.647797;3.9003448;-3.8132782;-;-;-;-;-;-;-;-;-;-;-;-;-;-;-
1514208616923;-;-;14.795456;-0.14944458;-2.1552887;-;-;-;-;-;-;-;-;-;-;-;-;-;-;-
1514208616943;-;-;12.449142;-1.0101624;-3.764206;-;-;-;-;-;-;-;-;-;-;-;-;-;-;-
1514208616963;-;-;13.083603;2.749939;-4.5423126;-;-;-;-;-;-;-;-;-;-;-;-;-;-;-
1514208616984;-;-;14.571594;3.3736267;-3.6169586;-;-;-;-;-;-;-;-;-;-;-;-;-;-;-
1514208617004;-;-;11.955933;1.7683105;-2.9801025;-;-;-;-;-;-;-;-;-;-;-;-;-;-;-
1514208617024;-;-;8.005508;0.7232361;-2.084671;-;-;-;-;-;-;-;-;-;-;-;-;-;-;-
1514208617044;-;-;3.9281769;0.49578857;-1.8548279;-;-;-;-;-;-;-;-;-;-;-;-;-;-;-
1514208617065;-;-;1.7674103;0.11152649;-0.6577301;-;-;-;-;-;-;-;-;-;-;-;-;-;-;-
1514208617085;-;-;2.4748993;-0.3649292;-0.51527405;-;-;-;-;-;-;-;-;-;-;-;-;-;-;-
1514208617105;-;-;4.6380615;-0.22366333;-0.9809418;-;-;-;-;-;-;-;-;-;-;-;-;-;-;-
1514208617125;-;-;6.86586;0.44311523;-1.7087708;-;-;-;-;-;-;-;-;-;-;-;-;-;-;-
1514208617145;-;-;6.5641937;1.1984863;-1.4789276;-;-;-;-;-;-;-;-;-;-;-;-;-;-;-
1514208617166;-;-;6.0458527;1.051239;-0.922287;-;-;-;-;-;-;-;-;-;-;-;-;-;-;-
1514208617186;-;-;8.234146;0.36650085;-1.6956024;-;-;-;-;-;-;-;-;-;-;-;-;-;-;-
1514208617206;-;-;10.027405;-0.19972229;-2.563507;-;-;-;-;-;-;-;-;-;-;-;-;-;-;-
1514208617227;-;-;9.116409;-0.066848755;-1.8919373;-;-;-;-;-;-;-;-;-;-;-;-;-;-;-
1514208617247;-;-;6.7090454;0.833374;-0.74391174;-;-;-;-;-;-;-;-;-;-;-;-;-;-;-
1514208617267;-;-;5.337158;1.9394989;-1.109024;-;-;-;-;-;-;-;-;-;-;-;-;-;-;-
1514208617287;-;-;5.6112976;2.1717377;-1.8500366;-;-;-;-;-;-;-;-;-;-;-;-;-;-;-
1514208617308;-;-;6.86467;0.89442444;-2.452179;-;-;-;-;-;-;-;-;-;-;-;-;-;-;-
1514208617328;-;-;6.952057;0.28749084;-1.8739777;-;-;-;-;-;-;-;-;-;-;-;-;-;-;-
1514208617348;-;-;6.6432037;1.2930603;-3.4505615;-;-;-;-;-;-;-;-;-;-;-;-;-;-;-
1514208617369;-;-;6.60849;1.2607422;-6.6216736;-;-;-;-;-;-;-;-;-;-;-;-;-;-;-
1514208617389;-;-;8.874603;0.36889648;-5.8315887;-;-;-;-;-;-;-;-;-;-;-;-;-;-;-
1514208617409;-;-;12.123535;-0.1015625;-3.724701;-;-;-;-;-;-;-;-;-;-;-;-;-;-;-
1514208617430;-;-;14.802643;-0.08241272;-2.9118652;-;-;-;-;-;-;-;-;-;-;-;-;-;-;-
1514208617450;-;-;17.89714;-0.8988342;-2.0283966;-;-;-;-;-;-;-;-;-;-;-;-;-;-;-
1514208617470;-;-;19.782578;-1.8349609;-3.1022034;-;-;-;-;-;-;-;-;-;-;-;-;-;-;-
1514208617491;-;-;20.056717;-5.6920166;-2.2342987;-;-;-;-;-;-;-;-;-;-;-;-;-;-;-
1514208617511;-;-;16.31099;-5.475342;-1.8811646;-;-;-;-;-;-;-;-;-;-;-;-;-;-;-
1514208617531;-;-;10.5720825;-4.001709;-0.927063;-;-;-;-;-;-;-;-;-;-;-;-;-;-;-
1514208617552;-;-;6.8670654;-1.2998657;-0.39196777;-;-;-;-;-;-;-;-;-;-;-;-;-;-;-
1514208617572;-;-;5.201889;-0.057266235;-1.9984741;-;-;-;-;-;-;-;-;-;-;-;-;-;-;-
1514208617592;-;-;6.695877;0.98301697;-2.586258;-;-;-;-;-;-;-;-;-;-;-;-;-;-;-
1514208617612;-;-;7.6308136;1.9047852;-2.6054077;-;-;-;-;-;-;-;-;-;-;-;-;-;-;-
1514208617632;-;-;7.513489;2.138214;-2.7466583;-;-;-;-;-;-;-;-;-;-;-;-;-;-;-
1514208617653;-;-;5.216263;-0.5217438;-1.7961731;-;-;-;-;-;-;-;-;-;-;-;-;-;-;-
1514208617672;-;-;4.805649;-2.0767822;-1.4609833;-;-;-;-;-;-;-;-;-;-;-;-;-;-;-
1514208617692;-;-;4.253784;-2.5340729;-1.2071991;-;-;-;-;-;-;-;-;-;-;-;-;-;-;-
1514208617712;-;-;4.6895294;-2.4825897;-0.7235565;-;-;-;-;-;-;-;-;-;-;-;-;-;-;-
1514208617733;-;-;5.786072;-2.9710083;-0.20881653;-;-;-;-;-;-;-;-;-;-;-;-;-;-;-
1514208617753;-;-;6.1440125;-3.4211273;-0.8564453;-;-;-;-;-;-;-;-;-;-;-;-;-;-;-
1514208617773;-;-;6.881424;-3.1936798;-1.1868439;-;-;-;-;-;-;-;-;-;-;-;-;-;-;-
1514208617793;-;-;7.8163605;-1.9750214;-0.31295776;-;-;-;-;-;-;-;-;-;-;-;-;-;-;-
1514208617813;-;-;9.135559;-0.29429626;0.73928833;-;-;-;-;-;-;-;-;-;-;-;-;-;-;-
1514208617833;-;-;10.435623;0.42156982;0.82429504;-;-;-;-;-;-;-;-;-;-;-;-;-;-;-
1514208617853;-;-;11.010223;-0.14704895;-0.55836487;-;-;-;-;-;-;-;-;-;-;-;-;-;-;-
1514208617873;-;-;10.829468;-1.3836517;-1.5459747;-;-;-;-;-;-;-;-;-;-;-;-;-;-;-
1514208617894;-;-;9.318726;-1.8816528;-0.34169006;-;-;-;-;-;-;-;-;-;-;-;-;-;-;-
1514208617914;-;-;8.029449;-1.1729736;1.2444763;-;-;-;-;-;-;-;-;-;-;-;-;-;-;-
1514208617933;-;-;7.9947357;-0.8820648;0.45558167;-;-;-;-;-;-;-;-;-;-;-;-;-;-;-
1514208617953;-;-;6.967621;-1.7631378;-4.4309845;-;-;-;-;-;-;-;-;-;-;-;-;-;-;-
1514208617973;-;-;7.04303;-1.2028961;-5.2138824;-;-;-;-;-;-;-;-;-;-;-;-;-;-;-
1514208617994;-;-;9.51265;0.05645752;-2.994461;-;-;-;-;-;-;-;-;-;-;-;-;-;-;-
1514208618015;-;-;11.770386;2.5308685;-4.2478333;-;-;-;-;-;-;-;-;-;-;-;-;-;-;-
1514208618036;-;-;15.870453;3.7399292;-6.3834534;-;-;-;-;-;-;-;-;-;-;-;-;-;-;-
1514208618057;-;-;18.474152;2.3919983;-4.514786;-;-;-;-;-;-;-;-;-;-;-;-;-;-;-
1514208618077;-;-;18.177261;1.1949005;-5.5023956;-;-;-;-;-;-;-;-;-;-;-;-;-;-;-
1514208618098;-;-;13.757568;1.319397;-5.5059814;-;-;-;-;-;-;-;-;-;-;-;-;-;-;-
1514208618117;-;-;10.586456;1.3158112;-3.5786438;-;-;-;-;-;-;-;-;-;-;-;-;-;-;-
1514208618137;-;-;8.564545;0.85731506;-2.9693298;-;-;-;-;-;-;-;-;-;-;-;-;-;-;-
1514208618158;-;-;8.278442;0.7136688;-2.5742798;-;-;-;-;-;-;-;-;-;-;-;-;-;-;-
1514208618178;-;-;6.633621;0.8668976;-1.7351074;-;-;-;-;-;-;-;-;-;-;-;-;-;-;-
1514208618198;-;-;5.908188;0.33537292;-1.030014;-;-;-;-;-;-;-;-;-;-;-;-;-;-;-
1514208618219;-;-;7.0921173;-0.3649292;-0.72117615;-;-;-;-;-;-;-;-;-;-;-;-;-;-;-
1514208618239;-;-;7.5553894;0.30065918;-0.946228;-;-;-;-;-;-;-;-;-;-;-;-;-;-;-
1514208618259;-;-;6.1595764;1.1230774;-0.7810211;-;-;-;-;-;-;-;-;-;-;-;-;-;-;-
1514208618279;-;-;5.8435364;0.80345154;-0.104660034;-;-;-;-;-;-;-;-;-;-;-;-;-;-;-
1514208618300;-;-;7.1711273;0.49220276;-0.5787201;-;-;-;-;-;-;-;-;-;-;-;-;-;-;-
1514208618319;-;-;8.205414;0.7723236;-1.5124512;-;-;-;-;-;-;-;-;-;-;-;-;-;-;-
1514208618339;-;-;8.891357;1.343338;-2.5455475;-;-;-;-;-;-;-;-;-;-;-;-;-;-;-
1514208618360;-;-;9.547363;2.4003754;-3.314087;-;-;-;-;-;-;-;-;-;-;-;-;-;-;-
1514208618380;-;-;9.401321;3.7195892;-2.7023773;-;-;-;-;-;-;-;-;-;-;-;-;-;-;-
1514208618400;-;-;9.71257;4.315735;-2.483307;-;-;-;-;-;-;-;-;-;-;-;-;-;-;-
1514208618420;-;-;10.986282;3.893158;-6.758148;-;-;-;-;-;-;-;-;-;-;-;-;-;-;-
1514208618440;-;-;15.171356;-1.1693726;-5.472458;-;-;-;-;-;-;-;-;-;-;-;-;-;-;-
1514208618461;-;-;14.13945;-3.6114655;-3.7953186;-;-;-;-;-;-;-;-;-;-;-;-;-;-;-
1514208618481;-;-;11.52977;-5.7901917;-4.599777;-;-;-;-;-;-;-;-;-;-;-;-;-;-;-
1514208618501;-;-;8.589691;-6.7323;-4.3591614;-;-;-;-;-;-;-;-;-;-;-;-;-;-;-
1514208618522;-;-;6.457657;-4.3596497;-4.4393616;-;-;-;-;-;-;-;-;-;-;-;-;-;-;-
1514208618543;-;-;6.03627;-1.412384;-5.254593;-;-;-;-;-;-;-;-;-;-;-;-;-;-;-
1514208618563;-;-;7.667923;1.8018341;-6.365494;-;-;-;-;-;-;-;-;-;-;-;-;-;-;-
1514208618583;-;-;9.134369;2.921112;-5.547882;-;-;-;-;-;-;-;-;-;-;-;-;-;-;-
1514208618604;-;-;10.566101;1.5456543;-4.736252;-;-;-;-;-;-;-;-;-;-;-;-;-;-;-
1514208618623;-;-;10.422455;-0.9658661;-4.0706635;-;-;-;-;-;-;-;-;-;-;-;-;-;-;-
1514208618643;-;-;9.249298;-3.3636627;-2.5970306;-;-;-;-;-;-;-;-;-;-;-;-;-;-;-
1514208618666;-;-;7.295624;-4.5021057;-2.184021;-;-;-;-;-;-;-;-;-;-;-;-;-;-;-
1514208618686;-;-;4.225052;-3.186493;-2.1313477;-;-;-;-;-;-;-;-;-;-;-;-;-;-;-
1514208618706;-;-;3.6049652;-1.6482086;-2.562317;-;-;-;-;-;-;-;-;-;-;-;-;-;-;-
1514208618727;-;-;5.4796143;-0.57681274;-2.460556;-;-;-;-;-;-;-;-;-;-;-;-;-;-;-
1514208618747;-;-;7.1603546;0.040893555;-2.266632;-;-;-;-;-;-;-;-;-;-;-;-;-;-;-
1514208618767;-;-;8.289215;0.3796692;-1.8033447;-;-;-;-;-;-;-;-;-;-;-;-;-;-;-
1514208618788;-;-;8.868607;-0.0069885254;-1.2538757;-;-;-;-;-;-;-;-;-;-;-;-;-;-;-
1514208618807;-;-;9.167892;-0.8461609;-1.1066284;-;-;-;-;-;-;-;-;-;-;-;-;-;-;-
1514208618828;-;-;9.450409;-1.2675323;-1.0563507;-;-;-;-;-;-;-;-;-;-;-;-;-;-;-
1514208618848;-;-;9.606033;-1.5991364;-1.2850037;-;-;-;-;-;-;-;-;-;-;-;-;-;-;-
1514208618869;-;-;9.67186;-0.8066559;-1.8344727;-;-;-;-;-;-;-;-;-;-;-;-;-;-;-
1514208618889;-;-;8.786011;-0.3194275;-1.9589691;-;-;-;-;-;-;-;-;-;-;-;-;-;-;-
1514208618909;-;-;8.373016;-0.62709045;0.010253906;-;-;-;-;-;-;-;-;-;-;-;-;-;-;-
1514208618930;-;-;9.434845;-1.8565063;-1.100647;-;-;-;-;-;-;-;-;-;-;-;-;-;-;-
1514208618950;-;-;12.214508;-4.6996307;-10.958771;-;-;-;-;-;-;-;-;-;-;-;-;-;-;-
1514208618970;-;-;17.315353;-2.388031;-5.77652;-;-;-;-;-;-;-;-;-;-;-;-;-;-;-
1514208618991;-;-;12.680176;0.7795105;-7.938492;-;-;-;-;-;-;-;-;-;-;-;-;-;-;-
1514208619011;-;-;8.557373;2.5643768;-6.321213;-;-;-;-;-;-;-;-;-;-;-;-;-;-;-
1514208619031;-;-;5.0091553;3.220398;-4.7865295;-;-;-;-;-;-;-;-;-;-;-;-;-;-;-
1514208619051;-;-;5.1396484;0.23960876;-4.0395355;-;-;-;-;-;-;-;-;-;-;-;-;-;-;-
1514208619072;-;-;6.8670654;-1.1981049;-3.753418;-;-;-;-;-;-;-;-;-;-;-;-;-;-;-
1514208619092;-;-;9.536591;-1.8182068;-2.9178467;-;-;-;-;-;-;-;-;-;-;-;-;-;-;-
1514208619112;-;-;10.517014;-2.1258545;-2.9477692;-;-;-;-;-;-;-;-;-;-;-;-;-;-;-
1514208619133;-;-;11.358582;-1.9235535;-3.3116913;-;-;-;-;-;-;-;-;-;-;-;-;-;-;-
1514208619153;-;-;10.405685;-0.37210083;-3.7857513;-;-;-;-;-;-;-;-;-;-;-;-;-;-;-
1514208619173;-;-;8.313156;0.84295654;-3.70195;-;-;-;-;-;-;-;-;-;-;-;-;-;-;-
1514208619194;-;-;5.813614;0.6035309;-3.1704407;-;-;-;-;-;-;-;-;-;-;-;-;-;-;-
1514208619214;-;-;5.2282257;-0.17578125;-2.7933502;-;-;-;-;-;-;-;-;-;-;-;-;-;-;-
1514208619234;-;-;7.238159;-0.17098999;-2.5168152;-;-;-;-;-;-;-;-;-;-;-;-;-;-;-
1514208619255;-;-;8.941635;0.56044006;-2.9753113;-;-;-;-;-;-;-;-;-;-;-;-;-;-;-
1514208619275;-;-;8.197037;0.90519714;-2.7622223;-;-;-;-;-;-;-;-;-;-;-;-;-;-;-
1514208619295;-;-;6.8945923;0.9494934;-1.6752625;-;-;-;-;-;-;-;-;-;-;-;-;-;-;-
1514208619316;-;-;6.691086;0.714859;-1.1629028;-;-;-;-;-;-;-;-;-;-;-;-;-;-;-
1514208619336;-;-;7.846283;-0.09677124;-1.1461334;-;-;-;-;-;-;-;-;-;-;-;-;-;-;-
1514208619356;-;-;8.42688;-0.996994;-2.5012512;-;-;-;-;-;-;-;-;-;-;-;-;-;-;-
1514208619376;-;-;8.098877;-0.21768188;-2.3133087;-;-;-;-;-;-;-;-;-;-;-;-;-;-;-
1514208619397;-;-;8.289215;0.90519714;-2.057129;-;-;-;-;-;-;-;-;-;-;-;-;-;-;-
1514208619417;-;-;8.997894;1.224823;-1.8619995;-;-;-;-;-;-;-;-;-;-;-;-;-;-;-
1514208619437;-;-;9.003891;1.4462891;-1.6405487;-;-;-;-;-;-;-;-;-;-;-;-;-;-;-
1514208619457;-;-;9.3103485;1.4941711;-2.852005;-;-;-;-;-;-;-;-;-;-;-;-;-;-;-
1514208619478;-;-;11.074875;0.49339294;-8.003128;-;-;-;-;-;-;-;-;-;-;-;-;-;-;-
1514208619497;-;-;14.39563;-1.9582672;-7.8271637;-;-;-;-;-;-;-;-;-;-;-;-;-;-;-
1514208619517;-;-;14.98819;-3.5851288;-5.52034;-;-;-;-;-;-;-;-;-;-;-;-;-;-;-
1514208619537;-;-;11.393295;-3.8209534;-5.51915;-;-;-;-;-;-;-;-;-;-;-;-;-;-;-
1514208619558;-;-;6.9317017;-5.2203674;-4.4381714;-;-;-;-;-;-;-;-;-;-;-;-;-;-;-
1514208619578;-;-;5.170761;-3.5563965;-3.6277313;-;-;-;-;-;-;-;-;-;-;-;-;-;-;-
1514208619599;-;-;6.141617;-0.5037842;-4.4980164;-;-;-;-;-;-;-;-;-;-;-;-;-;-;-
1514208619619;-;-;7.43808;1.6629639;-5.121704;-;-;-;-;-;-;-;-;-;-;-;-;-;-;-
1514208619639;-;-;8.362244;2.5751495;-5.120514;-;-;-;-;-;-;-;-;-;-;-;-;-;-;-
1514208619659;-;-;8.794388;1.6246643;-4.9086304;-;-;-;-;-;-;-;-;-;-;-;-;-;-;-
1514208619680;-;-;8.730942;-0.07043457;-3.8168793;-;-;-;-;-;-;-;-;-;-;-;-;-;-;-
1514208619700;-;-;8.374207;-2.024109;-2.9585571;-;-;-;-;-;-;-;-;-;-;-;-;-;-;-
1514208619720;-;-;7.924103;-3.0859375;-2.4785156;-;-;-;-;-;-;-;-;-;-;-;-;-;-;-
1514208619741;-;-;6.814392;-2.9315033;-2.3193054;-;-;-;-;-;-;-;-;-;-;-;-;-;-;-
1514208619761;-;-;5.6735535;-1.8050385;-2.16008;-;-;-;-;-;-;-;-;-;-;-;-;-;-;-
1514208619781;-;-;6.122467;-0.25360107;-2.7035675;-;-;-;-;-;-;-;-;-;-;-;-;-;-;-
1514208619802;-;-;7.1136627;0.62628174;-3.0986176;-;-;-;-;-;-;-;-;-;-;-;-;-;-;-
1514208619822;-;-;7.7840424;0.89682007;-2.5323792;-;-;-;-;-;-;-;-;-;-;-;-;-;-;-
1514208619842;-;-;7.908539;0.7328186;-1.9039001;-;-;-;-;-;-;-;-;-;-;-;-;-;-;-
1514208619862;-;-;8.498703;-0.55526733;-1.7387085;-;-;-;-;-;-;-;-;-;-;-;-;-;-;-
1514208619883;-;-;8.892548;-1.4866028;-1.8751678;-;-;-;-;-;-;-;-;-;-;-;-;-;-;-
1514208619902;-;-;9.565323;-2.009735;-1.9481964;-;-;-;-;-;-;-;-;-;-;-;-;-;-;-
1514208619922;-;-;10.247665;-1.858902;-1.8667908;-;-;-;-;-;-;-;-;-;-;-;-;-;-;-
1514208619942;-;-;10.687012;-0.9155884;-1.9769287;-;-;-;-;-;-;-;-;-;-;-;-;-;-;-
1514208619963;-;-;10.739685;0.02293396;-2.1971893;-;-;-;-;-;-;-;-;-;-;-;-;-;-;-
1514208619983;-;-;10.112396;0.091171265;-2.0990295;-;-;-;-;-;-;-;-;-;-;-;-;-;-;-
1514208620003;-;-;9.55455;-0.739624;-0.93185425;-;-;-;-;-;-;-;-;-;-;-;-;-;-;-
1514208620024;-;-;9.868195;-1.2663422;-0.6517334;-;-;-;-;-;-;-;-;-;-;-;-;-;-;-
1514208620045;-;-;10.459564;-1.2531738;-4.6871643;-;-;-;-;-;-;-;-;-;-;-;-;-;-;-
