TimeStamp[ms];Prox[Cm];Lux[lux];AccX[m/s^2];AccY[m/s^2];AccZ[m/s^2];GyroX[rad/s];GyroY[rad/s];GyroZ[rad/s];MagnX[uT];MagnY[uT];MagnZ[uT];OrienYaw[degrees];OrienPitch[degrees];OrienRoll[degrees];Press[Pa];Temp[C°];Batt[%];Lat;Lng;Speed[m/s]
1514208654015;-;-;9.106842;-0.54808044;-0.3871765;-;-;-;-;-;-;-;-;-;-;-;-;-;-;-
1514208654016;-;-;9.106842;-0.54808044;-0.3871765;-;-;-;-;-;-;-;-;-;-;-;-;-;-;-
1514208654031;-;-;9.137955;-0.59716797;-0.36442566;-;-;-;-;-;-;-;-;-;-;-;-;-;-;-
1514208654051;-;-;9.169083;-0.50738525;-0.47576904;-;-;-;-;-;-;-;-;-;-;-;-;-;-;-
1514208654072;-;-;9.17746;-0.4918213;-0.42907715;-;-;-;-;-;-;-;-;-;-;-;-;-;-;-
1514208654092;-;-;9.261261;-0.4056244;-0.53800964;-;-;-;-;-;-;-;-;-;-;-;-;-;-;-
1514208654112;-;-;9.258865;-0.47027588;-0.50808716;-;-;-;-;-;-;-;-;-;-;-;-;-;-;-
1514208654132;-;-;9.212173;-0.5253296;-0.5068817;-;-;-;-;-;-;-;-;-;-;-;-;-;-;-
1514208654153;-;-;9.121201;-0.51097107;-0.40393066;-;-;-;-;-;-;-;-;-;-;-;-;-;-;-
1514208654173;-;-;9.110428;-0.48223877;-0.4925232;-;-;-;-;-;-;-;-;-;-;-;-;-;-;-
1514208654193;-;-;9.06015;-0.54689026;-0.48294067;-;-;-;-;-;-;-;-;-;-;-;-;-;-;-
1514208654214;-;-;9.143951;-0.60554504;-0.4446411;-;-;-;-;-;-;-;-;-;-;-;-;-;-;-
1514208654234;-;-;9.383362;-0.33380127;-0.8181305;-;-;-;-;-;-;-;-;-;-;-;-;-;-;-
1514208654266;-;-;9.732925;-0.16261292;-1.188034;-;-;-;-;-;-;-;-;-;-;-;-;-;-;-
1514208654275;-;-;9.59166;-0.2033081;-0.69721985;-;-;-;-;-;-;-;-;-;-;-;-;-;-;-
1514208654295;-;-;9.548569;0.045684814;-0.7199707;-;-;-;-;-;-;-;-;-;-;-;-;-;-;-
1514208654316;-;-;9.337875;0.38565063;0.10482788;-;-;-;-;-;-;-;-;-;-;-;-;-;-;-
1514208654336;-;-;9.590469;0.04208374;-0.7666626;-;-;-;-;-;-;-;-;-;-;-;-;-;-;-
1514208654357;-;-;10.002274;-0.06086731;-1.1030426;-;-;-;-;-;-;-;-;-;-;-;-;-;-;-
1514208654377;-;-;9.366608;-0.27275085;-0.8360901;-;-;-;-;-;-;-;-;-;-;-;-;-;-;-
1514208654397;-;-;9.735321;-0.4259796;-1.3340912;-;-;-;-;-;-;-;-;-;-;-;-;-;-;-
1514208654417;-;-;9.151123;-0.44273376;-0.9162903;-;-;-;-;-;-;-;-;-;-;-;-;-;-;-
1514208654438;-;-;9.404907;-0.6689911;-1.0862885;-;-;-;-;-;-;-;-;-;-;-;-;-;-;-
1514208654457;-;-;8.966782;-0.3589325;0.023422241;-;-;-;-;-;-;-;-;-;-;-;-;-;-;-
1514208654477;-;-;8.751297;-0.54089355;-0.43266296;-;-;-;-;-;-;-;-;-;-;-;-;-;-;-
1514208654498;-;-;8.950012;-0.8665161;-1.0539703;-;-;-;-;-;-;-;-;-;-;-;-;-;-;-
1514208654518;-;-;9.232529;-0.82341003;-1.1712799;-;-;-;-;-;-;-;-;-;-;-;-;-;-;-
1514208654538;-;-;8.826721;-0.27035522;-0.966568;-;-;-;-;-;-;-;-;-;-;-;-;-;-;-
1514208654559;-;-;9.260071;-0.5277252;-1.2682495;-;-;-;-;-;-;-;-;-;-;-;-;-;-;-
1514208654579;-;-;9.225342;-1.0556488;-1.6513214;-;-;-;-;-;-;-;-;-;-;-;-;-;-;-
1514208654599;-;-;9.294785;-0.29548645;-1.4023132;-;-;-;-;-;-;-;-;-;-;-;-;-;-;-
1514208654619;-;-;9.076904;0.8609009;-1.2227478;-;-;-;-;-;-;-;-;-;-;-;-;-;-;-
1514208654640;-;-;9.227737;0.51016235;-1.0324097;-;-;-;-;-;-;-;-;-;-;-;-;-;-;-
1514208654660;-;-;9.045776;0.25637817;-1.2419128;-;-;-;-;-;-;-;-;-;-;-;-;-;-;-
1514208654680;-;-;9.453995;0.26715088;-1.590271;-;-;-;-;-;-;-;-;-;-;-;-;-;-;-
1514208654701;-;-;9.608414;0.23362732;-1.4250641;-;-;-;-;-;-;-;-;-;-;-;-;-;-;-
1514208654720;-;-;8.946426;-0.16500854;-1.3484497;-;-;-;-;-;-;-;-;-;-;-;-;-;-;-
1514208654740;-;-;9.589264;-0.43315125;-1.942215;-;-;-;-;-;-;-;-;-;-;-;-;-;-;-
1514208654761;-;-;9.7413025;-0.25598145;-1.8440552;-;-;-;-;-;-;-;-;-;-;-;-;-;-;-
1514208654780;-;-;9.677856;0.3030548;-1.8656006;-;-;-;-;-;-;-;-;-;-;-;-;-;-;-
1514208654800;-;-;9.141556;1.0871582;-1.4897003;-;-;-;-;-;-;-;-;-;-;-;-;-;-;-
1514208654820;-;-;8.957199;1.0237122;-1.0096741;-;-;-;-;-;-;-;-;-;-;-;-;-;-;-
1514208654841;-;-;9.631165;0.9650574;-1.5004883;-;-;-;-;-;-;-;-;-;-;-;-;-;-;-
1514208654860;-;-;9.149933;0.95547485;-1.8656006;-;-;-;-;-;-;-;-;-;-;-;-;-;-;-
1514208654881;-;-;8.277252;0.7447815;-1.4621735;-;-;-;-;-;-;-;-;-;-;-;-;-;-;-
1514208654900;-;-;8.021072;2.6828918;-1.7542725;-;-;-;-;-;-;-;-;-;-;-;-;-;-;-
1514208654920;-;-;7.889389;1.4869843;-0.8720093;-;-;-;-;-;-;-;-;-;-;-;-;-;-;-
1514208654941;-;-;7.9073334;1.3050385;-1.6968079;-;-;-;-;-;-;-;-;-;-;-;-;-;-;-
1514208654960;-;-;8.049789;0.675354;-1.5028687;-;-;-;-;-;-;-;-;-;-;-;-;-;-;-
1514208654980;-;-;9.0793;-0.25479126;-2.1505127;-;-;-;-;-;-;-;-;-;-;-;-;-;-;-
1514208655000;-;-;8.795593;-1.273529;-1.7710266;-;-;-;-;-;-;-;-;-;-;-;-;-;-;-
1514208655021;-;-;8.950012;-1.7188416;-1.7782135;-;-;-;-;-;-;-;-;-;-;-;-;-;-;-
1514208655041;-;-;8.811157;-1.3118286;-1.471756;-;-;-;-;-;-;-;-;-;-;-;-;-;-;-
1514208655061;-;-;9.23613;-0.56243896;-1.2850037;-;-;-;-;-;-;-;-;-;-;-;-;-;-;-
1514208655081;-;-;9.374985;-0.17817688;-1.5483704;-;-;-;-;-;-;-;-;-;-;-;-;-;-;-
1514208655102;-;-;8.588486;0.4945984;-1.6082153;-;-;-;-;-;-;-;-;-;-;-;-;-;-;-
1514208655122;-;-;8.119232;1.2511597;-1.0132599;-;-;-;-;-;-;-;-;-;-;-;-;-;-;-
1514208655142;-;-;8.66391;1.7611237;-0.92108154;-;-;-;-;-;-;-;-;-;-;-;-;-;-;-
1514208655162;-;-;9.175064;1.8592834;-1.045578;-;-;-;-;-;-;-;-;-;-;-;-;-;-;-
1514208655183;-;-;10.160278;1.4307251;-1.5962524;-;-;-;-;-;-;-;-;-;-;-;-;-;-;-
1514208655203;-;-;9.540192;1.0368805;-1.6118164;-;-;-;-;-;-;-;-;-;-;-;-;-;-;-
1514208655223;-;-;9.963959;-0.73602295;-4.7709656;-;-;-;-;-;-;-;-;-;-;-;-;-;-;-
1514208655243;-;-;9.0972595;1.2691193;-1.4047089;-;-;-;-;-;-;-;-;-;-;-;-;-;-;-
1514208655263;-;-;10.416458;0.14025879;-1.8201141;-;-;-;-;-;-;-;-;-;-;-;-;-;-;-
1514208655283;-;-;8.368225;0.03251648;-1.4549866;-;-;-;-;-;-;-;-;-;-;-;-;-;-;-
1514208655304;-;-;9.346252;0.37249756;-1.784195;-;-;-;-;-;-;-;-;-;-;-;-;-;-;-
1514208655324;-;-;9.278015;0.4299469;-1.9853058;-;-;-;-;-;-;-;-;-;-;-;-;-;-;-
1514208655344;-;-;9.117615;0.48860168;-1.8213043;-;-;-;-;-;-;-;-;-;-;-;-;-;-;-
1514208655365;-;-;8.7213745;1.2667236;-0.8025665;-;-;-;-;-;-;-;-;-;-;-;-;-;-;-
1514208655385;-;-;9.146347;0.124694824;-0.6086426;-;-;-;-;-;-;-;-;-;-;-;-;-;-;-
1514208655405;-;-;9.345062;-0.14346313;-0.8600311;-;-;-;-;-;-;-;-;-;-;-;-;-;-;-
1514208655426;-;-;9.655106;0.1725769;-1.6944122;-;-;-;-;-;-;-;-;-;-;-;-;-;-;-
1514208655446;-;-;8.56694;0.8273926;-2.9573517;-;-;-;-;-;-;-;-;-;-;-;-;-;-;-
1514208655466;-;-;9.576096;1.5360718;-1.8428497;-;-;-;-;-;-;-;-;-;-;-;-;-;-;-
1514208655487;-;-;10.471527;3.1210327;-2.8939056;-;-;-;-;-;-;-;-;-;-;-;-;-;-;-
1514208655506;-;-;11.515396;3.572342;-5.764557;-;-;-;-;-;-;-;-;-;-;-;-;-;-;-
1514208655526;-;-;13.655823;0.65141296;-5.91658;-;-;-;-;-;-;-;-;-;-;-;-;-;-;-
1514208655546;-;-;6.3056183;-1.8301697;-2.8256683;-;-;-;-;-;-;-;-;-;-;-;-;-;-;-
1514208655567;-;-;7.1998596;-3.313385;-2.3049316;-;-;-;-;-;-;-;-;-;-;-;-;-;-;-
1514208655587;-;-;7.447647;-3.1134644;-4.1424866;-;-;-;-;-;-;-;-;-;-;-;-;-;-;-
1514208655607;-;-;9.213379;-0.8856659;-5.2450104;-;-;-;-;-;-;-;-;-;-;-;-;-;-;-
1514208655628;-;-;10.821091;0.87646484;-5.1863556;-;-;-;-;-;-;-;-;-;-;-;-;-;-;-
1514208655648;-;-;10.56131;1.5085449;-4.147278;-;-;-;-;-;-;-;-;-;-;-;-;-;-;-
1514208655668;-;-;9.765244;0.6921234;-3.6420898;-;-;-;-;-;-;-;-;-;-;-;-;-;-;-
1514208655688;-;-;8.7812195;-1.4231567;-2.5563202;-;-;-;-;-;-;-;-;-;-;-;-;-;-;-
1514208655709;-;-;8.443649;-2.9506683;-2.187622;-;-;-;-;-;-;-;-;-;-;-;-;-;-;-
1514208655728;-;-;7.7936096;-3.6904755;-2.4222565;-;-;-;-;-;-;-;-;-;-;-;-;-;-;-
1514208655748;-;-;6.70784;-3.447464;-2.8017273;-;-;-;-;-;-;-;-;-;-;-;-;-;-;-
1514208655768;-;-;5.416168;-2.8369446;-3.2662048;-;-;-;-;-;-;-;-;-;-;-;-;-;-;-
1514208655789;-;-;5.430542;-2.1653595;-3.1584625;-;-;-;-;-;-;-;-;-;-;-;-;-;-;-
1514208655809;-;-;7.2357635;-1.467453;-2.4090881;-;-;-;-;-;-;-;-;-;-;-;-;-;-;-
1514208655829;-;-;8.552582;-0.98501587;-2.2127533;-;-;-;-;-;-;-;-;-;-;-;-;-;-;-
1514208655850;-;-;9.322311;-1.3752747;-2.342041;-;-;-;-;-;-;-;-;-;-;-;-;-;-;-
1514208655870;-;-;9.580887;-2.2252197;-2.7466583;-;-;-;-;-;-;-;-;-;-;-;-;-;-;-
1514208655890;-;-;9.189438;-2.4251404;-2.3444366;-;-;-;-;-;-;-;-;-;-;-;-;-;-;-
1514208655911;-;-;9.035004;-2.4059753;-1.9721375;-;-;-;-;-;-;-;-;-;-;-;-;-;-;-
1514208655930;-;-;8.562149;-2.190506;-1.7327118;-;-;-;-;-;-;-;-;-;-;-;-;-;-;-
1514208655950;-;-;7.9264984;-1.8206024;-1.5531616;-;-;-;-;-;-;-;-;-;-;-;-;-;-;-
1514208655970;-;-;7.590103;-1.6661682;-1.1904297;-;-;-;-;-;-;-;-;-;-;-;-;-;-;-
1514208655991;-;-;7.4656067;-1.7104645;-1.4753418;-;-;-;-;-;-;-;-;-;-;-;-;-;-;-
1514208656012;-;-;8.398148;-1.5488586;-1.4813232;-;-;-;-;-;-;-;-;-;-;-;-;-;-;-
1514208656033;-;-;9.9879;-1.1621857;-2.0978394;-;-;-;-;-;-;-;-;-;-;-;-;-;-;-
1514208656053;-;-;11.387314;-0.9479065;-2.721527;-;-;-;-;-;-;-;-;-;-;-;-;-;-;-
1514208656073;-;-;12.960297;-1.1166992;-3.7151184;-;-;-;-;-;-;-;-;-;-;-;-;-;-;-
1514208656094;-;-;14.194519;-2.7387695;-6.9377136;-;-;-;-;-;-;-;-;-;-;-;-;-;-;-
1514208656114;-;-;17.822922;-4.1262207;-4.488449;-;-;-;-;-;-;-;-;-;-;-;-;-;-;-
1514208656134;-;-;16.8042;-5.097061;-3.219513;-;-;-;-;-;-;-;-;-;-;-;-;-;-;-
1514208656155;-;-;14.894821;-5.5842896;-4.3244476;-;-;-;-;-;-;-;-;-;-;-;-;-;-;-
1514208656176;-;-;10.336258;-4.0340424;-4.3507843;-;-;-;-;-;-;-;-;-;-;-;-;-;-;-
1514208656195;-;-;5.862686;-2.4215393;-3.7342682;-;-;-;-;-;-;-;-;-;-;-;-;-;-;-
1514208656215;-;-;2.6269226;-0.97424316;-3.906662;-;-;-;-;-;-;-;-;-;-;-;-;-;-;-
1514208656235;-;-;1.999649;-0.069244385;-3.3835144;-;-;-;-;-;-;-;-;-;-;-;-;-;-;-
1514208656256;-;-;4.3028717;-0.15065002;-3.9126434;-;-;-;-;-;-;-;-;-;-;-;-;-;-;-
1514208656276;-;-;8.118027;-0.054870605;-5.748993;-;-;-;-;-;-;-;-;-;-;-;-;-;-;-
1514208656296;-;-;11.076065;-0.37449646;-6.5414734;-;-;-;-;-;-;-;-;-;-;-;-;-;-;-
1514208656317;-;-;11.704544;-1.0843811;-6.7234344;-;-;-;-;-;-;-;-;-;-;-;-;-;-;-
1514208656336;-;-;11.560898;-0.87368774;-5.132492;-;-;-;-;-;-;-;-;-;-;-;-;-;-;-
1514208656356;-;-;9.4935;-0.368515;-4.1388855;-;-;-;-;-;-;-;-;-;-;-;-;-;-;-
1514208656377;-;-;6.427719;0.14743042;-3.2937317;-;-;-;-;-;-;-;-;-;-;-;-;-;-;-
1514208656397;-;-;3.253006;0.29467773;-2.9525604;-;-;-;-;-;-;-;-;-;-;-;-;-;-;-
1514208656417;-;-;2.2689972;0.18334961;-2.6987762;-;-;-;-;-;-;-;-;-;-;-;-;-;-;-
1514208656437;-;-;2.750229;0.29467773;-2.2498627;-;-;-;-;-;-;-;-;-;-;-;-;-;-;-
1514208656458;-;-;3.6887512;0.7040863;-2.1780396;-;-;-;-;-;-;-;-;-;-;-;-;-;-;-
1514208656478;-;-;5.69989;0.9064026;-2.2175446;-;-;-;-;-;-;-;-;-;-;-;-;-;-;-
1514208656498;-;-;6.9712067;1.5935364;-2.6748352;-;-;-;-;-;-;-;-;-;-;-;-;-;-;-
1514208656518;-;-;7.916916;2.608673;-3.4373932;-;-;-;-;-;-;-;-;-;-;-;-;-;-;-
1514208656539;-;-;8.605255;2.9223175;-3.8982697;-;-;-;-;-;-;-;-;-;-;-;-;-;-;-
1514208656559;-;-;9.086487;2.481781;-4.270569;-;-;-;-;-;-;-;-;-;-;-;-;-;-;-
1514208656579;-;-;9.351044;1.7671051;-3.820465;-;-;-;-;-;-;-;-;-;-;-;-;-;-;-
1514208656600;-;-;9.762848;1.6330414;-3.317688;-;-;-;-;-;-;-;-;-;-;-;-;-;-;-
1514208656621;-;-;10.494278;1.5839539;-3.3356323;-;-;-;-;-;-;-;-;-;-;-;-;-;-;-
1514208656642;-;-;11.541733;1.0285034;-3.2243042;-;-;-;-;-;-;-;-;-;-;-;-;-;-;-
1514208656661;-;-;11.970306;0.4981842;-3.1297302;-;-;-;-;-;-;-;-;-;-;-;-;-;-;-
1514208656681;-;-;12.039734;0.69091797;-4.022766;-;-;-;-;-;-;-;-;-;-;-;-;-;-;-
1514208656701;-;-;11.602798;1.7407837;-6.9293365;-;-;-;-;-;-;-;-;-;-;-;-;-;-;-
1514208656722;-;-;11.434006;2.4482574;-6.112915;-;-;-;-;-;-;-;-;-;-;-;-;-;-;-
1514208656742;-;-;10.129166;1.9191437;-7.0358734;-;-;-;-;-;-;-;-;-;-;-;-;-;-;-
1514208656762;-;-;8.80397;1.7814789;-8.171921;-;-;-;-;-;-;-;-;-;-;-;-;-;-;-
1514208656783;-;-;6.7880554;0.8597107;-6.365494;-;-;-;-;-;-;-;-;-;-;-;-;-;-;-
1514208656803;-;-;5.833969;-1.2986603;-5.7310333;-;-;-;-;-;-;-;-;-;-;-;-;-;-;-
1514208656824;-;-;7.0574036;-2.2731018;-6.0195313;-;-;-;-;-;-;-;-;-;-;-;-;-;-;-
1514208656843;-;-;7.714615;-1.7846832;-5.781311;-;-;-;-;-;-;-;-;-;-;-;-;-;-;-
1514208656863;-;-;7.7541046;-0.996994;-4.1508636;-;-;-;-;-;-;-;-;-;-;-;-;-;-;-
1514208656884;-;-;7.0574036;-0.1410675;-2.646103;-;-;-;-;-;-;-;-;-;-;-;-;-;-;-
1514208656903;-;-;6.7138367;0.6442261;-2.7310944;-;-;-;-;-;-;-;-;-;-;-;-;-;-;-
1514208656923;-;-;6.2625275;0.9087982;-2.8615875;-;-;-;-;-;-;-;-;-;-;-;-;-;-;-
1514208656943;-;-;4.563843;0.3222046;-2.7789917;-;-;-;-;-;-;-;-;-;-;-;-;-;-;-
1514208656963;-;-;3.2027283;-1.012558;-2.294159;-;-;-;-;-;-;-;-;-;-;-;-;-;-;-
1514208656984;-;-;3.1321106;-2.8129883;-1.7398987;-;-;-;-;-;-;-;-;-;-;-;-;-;-;-
1514208657004;-;-;4.9576874;-3.8975677;-2.3611908;-;-;-;-;-;-;-;-;-;-;-;-;-;-;-
1514208657024;-;-;6.1715393;-3.7515259;-3.5175934;-;-;-;-;-;-;-;-;-;-;-;-;-;-;-
1514208657045;-;-;7.659546;-2.9913635;-3.645691;-;-;-;-;-;-;-;-;-;-;-;-;-;-;-
1514208657065;-;-;8.626801;-2.1318512;-3.2973328;-;-;-;-;-;-;-;-;-;-;-;-;-;-;-
1514208657086;-;-;9.49231;-1.6434326;-3.4828796;-;-;-;-;-;-;-;-;-;-;-;-;-;-;-
1514208657106;-;-;9.103241;-1.5297089;-3.2961273;-;-;-;-;-;-;-;-;-;-;-;-;-;-;-
1514208657126;-;-;9.936432;-1.7870789;-2.79216;-;-;-;-;-;-;-;-;-;-;-;-;-;-;-
1514208657146;-;-;10.671448;-2.4778137;-2.954956;-;-;-;-;-;-;-;-;-;-;-;-;-;-;-
1514208657167;-;-;11.228104;-3.0751648;-3.8001099;-;-;-;-;-;-;-;-;-;-;-;-;-;-;-
1514208657187;-;-;12.392883;-2.3437347;-4.796097;-;-;-;-;-;-;-;-;-;-;-;-;-;-;-
1514208657207;-;-;13.143463;-1.1657867;-4.9098206;-;-;-;-;-;-;-;-;-;-;-;-;-;-;-
1514208657227;-;-;12.414429;-0.7563782;-7.3447266;-;-;-;-;-;-;-;-;-;-;-;-;-;-;-
1514208657248;-;-;11.874527;-1.5680084;-9.385788;-;-;-;-;-;-;-;-;-;-;-;-;-;-;-
1514208657268;-;-;11.341827;-3.4785767;-7.524292;-;-;-;-;-;-;-;-;-;-;-;-;-;-;-
1514208657288;-;-;11.825455;-3.5408325;-3.7031403;-;-;-;-;-;-;-;-;-;-;-;-;-;-;-
1514208657309;-;-;8.454422;-2.6992645;-5.666397;-;-;-;-;-;-;-;-;-;-;-;-;-;-;-
1514208657329;-;-;6.5402527;-2.044464;-6.7641296;-;-;-;-;-;-;-;-;-;-;-;-;-;-;-
1514208657349;-;-;6.0769806;-0.7958832;-4.575836;-;-;-;-;-;-;-;-;-;-;-;-;-;-;-
1514208657370;-;-;5.7453766;-0.91200256;-3.0375519;-;-;-;-;-;-;-;-;-;-;-;-;-;-;-
1514208657390;-;-;6.0853577;-1.2531738;-2.151703;-;-;-;-;-;-;-;-;-;-;-;-;-;-;-
1514208657410;-;-;5.7142487;-0.23564148;-2.005661;-;-;-;-;-;-;-;-;-;-;-;-;-;-;-
1514208657431;-;-;6.062607;0.10673523;-2.9477692;-;-;-;-;-;-;-;-;-;-;-;-;-;-;-
1514208657451;-;-;6.0650024;-0.10635376;-3.9461517;-;-;-;-;-;-;-;-;-;-;-;-;-;-;-
1514208657470;-;-;5.7298126;0.48860168;-4.289734;-;-;-;-;-;-;-;-;-;-;-;-;-;-;-
1514208657490;-;-;4.7529755;1.8365479;-4.4465485;-;-;-;-;-;-;-;-;-;-;-;-;-;-;-
1514208657510;-;-;4.4752502;2.9187164;-4.014389;-;-;-;-;-;-;-;-;-;-;-;-;-;-;-
1514208657531;-;-;5.0917664;2.8552704;-3.891098;-;-;-;-;-;-;-;-;-;-;-;-;-;-;-
1514208657551;-;-;6.0697937;1.8221741;-3.8444061;-;-;-;-;-;-;-;-;-;-;-;-;-;-;-
1514208657571;-;-;7.2860413;0.6526184;-3.7462463;-;-;-;-;-;-;-;-;-;-;-;-;-;-;-
1514208657592;-;-;7.0142975;0.2192688;-3.2686005;-;-;-;-;-;-;-;-;-;-;-;-;-;-;-
1514208657612;-;-;7.0131073;0.3964386;-2.184021;-;-;-;-;-;-;-;-;-;-;-;-;-;-;-
1514208657632;-;-;7.4105377;1.406784;-1.6776581;-;-;-;-;-;-;-;-;-;-;-;-;-;-;-
1514208657653;-;-;8.000717;1.9658356;-1.8201141;-;-;-;-;-;-;-;-;-;-;-;-;-;-;-
1514208657673;-;-;8.791992;2.137024;-2.0427704;-;-;-;-;-;-;-;-;-;-;-;-;-;-;-
1514208657694;-;-;9.807144;2.1082916;-2.7322998;-;-;-;-;-;-;-;-;-;-;-;-;-;-;-
1514208657714;-;-;10.661865;1.9742126;-3.135727;-;-;-;-;-;-;-;-;-;-;-;-;-;-;-
1514208657734;-;-;11.43161;1.6258545;-3.1488953;-;-;-;-;-;-;-;-;-;-;-;-;-;-;-
1514208657755;-;-;12.1414795;1.7204285;-3.2554321;-;-;-;-;-;-;-;-;-;-;-;-;-;-;-
1514208657775;-;-;12.65744;2.1430054;-6.0674286;-;-;-;-;-;-;-;-;-;-;-;-;-;-;-
1514208657795;-;-;11.686584;2.6505737;-8.492752;-;-;-;-;-;-;-;-;-;-;-;-;-;-;-
1514208657816;-;-;11.51062;2.8349304;-5.432953;-;-;-;-;-;-;-;-;-;-;-;-;-;-;-
1514208657835;-;-;10.581665;2.727188;-5.373108;-;-;-;-;-;-;-;-;-;-;-;-;-;-;-
1514208657855;-;-;9.367798;2.8026123;-7.3722687;-;-;-;-;-;-;-;-;-;-;-;-;-;-;-
1514208657876;-;-;6.9939575;2.260315;-7.031082;-;-;-;-;-;-;-;-;-;-;-;-;-;-;-
1514208657895;-;-;5.2425995;-0.12669373;-5.5682373;-;-;-;-;-;-;-;-;-;-;-;-;-;-;-
1514208657915;-;-;6.6851044;-2.2551422;-4.6488495;-;-;-;-;-;-;-;-;-;-;-;-;-;-;-
1514208657936;-;-;7.8391113;-2.7220154;-4.028763;-;-;-;-;-;-;-;-;-;-;-;-;-;-;-
1514208657955;-;-;9.473145;-1.8756714;-3.9461517;-;-;-;-;-;-;-;-;-;-;-;-;-;-;-
1514208657975;-;-;9.4096985;-0.41879272;-3.666031;-;-;-;-;-;-;-;-;-;-;-;-;-;-;-
1514208657996;-;-;8.861435;0.2743225;-3.982071;-;-;-;-;-;-;-;-;-;-;-;-;-;-;-
1514208658015;-;-;7.526657;0.8213959;-3.9473572;-;-;-;-;-;-;-;-;-;-;-;-;-;-;-
1514208658035;-;-;5.5909576;0.48501587;-3.7905426;-;-;-;-;-;-;-;-;-;-;-;-;-;-;-
1514208658056;-;-;3.0076141;-0.6821594;-2.65448;-;-;-;-;-;-;-;-;-;-;-;-;-;-;-
1514208658076;-;-;2.3228607;-1.5548401;-1.5782928;-;-;-;-;-;-;-;-;-;-;-;-;-;-;-
1514208658096;-;-;2.7526245;-2.230011;-1.3340912;-;-;-;-;-;-;-;-;-;-;-;-;-;-;-
1514208658117;-;-;4.4764557;-2.3401337;-1.9781189;-;-;-;-;-;-;-;-;-;-;-;-;-;-;-
1514208658136;-;-;5.589752;-2.063614;-2.3671875;-;-;-;-;-;-;-;-;-;-;-;-;-;-;-
1514208658157;-;-;6.62883;-2.183319;-2.5120392;-;-;-;-;-;-;-;-;-;-;-;-;-;-;-
1514208658176;-;-;8.532227;-2.9315033;-3.2219086;-;-;-;-;-;-;-;-;-;-;-;-;-;-;-
1514208658196;-;-;10.301544;-3.1900787;-4.179596;-;-;-;-;-;-;-;-;-;-;-;-;-;-;-
1514208658217;-;-;11.168243;-2.6992645;-3.8647614;-;-;-;-;-;-;-;-;-;-;-;-;-;-;-
1514208658236;-;-;11.909256;-1.8349609;-3.5128021;-;-;-;-;-;-;-;-;-;-;-;-;-;-;-
1514208658256;-;-;11.577652;-1.8972168;-3.1321259;-;-;-;-;-;-;-;-;-;-;-;-;-;-;-
1514208658277;-;-;11.602798;-2.2132416;-3.338028;-;-;-;-;-;-;-;-;-;-;-;-;-;-;-
1514208658297;-;-;12.854965;-1.5153351;-4.262192;-;-;-;-;-;-;-;-;-;-;-;-;-;-;-
1514208658317;-;-;12.587997;-1.2579651;-5.9812317;-;-;-;-;-;-;-;-;-;-;-;-;-;-;-
1514208658338;-;-;12.231262;-1.7858887;-9.560562;-;-;-;-;-;-;-;-;-;-;-;-;-;-;-
1514208658358;-;-;12.9674835;-2.3784485;-7.1627655;-;-;-;-;-;-;-;-;-;-;-;-;-;-;-
1514208658378;-;-;12.942352;-3.0260773;-3.473297;-;-;-;-;-;-;-;-;-;-;-;-;-;-;-
1514208658399;-;-;11.11557;-2.3389435;-5.91539;-;-;-;-;-;-;-;-;-;-;-;-;-;-;-
1514208658419;-;-;7.044235;-2.142624;-8.529861;-;-;-;-;-;-;-;-;-;-;-;-;-;-;-
1514208658439;-;-;4.4321594;-1.5715942;-7.572174;-;-;-;-;-;-;-;-;-;-;-;-;-;-;-
1514208658459;-;-;5.9848022;-0.28112793;-3.966507;-;-;-;-;-;-;-;-;-;-;-;-;-;-;-
1514208658480;-;-;5.9512787;-0.22007751;-3.2302856;-;-;-;-;-;-;-;-;-;-;-;-;-;-;-
1514208658500;-;-;5.948883;0.20010376;-2.6484985;-;-;-;-;-;-;-;-;-;-;-;-;-;-;-
1514208658520;-;-;5.7405853;0.13905334;-1.8380585;-;-;-;-;-;-;-;-;-;-;-;-;-;-;-
1514208658540;-;-;6.76651;-1.4399261;-2.4641418;-;-;-;-;-;-;-;-;-;-;-;-;-;-;-
1514208658560;-;-;6.904175;-2.2802887;-3.1153717;-;-;-;-;-;-;-;-;-;-;-;-;-;-;-
1514208658581;-;-;5.4053955;-1.5835724;-3.0794525;-;-;-;-;-;-;-;-;-;-;-;-;-;-;-
1514208658601;-;-;3.3056793;0.41079712;-2.8891144;-;-;-;-;-;-;-;-;-;-;-;-;-;-;-
1514208658621;-;-;2.351593;2.842102;-3.4996338;-;-;-;-;-;-;-;-;-;-;-;-;-;-;-
1514208658641;-;-;4.2178802;3.8548584;-3.8312378;-;-;-;-;-;-;-;-;-;-;-;-;-;-;-
1514208658662;-;-;7.482376;2.0472412;-4.266983;-;-;-;-;-;-;-;-;-;-;-;-;-;-;-
1514208658682;-;-;9.418076;0.32580566;-4.278946;-;-;-;-;-;-;-;-;-;-;-;-;-;-;-
1514208658702;-;-;9.075714;0.20489502;-3.4242249;-;-;-;-;-;-;-;-;-;-;-;-;-;-;-
1514208658723;-;-;9.055359;1.5276947;-2.895111;-;-;-;-;-;-;-;-;-;-;-;-;-;-;-
1514208658743;-;-;9.357025;2.7918243;-2.6568756;-;-;-;-;-;-;-;-;-;-;-;-;-;-;-
1514208658763;-;-;9.744888;2.991745;-2.709549;-;-;-;-;-;-;-;-;-;-;-;-;-;-;-
1514208658784;-;-;9.522232;2.481781;-2.6137848;-;-;-;-;-;-;-;-;-;-;-;-;-;-;-
1514208658804;-;-;9.847839;1.7934418;-3.041153;-;-;-;-;-;-;-;-;-;-;-;-;-;-;-
1514208658824;-;-;10.335068;1.4187622;-2.500061;-;-;-;-;-;-;-;-;-;-;-;-;-;-;-
1514208658844;-;-;10.209366;1.9574585;-2.163681;-;-;-;-;-;-;-;-;-;-;-;-;-;-;-
1514208658865;-;-;9.797562;2.5799408;-6.066223;-;-;-;-;-;-;-;-;-;-;-;-;-;-;-
1514208658885;-;-;11.650681;4.3612366;-8.570557;-;-;-;-;-;-;-;-;-;-;-;-;-;-;-
1514208658906;-;-;12.520966;5.1273804;-4.0634766;-;-;-;-;-;-;-;-;-;-;-;-;-;-;-
1514208658925;-;-;12.711304;3.11026;-6.839554;-;-;-;-;-;-;-;-;-;-;-;-;-;-;-
1514208658945;-;-;11.094025;1.7491608;-9.032639;-;-;-;-;-;-;-;-;-;-;-;-;-;-;-
1514208658965;-;-;5.7956543;0.5281067;-8.456833;-;-;-;-;-;-;-;-;-;-;-;-;-;-;-
1514208658986;-;-;4.126892;-2.3341522;-5.441345;-;-;-;-;-;-;-;-;-;-;-;-;-;-;-
1514208659006;-;-;5.6148987;-3.854477;-3.511612;-;-;-;-;-;-;-;-;-;-;-;-;-;-;-
1514208659026;-;-;7.925293;-2.4071808;-4.456131;-;-;-;-;-;-;-;-;-;-;-;-;-;-;-
1514208659046;-;-;8.254501;-0.30625916;-4.1197357;-;-;-;-;-;-;-;-;-;-;-;-;-;-;-
1514208659067;-;-;7.7217865;1.1685638;-4.152054;-;-;-;-;-;-;-;-;-;-;-;-;-;-;-
1514208659086;-;-;6.4600525;1.6677551;-4.199951;-;-;-;-;-;-;-;-;-;-;-;-;-;-;-
1514208659106;-;-;4.679962;1.4941711;-3.6109772;-;-;-;-;-;-;-;-;-;-;-;-;-;-;-
1514208659126;-;-;3.2661743;0.4479065;-2.9010925;-;-;-;-;-;-;-;-;-;-;-;-;-;-;-
1514208659146;-;-;2.9273987;-1.3633118;-2.6113892;-;-;-;-;-;-;-;-;-;-;-;-;-;-;-
1514208659167;-;-;3.411026;-2.7962341;-2.2522583;-;-;-;-;-;-;-;-;-;-;-;-;-;-;-
1514208659187;-;-;4.3423767;-3.225998;-2.5730896;-;-;-;-;-;-;-;-;-;-;-;-;-;-;-
1514208659207;-;-;5.9848022;-2.6334229;-3.3559875;-;-;-;-;-;-;-;-;-;-;-;-;-;-;-
1514208659228;-;-;7.976776;-1.3106384;-3.429016;-;-;-;-;-;-;-;-;-;-;-;-;-;-;-
1514208659247;-;-;9.373795;-0.7096863;-3.097412;-;-;-;-;-;-;-;-;-;-;-;-;-;-;-
1514208659267;-;-;10.104019;-0.79707336;-3.136917;-;-;-;-;-;-;-;-;-;-;-;-;-;-;-
1514208659287;-;-;10.807922;-1.8421478;-3.6600494;-;-;-;-;-;-;-;-;-;-;-;-;-;-;-
1514208659308;-;-;11.281967;-2.5244904;-2.8879242;-;-;-;-;-;-;-;-;-;-;-;-;-;-;-
1514208659328;-;-;11.394501;-2.4442902;-2.1301575;-;-;-;-;-;-;-;-;-;-;-;-;-;-;-
1514208659348;-;-;10.816299;-2.439499;-2.5754852;-;-;-;-;-;-;-;-;-;-;-;-;-;-;-
1514208659368;-;-;10.691803;-2.5173187;-3.3715515;-;-;-;-;-;-;-;-;-;-;-;-;-;-;-
1514208659388;-;-;11.600403;-2.0504456;-3.9138336;-;-;-;-;-;-;-;-;-;-;-;-;-;-;-
1514208659409;-;-;11.852982;-0.9036255;-4.8140564;-;-;-;-;-;-;-;-;-;-;-;-;-;-;-
1514208659429;-;-;10.258453;-1.838562;-7.620056;-;-;-;-;-;-;-;-;-;-;-;-;-;-;-
1514208659449;-;-;11.028183;-2.2635193;-6.485214;-;-;-;-;-;-;-;-;-;-;-;-;-;-;-
1514208659470;-;-;11.677017;-2.4933624;-5.307266;-;-;-;-;-;-;-;-;-;-;-;-;-;-;-
1514208659490;-;-;11.364563;-2.7627106;-5.4784546;-;-;-;-;-;-;-;-;-;-;-;-;-;-;-
1514208659510;-;-;8.061768;-2.5292816;-8.545425;-;-;-;-;-;-;-;-;-;-;-;-;-;-;-
1514208659530;-;-;5.6747437;-1.6841278;-9.606049;-;-;-;-;-;-;-;-;-;-;-;-;-;-;-
1514208659550;-;-;6.663559;0.20489502;-6.540283;-;-;-;-;-;-;-;-;-;-;-;-;-;-;-
1514208659571;-;-;7.5398254;0.91596985;-4.076645;-;-;-;-;-;-;-;-;-;-;-;-;-;-;-
1514208659591;-;-;8.261688;0.1618042;-3.5403442;-;-;-;-;-;-;-;-;-;-;-;-;-;-;-
1514208659611;-;-;7.739746;-0.8102417;-3.1632538;-;-;-;-;-;-;-;-;-;-;-;-;-;-;-
1514208659631;-;-;7.4811707;-1.7679291;-3.2398682;-;-;-;-;-;-;-;-;-;-;-;-;-;-;-
1514208659652;-;-;6.86586;-2.1701508;-3.3883057;-;-;-;-;-;-;-;-;-;-;-;-;-;-;-
1514208659672;-;-;5.6148987;-1.5871582;-3.1716309;-;-;-;-;-;-;-;-;-;-;-;-;-;-;-
1514208659692;-;-;3.964096;-0.09437561;-3.278183;-;-;-;-;-;-;-;-;-;-;-;-;-;-;-
1514208659713;-;-;2.849594;1.9430847;-3.2997284;-;-;-;-;-;-;-;-;-;-;-;-;-;-;-
1514208659733;-;-;3.0758362;3.3257446;-3.0543213;-;-;-;-;-;-;-;-;-;-;-;-;-;-;-
1514208659754;-;-;4.975647;2.7056427;-3.4661255;-;-;-;-;-;-;-;-;-;-;-;-;-;-;-
1514208659774;-;-;6.6551666;1.7312012;-3.7187042;-;-;-;-;-;-;-;-;-;-;-;-;-;-;-
1514208659794;-;-;7.205841;1.3265839;-3.709137;-;-;-;-;-;-;-;-;-;-;-;-;-;-;-
1514208659815;-;-;7.4572296;1.6067047;-3.3751373;-;-;-;-;-;-;-;-;-;-;-;-;-;-;-
1514208659834;-;-;8.110855;2.0639954;-2.7945404;-;-;-;-;-;-;-;-;-;-;-;-;-;-;-
1514208659855;-;-;8.814743;2.3572845;-2.9765015;-;-;-;-;-;-;-;-;-;-;-;-;-;-;-
1514208659876;-;-;9.366608;2.4602356;-3.3595734;-;-;-;-;-;-;-;-;-;-;-;-;-;-;-
1514208659896;-;-;9.291183;2.4518585;-3.6815948;-;-;-;-;-;-;-;-;-;-;-;-;-;-;-
1514208659916;-;-;10.111206;2.370453;-4.2849426;-;-;-;-;-;-;-;-;-;-;-;-;-;-;-
1514208659937;-;-;11.004242;2.976181;-4.323242;-;-;-;-;-;-;-;-;-;-;-;-;-;-;-
1514208659957;-;-;11.703354;3.2898254;-4.004822;-;-;-;-;-;-;-;-;-;-;-;-;-;-;-
1514208659977;-;-;11.995438;2.4207306;-3.5762482;-;-;-;-;-;-;-;-;-;-;-;-;-;-;-
1514208659997;-;-;11.886505;0.37487793;-6.808426;-;-;-;-;-;-;-;-;-;-;-;-;-;-;-
1514208660018;-;-;9.070923;0.7028961;-8.801605;-;-;-;-;-;-;-;-;-;-;-;-;-;-;-
1514208660037;-;-;7.2704773;2.3932037;-7.3135986;-;-;-;-;-;-;-;-;-;-;-;-;-;-;-
1514208660057;-;-;7.4560394;3.3293304;-3.214737;-;-;-;-;-;-;-;-;-;-;-;-;-;-;-
1514208660078;-;-;8.118027;2.825348;-6.0003815;-;-;-;-;-;-;-;-;-;-;-;-;-;-;-
1514208660098;-;-;7.7960052;1.1326447;-9.171509;-;-;-;-;-;-;-;-;-;-;-;-;-;-;-
1514208660118;-;-;6.8957977;-1.2507782;-8.774063;-;-;-;-;-;-;-;-;-;-;-;-;-;-;-
1514208660138;-;-;7.442871;-3.6078644;-4.1137543;-;-;-;-;-;-;-;-;-;-;-;-;-;-;-
1514208660159;-;-;8.416107;-3.9406586;-1.9757233;-;-;-;-;-;-;-;-;-;-;-;-;-;-;-
1514208660179;-;-;8.633987;-2.1521912;-3.5942078;-;-;-;-;-;-;-;-;-;-;-;-;-;-;-
1514208660199;-;-;7.6858826;-0.72525024;-3.5954132;-;-;-;-;-;-;-;-;-;-;-;-;-;-;-
1514208660220;-;-;6.3115997;-0.0010070801;-4.3723297;-;-;-;-;-;-;-;-;-;-;-;-;-;-;-
1514208660240;-;-;4.1280975;0.58917236;-4.650055;-;-;-;-;-;-;-;-;-;-;-;-;-;-;-
1514208660260;-;-;2.1325226;0.6274719;-4.107773;-;-;-;-;-;-;-;-;-;-;-;-;-;-;-
1514208660280;-;-;1.6704407;-0.7695465;-2.8843231;-;-;-;-;-;-;-;-;-;-;-;-;-;-;-
1514208660301;-;-;3.8467712;-2.5771637;-2.381546;-;-;-;-;-;-;-;-;-;-;-;-;-;-;-
1514208660321;-;-;6.236191;-2.8560944;-2.8651733;-;-;-;-;-;-;-;-;-;-;-;-;-;-;-
1514208660341;-;-;8.088104;-2.2982483;-3.4385834;-;-;-;-;-;-;-;-;-;-;-;-;-;-;-
1514208660361;-;-;9.1918335;-1.8481293;-3.4828796;-;-;-;-;-;-;-;-;-;-;-;-;-;-;-
1514208660381;-;-;8.727356;-1.7236328;-3.7390594;-;-;-;-;-;-;-;-;-;-;-;-;-;-;-
1514208660401;-;-;8.077332;-2.3952026;-3.6684265;-;-;-;-;-;-;-;-;-;-;-;-;-;-;-
1514208660422;-;-;8.1324005;-3.0416412;-3.2398682;-;-;-;-;-;-;-;-;-;-;-;-;-;-;-
1514208660442;-;-;8.988327;-3.2439575;-3.1500854;-;-;-;-;-;-;-;-;-;-;-;-;-;-;-
1514208660462;-;-;10.019028;-3.3780212;-3.2290955;-;-;-;-;-;-;-;-;-;-;-;-;-;-;-
1514208660482;-;-;10.751648;-3.5097046;-3.504425;-;-;-;-;-;-;-;-;-;-;-;-;-;-;-
1514208660502;-;-;11.568069;-3.6509705;-3.7713776;-;-;-;-;-;-;-;-;-;-;-;-;-;-;-
1514208660523;-;-;13.203308;-3.2475433;-4.097;-;-;-;-;-;-;-;-;-;-;-;-;-;-;-
1514208660543;-;-;14.059235;-2.2168427;-4.0239716;-;-;-;-;-;-;-;-;-;-;-;-;-;-;-
1514208660563;-;-;13.265564;-0.95269775;-3.6349182;-;-;-;-;-;-;-;-;-;-;-;-;-;-;-
1514208660583;-;-;10.575684;-0.9431305;-5.4544983;-;-;-;-;-;-;-;-;-;-;-;-;-;-;-
1514208660604;-;-;8.1527405;-2.320984;-11.131165;-;-;-;-;-;-;-;-;-;-;-;-;-;-;-
1514208660623;-;-;8.914108;-3.360077;-3.9210205;-;-;-;-;-;-;-;-;-;-;-;-;-;-;-
1514208660643;-;-;8.357452;-2.8967896;-0.71398926;-;-;-;-;-;-;-;-;-;-;-;-;-;-;-
1514208660664;-;-;6.206253;-2.4993591;-5.406616;-;-;-;-;-;-;-;-;-;-;-;-;-;-;-
1514208660683;-;-;5.781296;-1.8876343;-8.14798;-;-;-;-;-;-;-;-;-;-;-;-;-;-;-
1514208660703;-;-;6.5630035;-0.41160583;-5.8220215;-;-;-;-;-;-;-;-;-;-;-;-;-;-;-
1514208660723;-;-;9.406113;-0.5744171;-4.1903687;-;-;-;-;-;-;-;-;-;-;-;-;-;-;-
1514208660744;-;-;9.035004;0.15342712;-3.867157;-;-;-;-;-;-;-;-;-;-;-;-;-;-;-
1514208660764;-;-;7.9827576;1.5743866;-3.377533;-;-;-;-;-;-;-;-;-;-;-;-;-;-;-
1514208660784;-;-;6.9400787;1.5588226;-3.70195;-;-;-;-;-;-;-;-;-;-;-;-;-;-;-
1514208660804;-;-;5.8160095;0.8788605;-4.5183716;-;-;-;-;-;-;-;-;-;-;-;-;-;-;-
1514208660825;-;-;4.5662384;0.7184448;-4.4465485;-;-;-;-;-;-;-;-;-;-;-;-;-;-;-
1514208660845;-;-;3.5175781;1.3995972;-4.3088837;-;-;-;-;-;-;-;-;-;-;-;-;-;-;-
1514208660865;-;-;3.9461365;2.1418;-4.100586;-;-;-;-;-;-;-;-;-;-;-;-;-;-;-
1514208660886;-;-;4.5913696;2.3345337;-4.3208466;-;-;-;-;-;-;-;-;-;-;-;-;-;-;-
1514208660906;-;-;5.3970184;1.358902;-4.61055;-;-;-;-;-;-;-;-;-;-;-;-;-;-;-
1514208660926;-;-;6.4001923;0.7244415;-4.6692047;-;-;-;-;-;-;-;-;-;-;-;-;-;-;-
1514208660946;-;-;7.059799;0.5197296;-4.1041718;-;-;-;-;-;-;-;-;-;-;-;-;-;-;-
1514208660967;-;-;7.684677;0.5233307;-3.4421844;-;-;-;-;-;-;-;-;-;-;-;-;-;-;-
1514208660987;-;-;7.767273;0.6669769;-2.7143402;-;-;-;-;-;-;-;-;-;-;-;-;-;-;-
1514208661007;-;-;7.818756;0.5640259;-2.0619202;-;-;-;-;-;-;-;-;-;-;-;-;-;-;-
1514208661028;-;-;7.829529;0.24679565;-2.187622;-;-;-;-;-;-;-;-;-;-;-;-;-;-;-
1514208661048;-;-;8.449631;0.6250763;-2.0798798;-;-;-;-;-;-;-;-;-;-;-;-;-;-;-
1514208661068;-;-;9.390549;1.2930603;-2.1888123;-;-;-;-;-;-;-;-;-;-;-;-;-;-;-
1514208661089;-;-;10.12796;1.9885712;-2.3372498;-;-;-;-;-;-;-;-;-;-;-;-;-;-;-
1514208661109;-;-;9.765244;2.2040558;-2.0870667;-;-;-;-;-;-;-;-;-;-;-;-;-;-;-
1514208661129;-;-;8.571732;1.813797;-1.3173218;-;-;-;-;-;-;-;-;-;-;-;-;-;-;-
1514208661150;-;-;7.8869934;0.93273926;-0.1309967;-;-;-;-;-;-;-;-;-;-;-;-;-;-;-
1514208661170;-;-;8.24852;0.79745483;0.5166321;-;-;-;-;-;-;-;-;-;-;-;-;-;-;-
1514208661190;-;-;9.06134;0.9351349;-0.9007416;-;-;-;-;-;-;-;-;-;-;-;-;-;-;-
1514208661211;-;-;10.338654;2.9630127;-9.549789;-;-;-;-;-;-;-;-;-;-;-;-;-;-;-
1514208661231;-;-;9.802353;5.148926;-9.683868;-;-;-;-;-;-;-;-;-;-;-;-;-;-;-
1514208661251;-;-;12.923187;4.67247;-5.7753296;-;-;-;-;-;-;-;-;-;-;-;-;-;-;-
1514208661271;-;-;10.16507;1.9682312;-7.543442;-;-;-;-;-;-;-;-;-;-;-;-;-;-;-
1514208661291;-;-;8.23056;-2.6094818;-7.196289;-;-;-;-;-;-;-;-;-;-;-;-;-;-;-
1514208661312;-;-;6.1907043;-4.9881287;-5.9800262;-;-;-;-;-;-;-;-;-;-;-;-;-;-;-
1514208661332;-;-;6.814392;-2.9865723;-3.3799286;-;-;-;-;-;-;-;-;-;-;-;-;-;-;-
1514208661352;-;-;8.24852;0.42515564;-3.0064392;-;-;-;-;-;-;-;-;-;-;-;-;-;-;-
1514208661373;-;-;10.566101;2.2028503;-5.374298;-;-;-;-;-;-;-;-;-;-;-;-;-;-;-
1514208661393;-;-;10.955154;2.6326141;-5.898636;-;-;-;-;-;-;-;-;-;-;-;-;-;-;-
1514208661413;-;-;8.718979;2.2914429;-5.532318;-;-;-;-;-;-;-;-;-;-;-;-;-;-;-
1514208661433;-;-;6.489975;0.556839;-4.6931458;-;-;-;-;-;-;-;-;-;-;-;-;-;-;-
1514208661454;-;-;4.9672546;-1.4423218;-3.6289215;-;-;-;-;-;-;-;-;-;-;-;-;-;-;-
1514208661474;-;-;3.9832458;-2.613083;-3.519989;-;-;-;-;-;-;-;-;-;-;-;-;-;-;-
1514208661494;-;-;4.882263;-2.9123535;-4.0598907;-;-;-;-;-;-;-;-;-;-;-;-;-;-;-
1514208661515;-;-;7.150772;-1.7547607;-3.8647614;-;-;-;-;-;-;-;-;-;-;-;-;-;-;-
1514208661535;-;-;8.232956;-1.3944244;-3.1309357;-;-;-;-;-;-;-;-;-;-;-;-;-;-;-
1514208661555;-;-;7.2501373;-2.2874756;-3.3368378;-;-;-;-;-;-;-;-;-;-;-;-;-;-;-
1514208661575;-;-;7.10408;-2.9075623;-3.4457703;-;-;-;-;-;-;-;-;-;-;-;-;-;-;-
1514208661596;-;-;8.48674;-2.7938385;-3.111786;-;-;-;-;-;-;-;-;-;-;-;-;-;-;-
1514208661616;-;-;9.487518;-1.7763062;-2.717926;-;-;-;-;-;-;-;-;-;-;-;-;-;-;-
1514208661636;-;-;9.5282135;-0.82341003;-2.6113892;-;-;-;-;-;-;-;-;-;-;-;-;-;-;-
1514208661657;-;-;9.497086;-0.68574524;-2.093048;-;-;-;-;-;-;-;-;-;-;-;-;-;-;-
1514208661677;-;-;9.006287;-1.4602661;-1.5148468;-;-;-;-;-;-;-;-;-;-;-;-;-;-;-
1514208661698;-;-;9.239716;-3.76828;-2.4976654;-;-;-;-;-;-;-;-;-;-;-;-;-;-;-
1514208661718;-;-;10.026215;-3.752716;-2.2043762;-;-;-;-;-;-;-;-;-;-;-;-;-;-;-
1514208661738;-;-;10.093246;-1.9594574;-1.3987274;-;-;-;-;-;-;-;-;-;-;-;-;-;-;-
1514208661758;-;-;10.277603;-0.4559021;-1.5100555;-;-;-;-;-;-;-;-;-;-;-;-;-;-;-
1514208661779;-;-;9.234924;0.793869;-3.8060913;-;-;-;-;-;-;-;-;-;-;-;-;-;-;-
1514208661799;-;-;7.790024;1.6330414;-9.100876;-;-;-;-;-;-;-;-;-;-;-;-;-;-;-
1514208661819;-;-;6.5630035;3.359253;-10.9096985;-;-;-;-;-;-;-;-;-;-;-;-;-;-;-
1514208661840;-;-;8.401749;2.7200012;-3.5104065;-;-;-;-;-;-;-;-;-;-;-;-;-;-;-
1514208661860;-;-;9.595245;-0.16859436;-5.789688;-;-;-;-;-;-;-;-;-;-;-;-;-;-;-
1514208661880;-;-;10.479904;-1.3776703;-6.327194;-;-;-;-;-;-;-;-;-;-;-;-;-;-;-
1514208661901;-;-;11.838623;-1.9714355;-5.4820404;-;-;-;-;-;-;-;-;-;-;-;-;-;-;-
1514208661920;-;-;12.324646;-0.89164734;-4.5901947;-;-;-;-;-;-;-;-;-;-;-;-;-;-;-
1514208661940;-;-;10.38295;1.5240936;-4.065872;-;-;-;-;-;-;-;-;-;-;-;-;-;-;-
1514208661960;-;-;8.849457;2.7511292;-4.0826263;-;-;-;-;-;-;-;-;-;-;-;-;-;-;-
1514208661981;-;-;6.7485504;3.11026;-4.0119934;-;-;-;-;-;-;-;-;-;-;-;-;-;-;-
1514208662002;-;-;5.260544;2.9618225;-3.262619;-;-;-;-;-;-;-;-;-;-;-;-;-;-;-
1514208662022;-;-;5.040283;2.2100372;-2.65448;-;-;-;-;-;-;-;-;-;-;-;-;-;-;-
1514208662042;-;-;5.7884674;1.0739899;-2.266632;-;-;-;-;-;-;-;-;-;-;-;-;-;-;-
1514208662061;-;-;6.664749;-0.10395813;-2.3983002;-;-;-;-;-;-;-;-;-;-;-;-;-;-;-
1514208662081;-;-;8.09169;-0.79348755;-2.1493073;-;-;-;-;-;-;-;-;-;-;-;-;-;-;-
1514208662101;-;-;9.73172;-0.35534668;-2.0750885;-;-;-;-;-;-;-;-;-;-;-;-;-;-;-
1514208662122;-;-;9.43364;0.41079712;-2.1648712;-;-;-;-;-;-;-;-;-;-;-;-;-;-;-
1514208662142;-;-;8.359848;1.0189209;-1.9039001;-;-;-;-;-;-;-;-;-;-;-;-;-;-;-
1514208662162;-;-;6.9352875;1.4438934;-1.8572235;-;-;-;-;-;-;-;-;-;-;-;-;-;-;-
1514208662182;-;-;5.952469;1.9394989;-2.06073;-;-;-;-;-;-;-;-;-;-;-;-;-;-;-
1514208662203;-;-;5.7800903;2.651764;-2.2211304;-;-;-;-;-;-;-;-;-;-;-;-;-;-;-
1514208662224;-;-;6.2505493;3.2479248;-2.065506;-;-;-;-;-;-;-;-;-;-;-;-;-;-;-
1514208662244;-;-;7.530258;2.8911896;-2.3372498;-;-;-;-;-;-;-;-;-;-;-;-;-;-;-
1514208662264;-;-;8.716583;1.9490662;-2.1277618;-;-;-;-;-;-;-;-;-;-;-;-;-;-;-
1514208662285;-;-;10.760025;1.8257751;-1.8991089;-;-;-;-;-;-;-;-;-;-;-;-;-;-;-
1514208662304;-;-;12.864532;3.0121002;-2.5754852;-;-;-;-;-;-;-;-;-;-;-;-;-;-;-
1514208662324;-;-;16.040451;4.647339;-4.3795166;-;-;-;-;-;-;-;-;-;-;-;-;-;-;-
1514208662345;-;-;18.7435;6.3148956;-5.6208954;-;-;-;-;-;-;-;-;-;-;-;-;-;-;-
1514208662365;-;-;17.424286;7.028366;-7.9576416;-;-;-;-;-;-;-;-;-;-;-;-;-;-;-
1514208662385;-;-;13.500198;5.664871;-6.3559265;-;-;-;-;-;-;-;-;-;-;-;-;-;-;-
1514208662406;-;-;8.304779;4.0296326;-5.2174835;-;-;-;-;-;-;-;-;-;-;-;-;-;-;-
1514208662426;-;-;4.4836273;1.6342316;-4.476471;-;-;-;-;-;-;-;-;-;-;-;-;-;-;-
1514208662446;-;-;2.9621124;-1.6398315;-4.936157;-;-;-;-;-;-;-;-;-;-;-;-;-;-;-
1514208662466;-;-;5.2904816;-2.530487;-6.0363007;-;-;-;-;-;-;-;-;-;-;-;-;-;-;-
1514208662487;-;-;8.404144;-1.2411957;-6.5259094;-;-;-;-;-;-;-;-;-;-;-;-;-;-;-
1514208662507;-;-;9.3546295;0.0756073;-7.7792816;-;-;-;-;-;-;-;-;-;-;-;-;-;-;-
1514208662527;-;-;9.303162;0.5245209;-7.271698;-;-;-;-;-;-;-;-;-;-;-;-;-;-;-
1514208662548;-;-;9.203796;0.63105774;-5.44014;-;-;-;-;-;-;-;-;-;-;-;-;-;-;-
1514208662569;-;-;7.901352;0.39283752;-3.7462463;-;-;-;-;-;-;-;-;-;-;-;-;-;-;-
1514208662589;-;-;6.4768066;-0.38168335;-3.6516724;-;-;-;-;-;-;-;-;-;-;-;-;-;-;-
1514208662609;-;-;5.0965424;-0.8126373;-3.3356323;-;-;-;-;-;-;-;-;-;-;-;-;-;-;-
1514208662630;-;-;3.8084717;-1.4866028;-2.7933502;-;-;-;-;-;-;-;-;-;-;-;-;-;-;-
1514208662649;-;-;3.6289063;-2.032486;-2.7514496;-;-;-;-;-;-;-;-;-;-;-;-;-;-;-
1514208662670;-;-;4.359131;-1.9343262;-2.8148956;-;-;-;-;-;-;-;-;-;-;-;-;-;-;-
1514208662690;-;-;5.596939;-1.348938;-2.7478638;-;-;-;-;-;-;-;-;-;-;-;-;-;-;-
1514208662710;-;-;6.86586;-0.5217438;-2.1648712;-;-;-;-;-;-;-;-;-;-;-;-;-;-;-
1514208662730;-;-;7.67511;-0.3876648;-2.6042023;-;-;-;-;-;-;-;-;-;-;-;-;-;-;-
1514208662751;-;-;7.396179;-1.1346588;-3.089035;-;-;-;-;-;-;-;-;-;-;-;-;-;-;-
1514208662771;-;-;8.018677;-2.1617737;-2.831665;-;-;-;-;-;-;-;-;-;-;-;-;-;-;-
1514208662791;-;-;9.5677185;-2.7268066;-2.9896698;-;-;-;-;-;-;-;-;-;-;-;-;-;-;-
1514208662811;-;-;11.174225;-3.1098785;-3.1393127;-;-;-;-;-;-;-;-;-;-;-;-;-;-;-
1514208662832;-;-;11.560898;-3.4055634;-3.85997;-;-;-;-;-;-;-;-;-;-;-;-;-;-;-
1514208662852;-;-;11.521393;-3.6797028;-4.204727;-;-;-;-;-;-;-;-;-;-;-;-;-;-;-
1514208662872;-;-;11.909256;-2.851303;-4.9253845;-;-;-;-;-;-;-;-;-;-;-;-;-;-;-
1514208662892;-;-;11.19458;-1.6709595;-5.0606537;-;-;-;-;-;-;-;-;-;-;-;-;-;-;-
1514208662913;-;-;10.653488;-1.1801453;-8.238968;-;-;-;-;-;-;-;-;-;-;-;-;-;-;-
1514208662933;-;-;10.992264;-0.93473816;-8.7202;-;-;-;-;-;-;-;-;-;-;-;-;-;-;-
1514208662953;-;-;10.809113;-1.3704834;-5.7513885;-;-;-;-;-;-;-;-;-;-;-;-;-;-;-
1514208662973;-;-;8.708206;-2.2156372;-6.298462;-;-;-;-;-;-;-;-;-;-;-;-;-;-;-
1514208662993;-;-;6.1907043;-2.5604095;-8.11087;-;-;-;-;-;-;-;-;-;-;-;-;-;-;-
1514208663014;-;-;5.9692383;-2.182129;-7.5458374;-;-;-;-;-;-;-;-;-;-;-;-;-;-;-
1514208663034;-;-;6.983185;-1.6194916;-5.4557037;-;-;-;-;-;-;-;-;-;-;-;-;-;-;-
1514208663054;-;-;8.341888;-1.7631378;-4.35318;-;-;-;-;-;-;-;-;-;-;-;-;-;-;-
1514208663074;-;-;8.294006;-1.0843811;-3.2973328;-;-;-;-;-;-;-;-;-;-;-;-;-;-;-
1514208663095;-;-;7.703827;0.45388794;-1.9912872;-;-;-;-;-;-;-;-;-;-;-;-;-;-;-
1514208663114;-;-;6.8203735;0.1330719;-3.0938263;-;-;-;-;-;-;-;-;-;-;-;-;-;-;-
1514208663134;-;-;5.731018;-0.6246948;-3.7163086;-;-;-;-;-;-;-;-;-;-;-;-;-;-;-
1514208663154;-;-;4.3363953;-0.77911377;-3.7318726;-;-;-;-;-;-;-;-;-;-;-;-;-;-;-
1514208663175;-;-;3.050705;0.20848083;-3.3009186;-;-;-;-;-;-;-;-;-;-;-;-;-;-;-
1514208663195;-;-;3.569046;1.5396576;-3.0196075;-;-;-;-;-;-;-;-;-;-;-;-;-;-;-
1514208663215;-;-;4.9935913;2.4937592;-3.2255096;-;-;-;-;-;-;-;-;-;-;-;-;-;-;-
1514208663235;-;-;6.624054;2.356079;-3.9808807;-;-;-;-;-;-;-;-;-;-;-;-;-;-;-
1514208663255;-;-;7.6739044;1.7264099;-4.2095184;-;-;-;-;-;-;-;-;-;-;-;-;-;-;-
1514208663275;-;-;8.036621;1.1314545;-3.7941284;-;-;-;-;-;-;-;-;-;-;-;-;-;-;-
1514208663296;-;-;7.77446;1.3469238;-3.2051544;-;-;-;-;-;-;-;-;-;-;-;-;-;-;-
1514208663316;-;-;8.291611;1.8365479;-2.9932709;-;-;-;-;-;-;-;-;-;-;-;-;-;-;-
1514208663336;-;-;9.967545;1.9754028;-2.97052;-;-;-;-;-;-;-;-;-;-;-;-;-;-;-
1514208663356;-;-;10.914459;1.9490662;-3.559494;-;-;-;-;-;-;-;-;-;-;-;-;-;-;-
1514208663377;-;-;11.744049;1.8389435;-3.3954926;-;-;-;-;-;-;-;-;-;-;-;-;-;-;-
1514208663397;-;-;11.566879;2.0340729;-3.8096924;-;-;-;-;-;-;-;-;-;-;-;-;-;-;-
1514208663417;-;-;10.788757;2.145401;-3.8252563;-;-;-;-;-;-;-;-;-;-;-;-;-;-;-
1514208663437;-;-;10.161484;1.8245697;-7.227417;-;-;-;-;-;-;-;-;-;-;-;-;-;-;-
1514208663457;-;-;10.163879;2.8480988;-8.143188;-;-;-;-;-;-;-;-;-;-;-;-;-;-;-
1514208663477;-;-;10.360199;3.6178284;-5.285721;-;-;-;-;-;-;-;-;-;-;-;-;-;-;-
1514208663497;-;-;9.951996;3.4634094;-8.115662;-;-;-;-;-;-;-;-;-;-;-;-;-;-;-
1514208663518;-;-;8.283234;2.8109894;-8.455643;-;-;-;-;-;-;-;-;-;-;-;-;-;-;-
1514208663538;-;-;4.667984;1.8341522;-6.722229;-;-;-;-;-;-;-;-;-;-;-;-;-;-;-
1514208663558;-;-;4.8870544;-1.8050385;-4.1903687;-;-;-;-;-;-;-;-;-;-;-;-;-;-;-
1514208663578;-;-;6.1356354;-3.2236023;-3.017212;-;-;-;-;-;-;-;-;-;-;-;-;-;-;-
1514208663599;-;-;6.833542;-3.107483;-4.0586853;-;-;-;-;-;-;-;-;-;-;-;-;-;-;-
1514208663619;-;-;7.454834;-1.4530945;-3.2422638;-;-;-;-;-;-;-;-;-;-;-;-;-;-;-
1514208663639;-;-;7.5829315;0.14025879;-3.231491;-;-;-;-;-;-;-;-;-;-;-;-;-;-;-
1514208663660;-;-;6.987961;0.9016113;-3.5642853;-;-;-;-;-;-;-;-;-;-;-;-;-;-;-
1514208663680;-;-;6.1559753;0.7112732;-3.3559875;-;-;-;-;-;-;-;-;-;-;-;-;-;-;-
1514208663701;-;-;4.114929;-0.704895;-2.9489746;-;-;-;-;-;-;-;-;-;-;-;-;-;-;-
1514208663721;-;-;3.7306519;-2.4574585;-2.4952698;-;-;-;-;-;-;-;-;-;-;-;-;-;-;-
1514208663741;-;-;4.5147552;-3.3552856;-2.2857819;-;-;-;-;-;-;-;-;-;-;-;-;-;-;-
1514208663761;-;-;6.8443146;-3.0967102;-3.0459442;-;-;-;-;-;-;-;-;-;-;-;-;-;-;-
1514208663782;-;-;7.9228973;-2.095932;-3.559494;-;-;-;-;-;-;-;-;-;-;-;-;-;-;-
1514208663803;-;-;8.414917;-1.6482086;-4.2382507;-;-;-;-;-;-;-;-;-;-;-;-;-;-;-
1514208663824;-;-;8.835098;-1.8349609;-4.6847687;-;-;-;-;-;-;-;-;-;-;-;-;-;-;-
1514208663844;-;-;9.71257;-1.9450989;-4.496826;-;-;-;-;-;-;-;-;-;-;-;-;-;-;-
1514208663864;-;-;10.391327;-1.9702301;-4.3902893;-;-;-;-;-;-;-;-;-;-;-;-;-;-;-
1514208663884;-;-;10.961151;-2.3185883;-4.401062;-;-;-;-;-;-;-;-;-;-;-;-;-;-;-
1514208663905;-;-;12.239655;-2.0707855;-4.536331;-;-;-;-;-;-;-;-;-;-;-;-;-;-;-
1514208663925;-;-;13.503784;-1.451889;-4.9720764;-;-;-;-;-;-;-;-;-;-;-;-;-;-;-
1514208663945;-;-;12.921997;-1.2651367;-7.0586243;-;-;-;-;-;-;-;-;-;-;-;-;-;-;-
1514208663964;-;-;11.202957;-2.1138916;-9.041016;-;-;-;-;-;-;-;-;-;-;-;-;-;-;-
1514208663984;-;-;10.408081;-3.6162567;-7.464432;-;-;-;-;-;-;-;-;-;-;-;-;-;-;-
1514208664004;-;-;11.020996;-4.684067;-2.7562408;-;-;-;-;-;-;-;-;-;-;-;-;-;-;-
1514208664024;-;-;8.850662;-2.70047;-4.7625885;-;-;-;-;-;-;-;-;-;-;-;-;-;-;-
1514208664045;-;-;6.1033173;-1.0688171;-9.058975;-;-;-;-;-;-;-;-;-;-;-;-;-;-;-
1514208664065;-;-;5.5167236;0.90400696;-6.7557526;-;-;-;-;-;-;-;-;-;-;-;-;-;-;-
1514208664085;-;-;6.568985;0.83576965;-4.8152466;-;-;-;-;-;-;-;-;-;-;-;-;-;-;-
1514208664106;-;-;7.35907;-0.5600586;-3.3583832;-;-;-;-;-;-;-;-;-;-;-;-;-;-;-
1514208664126;-;-;6.4456787;-0.704895;-2.3839417;-;-;-;-;-;-;-;-;-;-;-;-;-;-;-
1514208664146;-;-;5.853119;-0.66659546;-2.7035675;-;-;-;-;-;-;-;-;-;-;-;-;-;-;-
1514208664167;-;-;5.473633;-1.1011353;-3.4302063;-;-;-;-;-;-;-;-;-;-;-;-;-;-;-
1514208664187;-;-;4.9540863;-0.73243713;-3.3164825;-;-;-;-;-;-;-;-;-;-;-;-;-;-;-
1514208664208;-;-;3.7964935;0.50057983;-3.223114;-;-;-;-;-;-;-;-;-;-;-;-;-;-;-
1514208664228;-;-;3.0076141;2.4458618;-3.5295715;-;-;-;-;-;-;-;-;-;-;-;-;-;-;-
1514208664248;-;-;3.7569885;2.9474487;-4.2957153;-;-;-;-;-;-;-;-;-;-;-;-;-;-;-
1514208664268;-;-;5.5789795;2.2914429;-4.4381714;-;-;-;-;-;-;-;-;-;-;-;-;-;-;-
1514208664289;-;-;7.9264984;1.3780518;-4.8894806;-;-;-;-;-;-;-;-;-;-;-;-;-;-;-
1514208664308;-;-;9.149933;0.83218384;-5.0834045;-;-;-;-;-;-;-;-;-;-;-;-;-;-;-
1514208664329;-;-;9.031418;1.1541901;-4.800888;-;-;-;-;-;-;-;-;-;-;-;-;-;-;-
1514208664349;-;-;8.711792;2.4937592;-3.567871;-;-;-;-;-;-;-;-;-;-;-;-;-;-;-
1514208664370;-;-;8.854248;3.2239838;-2.7418823;-;-;-;-;-;-;-;-;-;-;-;-;-;-;-
1514208664389;-;-;9.524628;2.7631073;-2.7430725;-;-;-;-;-;-;-;-;-;-;-;-;-;-;-
1514208664409;-;-;10.314713;2.3836212;-3.5954132;-;-;-;-;-;-;-;-;-;-;-;-;-;-;-
1514208664430;-;-;11.155075;2.2591248;-4.3555603;-;-;-;-;-;-;-;-;-;-;-;-;-;-;-
1514208664450;-;-;10.710953;2.3776398;-4.083832;-;-;-;-;-;-;-;-;-;-;-;-;-;-;-
1514208664471;-;-;10.034592;2.2435608;-5.7154694;-;-;-;-;-;-;-;-;-;-;-;-;-;-;-
1514208664491;-;-;10.400894;2.4877625;-8.158752;-;-;-;-;-;-;-;-;-;-;-;-;-;-;-
1514208664512;-;-;11.62793;3.6154327;-5.771744;-;-;-;-;-;-;-;-;-;-;-;-;-;-;-
1514208664533;-;-;11.205353;3.0420227;-7.962433;-;-;-;-;-;-;-;-;-;-;-;-;-;-;-
1514208664553;-;-;8.475967;2.0436401;-9.385788;-;-;-;-;-;-;-;-;-;-;-;-;-;-;-
1514208664573;-;-;5.3814545;0.7340088;-7.6452026;-;-;-;-;-;-;-;-;-;-;-;-;-;-;-
1514208664594;-;-;5.600525;-1.6841278;-4.675186;-;-;-;-;-;-;-;-;-;-;-;-;-;-;-
1514208664614;-;-;6.5785522;-3.0548096;-3.9497528;-;-;-;-;-;-;-;-;-;-;-;-;-;-;-
1514208664634;-;-;7.0609894;-2.4921722;-4.077835;-;-;-;-;-;-;-;-;-;-;-;-;-;-;-
1514208664655;-;-;6.9065704;-1.1681824;-3.5068207;-;-;-;-;-;-;-;-;-;-;-;-;-;-;-
1514208664675;-;-;6.2792816;0.0025787354;-3.0794525;-;-;-;-;-;-;-;-;-;-;-;-;-;-;-
1514208664695;-;-;5.608902;0.79985046;-3.4026794;-;-;-;-;-;-;-;-;-;-;-;-;-;-;-
1514208664716;-;-;4.5518646;0.8561249;-3.4529572;-;-;-;-;-;-;-;-;-;-;-;-;-;-;-
1514208664736;-;-;3.4673004;0.15461731;-2.79216;-;-;-;-;-;-;-;-;-;-;-;-;-;-;-
1514208664756;-;-;2.9369812;-1.3537292;-2.5730896;-;-;-;-;-;-;-;-;-;-;-;-;-;-;-
1514208664776;-;-;3.8551483;-2.9482727;-3.0950165;-;-;-;-;-;-;-;-;-;-;-;-;-;-;-
1514208664797;-;-;5.4401093;-3.4295044;-3.7630005;-;-;-;-;-;-;-;-;-;-;-;-;-;-;-
1514208664817;-;-;7.422516;-2.7447662;-3.8659515;-;-;-;-;-;-;-;-;-;-;-;-;-;-;-
1514208664837;-;-;8.786011;-1.4686584;-3.6085815;-;-;-;-;-;-;-;-;-;-;-;-;-;-;-
1514208664857;-;-;8.651932;-1.3214111;-3.7510376;-;-;-;-;-;-;-;-;-;-;-;-;-;-;-
1514208664877;-;-;9.883759;-2.2958527;-3.836029;-;-;-;-;-;-;-;-;-;-;-;-;-;-;-
1514208664898;-;-;11.443573;-2.3736572;-3.8527832;-;-;-;-;-;-;-;-;-;-;-;-;-;-;-
1514208664919;-;-;12.0816345;-2.6071014;-3.9473572;-;-;-;-;-;-;-;-;-;-;-;-;-;-;-
1514208664940;-;-;13.112335;-2.9051666;-4.3292236;-;-;-;-;-;-;-;-;-;-;-;-;-;-;-
1514208664960;-;-;13.617508;-2.6549835;-4.416626;-;-;-;-;-;-;-;-;-;-;-;-;-;-;-
1514208664980;-;-;12.999802;-1.6278687;-5.6244965;-;-;-;-;-;-;-;-;-;-;-;-;-;-;-
1514208665000;-;-;10.195007;-1.3752747;-8.248535;-;-;-;-;-;-;-;-;-;-;-;-;-;-;-
1514208665021;-;-;9.318726;-1.6697693;-8.271286;-;-;-;-;-;-;-;-;-;-;-;-;-;-;-
1514208665042;-;-;9.348648;-3.179306;-3.9760895;-;-;-;-;-;-;-;-;-;-;-;-;-;-;-
1514208665061;-;-;10.042969;-2.874054;-4.426193;-;-;-;-;-;-;-;-;-;-;-;-;-;-;-
1514208665081;-;-;7.451248;-1.8876343;-7.369873;-;-;-;-;-;-;-;-;-;-;-;-;-;-;-
1514208665102;-;-;5.7405853;-0.7024994;-8.144394;-;-;-;-;-;-;-;-;-;-;-;-;-;-;-
1514208665121;-;-;6.2002716;0.29826355;-6.1153107;-;-;-;-;-;-;-;-;-;-;-;-;-;-;-
1514208665141;-;-;7.169922;-0.33259583;-4.112549;-;-;-;-;-;-;-;-;-;-;-;-;-;-;-
1514208665161;-;-;6.4061737;-0.48223877;-2.6784363;-;-;-;-;-;-;-;-;-;-;-;-;-;-;-
1514208665181;-;-;5.5143433;0.3210144;-2.184021;-;-;-;-;-;-;-;-;-;-;-;-;-;-;-
1514208665201;-;-;5.0845795;0.17497253;-2.9561615;-;-;-;-;-;-;-;-;-;-;-;-;-;-;-
1514208665222;-;-;5.2665405;-0.15184021;-4.156845;-;-;-;-;-;-;-;-;-;-;-;-;-;-;-
1514208665242;-;-;5.031906;0.5640259;-4.322052;-;-;-;-;-;-;-;-;-;-;-;-;-;-;-
1514208665262;-;-;4.9648743;1.8042297;-4.263397;-;-;-;-;-;-;-;-;-;-;-;-;-;-;-
1514208665282;-;-;5.0534515;2.7619019;-4.492035;-;-;-;-;-;-;-;-;-;-;-;-;-;-;-
1514208665303;-;-;5.455673;2.5667725;-4.6991425;-;-;-;-;-;-;-;-;-;-;-;-;-;-;-
1514208665323;-;-;6.987961;1.3948212;-4.8308105;-;-;-;-;-;-;-;-;-;-;-;-;-;-;-
1514208665343;-;-;7.6188354;0.79267883;-4.6596375;-;-;-;-;-;-;-;-;-;-;-;-;-;-;-
1514208665364;-;-;6.888611;1.1637726;-3.9258118;-;-;-;-;-;-;-;-;-;-;-;-;-;-;-
1514208665384;-;-;7.236969;2.1094818;-2.6437073;-;-;-;-;-;-;-;-;-;-;-;-;-;-;-
1514208665404;-;-;7.8570557;2.5667725;-2.5036469;-;-;-;-;-;-;-;-;-;-;-;-;-;-;-
1514208665424;-;-;9.337875;2.37883;-2.8113098;-;-;-;-;-;-;-;-;-;-;-;-;-;-;-
1514208665445;-;-;10.805527;2.1873016;-3.6085815;-;-;-;-;-;-;-;-;-;-;-;-;-;-;-
1514208665465;-;-;12.625122;1.9754028;-4.19635;-;-;-;-;-;-;-;-;-;-;-;-;-;-;-
1514208665485;-;-;13.394852;2.0209045;-4.706314;-;-;-;-;-;-;-;-;-;-;-;-;-;-;-
1514208665506;-;-;12.450333;2.1944733;-5.365921;-;-;-;-;-;-;-;-;-;-;-;-;-;-;-
1514208665526;-;-;10.593628;1.9418945;-7.960037;-;-;-;-;-;-;-;-;-;-;-;-;-;-;-
1514208665546;-;-;9.054169;2.9390717;-5.795685;-;-;-;-;-;-;-;-;-;-;-;-;-;-;-
1514208665567;-;-;9.49469;2.6170502;-4.227478;-;-;-;-;-;-;-;-;-;-;-;-;-;-;-
1514208665587;-;-;8.382584;1.6940918;-6.314026;-;-;-;-;-;-;-;-;-;-;-;-;-;-;-
1514208665607;-;-;5.605316;1.1110992;-8.995529;-;-;-;-;-;-;-;-;-;-;-;-;-;-;-
1514208665628;-;-;4.9672546;0.09715271;-7.705063;-;-;-;-;-;-;-;-;-;-;-;-;-;-;-
1514208665647;-;-;7.2190094;-0.8102417;-5.0450897;-;-;-;-;-;-;-;-;-;-;-;-;-;-;-
1514208665667;-;-;8.180283;-1.4758301;-3.8408203;-;-;-;-;-;-;-;-;-;-;-;-;-;-;-
1514208665688;-;-;8.498703;-1.6745453;-3.9317932;-;-;-;-;-;-;-;-;-;-;-;-;-;-;-
1514208665708;-;-;7.67749;-1.0807953;-3.473297;-;-;-;-;-;-;-;-;-;-;-;-;-;-;-
1514208665728;-;-;6.999939;-0.5241394;-3.433792;-;-;-;-;-;-;-;-;-;-;-;-;-;-;-
1514208665748;-;-;4.9540863;-0.3589325;-3.689972;-;-;-;-;-;-;-;-;-;-;-;-;-;-;-
1514208665769;-;-;2.8843079;-0.6905365;-3.6241455;-;-;-;-;-;-;-;-;-;-;-;-;-;-;-
1514208665788;-;-;1.5028534;-1.3872528;-2.9729156;-;-;-;-;-;-;-;-;-;-;-;-;-;-;-
1514208665808;-;-;1.6105957;-2.1797333;-2.3827515;-;-;-;-;-;-;-;-;-;-;-;-;-;-;-
1514208665828;-;-;4.33519;-2.6358185;-2.7562408;-;-;-;-;-;-;-;-;-;-;-;-;-;-;-
1514208665849;-;-;6.477997;-2.2132416;-3.5367432;-;-;-;-;-;-;-;-;-;-;-;-;-;-;-
1514208665869;-;-;8.826721;-1.8505249;-3.2817688;-;-;-;-;-;-;-;-;-;-;-;-;-;-;-
1514208665889;-;-;9.543777;-1.9343262;-4.306488;-;-;-;-;-;-;-;-;-;-;-;-;-;-;-
1514208665910;-;-;9.244507;-2.1641693;-5.0043945;-;-;-;-;-;-;-;-;-;-;-;-;-;-;-
1514208665930;-;-;10.931213;-2.2371826;-4.84758;-;-;-;-;-;-;-;-;-;-;-;-;-;-;-
1514208665950;-;-;12.306686;-1.7559509;-4.7242737;-;-;-;-;-;-;-;-;-;-;-;-;-;-;-
1514208665970;-;-;11.722504;-3.2439575;-4.3639526;-;-;-;-;-;-;-;-;-;-;-;-;-;-;-
1514208665991;-;-;12.531738;-3.443863;-4.673996;-;-;-;-;-;-;-;-;-;-;-;-;-;-;-
1514208666011;-;-;12.936356;-2.0504456;-4.246628;-;-;-;-;-;-;-;-;-;-;-;-;-;-;-
1514208666031;-;-;11.145493;0.13067627;-5.3766937;-;-;-;-;-;-;-;-;-;-;-;-;-;-;-
1514208666052;-;-;8.630386;-0.4056244;-8.186295;-;-;-;-;-;-;-;-;-;-;-;-;-;-;-
1514208666072;-;-;8.522644;-3.1517792;-7.017914;-;-;-;-;-;-;-;-;-;-;-;-;-;-;-
1514208666092;-;-;10.045364;-5.334091;-2.0319977;-;-;-;-;-;-;-;-;-;-;-;-;-;-;-
1514208666113;-;-;10.399704;-3.7515259;-4.902649;-;-;-;-;-;-;-;-;-;-;-;-;-;-;-
1514208666133;-;-;7.332733;-2.7543335;-10.467957;-;-;-;-;-;-;-;-;-;-;-;-;-;-;-
1514208666154;-;-;7.866638;-0.15423584;-8.493942;-;-;-;-;-;-;-;-;-;-;-;-;-;-;-
1514208666175;-;-;8.84108;1.4881897;-7.1819153;-;-;-;-;-;-;-;-;-;-;-;-;-;-;-
1514208666195;-;-;9.9436035;1.3576965;-5.9931946;-;-;-;-;-;-;-;-;-;-;-;-;-;-;-
1514208666216;-;-;8.560959;1.9801941;-4.754196;-;-;-;-;-;-;-;-;-;-;-;-;-;-;-
1514208666236;-;-;5.662781;1.6629639;-3.7270966;-;-;-;-;-;-;-;-;-;-;-;-;-;-;-
1514208666256;-;-;4.308853;0.046875;-3.9054565;-;-;-;-;-;-;-;-;-;-;-;-;-;-;-
1514208666277;-;-;3.4720764;-0.9934082;-4.2729645;-;-;-;-;-;-;-;-;-;-;-;-;-;-;-
1514208666297;-;-;2.7801514;-0.8772888;-3.7785645;-;-;-;-;-;-;-;-;-;-;-;-;-;-;-
1514208666317;-;-;2.786148;0.18814087;-2.8807373;-;-;-;-;-;-;-;-;-;-;-;-;-;-;-
1514208666337;-;-;3.5917969;1.4762115;-2.7382813;-;-;-;-;-;-;-;-;-;-;-;-;-;-;-
1514208666357;-;-;5.113312;1.5648041;-3.0387573;-;-;-;-;-;-;-;-;-;-;-;-;-;-;-
1514208666378;-;-;6.9424744;1.0632172;-3.7869415;-;-;-;-;-;-;-;-;-;-;-;-;-;-;-
1514208666398;-;-;7.2597046;0.6095123;-4.796097;-;-;-;-;-;-;-;-;-;-;-;-;-;-;-
1514208666418;-;-;6.3223724;0.6107178;-4.342392;-;-;-;-;-;-;-;-;-;-;-;-;-;-;-
1514208666439;-;-;6.0374756;1.027298;-3.4026794;-;-;-;-;-;-;-;-;-;-;-;-;-;-;-
1514208666458;-;-;6.501938;1.4259338;-2.4354248;-;-;-;-;-;-;-;-;-;-;-;-;-;-;-
1514208666478;-;-;7.5841217;1.1960907;-2.388733;-;-;-;-;-;-;-;-;-;-;-;-;-;-;-
1514208666498;-;-;8.780029;1.0644073;-2.5886536;-;-;-;-;-;-;-;-;-;-;-;-;-;-;-
1514208666519;-;-;10.016632;1.4714355;-3.0758667;-;-;-;-;-;-;-;-;-;-;-;-;-;-;-
1514208666539;-;-;11.691376;2.323761;-3.8659515;-;-;-;-;-;-;-;-;-;-;-;-;-;-;-
1514208666559;-;-;13.102753;2.7798615;-4.3124695;-;-;-;-;-;-;-;-;-;-;-;-;-;-;-
1514208666579;-;-;12.611954;2.5105133;-4.231064;-;-;-;-;-;-;-;-;-;-;-;-;-;-;-
1514208666599;-;-;11.250839;1.1314545;-8.076157;-;-;-;-;-;-;-;-;-;-;-;-;-;-;-
1514208666620;-;-;10.332672;3.0659637;-5.8974304;-;-;-;-;-;-;-;-;-;-;-;-;-;-;-
1514208666640;-;-;9.487518;4.8269043;-4.263397;-;-;-;-;-;-;-;-;-;-;-;-;-;-;-
1514208666660;-;-;9.63356;5.1393433;-6.3200073;-;-;-;-;-;-;-;-;-;-;-;-;-;-;-
1514208666681;-;-;6.5079346;4.8245087;-9.528244;-;-;-;-;-;-;-;-;-;-;-;-;-;-;-
1514208666701;-;-;4.5746155;2.2016602;-8.608871;-;-;-;-;-;-;-;-;-;-;-;-;-;-;-
1514208666721;-;-;7.5865173;-0.92396545;-6.3954315;-;-;-;-;-;-;-;-;-;-;-;-;-;-;-
1514208666742;-;-;8.911713;-1.4902039;-4.5183716;-;-;-;-;-;-;-;-;-;-;-;-;-;-;-
1514208666762;-;-;9.919662;-1.5991364;-3.4349976;-;-;-;-;-;-;-;-;-;-;-;-;-;-;-
1514208666782;-;-;8.923676;-0.21170044;-4.0191803;-;-;-;-;-;-;-;-;-;-;-;-;-;-;-
1514208666802;-;-;7.995926;0.9494934;-3.8013153;-;-;-;-;-;-;-;-;-;-;-;-;-;-;-
1514208666823;-;-;6.5522156;1.4175568;-3.6265259;-;-;-;-;-;-;-;-;-;-;-;-;-;-;-
1514208666843;-;-;4.8008575;0.76034546;-3.519989;-;-;-;-;-;-;-;-;-;-;-;-;-;-;-
1514208666863;-;-;3.2697754;-0.48942566;-3.0818481;-;-;-;-;-;-;-;-;-;-;-;-;-;-;-
1514208666884;-;-;2.8735352;-1.6781464;-2.5359802;-;-;-;-;-;-;-;-;-;-;-;-;-;-;-
1514208666905;-;-;5.398224;-2.8572845;-2.9046783;-;-;-;-;-;-;-;-;-;-;-;-;-;-;-
1514208666925;-;-;7.552994;-2.277893;-4.0514984;-;-;-;-;-;-;-;-;-;-;-;-;-;-;-
1514208666945;-;-;7.2621;-1.6577911;-3.8001099;-;-;-;-;-;-;-;-;-;-;-;-;-;-;-
1514208666965;-;-;6.1272583;-1.4542847;-3.473297;-;-;-;-;-;-;-;-;-;-;-;-;-;-;-
1514208666986;-;-;5.537079;-1.3214111;-3.1476898;-;-;-;-;-;-;-;-;-;-;-;-;-;-;-
1514208667006;-;-;6.1559753;-1.2088776;-2.625763;-;-;-;-;-;-;-;-;-;-;-;-;-;-;-
1514208667026;-;-;6.996353;-1.3238068;-2.076294;-;-;-;-;-;-;-;-;-;-;-;-;-;-;-
1514208667047;-;-;7.394989;-1.3824615;-1.8619995;-;-;-;-;-;-;-;-;-;-;-;-;-;-;-
1514208667067;-;-;7.509903;-1.175354;-2.120575;-;-;-;-;-;-;-;-;-;-;-;-;-;-;-
1514208667087;-;-;8.291611;-1.1011353;-2.349228;-;-;-;-;-;-;-;-;-;-;-;-;-;-;-
1514208667108;-;-;8.833893;-0.80426025;-1.9733429;-;-;-;-;-;-;-;-;-;-;-;-;-;-;-
1514208667128;-;-;9.74968;-0.42956543;-2.0080566;-;-;-;-;-;-;-;-;-;-;-;-;-;-;-
1514208667148;-;-;9.92804;0.08518982;-2.697586;-;-;-;-;-;-;-;-;-;-;-;-;-;-;-
1514208667168;-;-;9.896927;-0.13148499;-2.7167358;-;-;-;-;-;-;-;-;-;-;-;-;-;-;-
1514208667189;-;-;9.596451;-0.43196106;-2.4006958;-;-;-;-;-;-;-;-;-;-;-;-;-;-;-
1514208667209;-;-;9.289993;-0.31225586;-2.4114685;-;-;-;-;-;-;-;-;-;-;-;-;-;-;-
1514208667229;-;-;8.121628;-0.40083313;-2.2414856;-;-;-;-;-;-;-;-;-;-;-;-;-;-;-
1514208667249;-;-;7.458435;-0.60554504;-1.0623474;-;-;-;-;-;-;-;-;-;-;-;-;-;-;-
1514208667270;-;-;8.339493;-0.3972473;-3.456543;-;-;-;-;-;-;-;-;-;-;-;-;-;-;-
1514208667290;-;-;9.063736;-0.51934814;-13.2895355;-;-;-;-;-;-;-;-;-;-;-;-;-;-;-
1514208667310;-;-;11.899673;-0.24641418;-7.907364;-;-;-;-;-;-;-;-;-;-;-;-;-;-;-
1514208667331;-;-;10.342239;1.1529999;-3.8300323;-;-;-;-;-;-;-;-;-;-;-;-;-;-;-
1514208667351;-;-;8.539413;3.063568;-5.630478;-;-;-;-;-;-;-;-;-;-;-;-;-;-;-
1514208667371;-;-;9.263657;2.292633;-6.6049194;-;-;-;-;-;-;-;-;-;-;-;-;-;-;-
1514208667392;-;-;11.533356;-0.47146606;-5.7310333;-;-;-;-;-;-;-;-;-;-;-;-;-;-;-
1514208667412;-;-;13.950302;-1.151413;-5.191147;-;-;-;-;-;-;-;-;-;-;-;-;-;-;-
1514208667432;-;-;10.505051;0.8776703;-4.967285;-;-;-;-;-;-;-;-;-;-;-;-;-;-;-
1514208667453;-;-;7.3267517;2.1011047;-4.2406464;-;-;-;-;-;-;-;-;-;-;-;-;-;-;-
1514208667472;-;-;5.2940674;2.275879;-3.136917;-;-;-;-;-;-;-;-;-;-;-;-;-;-;-
1514208667492;-;-;4.351944;1.5348816;-2.4461975;-;-;-;-;-;-;-;-;-;-;-;-;-;-;-
1514208667512;-;-;4.597351;0.6538086;-2.0978394;-;-;-;-;-;-;-;-;-;-;-;-;-;-;-
1514208667532;-;-;4.9732513;0.20010376;-2.4150696;-;-;-;-;-;-;-;-;-;-;-;-;-;-;-
1514208667552;-;-;4.999588;-0.32661438;-2.3085175;-;-;-;-;-;-;-;-;-;-;-;-;-;-;-
1514208667574;-;-;5.4592743;-0.625885;-1.9865112;-;-;-;-;-;-;-;-;-;-;-;-;-;-;-
1514208667594;-;-;7.2154236;-0.50019836;-2.3145142;-;-;-;-;-;-;-;-;-;-;-;-;-;-;-
1514208667614;-;-;9.006287;-0.05607605;-2.2199402;-;-;-;-;-;-;-;-;-;-;-;-;-;-;-
1514208667635;-;-;9.160706;0.8992157;-1.5136566;-;-;-;-;-;-;-;-;-;-;-;-;-;-;-
1514208667655;-;-;9.051773;1.9203491;-1.8512268;-;-;-;-;-;-;-;-;-;-;-;-;-;-;-
1514208667675;-;-;8.929672;2.7247925;-1.8991089;-;-;-;-;-;-;-;-;-;-;-;-;-;-;-
1514208667696;-;-;9.479141;2.3094025;-1.6249847;-;-;-;-;-;-;-;-;-;-;-;-;-;-;-
1514208667716;-;-;11.447174;0.6945038;-1.8548279;-;-;-;-;-;-;-;-;-;-;-;-;-;-;-
1514208667736;-;-;12.140289;-0.2799225;-1.9517822;-;-;-;-;-;-;-;-;-;-;-;-;-;-;-
1514208667756;-;-;9.96875;0.6095123;-1.219162;-;-;-;-;-;-;-;-;-;-;-;-;-;-;-
1514208667777;-;-;7.8726196;2.0544128;-3.4146423;-;-;-;-;-;-;-;-;-;-;-;-;-;-;-
1514208667797;-;-;7.6415863;4.2139893;-9.511475;-;-;-;-;-;-;-;-;-;-;-;-;-;-;-
1514208667817;-;-;7.442871;6.016815;-10.770828;-;-;-;-;-;-;-;-;-;-;-;-;-;-;-
1514208667838;-;-;9.330688;4.1349792;-6.8910217;-;-;-;-;-;-;-;-;-;-;-;-;-;-;-
1514208667857;-;-;10.169861;0.69091797;-6.0315094;-;-;-;-;-;-;-;-;-;-;-;-;-;-;-
1514208667877;-;-;9.200211;-2.4742126;-9.418106;-;-;-;-;-;-;-;-;-;-;-;-;-;-;-
1514208667897;-;-;7.6822815;-2.4143677;-9.492325;-;-;-;-;-;-;-;-;-;-;-;-;-;-;-
1514208667917;-;-;8.323929;0.6382446;-5.1971283;-;-;-;-;-;-;-;-;-;-;-;-;-;-;-
1514208667938;-;-;9.568924;1.9251251;-3.847992;-;-;-;-;-;-;-;-;-;-;-;-;-;-;-
1514208667958;-;-;10.405685;0.62028503;-5.622101;-;-;-;-;-;-;-;-;-;-;-;-;-;-;-
1514208667978;-;-;7.53743;0.49220276;-5.5335083;-;-;-;-;-;-;-;-;-;-;-;-;-;-;-
1514208667999;-;-;5.493988;-0.04170227;-5.112137;-;-;-;-;-;-;-;-;-;-;-;-;-;-;-
1514208668019;-;-;3.8491669;-1.4087982;-4.2813416;-;-;-;-;-;-;-;-;-;-;-;-;-;-;-
1514208668039;-;-;3.3822937;-2.5843506;-3.7701874;-;-;-;-;-;-;-;-;-;-;-;-;-;-;-
1514208668059;-;-;4.23822;-3.2451477;-3.6923676;-;-;-;-;-;-;-;-;-;-;-;-;-;-;-
1514208668079;-;-;7.3303375;-3.4701996;-3.7594147;-;-;-;-;-;-;-;-;-;-;-;-;-;-;-
1514208668100;-;-;9.744888;-2.8165894;-3.5164032;-;-;-;-;-;-;-;-;-;-;-;-;-;-;-
1514208668120;-;-;10.214157;-2.3473206;-3.057907;-;-;-;-;-;-;-;-;-;-;-;-;-;-;-
1514208668140;-;-;9.224152;-1.9235535;-2.8328552;-;-;-;-;-;-;-;-;-;-;-;-;-;-;-
1514208668160;-;-;8.419693;-1.4698486;-2.8843231;-;-;-;-;-;-;-;-;-;-;-;-;-;-;-
1514208668180;-;-;9.072113;-1.2459869;-3.018402;-;-;-;-;-;-;-;-;-;-;-;-;-;-;-
1514208668201;-;-;9.001495;-1.309433;-3.2638092;-;-;-;-;-;-;-;-;-;-;-;-;-;-;-
1514208668222;-;-;8.814743;-1.9893951;-3.7797546;-;-;-;-;-;-;-;-;-;-;-;-;-;-;-
1514208668242;-;-;8.398148;-2.2958527;-3.7354736;-;-;-;-;-;-;-;-;-;-;-;-;-;-;-
1514208668262;-;-;8.158737;-2.3904114;-3.350006;-;-;-;-;-;-;-;-;-;-;-;-;-;-;-
1514208668282;-;-;7.4991302;-1.740387;-3.6971588;-;-;-;-;-;-;-;-;-;-;-;-;-;-;-
1514208668302;-;-;7.344696;-0.030929565;-6.6360474;-;-;-;-;-;-;-;-;-;-;-;-;-;-;-
1514208668323;-;-;6.536667;2.7200012;-8.95961;-;-;-;-;-;-;-;-;-;-;-;-;-;-;-
1514208668343;-;-;7.1567535;2.967804;-6.761734;-;-;-;-;-;-;-;-;-;-;-;-;-;-;-
1514208668363;-;-;10.742081;-0.3146515;-4.160446;-;-;-;-;-;-;-;-;-;-;-;-;-;-;-
1514208668384;-;-;13.929962;-1.6338501;-4.713501;-;-;-;-;-;-;-;-;-;-;-;-;-;-;-
1514208668404;-;-;15.579559;-1.9702301;-6.294876;-;-;-;-;-;-;-;-;-;-;-;-;-;-;-
1514208668424;-;-;14.388443;-1.7320099;-4.6213226;-;-;-;-;-;-;-;-;-;-;-;-;-;-;-
1514208668444;-;-;11.544128;-0.3972473;-4.3447876;-;-;-;-;-;-;-;-;-;-;-;-;-;-;-
1514208668465;-;-;8.2317505;1.161377;-4.4956207;-;-;-;-;-;-;-;-;-;-;-;-;-;-;-
1514208668485;-;-;3.687561;2.6852875;-4.2538147;-;-;-;-;-;-;-;-;-;-;-;-;-;-;-
1514208668505;-;-;2.3025208;2.9271088;-3.219513;-;-;-;-;-;-;-;-;-;-;-;-;-;-;-
1514208668525;-;-;3.335617;3.2934113;-2.7598267;-;-;-;-;-;-;-;-;-;-;-;-;-;-;-
1514208668546;-;-;5.6268616;3.2539063;-2.2774048;-;-;-;-;-;-;-;-;-;-;-;-;-;-;-
1514208668566;-;-;8.274857;1.8664703;-2.4857025;-;-;-;-;-;-;-;-;-;-;-;-;-;-;-
1514208668586;-;-;10.234512;0.43354797;-3.2889557;-;-;-;-;-;-;-;-;-;-;-;-;-;-;-
1514208668607;-;-;10.004654;-0.27394104;-3.302124;-;-;-;-;-;-;-;-;-;-;-;-;-;-;-
1514208668627;-;-;8.483139;0.44311523;-1.8284912;-;-;-;-;-;-;-;-;-;-;-;-;-;-;-
1514208668647;-;-;6.9508514;2.2471466;-1.0671387;-;-;-;-;-;-;-;-;-;-;-;-;-;-;-
1514208668668;-;-;7.090912;3.331726;-1.8751678;-;-;-;-;-;-;-;-;-;-;-;-;-;-;-
1514208668688;-;-;8.205414;4.2032166;-3.3308563;-;-;-;-;-;-;-;-;-;-;-;-;-;-;-
1514208668709;-;-;10.320694;4.269058;-3.915039;-;-;-;-;-;-;-;-;-;-;-;-;-;-;-
1514208668729;-;-;12.507797;3.6058655;-3.6205444;-;-;-;-;-;-;-;-;-;-;-;-;-;-;-
1514208668749;-;-;13.356537;2.8325348;-3.4218292;-;-;-;-;-;-;-;-;-;-;-;-;-;-;-
1514208668770;-;-;13.380493;1.6821136;-7.927719;-;-;-;-;-;-;-;-;-;-;-;-;-;-;-
1514208668790;-;-;12.571243;2.940277;-7.547043;-;-;-;-;-;-;-;-;-;-;-;-;-;-;-
1514208668810;-;-;7.882202;3.6609192;-4.8260345;-;-;-;-;-;-;-;-;-;-;-;-;-;-;-
1514208668830;-;-;6.37265;3.1473694;-6.3810577;-;-;-;-;-;-;-;-;-;-;-;-;-;-;-
1514208668851;-;-;4.402237;2.569168;-8.260513;-;-;-;-;-;-;-;-;-;-;-;-;-;-;-
1514208668871;-;-;4.4944;-0.36611938;-8.179108;-;-;-;-;-;-;-;-;-;-;-;-;-;-;-
1514208668891;-;-;6.7976227;-1.7547607;-7.232193;-;-;-;-;-;-;-;-;-;-;-;-;-;-;-
1514208668911;-;-;7.956421;-1.067627;-5.7705383;-;-;-;-;-;-;-;-;-;-;-;-;-;-;-
1514208668932;-;-;8.847061;-0.069244385;-5.26416;-;-;-;-;-;-;-;-;-;-;-;-;-;-;-
1514208668952;-;-;8.973953;0.48382568;-4.3112793;-;-;-;-;-;-;-;-;-;-;-;-;-;-;-
1514208668972;-;-;7.9600067;0.27671814;-4.0431213;-;-;-;-;-;-;-;-;-;-;-;-;-;-;-
1514208668993;-;-;6.280487;0.16539001;-3.6241455;-;-;-;-;-;-;-;-;-;-;-;-;-;-;-
1514208669012;-;-;4.5231323;-0.43554688;-3.262619;-;-;-;-;-;-;-;-;-;-;-;-;-;-;-
1514208669032;-;-;3.213501;-1.324997;-2.9118652;-;-;-;-;-;-;-;-;-;-;-;-;-;-;-
1514208669052;-;-;3.2985077;-2.2551422;-2.215149;-;-;-;-;-;-;-;-;-;-;-;-;-;-;-
1514208669073;-;-;4.8942413;-2.6621552;-2.2342987;-;-;-;-;-;-;-;-;-;-;-;-;-;-;-
1514208669093;-;-;6.4995575;-2.0863495;-2.5994263;-;-;-;-;-;-;-;-;-;-;-;-;-;-;-
1514208669113;-;-;8.319138;-1.3166199;-2.9896698;-;-;-;-;-;-;-;-;-;-;-;-;-;-;-
1514208669134;-;-;9.207397;-0.63067627;-3.3356323;-;-;-;-;-;-;-;-;-;-;-;-;-;-;-
1514208669154;-;-;8.284424;-1.4375305;-4.709915;-;-;-;-;-;-;-;-;-;-;-;-;-;-;-
1514208669174;-;-;8.048599;-2.2120514;-4.456131;-;-;-;-;-;-;-;-;-;-;-;-;-;-;-
1514208669195;-;-;8.768051;-2.377243;-3.4816895;-;-;-;-;-;-;-;-;-;-;-;-;-;-;-
1514208669216;-;-;9.689819;-2.5843506;-2.9441833;-;-;-;-;-;-;-;-;-;-;-;-;-;-;-
1514208669236;-;-;10.185425;-2.9410858;-3.1081848;-;-;-;-;-;-;-;-;-;-;-;-;-;-;-
1514208669256;-;-;10.106415;-3.3816223;-3.8001099;-;-;-;-;-;-;-;-;-;-;-;-;-;-;-
1514208669277;-;-;10.399704;-3.4929504;-4.6716003;-;-;-;-;-;-;-;-;-;-;-;-;-;-;-
1514208669297;-;-;11.321472;-2.159378;-5.2126923;-;-;-;-;-;-;-;-;-;-;-;-;-;-;-
1514208669317;-;-;11.0772705;-1.3944244;-6.584564;-;-;-;-;-;-;-;-;-;-;-;-;-;-;-
1514208669338;-;-;10.689407;-1.8840485;-10.18306;-;-;-;-;-;-;-;-;-;-;-;-;-;-;-
