TimeStamp[ms];Prox[Cm];Lux[lux];AccX[m/s^2];AccY[m/s^2];AccZ[m/s^2];GyroX[rad/s];GyroY[rad/s];GyroZ[rad/s];MagnX[uT];MagnY[uT];MagnZ[uT];OrienYaw[degrees];OrienPitch[degrees];OrienRoll[degrees];Press[Pa];Temp[C°];Batt[%];Lat;Lng;Speed[m/s]
1514208699821;-;-;8.993118;-1.3046417;3.5273438;-;-;-;-;-;-;-;-;-;-;-;-;-;-;-
1514208699822;-;-;8.993118;-1.3046417;3.5273438;-;-;-;-;-;-;-;-;-;-;-;-;-;-;-
1514208699833;-;-;7.787628;-1.3824615;4.082794;-;-;-;-;-;-;-;-;-;-;-;-;-;-;-
1514208699853;-;-;7.739746;-1.3980255;3.8194275;-;-;-;-;-;-;-;-;-;-;-;-;-;-;-
1514208699874;-;-;8.307175;-1.2771149;3.837387;-;-;-;-;-;-;-;-;-;-;-;-;-;-;-
1514208699894;-;-;8.50589;-1.1957092;3.797882;-;-;-;-;-;-;-;-;-;-;-;-;-;-;-
1514208699914;-;-;8.560959;-1.2926788;3.607544;-;-;-;-;-;-;-;-;-;-;-;-;-;-;-
1514208699934;-;-;8.472366;-1.3896484;3.655426;-;-;-;-;-;-;-;-;-;-;-;-;-;-;-
1514208699955;-;-;8.710602;-1.4734344;3.6183167;-;-;-;-;-;-;-;-;-;-;-;-;-;-;-
1514208699976;-;-;8.942825;-1.4925995;3.4519196;-;-;-;-;-;-;-;-;-;-;-;-;-;-;-
1514208699996;-;-;9.07811;-1.696106;3.2376404;-;-;-;-;-;-;-;-;-;-;-;-;-;-;-
1514208700016;-;-;8.632782;-1.4985809;2.9323883;-;-;-;-;-;-;-;-;-;-;-;-;-;-;-
1514208700037;-;-;8.46759;-1.091568;2.429596;-;-;-;-;-;-;-;-;-;-;-;-;-;-;-
1514208700069;-;-;7.944458;-0.99220276;1.1594696;-;-;-;-;-;-;-;-;-;-;-;-;-;-;-
1514208700077;-;-;7.6583405;-0.7480011;0.5549469;-;-;-;-;-;-;-;-;-;-;-;-;-;-;-
1514208700098;-;-;7.5673676;0.12109375;0.9104767;-;-;-;-;-;-;-;-;-;-;-;-;-;-;-
1514208700118;-;-;9.4096985;-0.24880981;2.3553772;-;-;-;-;-;-;-;-;-;-;-;-;-;-;-
1514208700138;-;-;11.983475;-0.9682617;0.21017456;-;-;-;-;-;-;-;-;-;-;-;-;-;-;-
1514208700159;-;-;9.764038;-1.6470184;-4.03714;-;-;-;-;-;-;-;-;-;-;-;-;-;-;-
1514208700179;-;-;10.466736;-1.1957092;-2.0595245;-;-;-;-;-;-;-;-;-;-;-;-;-;-;-
1514208700199;-;-;9.485123;-1.1897278;-1.9254456;-;-;-;-;-;-;-;-;-;-;-;-;-;-;-
1514208700220;-;-;9.602432;-0.973053;-1.1174164;-;-;-;-;-;-;-;-;-;-;-;-;-;-;-
1514208700240;-;-;8.1371765;-1.0724182;-1.0108643;-;-;-;-;-;-;-;-;-;-;-;-;-;-;-
1514208700260;-;-;9.574905;-1.2028961;-1.2790222;-;-;-;-;-;-;-;-;-;-;-;-;-;-;-
1514208700281;-;-;8.918884;-1.1394501;-0.80496216;-;-;-;-;-;-;-;-;-;-;-;-;-;-;-
1514208700301;-;-;8.589691;-0.81144714;-1.3675995;-;-;-;-;-;-;-;-;-;-;-;-;-;-;-
1514208700321;-;-;8.790802;-0.6246948;-1.2526855;-;-;-;-;-;-;-;-;-;-;-;-;-;-;-
1514208700341;-;-;9.330688;-0.2571869;-1.195221;-;-;-;-;-;-;-;-;-;-;-;-;-;-;-
1514208700361;-;-;9.183456;-0.38287354;-1.4226685;-;-;-;-;-;-;-;-;-;-;-;-;-;-;-
1514208700382;-;-;9.504272;-0.14346313;-1.2012024;-;-;-;-;-;-;-;-;-;-;-;-;-;-;-
1514208700403;-;-;8.884171;0.03730774;-0.7080078;-;-;-;-;-;-;-;-;-;-;-;-;-;-;-
1514208700423;-;-;9.578491;-0.11114502;-1.4897003;-;-;-;-;-;-;-;-;-;-;-;-;-;-;-
1514208700444;-;-;9.391739;-0.057266235;-2.4150696;-;-;-;-;-;-;-;-;-;-;-;-;-;-;-
1514208700464;-;-;10.354218;-0.65701294;-0.8540497;-;-;-;-;-;-;-;-;-;-;-;-;-;-;-
1514208700484;-;-;10.215347;-0.22486877;-1.1904297;-;-;-;-;-;-;-;-;-;-;-;-;-;-;-
1514208700505;-;-;9.682648;0.41319275;-1.3999176;-;-;-;-;-;-;-;-;-;-;-;-;-;-;-
1514208700525;-;-;8.624405;1.2332001;-2.4581604;-;-;-;-;-;-;-;-;-;-;-;-;-;-;-
1514208700545;-;-;8.702209;1.4630432;-1.9865112;-;-;-;-;-;-;-;-;-;-;-;-;-;-;-
1514208700565;-;-;8.564545;1.1494141;-2.2618408;-;-;-;-;-;-;-;-;-;-;-;-;-;-;-
1514208700585;-;-;9.369003;1.9047852;-2.13974;-;-;-;-;-;-;-;-;-;-;-;-;-;-;-
1514208700605;-;-;8.357452;0.04208374;-3.3164825;-;-;-;-;-;-;-;-;-;-;-;-;-;-;-
1514208700625;-;-;9.017059;0.99497986;-2.6329346;-;-;-;-;-;-;-;-;-;-;-;-;-;-;-
1514208700645;-;-;8.807556;1.0799713;-0.7774353;-;-;-;-;-;-;-;-;-;-;-;-;-;-;-
1514208700665;-;-;7.9863434;1.6893005;-3.4302063;-;-;-;-;-;-;-;-;-;-;-;-;-;-;-
1514208700686;-;-;7.9935303;1.9790039;-2.4857025;-;-;-;-;-;-;-;-;-;-;-;-;-;-;-
1514208700706;-;-;8.6423645;2.0472412;-2.5180206;-;-;-;-;-;-;-;-;-;-;-;-;-;-;-
1514208700726;-;-;7.869034;2.3105927;-2.8747559;-;-;-;-;-;-;-;-;-;-;-;-;-;-;-
1514208700747;-;-;7.6619415;2.145401;-2.1900177;-;-;-;-;-;-;-;-;-;-;-;-;-;-;-
1514208700767;-;-;7.581726;1.3385468;-3.6373138;-;-;-;-;-;-;-;-;-;-;-;-;-;-;-
1514208700788;-;-;7.633209;1.4594574;-3.317688;-;-;-;-;-;-;-;-;-;-;-;-;-;-;-
1514208700808;-;-;9.093674;0.8213959;-2.1433258;-;-;-;-;-;-;-;-;-;-;-;-;-;-;-
1514208700828;-;-;9.31633;-1.0448761;-2.4258423;-;-;-;-;-;-;-;-;-;-;-;-;-;-;-
1514208700848;-;-;8.173096;-1.9810028;-1.5196381;-;-;-;-;-;-;-;-;-;-;-;-;-;-;-
1514208700868;-;-;10.08606;-1.5763855;-1.6644897;-;-;-;-;-;-;-;-;-;-;-;-;-;-;-
1514208700889;-;-;8.532227;0.30784607;-0.29859924;-;-;-;-;-;-;-;-;-;-;-;-;-;-;-
1514208700909;-;-;9.225342;-2.0384674;-0.79418945;-;-;-;-;-;-;-;-;-;-;-;-;-;-;-
1514208700929;-;-;8.414917;-0.47625732;-0.61343384;-;-;-;-;-;-;-;-;-;-;-;-;-;-;-
1514208700949;-;-;8.438858;-0.6031494;-0.8097534;-;-;-;-;-;-;-;-;-;-;-;-;-;-;-
1514208700970;-;-;8.361038;-0.32661438;-2.1433258;-;-;-;-;-;-;-;-;-;-;-;-;-;-;-
1514208700990;-;-;8.991913;-0.5756073;-3.4218292;-;-;-;-;-;-;-;-;-;-;-;-;-;-;-
1514208701010;-;-;10.297958;0.13665771;-3.017212;-;-;-;-;-;-;-;-;-;-;-;-;-;-;-
1514208701031;-;-;10.950378;0.4072113;-3.0674896;-;-;-;-;-;-;-;-;-;-;-;-;-;-;-
1514208701051;-;-;10.4487915;0.19770813;-3.488861;-;-;-;-;-;-;-;-;-;-;-;-;-;-;-
1514208701072;-;-;9.71376;0.2803192;-6.346344;-;-;-;-;-;-;-;-;-;-;-;-;-;-;-
1514208701092;-;-;8.570541;0.50177;-4.167618;-;-;-;-;-;-;-;-;-;-;-;-;-;-;-
1514208701112;-;-;6.4492645;0.49339294;-4.220291;-;-;-;-;-;-;-;-;-;-;-;-;-;-;-
1514208701132;-;-;10.283585;-1.0197449;-3.8731384;-;-;-;-;-;-;-;-;-;-;-;-;-;-;-
1514208701153;-;-;8.315552;0.16539001;-4.7314606;-;-;-;-;-;-;-;-;-;-;-;-;-;-;-
1514208701173;-;-;9.993881;0.19651794;-4.049103;-;-;-;-;-;-;-;-;-;-;-;-;-;-;-
1514208701193;-;-;10.203384;0.2815094;-2.8891144;-;-;-;-;-;-;-;-;-;-;-;-;-;-;-
1514208701213;-;-;10.295563;-0.45710754;-2.4030914;-;-;-;-;-;-;-;-;-;-;-;-;-;-;-
1514208701233;-;-;9.841858;-1.609909;-2.2019806;-;-;-;-;-;-;-;-;-;-;-;-;-;-;-
1514208701253;-;-;9.768829;-2.5292816;-2.084671;-;-;-;-;-;-;-;-;-;-;-;-;-;-;-
1514208701273;-;-;8.892548;-2.574768;-2.3803558;-;-;-;-;-;-;-;-;-;-;-;-;-;-;-
1514208701293;-;-;7.497925;-2.009735;-2.646103;-;-;-;-;-;-;-;-;-;-;-;-;-;-;-
1514208701314;-;-;6.2792816;-1.4506989;-2.6125946;-;-;-;-;-;-;-;-;-;-;-;-;-;-;-
1514208701335;-;-;7.205841;-0.9323425;-1.8727875;-;-;-;-;-;-;-;-;-;-;-;-;-;-;-
1514208701355;-;-;8.1479645;-0.59117126;-1.7590485;-;-;-;-;-;-;-;-;-;-;-;-;-;-;-
1514208701375;-;-;8.855438;-0.71447754;-1.5782928;-;-;-;-;-;-;-;-;-;-;-;-;-;-;-
1514208701396;-;-;8.966782;-1.1669769;-1.8548279;-;-;-;-;-;-;-;-;-;-;-;-;-;-;-
1514208701416;-;-;8.720169;-1.570404;-2.0152283;-;-;-;-;-;-;-;-;-;-;-;-;-;-;-
1514208701437;-;-;8.786011;-1.7559509;-1.792572;-;-;-;-;-;-;-;-;-;-;-;-;-;-;-
1514208701457;-;-;8.951218;-2.0899506;-1.5567474;-;-;-;-;-;-;-;-;-;-;-;-;-;-;-
1514208701477;-;-;8.859039;-2.6011047;-1.2012024;-;-;-;-;-;-;-;-;-;-;-;-;-;-;-
1514208701497;-;-;8.932053;-3.2463531;-1.5423737;-;-;-;-;-;-;-;-;-;-;-;-;-;-;-
1514208701518;-;-;9.437241;-3.2140198;-1.9206696;-;-;-;-;-;-;-;-;-;-;-;-;-;-;-
1514208701539;-;-;10.416458;-2.5831451;-2.4785156;-;-;-;-;-;-;-;-;-;-;-;-;-;-;-
1514208701559;-;-;12.719681;-1.8756714;-2.444992;-;-;-;-;-;-;-;-;-;-;-;-;-;-;-
1514208701579;-;-;14.190918;-1.388443;-2.9681244;-;-;-;-;-;-;-;-;-;-;-;-;-;-;-
1514208701599;-;-;14.245987;-1.8469391;-5.540695;-;-;-;-;-;-;-;-;-;-;-;-;-;-;-
1514208701620;-;-;14.976227;-3.704834;-5.5814056;-;-;-;-;-;-;-;-;-;-;-;-;-;-;-
1514208701639;-;-;14.867279;-4.6984253;-1.9841156;-;-;-;-;-;-;-;-;-;-;-;-;-;-;-
1514208701659;-;-;11.104797;-5.5794983;-4.8858795;-;-;-;-;-;-;-;-;-;-;-;-;-;-;-
1514208701679;-;-;8.620819;-4.460205;-7.0274963;-;-;-;-;-;-;-;-;-;-;-;-;-;-;-
1514208701700;-;-;4.8750916;-1.656601;-7.207062;-;-;-;-;-;-;-;-;-;-;-;-;-;-;-
1514208701719;-;-;3.3415985;0.93751526;-5.5933685;-;-;-;-;-;-;-;-;-;-;-;-;-;-;-
1514208701739;-;-;4.8236084;1.8126068;-3.7522278;-;-;-;-;-;-;-;-;-;-;-;-;-;-;-
1514208701759;-;-;6.178726;-0.13148499;-4.2765656;-;-;-;-;-;-;-;-;-;-;-;-;-;-;-
1514208701780;-;-;9.307953;-0.89045715;-4.6440735;-;-;-;-;-;-;-;-;-;-;-;-;-;-;-
1514208701800;-;-;10.471527;-1.0041809;-5.0606537;-;-;-;-;-;-;-;-;-;-;-;-;-;-;-
1514208701820;-;-;9.506668;-1.3082428;-5.125305;-;-;-;-;-;-;-;-;-;-;-;-;-;-;-
1514208701841;-;-;9.294785;-1.522522;-3.4517517;-;-;-;-;-;-;-;-;-;-;-;-;-;-;-
1514208701861;-;-;8.386185;-0.9503021;-2.994461;-;-;-;-;-;-;-;-;-;-;-;-;-;-;-
1514208701881;-;-;6.1679535;0.41558838;-3.077057;-;-;-;-;-;-;-;-;-;-;-;-;-;-;-
1514208701901;-;-;5.0366974;1.3960114;-2.855606;-;-;-;-;-;-;-;-;-;-;-;-;-;-;-
1514208701922;-;-;4.9816284;1.9035797;-2.2438812;-;-;-;-;-;-;-;-;-;-;-;-;-;-;-
1514208701942;-;-;5.426941;1.7970428;-2.0236206;-;-;-;-;-;-;-;-;-;-;-;-;-;-;-
1514208701962;-;-;6.170349;1.0787811;-1.8859406;-;-;-;-;-;-;-;-;-;-;-;-;-;-;-
1514208701983;-;-;6.436096;0.6945038;-2.0906525;-;-;-;-;-;-;-;-;-;-;-;-;-;-;-
1514208702003;-;-;6.402588;1.0165253;-2.484497;-;-;-;-;-;-;-;-;-;-;-;-;-;-;-
1514208702023;-;-;7.040634;1.7659149;-2.9334106;-;-;-;-;-;-;-;-;-;-;-;-;-;-;-
1514208702044;-;-;7.590103;2.1465912;-3.120163;-;-;-;-;-;-;-;-;-;-;-;-;-;-;-
1514208702063;-;-;8.374207;2.2675018;-3.0327759;-;-;-;-;-;-;-;-;-;-;-;-;-;-;-
1514208702083;-;-;8.934448;1.9670258;-3.1213531;-;-;-;-;-;-;-;-;-;-;-;-;-;-;-
1514208702103;-;-;9.141556;1.9263306;-3.2997284;-;-;-;-;-;-;-;-;-;-;-;-;-;-;-
1514208702123;-;-;9.195419;1.9143524;-3.3511963;-;-;-;-;-;-;-;-;-;-;-;-;-;-;-
1514208702143;-;-;10.041779;1.3972015;-3.2027588;-;-;-;-;-;-;-;-;-;-;-;-;-;-;-
1514208702163;-;-;11.752426;0.556839;-3.0124207;-;-;-;-;-;-;-;-;-;-;-;-;-;-;-
1514208702183;-;-;12.506607;0.30545044;-4.457321;-;-;-;-;-;-;-;-;-;-;-;-;-;-;-
1514208702204;-;-;11.779968;0.5819855;-8.5933075;-;-;-;-;-;-;-;-;-;-;-;-;-;-;-
1514208702224;-;-;11.970306;2.058014;-7.7002716;-;-;-;-;-;-;-;-;-;-;-;-;-;-;-
1514208702244;-;-;10.098038;3.4825592;-7.2262115;-;-;-;-;-;-;-;-;-;-;-;-;-;-;-
1514208702265;-;-;9.213379;3.4981232;-7.453659;-;-;-;-;-;-;-;-;-;-;-;-;-;-;-
1514208702285;-;-;6.5007477;2.2818604;-6.6132965;-;-;-;-;-;-;-;-;-;-;-;-;-;-;-
1514208702305;-;-;5.1755524;-0.018966675;-4.951721;-;-;-;-;-;-;-;-;-;-;-;-;-;-;-
1514208702325;-;-;5.589752;-1.5596313;-5.136078;-;-;-;-;-;-;-;-;-;-;-;-;-;-;-
1514208702346;-;-;6.601303;-1.2747192;-4.950531;-;-;-;-;-;-;-;-;-;-;-;-;-;-;-
1514208702366;-;-;7.653549;0.2635498;-4.2178955;-;-;-;-;-;-;-;-;-;-;-;-;-;-;-
1514208702386;-;-;7.2585144;1.4319305;-2.978897;-;-;-;-;-;-;-;-;-;-;-;-;-;-;-
1514208702407;-;-;6.8610687;1.5755768;-3.4601288;-;-;-;-;-;-;-;-;-;-;-;-;-;-;-
1514208702427;-;-;6.304428;1.0141296;-3.5882263;-;-;-;-;-;-;-;-;-;-;-;-;-;-;-
1514208702447;-;-;5.5239105;-0.38526917;-3.214737;-;-;-;-;-;-;-;-;-;-;-;-;-;-;-
1514208702468;-;-;4.636856;-2.3521118;-2.6197662;-;-;-;-;-;-;-;-;-;-;-;-;-;-;-
1514208702488;-;-;4.7422028;-3.7491302;-1.6956024;-;-;-;-;-;-;-;-;-;-;-;-;-;-;-
1514208702508;-;-;5.9105835;-3.953827;-1.9170685;-;-;-;-;-;-;-;-;-;-;-;-;-;-;-
1514208702529;-;-;7.462021;-2.8776398;-3.203949;-;-;-;-;-;-;-;-;-;-;-;-;-;-;-
1514208702549;-;-;7.9791718;-1.577591;-3.6552582;-;-;-;-;-;-;-;-;-;-;-;-;-;-;-
1514208702569;-;-;8.017471;-0.8425598;-3.6791992;-;-;-;-;-;-;-;-;-;-;-;-;-;-;-
1514208702590;-;-;7.7289734;-1.2866974;-4.152054;-;-;-;-;-;-;-;-;-;-;-;-;-;-;-
1514208702610;-;-;8.351471;-1.8469391;-4.2095184;-;-;-;-;-;-;-;-;-;-;-;-;-;-;-
1514208702631;-;-;9.461182;-2.1306458;-3.8503876;-;-;-;-;-;-;-;-;-;-;-;-;-;-;-
1514208702652;-;-;10.604416;-2.490982;-3.7306824;-;-;-;-;-;-;-;-;-;-;-;-;-;-;-
1514208702672;-;-;12.333023;-2.5831451;-4.1376953;-;-;-;-;-;-;-;-;-;-;-;-;-;-;-
1514208702692;-;-;12.486252;-3.2176208;-4.460907;-;-;-;-;-;-;-;-;-;-;-;-;-;-;-
1514208702712;-;-;13.386475;-2.2970428;-4.3603516;-;-;-;-;-;-;-;-;-;-;-;-;-;-;-
1514208702732;-;-;12.380905;-0.34217834;-6.2733154;-;-;-;-;-;-;-;-;-;-;-;-;-;-;-
1514208702752;-;-;9.849045;-0.7228546;-8.815964;-;-;-;-;-;-;-;-;-;-;-;-;-;-;-
1514208702773;-;-;8.716583;-2.0923462;-7.306427;-;-;-;-;-;-;-;-;-;-;-;-;-;-;-
1514208702793;-;-;8.337097;-3.807785;-5.646042;-;-;-;-;-;-;-;-;-;-;-;-;-;-;-
1514208702813;-;-;9.402527;-2.8572845;-4.03833;-;-;-;-;-;-;-;-;-;-;-;-;-;-;-
1514208702834;-;-;7.157959;-0.8665161;-7.0873566;-;-;-;-;-;-;-;-;-;-;-;-;-;-;-
1514208702854;-;-;6.2948456;0.46705627;-7.8235626;-;-;-;-;-;-;-;-;-;-;-;-;-;-;-
1514208702874;-;-;6.849106;0.79745483;-5.6436462;-;-;-;-;-;-;-;-;-;-;-;-;-;-;-
1514208702894;-;-;6.96402;0.20489502;-3.4792938;-;-;-;-;-;-;-;-;-;-;-;-;-;-;-
1514208702915;-;-;6.1871033;0.27792358;-1.9122772;-;-;-;-;-;-;-;-;-;-;-;-;-;-;-
1514208702935;-;-;6.5713806;0.2192688;-2.7873688;-;-;-;-;-;-;-;-;-;-;-;-;-;-;-
1514208702955;-;-;6.5270844;-0.368515;-4.210724;-;-;-;-;-;-;-;-;-;-;-;-;-;-;-
1514208702975;-;-;6.149994;-0.21528625;-4.4621124;-;-;-;-;-;-;-;-;-;-;-;-;-;-;-
1514208702996;-;-;5.3251953;0.675354;-4.2933197;-;-;-;-;-;-;-;-;-;-;-;-;-;-;-
1514208703016;-;-;4.5446777;1.7276154;-3.954544;-;-;-;-;-;-;-;-;-;-;-;-;-;-;-
1514208703036;-;-;4.73024;2.1681366;-3.827652;-;-;-;-;-;-;-;-;-;-;-;-;-;-;-
1514208703057;-;-;5.9632416;1.9095612;-3.8396149;-;-;-;-;-;-;-;-;-;-;-;-;-;-;-
1514208703077;-;-;6.86467;1.6904907;-4.171219;-;-;-;-;-;-;-;-;-;-;-;-;-;-;-
1514208703097;-;-;6.9508514;1.4917755;-4.002426;-;-;-;-;-;-;-;-;-;-;-;-;-;-;-
1514208703117;-;-;7.126831;1.5815582;-3.1093903;-;-;-;-;-;-;-;-;-;-;-;-;-;-;-
1514208703138;-;-;7.762497;1.5025482;-2.6520996;-;-;-;-;-;-;-;-;-;-;-;-;-;-;-
1514208703158;-;-;8.984726;1.3098145;-2.4533691;-;-;-;-;-;-;-;-;-;-;-;-;-;-;-
1514208703178;-;-;10.325485;1.2894745;-3.116562;-;-;-;-;-;-;-;-;-;-;-;-;-;-;-
1514208703198;-;-;11.256836;1.3792572;-3.9952393;-;-;-;-;-;-;-;-;-;-;-;-;-;-;-
1514208703218;-;-;11.934387;1.4307251;-3.8372192;-;-;-;-;-;-;-;-;-;-;-;-;-;-;-
1514208703239;-;-;11.6662445;1.7096558;-3.2266998;-;-;-;-;-;-;-;-;-;-;-;-;-;-;-
1514208703258;-;-;10.12796;1.2284241;-6.591751;-;-;-;-;-;-;-;-;-;-;-;-;-;-;-
1514208703278;-;-;8.720169;2.5859222;-9.767654;-;-;-;-;-;-;-;-;-;-;-;-;-;-;-
1514208703299;-;-;10.125565;3.3544617;-5.6161194;-;-;-;-;-;-;-;-;-;-;-;-;-;-;-
1514208703318;-;-;11.043747;2.3285522;-5.765747;-;-;-;-;-;-;-;-;-;-;-;-;-;-;-
1514208703338;-;-;9.169083;0.36531067;-8.200653;-;-;-;-;-;-;-;-;-;-;-;-;-;-;-
1514208703359;-;-;6.568985;-0.3146515;-7.9660187;-;-;-;-;-;-;-;-;-;-;-;-;-;-;-
1514208703378;-;-;6.8515015;-1.1214905;-4.43338;-;-;-;-;-;-;-;-;-;-;-;-;-;-;-
1514208703398;-;-;7.3710327;-1.2986603;-2.567093;-;-;-;-;-;-;-;-;-;-;-;-;-;-;-
1514208703419;-;-;7.4177246;-0.63905334;-3.1608582;-;-;-;-;-;-;-;-;-;-;-;-;-;-;-
1514208703439;-;-;6.9400787;-0.08720398;-2.562317;-;-;-;-;-;-;-;-;-;-;-;-;-;-;-
1514208703459;-;-;5.881851;0.4000244;-3.041153;-;-;-;-;-;-;-;-;-;-;-;-;-;-;-
1514208703480;-;-;5.0965424;0.4514923;-3.535553;-;-;-;-;-;-;-;-;-;-;-;-;-;-;-
1514208703500;-;-;4.0802155;-0.9371338;-3.7151184;-;-;-;-;-;-;-;-;-;-;-;-;-;-;-
1514208703520;-;-;4.2106934;-2.573578;-3.4625244;-;-;-;-;-;-;-;-;-;-;-;-;-;-;-
1514208703540;-;-;4.706299;-3.2690887;-3.199173;-;-;-;-;-;-;-;-;-;-;-;-;-;-;-
1514208703561;-;-;5.3970184;-3.0045319;-2.7227173;-;-;-;-;-;-;-;-;-;-;-;-;-;-;-
1514208703581;-;-;6.3690643;-2.262329;-3.2063446;-;-;-;-;-;-;-;-;-;-;-;-;-;-;-
1514208703601;-;-;7.1004944;-1.6422272;-3.527176;-;-;-;-;-;-;-;-;-;-;-;-;-;-;-
1514208703622;-;-;7.4680023;-1.4937897;-3.4900665;-;-;-;-;-;-;-;-;-;-;-;-;-;-;-
1514208703642;-;-;7.9600067;-1.9989624;-3.5499115;-;-;-;-;-;-;-;-;-;-;-;-;-;-;-
1514208703662;-;-;8.976349;-2.5041504;-3.666031;-;-;-;-;-;-;-;-;-;-;-;-;-;-;-
1514208703683;-;-;11.135925;-2.289856;-3.3033142;-;-;-;-;-;-;-;-;-;-;-;-;-;-;-
1514208703703;-;-;12.562866;-2.6992645;-3.041153;-;-;-;-;-;-;-;-;-;-;-;-;-;-;-
1514208703723;-;-;14.372879;-3.7215881;-3.1979675;-;-;-;-;-;-;-;-;-;-;-;-;-;-;-
1514208703744;-;-;15.2048645;-2.677719;-3.4026794;-;-;-;-;-;-;-;-;-;-;-;-;-;-;-
1514208703764;-;-;13.64624;-0.8748932;-5.5;-;-;-;-;-;-;-;-;-;-;-;-;-;-;-
1514208703784;-;-;10.381744;-0.8688965;-7.8822327;-;-;-;-;-;-;-;-;-;-;-;-;-;-;-
1514208703805;-;-;8.888962;-2.2012787;-6.4397125;-;-;-;-;-;-;-;-;-;-;-;-;-;-;-
1514208703825;-;-;7.8199463;-3.7790527;-5.453308;-;-;-;-;-;-;-;-;-;-;-;-;-;-;-
1514208703845;-;-;9.450409;-2.3916168;-5.081009;-;-;-;-;-;-;-;-;-;-;-;-;-;-;-
1514208703865;-;-;8.033035;-0.083602905;-6.3008575;-;-;-;-;-;-;-;-;-;-;-;-;-;-;-
1514208703886;-;-;7.1914673;1.374466;-8.124039;-;-;-;-;-;-;-;-;-;-;-;-;-;-;-
1514208703906;-;-;8.32872;1.0488586;-5.8100433;-;-;-;-;-;-;-;-;-;-;-;-;-;-;-
1514208703926;-;-;7.8403015;0.3282013;-3.6361084;-;-;-;-;-;-;-;-;-;-;-;-;-;-;-
1514208703947;-;-;6.5091248;0.07081604;-2.3372498;-;-;-;-;-;-;-;-;-;-;-;-;-;-;-
1514208703967;-;-;5.1564026;-0.057266235;-2.168457;-;-;-;-;-;-;-;-;-;-;-;-;-;-;-
1514208703988;-;-;3.9700775;-0.18296814;-3.832428;-;-;-;-;-;-;-;-;-;-;-;-;-;-;-
1514208704007;-;-;3.8862762;0.1618042;-4.345993;-;-;-;-;-;-;-;-;-;-;-;-;-;-;-
1514208704027;-;-;4.4285583;1.4019928;-4.3280334;-;-;-;-;-;-;-;-;-;-;-;-;-;-;-
1514208704047;-;-;5.4688416;2.3919983;-4.6237183;-;-;-;-;-;-;-;-;-;-;-;-;-;-;-
1514208704068;-;-;6.039856;2.7176056;-4.9996033;-;-;-;-;-;-;-;-;-;-;-;-;-;-;-
1514208704089;-;-;6.727005;2.1633606;-4.639282;-;-;-;-;-;-;-;-;-;-;-;-;-;-;-
1514208704110;-;-;7.240555;1.4833984;-4.6644135;-;-;-;-;-;-;-;-;-;-;-;-;-;-;-
1514208704130;-;-;7.1723175;1.1541901;-4.6237183;-;-;-;-;-;-;-;-;-;-;-;-;-;-;-
1514208704151;-;-;7.110077;1.2236328;-3.6552582;-;-;-;-;-;-;-;-;-;-;-;-;-;-;-
1514208704170;-;-;7.4727936;1.3146057;-2.6592712;-;-;-;-;-;-;-;-;-;-;-;-;-;-;-
1514208704190;-;-;8.698624;1.6031036;-2.4821014;-;-;-;-;-;-;-;-;-;-;-;-;-;-;-
1514208704210;-;-;9.8598175;2.2507477;-3.1177673;-;-;-;-;-;-;-;-;-;-;-;-;-;-;-
1514208704231;-;-;10.38414;3.0204773;-3.7594147;-;-;-;-;-;-;-;-;-;-;-;-;-;-;-
1514208704251;-;-;11.164658;3.3245392;-4.152054;-;-;-;-;-;-;-;-;-;-;-;-;-;-;-
1514208704271;-;-;11.756027;3.1138458;-4.879898;-;-;-;-;-;-;-;-;-;-;-;-;-;-;-
1514208704292;-;-;10.815094;1.8437195;-6.449295;-;-;-;-;-;-;-;-;-;-;-;-;-;-;-
1514208704312;-;-;9.031418;1.5516357;-8.086929;-;-;-;-;-;-;-;-;-;-;-;-;-;-;-
1514208704332;-;-;8.118027;2.248352;-6.986801;-;-;-;-;-;-;-;-;-;-;-;-;-;-;-
1514208704353;-;-;9.312744;2.3776398;-5.3527527;-;-;-;-;-;-;-;-;-;-;-;-;-;-;-
1514208704373;-;-;8.199432;1.1589813;-7.2645264;-;-;-;-;-;-;-;-;-;-;-;-;-;-;-
1514208704393;-;-;7.363861;0.26594543;-9.163132;-;-;-;-;-;-;-;-;-;-;-;-;-;-;-
1514208704414;-;-;7.4165344;-0.15184021;-7.954056;-;-;-;-;-;-;-;-;-;-;-;-;-;-;-
1514208704434;-;-;7.9312897;-0.37809753;-5.6244965;-;-;-;-;-;-;-;-;-;-;-;-;-;-;-
1514208704454;-;-;7.9707794;-0.56962585;-3.1225586;-;-;-;-;-;-;-;-;-;-;-;-;-;-;-
1514208704475;-;-;6.443283;0.05885315;-1.9086914;-;-;-;-;-;-;-;-;-;-;-;-;-;-;-
1514208704495;-;-;5.490387;0.2886963;-2.452179;-;-;-;-;-;-;-;-;-;-;-;-;-;-;-
1514208704515;-;-;5.0127563;-0.43315125;-3.3069;-;-;-;-;-;-;-;-;-;-;-;-;-;-;-
1514208704535;-;-;4.5195465;-1.8445435;-3.748642;-;-;-;-;-;-;-;-;-;-;-;-;-;-;-
1514208704556;-;-;4.4285583;-3.024887;-3.8803253;-;-;-;-;-;-;-;-;-;-;-;-;-;-;-
1514208704575;-;-;4.39505;-3.5085144;-4.0981903;-;-;-;-;-;-;-;-;-;-;-;-;-;-;-
1514208704595;-;-;5.545456;-2.890808;-3.6432953;-;-;-;-;-;-;-;-;-;-;-;-;-;-;-
1514208704616;-;-;6.9580383;-1.8481293;-3.5104065;-;-;-;-;-;-;-;-;-;-;-;-;-;-;-
1514208704636;-;-;7.9193115;-1.1957092;-3.6361084;-;-;-;-;-;-;-;-;-;-;-;-;-;-;-
1514208704656;-;-;8.232956;-1.0065765;-3.827652;-;-;-;-;-;-;-;-;-;-;-;-;-;-;-
1514208704676;-;-;7.569763;-1.4842072;-3.871933;-;-;-;-;-;-;-;-;-;-;-;-;-;-;-
1514208704697;-;-;7.252533;-1.7846832;-4.101776;-;-;-;-;-;-;-;-;-;-;-;-;-;-;-
1514208704717;-;-;8.206619;-1.7212372;-3.9449615;-;-;-;-;-;-;-;-;-;-;-;-;-;-;-
1514208704737;-;-;9.75087;-1.5165405;-3.7594147;-;-;-;-;-;-;-;-;-;-;-;-;-;-;-
1514208704757;-;-;10.827072;-2.392807;-3.5092163;-;-;-;-;-;-;-;-;-;-;-;-;-;-;-
1514208704777;-;-;11.916428;-3.7251892;-4.167618;-;-;-;-;-;-;-;-;-;-;-;-;-;-;-
1514208704798;-;-;13.653427;-3.6378021;-4.6093597;-;-;-;-;-;-;-;-;-;-;-;-;-;-;-
1514208704818;-;-;14.178955;-1.5751953;-5.246216;-;-;-;-;-;-;-;-;-;-;-;-;-;-;-
1514208704838;-;-;12.086426;0.08518982;-7.015518;-;-;-;-;-;-;-;-;-;-;-;-;-;-;-
1514208704858;-;-;10.204575;-0.7216644;-7.690689;-;-;-;-;-;-;-;-;-;-;-;-;-;-;-
1514208704879;-;-;7.8606567;-2.332962;-7.7517395;-;-;-;-;-;-;-;-;-;-;-;-;-;-;-
1514208704899;-;-;8.684265;-2.3988037;-4.1436768;-;-;-;-;-;-;-;-;-;-;-;-;-;-;-
1514208704919;-;-;8.080917;-0.58039856;-4.180786;-;-;-;-;-;-;-;-;-;-;-;-;-;-;-
1514208704940;-;-;6.7808685;0.3509369;-8.938065;-;-;-;-;-;-;-;-;-;-;-;-;-;-;-
1514208704960;-;-;7.253723;0.73521423;-7.357895;-;-;-;-;-;-;-;-;-;-;-;-;-;-;-
1514208704981;-;-;7.8199463;0.6035309;-3.8288422;-;-;-;-;-;-;-;-;-;-;-;-;-;-;-
1514208705000;-;-;6.965225;-0.33021545;-2.3540192;-;-;-;-;-;-;-;-;-;-;-;-;-;-;-
1514208705021;-;-;5.715454;-0.54089355;-1.6273804;-;-;-;-;-;-;-;-;-;-;-;-;-;-;-
1514208705043;-;-;5.8567047;-1.0185394;-2.421051;-;-;-;-;-;-;-;-;-;-;-;-;-;-;-
1514208705064;-;-;5.750168;-1.1933136;-3.6109772;-;-;-;-;-;-;-;-;-;-;-;-;-;-;-
1514208705084;-;-;5.308441;-0.39126587;-4.1772003;-;-;-;-;-;-;-;-;-;-;-;-;-;-;-
1514208705104;-;-;4.427368;1.2966461;-4.203537;-;-;-;-;-;-;-;-;-;-;-;-;-;-;-
1514208705124;-;-;4.0012054;3.165329;-3.9461517;-;-;-;-;-;-;-;-;-;-;-;-;-;-;-
1514208705145;-;-;5.2234344;2.9821625;-3.8408203;-;-;-;-;-;-;-;-;-;-;-;-;-;-;-
1514208705165;-;-;6.977188;1.8150024;-3.9341888;-;-;-;-;-;-;-;-;-;-;-;-;-;-;-
1514208705185;-;-;8.003113;0.9650574;-4.179596;-;-;-;-;-;-;-;-;-;-;-;-;-;-;-
1514208705206;-;-;8.127609;0.64901733;-4.0359344;-;-;-;-;-;-;-;-;-;-;-;-;-;-;-
1514208705226;-;-;8.294006;0.754364;-3.70076;-;-;-;-;-;-;-;-;-;-;-;-;-;-;-
1514208705247;-;-;8.74411;0.8692932;-3.1321259;-;-;-;-;-;-;-;-;-;-;-;-;-;-;-
1514208705267;-;-;9.708984;1.0033569;-2.781372;-;-;-;-;-;-;-;-;-;-;-;-;-;-;-
1514208705287;-;-;10.318298;2.160965;-3.223114;-;-;-;-;-;-;-;-;-;-;-;-;-;-;-
1514208705307;-;-;10.818695;3.11026;-3.010025;-;-;-;-;-;-;-;-;-;-;-;-;-;-;-
1514208705328;-;-;11.490265;3.5555878;-2.8376465;-;-;-;-;-;-;-;-;-;-;-;-;-;-;-
1514208705348;-;-;10.87854;3.0300598;-2.8615875;-;-;-;-;-;-;-;-;-;-;-;-;-;-;-
1514208705368;-;-;10.056137;1.2715149;-4.9636993;-;-;-;-;-;-;-;-;-;-;-;-;-;-;-
1514208705389;-;-;8.042618;1.2787018;-10.503876;-;-;-;-;-;-;-;-;-;-;-;-;-;-;-
1514208705409;-;-;10.373367;3.0037231;-5.7633514;-;-;-;-;-;-;-;-;-;-;-;-;-;-;-
1514208705430;-;-;11.325058;3.407135;-5.9728546;-;-;-;-;-;-;-;-;-;-;-;-;-;-;-
1514208705449;-;-;9.548569;1.947876;-9.802383;-;-;-;-;-;-;-;-;-;-;-;-;-;-;-
1514208705470;-;-;6.348709;1.3313751;-8.882996;-;-;-;-;-;-;-;-;-;-;-;-;-;-;-
1514208705490;-;-;5.612503;-0.9000244;-4.5890045;-;-;-;-;-;-;-;-;-;-;-;-;-;-;-
1514208705511;-;-;6.2302094;-2.0516357;-2.3396454;-;-;-;-;-;-;-;-;-;-;-;-;-;-;-
1514208705531;-;-;7.1806946;-1.4590759;-3.3966827;-;-;-;-;-;-;-;-;-;-;-;-;-;-;-
1514208705551;-;-;8.023453;0.7447815;-3.8264465;-;-;-;-;-;-;-;-;-;-;-;-;-;-;-
1514208705572;-;-;6.983185;1.9981537;-3.3547974;-;-;-;-;-;-;-;-;-;-;-;-;-;-;-
1514208705592;-;-;5.313217;1.576767;-3.5499115;-;-;-;-;-;-;-;-;-;-;-;-;-;-;-
1514208705612;-;-;4.0802155;0.82618713;-3.3907013;-;-;-;-;-;-;-;-;-;-;-;-;-;-;-
1514208705632;-;-;3.280548;-0.8317871;-3.314087;-;-;-;-;-;-;-;-;-;-;-;-;-;-;-
1514208705653;-;-;3.632492;-2.8967896;-3.3643646;-;-;-;-;-;-;-;-;-;-;-;-;-;-;-
1514208705673;-;-;4.65242;-4.108261;-2.6054077;-;-;-;-;-;-;-;-;-;-;-;-;-;-;-
1514208705694;-;-;7.190277;-3.6449738;-2.7670135;-;-;-;-;-;-;-;-;-;-;-;-;-;-;-
1514208705714;-;-;8.460403;-2.3592987;-3.2554321;-;-;-;-;-;-;-;-;-;-;-;-;-;-;-
1514208705734;-;-;9.06015;-1.5799866;-3.4146423;-;-;-;-;-;-;-;-;-;-;-;-;-;-;-
1514208705754;-;-;8.078522;-1.1035309;-3.259018;-;-;-;-;-;-;-;-;-;-;-;-;-;-;-
1514208705775;-;-;7.9193115;-1.2483826;-2.8472137;-;-;-;-;-;-;-;-;-;-;-;-;-;-;-
1514208705794;-;-;8.322739;-2.4011993;-2.4354248;-;-;-;-;-;-;-;-;-;-;-;-;-;-;-
1514208705814;-;-;8.643555;-3.313385;-2.247467;-;-;-;-;-;-;-;-;-;-;-;-;-;-;-
1514208705834;-;-;8.985931;-3.618637;-2.7275085;-;-;-;-;-;-;-;-;-;-;-;-;-;-;-
1514208705855;-;-;9.337875;-2.842926;-3.1213531;-;-;-;-;-;-;-;-;-;-;-;-;-;-;-
1514208705875;-;-;9.524628;-2.1378326;-3.662445;-;-;-;-;-;-;-;-;-;-;-;-;-;-;-
1514208705895;-;-;10.141129;-2.0947418;-4.2370605;-;-;-;-;-;-;-;-;-;-;-;-;-;-;-
1514208705915;-;-;11.435196;-2.4418945;-4.5028076;-;-;-;-;-;-;-;-;-;-;-;-;-;-;-
1514208705936;-;-;12.945938;-1.6709595;-4.349579;-;-;-;-;-;-;-;-;-;-;-;-;-;-;-
1514208705955;-;-;13.60434;-0.25837708;-3.2087402;-;-;-;-;-;-;-;-;-;-;-;-;-;-;-
1514208705976;-;-;12.55928;0.41558838;-3.2159271;-;-;-;-;-;-;-;-;-;-;-;-;-;-;-
1514208705996;-;-;10.786362;-1.1981049;-11.015045;-;-;-;-;-;-;-;-;-;-;-;-;-;-;-
1514208706016;-;-;10.77919;-4.494919;-4.507599;-;-;-;-;-;-;-;-;-;-;-;-;-;-;-
1514208706036;-;-;9.82869;-4.7439117;-0.28182983;-;-;-;-;-;-;-;-;-;-;-;-;-;-;-
1514208706056;-;-;9.476746;-3.68927;-5.7825165;-;-;-;-;-;-;-;-;-;-;-;-;-;-;-
1514208706077;-;-;7.161545;-2.1318512;-8.738159;-;-;-;-;-;-;-;-;-;-;-;-;-;-;-
1514208706097;-;-;5.0067596;0.031311035;-6.6851196;-;-;-;-;-;-;-;-;-;-;-;-;-;-;-
1514208706117;-;-;5.5442657;0.7866821;-5.295288;-;-;-;-;-;-;-;-;-;-;-;-;-;-;-
1514208706138;-;-;7.4021606;0.24440002;-3.6037903;-;-;-;-;-;-;-;-;-;-;-;-;-;-;-
1514208706158;-;-;7.4799805;0.9854126;-4.0084076;-;-;-;-;-;-;-;-;-;-;-;-;-;-;-
1514208706190;-;-;7.6343994;1.5755768;-4.9972076;-;-;-;-;-;-;-;-;-;-;-;-;-;-;-
1514208706198;-;-;7.221405;0.97224426;-5.1731873;-;-;-;-;-;-;-;-;-;-;-;-;-;-;-
1514208706219;-;-;5.9584656;0.23123169;-4.8451843;-;-;-;-;-;-;-;-;-;-;-;-;-;-;-
1514208706239;-;-;5.019928;0.58317566;-4.0275574;-;-;-;-;-;-;-;-;-;-;-;-;-;-;-
1514208706259;-;-;4.6620026;1.3445435;-4.021576;-;-;-;-;-;-;-;-;-;-;-;-;-;-;-
1514208706280;-;-;5.1516113;1.6330414;-4.5375214;-;-;-;-;-;-;-;-;-;-;-;-;-;-;-
1514208706300;-;-;5.387436;1.4355164;-4.6201324;-;-;-;-;-;-;-;-;-;-;-;-;-;-;-
1514208706320;-;-;5.686722;1.224823;-4.720688;-;-;-;-;-;-;-;-;-;-;-;-;-;-;-
1514208706340;-;-;6.7210083;1.4091797;-4.6560364;-;-;-;-;-;-;-;-;-;-;-;-;-;-;-
1514208706361;-;-;7.2238007;1.5791626;-4.301697;-;-;-;-;-;-;-;-;-;-;-;-;-;-;-
1514208706381;-;-;7.0346527;1.4247437;-3.7498322;-;-;-;-;-;-;-;-;-;-;-;-;-;-;-
1514208706401;-;-;6.6300354;0.95428467;-3.3883057;-;-;-;-;-;-;-;-;-;-;-;-;-;-;-
1514208706421;-;-;6.3211823;0.7866821;-2.8579865;-;-;-;-;-;-;-;-;-;-;-;-;-;-;-
1514208706441;-;-;6.60849;0.9459076;-2.2055817;-;-;-;-;-;-;-;-;-;-;-;-;-;-;-
1514208706461;-;-;7.2944183;1.1901093;-1.8656006;-;-;-;-;-;-;-;-;-;-;-;-;-;-;-
1514208706481;-;-;8.133591;1.4307251;-1.6560974;-;-;-;-;-;-;-;-;-;-;-;-;-;-;-
1514208706501;-;-;8.784821;1.1829224;-1.6453247;-;-;-;-;-;-;-;-;-;-;-;-;-;-;-
1514208706521;-;-;8.989517;0.6382446;-1.7494812;-;-;-;-;-;-;-;-;-;-;-;-;-;-;-
1514208706542;-;-;8.924881;0.19770813;-1.6644897;-;-;-;-;-;-;-;-;-;-;-;-;-;-;-
1514208706562;-;-;8.5633545;0.09715271;-0.9917145;-;-;-;-;-;-;-;-;-;-;-;-;-;-;-
1514208706582;-;-;8.398148;-0.6246948;-0.5631561;-;-;-;-;-;-;-;-;-;-;-;-;-;-;-
1514208706602;-;-;9.774811;-1.1813507;-0.8001709;-;-;-;-;-;-;-;-;-;-;-;-;-;-;-
1514208706623;-;-;11.485474;-0.05607605;-5.8339844;-;-;-;-;-;-;-;-;-;-;-;-;-;-;-
1514208706644;-;-;11.435196;4.1996155;-8.960815;-;-;-;-;-;-;-;-;-;-;-;-;-;-;-
1514208706665;-;-;13.386475;7.746628;-6.069809;-;-;-;-;-;-;-;-;-;-;-;-;-;-;-
1514208706685;-;-;9.401321;5.0328064;-6.1464233;-;-;-;-;-;-;-;-;-;-;-;-;-;-;-
1514208706705;-;-;6.6467896;-0.6701813;-5.453308;-;-;-;-;-;-;-;-;-;-;-;-;-;-;-
1514208706726;-;-;5.319214;-2.8680573;-5.1025543;-;-;-;-;-;-;-;-;-;-;-;-;-;-;-
1514208706746;-;-;5.647217;-1.4961853;-5.5897827;-;-;-;-;-;-;-;-;-;-;-;-;-;-;-
1514208706766;-;-;8.449631;0.51016235;-4.1221313;-;-;-;-;-;-;-;-;-;-;-;-;-;-;-
1514208706787;-;-;12.140289;1.8628845;-5.222275;-;-;-;-;-;-;-;-;-;-;-;-;-;-;-
1514208706807;-;-;11.083252;2.058014;-5.508377;-;-;-;-;-;-;-;-;-;-;-;-;-;-;-
1514208706827;-;-;8.492722;0.596344;-4.2214966;-;-;-;-;-;-;-;-;-;-;-;-;-;-;-
1514208706847;-;-;6.297241;-0.8066559;-3.6337128;-;-;-;-;-;-;-;-;-;-;-;-;-;-;-
1514208706868;-;-;4.703903;-1.9498901;-3.338028;-;-;-;-;-;-;-;-;-;-;-;-;-;-;-
1514208706888;-;-;4.8403625;-2.1940918;-3.630127;-;-;-;-;-;-;-;-;-;-;-;-;-;-;-
1514208706908;-;-;7.1866913;-1.7379913;-3.056717;-;-;-;-;-;-;-;-;-;-;-;-;-;-;-
1514208706928;-;-;8.6028595;-1.1406403;-3.353592;-;-;-;-;-;-;-;-;-;-;-;-;-;-;-
1514208706948;-;-;8.261688;-1.0113525;-2.899887;-;-;-;-;-;-;-;-;-;-;-;-;-;-;-
1514208706968;-;-;6.8359375;-1.5081482;-2.444992;-;-;-;-;-;-;-;-;-;-;-;-;-;-;-
1514208706988;-;-;6.6216583;-2.5376587;-1.737503;-;-;-;-;-;-;-;-;-;-;-;-;-;-;-
1514208707009;-;-;7.7816467;-3.0967102;-1.5926514;-;-;-;-;-;-;-;-;-;-;-;-;-;-;-
1514208707029;-;-;9.985504;-1.9869995;-2.2977448;-;-;-;-;-;-;-;-;-;-;-;-;-;-;-
1514208707049;-;-;11.049728;-0.3936615;-2.271408;-;-;-;-;-;-;-;-;-;-;-;-;-;-;-
1514208707070;-;-;11.13353;0.22285461;-1.4107056;-;-;-;-;-;-;-;-;-;-;-;-;-;-;-
1514208707090;-;-;9.590469;-0.5528717;-1.2526855;-;-;-;-;-;-;-;-;-;-;-;-;-;-;-
1514208707110;-;-;8.411316;-2.2563477;-2.3983002;-;-;-;-;-;-;-;-;-;-;-;-;-;-;-
1514208707131;-;-;8.186264;-2.5532227;-1.4118958;-;-;-;-;-;-;-;-;-;-;-;-;-;-;-
1514208707151;-;-;8.432861;-1.2411957;-0.10107422;-;-;-;-;-;-;-;-;-;-;-;-;-;-;-
1514208707171;-;-;9.893326;-0.090789795;-3.0435486;-;-;-;-;-;-;-;-;-;-;-;-;-;-;-
1514208707191;-;-;12.485062;2.7595062;-10.957581;-;-;-;-;-;-;-;-;-;-;-;-;-;-;-
1514208707212;-;-;14.743988;4.597061;-8.374237;-;-;-;-;-;-;-;-;-;-;-;-;-;-;-
1514208707231;-;-;14.176559;3.3245392;-7.0598145;-;-;-;-;-;-;-;-;-;-;-;-;-;-;-
1514208707251;-;-;10.033386;0.8812561;-5.0630493;-;-;-;-;-;-;-;-;-;-;-;-;-;-;-
1514208707271;-;-;6.7964325;-0.36372375;-3.9341888;-;-;-;-;-;-;-;-;-;-;-;-;-;-;-
1514208707292;-;-;4.2501984;-0.5612488;-4.1149445;-;-;-;-;-;-;-;-;-;-;-;-;-;-;-
1514208707312;-;-;3.1345062;-0.02734375;-3.381134;-;-;-;-;-;-;-;-;-;-;-;-;-;-;-
1514208707332;-;-;3.4696808;0.37727356;-3.267395;-;-;-;-;-;-;-;-;-;-;-;-;-;-;-
1514208707353;-;-;5.30365;0.45628357;-3.3081055;-;-;-;-;-;-;-;-;-;-;-;-;-;-;-
1514208707373;-;-;8.991913;0.095962524;-2.8627777;-;-;-;-;-;-;-;-;-;-;-;-;-;-;-
1514208707393;-;-;11.377731;0.40960693;-3.089035;-;-;-;-;-;-;-;-;-;-;-;-;-;-;-
1514208707413;-;-;10.536179;1.5264893;-2.6724396;-;-;-;-;-;-;-;-;-;-;-;-;-;-;-
1514208707434;-;-;8.311966;2.3058014;-2.215149;-;-;-;-;-;-;-;-;-;-;-;-;-;-;-
1514208707454;-;-;6.1930847;1.9538574;-2.2055817;-;-;-;-;-;-;-;-;-;-;-;-;-;-;-
1514208707474;-;-;4.826004;1.0189209;-2.144516;-;-;-;-;-;-;-;-;-;-;-;-;-;-;-
1514208707494;-;-;4.845154;0.48501587;-1.942215;-;-;-;-;-;-;-;-;-;-;-;-;-;-;-
1514208707515;-;-;6.225418;0.10913086;-2.172058;-;-;-;-;-;-;-;-;-;-;-;-;-;-;-
1514208707535;-;-;8.127609;0.1510315;-1.9517822;-;-;-;-;-;-;-;-;-;-;-;-;-;-;-
1514208707555;-;-;9.516251;0.4981842;-1.4238739;-;-;-;-;-;-;-;-;-;-;-;-;-;-;-
1514208707575;-;-;10.092056;0.29707336;-1.7411041;-;-;-;-;-;-;-;-;-;-;-;-;-;-;-
1514208707596;-;-;10.036987;0.21447754;-1.8464508;-;-;-;-;-;-;-;-;-;-;-;-;-;-;-
1514208707616;-;-;9.582092;0.27792358;-1.8584137;-;-;-;-;-;-;-;-;-;-;-;-;-;-;-
1514208707636;-;-;9.975937;-0.119522095;-1.8608093;-;-;-;-;-;-;-;-;-;-;-;-;-;-;-
1514208707657;-;-;10.28479;-0.05847168;-1.8919373;-;-;-;-;-;-;-;-;-;-;-;-;-;-;-
1514208707677;-;-;9.906494;0.51493835;-1.4035187;-;-;-;-;-;-;-;-;-;-;-;-;-;-;-
1514208707697;-;-;9.641937;1.0428619;-3.278183;-;-;-;-;-;-;-;-;-;-;-;-;-;-;-
1514208707718;-;-;10.537369;2.5272675;-8.64238;-;-;-;-;-;-;-;-;-;-;-;-;-;-;-
1514208707738;-;-;11.290344;5.193222;-10.08609;-;-;-;-;-;-;-;-;-;-;-;-;-;-;-
1514208707758;-;-;9.136765;4.9142914;-5.0403137;-;-;-;-;-;-;-;-;-;-;-;-;-;-;-
1514208707778;-;-;6.9544525;1.0045624;-5.480835;-;-;-;-;-;-;-;-;-;-;-;-;-;-;-
1514208707799;-;-;4.8870544;-2.4766083;-6.6132965;-;-;-;-;-;-;-;-;-;-;-;-;-;-;-
1514208707819;-;-;6.1092987;-2.1581879;-6.1200867;-;-;-;-;-;-;-;-;-;-;-;-;-;-;-
1514208707839;-;-;10.141129;-0.7587738;-4.586609;-;-;-;-;-;-;-;-;-;-;-;-;-;-;-
1514208707860;-;-;12.775955;0.6968994;-5.310852;-;-;-;-;-;-;-;-;-;-;-;-;-;-;-
1514208707879;-;-;11.94516;1.2583466;-5.0235443;-;-;-;-;-;-;-;-;-;-;-;-;-;-;-
1514208707899;-;-;10.070496;1.2415924;-5.0941772;-;-;-;-;-;-;-;-;-;-;-;-;-;-;-
1514208707920;-;-;6.9580383;0.0061798096;-5.3599396;-;-;-;-;-;-;-;-;-;-;-;-;-;-;-
1514208707940;-;-;4.442932;-2.3652802;-4.061081;-;-;-;-;-;-;-;-;-;-;-;-;-;-;-
1514208707960;-;-;3.8072662;-4.467392;-2.9142609;-;-;-;-;-;-;-;-;-;-;-;-;-;-;-
1514208707981;-;-;5.3251953;-5.111435;-3.0363617;-;-;-;-;-;-;-;-;-;-;-;-;-;-;-
1514208708000;-;-;8.088104;-3.6641388;-2.4701385;-;-;-;-;-;-;-;-;-;-;-;-;-;-;-
1514208708020;-;-;9.087677;-2.1366272;-1.9314423;-;-;-;-;-;-;-;-;-;-;-;-;-;-;-
1514208708040;-;-;8.802765;-1.5668182;-2.2774048;-;-;-;-;-;-;-;-;-;-;-;-;-;-;-
1514208708061;-;-;7.719391;-1.7822876;-2.5563202;-;-;-;-;-;-;-;-;-;-;-;-;-;-;-
1514208708081;-;-;8.572922;-1.9127808;-2.5443573;-;-;-;-;-;-;-;-;-;-;-;-;-;-;-
1514208708101;-;-;8.812347;-1.6314545;-1.8224945;-;-;-;-;-;-;-;-;-;-;-;-;-;-;-
1514208708121;-;-;8.708206;-2.7698975;-1.8464508;-;-;-;-;-;-;-;-;-;-;-;-;-;-;-
1514208708142;-;-;9.439636;-3.831726;-2.203186;-;-;-;-;-;-;-;-;-;-;-;-;-;-;-
1514208708162;-;-;10.658279;-3.5180817;-2.2055817;-;-;-;-;-;-;-;-;-;-;-;-;-;-;-
1514208708182;-;-;11.941574;-2.2335968;-2.4270325;-;-;-;-;-;-;-;-;-;-;-;-;-;-;-
1514208708203;-;-;13.654617;-1.2986603;-3.077057;-;-;-;-;-;-;-;-;-;-;-;-;-;-;-
1514208708223;-;-;15.080368;-1.0939636;-3.3763428;-;-;-;-;-;-;-;-;-;-;-;-;-;-;-
1514208708242;-;-;15.0289;-1.6302643;-6.124878;-;-;-;-;-;-;-;-;-;-;-;-;-;-;-
1514208708262;-;-;12.315063;-3.3744354;-10.926453;-;-;-;-;-;-;-;-;-;-;-;-;-;-;-
1514208708283;-;-;11.7260895;-3.6485748;-7.0286865;-;-;-;-;-;-;-;-;-;-;-;-;-;-;-
1514208708303;-;-;9.716156;-1.9666443;-2.8113098;-;-;-;-;-;-;-;-;-;-;-;-;-;-;-
1514208708324;-;-;5.20549;-2.0157318;-5.938141;-;-;-;-;-;-;-;-;-;-;-;-;-;-;-
1514208708344;-;-;1.9529572;-2.2886658;-7.7912445;-;-;-;-;-;-;-;-;-;-;-;-;-;-;-
1514208708364;-;-;3.7294617;-0.75398254;-4.92778;-;-;-;-;-;-;-;-;-;-;-;-;-;-;-
1514208708384;-;-;5.766922;0.42396545;-4.1975555;-;-;-;-;-;-;-;-;-;-;-;-;-;-;-
1514208708405;-;-;7.1232452;0.9578705;-3.0363617;-;-;-;-;-;-;-;-;-;-;-;-;-;-;-
1514208708425;-;-;7.889389;1.4271393;-3.247055;-;-;-;-;-;-;-;-;-;-;-;-;-;-;-
1514208708444;-;-;10.440399;-0.16142273;-4.0754395;-;-;-;-;-;-;-;-;-;-;-;-;-;-;-
1514208708464;-;-;9.477936;-1.7918701;-4.5459137;-;-;-;-;-;-;-;-;-;-;-;-;-;-;-
1514208708484;-;-;8.004303;-2.1306458;-3.1728363;-;-;-;-;-;-;-;-;-;-;-;-;-;-;-
1514208708505;-;-;6.328369;-1.2016907;-2.8448334;-;-;-;-;-;-;-;-;-;-;-;-;-;-;-
1514208708525;-;-;4.73143;0.76753235;-2.6640625;-;-;-;-;-;-;-;-;-;-;-;-;-;-;-
1514208708545;-;-;4.746994;1.8700562;-2.7011719;-;-;-;-;-;-;-;-;-;-;-;-;-;-;-
1514208708566;-;-;5.8962097;1.7862701;-3.1081848;-;-;-;-;-;-;-;-;-;-;-;-;-;-;-
1514208708586;-;-;7.714615;1.1158905;-3.3200684;-;-;-;-;-;-;-;-;-;-;-;-;-;-;-
1514208708606;-;-;7.9935303;0.85491943;-3.3476105;-;-;-;-;-;-;-;-;-;-;-;-;-;-;-
1514208708627;-;-;7.4560394;1.7156372;-3.0303802;-;-;-;-;-;-;-;-;-;-;-;-;-;-;-
1514208708646;-;-;7.478775;2.921112;-2.5850525;-;-;-;-;-;-;-;-;-;-;-;-;-;-;-
1514208708667;-;-;8.162323;3.2156067;-2.9286194;-;-;-;-;-;-;-;-;-;-;-;-;-;-;-
1514208708687;-;-;8.934448;3.0911102;-3.5403442;-;-;-;-;-;-;-;-;-;-;-;-;-;-;-
1514208708707;-;-;9.313934;3.2491302;-4.3950653;-;-;-;-;-;-;-;-;-;-;-;-;-;-;-
1514208708728;-;-;9.647919;4.0571594;-4.572235;-;-;-;-;-;-;-;-;-;-;-;-;-;-;-
1514208708748;-;-;10.04776;3.6884613;-3.5559082;-;-;-;-;-;-;-;-;-;-;-;-;-;-;-
1514208708768;-;-;10.660675;1.8700562;-3.2530365;-;-;-;-;-;-;-;-;-;-;-;-;-;-;-
1514208708789;-;-;11.588425;0.012161255;-3.4601288;-;-;-;-;-;-;-;-;-;-;-;-;-;-;-
1514208708810;-;-;10.314713;-0.799469;-6.258957;-;-;-;-;-;-;-;-;-;-;-;-;-;-;-
1514208708830;-;-;9.473145;-0.51216125;-7.701462;-;-;-;-;-;-;-;-;-;-;-;-;-;-;-
1514208708850;-;-;9.210983;0.6861267;-4.9181976;-;-;-;-;-;-;-;-;-;-;-;-;-;-;-
1514208708871;-;-;8.191055;1.1242676;-6.421768;-;-;-;-;-;-;-;-;-;-;-;-;-;-;-
1514208708892;-;-;8.168304;2.205246;-6.595337;-;-;-;-;-;-;-;-;-;-;-;-;-;-;-
1514208708912;-;-;5.289276;2.984558;-6.2781067;-;-;-;-;-;-;-;-;-;-;-;-;-;-;-
1514208708932;-;-;5.2234344;1.798233;-5.7082977;-;-;-;-;-;-;-;-;-;-;-;-;-;-;-
1514208708953;-;-;6.5785522;1.8987885;-5.5778046;-;-;-;-;-;-;-;-;-;-;-;-;-;-;-
1514208708973;-;-;7.3423157;1.4893799;-5.259384;-;-;-;-;-;-;-;-;-;-;-;-;-;-;-
1514208708993;-;-;7.877411;0.5460663;-3.689972;-;-;-;-;-;-;-;-;-;-;-;-;-;-;-
1514208709013;-;-;8.1371765;-0.8497467;-2.310913;-;-;-;-;-;-;-;-;-;-;-;-;-;-;-
1514208709034;-;-;7.8965607;-1.7080688;-1.9146729;-;-;-;-;-;-;-;-;-;-;-;-;-;-;-
1514208709054;-;-;6.825165;-2.4215393;-2.5766754;-;-;-;-;-;-;-;-;-;-;-;-;-;-;-
1514208709074;-;-;5.87706;-3.179306;-2.7454681;-;-;-;-;-;-;-;-;-;-;-;-;-;-;-
1514208709095;-;-;5.6460114;-3.1015015;-2.4318237;-;-;-;-;-;-;-;-;-;-;-;-;-;-;-
1514208709115;-;-;6.86586;-2.4825897;-2.1505127;-;-;-;-;-;-;-;-;-;-;-;-;-;-;-
1514208709135;-;-;8.144363;-1.1813507;-2.6197662;-;-;-;-;-;-;-;-;-;-;-;-;-;-;-
1514208709156;-;-;8.84227;-0.210495;-3.2135315;-;-;-;-;-;-;-;-;-;-;-;-;-;-;-
1514208709176;-;-;8.186264;-0.3433838;-3.3607788;-;-;-;-;-;-;-;-;-;-;-;-;-;-;-
1514208709196;-;-;6.956848;-1.3597107;-4.0311584;-;-;-;-;-;-;-;-;-;-;-;-;-;-;-
1514208709216;-;-;7.3770294;-2.0971222;-4.029953;-;-;-;-;-;-;-;-;-;-;-;-;-;-;-
1514208709237;-;-;9.038605;-1.7188416;-3.420639;-;-;-;-;-;-;-;-;-;-;-;-;-;-;-
1514208709257;-;-;9.55455;-2.324585;-3.1620636;-;-;-;-;-;-;-;-;-;-;-;-;-;-;-
1514208709278;-;-;10.252457;-3.392395;-3.5092163;-;-;-;-;-;-;-;-;-;-;-;-;-;-;-
1514208709297;-;-;10.894104;-3.6234283;-4.1424866;-;-;-;-;-;-;-;-;-;-;-;-;-;-;-
1514208709317;-;-;11.778763;-2.7531433;-4.753006;-;-;-;-;-;-;-;-;-;-;-;-;-;-;-
1514208709338;-;-;11.665039;-0.41041565;-6.3882446;-;-;-;-;-;-;-;-;-;-;-;-;-;-;-
1514208709358;-;-;10.6271515;0.47543335;-9.61084;-;-;-;-;-;-;-;-;-;-;-;-;-;-;-
1514208709378;-;-;9.825104;-1.0496674;-10.447617;-;-;-;-;-;-;-;-;-;-;-;-;-;-;-
1514208709398;-;-;9.725739;-2.7675018;-9.442047;-;-;-;-;-;-;-;-;-;-;-;-;-;-;-
1514208709419;-;-;10.663071;-2.9434814;-2.7454681;-;-;-;-;-;-;-;-;-;-;-;-;-;-;-
1514208709439;-;-;9.360626;-1.5273132;-5.0522766;-;-;-;-;-;-;-;-;-;-;-;-;-;-;-
1514208709459;-;-;8.015076;-0.878479;-6.9796143;-;-;-;-;-;-;-;-;-;-;-;-;-;-;-
1514208709480;-;-;6.928116;0.68133545;-4.551895;-;-;-;-;-;-;-;-;-;-;-;-;-;-;-
1514208709500;-;-;5.746567;0.19412231;-2.693985;-;-;-;-;-;-;-;-;-;-;-;-;-;-;-
1514208709520;-;-;4.882263;-0.76834106;-1.0563507;-;-;-;-;-;-;-;-;-;-;-;-;-;-;-
1514208709540;-;-;4.920578;-0.8066559;-1.5363922;-;-;-;-;-;-;-;-;-;-;-;-;-;-;-
1514208709561;-;-;5.5789795;-0.7527771;-2.5455475;-;-;-;-;-;-;-;-;-;-;-;-;-;-;-
1514208709581;-;-;6.130844;-0.5732269;-3.3128967;-;-;-;-;-;-;-;-;-;-;-;-;-;-;-
1514208709601;-;-;5.866287;0.24559021;-3.7163086;-;-;-;-;-;-;-;-;-;-;-;-;-;-;-
1514208709621;-;-;5.5310974;1.8305664;-3.6420898;-;-;-;-;-;-;-;-;-;-;-;-;-;-;-
1514208709642;-;-;5.4987793;2.936676;-3.8503876;-;-;-;-;-;-;-;-;-;-;-;-;-;-;-
1514208709662;-;-;6.680313;2.7283783;-3.7079315;-;-;-;-;-;-;-;-;-;-;-;-;-;-;-
1514208709682;-;-;7.712219;1.3505249;-4.444153;-;-;-;-;-;-;-;-;-;-;-;-;-;-;-
1514208709702;-;-;8.149155;1.0021667;-4.27536;-;-;-;-;-;-;-;-;-;-;-;-;-;-;-
1514208709723;-;-;8.390976;1.3026428;-3.678009;-;-;-;-;-;-;-;-;-;-;-;-;-;-;-
1514208709743;-;-;8.90094;1.7048645;-3.302124;-;-;-;-;-;-;-;-;-;-;-;-;-;-;-
1514208709763;-;-;9.486313;2.4554443;-3.5307617;-;-;-;-;-;-;-;-;-;-;-;-;-;-;-
1514208709784;-;-;9.455185;3.0037231;-3.2853546;-;-;-;-;-;-;-;-;-;-;-;-;-;-;-
1514208709804;-;-;9.87178;2.229187;-2.994461;-;-;-;-;-;-;-;-;-;-;-;-;-;-;-
1514208709825;-;-;10.708557;0.88365173;-3.5343628;-;-;-;-;-;-;-;-;-;-;-;-;-;-;-
1514208709845;-;-;9.55455;0.45388794;-6.3726807;-;-;-;-;-;-;-;-;-;-;-;-;-;-;-
1514208709865;-;-;10.179443;1.9574585;-6.703079;-;-;-;-;-;-;-;-;-;-;-;-;-;-;-
1514208709885;-;-;11.071274;2.7379608;-8.03067;-;-;-;-;-;-;-;-;-;-;-;-;-;-;-
1514208709905;-;-;10.217743;2.3417206;-9.448029;-;-;-;-;-;-;-;-;-;-;-;-;-;-;-
1514208709926;-;-;8.911713;1.6102905;-7.7744904;-;-;-;-;-;-;-;-;-;-;-;-;-;-;-
1514208709946;-;-;8.119232;0.48143005;-5.9931946;-;-;-;-;-;-;-;-;-;-;-;-;-;-;-
1514208709966;-;-;7.442871;-0.5384979;-5.7358246;-;-;-;-;-;-;-;-;-;-;-;-;-;-;-
1514208709986;-;-;6.96402;-0.5648346;-6.1416473;-;-;-;-;-;-;-;-;-;-;-;-;-;-;-
1514208710007;-;-;6.13443;0.79745483;-4.9134216;-;-;-;-;-;-;-;-;-;-;-;-;-;-;-
1514208710027;-;-;5.818405;1.2296143;-3.7187042;-;-;-;-;-;-;-;-;-;-;-;-;-;-;-
1514208710047;-;-;5.9704285;1.1386414;-3.5630798;-;-;-;-;-;-;-;-;-;-;-;-;-;-;-
1514208710068;-;-;6.584549;0.079193115;-3.243454;-;-;-;-;-;-;-;-;-;-;-;-;-;-;-
1514208710089;-;-;7.154358;-1.4064026;-3.1943817;-;-;-;-;-;-;-;-;-;-;-;-;-;-;-
1514208710109;-;-;6.4085693;-2.558014;-3.8539886;-;-;-;-;-;-;-;-;-;-;-;-;-;-;-
1514208710129;-;-;5.7920685;-3.0859375;-3.6444855;-;-;-;-;-;-;-;-;-;-;-;-;-;-;-
1514208710149;-;-;6.639618;-2.518509;-2.4378052;-;-;-;-;-;-;-;-;-;-;-;-;-;-;-
1514208710170;-;-;7.5601807;-1.7032776;-2.1098022;-;-;-;-;-;-;-;-;-;-;-;-;-;-;-
1514208710190;-;-;7.319565;-1.115509;-2.2833862;-;-;-;-;-;-;-;-;-;-;-;-;-;-;-
1514208710210;-;-;6.4253235;-0.933548;-2.467743;-;-;-;-;-;-;-;-;-;-;-;-;-;-;-
1514208710230;-;-;6.240982;-1.4111938;-3.0710754;-;-;-;-;-;-;-;-;-;-;-;-;-;-;-
1514208710251;-;-;6.5246887;-2.3425293;-3.6325226;-;-;-;-;-;-;-;-;-;-;-;-;-;-;-
1514208710271;-;-;7.7648926;-2.863266;-3.935379;-;-;-;-;-;-;-;-;-;-;-;-;-;-;-
1514208710291;-;-;9.8203125;-2.5963135;-4.1544495;-;-;-;-;-;-;-;-;-;-;-;-;-;-;-
1514208710311;-;-;11.246048;-2.724411;-4.4082336;-;-;-;-;-;-;-;-;-;-;-;-;-;-;-
1514208710332;-;-;12.095993;-4.2411346;-4.123337;-;-;-;-;-;-;-;-;-;-;-;-;-;-;-
1514208710352;-;-;13.510971;-3.562378;-3.5966034;-;-;-;-;-;-;-;-;-;-;-;-;-;-;-
1514208710372;-;-;12.507797;-1.1873322;-5.2521973;-;-;-;-;-;-;-;-;-;-;-;-;-;-;-
1514208710393;-;-;9.837067;0.0025787354;-9.114044;-;-;-;-;-;-;-;-;-;-;-;-;-;-;-
1514208710413;-;-;7.7182007;-0.3984375;-8.8111725;-;-;-;-;-;-;-;-;-;-;-;-;-;-;-
1514208710433;-;-;6.76651;-1.5991364;-5.5969543;-;-;-;-;-;-;-;-;-;-;-;-;-;-;-
1514208710454;-;-;8.44603;-2.7459564;-6.705475;-;-;-;-;-;-;-;-;-;-;-;-;-;-;-
1514208710474;-;-;8.732147;-1.2400055;-6.1595917;-;-;-;-;-;-;-;-;-;-;-;-;-;-;-
1514208710494;-;-;7.805588;0.3030548;-8.001938;-;-;-;-;-;-;-;-;-;-;-;-;-;-;-
1514208710515;-;-;9.585678;0.46107483;-6.765335;-;-;-;-;-;-;-;-;-;-;-;-;-;-;-
1514208710534;-;-;9.410904;0.42037964;-4.8260345;-;-;-;-;-;-;-;-;-;-;-;-;-;-;-
1514208710554;-;-;8.110855;-0.65940857;-3.5367432;-;-;-;-;-;-;-;-;-;-;-;-;-;-;-
1514208710574;-;-;7.2321777;-1.4447021;-2.8891144;-;-;-;-;-;-;-;-;-;-;-;-;-;-;-
1514208710595;-;-;5.868683;-1.2376099;-3.8707428;-;-;-;-;-;-;-;-;-;-;-;-;-;-;-
1514208710616;-;-;4.451309;-0.42118835;-4.033554;-;-;-;-;-;-;-;-;-;-;-;-;-;-;-
1514208710636;-;-;3.4170227;0.8501282;-3.7342682;-;-;-;-;-;-;-;-;-;-;-;-;-;-;-
1514208710657;-;-;3.0758362;2.402771;-3.36557;-;-;-;-;-;-;-;-;-;-;-;-;-;-;-
1514208710677;-;-;3.8838806;2.8540802;-3.2997284;-;-;-;-;-;-;-;-;-;-;-;-;-;-;-
1514208710697;-;-;5.7333984;2.3764343;-3.136917;-;-;-;-;-;-;-;-;-;-;-;-;-;-;-
1514208710717;-;-;6.4612427;1.6438141;-3.2961273;-;-;-;-;-;-;-;-;-;-;-;-;-;-;-
1514208710737;-;-;7.557785;1.1410217;-3.6504822;-;-;-;-;-;-;-;-;-;-;-;-;-;-;-
1514208710758;-;-;7.956421;1.2834778;-4.0251617;-;-;-;-;-;-;-;-;-;-;-;-;-;-;-
1514208710778;-;-;8.620819;1.537262;-4.0754395;-;-;-;-;-;-;-;-;-;-;-;-;-;-;-
1514208710798;-;-;9.623978;1.9023895;-3.2003632;-;-;-;-;-;-;-;-;-;-;-;-;-;-;-
1514208710819;-;-;10.46196;2.742752;-3.4194336;-;-;-;-;-;-;-;-;-;-;-;-;-;-;-
1514208710839;-;-;10.6271515;3.675293;-3.7546234;-;-;-;-;-;-;-;-;-;-;-;-;-;-;-
1514208710859;-;-;10.823471;3.3616486;-3.1476898;-;-;-;-;-;-;-;-;-;-;-;-;-;-;-
1514208710880;-;-;10.489487;2.1789093;-3.527176;-;-;-;-;-;-;-;-;-;-;-;-;-;-;-
1514208710900;-;-;9.289993;1.0057526;-8.396973;-;-;-;-;-;-;-;-;-;-;-;-;-;-;-
1514208710920;-;-;9.82869;1.2296143;-8.430496;-;-;-;-;-;-;-;-;-;-;-;-;-;-;-
1514208710941;-;-;8.838684;2.2064514;-5.8806763;-;-;-;-;-;-;-;-;-;-;-;-;-;-;-
1514208710960;-;-;9.872986;0.6095123;-6.3643036;-;-;-;-;-;-;-;-;-;-;-;-;-;-;-
1514208710980;-;-;7.1651306;1.0967407;-7.7984314;-;-;-;-;-;-;-;-;-;-;-;-;-;-;-
1514208711000;-;-;5.7789;0.38446045;-7.052643;-;-;-;-;-;-;-;-;-;-;-;-;-;-;-
1514208711021;-;-;7.28006;-2.0684052;-5.602951;-;-;-;-;-;-;-;-;-;-;-;-;-;-;-
1514208711041;-;-;8.620819;-2.0695953;-4.6009674;-;-;-;-;-;-;-;-;-;-;-;-;-;-;-
1514208711062;-;-;8.984726;-0.33259583;-3.8025055;-;-;-;-;-;-;-;-;-;-;-;-;-;-;-
1514208711082;-;-;7.408142;0.927948;-3.4948578;-;-;-;-;-;-;-;-;-;-;-;-;-;-;-
1514208711102;-;-;6.410965;1.5947266;-3.8815155;-;-;-;-;-;-;-;-;-;-;-;-;-;-;-
1514208711122;-;-;5.3850555;1.4403076;-3.6875916;-;-;-;-;-;-;-;-;-;-;-;-;-;-;-
1514208711142;-;-;4.4249725;0.008575439;-3.3320465;-;-;-;-;-;-;-;-;-;-;-;-;-;-;-
1514208711163;-;-;3.8802948;-2.009735;-2.717926;-;-;-;-;-;-;-;-;-;-;-;-;-;-;-
1514208711183;-;-;3.7953033;-3.4857635;-2.2175446;-;-;-;-;-;-;-;-;-;-;-;-;-;-;-
1514208711203;-;-;5.1336517;-3.4319;-2.2642365;-;-;-;-;-;-;-;-;-;-;-;-;-;-;-
1514208711224;-;-;6.8000183;-2.480194;-3.270996;-;-;-;-;-;-;-;-;-;-;-;-;-;-;-
1514208711243;-;-;7.963608;-1.7188416;-3.765396;-;-;-;-;-;-;-;-;-;-;-;-;-;-;-
1514208711263;-;-;8.212601;-1.5045624;-3.9102478;-;-;-;-;-;-;-;-;-;-;-;-;-;-;-
1514208711283;-;-;7.4560394;-1.7906647;-3.6756134;-;-;-;-;-;-;-;-;-;-;-;-;-;-;-
1514208711303;-;-;7.930084;-2.5125275;-3.488861;-;-;-;-;-;-;-;-;-;-;-;-;-;-;-
1514208711324;-;-;8.553772;-3.4450684;-3.729477;-;-;-;-;-;-;-;-;-;-;-;-;-;-;-
1514208711343;-;-;9.521027;-3.8053894;-4.2526093;-;-;-;-;-;-;-;-;-;-;-;-;-;-;-
1514208711363;-;-;10.600815;-3.8772125;-4.8619385;-;-;-;-;-;-;-;-;-;-;-;-;-;-;-
1514208711384;-;-;11.58963;-3.6797028;-5.171997;-;-;-;-;-;-;-;-;-;-;-;-;-;-;-
1514208711403;-;-;12.177399;-3.3552856;-4.6632233;-;-;-;-;-;-;-;-;-;-;-;-;-;-;-
1514208711423;-;-;12.905243;-2.2826843;-4.551895;-;-;-;-;-;-;-;-;-;-;-;-;-;-;-
1514208711443;-;-;11.6710205;-0.49780273;-6.5534515;-;-;-;-;-;-;-;-;-;-;-;-;-;-;-
1514208711464;-;-;9.498291;-2.0061493;-7.4823914;-;-;-;-;-;-;-;-;-;-;-;-;-;-;-
1514208711484;-;-;8.891357;-2.7064514;-6.74498;-;-;-;-;-;-;-;-;-;-;-;-;-;-;-
1514208711504;-;-;10.059723;-2.5999146;-5.6364594;-;-;-;-;-;-;-;-;-;-;-;-;-;-;-
1514208711524;-;-;9.369003;-1.0831909;-6.394226;-;-;-;-;-;-;-;-;-;-;-;-;-;-;-
1514208711545;-;-;7.4284973;-0.44154358;-8.956024;-;-;-;-;-;-;-;-;-;-;-;-;-;-;-
1514208711565;-;-;7.1052856;0.48501587;-8.412537;-;-;-;-;-;-;-;-;-;-;-;-;-;-;-
1514208711585;-;-;7.727768;0.44192505;-5.733429;-;-;-;-;-;-;-;-;-;-;-;-;-;-;-
1514208711605;-;-;8.041412;-0.72883606;-4.0167847;-;-;-;-;-;-;-;-;-;-;-;-;-;-;-
1514208711626;-;-;7.7457275;-1.7296143;-2.1588898;-;-;-;-;-;-;-;-;-;-;-;-;-;-;-
1514208711646;-;-;6.0733795;-1.6063232;-3.0555115;-;-;-;-;-;-;-;-;-;-;-;-;-;-;-
1514208711666;-;-;4.563843;-0.88087463;-3.4302063;-;-;-;-;-;-;-;-;-;-;-;-;-;-;-
1514208711687;-;-;4.0167694;0.52093506;-3.6504822;-;-;-;-;-;-;-;-;-;-;-;-;-;-;-
1514208711707;-;-;4.466873;2.22081;-3.724701;-;-;-;-;-;-;-;-;-;-;-;-;-;-;-
1514208711727;-;-;5.4676514;3.2491302;-3.7582092;-;-;-;-;-;-;-;-;-;-;-;-;-;-;-
1514208711747;-;-;5.9225464;3.1725159;-4.3902893;-;-;-;-;-;-;-;-;-;-;-;-;-;-;-
1514208711768;-;-;6.218231;2.670929;-4.6129456;-;-;-;-;-;-;-;-;-;-;-;-;-;-;-
1514208711789;-;-;6.299637;1.7910614;-4.7637787;-;-;-;-;-;-;-;-;-;-;-;-;-;-;-
1514208711808;-;-;6.13443;1.0572357;-4.144882;-;-;-;-;-;-;-;-;-;-;-;-;-;-;-
1514208711828;-;-;6.70784;0.47305298;-3.7953186;-;-;-;-;-;-;-;-;-;-;-;-;-;-;-
1514208711849;-;-;8.352661;0.67774963;-3.46492;-;-;-;-;-;-;-;-;-;-;-;-;-;-;-
1514208711869;-;-;8.601654;1.5923309;-3.1644592;-;-;-;-;-;-;-;-;-;-;-;-;-;-;-
1514208711889;-;-;9.406113;1.5827637;-3.346405;-;-;-;-;-;-;-;-;-;-;-;-;-;-;-
1514208711910;-;-;10.663071;1.698883;-3.2901459;-;-;-;-;-;-;-;-;-;-;-;-;-;-;-
1514208711930;-;-;11.891296;2.4362946;-2.9537659;-;-;-;-;-;-;-;-;-;-;-;-;-;-;-
1514208711950;-;-;11.711731;2.9199219;-5.338394;-;-;-;-;-;-;-;-;-;-;-;-;-;-;-
1514208711970;-;-;9.57251;3.5124817;-8.308395;-;-;-;-;-;-;-;-;-;-;-;-;-;-;-
1514208711991;-;-;8.851852;3.4873505;-7.472824;-;-;-;-;-;-;-;-;-;-;-;-;-;-;-
1514208712011;-;-;9.345062;3.9230957;-2.5874481;-;-;-;-;-;-;-;-;-;-;-;-;-;-;-
1514208712031;-;-;8.923676;1.5145264;-4.6644135;-;-;-;-;-;-;-;-;-;-;-;-;-;-;-
1514208712052;-;-;7.062195;0.40242004;-9.041016;-;-;-;-;-;-;-;-;-;-;-;-;-;-;-
1514208712072;-;-;4.7888947;0.8597107;-8.1826935;-;-;-;-;-;-;-;-;-;-;-;-;-;-;-
1514208712092;-;-;5.7920685;-0.68933105;-5.987213;-;-;-;-;-;-;-;-;-;-;-;-;-;-;-
1514208712113;-;-;7.9839478;-1.7523651;-4.444153;-;-;-;-;-;-;-;-;-;-;-;-;-;-;-
1514208712132;-;-;10.008255;-1.7475739;-3.899475;-;-;-;-;-;-;-;-;-;-;-;-;-;-;-
1514208712152;-;-;9.698196;-0.3984375;-3.6815948;-;-;-;-;-;-;-;-;-;-;-;-;-;-;-
1514208712173;-;-;7.6870728;1.3553162;-4.160446;-;-;-;-;-;-;-;-;-;-;-;-;-;-;-
1514208712194;-;-;5.8279724;1.8365479;-4.4273987;-;-;-;-;-;-;-;-;-;-;-;-;-;-;-
1514208712215;-;-;3.8898773;1.1266632;-3.997635;-;-;-;-;-;-;-;-;-;-;-;-;-;-;-
1514208712236;-;-;3.244629;-0.3589325;-3.408661;-;-;-;-;-;-;-;-;-;-;-;-;-;-;-
1514208712256;-;-;3.497223;-1.9450989;-3.408661;-;-;-;-;-;-;-;-;-;-;-;-;-;-;-
1514208712276;-;-;4.9828186;-3.3277435;-3.2123413;-;-;-;-;-;-;-;-;-;-;-;-;-;-;-
1514208712296;-;-;7.0178986;-3.103897;-3.405075;-;-;-;-;-;-;-;-;-;-;-;-;-;-;-
1514208712317;-;-;8.229355;-2.2635193;-3.223114;-;-;-;-;-;-;-;-;-;-;-;-;-;-;-
1514208712337;-;-;9.263657;-1.404007;-3.1704407;-;-;-;-;-;-;-;-;-;-;-;-;-;-;-
1514208712357;-;-;8.203018;-1.0053711;-4.021576;-;-;-;-;-;-;-;-;-;-;-;-;-;-;-
1514208712378;-;-;7.336319;-1.2807007;-4.9050293;-;-;-;-;-;-;-;-;-;-;-;-;-;-;-
1514208712397;-;-;6.256546;-1.3381653;-5.065445;-;-;-;-;-;-;-;-;-;-;-;-;-;-;-
1514208712417;-;-;5.8986053;-1.617096;-3.4745026;-;-;-;-;-;-;-;-;-;-;-;-;-;-;-
1514208712437;-;-;6.5749664;-1.8313751;-2.8065186;-;-;-;-;-;-;-;-;-;-;-;-;-;-;-
1514208712458;-;-;7.3111877;-1.8924255;-3.0124207;-;-;-;-;-;-;-;-;-;-;-;-;-;-;-
1514208712478;-;-;7.995926;-1.9271393;-2.8687744;-;-;-;-;-;-;-;-;-;-;-;-;-;-;-
1514208712498;-;-;8.711792;-2.0504456;-2.3947144;-;-;-;-;-;-;-;-;-;-;-;-;-;-;-
1514208712519;-;-;8.770447;-2.456253;-2.2654266;-;-;-;-;-;-;-;-;-;-;-;-;-;-;-
1514208712539;-;-;8.909317;-3.3325348;-2.551529;-;-;-;-;-;-;-;-;-;-;-;-;-;-;-
1514208712559;-;-;9.473145;-3.8568726;-3.0399475;-;-;-;-;-;-;-;-;-;-;-;-;-;-;-
1514208712580;-;-;10.506241;-3.3480988;-3.0854492;-;-;-;-;-;-;-;-;-;-;-;-;-;-;-
1514208712600;-;-;12.147476;-1.6913147;-3.0459442;-;-;-;-;-;-;-;-;-;-;-;-;-;-;-
1514208712620;-;-;12.528152;0.4981842;-5.088196;-;-;-;-;-;-;-;-;-;-;-;-;-;-;-
1514208712640;-;-;14.421967;0.23242188;-7.191498;-;-;-;-;-;-;-;-;-;-;-;-;-;-;-
1514208712661;-;-;15.0672;-3.4259033;-4.8224335;-;-;-;-;-;-;-;-;-;-;-;-;-;-;-
1514208712681;-;-;12.549698;-7.1453094;-8.236572;-;-;-;-;-;-;-;-;-;-;-;-;-;-;-
1514208712701;-;-;9.900513;-4.0891113;-6.5426636;-;-;-;-;-;-;-;-;-;-;-;-;-;-;-
1514208712722;-;-;6.3427277;-2.0121307;-6.8622894;-;-;-;-;-;-;-;-;-;-;-;-;-;-;-
1514208712742;-;-;2.9788818;-0.03691101;-6.560623;-;-;-;-;-;-;-;-;-;-;-;-;-;-;-
1514208712762;-;-;3.359558;0.51374817;-4.5255585;-;-;-;-;-;-;-;-;-;-;-;-;-;-;-
1514208712783;-;-;7.238159;-2.988968;-5.3467712;-;-;-;-;-;-;-;-;-;-;-;-;-;-;-
1514208712803;-;-;9.133179;-3.7084198;-5.152832;-;-;-;-;-;-;-;-;-;-;-;-;-;-;-
1514208712823;-;-;9.288788;-2.8596802;-4.86792;-;-;-;-;-;-;-;-;-;-;-;-;-;-;-
1514208712843;-;-;8.380188;-1.0496674;-4.8547516;-;-;-;-;-;-;-;-;-;-;-;-;-;-;-
1514208712864;-;-;7.5386353;0.30426025;-4.1221313;-;-;-;-;-;-;-;-;-;-;-;-;-;-;-
1514208712884;-;-;6.905365;1.3648834;-4.184387;-;-;-;-;-;-;-;-;-;-;-;-;-;-;-
1514208712904;-;-;6.414551;1.853302;-4.938553;-;-;-;-;-;-;-;-;-;-;-;-;-;-;-
1514208712925;-;-;5.952469;1.6545868;-5.7633514;-;-;-;-;-;-;-;-;-;-;-;-;-;-;-
1514208712945;-;-;6.05542;0.9997711;-5.6436462;-;-;-;-;-;-;-;-;-;-;-;-;-;-;-
1514208712965;-;-;6.987961;0.5185394;-4.9253845;-;-;-;-;-;-;-;-;-;-;-;-;-;-;-
1514208712985;-;-;7.1651306;0.1797638;-4.84758;-;-;-;-;-;-;-;-;-;-;-;-;-;-;-
1514208713006;-;-;6.7724915;0.17018127;-4.6524506;-;-;-;-;-;-;-;-;-;-;-;-;-;-;-
1514208713026;-;-;6.3115997;0.50057983;-4.386688;-;-;-;-;-;-;-;-;-;-;-;-;-;-;-
1514208713046;-;-;5.924942;0.9483032;-4.2155;-;-;-;-;-;-;-;-;-;-;-;-;-;-;-
1514208713067;-;-;5.5777893;1.3972015;-3.9293976;-;-;-;-;-;-;-;-;-;-;-;-;-;-;-
1514208713087;-;-;5.6424255;1.2918701;-3.8767242;-;-;-;-;-;-;-;-;-;-;-;-;-;-;-
1514208713107;-;-;5.8806458;0.7328186;-3.8432007;-;-;-;-;-;-;-;-;-;-;-;-;-;-;-
1514208713128;-;-;6.391815;0.6095123;-3.559494;-;-;-;-;-;-;-;-;-;-;-;-;-;-;-
1514208713147;-;-;6.592926;0.76634216;-3.1704407;-;-;-;-;-;-;-;-;-;-;-;-;-;-;-
1514208713167;-;-;6.7377777;1.1003265;-3.0124207;-;-;-;-;-;-;-;-;-;-;-;-;-;-;-
1514208713187;-;-;6.999939;1.5396576;-2.5994263;-;-;-;-;-;-;-;-;-;-;-;-;-;-;-
1514208713208;-;-;7.9264984;1.6102905;-2.163681;-;-;-;-;-;-;-;-;-;-;-;-;-;-;-
1514208713228;-;-;9.163101;1.161377;-2.5204163;-;-;-;-;-;-;-;-;-;-;-;-;-;-;-
1514208713249;-;-;10.025009;0.61909485;-2.5168152;-;-;-;-;-;-;-;-;-;-;-;-;-;-;-
1514208713269;-;-;9.96875;0.7076721;-1.7003937;-;-;-;-;-;-;-;-;-;-;-;-;-;-;-
1514208713289;-;-;9.130783;1.1446228;-1.0755157;-;-;-;-;-;-;-;-;-;-;-;-;-;-;-
1514208713309;-;-;7.9671936;1.1960907;-0.04121399;-;-;-;-;-;-;-;-;-;-;-;-;-;-;-
1514208713330;-;-;8.000717;1.0895538;-3.5307617;-;-;-;-;-;-;-;-;-;-;-;-;-;-;-
1514208713350;-;-;8.988327;2.4554443;-12.270798;-;-;-;-;-;-;-;-;-;-;-;-;-;-;-
1514208713370;-;-;8.077332;5.3524323;-10.701401;-;-;-;-;-;-;-;-;-;-;-;-;-;-;-
1514208713391;-;-;9.620392;5.16568;-4.0167847;-;-;-;-;-;-;-;-;-;-;-;-;-;-;-
1514208713411;-;-;10.199783;1.8042297;-5.4389496;-;-;-;-;-;-;-;-;-;-;-;-;-;-;-
1514208713431;-;-;9.2708435;-2.324585;-8.653152;-;-;-;-;-;-;-;-;-;-;-;-;-;-;-
1514208713452;-;-;8.577713;-4.2878265;-8.489151;-;-;-;-;-;-;-;-;-;-;-;-;-;-;-
1514208713472;-;-;8.545395;-0.90960693;-5.5227356;-;-;-;-;-;-;-;-;-;-;-;-;-;-;-
1514208713492;-;-;9.130783;1.7910614;-4.222687;-;-;-;-;-;-;-;-;-;-;-;-;-;-;-
1514208713512;-;-;10.726517;1.9227295;-5.314438;-;-;-;-;-;-;-;-;-;-;-;-;-;-;-
1514208713533;-;-;9.98671;1.5145264;-6.090164;-;-;-;-;-;-;-;-;-;-;-;-;-;-;-
1514208713552;-;-;7.6224365;0.5771942;-6.5534515;-;-;-;-;-;-;-;-;-;-;-;-;-;-;-
1514208713572;-;-;5.9452972;-1.2268372;-5.4676666;-;-;-;-;-;-;-;-;-;-;-;-;-;-;-
1514208713593;-;-;4.434555;-2.87883;-4.3292236;-;-;-;-;-;-;-;-;-;-;-;-;-;-;-
1514208713612;-;-;3.8599396;-3.1326141;-4.120941;-;-;-;-;-;-;-;-;-;-;-;-;-;-;-
1514208713632;-;-;6.498352;-2.818985;-3.6875916;-;-;-;-;-;-;-;-;-;-;-;-;-;-;-
1514208713653;-;-;9.108032;-1.9750214;-3.0435486;-;-;-;-;-;-;-;-;-;-;-;-;-;-;-
1514208713672;-;-;9.085281;-2.6082916;-3.5403442;-;-;-;-;-;-;-;-;-;-;-;-;-;-;-
1514208713692;-;-;7.375824;-3.526474;-3.9174347;-;-;-;-;-;-;-;-;-;-;-;-;-;-;-
1514208713712;-;-;6.023102;-3.1924744;-2.9741058;-;-;-;-;-;-;-;-;-;-;-;-;-;-;-
1514208713733;-;-;6.0578156;-1.8289795;-2.2833862;-;-;-;-;-;-;-;-;-;-;-;-;-;-;-
1514208713753;-;-;6.9987335;-1.146637;-2.2905731;-;-;-;-;-;-;-;-;-;-;-;-;-;-;-
1514208713773;-;-;8.459198;-0.6246948;-2.524002;-;-;-;-;-;-;-;-;-;-;-;-;-;-;-
1514208713794;-;-;9.771225;0.0061798096;-2.3791504;-;-;-;-;-;-;-;-;-;-;-;-;-;-;-
1514208713813;-;-;10.223724;-0.29309082;-3.1548767;-;-;-;-;-;-;-;-;-;-;-;-;-;-;-
1514208713833;-;-;10.372177;-1.1502228;-3.1716309;-;-;-;-;-;-;-;-;-;-;-;-;-;-;-
1514208713854;-;-;10.4882965;-0.5384979;-2.8855286;-;-;-;-;-;-;-;-;-;-;-;-;-;-;-
1514208713873;-;-;9.90889;0.4000244;-2.172058;-;-;-;-;-;-;-;-;-;-;-;-;-;-;-
1514208713893;-;-;9.323517;0.083984375;-2.5838623;-;-;-;-;-;-;-;-;-;-;-;-;-;-;-
1514208713914;-;-;9.656311;-0.65701294;-5.4317627;-;-;-;-;-;-;-;-;-;-;-;-;-;-;-
1514208713933;-;-;9.863403;-0.51097107;-10.017853;-;-;-;-;-;-;-;-;-;-;-;-;-;-;-
1514208713953;-;-;9.691025;0.9889984;-12.5186;-;-;-;-;-;-;-;-;-;-;-;-;-;-;-
1514208713974;-;-;9.182251;2.6146545;-7.9085693;-;-;-;-;-;-;-;-;-;-;-;-;-;-;-
1514208713994;-;-;7.700241;3.3508759;-4.8308105;-;-;-;-;-;-;-;-;-;-;-;-;-;-;-
1514208714014;-;-;7.9205017;0.8130188;-6.3116302;-;-;-;-;-;-;-;-;-;-;-;-;-;-;-
1514208714034;-;-;8.894943;-1.8002472;-6.504364;-;-;-;-;-;-;-;-;-;-;-;-;-;-;-
1514208714054;-;-;9.453995;-2.063614;-4.9134216;-;-;-;-;-;-;-;-;-;-;-;-;-;-;-
1514208714074;-;-;8.868607;0.031311035;-3.575058;-;-;-;-;-;-;-;-;-;-;-;-;-;-;-
1514208714094;-;-;7.8833923;1.5336761;-4.002426;-;-;-;-;-;-;-;-;-;-;-;-;-;-;-
1514208714114;-;-;7.264496;1.8305664;-3.7210999;-;-;-;-;-;-;-;-;-;-;-;-;-;-;-
1514208714134;-;-;7.485962;1.6665497;-2.9597473;-;-;-;-;-;-;-;-;-;-;-;-;-;-;-
1514208714155;-;-;6.8826294;1.4163666;-1.8751678;-;-;-;-;-;-;-;-;-;-;-;-;-;-;-
1514208714176;-;-;5.696289;1.7419739;-1.1832428;-;-;-;-;-;-;-;-;-;-;-;-;-;-;-
1514208714196;-;-;5.2461853;1.7874603;-1.2838135;-;-;-;-;-;-;-;-;-;-;-;-;-;-;-
1514208714216;-;-;6.5007477;1.4642487;-2.1253662;-;-;-;-;-;-;-;-;-;-;-;-;-;-;-
1514208714237;-;-;7.940857;0.74957275;-2.6329346;-;-;-;-;-;-;-;-;-;-;-;-;-;-;-
1514208714257;-;-;8.286819;0.42156982;-2.1983948;-;-;-;-;-;-;-;-;-;-;-;-;-;-;-
1514208714277;-;-;8.031845;0.55085754;-1.7422943;-;-;-;-;-;-;-;-;-;-;-;-;-;-;-
1514208714298;-;-;7.614044;1.1673584;-1.8799591;-;-;-;-;-;-;-;-;-;-;-;-;-;-;-
1514208714318;-;-;7.576935;2.3752441;-2.3827515;-;-;-;-;-;-;-;-;-;-;-;-;-;-;-
1514208714338;-;-;8.036621;3.5759277;-2.9489746;-;-;-;-;-;-;-;-;-;-;-;-;-;-;-
1514208714359;-;-;8.610046;3.9889374;-2.922638;-;-;-;-;-;-;-;-;-;-;-;-;-;-;-
1514208714379;-;-;9.199005;4.1397705;-2.7203217;-;-;-;-;-;-;-;-;-;-;-;-;-;-;-
1514208714399;-;-;10.20697;4.208008;-2.1744537;-;-;-;-;-;-;-;-;-;-;-;-;-;-;-
1514208714420;-;-;12.009811;4.0009003;-1.8739777;-;-;-;-;-;-;-;-;-;-;-;-;-;-;-
1514208714440;-;-;13.98262;3.5555878;-2.1313477;-;-;-;-;-;-;-;-;-;-;-;-;-;-;-
1514208714460;-;-;16.516891;4.01886;-6.1979065;-;-;-;-;-;-;-;-;-;-;-;-;-;-;-
1514208714481;-;-;16.363663;5.723526;-5.26416;-;-;-;-;-;-;-;-;-;-;-;-;-;-;-
1514208714500;-;-;11.856583;4.7957764;-2.9489746;-;-;-;-;-;-;-;-;-;-;-;-;-;-;-
1514208714520;-;-;6.8598785;3.4729767;-5.029541;-;-;-;-;-;-;-;-;-;-;-;-;-;-;-
1514208714540;-;-;4.1005554;2.9199219;-7.5506287;-;-;-;-;-;-;-;-;-;-;-;-;-;-;-
1514208714561;-;-;4.062256;0.8800659;-7.4799957;-;-;-;-;-;-;-;-;-;-;-;-;-;-;-
1514208714580;-;-;6.0422516;-1.5799866;-6.8587036;-;-;-;-;-;-;-;-;-;-;-;-;-;-;-
1514208714601;-;-;8.395752;-2.4347076;-5.947708;-;-;-;-;-;-;-;-;-;-;-;-;-;-;-
1514208714621;-;-;10.04776;-1.0951538;-5.6651917;-;-;-;-;-;-;-;-;-;-;-;-;-;-;-
1514208714642;-;-;9.343857;0.38206482;-4.9457397;-;-;-;-;-;-;-;-;-;-;-;-;-;-;-
1514208714662;-;-;7.8151703;1.2547607;-4.1029816;-;-;-;-;-;-;-;-;-;-;-;-;-;-;-
1514208714682;-;-;5.675949;1.4307251;-3.0866394;-;-;-;-;-;-;-;-;-;-;-;-;-;-;-
1514208714703;-;-;4.699112;0.24679565;-2.5491486;-;-;-;-;-;-;-;-;-;-;-;-;-;-;-
1514208714722;-;-;4.5231323;-0.6941223;-2.515625;-;-;-;-;-;-;-;-;-;-;-;-;-;-;-
1514208714742;-;-;4.4010315;-2.2371826;-2.6712494;-;-;-;-;-;-;-;-;-;-;-;-;-;-;-
1514208714762;-;-;5.276108;-3.3097992;-2.8508148;-;-;-;-;-;-;-;-;-;-;-;-;-;-;-
1514208714783;-;-;6.9975433;-3.570755;-2.8232727;-;-;-;-;-;-;-;-;-;-;-;-;-;-;-
1514208714803;-;-;8.578918;-2.9626312;-2.63414;-;-;-;-;-;-;-;-;-;-;-;-;-;-;-
1514208714823;-;-;10.094437;-1.5584412;-2.6568756;-;-;-;-;-;-;-;-;-;-;-;-;-;-;-
1514208714844;-;-;10.309921;0.04927063;-2.9082794;-;-;-;-;-;-;-;-;-;-;-;-;-;-;-
1514208714864;-;-;8.993118;0.59394836;-3.5702667;-;-;-;-;-;-;-;-;-;-;-;-;-;-;-
1514208714884;-;-;8.285629;-0.009384155;-3.4146423;-;-;-;-;-;-;-;-;-;-;-;-;-;-;-
1514208714905;-;-;8.680664;-0.9898071;-2.8220825;-;-;-;-;-;-;-;-;-;-;-;-;-;-;-
1514208714924;-;-;8.993118;-2.0731812;-2.483307;-;-;-;-;-;-;-;-;-;-;-;-;-;-;-
1514208714944;-;-;9.012268;-2.6442108;-2.1277618;-;-;-;-;-;-;-;-;-;-;-;-;-;-;-
1514208714964;-;-;9.479141;-3.1302338;-2.4773102;-;-;-;-;-;-;-;-;-;-;-;-;-;-;-
1514208714985;-;-;9.992691;-2.9913635;-3.072281;-;-;-;-;-;-;-;-;-;-;-;-;-;-;-
1514208715005;-;-;10.367386;-2.590332;-3.2757874;-;-;-;-;-;-;-;-;-;-;-;-;-;-;-
1514208715025;-;-;10.375763;-2.6657562;-5.851944;-;-;-;-;-;-;-;-;-;-;-;-;-;-;-
1514208715046;-;-;11.869751;-2.7435608;-9.044617;-;-;-;-;-;-;-;-;-;-;-;-;-;-;-
1514208715066;-;-;14.766724;-1.0341034;-5.385071;-;-;-;-;-;-;-;-;-;-;-;-;-;-;-
1514208715086;-;-;14.581177;-2.0217133;-4.1987457;-;-;-;-;-;-;-;-;-;-;-;-;-;-;-
1514208715106;-;-;10.361404;-3.5575867;-9.709;-;-;-;-;-;-;-;-;-;-;-;-;-;-;-
1514208715127;-;-;5.917755;-2.1916962;-7.7601166;-;-;-;-;-;-;-;-;-;-;-;-;-;-;-
1514208715147;-;-;5.2593536;0.09715271;-3.8060913;-;-;-;-;-;-;-;-;-;-;-;-;-;-;-
1514208715167;-;-;5.313217;1.1805267;-3.3739471;-;-;-;-;-;-;-;-;-;-;-;-;-;-;-
