TimeStamp[ms];Prox[Cm];Lux[lux];AccX[m/s^2];AccY[m/s^2];AccZ[m/s^2];GyroX[rad/s];GyroY[rad/s];GyroZ[rad/s];MagnX[uT];MagnY[uT];MagnZ[uT];OrienYaw[degrees];OrienPitch[degrees];OrienRoll[degrees];Press[Pa];Temp[C°];Batt[%];Lat;Lng;Speed[m/s]
1514102994556;-;-;8.4292755;-0.7563782;1.0876465;-;-;-;-;-;-;-;-;-;-;-;-;-;-;-
1514102994559;-;-;8.4292755;-0.7563782;1.0876465;-;-;-;-;-;-;-;-;-;-;-;-;-;-;-
1514102994578;-;-;8.837494;-0.9646759;1.7460632;-;-;-;-;-;-;-;-;-;-;-;-;-;-;-
1514102994598;-;-;9.404907;-1.0472717;2.282364;-;-;-;-;-;-;-;-;-;-;-;-;-;-;-
1514102994619;-;-;8.405334;-0.44752502;1.6359253;-;-;-;-;-;-;-;-;-;-;-;-;-;-;-
1514102994639;-;-;9.184647;-0.5277252;1.3833313;-;-;-;-;-;-;-;-;-;-;-;-;-;-;-
1514102994660;-;-;9.15712;-0.49301147;0.37417603;-;-;-;-;-;-;-;-;-;-;-;-;-;-;-
1514102994680;-;-;9.464767;-0.7503967;0.68782043;-;-;-;-;-;-;-;-;-;-;-;-;-;-;-
1514102994700;-;-;9.656311;-0.71447754;0.89611816;-;-;-;-;-;-;-;-;-;-;-;-;-;-;-
1514102994720;-;-;9.47554;-0.55166626;0.58366394;-;-;-;-;-;-;-;-;-;-;-;-;-;-;-
1514102994740;-;-;9.267242;-0.5241394;0.33467102;-;-;-;-;-;-;-;-;-;-;-;-;-;-;-
1514102994761;-;-;9.15712;-0.44992065;0.1144104;-;-;-;-;-;-;-;-;-;-;-;-;-;-;-
1514102994781;-;-;9.194229;0.11152649;0.12876892;-;-;-;-;-;-;-;-;-;-;-;-;-;-;-
1514102994809;-;-;7.9145203;-0.5217438;-1.9146729;-;-;-;-;-;-;-;-;-;-;-;-;-;-;-
1514102994822;-;-;9.513855;-0.7815094;-0.8971405;-;-;-;-;-;-;-;-;-;-;-;-;-;-;-
1514102994842;-;-;10.685806;-1.190918;-2.1660767;-;-;-;-;-;-;-;-;-;-;-;-;-;-;-
1514102994863;-;-;8.96199;-0.4451294;-0.10586548;-;-;-;-;-;-;-;-;-;-;-;-;-;-;-
1514102994882;-;-;9.118805;1.734787;-2.7406769;-;-;-;-;-;-;-;-;-;-;-;-;-;-;-
1514102994902;-;-;9.063736;1.4822083;-2.4066925;-;-;-;-;-;-;-;-;-;-;-;-;-;-;-
1514102994923;-;-;10.002274;-0.14585876;-2.1014252;-;-;-;-;-;-;-;-;-;-;-;-;-;-;-
1514102994942;-;-;8.751297;-0.047698975;-3.8683472;-;-;-;-;-;-;-;-;-;-;-;-;-;-;-
1514102994962;-;-;8.022263;0.40361023;-3.2422638;-;-;-;-;-;-;-;-;-;-;-;-;-;-;-
1514102994983;-;-;7.02269;-0.02494812;-2.8460236;-;-;-;-;-;-;-;-;-;-;-;-;-;-;-
1514102995003;-;-;6.7688904;0.09475708;-2.685608;-;-;-;-;-;-;-;-;-;-;-;-;-;-;-
1514102995023;-;-;6.6575623;0.20010376;-2.9274292;-;-;-;-;-;-;-;-;-;-;-;-;-;-;-
1514102995043;-;-;6.202667;0.012161255;-3.693573;-;-;-;-;-;-;-;-;-;-;-;-;-;-;-
1514102995064;-;-;6.8682556;-0.8174286;-4.1376953;-;-;-;-;-;-;-;-;-;-;-;-;-;-;-
1514102995084;-;-;7.6894684;-1.0460815;-4.3950653;-;-;-;-;-;-;-;-;-;-;-;-;-;-;-
1514102995104;-;-;7.588913;-1.3465424;-4.278946;-;-;-;-;-;-;-;-;-;-;-;-;-;-;-
1514102995125;-;-;7.4680023;-0.96946716;-4.515976;-;-;-;-;-;-;-;-;-;-;-;-;-;-;-
1514102995145;-;-;7.2477417;-1.1107178;-4.1185455;-;-;-;-;-;-;-;-;-;-;-;-;-;-;-
1514102995165;-;-;6.663559;-0.68455505;-3.2159271;-;-;-;-;-;-;-;-;-;-;-;-;-;-;-
1514102995185;-;-;6.062607;-1.2603607;-2.4078827;-;-;-;-;-;-;-;-;-;-;-;-;-;-;-
1514102995206;-;-;5.735794;-1.5847626;-3.0531158;-;-;-;-;-;-;-;-;-;-;-;-;-;-;-
1514102995226;-;-;7.238159;-1.5955505;-2.6568756;-;-;-;-;-;-;-;-;-;-;-;-;-;-;-
1514102995246;-;-;6.612076;-1.2878876;-3.144104;-;-;-;-;-;-;-;-;-;-;-;-;-;-;-
1514102995267;-;-;7.6236267;-0.680954;-3.3057098;-;-;-;-;-;-;-;-;-;-;-;-;-;-;-
1514102995287;-;-;6.260132;-0.29309082;-3.326065;-;-;-;-;-;-;-;-;-;-;-;-;-;-;-
1514102995307;-;-;8.138382;-0.53730774;-4.6201324;-;-;-;-;-;-;-;-;-;-;-;-;-;-;-
1514102995328;-;-;9.06015;0.2695465;-4.9852448;-;-;-;-;-;-;-;-;-;-;-;-;-;-;-
1514102995348;-;-;9.940018;0.6286621;-4.27536;-;-;-;-;-;-;-;-;-;-;-;-;-;-;-
1514102995368;-;-;8.97995;0.20370483;-4.2933197;-;-;-;-;-;-;-;-;-;-;-;-;-;-;-
1514102995388;-;-;7.2261963;1.3469238;-4.5818176;-;-;-;-;-;-;-;-;-;-;-;-;-;-;-
1514102995409;-;-;8.266464;1.1685638;-5.753784;-;-;-;-;-;-;-;-;-;-;-;-;-;-;-
1514102995429;-;-;7.611664;0.8740692;-5.5682373;-;-;-;-;-;-;-;-;-;-;-;-;-;-;-
1514102995449;-;-;8.340698;0.8992157;-5.231842;-;-;-;-;-;-;-;-;-;-;-;-;-;-;-
1514102995470;-;-;9.12001;0.20249939;-4.3986664;-;-;-;-;-;-;-;-;-;-;-;-;-;-;-
1514102995490;-;-;9.552155;0.07321167;-4.6237183;-;-;-;-;-;-;-;-;-;-;-;-;-;-;-
1514102995510;-;-;9.099655;1.0213165;-4.4034576;-;-;-;-;-;-;-;-;-;-;-;-;-;-;-
1514102995531;-;-;8.966782;1.477417;-4.086212;-;-;-;-;-;-;-;-;-;-;-;-;-;-;-
1514102995551;-;-;9.035004;1.1960907;-4.266983;-;-;-;-;-;-;-;-;-;-;-;-;-;-;-
1514102995571;-;-;9.027832;0.8716736;-4.476471;-;-;-;-;-;-;-;-;-;-;-;-;-;-;-
1514102995592;-;-;9.821503;0.20010376;-3.3128967;-;-;-;-;-;-;-;-;-;-;-;-;-;-;-
1514102995612;-;-;9.882553;0.21687317;-2.2019806;-;-;-;-;-;-;-;-;-;-;-;-;-;-;-
1514102995632;-;-;9.401321;0.1330719;-2.203186;-;-;-;-;-;-;-;-;-;-;-;-;-;-;-
1514102995653;-;-;10.193802;-1.036499;-3.097412;-;-;-;-;-;-;-;-;-;-;-;-;-;-;-
1514102995672;-;-;12.046921;-1.6434326;-3.5738678;-;-;-;-;-;-;-;-;-;-;-;-;-;-;-
1514102995692;-;-;13.245209;-1.0604401;-3.5104065;-;-;-;-;-;-;-;-;-;-;-;-;-;-;-
1514102995713;-;-;13.191345;-0.35295105;-3.5487213;-;-;-;-;-;-;-;-;-;-;-;-;-;-;-
1514102995733;-;-;12.698135;-1.2005005;-2.1253662;-;-;-;-;-;-;-;-;-;-;-;-;-;-;-
1514102995753;-;-;12.111557;-1.4985809;-1.2167664;-;-;-;-;-;-;-;-;-;-;-;-;-;-;-
1514102995774;-;-;10.852203;-0.26437378;-0.7666626;-;-;-;-;-;-;-;-;-;-;-;-;-;-;-
1514102995794;-;-;9.661087;-0.064453125;0.24967957;-;-;-;-;-;-;-;-;-;-;-;-;-;-;-
1514102995814;-;-;8.395752;-0.68814087;1.1499023;-;-;-;-;-;-;-;-;-;-;-;-;-;-;-
1514102995834;-;-;7.8438873;-1.0688171;1.339035;-;-;-;-;-;-;-;-;-;-;-;-;-;-;-
1514102995855;-;-;7.3028107;-0.2392273;1.7915497;-;-;-;-;-;-;-;-;-;-;-;-;-;-;-
1514102995875;-;-;7.928894;-0.41879272;1.725708;-;-;-;-;-;-;-;-;-;-;-;-;-;-;-
1514102995895;-;-;8.589691;-0.83657837;1.9507599;-;-;-;-;-;-;-;-;-;-;-;-;-;-;-
1514102995916;-;-;9.167892;-0.37449646;0.8614044;-;-;-;-;-;-;-;-;-;-;-;-;-;-;-
1514102995936;-;-;10.268021;0.76634216;0.49987793;-;-;-;-;-;-;-;-;-;-;-;-;-;-;-
1514102995956;-;-;10.54216;1.2451782;0.4005127;-;-;-;-;-;-;-;-;-;-;-;-;-;-;-
1514102995977;-;-;10.737289;1.0560303;0.78956604;-;-;-;-;-;-;-;-;-;-;-;-;-;-;-
1514102995997;-;-;10.333862;-0.21768188;0.35502625;-;-;-;-;-;-;-;-;-;-;-;-;-;-;-
1514102996017;-;-;9.347458;0.40361023;0.1946106;-;-;-;-;-;-;-;-;-;-;-;-;-;-;-
1514102996037;-;-;8.01268;1.2200317;-0.11424255;-;-;-;-;-;-;-;-;-;-;-;-;-;-;-
1514102996058;-;-;9.169083;0.095962524;0.28559875;-;-;-;-;-;-;-;-;-;-;-;-;-;-;-
1514102996078;-;-;9.75087;0.9243469;0.28320313;-;-;-;-;-;-;-;-;-;-;-;-;-;-;-
1514102996098;-;-;9.037399;0.47543335;0.22573853;-;-;-;-;-;-;-;-;-;-;-;-;-;-;-
1514102996119;-;-;9.029022;0.89801025;0.8230896;-;-;-;-;-;-;-;-;-;-;-;-;-;-;-
1514102996139;-;-;9.367798;0.5736084;1.3749542;-;-;-;-;-;-;-;-;-;-;-;-;-;-;-
1514102996160;-;-;10.153107;0.26235962;1.191803;-;-;-;-;-;-;-;-;-;-;-;-;-;-;-
1514102996180;-;-;8.702209;-0.6522217;-0.43026733;-;-;-;-;-;-;-;-;-;-;-;-;-;-;-
1514102996200;-;-;7.727768;-0.076416016;-0.028045654;-;-;-;-;-;-;-;-;-;-;-;-;-;-;-
1514102996221;-;-;8.857834;-0.48582458;1.0900421;-;-;-;-;-;-;-;-;-;-;-;-;-;-;-
1514102996241;-;-;8.859039;0.14624023;1.835846;-;-;-;-;-;-;-;-;-;-;-;-;-;-;-
1514102996261;-;-;9.319916;-0.8581238;2.10878;-;-;-;-;-;-;-;-;-;-;-;-;-;-;-
1514102996282;-;-;9.797562;-0.41281128;1.7580261;-;-;-;-;-;-;-;-;-;-;-;-;-;-;-
1514102996302;-;-;9.420471;-0.06324768;0.99786377;-;-;-;-;-;-;-;-;-;-;-;-;-;-;-
1514102996322;-;-;9.108032;-0.40802002;1.0804749;-;-;-;-;-;-;-;-;-;-;-;-;-;-;-
1514102996343;-;-;9.171478;-0.6330719;0.5992279;-;-;-;-;-;-;-;-;-;-;-;-;-;-;-
1514102996363;-;-;9.305557;-0.47984314;-0.0029144287;-;-;-;-;-;-;-;-;-;-;-;-;-;-;-
1514102996383;-;-;8.740524;-0.41041565;0.55015564;-;-;-;-;-;-;-;-;-;-;-;-;-;-;-
1514102996404;-;-;8.748901;-0.28710938;1.2791901;-;-;-;-;-;-;-;-;-;-;-;-;-;-;-
1514102996424;-;-;9.067337;-0.16859436;1.4001007;-;-;-;-;-;-;-;-;-;-;-;-;-;-;-
1514102996444;-;-;9.082901;0.15342712;1.3450317;-;-;-;-;-;-;-;-;-;-;-;-;-;-;-
1514102996465;-;-;9.477936;0.43952942;1.3462219;-;-;-;-;-;-;-;-;-;-;-;-;-;-;-
1514102996485;-;-;9.59166;0.6729584;1.4455872;-;-;-;-;-;-;-;-;-;-;-;-;-;-;-
1514102996505;-;-;9.228943;0.4514923;1.5796661;-;-;-;-;-;-;-;-;-;-;-;-;-;-;-
1514102996525;-;-;8.751297;0.43354797;1.7700043;-;-;-;-;-;-;-;-;-;-;-;-;-;-;-
1514102996546;-;-;8.435257;0.37727356;1.6024017;-;-;-;-;-;-;-;-;-;-;-;-;-;-;-
1514102996565;-;-;8.607651;0.48860168;1.4683228;-;-;-;-;-;-;-;-;-;-;-;-;-;-;-
1514102996585;-;-;9.06134;0.75675964;1.3749542;-;-;-;-;-;-;-;-;-;-;-;-;-;-;-
1514102996605;-;-;9.525818;0.9483032;1.1534882;-;-;-;-;-;-;-;-;-;-;-;-;-;-;-
1514102996626;-;-;9.711365;0.75675964;1.1666565;-;-;-;-;-;-;-;-;-;-;-;-;-;-;-
1514102996646;-;-;9.542587;0.4766388;1.239685;-;-;-;-;-;-;-;-;-;-;-;-;-;-;-
1514102996666;-;-;8.995499;0.46705627;1.5006561;-;-;-;-;-;-;-;-;-;-;-;-;-;-;-
1514102996687;-;-;8.562149;0.6466217;1.835846;-;-;-;-;-;-;-;-;-;-;-;-;-;-;-
1514102996707;-;-;8.637573;0.52093506;2.093216;-;-;-;-;-;-;-;-;-;-;-;-;-;-;-
1514102996727;-;-;8.910507;0.14503479;2.0177917;-;-;-;-;-;-;-;-;-;-;-;-;-;-;-
1514102996747;-;-;9.029022;-0.00819397;2.0333557;-;-;-;-;-;-;-;-;-;-;-;-;-;-;-
1514102996768;-;-;9.131973;0.055252075;1.6730347;-;-;-;-;-;-;-;-;-;-;-;-;-;-;-
1514102996788;-;-;8.887772;0.4479065;1.7687988;-;-;-;-;-;-;-;-;-;-;-;-;-;-;-
1514102996808;-;-;8.944031;0.68014526;1.9747009;-;-;-;-;-;-;-;-;-;-;-;-;-;-;-
1514102996829;-;-;9.147537;0.9171753;1.9411774;-;-;-;-;-;-;-;-;-;-;-;-;-;-;-
1514102996849;-;-;9.380966;0.9016113;1.9471741;-;-;-;-;-;-;-;-;-;-;-;-;-;-;-
1514102996869;-;-;9.243301;0.84773254;1.8753357;-;-;-;-;-;-;-;-;-;-;-;-;-;-;-
1514102996889;-;-;8.838684;0.68133545;1.7268982;-;-;-;-;-;-;-;-;-;-;-;-;-;-;-
1514102996910;-;-;8.572922;0.48501587;1.7137299;-;-;-;-;-;-;-;-;-;-;-;-;-;-;-
1514102996930;-;-;8.84227;0.39881897;2.1051788;-;-;-;-;-;-;-;-;-;-;-;-;-;-;-
1514102996950;-;-;9.272034;0.30665588;2.1698303;-;-;-;-;-;-;-;-;-;-;-;-;-;-;-
1514102996971;-;-;9.33548;0.259964;2.0034332;-;-;-;-;-;-;-;-;-;-;-;-;-;-;-
1514102996991;-;-;8.930862;0.25756836;2.0429382;-;-;-;-;-;-;-;-;-;-;-;-;-;-;-
1514102997011;-;-;8.539413;0.21447754;2.290741;-;-;-;-;-;-;-;-;-;-;-;-;-;-;-
1514102997032;-;-;8.702209;0.20010376;2.5277557;-;-;-;-;-;-;-;-;-;-;-;-;-;-;-
1514102997052;-;-;9.171478;0.09475708;2.4703064;-;-;-;-;-;-;-;-;-;-;-;-;-;-;-
1514102997072;-;-;9.282806;0.0181427;1.962738;-;-;-;-;-;-;-;-;-;-;-;-;-;-;-
1514102997093;-;-;8.72377;-0.06803894;1.8753357;-;-;-;-;-;-;-;-;-;-;-;-;-;-;-
1514102997113;-;-;9.052963;0.124694824;2.7157135;-;-;-;-;-;-;-;-;-;-;-;-;-;-;-
1514102997134;-;-;9.33548;0.47184753;3.2196808;-;-;-;-;-;-;-;-;-;-;-;-;-;-;-
1514102997154;-;-;9.050568;0.43234253;3.2328491;-;-;-;-;-;-;-;-;-;-;-;-;-;-;-
1514102997174;-;-;8.660324;-0.02015686;2.8904877;-;-;-;-;-;-;-;-;-;-;-;-;-;-;-
1514102997195;-;-;9.2313385;-0.48223877;3.2256775;-;-;-;-;-;-;-;-;-;-;-;-;-;-;-
1514102997215;-;-;9.250488;-0.59117126;3.5812073;-;-;-;-;-;-;-;-;-;-;-;-;-;-;-
1514102997235;-;-;8.577713;-0.34217834;3.3729095;-;-;-;-;-;-;-;-;-;-;-;-;-;-;-
1514102997256;-;-;8.241333;-0.012969971;2.698944;-;-;-;-;-;-;-;-;-;-;-;-;-;-;-
1514102997276;-;-;7.9911346;0.32460022;1.9711151;-;-;-;-;-;-;-;-;-;-;-;-;-;-;-
1514102997296;-;-;8.302383;0.32699585;2.642685;-;-;-;-;-;-;-;-;-;-;-;-;-;-;-
1514102997317;-;-;8.620819;0.27792358;3.113144;-;-;-;-;-;-;-;-;-;-;-;-;-;-;-
1514102997337;-;-;8.854248;0.39283752;2.4595337;-;-;-;-;-;-;-;-;-;-;-;-;-;-;-
1514102997357;-;-;8.314362;0.6562042;2.3134766;-;-;-;-;-;-;-;-;-;-;-;-;-;-;-
1514102997377;-;-;7.767273;0.5700073;2.9647064;-;-;-;-;-;-;-;-;-;-;-;-;-;-;-
1514102997398;-;-;7.6703186;0.5532532;3.4722748;-;-;-;-;-;-;-;-;-;-;-;-;-;-;-
1514102997418;-;-;7.655945;0.48980713;3.544098;-;-;-;-;-;-;-;-;-;-;-;-;-;-;-
1514102997438;-;-;8.045013;0.40481567;3.303482;-;-;-;-;-;-;-;-;-;-;-;-;-;-;-
1514102997459;-;-;9.042191;0.3964386;3.4315796;-;-;-;-;-;-;-;-;-;-;-;-;-;-;-
1514102997478;-;-;10.177048;0.44551086;3.7009277;-;-;-;-;-;-;-;-;-;-;-;-;-;-;-
1514102997499;-;-;9.947205;0.19891357;3.7907104;-;-;-;-;-;-;-;-;-;-;-;-;-;-;-
1514102997519;-;-;8.847061;-0.51934814;3.2328491;-;-;-;-;-;-;-;-;-;-;-;-;-;-;-
1514102997539;-;-;7.818756;-0.79467773;2.8785095;-;-;-;-;-;-;-;-;-;-;-;-;-;-;-
1514102997560;-;-;7.679886;-0.5935669;2.4116364;-;-;-;-;-;-;-;-;-;-;-;-;-;-;-
1514102997580;-;-;7.731369;-0.27035522;2.1686249;-;-;-;-;-;-;-;-;-;-;-;-;-;-;-
1514102997600;-;-;8.358643;-0.18296814;2.5301514;-;-;-;-;-;-;-;-;-;-;-;-;-;-;-
1514102997620;-;-;9.105637;-0.47027588;2.7719727;-;-;-;-;-;-;-;-;-;-;-;-;-;-;-
1514102997641;-;-;9.719757;-0.88446045;2.6235352;-;-;-;-;-;-;-;-;-;-;-;-;-;-;-
1514102997660;-;-;10.063324;-1.1921234;2.3398132;-;-;-;-;-;-;-;-;-;-;-;-;-;-;-
1514102997680;-;-;9.9436035;-0.98861694;2.2799683;-;-;-;-;-;-;-;-;-;-;-;-;-;-;-
1514102997700;-;-;9.190628;-0.5935669;2.3470001;-;-;-;-;-;-;-;-;-;-;-;-;-;-;-
1514102997720;-;-;8.459198;-0.26914978;2.6833801;-;-;-;-;-;-;-;-;-;-;-;-;-;-;-
1514102997741;-;-;8.332306;-0.16740417;2.8102722;-;-;-;-;-;-;-;-;-;-;-;-;-;-;-
1514102997761;-;-;8.400543;-0.014175415;2.8390045;-;-;-;-;-;-;-;-;-;-;-;-;-;-;-
1514102997781;-;-;8.849457;0.11631775;2.9922333;-;-;-;-;-;-;-;-;-;-;-;-;-;-;-
1514102997801;-;-;9.463577;0.17616272;3.1670074;-;-;-;-;-;-;-;-;-;-;-;-;-;-;-
1514102997822;-;-;9.542587;0.076812744;2.8545685;-;-;-;-;-;-;-;-;-;-;-;-;-;-;-
1514102997842;-;-;9.2313385;-0.18296814;2.572052;-;-;-;-;-;-;-;-;-;-;-;-;-;-;-
1514102997862;-;-;8.914108;-0.07522583;2.4942474;-;-;-;-;-;-;-;-;-;-;-;-;-;-;-
1514102997882;-;-;8.539413;0.14025879;2.575653;-;-;-;-;-;-;-;-;-;-;-;-;-;-;-
1514102997902;-;-;8.529831;0.21687317;2.4391785;-;-;-;-;-;-;-;-;-;-;-;-;-;-;-
1514102997923;-;-;8.82312;0.2527771;2.2644043;-;-;-;-;-;-;-;-;-;-;-;-;-;-;-
1514102997943;-;-;9.151123;0.27671814;2.2703857;-;-;-;-;-;-;-;-;-;-;-;-;-;-;-
1514102997964;-;-;9.206192;0.259964;2.2644043;-;-;-;-;-;-;-;-;-;-;-;-;-;-;-
1514102997984;-;-;9.014664;0.17616272;2.390091;-;-;-;-;-;-;-;-;-;-;-;-;-;-;-
1514102998004;-;-;8.955994;0.124694824;2.6235352;-;-;-;-;-;-;-;-;-;-;-;-;-;-;-
1514102998025;-;-;8.759674;0.11631775;2.714508;-;-;-;-;-;-;-;-;-;-;-;-;-;-;-
1514102998045;-;-;8.717773;0.1438446;2.7025452;-;-;-;-;-;-;-;-;-;-;-;-;-;-;-
1514102998065;-;-;8.699814;0.038497925;2.776764;-;-;-;-;-;-;-;-;-;-;-;-;-;-;-
1514102998086;-;-;8.6423645;-0.09437561;2.879715;-;-;-;-;-;-;-;-;-;-;-;-;-;-;-
1514102998106;-;-;8.666306;-0.24043274;3.0329437;-;-;-;-;-;-;-;-;-;-;-;-;-;-;-
1514102998126;-;-;8.66391;-0.16859436;3.0963898;-;-;-;-;-;-;-;-;-;-;-;-;-;-;-
1514102998147;-;-;8.703415;-0.04170227;3.1071625;-;-;-;-;-;-;-;-;-;-;-;-;-;-;-
1514102998167;-;-;8.7261505;0.026535034;2.9611206;-;-;-;-;-;-;-;-;-;-;-;-;-;-;-
1514102998188;-;-;8.774048;0.08518982;2.9287872;-;-;-;-;-;-;-;-;-;-;-;-;-;-;-
1514102998208;-;-;8.802765;0.11631775;2.8426056;-;-;-;-;-;-;-;-;-;-;-;-;-;-;-
1514102998228;-;-;8.787216;0.1845398;2.8102722;-;-;-;-;-;-;-;-;-;-;-;-;-;-;-
1514102998248;-;-;8.775238;0.1725769;2.8581696;-;-;-;-;-;-;-;-;-;-;-;-;-;-;-
1514102998269;-;-;8.782425;0.117507935;2.8509827;-;-;-;-;-;-;-;-;-;-;-;-;-;-;-
1514102998289;-;-;8.672287;0.05645752;2.9898376;-;-;-;-;-;-;-;-;-;-;-;-;-;-;-
1514102998309;-;-;8.705811;0.06364441;2.8988647;-;-;-;-;-;-;-;-;-;-;-;-;-;-;-
1514102998330;-;-;8.674683;0.02532959;2.9252014;-;-;-;-;-;-;-;-;-;-;-;-;-;-;-
1514102998349;-;-;8.790802;-0.038116455;2.9922333;-;-;-;-;-;-;-;-;-;-;-;-;-;-;-
1514102998369;-;-;8.686661;0.0037841797;2.7444305;-;-;-;-;-;-;-;-;-;-;-;-;-;-;-
1514102998389;-;-;8.7812195;0.014556885;2.8018951;-;-;-;-;-;-;-;-;-;-;-;-;-;-;-
1514102998410;-;-;8.857834;0.021743774;2.8306274;-;-;-;-;-;-;-;-;-;-;-;-;-;-;-
1514102998430;-;-;8.770447;0.007369995;2.8737183;-;-;-;-;-;-;-;-;-;-;-;-;-;-;-
1514102998450;-;-;8.782425;-0.00340271;2.738449;-;-;-;-;-;-;-;-;-;-;-;-;-;-;-
1514102998471;-;-;8.845871;0.007369995;2.6522675;-;-;-;-;-;-;-;-;-;-;-;-;-;-;-
1514102998491;-;-;8.916504;0.031311035;2.6462708;-;-;-;-;-;-;-;-;-;-;-;-;-;-;-
1514102998511;-;-;8.905716;-0.02255249;2.6235352;-;-;-;-;-;-;-;-;-;-;-;-;-;-;-
1514102998532;-;-;8.885376;-0.066848755;2.5924072;-;-;-;-;-;-;-;-;-;-;-;-;-;-;-
1514102998551;-;-;8.878189;-0.054870605;2.5983887;-;-;-;-;-;-;-;-;-;-;-;-;-;-;-
1514102998571;-;-;8.950012;-0.088394165;2.6259308;-;-;-;-;-;-;-;-;-;-;-;-;-;-;-
1514102998591;-;-;8.947617;-0.14944458;2.551712;-;-;-;-;-;-;-;-;-;-;-;-;-;-;-
1514102998612;-;-;8.90094;-0.12071228;2.3362274;-;-;-;-;-;-;-;-;-;-;-;-;-;-;-
1514102998632;-;-;8.946426;-0.18415833;2.4188232;-;-;-;-;-;-;-;-;-;-;-;-;-;-;-
1514102998652;-;-;8.973953;-0.22845459;2.4870605;-;-;-;-;-;-;-;-;-;-;-;-;-;-;-
1514102998673;-;-;8.966782;-0.13508606;2.5540924;-;-;-;-;-;-;-;-;-;-;-;-;-;-;-
1514102998693;-;-;8.903336;0.03251648;2.5780334;-;-;-;-;-;-;-;-;-;-;-;-;-;-;-
1514102998713;-;-;8.898544;0.16059875;2.5385437;-;-;-;-;-;-;-;-;-;-;-;-;-;-;-
1514102998734;-;-;8.862625;0.25398254;2.6007843;-;-;-;-;-;-;-;-;-;-;-;-;-;-;-
1514102998754;-;-;9.027832;0.2515869;2.4667053;-;-;-;-;-;-;-;-;-;-;-;-;-;-;-
1514102998774;-;-;8.826721;0.3509369;2.1949615;-;-;-;-;-;-;-;-;-;-;-;-;-;-;-
1514102998795;-;-;8.96199;0.42156982;2.350586;-;-;-;-;-;-;-;-;-;-;-;-;-;-;-
1514102998815;-;-;9.100845;0.4586792;2.338623;-;-;-;-;-;-;-;-;-;-;-;-;-;-;-
1514102998835;-;-;9.102051;0.43115234;2.3242493;-;-;-;-;-;-;-;-;-;-;-;-;-;-;-
1514102998856;-;-;8.928467;0.5305023;2.2584076;-;-;-;-;-;-;-;-;-;-;-;-;-;-;-
1514102998875;-;-;8.795593;0.34854126;2.3637543;-;-;-;-;-;-;-;-;-;-;-;-;-;-;-
1514102998895;-;-;8.844666;0.20729065;2.5050201;-;-;-;-;-;-;-;-;-;-;-;-;-;-;-
1514102998916;-;-;9.025436;0.1558075;2.5038147;-;-;-;-;-;-;-;-;-;-;-;-;-;-;-
1514102998936;-;-;8.930862;0.1043396;2.651062;-;-;-;-;-;-;-;-;-;-;-;-;-;-;-
1514102998956;-;-;8.7608795;0.064834595;2.6474762;-;-;-;-;-;-;-;-;-;-;-;-;-;-;-
1514102998976;-;-;8.734543;0.02053833;2.5588837;-;-;-;-;-;-;-;-;-;-;-;-;-;-;-
1514102998997;-;-;8.827911;0.088775635;2.6522675;-;-;-;-;-;-;-;-;-;-;-;-;-;-;-
1514102999017;-;-;8.783615;0.11392212;2.7599945;-;-;-;-;-;-;-;-;-;-;-;-;-;-;-
1514102999037;-;-;8.64476;0.1905365;2.8653412;-;-;-;-;-;-;-;-;-;-;-;-;-;-;-
1514102999058;-;-;8.623199;0.3174286;2.9228058;-;-;-;-;-;-;-;-;-;-;-;-;-;-;-
1514102999078;-;-;8.590881;0.41438293;2.8497772;-;-;-;-;-;-;-;-;-;-;-;-;-;-;-
1514102999098;-;-;8.619614;0.42037964;2.8354187;-;-;-;-;-;-;-;-;-;-;-;-;-;-;-
1514102999118;-;-;8.763275;0.49699402;2.809082;-;-;-;-;-;-;-;-;-;-;-;-;-;-;-
1514102999139;-;-;8.753693;0.54966736;2.8150635;-;-;-;-;-;-;-;-;-;-;-;-;-;-;-
1514102999159;-;-;8.890167;0.46228027;2.7839355;-;-;-;-;-;-;-;-;-;-;-;-;-;-;-
1514102999179;-;-;8.947617;0.31263733;2.5983887;-;-;-;-;-;-;-;-;-;-;-;-;-;-;-
1514102999200;-;-;9.033813;0.1558075;2.627121;-;-;-;-;-;-;-;-;-;-;-;-;-;-;-
1514102999220;-;-;8.866211;0.0756073;2.7683868;-;-;-;-;-;-;-;-;-;-;-;-;-;-;-
1514102999241;-;-;8.7417145;-0.083602905;2.9766693;-;-;-;-;-;-;-;-;-;-;-;-;-;-;-
1514102999261;-;-;8.709396;-0.26437378;3.0293427;-;-;-;-;-;-;-;-;-;-;-;-;-;-;-
1514102999281;-;-;8.592087;-0.2272644;2.9287872;-;-;-;-;-;-;-;-;-;-;-;-;-;-;-
1514102999302;-;-;8.697433;-0.09677124;2.982666;-;-;-;-;-;-;-;-;-;-;-;-;-;-;-
1514102999322;-;-;8.82193;0.13905334;2.912033;-;-;-;-;-;-;-;-;-;-;-;-;-;-;-
1514102999342;-;-;9.020645;0.18693542;2.6630402;-;-;-;-;-;-;-;-;-;-;-;-;-;-;-
1514102999362;-;-;9.082901;-0.08001709;2.5313568;-;-;-;-;-;-;-;-;-;-;-;-;-;-;-
1514102999383;-;-;8.959595;-0.289505;2.5253754;-;-;-;-;-;-;-;-;-;-;-;-;-;-;-
1514102999403;-;-;8.868607;-0.20809937;2.6462708;-;-;-;-;-;-;-;-;-;-;-;-;-;-;-
1514102999423;-;-;8.7764435;0.103149414;2.6462708;-;-;-;-;-;-;-;-;-;-;-;-;-;-;-
1514102999443;-;-;8.698624;0.3509369;2.6570435;-;-;-;-;-;-;-;-;-;-;-;-;-;-;-
1514102999463;-;-;8.716583;0.43473816;2.635498;-;-;-;-;-;-;-;-;-;-;-;-;-;-;-
1514102999484;-;-;8.782425;0.49699402;2.575653;-;-;-;-;-;-;-;-;-;-;-;-;-;-;-
1514102999504;-;-;8.875793;0.43115234;2.6295166;-;-;-;-;-;-;-;-;-;-;-;-;-;-;-
1514102999524;-;-;8.82193;0.42515564;2.6809845;-;-;-;-;-;-;-;-;-;-;-;-;-;-;-
1514102999544;-;-;8.808762;0.36410522;2.915619;-;-;-;-;-;-;-;-;-;-;-;-;-;-;-
1514102999565;-;-;8.875793;0.23602295;2.8018951;-;-;-;-;-;-;-;-;-;-;-;-;-;-;-
1514102999585;-;-;8.829102;0.12948608;2.698944;-;-;-;-;-;-;-;-;-;-;-;-;-;-;-
1514102999605;-;-;8.746506;0.17018127;2.8306274;-;-;-;-;-;-;-;-;-;-;-;-;-;-;-
1514102999626;-;-;8.570541;0.14503479;2.9539337;-;-;-;-;-;-;-;-;-;-;-;-;-;-;-
1514102999646;-;-;8.588486;-0.059661865;3.0772247;-;-;-;-;-;-;-;-;-;-;-;-;-;-;-
1514102999666;-;-;8.679474;-0.3697052;3.2663727;-;-;-;-;-;-;-;-;-;-;-;-;-;-;-
1514102999688;-;-;8.815933;-0.5648346;3.2783508;-;-;-;-;-;-;-;-;-;-;-;-;-;-;-
1514102999708;-;-;8.7608795;-0.4379425;3.161026;-;-;-;-;-;-;-;-;-;-;-;-;-;-;-
1514102999728;-;-;8.734543;-0.1482544;2.8521729;-;-;-;-;-;-;-;-;-;-;-;-;-;-;-
1514102999748;-;-;8.802765;-0.02015686;2.540924;-;-;-;-;-;-;-;-;-;-;-;-;-;-;-
1514102999768;-;-;8.9787445;-0.038116455;2.457138;-;-;-;-;-;-;-;-;-;-;-;-;-;-;-
1514102999789;-;-;9.094864;-0.02734375;2.4260101;-;-;-;-;-;-;-;-;-;-;-;-;-;-;-
1514102999809;-;-;9.115219;-0.016571045;2.4343872;-;-;-;-;-;-;-;-;-;-;-;-;-;-;-
1514102999829;-;-;8.997894;-0.021362305;2.4511414;-;-;-;-;-;-;-;-;-;-;-;-;-;-;-
1514102999850;-;-;8.871002;-0.011779785;2.5469208;-;-;-;-;-;-;-;-;-;-;-;-;-;-;-
1514102999870;-;-;8.7213745;0.0049743652;2.7013397;-;-;-;-;-;-;-;-;-;-;-;-;-;-;-
1514102999890;-;-;8.80397;0.062438965;2.7755585;-;-;-;-;-;-;-;-;-;-;-;-;-;-;-
1514102999911;-;-;8.851852;-0.0728302;2.6079712;-;-;-;-;-;-;-;-;-;-;-;-;-;-;-
1514102999930;-;-;8.830307;-0.16021729;2.7911224;-;-;-;-;-;-;-;-;-;-;-;-;-;-;-
1514102999950;-;-;8.807556;-0.121917725;3.0365295;-;-;-;-;-;-;-;-;-;-;-;-;-;-;-
1514102999970;-;-;8.778824;-0.00340271;2.8497772;-;-;-;-;-;-;-;-;-;-;-;-;-;-;-
1514102999991;-;-;8.709396;0.03491211;3.034134;-;-;-;-;-;-;-;-;-;-;-;-;-;-;-
1514103000011;-;-;8.80397;-0.023742676;3.1382904;-;-;-;-;-;-;-;-;-;-;-;-;-;-;-
1514103000031;-;-;8.698624;-0.081207275;3.1442719;-;-;-;-;-;-;-;-;-;-;-;-;-;-;-
1514103000052;-;-;8.574127;-0.047698975;3.003006;-;-;-;-;-;-;-;-;-;-;-;-;-;-;-
1514103000072;-;-;8.662704;0.013366699;2.7588043;-;-;-;-;-;-;-;-;-;-;-;-;-;-;-
1514103000093;-;-;8.759674;0.1438446;2.6738129;-;-;-;-;-;-;-;-;-;-;-;-;-;-;-
1514103000112;-;-;8.809952;0.22164917;2.7468262;-;-;-;-;-;-;-;-;-;-;-;-;-;-;-
1514103000133;-;-;8.7812195;0.4359436;2.93956;-;-;-;-;-;-;-;-;-;-;-;-;-;-;-
1514103000153;-;-;8.698624;0.5879669;2.9575195;-;-;-;-;-;-;-;-;-;-;-;-;-;-;-
1514103000173;-;-;8.689041;0.5341034;2.8414001;-;-;-;-;-;-;-;-;-;-;-;-;-;-;-
1514103000196;-;-;8.871002;0.44432068;2.8126678;-;-;-;-;-;-;-;-;-;-;-;-;-;-;-
1514103000214;-;-;8.993118;0.3461609;2.6965485;-;-;-;-;-;-;-;-;-;-;-;-;-;-;-
1514103000235;-;-;8.942825;0.22525024;2.4738922;-;-;-;-;-;-;-;-;-;-;-;-;-;-;-
1514103000255;-;-;8.8997345;0.13186646;2.4595337;-;-;-;-;-;-;-;-;-;-;-;-;-;-;-
1514103000275;-;-;8.869812;0.107925415;2.5026245;-;-;-;-;-;-;-;-;-;-;-;-;-;-;-
1514103000295;-;-;8.851852;0.107925415;2.5098114;-;-;-;-;-;-;-;-;-;-;-;-;-;-;-
1514103000316;-;-;8.8602295;0.18214417;2.4200287;-;-;-;-;-;-;-;-;-;-;-;-;-;-;-
1514103000336;-;-;8.891357;0.2420044;2.4607239;-;-;-;-;-;-;-;-;-;-;-;-;-;-;-
1514103000356;-;-;8.991913;0.31263733;2.627121;-;-;-;-;-;-;-;-;-;-;-;-;-;-;-
1514103000377;-;-;8.881775;0.35453796;2.4595337;-;-;-;-;-;-;-;-;-;-;-;-;-;-;-
1514103000397;-;-;8.82193;0.35572815;2.5229797;-;-;-;-;-;-;-;-;-;-;-;-;-;-;-
1514103000417;-;-;8.707001;0.40242004;2.6738129;-;-;-;-;-;-;-;-;-;-;-;-;-;-;-
1514103000437;-;-;8.7812195;0.38804626;2.7264862;-;-;-;-;-;-;-;-;-;-;-;-;-;-;-
1514103000458;-;-;8.806366;0.4694519;2.7755585;-;-;-;-;-;-;-;-;-;-;-;-;-;-;-
1514103000478;-;-;8.766861;0.47305298;2.6390991;-;-;-;-;-;-;-;-;-;-;-;-;-;-;-
1514103000498;-;-;8.826721;0.40242004;2.5840302;-;-;-;-;-;-;-;-;-;-;-;-;-;-;-
1514103000518;-;-;8.887772;0.3174286;2.540924;-;-;-;-;-;-;-;-;-;-;-;-;-;-;-
1514103000539;-;-;8.972763;0.18334961;2.4152374;-;-;-;-;-;-;-;-;-;-;-;-;-;-;-
1514103000558;-;-;8.916504;0.09715271;2.148285;-;-;-;-;-;-;-;-;-;-;-;-;-;-;-
1514103000578;-;-;8.918884;0.0013885498;2.0345612;-;-;-;-;-;-;-;-;-;-;-;-;-;-;-
1514103000599;-;-;9.084091;0.0181427;2.0477295;-;-;-;-;-;-;-;-;-;-;-;-;-;-;-
1514103000619;-;-;9.092468;0.1330719;2.0585022;-;-;-;-;-;-;-;-;-;-;-;-;-;-;-
1514103000639;-;-;8.984726;0.048080444;2.1039886;-;-;-;-;-;-;-;-;-;-;-;-;-;-;-
1514103000659;-;-;8.966782;-0.13986206;2.125534;-;-;-;-;-;-;-;-;-;-;-;-;-;-;-
1514103000680;-;-;9.209793;-0.29190063;2.3817139;-;-;-;-;-;-;-;-;-;-;-;-;-;-;-
1514103000699;-;-;9.051773;-0.076416016;2.1518707;-;-;-;-;-;-;-;-;-;-;-;-;-;-;-
1514103000719;-;-;8.983536;-0.11352539;2.0944061;-;-;-;-;-;-;-;-;-;-;-;-;-;-;-
1514103000740;-;-;9.006287;-0.28831482;1.9711151;-;-;-;-;-;-;-;-;-;-;-;-;-;-;-
1514103000760;-;-;9.164291;-0.3002777;2.0956116;-;-;-;-;-;-;-;-;-;-;-;-;-;-;-
1514103000781;-;-;9.154724;-0.17936707;1.983078;-;-;-;-;-;-;-;-;-;-;-;-;-;-;-
1514103000801;-;-;9.036209;-0.02015686;2.101593;-;-;-;-;-;-;-;-;-;-;-;-;-;-;-
1514103000821;-;-;8.970367;0.13186646;2.3326416;-;-;-;-;-;-;-;-;-;-;-;-;-;-;-
1514103000841;-;-;8.890167;0.15940857;2.3098907;-;-;-;-;-;-;-;-;-;-;-;-;-;-;-
1514103000861;-;-;8.82312;0.22045898;2.3517914;-;-;-;-;-;-;-;-;-;-;-;-;-;-;-
1514103000880;-;-;8.88298;0.2707367;2.283554;-;-;-;-;-;-;-;-;-;-;-;-;-;-;-
1514103000900;-;-;8.993118;0.19651794;2.3422089;-;-;-;-;-;-;-;-;-;-;-;-;-;-;-
1514103000920;-;-;8.995499;0.11152649;2.4164276;-;-;-;-;-;-;-;-;-;-;-;-;-;-;-
1514103000941;-;-;8.989517;0.050476074;2.402069;-;-;-;-;-;-;-;-;-;-;-;-;-;-;-
1514103000961;-;-;8.997894;0.0037841797;2.3529816;-;-;-;-;-;-;-;-;-;-;-;-;-;-;-
1514103000981;-;-;8.950012;0.062438965;2.2691956;-;-;-;-;-;-;-;-;-;-;-;-;-;-;-
1514103001002;-;-;8.896149;0.24798584;2.2536316;-;-;-;-;-;-;-;-;-;-;-;-;-;-;-
1514103001022;-;-;8.833893;0.43115234;2.3098907;-;-;-;-;-;-;-;-;-;-;-;-;-;-;-
1514103001042;-;-;8.832703;0.4766388;2.393692;-;-;-;-;-;-;-;-;-;-;-;-;-;-;-
1514103001062;-;-;8.876999;0.4299469;2.4475555;-;-;-;-;-;-;-;-;-;-;-;-;-;-;-
1514103001083;-;-;8.915298;0.43952942;2.4858704;-;-;-;-;-;-;-;-;-;-;-;-;-;-;-
1514103001103;-;-;8.847061;0.37487793;2.551712;-;-;-;-;-;-;-;-;-;-;-;-;-;-;-
1514103001123;-;-;8.832703;0.36889648;2.441574;-;-;-;-;-;-;-;-;-;-;-;-;-;-;-
1514103001143;-;-;8.922485;0.26715088;2.3170776;-;-;-;-;-;-;-;-;-;-;-;-;-;-;-
1514103001164;-;-;8.96199;0.19293213;2.3769226;-;-;-;-;-;-;-;-;-;-;-;-;-;-;-
1514103001184;-;-;9.017059;0.1953125;2.2153168;-;-;-;-;-;-;-;-;-;-;-;-;-;-;-
1514103001205;-;-;8.833893;0.3461609;2.211731;-;-;-;-;-;-;-;-;-;-;-;-;-;-;-
1514103001225;-;-;8.88298;0.41319275;2.500229;-;-;-;-;-;-;-;-;-;-;-;-;-;-;-
1514103001245;-;-;8.995499;0.30784607;2.536148;-;-;-;-;-;-;-;-;-;-;-;-;-;-;-
1514103001265;-;-;8.775238;0.050476074;2.354187;-;-;-;-;-;-;-;-;-;-;-;-;-;-;-
1514103001286;-;-;8.730942;0.10673523;2.4918518;-;-;-;-;-;-;-;-;-;-;-;-;-;-;-
1514103001306;-;-;8.835098;0.33059692;2.4391785;-;-;-;-;-;-;-;-;-;-;-;-;-;-;-
1514103001326;-;-;8.836288;0.4191742;2.4954376;-;-;-;-;-;-;-;-;-;-;-;-;-;-;-
1514103001347;-;-;8.855438;0.44551086;2.5983887;-;-;-;-;-;-;-;-;-;-;-;-;-;-;-
1514103001366;-;-;8.955994;0.21087646;2.4798737;-;-;-;-;-;-;-;-;-;-;-;-;-;-;-
1514103001386;-;-;8.927277;0.076812744;2.4319916;-;-;-;-;-;-;-;-;-;-;-;-;-;-;-
1514103001406;-;-;8.754883;0.17855835;2.5948029;-;-;-;-;-;-;-;-;-;-;-;-;-;-;-
1514103001427;-;-;8.686661;0.35214233;2.855774;-;-;-;-;-;-;-;-;-;-;-;-;-;-;-
1514103001447;-;-;8.728546;0.47065735;2.8665466;-;-;-;-;-;-;-;-;-;-;-;-;-;-;-
1514103001467;-;-;8.657928;0.47305298;2.8102722;-;-;-;-;-;-;-;-;-;-;-;-;-;-;-
1514103001488;-;-;8.717773;0.48143005;2.7528229;-;-;-;-;-;-;-;-;-;-;-;-;-;-;-
1514103001508;-;-;8.745316;0.38565063;2.745636;-;-;-;-;-;-;-;-;-;-;-;-;-;-;-
1514103001528;-;-;8.753693;0.24440002;2.6498718;-;-;-;-;-;-;-;-;-;-;-;-;-;-;-
1514103001548;-;-;8.819534;0.079193115;2.4954376;-;-;-;-;-;-;-;-;-;-;-;-;-;-;-
1514103001569;-;-;8.885376;0.02532959;2.68219;-;-;-;-;-;-;-;-;-;-;-;-;-;-;-
1514103001589;-;-;8.844666;0.16059875;2.642685;-;-;-;-;-;-;-;-;-;-;-;-;-;-;-
1514103001609;-;-;8.768051;0.1797638;2.6259308;-;-;-;-;-;-;-;-;-;-;-;-;-;-;-
1514103001629;-;-;8.871002;0.32580566;2.5313568;-;-;-;-;-;-;-;-;-;-;-;-;-;-;-
1514103001650;-;-;8.942825;0.24679565;2.540924;-;-;-;-;-;-;-;-;-;-;-;-;-;-;-
1514103001670;-;-;8.92128;0.13186646;2.666626;-;-;-;-;-;-;-;-;-;-;-;-;-;-;-
1514103001690;-;-;8.90094;0.052871704;2.6343079;-;-;-;-;-;-;-;-;-;-;-;-;-;-;-
1514103001711;-;-;8.874603;0.09236145;2.512207;-;-;-;-;-;-;-;-;-;-;-;-;-;-;-
1514103001731;-;-;8.848267;0.11392212;2.5421295;-;-;-;-;-;-;-;-;-;-;-;-;-;-;-
1514103001751;-;-;8.888962;0.05166626;2.532547;-;-;-;-;-;-;-;-;-;-;-;-;-;-;-
1514103001772;-;-;8.896149;0.09475708;2.469101;-;-;-;-;-;-;-;-;-;-;-;-;-;-;-
1514103001792;-;-;8.928467;0.14982605;2.44516;-;-;-;-;-;-;-;-;-;-;-;-;-;-;-
1514103001812;-;-;9.003891;0.1043396;2.3517914;-;-;-;-;-;-;-;-;-;-;-;-;-;-;-
1514103001833;-;-;9.017059;-0.00819397;2.3422089;-;-;-;-;-;-;-;-;-;-;-;-;-;-;-
1514103001853;-;-;8.983536;-0.12669373;2.3493958;-;-;-;-;-;-;-;-;-;-;-;-;-;-;-
1514103001873;-;-;8.948822;-0.10635376;2.3122864;-;-;-;-;-;-;-;-;-;-;-;-;-;-;-
1514103001893;-;-;8.930862;-0.13148499;2.4355927;-;-;-;-;-;-;-;-;-;-;-;-;-;-;-
1514103001913;-;-;8.911713;-0.052474976;2.4499512;-;-;-;-;-;-;-;-;-;-;-;-;-;-;-
1514103001934;-;-;8.819534;-0.026138306;2.508606;-;-;-;-;-;-;-;-;-;-;-;-;-;-;-
1514103001954;-;-;8.799179;0.050476074;2.5145874;-;-;-;-;-;-;-;-;-;-;-;-;-;-;-
1514103001975;-;-;8.876999;0.04447937;2.599594;-;-;-;-;-;-;-;-;-;-;-;-;-;-;-
1514103001995;-;-;8.970367;0.014556885;2.6498718;-;-;-;-;-;-;-;-;-;-;-;-;-;-;-
1514103002015;-;-;8.850662;-0.04170227;2.3254547;-;-;-;-;-;-;-;-;-;-;-;-;-;-;-
1514103002036;-;-;8.867416;-0.02734375;2.2847443;-;-;-;-;-;-;-;-;-;-;-;-;-;-;-
1514103002056;-;-;8.972763;-0.06086731;2.2631989;-;-;-;-;-;-;-;-;-;-;-;-;-;-;-
1514103002078;-;-;9.003891;-0.11114502;2.326645;-;-;-;-;-;-;-;-;-;-;-;-;-;-;-
1514103002098;-;-;8.965576;-0.09437561;2.409256;-;-;-;-;-;-;-;-;-;-;-;-;-;-;-
1514103002118;-;-;8.908112;-0.14225769;2.314682;-;-;-;-;-;-;-;-;-;-;-;-;-;-;-
1514103002138;-;-;8.972763;-0.19613647;2.1375122;-;-;-;-;-;-;-;-;-;-;-;-;-;-;-
1514103002159;-;-;9.049377;-0.26437378;2.0848389;-;-;-;-;-;-;-;-;-;-;-;-;-;-;-
1514103002179;-;-;9.033813;-0.28471375;2.0668793;-;-;-;-;-;-;-;-;-;-;-;-;-;-;-
1514103002199;-;-;9.012268;-0.21528625;2.0405426;-;-;-;-;-;-;-;-;-;-;-;-;-;-;-
1514103002219;-;-;9.008667;-0.2033081;2.0824432;-;-;-;-;-;-;-;-;-;-;-;-;-;-;-
1514103002240;-;-;8.914108;-0.15663147;2.1674347;-;-;-;-;-;-;-;-;-;-;-;-;-;-;-
1514103002260;-;-;8.880585;-0.13867188;2.3553772;-;-;-;-;-;-;-;-;-;-;-;-;-;-;-
1514103002280;-;-;8.930862;-0.17098999;2.3829193;-;-;-;-;-;-;-;-;-;-;-;-;-;-;-
1514103002301;-;-;8.977554;-0.210495;2.4068604;-;-;-;-;-;-;-;-;-;-;-;-;-;-;-
1514103002321;-;-;8.967972;-0.26437378;2.3374176;-;-;-;-;-;-;-;-;-;-;-;-;-;-;-
1514103002342;-;-;8.915298;-0.13148499;2.3481903;-;-;-;-;-;-;-;-;-;-;-;-;-;-;-
1514103002361;-;-;8.936844;-0.042907715;2.326645;-;-;-;-;-;-;-;-;-;-;-;-;-;-;-
1514103002382;-;-;9.015854;0.03012085;2.2703857;-;-;-;-;-;-;-;-;-;-;-;-;-;-;-
1514103002402;-;-;8.98233;0.009765625;2.3206635;-;-;-;-;-;-;-;-;-;-;-;-;-;-;-
1514103002422;-;-;8.951218;0.012161255;2.2727814;-;-;-;-;-;-;-;-;-;-;-;-;-;-;-
1514103002443;-;-;8.874603;0.12828064;2.220108;-;-;-;-;-;-;-;-;-;-;-;-;-;-;-
1514103002463;-;-;8.938049;0.23602295;2.2883453;-;-;-;-;-;-;-;-;-;-;-;-;-;-;-
1514103002483;-;-;8.959595;0.17736816;2.4308014;-;-;-;-;-;-;-;-;-;-;-;-;-;-;-
1514103002504;-;-;8.916504;0.062438965;2.441574;-;-;-;-;-;-;-;-;-;-;-;-;-;-;-
1514103002524;-;-;8.872208;-0.0021972656;2.330246;-;-;-;-;-;-;-;-;-;-;-;-;-;-;-
1514103002544;-;-;8.965576;-0.0045928955;2.2320862;-;-;-;-;-;-;-;-;-;-;-;-;-;-;-
1514103002565;-;-;8.990723;-0.0021972656;2.165039;-;-;-;-;-;-;-;-;-;-;-;-;-;-;-
1514103002584;-;-;9.00029;-0.05368042;2.20813;-;-;-;-;-;-;-;-;-;-;-;-;-;-;-
1514103002604;-;-;8.953613;-0.0440979;2.2320862;-;-;-;-;-;-;-;-;-;-;-;-;-;-;-
1514103002625;-;-;8.910507;0.026535034;2.2380676;-;-;-;-;-;-;-;-;-;-;-;-;-;-;-
1514103002645;-;-;8.932053;0.13665771;2.3182678;-;-;-;-;-;-;-;-;-;-;-;-;-;-;-
1514103002665;-;-;8.894943;0.1953125;2.3242493;-;-;-;-;-;-;-;-;-;-;-;-;-;-;-
1514103002686;-;-;8.911713;0.076812744;2.2775726;-;-;-;-;-;-;-;-;-;-;-;-;-;-;-
1514103002706;-;-;8.970367;0.03970337;2.2416534;-;-;-;-;-;-;-;-;-;-;-;-;-;-;-
1514103002726;-;-;8.997894;0.0756073;2.2572174;-;-;-;-;-;-;-;-;-;-;-;-;-;-;-
1514103002746;-;-;8.935654;0.107925415;2.335022;-;-;-;-;-;-;-;-;-;-;-;-;-;-;-
1514103002766;-;-;8.879379;0.11152649;2.3649597;-;-;-;-;-;-;-;-;-;-;-;-;-;-;-
1514103002787;-;-;8.933258;0.064834595;2.3170776;-;-;-;-;-;-;-;-;-;-;-;-;-;-;-
1514103002807;-;-;8.886566;0.04208374;2.3242493;-;-;-;-;-;-;-;-;-;-;-;-;-;-;-
1514103002827;-;-;9.0972595;-0.038116455;2.26799;-;-;-;-;-;-;-;-;-;-;-;-;-;-;-
1514103002847;-;-;8.932053;-0.038116455;2.10878;-;-;-;-;-;-;-;-;-;-;-;-;-;-;-
1514103002868;-;-;8.945221;0.0025787354;2.2644043;-;-;-;-;-;-;-;-;-;-;-;-;-;-;-
1514103002888;-;-;9.001495;-0.10635376;2.3254547;-;-;-;-;-;-;-;-;-;-;-;-;-;-;-
1514103002908;-;-;8.924881;-0.1590271;2.417633;-;-;-;-;-;-;-;-;-;-;-;-;-;-;-
1514103002928;-;-;8.909317;-0.20570374;2.36615;-;-;-;-;-;-;-;-;-;-;-;-;-;-;-
1514103002949;-;-;8.92128;-0.1482544;2.335022;-;-;-;-;-;-;-;-;-;-;-;-;-;-;-
1514103002969;-;-;8.957199;-0.09437561;2.2536316;-;-;-;-;-;-;-;-;-;-;-;-;-;-;-
1514103002989;-;-;8.9787445;-0.05607605;2.3182678;-;-;-;-;-;-;-;-;-;-;-;-;-;-;-
1514103003010;-;-;8.9392395;-0.054870605;2.429596;-;-;-;-;-;-;-;-;-;-;-;-;-;-;-
1514103003030;-;-;8.875793;-0.018966675;2.429596;-;-;-;-;-;-;-;-;-;-;-;-;-;-;-
1514103003050;-;-;8.856644;-0.0069885254;2.4188232;-;-;-;-;-;-;-;-;-;-;-;-;-;-;-
1514103003071;-;-;8.953613;-0.057266235;2.3434143;-;-;-;-;-;-;-;-;-;-;-;-;-;-;-
1514103003091;-;-;8.975159;-0.12550354;2.2691956;-;-;-;-;-;-;-;-;-;-;-;-;-;-;-
1514103003111;-;-;9.035004;-0.08241272;2.2057495;-;-;-;-;-;-;-;-;-;-;-;-;-;-;-
1514103003132;-;-;9.0182495;-0.030929565;2.227295;-;-;-;-;-;-;-;-;-;-;-;-;-;-;-
1514103003151;-;-;8.976349;-0.0069885254;2.283554;-;-;-;-;-;-;-;-;-;-;-;-;-;-;-
1514103003171;-;-;8.904526;0.01574707;2.2979126;-;-;-;-;-;-;-;-;-;-;-;-;-;-;-
1514103003192;-;-;8.903336;-0.04649353;2.3050995;-;-;-;-;-;-;-;-;-;-;-;-;-;-;-
1514103003211;-;-;8.994308;-0.15782166;2.211731;-;-;-;-;-;-;-;-;-;-;-;-;-;-;-
1514103003231;-;-;9.033813;-0.27035522;2.314682;-;-;-;-;-;-;-;-;-;-;-;-;-;-;-
1514103003251;-;-;9.086487;-0.2787323;2.180603;-;-;-;-;-;-;-;-;-;-;-;-;-;-;-
1514103003272;-;-;9.056564;-0.25;2.053711;-;-;-;-;-;-;-;-;-;-;-;-;-;-;-
1514103003292;-;-;9.042191;-0.15184021;2.0764618;-;-;-;-;-;-;-;-;-;-;-;-;-;-;-
1514103003312;-;-;9.026627;-0.18296814;2.0956116;-;-;-;-;-;-;-;-;-;-;-;-;-;-;-
1514103003333;-;-;8.9392395;-0.093185425;2.251236;-;-;-;-;-;-;-;-;-;-;-;-;-;-;-
1514103003353;-;-;8.914108;-0.05847168;2.2739716;-;-;-;-;-;-;-;-;-;-;-;-;-;-;-
1514103003373;-;-;8.897339;0.036102295;2.2332764;-;-;-;-;-;-;-;-;-;-;-;-;-;-;-
1514103003394;-;-;8.935654;0.048080444;2.1626434;-;-;-;-;-;-;-;-;-;-;-;-;-;-;-
1514103003414;-;-;9.033813;0.024139404;2.1458893;-;-;-;-;-;-;-;-;-;-;-;-;-;-;-
1514103003434;-;-;9.051773;-0.071640015;2.1710205;-;-;-;-;-;-;-;-;-;-;-;-;-;-;-
1514103003454;-;-;9.050568;-0.05368042;2.1770172;-;-;-;-;-;-;-;-;-;-;-;-;-;-;-
1514103003474;-;-;9.015854;-0.04888916;2.0991974;-;-;-;-;-;-;-;-;-;-;-;-;-;-;-
1514103003495;-;-;8.9991;-0.03930664;2.0644836;-;-;-;-;-;-;-;-;-;-;-;-;-;-;-
1514103003515;-;-;8.918884;-0.016571045;2.156662;-;-;-;-;-;-;-;-;-;-;-;-;-;-;-
1514103003535;-;-;8.897339;-0.033325195;2.2548218;-;-;-;-;-;-;-;-;-;-;-;-;-;-;-
1514103003556;-;-;8.951218;-0.047698975;2.2727814;-;-;-;-;-;-;-;-;-;-;-;-;-;-;-
1514103003576;-;-;9.015854;-0.095581055;2.2332764;-;-;-;-;-;-;-;-;-;-;-;-;-;-;-
1514103003597;-;-;9.014664;-0.109939575;2.1817932;-;-;-;-;-;-;-;-;-;-;-;-;-;-;-
1514103003617;-;-;8.954803;-0.08480835;2.1782074;-;-;-;-;-;-;-;-;-;-;-;-;-;-;-
1514103003637;-;-;8.965576;-0.06324768;2.148285;-;-;-;-;-;-;-;-;-;-;-;-;-;-;-
1514103003658;-;-;8.881775;-0.078811646;2.290741;-;-;-;-;-;-;-;-;-;-;-;-;-;-;-
1514103003677;-;-;8.833893;-0.11352539;2.2464447;-;-;-;-;-;-;-;-;-;-;-;-;-;-;-
1514103003697;-;-;8.951218;-0.0728302;2.3170776;-;-;-;-;-;-;-;-;-;-;-;-;-;-;-
1514103003717;-;-;9.027832;-0.03691101;2.3948822;-;-;-;-;-;-;-;-;-;-;-;-;-;-;-
1514103003738;-;-;9.013458;-0.08720398;2.2236938;-;-;-;-;-;-;-;-;-;-;-;-;-;-;-
1514103003758;-;-;8.976349;-0.14944458;2.282364;-;-;-;-;-;-;-;-;-;-;-;-;-;-;-
1514103003778;-;-;8.923676;-0.210495;2.2308807;-;-;-;-;-;-;-;-;-;-;-;-;-;-;-
1514103003798;-;-;8.928467;-0.10395813;2.2584076;-;-;-;-;-;-;-;-;-;-;-;-;-;-;-
1514103003819;-;-;8.905716;-0.03213501;2.335022;-;-;-;-;-;-;-;-;-;-;-;-;-;-;-
1514103003839;-;-;8.957199;-0.06564331;2.3446045;-;-;-;-;-;-;-;-;-;-;-;-;-;-;-
1514103003859;-;-;8.958389;-0.014175415;2.2644043;-;-;-;-;-;-;-;-;-;-;-;-;-;-;-
1514103003880;-;-;8.897339;0.01574707;2.2248993;-;-;-;-;-;-;-;-;-;-;-;-;-;-;-
1514103003900;-;-;8.954803;0.03012085;2.271576;-;-;-;-;-;-;-;-;-;-;-;-;-;-;-
1514103003920;-;-;8.964386;0.007369995;2.3565826;-;-;-;-;-;-;-;-;-;-;-;-;-;-;-
1514103003941;-;-;8.924881;-0.03930664;2.3829193;-;-;-;-;-;-;-;-;-;-;-;-;-;-;-
1514103003960;-;-;8.903336;0.03491211;2.4224243;-;-;-;-;-;-;-;-;-;-;-;-;-;-;-
1514103003981;-;-;8.975159;0.026535034;2.307495;-;-;-;-;-;-;-;-;-;-;-;-;-;-;-
1514103004000;-;-;8.958389;0.040893555;2.2165222;-;-;-;-;-;-;-;-;-;-;-;-;-;-;-
1514103004021;-;-;8.906921;-0.06564331;2.172226;-;-;-;-;-;-;-;-;-;-;-;-;-;-;-
1514103004041;-;-;8.9991;-0.14465332;2.1817932;-;-;-;-;-;-;-;-;-;-;-;-;-;-;-
1514103004062;-;-;8.990723;-0.19613647;2.2153168;-;-;-;-;-;-;-;-;-;-;-;-;-;-;-
1514103004082;-;-;8.995499;-0.11831665;2.3481903;-;-;-;-;-;-;-;-;-;-;-;-;-;-;-
1514103004102;-;-;8.967972;-0.076416016;2.117157;-;-;-;-;-;-;-;-;-;-;-;-;-;-;-
1514103004123;-;-;8.909317;0.0049743652;2.1746216;-;-;-;-;-;-;-;-;-;-;-;-;-;-;-
1514103004143;-;-;8.938049;0.05885315;2.34581;-;-;-;-;-;-;-;-;-;-;-;-;-;-;-
1514103004163;-;-;8.940445;0.076812744;2.4619293;-;-;-;-;-;-;-;-;-;-;-;-;-;-;-
1514103004183;-;-;8.891357;0.064834595;2.4643097;-;-;-;-;-;-;-;-;-;-;-;-;-;-;-
1514103004204;-;-;8.891357;0.112716675;2.3685455;-;-;-;-;-;-;-;-;-;-;-;-;-;-;-
1514103004224;-;-;8.896149;0.17855835;2.3122864;-;-;-;-;-;-;-;-;-;-;-;-;-;-;-
1514103004244;-;-;8.906921;0.100753784;2.385315;-;-;-;-;-;-;-;-;-;-;-;-;-;-;-
1514103004264;-;-;8.942825;0.050476074;2.3876953;-;-;-;-;-;-;-;-;-;-;-;-;-;-;-
1514103004285;-;-;9.014664;0.03970337;2.2775726;-;-;-;-;-;-;-;-;-;-;-;-;-;-;-
1514103004305;-;-;8.976349;0.088775635;2.2631989;-;-;-;-;-;-;-;-;-;-;-;-;-;-;-
1514103004325;-;-;8.912903;0.045684814;2.3517914;-;-;-;-;-;-;-;-;-;-;-;-;-;-;-
1514103004345;-;-;8.954803;-0.02015686;2.393692;-;-;-;-;-;-;-;-;-;-;-;-;-;-;-
1514103004366;-;-;8.942825;0.007369995;2.330246;-;-;-;-;-;-;-;-;-;-;-;-;-;-;-
1514103004386;-;-;8.894943;-0.033325195;2.247635;-;-;-;-;-;-;-;-;-;-;-;-;-;-;-
1514103004406;-;-;8.933258;-0.02973938;2.3098907;-;-;-;-;-;-;-;-;-;-;-;-;-;-;-
1514103004427;-;-;8.905716;0.12348938;2.3601685;-;-;-;-;-;-;-;-;-;-;-;-;-;-;-
1514103004447;-;-;8.797989;0.22285461;2.441574;-;-;-;-;-;-;-;-;-;-;-;-;-;-;-
1514103004467;-;-;8.845871;0.23362732;2.4607239;-;-;-;-;-;-;-;-;-;-;-;-;-;-;-
1514103004488;-;-;8.808762;0.17137146;2.4248047;-;-;-;-;-;-;-;-;-;-;-;-;-;-;-
1514103004507;-;-;8.934448;0.079193115;2.5337524;-;-;-;-;-;-;-;-;-;-;-;-;-;-;-
1514103004527;-;-;8.826721;0.057647705;2.326645;-;-;-;-;-;-;-;-;-;-;-;-;-;-;-
1514103004547;-;-;8.789597;0.14982605;2.615158;-;-;-;-;-;-;-;-;-;-;-;-;-;-;-
1514103004568;-;-;8.894943;0.024139404;2.7097168;-;-;-;-;-;-;-;-;-;-;-;-;-;-;-
1514103004588;-;-;8.861435;-0.08241272;2.7336578;-;-;-;-;-;-;-;-;-;-;-;-;-;-;-
1514103004608;-;-;8.844666;-0.1817627;2.5768433;-;-;-;-;-;-;-;-;-;-;-;-;-;-;-
1514103004629;-;-;8.795593;-0.085998535;2.4439697;-;-;-;-;-;-;-;-;-;-;-;-;-;-;-
1514103004649;-;-;8.847061;-0.030929565;2.5157928;-;-;-;-;-;-;-;-;-;-;-;-;-;-;-
1514103004670;-;-;8.892548;-0.03213501;2.5145874;-;-;-;-;-;-;-;-;-;-;-;-;-;-;-
1514103004689;-;-;8.929672;-0.030929565;2.5098114;-;-;-;-;-;-;-;-;-;-;-;-;-;-;-
1514103004710;-;-;8.861435;-0.04170227;2.457138;-;-;-;-;-;-;-;-;-;-;-;-;-;-;-
1514103004730;-;-;8.885376;-0.0105896;2.4272003;-;-;-;-;-;-;-;-;-;-;-;-;-;-;-
1514103004750;-;-;8.948822;-0.064453125;2.4272003;-;-;-;-;-;-;-;-;-;-;-;-;-;-;-
1514103004770;-;-;8.912903;-0.1302948;2.3984833;-;-;-;-;-;-;-;-;-;-;-;-;-;-;-
1514103004791;-;-;8.83989;-0.14585876;2.3769226;-;-;-;-;-;-;-;-;-;-;-;-;-;-;-
1514103004811;-;-;8.808762;-0.066848755;2.4308014;-;-;-;-;-;-;-;-;-;-;-;-;-;-;-
1514103004831;-;-;8.830307;-0.045303345;2.5038147;-;-;-;-;-;-;-;-;-;-;-;-;-;-;-
1514103004851;-;-;8.830307;-0.03930664;2.5935974;-;-;-;-;-;-;-;-;-;-;-;-;-;-;-
1514103004871;-;-;8.809952;-0.009384155;2.754013;-;-;-;-;-;-;-;-;-;-;-;-;-;-;-
1514103004892;-;-;8.897339;-0.05607605;2.6414948;-;-;-;-;-;-;-;-;-;-;-;-;-;-;-
1514103004912;-;-;8.947617;-0.08001709;2.6007843;-;-;-;-;-;-;-;-;-;-;-;-;-;-;-
1514103004933;-;-;9.037399;-0.105148315;2.595993;-;-;-;-;-;-;-;-;-;-;-;-;-;-;-
1514103004953;-;-;8.972763;-0.19134521;2.244049;-;-;-;-;-;-;-;-;-;-;-;-;-;-;-
1514103004973;-;-;8.989517;-0.15663147;2.247635;-;-;-;-;-;-;-;-;-;-;-;-;-;-;-
1514103004994;-;-;8.976349;-0.24281311;2.2260895;-;-;-;-;-;-;-;-;-;-;-;-;-;-;-
1514103005014;-;-;9.026627;-0.2859192;2.2895355;-;-;-;-;-;-;-;-;-;-;-;-;-;-;-
1514103005034;-;-;8.92009;-0.24520874;2.4308014;-;-;-;-;-;-;-;-;-;-;-;-;-;-;-
1514103005054;-;-;8.898544;-0.1769867;2.441574;-;-;-;-;-;-;-;-;-;-;-;-;-;-;-
1514103005075;-;-;8.945221;-0.14585876;2.4008636;-;-;-;-;-;-;-;-;-;-;-;-;-;-;-
1514103005094;-;-;8.970367;-0.13986206;2.2727814;-;-;-;-;-;-;-;-;-;-;-;-;-;-;-
1514103005114;-;-;9.019455;-0.1482544;2.227295;-;-;-;-;-;-;-;-;-;-;-;-;-;-;-
1514103005135;-;-;9.036209;-0.2212677;2.2452545;-;-;-;-;-;-;-;-;-;-;-;-;-;-;-
1514103005154;-;-;9.015854;-0.22605896;2.2093353;-;-;-;-;-;-;-;-;-;-;-;-;-;-;-
1514103005174;-;-;9.001495;-0.22605896;2.1339111;-;-;-;-;-;-;-;-;-;-;-;-;-;-;-
1514103005195;-;-;8.955994;-0.24043274;2.1554718;-;-;-;-;-;-;-;-;-;-;-;-;-;-;-
1514103005214;-;-;8.954803;-0.2607727;2.1925812;-;-;-;-;-;-;-;-;-;-;-;-;-;-;-
1514103005234;-;-;8.951218;-0.2392273;2.2153168;-;-;-;-;-;-;-;-;-;-;-;-;-;-;-
1514103005255;-;-;8.967972;-0.18536377;2.2344666;-;-;-;-;-;-;-;-;-;-;-;-;-;-;-
1514103005275;-;-;9.027832;-0.12908936;2.149475;-;-;-;-;-;-;-;-;-;-;-;-;-;-;-
1514103005295;-;-;8.96199;-0.09437561;2.1195526;-;-;-;-;-;-;-;-;-;-;-;-;-;-;-
1514103005315;-;-;8.98233;-0.015365601;2.1075745;-;-;-;-;-;-;-;-;-;-;-;-;-;-;-
1514103005336;-;-;9.025436;-0.02015686;2.0848389;-;-;-;-;-;-;-;-;-;-;-;-;-;-;-
1514103005356;-;-;9.003891;-0.0021972656;2.1446838;-;-;-;-;-;-;-;-;-;-;-;-;-;-;-
1514103005376;-;-;8.896149;-0.100372314;1.9160461;-;-;-;-;-;-;-;-;-;-;-;-;-;-;-
1514103005397;-;-;8.930862;-0.07522583;1.928009;-;-;-;-;-;-;-;-;-;-;-;-;-;-;-
1514103005417;-;-;9.063736;-0.05128479;2.0680695;-;-;-;-;-;-;-;-;-;-;-;-;-;-;-
1514103005437;-;-;9.055359;-0.119522095;2.1375122;-;-;-;-;-;-;-;-;-;-;-;-;-;-;-
1514103005457;-;-;8.8997345;-0.08001709;2.2548218;-;-;-;-;-;-;-;-;-;-;-;-;-;-;-
1514103005478;-;-;8.875793;-0.066848755;2.3374176;-;-;-;-;-;-;-;-;-;-;-;-;-;-;-
1514103005498;-;-;8.868607;-0.0010070801;2.330246;-;-;-;-;-;-;-;-;-;-;-;-;-;-;-
1514103005518;-;-;8.890167;0.0037841797;2.3757324;-;-;-;-;-;-;-;-;-;-;-;-;-;-;-
1514103005539;-;-;8.916504;0.036102295;2.362564;-;-;-;-;-;-;-;-;-;-;-;-;-;-;-
1514103005559;-;-;8.90213;0.010971069;2.3015137;-;-;-;-;-;-;-;-;-;-;-;-;-;-;-
1514103005579;-;-;8.896149;-0.02015686;2.3039093;-;-;-;-;-;-;-;-;-;-;-;-;-;-;-
1514103005600;-;-;8.92128;-0.071640015;2.323059;-;-;-;-;-;-;-;-;-;-;-;-;-;-;-
1514103005620;-;-;8.932053;-0.074035645;2.362564;-;-;-;-;-;-;-;-;-;-;-;-;-;-;-
1514103005640;-;-;8.911713;-0.03691101;2.393692;-;-;-;-;-;-;-;-;-;-;-;-;-;-;-
1514103005661;-;-;8.896149;-0.057266235;2.4284058;-;-;-;-;-;-;-;-;-;-;-;-;-;-;-
1514103005681;-;-;8.906921;-0.026138306;2.4463654;-;-;-;-;-;-;-;-;-;-;-;-;-;-;-
1514103005701;-;-;8.959595;-0.08720398;2.4212189;-;-;-;-;-;-;-;-;-;-;-;-;-;-;-
1514103005722;-;-;8.927277;-0.23564148;2.3613586;-;-;-;-;-;-;-;-;-;-;-;-;-;-;-
1514103005742;-;-;8.916504;-0.30625916;2.26799;-;-;-;-;-;-;-;-;-;-;-;-;-;-;-
1514103005762;-;-;8.963181;-0.38287354;2.2308807;-;-;-;-;-;-;-;-;-;-;-;-;-;-;-
1514103005783;-;-;9.085281;-0.3146515;2.3673553;-;-;-;-;-;-;-;-;-;-;-;-;-;-;-
1514103005803;-;-;9.007477;-0.2392273;2.10997;-;-;-;-;-;-;-;-;-;-;-;-;-;-;-
1514103005823;-;-;8.938049;0.033706665;1.923233;-;-;-;-;-;-;-;-;-;-;-;-;-;-;-
1514103005844;-;-;9.021835;-0.015365601;2.0764618;-;-;-;-;-;-;-;-;-;-;-;-;-;-;-
1514103005864;-;-;9.084091;-0.13986206;2.2464447;-;-;-;-;-;-;-;-;-;-;-;-;-;-;-
1514103005884;-;-;8.989517;-0.32302856;2.4068604;-;-;-;-;-;-;-;-;-;-;-;-;-;-;-
1514103005904;-;-;8.905716;-0.33380127;2.378128;-;-;-;-;-;-;-;-;-;-;-;-;-;-;-
1514103005925;-;-;8.916504;-0.36132813;2.2165222;-;-;-;-;-;-;-;-;-;-;-;-;-;-;-
1514103005945;-;-;9.049377;-0.36253357;2.374527;-;-;-;-;-;-;-;-;-;-;-;-;-;-;-
1514103005965;-;-;9.007477;-0.3469696;2.5062103;-;-;-;-;-;-;-;-;-;-;-;-;-;-;-
1514103005986;-;-;8.844666;-0.38049316;2.5660706;-;-;-;-;-;-;-;-;-;-;-;-;-;-;-
1514103006005;-;-;8.7608795;-0.29908752;2.501419;-;-;-;-;-;-;-;-;-;-;-;-;-;-;-
1514103006025;-;-;8.7417145;-0.08958435;2.595993;-;-;-;-;-;-;-;-;-;-;-;-;-;-;-
1514103006046;-;-;8.875793;-0.045303345;2.7001495;-;-;-;-;-;-;-;-;-;-;-;-;-;-;-
1514103006065;-;-;9.093674;-0.16500854;2.5552979;-;-;-;-;-;-;-;-;-;-;-;-;-;-;-
1514103006085;-;-;9.234924;-0.1817627;2.3996735;-;-;-;-;-;-;-;-;-;-;-;-;-;-;-
1514103006106;-;-;9.008667;-0.05368042;2.2691956;-;-;-;-;-;-;-;-;-;-;-;-;-;-;-
1514103006125;-;-;8.787216;0.05166626;2.330246;-;-;-;-;-;-;-;-;-;-;-;-;-;-;-
1514103006145;-;-;8.710602;0.083984375;2.6630402;-;-;-;-;-;-;-;-;-;-;-;-;-;-;-
1514103006165;-;-;8.98114;-0.030929565;2.7324677;-;-;-;-;-;-;-;-;-;-;-;-;-;-;-
1514103006186;-;-;8.770447;-0.11352539;2.5349426;-;-;-;-;-;-;-;-;-;-;-;-;-;-;-
1514103006206;-;-;8.756088;-0.12669373;2.488266;-;-;-;-;-;-;-;-;-;-;-;-;-;-;-
1514103006226;-;-;8.608841;-0.03453064;2.3960876;-;-;-;-;-;-;-;-;-;-;-;-;-;-;-
1514103006246;-;-;8.770447;0.110321045;2.675003;-;-;-;-;-;-;-;-;-;-;-;-;-;-;-
1514103006267;-;-;8.830307;0.036102295;2.6642303;-;-;-;-;-;-;-;-;-;-;-;-;-;-;-
1514103006287;-;-;8.778824;-0.00819397;2.6307068;-;-;-;-;-;-;-;-;-;-;-;-;-;-;-
1514103006308;-;-;8.780029;0.012161255;2.6091614;-;-;-;-;-;-;-;-;-;-;-;-;-;-;-
1514103006328;-;-;8.84108;-0.01776123;2.6738129;-;-;-;-;-;-;-;-;-;-;-;-;-;-;-
1514103006348;-;-;8.844666;-0.012969971;2.7181091;-;-;-;-;-;-;-;-;-;-;-;-;-;-;-
1514103006369;-;-;8.851852;-0.050079346;2.8078918;-;-;-;-;-;-;-;-;-;-;-;-;-;-;-
1514103006389;-;-;8.886566;-0.054870605;2.7348633;-;-;-;-;-;-;-;-;-;-;-;-;-;-;-
1514103006409;-;-;8.843475;-0.12908936;2.6331024;-;-;-;-;-;-;-;-;-;-;-;-;-;-;-
1514103006430;-;-;8.8051605;-0.19613647;2.5684662;-;-;-;-;-;-;-;-;-;-;-;-;-;-;-
1514103006449;-;-;8.811157;-0.31584167;2.60318;-;-;-;-;-;-;-;-;-;-;-;-;-;-;-
1514103006469;-;-;8.869812;-0.34576416;2.6378937;-;-;-;-;-;-;-;-;-;-;-;-;-;-;-
1514103006490;-;-;8.884171;-0.2859192;2.6678162;-;-;-;-;-;-;-;-;-;-;-;-;-;-;-
1514103006509;-;-;8.887772;-0.22486877;2.651062;-;-;-;-;-;-;-;-;-;-;-;-;-;-;-
1514103006529;-;-;8.878189;-0.1877594;2.6319122;-;-;-;-;-;-;-;-;-;-;-;-;-;-;-
1514103006550;-;-;8.833893;-0.17098999;2.627121;-;-;-;-;-;-;-;-;-;-;-;-;-;-;-
1514103006570;-;-;8.885376;-0.18536377;2.595993;-;-;-;-;-;-;-;-;-;-;-;-;-;-;-
1514103006590;-;-;8.983536;-0.25479126;2.4367828;-;-;-;-;-;-;-;-;-;-;-;-;-;-;-
1514103006610;-;-;9.001495;-0.33140564;2.4343872;-;-;-;-;-;-;-;-;-;-;-;-;-;-;-
1514103006631;-;-;9.052963;-0.3254242;2.4475555;-;-;-;-;-;-;-;-;-;-;-;-;-;-;-
1514103006651;-;-;8.996704;-0.46069336;2.1626434;-;-;-;-;-;-;-;-;-;-;-;-;-;-;-
1514103006671;-;-;8.92009;-0.44154358;2.203354;-;-;-;-;-;-;-;-;-;-;-;-;-;-;-
1514103006692;-;-;8.9392395;-0.368515;2.2775726;-;-;-;-;-;-;-;-;-;-;-;-;-;-;-
1514103006712;-;-;8.987122;-0.22845459;2.335022;-;-;-;-;-;-;-;-;-;-;-;-;-;-;-
1514103006732;-;-;8.843475;-0.18536377;2.4284058;-;-;-;-;-;-;-;-;-;-;-;-;-;-;-
1514103006752;-;-;8.905716;-0.29190063;2.3876953;-;-;-;-;-;-;-;-;-;-;-;-;-;-;-
1514103006773;-;-;8.945221;-0.39964294;2.350586;-;-;-;-;-;-;-;-;-;-;-;-;-;-;-
1514103006793;-;-;8.975159;-0.51815796;2.3206635;-;-;-;-;-;-;-;-;-;-;-;-;-;-;-
1514103006813;-;-;9.031418;-0.5384979;2.26799;-;-;-;-;-;-;-;-;-;-;-;-;-;-;-
1514103006834;-;-;8.990723;-0.48703003;2.2129211;-;-;-;-;-;-;-;-;-;-;-;-;-;-;-
1514103006855;-;-;8.973953;-0.44273376;2.1865845;-;-;-;-;-;-;-;-;-;-;-;-;-;-;-
1514103006875;-;-;8.967972;-0.3589325;2.1794128;-;-;-;-;-;-;-;-;-;-;-;-;-;-;-
1514103006895;-;-;8.991913;-0.36372375;2.1626434;-;-;-;-;-;-;-;-;-;-;-;-;-;-;-
1514103006915;-;-;9.013458;-0.32182312;2.2775726;-;-;-;-;-;-;-;-;-;-;-;-;-;-;-
1514103006935;-;-;8.9787445;-0.33859253;2.2931366;-;-;-;-;-;-;-;-;-;-;-;-;-;-;-
1514103006956;-;-;9.032608;-0.39006042;2.275177;-;-;-;-;-;-;-;-;-;-;-;-;-;-;-
1514103006976;-;-;9.00029;-0.41400146;2.3015137;-;-;-;-;-;-;-;-;-;-;-;-;-;-;-
1514103006996;-;-;8.905716;-0.4056244;2.3039093;-;-;-;-;-;-;-;-;-;-;-;-;-;-;-
1514103007017;-;-;8.936844;-0.34576416;2.3338318;-;-;-;-;-;-;-;-;-;-;-;-;-;-;-
1514103007037;-;-;9.049377;-0.29429626;2.1135712;-;-;-;-;-;-;-;-;-;-;-;-;-;-;-
1514103007057;-;-;9.114014;-0.2775421;2.0213928;-;-;-;-;-;-;-;-;-;-;-;-;-;-;-
1514103007077;-;-;8.965576;-0.23443604;1.801117;-;-;-;-;-;-;-;-;-;-;-;-;-;-;-
1514103007098;-;-;8.995499;-0.08720398;2.1518707;-;-;-;-;-;-;-;-;-;-;-;-;-;-;-
1514103007118;-;-;9.036209;-0.009384155;2.228485;-;-;-;-;-;-;-;-;-;-;-;-;-;-;-
1514103007138;-;-;8.947617;0.04927063;2.172226;-;-;-;-;-;-;-;-;-;-;-;-;-;-;-
1514103007158;-;-;8.83989;0.086380005;2.1506805;-;-;-;-;-;-;-;-;-;-;-;-;-;-;-
1514103007179;-;-;8.908112;0.040893555;2.2500305;-;-;-;-;-;-;-;-;-;-;-;-;-;-;-
1514103007198;-;-;8.996704;-0.12789917;2.204544;-;-;-;-;-;-;-;-;-;-;-;-;-;-;-
1514103007218;-;-;9.068527;-0.3002777;2.1027985;-;-;-;-;-;-;-;-;-;-;-;-;-;-;-
1514103007238;-;-;9.076904;-0.289505;2.0417328;-;-;-;-;-;-;-;-;-;-;-;-;-;-;-
1514103007258;-;-;8.991913;-0.17338562;1.9950562;-;-;-;-;-;-;-;-;-;-;-;-;-;-;-
1514103007279;-;-;8.959595;-0.04888916;2.10997;-;-;-;-;-;-;-;-;-;-;-;-;-;-;-
1514103007299;-;-;8.90094;0.014556885;2.2799683;-;-;-;-;-;-;-;-;-;-;-;-;-;-;-
1514103007320;-;-;8.905716;-0.03691101;2.457138;-;-;-;-;-;-;-;-;-;-;-;-;-;-;-
1514103007340;-;-;8.946426;0.028915405;2.433197;-;-;-;-;-;-;-;-;-;-;-;-;-;-;-
1514103007360;-;-;8.958389;0.055252075;2.4248047;-;-;-;-;-;-;-;-;-;-;-;-;-;-;-
1514103007381;-;-;8.957199;0.13546753;2.4439697;-;-;-;-;-;-;-;-;-;-;-;-;-;-;-
1514103007401;-;-;8.886566;0.14863586;2.4308014;-;-;-;-;-;-;-;-;-;-;-;-;-;-;-
1514103007421;-;-;8.8003845;0.13546753;2.469101;-;-;-;-;-;-;-;-;-;-;-;-;-;-;-
1514103007441;-;-;8.812347;0.11152649;2.4439697;-;-;-;-;-;-;-;-;-;-;-;-;-;-;-
1514103007462;-;-;8.892548;0.067230225;2.3984833;-;-;-;-;-;-;-;-;-;-;-;-;-;-;-
1514103007482;-;-;8.970367;-0.00340271;2.4104462;-;-;-;-;-;-;-;-;-;-;-;-;-;-;-
1514103007502;-;-;8.92128;-0.085998535;2.0980072;-;-;-;-;-;-;-;-;-;-;-;-;-;-;-
1514103007523;-;-;8.875793;0.06842041;2.244049;-;-;-;-;-;-;-;-;-;-;-;-;-;-;-
1514103007543;-;-;8.965576;0.122299194;2.448761;-;-;-;-;-;-;-;-;-;-;-;-;-;-;-
1514103007564;-;-;8.936844;-0.0045928955;2.611557;-;-;-;-;-;-;-;-;-;-;-;-;-;-;-
1514103007584;-;-;8.790802;-0.100372314;2.5098114;-;-;-;-;-;-;-;-;-;-;-;-;-;-;-
1514103007604;-;-;8.793198;-0.0728302;2.4786835;-;-;-;-;-;-;-;-;-;-;-;-;-;-;-
1514103007624;-;-;8.848267;-0.03691101;2.500229;-;-;-;-;-;-;-;-;-;-;-;-;-;-;-
1514103007644;-;-;8.933258;0.012161255;2.5313568;-;-;-;-;-;-;-;-;-;-;-;-;-;-;-
1514103007665;-;-;8.90213;-0.02734375;2.52417;-;-;-;-;-;-;-;-;-;-;-;-;-;-;-
1514103007685;-;-;8.868607;0.01574707;2.4439697;-;-;-;-;-;-;-;-;-;-;-;-;-;-;-
1514103007706;-;-;8.873398;-0.00819397;2.484665;-;-;-;-;-;-;-;-;-;-;-;-;-;-;-
1514103007726;-;-;8.862625;0.024139404;2.4906464;-;-;-;-;-;-;-;-;-;-;-;-;-;-;-
1514103007746;-;-;8.863831;0.0061798096;2.453537;-;-;-;-;-;-;-;-;-;-;-;-;-;-;-
1514103007766;-;-;8.866211;0.014556885;2.5026245;-;-;-;-;-;-;-;-;-;-;-;-;-;-;-
1514103007787;-;-;8.8602295;0.0181427;2.5145874;-;-;-;-;-;-;-;-;-;-;-;-;-;-;-
1514103007807;-;-;8.849457;-0.00340271;2.5110016;-;-;-;-;-;-;-;-;-;-;-;-;-;-;-
1514103007827;-;-;8.817139;0.028915405;2.5277557;-;-;-;-;-;-;-;-;-;-;-;-;-;-;-
1514103007848;-;-;8.801575;0.08758545;2.5780334;-;-;-;-;-;-;-;-;-;-;-;-;-;-;-
1514103007868;-;-;8.811157;0.055252075;2.5816345;-;-;-;-;-;-;-;-;-;-;-;-;-;-;-
1514103007888;-;-;8.856644;-0.054870605;2.6211395;-;-;-;-;-;-;-;-;-;-;-;-;-;-;-
1514103007909;-;-;8.893753;-0.09916687;2.7731628;-;-;-;-;-;-;-;-;-;-;-;-;-;-;-
1514103007929;-;-;8.904526;-0.18655396;2.5050201;-;-;-;-;-;-;-;-;-;-;-;-;-;-;-
1514103007949;-;-;8.869812;-0.03213501;2.5217743;-;-;-;-;-;-;-;-;-;-;-;-;-;-;-
1514103007970;-;-;8.881775;0.040893555;2.4655151;-;-;-;-;-;-;-;-;-;-;-;-;-;-;-
1514103007990;-;-;8.963181;0.05406189;2.4655151;-;-;-;-;-;-;-;-;-;-;-;-;-;-;-
1514103008010;-;-;8.9787445;0.050476074;2.472702;-;-;-;-;-;-;-;-;-;-;-;-;-;-;-
1514103008030;-;-;8.930862;0.0049743652;2.4750977;-;-;-;-;-;-;-;-;-;-;-;-;-;-;-
1514103008051;-;-;8.880585;-0.0440979;2.414032;-;-;-;-;-;-;-;-;-;-;-;-;-;-;-
1514103008071;-;-;8.910507;-0.109939575;2.4044647;-;-;-;-;-;-;-;-;-;-;-;-;-;-;-
1514103008091;-;-;8.936844;-0.13627625;2.3865051;-;-;-;-;-;-;-;-;-;-;-;-;-;-;-
1514103008112;-;-;8.967972;-0.14585876;2.3709412;-;-;-;-;-;-;-;-;-;-;-;-;-;-;-
1514103008132;-;-;8.975159;-0.13508606;2.350586;-;-;-;-;-;-;-;-;-;-;-;-;-;-;-
1514103008152;-;-;8.957199;-0.14346313;2.3948822;-;-;-;-;-;-;-;-;-;-;-;-;-;-;-
1514103008173;-;-;8.894943;-0.16619873;2.4391785;-;-;-;-;-;-;-;-;-;-;-;-;-;-;-
1514103008193;-;-;8.873398;-0.124313354;2.4858704;-;-;-;-;-;-;-;-;-;-;-;-;-;-;-
1514103008213;-;-;8.927277;-0.050079346;2.448761;-;-;-;-;-;-;-;-;-;-;-;-;-;-;-
1514103008234;-;-;8.983536;-0.08241272;2.429596;-;-;-;-;-;-;-;-;-;-;-;-;-;-;-
1514103008253;-;-;8.985931;-0.19972229;2.335022;-;-;-;-;-;-;-;-;-;-;-;-;-;-;-
1514103008273;-;-;8.916504;-0.24880981;2.3170776;-;-;-;-;-;-;-;-;-;-;-;-;-;-;-
1514103008293;-;-;8.932053;-0.13748169;2.242859;-;-;-;-;-;-;-;-;-;-;-;-;-;-;-
1514103008314;-;-;8.990723;-0.1482544;2.077652;-;-;-;-;-;-;-;-;-;-;-;-;-;-;-
1514103008334;-;-;9.039795;-0.05128479;2.2009583;-;-;-;-;-;-;-;-;-;-;-;-;-;-;-
1514103008354;-;-;8.971558;0.013366699;2.1207428;-;-;-;-;-;-;-;-;-;-;-;-;-;-;-
1514103008375;-;-;8.917694;0.03730774;2.1638489;-;-;-;-;-;-;-;-;-;-;-;-;-;-;-
1514103008395;-;-;8.912903;0.08758545;2.2644043;-;-;-;-;-;-;-;-;-;-;-;-;-;-;-
1514103008415;-;-;8.9392395;0.038497925;2.2931366;-;-;-;-;-;-;-;-;-;-;-;-;-;-;-
1514103008436;-;-;8.933258;0.0025787354;2.3242493;-;-;-;-;-;-;-;-;-;-;-;-;-;-;-
1514103008456;-;-;8.924881;-0.02734375;2.2416534;-;-;-;-;-;-;-;-;-;-;-;-;-;-;-
1514103008476;-;-;8.947617;-0.040512085;2.2416534;-;-;-;-;-;-;-;-;-;-;-;-;-;-;-
1514103008496;-;-;8.96199;-0.066848755;2.1997528;-;-;-;-;-;-;-;-;-;-;-;-;-;-;-
1514103008517;-;-;8.973953;-0.1015625;2.1746216;-;-;-;-;-;-;-;-;-;-;-;-;-;-;-
1514103008536;-;-;8.993118;-0.10395813;2.1458893;-;-;-;-;-;-;-;-;-;-;-;-;-;-;-
1514103008556;-;-;9.041;-0.08480835;2.0872345;-;-;-;-;-;-;-;-;-;-;-;-;-;-;-
1514103008577;-;-;8.991913;-0.011779785;2.1817932;-;-;-;-;-;-;-;-;-;-;-;-;-;-;-
1514103008597;-;-;8.892548;-0.02734375;2.311081;-;-;-;-;-;-;-;-;-;-;-;-;-;-;-
1514103008617;-;-;8.885376;-0.009384155;2.4188232;-;-;-;-;-;-;-;-;-;-;-;-;-;-;-
1514103008637;-;-;8.879379;-0.04170227;2.4595337;-;-;-;-;-;-;-;-;-;-;-;-;-;-;-
1514103008658;-;-;8.912903;-0.0440979;2.472702;-;-;-;-;-;-;-;-;-;-;-;-;-;-;-
1514103008678;-;-;8.917694;-0.08001709;2.3769226;-;-;-;-;-;-;-;-;-;-;-;-;-;-;-
1514103008698;-;-;8.985931;-0.0440979;2.282364;-;-;-;-;-;-;-;-;-;-;-;-;-;-;-
1514103008719;-;-;8.984726;-0.028533936;2.1985626;-;-;-;-;-;-;-;-;-;-;-;-;-;-;-
1514103008738;-;-;9.013458;-0.052474976;2.1207428;-;-;-;-;-;-;-;-;-;-;-;-;-;-;-
1514103008759;-;-;9.005081;-0.1482544;2.1734161;-;-;-;-;-;-;-;-;-;-;-;-;-;-;-
1514103008779;-;-;9.06134;-0.20570374;2.1231384;-;-;-;-;-;-;-;-;-;-;-;-;-;-;-
1514103008799;-;-;8.973953;-0.119522095;2.0477295;-;-;-;-;-;-;-;-;-;-;-;-;-;-;-
1514103008820;-;-;8.969162;-0.045303345;2.1387024;-;-;-;-;-;-;-;-;-;-;-;-;-;-;-
1514103008840;-;-;8.945221;-0.03453064;2.251236;-;-;-;-;-;-;-;-;-;-;-;-;-;-;-
1514103008860;-;-;8.946426;-0.030929565;2.3841095;-;-;-;-;-;-;-;-;-;-;-;-;-;-;-
1514103008880;-;-;8.910507;-0.064453125;2.453537;-;-;-;-;-;-;-;-;-;-;-;-;-;-;-
1514103008901;-;-;8.912903;-0.02015686;2.4619293;-;-;-;-;-;-;-;-;-;-;-;-;-;-;-
1514103008921;-;-;8.904526;-0.03213501;2.36615;-;-;-;-;-;-;-;-;-;-;-;-;-;-;-
1514103008941;-;-;8.953613;-0.011779785;2.4104462;-;-;-;-;-;-;-;-;-;-;-;-;-;-;-
1514103008961;-;-;8.966782;0.02053833;2.3374176;-;-;-;-;-;-;-;-;-;-;-;-;-;-;-
1514103008982;-;-;8.946426;0.05406189;2.2883453;-;-;-;-;-;-;-;-;-;-;-;-;-;-;-
1514103009002;-;-;8.9392395;0.02532959;2.3493958;-;-;-;-;-;-;-;-;-;-;-;-;-;-;-
1514103009022;-;-;8.916504;-0.021362305;2.3972778;-;-;-;-;-;-;-;-;-;-;-;-;-;-;-
1514103009043;-;-;8.8997345;-0.081207275;2.4475555;-;-;-;-;-;-;-;-;-;-;-;-;-;-;-
1514103009063;-;-;8.904526;-0.016571045;2.4272003;-;-;-;-;-;-;-;-;-;-;-;-;-;-;-
1514103009083;-;-;8.90213;0.02293396;2.4032593;-;-;-;-;-;-;-;-;-;-;-;-;-;-;-
1514103009104;-;-;8.904526;0.02772522;2.4068604;-;-;-;-;-;-;-;-;-;-;-;-;-;-;-
1514103009124;-;-;8.863831;0.05166626;2.4511414;-;-;-;-;-;-;-;-;-;-;-;-;-;-;-
1514103009144;-;-;8.859039;0.067230225;2.4403687;-;-;-;-;-;-;-;-;-;-;-;-;-;-;-
1514103009165;-;-;8.942825;0.0181427;2.3685455;-;-;-;-;-;-;-;-;-;-;-;-;-;-;-
1514103009185;-;-;8.959595;0.007369995;2.4236145;-;-;-;-;-;-;-;-;-;-;-;-;-;-;-
1514103009206;-;-;8.994308;-0.06564331;2.3553772;-;-;-;-;-;-;-;-;-;-;-;-;-;-;-
1514103009226;-;-;8.912903;-0.026138306;2.227295;-;-;-;-;-;-;-;-;-;-;-;-;-;-;-
1514103009246;-;-;8.833893;0.10913086;2.3565826;-;-;-;-;-;-;-;-;-;-;-;-;-;-;-
1514103009266;-;-;8.92128;0.03730774;2.4990387;-;-;-;-;-;-;-;-;-;-;-;-;-;-;-
1514103009287;-;-;8.885376;-0.016571045;2.556488;-;-;-;-;-;-;-;-;-;-;-;-;-;-;-
1514103009307;-;-;8.849457;0.0025787354;2.556488;-;-;-;-;-;-;-;-;-;-;-;-;-;-;-
1514103009327;-;-;8.886566;0.008575439;2.5337524;-;-;-;-;-;-;-;-;-;-;-;-;-;-;-
1514103009348;-;-;8.853058;0.028915405;2.5181885;-;-;-;-;-;-;-;-;-;-;-;-;-;-;-
1514103009368;-;-;8.908112;0.0049743652;2.4643097;-;-;-;-;-;-;-;-;-;-;-;-;-;-;-
1514103009388;-;-;8.908112;-0.018966675;2.4343872;-;-;-;-;-;-;-;-;-;-;-;-;-;-;-
1514103009408;-;-;8.885376;-0.0045928955;2.385315;-;-;-;-;-;-;-;-;-;-;-;-;-;-;-
1514103009429;-;-;8.868607;-0.011779785;2.4523468;-;-;-;-;-;-;-;-;-;-;-;-;-;-;-
1514103009449;-;-;8.888962;-0.04649353;2.500229;-;-;-;-;-;-;-;-;-;-;-;-;-;-;-
1514103009469;-;-;8.875793;-0.03213501;2.4978333;-;-;-;-;-;-;-;-;-;-;-;-;-;-;-
1514103009489;-;-;8.861435;-0.00819397;2.4750977;-;-;-;-;-;-;-;-;-;-;-;-;-;-;-
1514103009510;-;-;8.885376;0.031311035;2.4834747;-;-;-;-;-;-;-;-;-;-;-;-;-;-;-
1514103009530;-;-;8.856644;0.036102295;2.4619293;-;-;-;-;-;-;-;-;-;-;-;-;-;-;-
1514103009550;-;-;8.872208;0.021743774;2.5505066;-;-;-;-;-;-;-;-;-;-;-;-;-;-;-
1514103009571;-;-;8.875793;0.031311035;2.5935974;-;-;-;-;-;-;-;-;-;-;-;-;-;-;-
1514103009591;-;-;8.8051605;0.007369995;2.5253754;-;-;-;-;-;-;-;-;-;-;-;-;-;-;-
1514103009611;-;-;8.890167;-0.00340271;2.5385437;-;-;-;-;-;-;-;-;-;-;-;-;-;-;-
1514103009632;-;-;9.008667;-0.0069885254;2.52417;-;-;-;-;-;-;-;-;-;-;-;-;-;-;-
1514103009652;-;-;8.917694;-0.0010070801;2.2691956;-;-;-;-;-;-;-;-;-;-;-;-;-;-;-
1514103009672;-;-;8.946426;0.03970337;2.321869;-;-;-;-;-;-;-;-;-;-;-;-;-;-;-
1514103009693;-;-;8.872208;0.04208374;2.3685455;-;-;-;-;-;-;-;-;-;-;-;-;-;-;-
1514103009713;-;-;8.92009;-0.028533936;2.4499512;-;-;-;-;-;-;-;-;-;-;-;-;-;-;-
1514103009733;-;-;8.926071;0.0025787354;2.4834747;-;-;-;-;-;-;-;-;-;-;-;-;-;-;-
1514103009754;-;-;8.881775;0.0013885498;2.4475555;-;-;-;-;-;-;-;-;-;-;-;-;-;-;-
1514103009774;-;-;8.908112;0.0049743652;2.3709412;-;-;-;-;-;-;-;-;-;-;-;-;-;-;-
1514103009794;-;-;8.940445;-0.00340271;2.3673553;-;-;-;-;-;-;-;-;-;-;-;-;-;-;-
1514103009815;-;-;8.975159;-0.016571045;2.3098907;-;-;-;-;-;-;-;-;-;-;-;-;-;-;-
1514103009835;-;-;8.947617;-0.02494812;2.3194733;-;-;-;-;-;-;-;-;-;-;-;-;-;-;-
1514103009855;-;-;8.90213;0.007369995;2.3290405;-;-;-;-;-;-;-;-;-;-;-;-;-;-;-
1514103009876;-;-;8.891357;-0.03691101;2.3805237;-;-;-;-;-;-;-;-;-;-;-;-;-;-;-
1514103009896;-;-;8.912903;-0.08001709;2.393692;-;-;-;-;-;-;-;-;-;-;-;-;-;-;-
1514103009916;-;-;8.924881;-0.05847168;2.3733368;-;-;-;-;-;-;-;-;-;-;-;-;-;-;-
1514103009936;-;-;8.906921;-0.03213501;2.3362274;-;-;-;-;-;-;-;-;-;-;-;-;-;-;-
