TimeStamp[ms];Prox[Cm];Lux[lux];AccX[m/s^2];AccY[m/s^2];AccZ[m/s^2];GyroX[rad/s];GyroY[rad/s];GyroZ[rad/s];MagnX[uT];MagnY[uT];MagnZ[uT];OrienYaw[degrees];OrienPitch[degrees];OrienRoll[degrees];Press[Pa];Temp[C°];Batt[%];Lat;Lng;Speed[m/s]
1514103318017;-;-;8.825516;-2.4550629;0.2987671;-;-;-;-;-;-;-;-;-;-;-;-;-;-;-
1514103318016;-;-;8.88298;-2.3760529;0.47233582;-;-;-;-;-;-;-;-;-;-;-;-;-;-;-
1514103318034;-;-;8.847061;-2.3556976;0.3023529;-;-;-;-;-;-;-;-;-;-;-;-;-;-;-
1514103318055;-;-;9.045776;-2.2204285;0.17785645;-;-;-;-;-;-;-;-;-;-;-;-;-;-;-
1514103318075;-;-;9.360626;-2.2252197;0.16947937;-;-;-;-;-;-;-;-;-;-;-;-;-;-;-
1514103318096;-;-;8.966782;-2.1845245;-0.16571045;-;-;-;-;-;-;-;-;-;-;-;-;-;-;-
1514103318116;-;-;9.062546;-2.2359924;-0.0340271;-;-;-;-;-;-;-;-;-;-;-;-;-;-;-
1514103318136;-;-;8.528641;-2.2886658;-0.451828;-;-;-;-;-;-;-;-;-;-;-;-;-;-;-
1514103318156;-;-;8.308365;-2.8165894;1.0242004;-;-;-;-;-;-;-;-;-;-;-;-;-;-;-
1514103318177;-;-;9.6467285;-1.6434326;-2.1864166;-;-;-;-;-;-;-;-;-;-;-;-;-;-;-
1514103318197;-;-;7.889389;-2.7926483;0.6602783;-;-;-;-;-;-;-;-;-;-;-;-;-;-;-
1514103318217;-;-;9.07811;-3.3935852;0.26763916;-;-;-;-;-;-;-;-;-;-;-;-;-;-;-
1514103318238;-;-;8.613632;-2.9291077;-0.19085693;-;-;-;-;-;-;-;-;-;-;-;-;-;-;-
1514103318268;-;-;9.106842;-2.495758;-0.33210754;-;-;-;-;-;-;-;-;-;-;-;-;-;-;-
1514103318278;-;-;8.933258;-2.056427;-0.11782837;-;-;-;-;-;-;-;-;-;-;-;-;-;-;-
1514103318299;-;-;7.8247375;-2.490982;-0.07952881;-;-;-;-;-;-;-;-;-;-;-;-;-;-;-
1514103318319;-;-;7.2836456;-2.4299164;-0.3764038;-;-;-;-;-;-;-;-;-;-;-;-;-;-;-
1514103318339;-;-;8.382584;-2.0312958;-0.6577301;-;-;-;-;-;-;-;-;-;-;-;-;-;-;-
1514103318360;-;-;10.023819;-2.190506;-0.9174957;-;-;-;-;-;-;-;-;-;-;-;-;-;-;-
1514103318380;-;-;10.387741;-2.1402283;-1.9721375;-;-;-;-;-;-;-;-;-;-;-;-;-;-;-
1514103318400;-;-;10.449982;-0.7503967;-0.88757324;-;-;-;-;-;-;-;-;-;-;-;-;-;-;-
1514103318421;-;-;9.69342;-1.953476;-1.4274597;-;-;-;-;-;-;-;-;-;-;-;-;-;-;-
1514103318441;-;-;8.904526;-2.1222687;-1.2359161;-;-;-;-;-;-;-;-;-;-;-;-;-;-;-
1514103318461;-;-;9.206192;-2.5891418;-1.2275391;-;-;-;-;-;-;-;-;-;-;-;-;-;-;-
1514103318481;-;-;9.050568;-2.590332;-1.0826874;-;-;-;-;-;-;-;-;-;-;-;-;-;-;-
1514103318502;-;-;8.654327;-2.5532227;-1.1569061;-;-;-;-;-;-;-;-;-;-;-;-;-;-;-
1514103318522;-;-;8.704605;-2.502945;-1.2466888;-;-;-;-;-;-;-;-;-;-;-;-;-;-;-
1514103318542;-;-;8.738129;-2.380844;-1.2502899;-;-;-;-;-;-;-;-;-;-;-;-;-;-;-
1514103318563;-;-;8.815933;-2.151001;-1.282608;-;-;-;-;-;-;-;-;-;-;-;-;-;-;-
1514103318583;-;-;8.880585;-2.0372772;-1.3089447;-;-;-;-;-;-;-;-;-;-;-;-;-;-;-
1514103318603;-;-;9.036209;-2.2527466;-1.2071991;-;-;-;-;-;-;-;-;-;-;-;-;-;-;-
1514103318623;-;-;9.65152;-2.6082916;-1.6249847;-;-;-;-;-;-;-;-;-;-;-;-;-;-;-
1514103318644;-;-;9.012268;-2.4574585;-0.6613159;-;-;-;-;-;-;-;-;-;-;-;-;-;-;-
1514103318664;-;-;8.935654;-2.1857147;-0.9761505;-;-;-;-;-;-;-;-;-;-;-;-;-;-;-
1514103318684;-;-;9.39534;-1.9367218;-1.0276337;-;-;-;-;-;-;-;-;-;-;-;-;-;-;-
1514103318704;-;-;8.420898;-1.7870789;-1.7506714;-;-;-;-;-;-;-;-;-;-;-;-;-;-;-
1514103318725;-;-;8.210205;-1.5356903;-1.322113;-;-;-;-;-;-;-;-;-;-;-;-;-;-;-
1514103318745;-;-;8.757278;-1.4961853;-1.219162;-;-;-;-;-;-;-;-;-;-;-;-;-;-;-
1514103318765;-;-;8.559753;-1.6218872;-2.270218;-;-;-;-;-;-;-;-;-;-;-;-;-;-;-
1514103318785;-;-;8.83989;-2.1569824;-1.7973633;-;-;-;-;-;-;-;-;-;-;-;-;-;-;-
1514103318805;-;-;9.038605;-1.6003265;-2.357605;-;-;-;-;-;-;-;-;-;-;-;-;-;-;-
1514103318826;-;-;10.665466;-1.8852386;-2.5036469;-;-;-;-;-;-;-;-;-;-;-;-;-;-;-
1514103318847;-;-;8.1874695;0.21087646;-3.4517517;-;-;-;-;-;-;-;-;-;-;-;-;-;-;-
1514103318868;-;-;9.585678;1.1877136;-1.5375977;-;-;-;-;-;-;-;-;-;-;-;-;-;-;-
1514103318888;-;-;8.548981;0.50057983;-2.9980621;-;-;-;-;-;-;-;-;-;-;-;-;-;-;-
1514103318908;-;-;10.00705;-0.85095215;-3.1093903;-;-;-;-;-;-;-;-;-;-;-;-;-;-;-
1514103318928;-;-;8.845871;-0.5313263;-3.353592;-;-;-;-;-;-;-;-;-;-;-;-;-;-;-
1514103318949;-;-;8.106064;-0.24281311;-2.2331085;-;-;-;-;-;-;-;-;-;-;-;-;-;-;-
1514103318969;-;-;7.549408;0.1330719;-1.8464508;-;-;-;-;-;-;-;-;-;-;-;-;-;-;-
1514103318989;-;-;7.573349;0.4119873;-2.4485931;-;-;-;-;-;-;-;-;-;-;-;-;-;-;-
1514103319010;-;-;9.222961;0.63345337;-1.3460541;-;-;-;-;-;-;-;-;-;-;-;-;-;-;-
1514103319030;-;-;9.631165;-0.08001709;-1.3640137;-;-;-;-;-;-;-;-;-;-;-;-;-;-;-
1514103319050;-;-;10.008255;-0.9934082;-2.883133;-;-;-;-;-;-;-;-;-;-;-;-;-;-;-
1514103319070;-;-;11.000656;-1.0700226;-3.1943817;-;-;-;-;-;-;-;-;-;-;-;-;-;-;-
1514103319091;-;-;11.611176;-2.1474;-3.0674896;-;-;-;-;-;-;-;-;-;-;-;-;-;-;-
1514103319111;-;-;10.568497;-0.6641998;-2.9729156;-;-;-;-;-;-;-;-;-;-;-;-;-;-;-
1514103319132;-;-;9.245697;1.1434174;-2.4785156;-;-;-;-;-;-;-;-;-;-;-;-;-;-;-
1514103319152;-;-;8.938049;1.6246643;-1.8608093;-;-;-;-;-;-;-;-;-;-;-;-;-;-;-
1514103319172;-;-;8.201828;1.085968;-1.1174164;-;-;-;-;-;-;-;-;-;-;-;-;-;-;-
1514103319192;-;-;8.662704;0.088775635;-1.8548279;-;-;-;-;-;-;-;-;-;-;-;-;-;-;-
1514103319213;-;-;9.495895;0.30903625;-1.6249847;-;-;-;-;-;-;-;-;-;-;-;-;-;-;-
1514103319233;-;-;8.1922455;0.43354797;-2.2295227;-;-;-;-;-;-;-;-;-;-;-;-;-;-;-
1514103319253;-;-;9.2313385;-2.854889;-3.2949371;-;-;-;-;-;-;-;-;-;-;-;-;-;-;-
1514103319273;-;-;10.254852;-0.038116455;-1.7494812;-;-;-;-;-;-;-;-;-;-;-;-;-;-;-
1514103319294;-;-;9.43364;-3.079956;-1.729126;-;-;-;-;-;-;-;-;-;-;-;-;-;-;-
1514103319314;-;-;5.9105835;-1.5416718;-0.7307434;-;-;-;-;-;-;-;-;-;-;-;-;-;-;-
1514103319334;-;-;7.0298615;-0.59954834;-1.4107056;-;-;-;-;-;-;-;-;-;-;-;-;-;-;-
1514103319355;-;-;6.7581177;-0.15663147;-2.6999817;-;-;-;-;-;-;-;-;-;-;-;-;-;-;-
1514103319375;-;-;7.6511536;0.8441467;-3.8384247;-;-;-;-;-;-;-;-;-;-;-;-;-;-;-
1514103319395;-;-;5.6663666;1.2954559;-2.9585571;-;-;-;-;-;-;-;-;-;-;-;-;-;-;-
1514103319416;-;-;6.422943;1.9466705;-4.029953;-;-;-;-;-;-;-;-;-;-;-;-;-;-;-
1514103319436;-;-;8.052185;0.2743225;-4.476471;-;-;-;-;-;-;-;-;-;-;-;-;-;-;-
1514103319457;-;-;6.3774414;0.53170776;-2.9561615;-;-;-;-;-;-;-;-;-;-;-;-;-;-;-
1514103319477;-;-;6.8945923;-0.27514648;-3.1417084;-;-;-;-;-;-;-;-;-;-;-;-;-;-;-
1514103319497;-;-;6.3571014;-0.6713867;-3.1069946;-;-;-;-;-;-;-;-;-;-;-;-;-;-;-
1514103319518;-;-;5.004364;-0.8820648;-4.8020782;-;-;-;-;-;-;-;-;-;-;-;-;-;-;-
1514103319538;-;-;5.565811;-1.2447968;-7.4201508;-;-;-;-;-;-;-;-;-;-;-;-;-;-;-
1514103319558;-;-;5.741791;-1.1382446;-7.057419;-;-;-;-;-;-;-;-;-;-;-;-;-;-;-
1514103319579;-;-;10.828262;-3.6162567;-2.7418823;-;-;-;-;-;-;-;-;-;-;-;-;-;-;-
1514103319599;-;-;7.4716034;-1.8146057;-4.199951;-;-;-;-;-;-;-;-;-;-;-;-;-;-;-
1514103319619;-;-;6.249359;-1.7667236;-3.3332367;-;-;-;-;-;-;-;-;-;-;-;-;-;-;-
1514103319639;-;-;7.3494873;-2.4263306;-3.8444061;-;-;-;-;-;-;-;-;-;-;-;-;-;-;-
1514103319660;-;-;6.4456787;-2.7040558;-4.4956207;-;-;-;-;-;-;-;-;-;-;-;-;-;-;-
1514103319680;-;-;7.2022552;-2.0348816;-4.7194824;-;-;-;-;-;-;-;-;-;-;-;-;-;-;-
1514103319700;-;-;8.217392;-0.5432892;-4.3435974;-;-;-;-;-;-;-;-;-;-;-;-;-;-;-
1514103319721;-;-;8.121628;1.3864288;-4.3268433;-;-;-;-;-;-;-;-;-;-;-;-;-;-;-
1514103319741;-;-;7.8391113;2.0256805;-4.413025;-;-;-;-;-;-;-;-;-;-;-;-;-;-;-
1514103319761;-;-;8.449631;1.7826691;-4.754196;-;-;-;-;-;-;-;-;-;-;-;-;-;-;-
1514103319782;-;-;9.131973;1.4510803;-5.319229;-;-;-;-;-;-;-;-;-;-;-;-;-;-;-
1514103319802;-;-;8.1766815;0.9016113;-5.2689514;-;-;-;-;-;-;-;-;-;-;-;-;-;-;-
1514103319822;-;-;8.376602;0.54248047;-4.3005066;-;-;-;-;-;-;-;-;-;-;-;-;-;-;-
1514103319843;-;-;7.7960052;0.76634216;-3.6109772;-;-;-;-;-;-;-;-;-;-;-;-;-;-;-
1514103319863;-;-;7.521881;0.7795105;-3.7067413;-;-;-;-;-;-;-;-;-;-;-;-;-;-;-
1514103319883;-;-;8.036621;0.6861267;-3.9772797;-;-;-;-;-;-;-;-;-;-;-;-;-;-;-
1514103319904;-;-;8.693832;0.31263733;-4.476471;-;-;-;-;-;-;-;-;-;-;-;-;-;-;-
1514103319925;-;-;9.129578;0.69929504;-4.673996;-;-;-;-;-;-;-;-;-;-;-;-;-;-;-
1514103319945;-;-;8.985931;1.3086243;-4.6296997;-;-;-;-;-;-;-;-;-;-;-;-;-;-;-
1514103319965;-;-;8.701019;1.4762115;-4.290924;-;-;-;-;-;-;-;-;-;-;-;-;-;-;-
1514103319986;-;-;9.0577545;0.91477966;-3.7893372;-;-;-;-;-;-;-;-;-;-;-;-;-;-;-
1514103320006;-;-;9.21817;0.70529175;-3.7713776;-;-;-;-;-;-;-;-;-;-;-;-;-;-;-
1514103320027;-;-;9.5282135;0.67056274;-3.3966827;-;-;-;-;-;-;-;-;-;-;-;-;-;-;-
1514103320047;-;-;10.36499;0.03491211;-2.6987762;-;-;-;-;-;-;-;-;-;-;-;-;-;-;-
1514103320068;-;-;11.613571;-0.12789917;-2.5886536;-;-;-;-;-;-;-;-;-;-;-;-;-;-;-
1514103320089;-;-;13.613922;0.83576965;-2.39711;-;-;-;-;-;-;-;-;-;-;-;-;-;-;-
1514103320108;-;-;15.665756;2.145401;-2.6628723;-;-;-;-;-;-;-;-;-;-;-;-;-;-;-
1514103320128;-;-;14.41478;1.6138763;-3.8192596;-;-;-;-;-;-;-;-;-;-;-;-;-;-;-
1514103320149;-;-;13.96228;-0.12669373;-2.4198608;-;-;-;-;-;-;-;-;-;-;-;-;-;-;-
1514103320169;-;-;11.020996;-0.9898071;-0.74272156;-;-;-;-;-;-;-;-;-;-;-;-;-;-;-
1514103320189;-;-;7.423706;-1.0927582;0.3430481;-;-;-;-;-;-;-;-;-;-;-;-;-;-;-
1514103320209;-;-;5.805237;-0.45350647;0.58366394;-;-;-;-;-;-;-;-;-;-;-;-;-;-;-
1514103320230;-;-;5.6974945;0.54008484;1.1726379;-;-;-;-;-;-;-;-;-;-;-;-;-;-;-
1514103320249;-;-;6.6707306;1.185318;1.0469513;-;-;-;-;-;-;-;-;-;-;-;-;-;-;-
1514103320269;-;-;7.4344788;1.453476;0.39213562;-;-;-;-;-;-;-;-;-;-;-;-;-;-;-
1514103320290;-;-;8.82312;0.99858093;0.094055176;-;-;-;-;-;-;-;-;-;-;-;-;-;-;-
1514103320310;-;-;9.694611;0.51493835;-0.15374756;-;-;-;-;-;-;-;-;-;-;-;-;-;-;-
1514103320330;-;-;9.923264;0.40960693;0.32270813;-;-;-;-;-;-;-;-;-;-;-;-;-;-;-
1514103320350;-;-;10.321899;0.26594543;0.75845337;-;-;-;-;-;-;-;-;-;-;-;-;-;-;-
1514103320371;-;-;10.123169;0.107925415;0.72732544;-;-;-;-;-;-;-;-;-;-;-;-;-;-;-
1514103320392;-;-;9.979523;-0.14225769;1.0553284;-;-;-;-;-;-;-;-;-;-;-;-;-;-;-
1514103320412;-;-;9.869385;-0.1817627;1.1953888;-;-;-;-;-;-;-;-;-;-;-;-;-;-;-
1514103320432;-;-;9.638351;-0.26675415;1.6778259;-;-;-;-;-;-;-;-;-;-;-;-;-;-;-
1514103320452;-;-;9.437241;-0.31105042;2.0118103;-;-;-;-;-;-;-;-;-;-;-;-;-;-;-
1514103320473;-;-;9.030228;-0.19613647;1.7125397;-;-;-;-;-;-;-;-;-;-;-;-;-;-;-
1514103320492;-;-;8.763275;-0.27633667;1.7783813;-;-;-;-;-;-;-;-;-;-;-;-;-;-;-
1514103320512;-;-;8.582504;-0.009384155;1.6610565;-;-;-;-;-;-;-;-;-;-;-;-;-;-;-
1514103320532;-;-;8.733337;0.3461609;1.8585815;-;-;-;-;-;-;-;-;-;-;-;-;-;-;-
1514103320553;-;-;8.946426;0.6645813;2.2212982;-;-;-;-;-;-;-;-;-;-;-;-;-;-;-
1514103320573;-;-;8.82312;0.53289795;2.1746216;-;-;-;-;-;-;-;-;-;-;-;-;-;-;-
1514103320594;-;-;8.985931;0.46228027;2.1195526;-;-;-;-;-;-;-;-;-;-;-;-;-;-;-
1514103320614;-;-;8.875793;0.62628174;2.2644043;-;-;-;-;-;-;-;-;-;-;-;-;-;-;-
1514103320634;-;-;8.763275;1.0009613;2.3685455;-;-;-;-;-;-;-;-;-;-;-;-;-;-;-
1514103320655;-;-;8.8003845;0.9638519;2.4260101;-;-;-;-;-;-;-;-;-;-;-;-;-;-;-
1514103320675;-;-;8.80397;0.6166992;2.0788574;-;-;-;-;-;-;-;-;-;-;-;-;-;-;-
1514103320695;-;-;8.8051605;0.28271484;1.7304993;-;-;-;-;-;-;-;-;-;-;-;-;-;-;-
1514103320716;-;-;9.035004;0.22525024;1.5736694;-;-;-;-;-;-;-;-;-;-;-;-;-;-;-
1514103320736;-;-;9.278015;0.17376709;1.1810303;-;-;-;-;-;-;-;-;-;-;-;-;-;-;-
1514103320756;-;-;9.3546295;0.13905334;1.1905975;-;-;-;-;-;-;-;-;-;-;-;-;-;-;-
1514103320777;-;-;9.242111;0.024139404;1.473114;-;-;-;-;-;-;-;-;-;-;-;-;-;-;-
1514103320797;-;-;9.06015;-0.25837708;1.5413513;-;-;-;-;-;-;-;-;-;-;-;-;-;-;-
1514103320817;-;-;8.790802;-0.36013794;1.7209167;-;-;-;-;-;-;-;-;-;-;-;-;-;-;-
1514103320837;-;-;8.971558;-0.00819397;1.6945801;-;-;-;-;-;-;-;-;-;-;-;-;-;-;-
1514103320858;-;-;9.293579;0.30186462;1.5593109;-;-;-;-;-;-;-;-;-;-;-;-;-;-;-
1514103320877;-;-;9.355835;0.22164917;1.4288177;-;-;-;-;-;-;-;-;-;-;-;-;-;-;-
1514103320897;-;-;9.327103;-0.20690918;1.4204407;-;-;-;-;-;-;-;-;-;-;-;-;-;-;-
1514103320917;-;-;9.292389;-0.59117126;1.5497284;-;-;-;-;-;-;-;-;-;-;-;-;-;-;-
1514103320937;-;-;9.197815;-0.96347046;1.7771759;-;-;-;-;-;-;-;-;-;-;-;-;-;-;-
1514103320958;-;-;8.82193;-1.1693726;1.9842834;-;-;-;-;-;-;-;-;-;-;-;-;-;-;-
1514103320977;-;-;8.528641;-1.151413;2.242859;-;-;-;-;-;-;-;-;-;-;-;-;-;-;-
1514103320997;-;-;8.704605;-1.020935;2.2320862;-;-;-;-;-;-;-;-;-;-;-;-;-;-;-
1514103321017;-;-;8.922485;-0.9287567;2.015396;-;-;-;-;-;-;-;-;-;-;-;-;-;-;-
1514103321037;-;-;9.07811;-0.86531067;1.8526001;-;-;-;-;-;-;-;-;-;-;-;-;-;-;-
1514103321057;-;-;9.163101;-0.58039856;1.923233;-;-;-;-;-;-;-;-;-;-;-;-;-;-;-
1514103321077;-;-;9.154724;-0.38168335;1.8980865;-;-;-;-;-;-;-;-;-;-;-;-;-;-;-
1514103321098;-;-;9.015854;-0.3984375;1.8178864;-;-;-;-;-;-;-;-;-;-;-;-;-;-;-
1514103321118;-;-;8.934448;-0.40322876;1.8106995;-;-;-;-;-;-;-;-;-;-;-;-;-;-;-
1514103321138;-;-;8.976349;-0.35534668;1.9615326;-;-;-;-;-;-;-;-;-;-;-;-;-;-;-
1514103321159;-;-;8.990723;-0.35055542;1.9220276;-;-;-;-;-;-;-;-;-;-;-;-;-;-;-
1514103321178;-;-;8.914108;-0.47984314;1.7556305;-;-;-;-;-;-;-;-;-;-;-;-;-;-;-
1514103321198;-;-;9.046982;-0.641449;1.9220276;-;-;-;-;-;-;-;-;-;-;-;-;-;-;-
1514103321219;-;-;9.161896;-0.72883606;1.9148407;-;-;-;-;-;-;-;-;-;-;-;-;-;-;-
1514103321239;-;-;9.127182;-0.7013092;1.9735107;-;-;-;-;-;-;-;-;-;-;-;-;-;-;-
1514103321259;-;-;8.97995;-0.7420044;1.9818878;-;-;-;-;-;-;-;-;-;-;-;-;-;-;-
1514103321279;-;-;9.094864;-0.69532776;1.8154907;-;-;-;-;-;-;-;-;-;-;-;-;-;-;-
1514103321300;-;-;9.054169;-0.6438446;1.6059875;-;-;-;-;-;-;-;-;-;-;-;-;-;-;-
1514103321320;-;-;9.182251;-0.5756073;1.5988159;-;-;-;-;-;-;-;-;-;-;-;-;-;-;-
1514103321340;-;-;9.121201;-0.5600586;1.8023224;-;-;-;-;-;-;-;-;-;-;-;-;-;-;-
1514103321360;-;-;8.948822;-0.49061584;1.9112549;-;-;-;-;-;-;-;-;-;-;-;-;-;-;-
1514103321380;-;-;8.8997345;-0.58639526;2.0596924;-;-;-;-;-;-;-;-;-;-;-;-;-;-;-
1514103321400;-;-;8.92009;-0.704895;2.1841888;-;-;-;-;-;-;-;-;-;-;-;-;-;-;-
1514103321421;-;-;8.775238;-0.6151123;2.2955322;-;-;-;-;-;-;-;-;-;-;-;-;-;-;-
1514103321441;-;-;8.701019;-0.59117126;2.2644043;-;-;-;-;-;-;-;-;-;-;-;-;-;-;-
1514103321461;-;-;8.82193;-0.6701813;2.0800476;-;-;-;-;-;-;-;-;-;-;-;-;-;-;-
1514103321482;-;-;8.989517;-0.6534271;1.9495697;-;-;-;-;-;-;-;-;-;-;-;-;-;-;-
1514103321502;-;-;9.003891;-0.48104858;1.8717499;-;-;-;-;-;-;-;-;-;-;-;-;-;-;-
1514103321522;-;-;8.983536;-0.3074646;1.7424622;-;-;-;-;-;-;-;-;-;-;-;-;-;-;-
1514103321542;-;-;9.075714;-0.28352356;1.6993713;-;-;-;-;-;-;-;-;-;-;-;-;-;-;-
1514103321563;-;-;9.1523285;-0.42237854;1.6826019;-;-;-;-;-;-;-;-;-;-;-;-;-;-;-
1514103321583;-;-;9.230133;-0.6318817;1.6478882;-;-;-;-;-;-;-;-;-;-;-;-;-;-;-
1514103321603;-;-;9.25647;-0.7779236;1.5700836;-;-;-;-;-;-;-;-;-;-;-;-;-;-;-
1514103321624;-;-;9.345062;-0.68814087;1.5820465;-;-;-;-;-;-;-;-;-;-;-;-;-;-;-
1514103321644;-;-;9.408508;-0.5636444;1.5593109;-;-;-;-;-;-;-;-;-;-;-;-;-;-;-
1514103321664;-;-;9.248093;-0.63786316;1.5269928;-;-;-;-;-;-;-;-;-;-;-;-;-;-;-
1514103321684;-;-;9.084091;-0.77552795;1.4563599;-;-;-;-;-;-;-;-;-;-;-;-;-;-;-
1514103321705;-;-;9.072113;-0.8018646;1.4084778;-;-;-;-;-;-;-;-;-;-;-;-;-;-;-
1514103321725;-;-;9.080505;-0.7587738;1.5581055;-;-;-;-;-;-;-;-;-;-;-;-;-;-;-
1514103321745;-;-;9.15831;-0.58039856;1.6658478;-;-;-;-;-;-;-;-;-;-;-;-;-;-;-
1514103321766;-;-;9.184647;-0.3697052;1.5940247;-;-;-;-;-;-;-;-;-;-;-;-;-;-;-
1514103321786;-;-;9.133179;-0.33140564;1.7664032;-;-;-;-;-;-;-;-;-;-;-;-;-;-;-
1514103321806;-;-;8.753693;-0.38287354;1.6251526;-;-;-;-;-;-;-;-;-;-;-;-;-;-;-
1514103321827;-;-;8.459198;-0.5157623;1.2684174;-;-;-;-;-;-;-;-;-;-;-;-;-;-;-
1514103321847;-;-;8.936844;-0.5923767;1.1475067;-;-;-;-;-;-;-;-;-;-;-;-;-;-;-
1514103321867;-;-;9.420471;-0.47505188;1.1726379;-;-;-;-;-;-;-;-;-;-;-;-;-;-;-
1514103321888;-;-;9.997482;-0.34457397;0.56451416;-;-;-;-;-;-;-;-;-;-;-;-;-;-;-
1514103321908;-;-;10.233307;-0.1877594;0.70098877;-;-;-;-;-;-;-;-;-;-;-;-;-;-;-
1514103321928;-;-;9.765244;-0.17817688;0.9380188;-;-;-;-;-;-;-;-;-;-;-;-;-;-;-
1514103321948;-;-;8.941635;-0.8473511;0.7763977;-;-;-;-;-;-;-;-;-;-;-;-;-;-;-
1514103321969;-;-;8.647156;-1.3238068;1.1642609;-;-;-;-;-;-;-;-;-;-;-;-;-;-;-
1514103321989;-;-;8.319138;-1.190918;1.8226776;-;-;-;-;-;-;-;-;-;-;-;-;-;-;-
1514103322009;-;-;8.441254;-0.93833923;2.0956116;-;-;-;-;-;-;-;-;-;-;-;-;-;-;-
1514103322029;-;-;8.7764435;-0.7264557;1.7939453;-;-;-;-;-;-;-;-;-;-;-;-;-;-;-
1514103322050;-;-;9.410904;-0.37091064;1.6179657;-;-;-;-;-;-;-;-;-;-;-;-;-;-;-
1514103322070;-;-;9.698196;0.4874115;1.4814911;-;-;-;-;-;-;-;-;-;-;-;-;-;-;-
1514103322090;-;-;9.802353;1.1314545;1.567688;-;-;-;-;-;-;-;-;-;-;-;-;-;-;-
1514103322110;-;-;9.606033;1.0332947;2.0166016;-;-;-;-;-;-;-;-;-;-;-;-;-;-;-
1514103322130;-;-;8.959595;0.6573944;2.350586;-;-;-;-;-;-;-;-;-;-;-;-;-;-;-
1514103322151;-;-;7.6906586;-0.19013977;2.307495;-;-;-;-;-;-;-;-;-;-;-;-;-;-;-
1514103322171;-;-;7.9312897;-0.9251709;2.1303253;-;-;-;-;-;-;-;-;-;-;-;-;-;-;-
1514103322191;-;-;8.207809;-1.0424805;1.339035;-;-;-;-;-;-;-;-;-;-;-;-;-;-;-
1514103322211;-;-;9.329498;-0.7216644;1.5389557;-;-;-;-;-;-;-;-;-;-;-;-;-;-;-
1514103322232;-;-;10.002274;0.18214417;1.8921051;-;-;-;-;-;-;-;-;-;-;-;-;-;-;-
1514103322252;-;-;10.326675;0.83695984;1.5976105;-;-;-;-;-;-;-;-;-;-;-;-;-;-;-
1514103322272;-;-;10.309921;0.67774963;0.9990692;-;-;-;-;-;-;-;-;-;-;-;-;-;-;-
1514103322293;-;-;9.71376;0.5376892;1.0457458;-;-;-;-;-;-;-;-;-;-;-;-;-;-;-
1514103322313;-;-;8.850662;0.25398254;1.5305786;-;-;-;-;-;-;-;-;-;-;-;-;-;-;-
1514103322333;-;-;7.969589;-0.31225586;2.1770172;-;-;-;-;-;-;-;-;-;-;-;-;-;-;-
1514103322353;-;-;7.593704;-1.0041809;2.817459;-;-;-;-;-;-;-;-;-;-;-;-;-;-;-
1514103322374;-;-;8.34668;-1.1741638;2.7635956;-;-;-;-;-;-;-;-;-;-;-;-;-;-;-
1514103322393;-;-;9.184647;-1.225647;2.551712;-;-;-;-;-;-;-;-;-;-;-;-;-;-;-
1514103322413;-;-;9.7808075;-1.225647;2.1590576;-;-;-;-;-;-;-;-;-;-;-;-;-;-;-
1514103322433;-;-;9.518631;-1.2016907;1.686203;-;-;-;-;-;-;-;-;-;-;-;-;-;-;-
1514103322454;-;-;9.373795;-1.273529;1.3629761;-;-;-;-;-;-;-;-;-;-;-;-;-;-;-
1514103322474;-;-;9.346252;-1.3692932;1.7975311;-;-;-;-;-;-;-;-;-;-;-;-;-;-;-
1514103322494;-;-;8.740524;-1.1645813;2.8306274;-;-;-;-;-;-;-;-;-;-;-;-;-;-;-
1514103322514;-;-;8.411316;-0.3541565;2.9934387;-;-;-;-;-;-;-;-;-;-;-;-;-;-;-
1514103322535;-;-;8.625595;0.11392212;2.6007843;-;-;-;-;-;-;-;-;-;-;-;-;-;-;-
1514103322554;-;-;8.941635;0.19891357;2.2165222;-;-;-;-;-;-;-;-;-;-;-;-;-;-;-
1514103322574;-;-;9.183456;-0.035720825;2.1075745;-;-;-;-;-;-;-;-;-;-;-;-;-;-;-
1514103322594;-;-;9.234924;-0.41160583;2.1315155;-;-;-;-;-;-;-;-;-;-;-;-;-;-;-
1514103322615;-;-;8.862625;-0.35653687;2.7264862;-;-;-;-;-;-;-;-;-;-;-;-;-;-;-
1514103322635;-;-;8.560959;-0.20930481;3.2292633;-;-;-;-;-;-;-;-;-;-;-;-;-;-;-
1514103322655;-;-;8.376602;-0.30986023;3.3777008;-;-;-;-;-;-;-;-;-;-;-;-;-;-;-
1514103322676;-;-;8.510681;-0.5923767;3.516571;-;-;-;-;-;-;-;-;-;-;-;-;-;-;-
1514103322696;-;-;8.5633545;-0.7491913;3.3394012;-;-;-;-;-;-;-;-;-;-;-;-;-;-;-
1514103322716;-;-;8.845871;-0.71447754;3.1406708;-;-;-;-;-;-;-;-;-;-;-;-;-;-;-
1514103322736;-;-;8.732147;-0.52893066;3.0724487;-;-;-;-;-;-;-;-;-;-;-;-;-;-;-
1514103322757;-;-;8.459198;-0.4056244;2.9252014;-;-;-;-;-;-;-;-;-;-;-;-;-;-;-
1514103322776;-;-;8.400543;-0.21289063;2.8809052;-;-;-;-;-;-;-;-;-;-;-;-;-;-;-
1514103322796;-;-;8.490326;-0.033325195;2.994629;-;-;-;-;-;-;-;-;-;-;-;-;-;-;-
1514103322816;-;-;8.58609;0.008575439;3.0389252;-;-;-;-;-;-;-;-;-;-;-;-;-;-;-
1514103322837;-;-;9.12001;-0.12550354;2.9228058;-;-;-;-;-;-;-;-;-;-;-;-;-;-;-
1514103322856;-;-;9.482727;-0.20451355;2.6786041;-;-;-;-;-;-;-;-;-;-;-;-;-;-;-
1514103322876;-;-;9.527023;-0.46069336;2.6714172;-;-;-;-;-;-;-;-;-;-;-;-;-;-;-
1514103322896;-;-;8.794388;-0.77433777;2.864151;-;-;-;-;-;-;-;-;-;-;-;-;-;-;-
1514103322917;-;-;8.475967;-1.1430359;2.8749237;-;-;-;-;-;-;-;-;-;-;-;-;-;-;-
1514103322937;-;-;8.550186;-1.4243622;2.5469208;-;-;-;-;-;-;-;-;-;-;-;-;-;-;-
1514103322957;-;-;8.246124;-1.364502;1.8502045;-;-;-;-;-;-;-;-;-;-;-;-;-;-;-
1514103322978;-;-;7.683487;-0.33140564;2.2308807;-;-;-;-;-;-;-;-;-;-;-;-;-;-;-
1514103322998;-;-;8.259293;0.02293396;2.6809845;-;-;-;-;-;-;-;-;-;-;-;-;-;-;-
1514103323018;-;-;8.533432;-0.17219543;3.3525696;-;-;-;-;-;-;-;-;-;-;-;-;-;-;-
1514103323039;-;-;8.82193;-0.19613647;3.4231873;-;-;-;-;-;-;-;-;-;-;-;-;-;-;-
1514103323059;-;-;8.912903;-0.07762146;3.152649;-;-;-;-;-;-;-;-;-;-;-;-;-;-;-
1514103323079;-;-;8.991913;0.11152649;2.642685;-;-;-;-;-;-;-;-;-;-;-;-;-;-;-
1514103323100;-;-;9.274429;0.088775635;2.3422089;-;-;-;-;-;-;-;-;-;-;-;-;-;-;-
1514103323120;-;-;9.537796;0.02532959;2.1554718;-;-;-;-;-;-;-;-;-;-;-;-;-;-;-
1514103323140;-;-;9.419281;-0.054870605;2.0477295;-;-;-;-;-;-;-;-;-;-;-;-;-;-;-
1514103323160;-;-;9.094864;-0.059661865;1.9723053;-;-;-;-;-;-;-;-;-;-;-;-;-;-;-
1514103323180;-;-;8.996704;-0.119522095;1.9651184;-;-;-;-;-;-;-;-;-;-;-;-;-;-;-
1514103323201;-;-;9.037399;-0.24281311;1.8861237;-;-;-;-;-;-;-;-;-;-;-;-;-;-;-
1514103323222;-;-;9.091278;-0.18655396;1.7711945;-;-;-;-;-;-;-;-;-;-;-;-;-;-;-
1514103323243;-;-;9.128387;-0.07762146;1.5856476;-;-;-;-;-;-;-;-;-;-;-;-;-;-;-
1514103323264;-;-;9.166687;-0.05847168;1.3964996;-;-;-;-;-;-;-;-;-;-;-;-;-;-;-
1514103323284;-;-;9.0793;-0.24401855;1.4826965;-;-;-;-;-;-;-;-;-;-;-;-;-;-;-
1514103323304;-;-;9.008667;-0.36013794;1.6826019;-;-;-;-;-;-;-;-;-;-;-;-;-;-;-
1514103323325;-;-;8.92128;-0.39964294;1.7783813;-;-;-;-;-;-;-;-;-;-;-;-;-;-;-
1514103323345;-;-;8.983536;-0.36132813;1.7795715;-;-;-;-;-;-;-;-;-;-;-;-;-;-;-
1514103323364;-;-;8.863831;-0.36611938;1.6574707;-;-;-;-;-;-;-;-;-;-;-;-;-;-;-
1514103323384;-;-;9.232529;-0.36372375;1.4982605;-;-;-;-;-;-;-;-;-;-;-;-;-;-;-
1514103323404;-;-;9.465973;-0.41879272;1.5293732;-;-;-;-;-;-;-;-;-;-;-;-;-;-;-
1514103323424;-;-;9.462372;-0.54689026;1.4348145;-;-;-;-;-;-;-;-;-;-;-;-;-;-;-
1514103323444;-;-;9.319916;-0.4774475;1.4120636;-;-;-;-;-;-;-;-;-;-;-;-;-;-;-
1514103323465;-;-;9.225342;-0.42956543;1.3174896;-;-;-;-;-;-;-;-;-;-;-;-;-;-;-
1514103323484;-;-;9.038605;-0.44631958;1.3115082;-;-;-;-;-;-;-;-;-;-;-;-;-;-;-
1514103323505;-;-;8.766861;-0.39006042;1.2253113;-;-;-;-;-;-;-;-;-;-;-;-;-;-;-
1514103323525;-;-;8.934448;-0.28112793;1.2085571;-;-;-;-;-;-;-;-;-;-;-;-;-;-;-
1514103323545;-;-;9.116409;-0.23443604;1.1343384;-;-;-;-;-;-;-;-;-;-;-;-;-;-;-
1514103323566;-;-;9.242111;-0.30267334;1.0673065;-;-;-;-;-;-;-;-;-;-;-;-;-;-;-
1514103323586;-;-;9.291183;-0.4738617;0.9308319;-;-;-;-;-;-;-;-;-;-;-;-;-;-;-
1514103323606;-;-;9.385757;-0.64505005;0.8697815;-;-;-;-;-;-;-;-;-;-;-;-;-;-;-
1514103323627;-;-;9.372589;-0.704895;0.75006104;-;-;-;-;-;-;-;-;-;-;-;-;-;-;-
1514103323647;-;-;9.347458;-0.68933105;0.70578;-;-;-;-;-;-;-;-;-;-;-;-;-;-;-
1514103323667;-;-;9.215775;-0.5899811;0.62916565;-;-;-;-;-;-;-;-;-;-;-;-;-;-;-
1514103323687;-;-;9.21936;-0.68933105;0.6542969;-;-;-;-;-;-;-;-;-;-;-;-;-;-;-
1514103323708;-;-;9.293579;-0.72525024;0.66267395;-;-;-;-;-;-;-;-;-;-;-;-;-;-;-
1514103323727;-;-;9.080505;-0.61990356;0.70817566;-;-;-;-;-;-;-;-;-;-;-;-;-;-;-
1514103323747;-;-;9.081696;-0.37928772;0.75845337;-;-;-;-;-;-;-;-;-;-;-;-;-;-;-
1514103323768;-;-;9.227737;-0.30148315;0.5860596;-;-;-;-;-;-;-;-;-;-;-;-;-;-;-
1514103323787;-;-;9.391739;-0.40682983;0.42565918;-;-;-;-;-;-;-;-;-;-;-;-;-;-;-
1514103323807;-;-;9.373795;-0.49661255;0.4220581;-;-;-;-;-;-;-;-;-;-;-;-;-;-;-
1514103323828;-;-;9.122391;-0.5133667;0.57170105;-;-;-;-;-;-;-;-;-;-;-;-;-;-;-
1514103323848;-;-;8.9991;-0.5157623;0.6052246;-;-;-;-;-;-;-;-;-;-;-;-;-;-;-
1514103323868;-;-;8.983536;-0.61750793;0.7333069;-;-;-;-;-;-;-;-;-;-;-;-;-;-;-
1514103323888;-;-;9.155914;-0.6701813;0.8123169;-;-;-;-;-;-;-;-;-;-;-;-;-;-;-
1514103323909;-;-;9.365402;-0.58877563;0.66986084;-;-;-;-;-;-;-;-;-;-;-;-;-;-;-
1514103323929;-;-;9.284012;-0.45829773;0.4867096;-;-;-;-;-;-;-;-;-;-;-;-;-;-;-
1514103323949;-;-;9.254074;-0.3864746;0.3885498;-;-;-;-;-;-;-;-;-;-;-;-;-;-;-
1514103323970;-;-;9.108032;-0.3481598;0.4795227;-;-;-;-;-;-;-;-;-;-;-;-;-;-;-
1514103323991;-;-;9.068527;-0.3397827;0.5262146;-;-;-;-;-;-;-;-;-;-;-;-;-;-;-
1514103324012;-;-;9.313934;-0.35653687;0.57170105;-;-;-;-;-;-;-;-;-;-;-;-;-;-;-
1514103324035;-;-;9.361816;-0.43077087;0.2736206;-;-;-;-;-;-;-;-;-;-;-;-;-;-;-
1514103324055;-;-;9.055359;-0.29908752;0.09526062;-;-;-;-;-;-;-;-;-;-;-;-;-;-;-
1514103324075;-;-;9.276825;-0.1697998;0.3789673;-;-;-;-;-;-;-;-;-;-;-;-;-;-;-
1514103324095;-;-;9.280411;-0.040512085;0.32987976;-;-;-;-;-;-;-;-;-;-;-;-;-;-;-
1514103324116;-;-;9.341461;-0.066848755;0.31671143;-;-;-;-;-;-;-;-;-;-;-;-;-;-;-
1514103324136;-;-;9.280411;-0.06564331;0.28559875;-;-;-;-;-;-;-;-;-;-;-;-;-;-;-
1514103324157;-;-;9.254074;-0.117126465;0.45199585;-;-;-;-;-;-;-;-;-;-;-;-;-;-;-
1514103324176;-;-;9.013458;-0.012969971;0.5992279;-;-;-;-;-;-;-;-;-;-;-;-;-;-;-
1514103324196;-;-;9.039795;-0.04170227;0.6255646;-;-;-;-;-;-;-;-;-;-;-;-;-;-;-
1514103324216;-;-;9.185837;-0.045303345;0.6495056;-;-;-;-;-;-;-;-;-;-;-;-;-;-;-
1514103324237;-;-;9.196625;-0.0069885254;0.71295166;-;-;-;-;-;-;-;-;-;-;-;-;-;-;-
1514103324257;-;-;9.206192;0.0013885498;0.7404938;-;-;-;-;-;-;-;-;-;-;-;-;-;-;-
1514103324277;-;-;9.044586;-0.06803894;0.64112854;-;-;-;-;-;-;-;-;-;-;-;-;-;-;-
1514103324297;-;-;9.090073;-0.109939575;0.5968323;-;-;-;-;-;-;-;-;-;-;-;-;-;-;-
1514103324318;-;-;9.23851;-0.1410675;0.5573273;-;-;-;-;-;-;-;-;-;-;-;-;-;-;-
1514103324338;-;-;9.506668;-0.15065002;0.49150085;-;-;-;-;-;-;-;-;-;-;-;-;-;-;-
1514103324358;-;-;9.351044;-0.12789917;0.36698914;-;-;-;-;-;-;-;-;-;-;-;-;-;-;-
1514103324379;-;-;9.131973;-0.109939575;0.55374146;-;-;-;-;-;-;-;-;-;-;-;-;-;-;-
1514103324399;-;-;9.1128235;-0.12789917;0.62316895;-;-;-;-;-;-;-;-;-;-;-;-;-;-;-
1514103324419;-;-;9.0182495;-0.1985321;0.62197876;-;-;-;-;-;-;-;-;-;-;-;-;-;-;-
1514103324440;-;-;9.110428;-0.25239563;0.5369873;-;-;-;-;-;-;-;-;-;-;-;-;-;-;-
1514103324459;-;-;9.118805;-0.16500854;0.6315613;-;-;-;-;-;-;-;-;-;-;-;-;-;-;-
1514103324479;-;-;9.183456;-0.24401855;0.5800781;-;-;-;-;-;-;-;-;-;-;-;-;-;-;-
1514103324499;-;-;9.196625;-0.24401855;0.602829;-;-;-;-;-;-;-;-;-;-;-;-;-;-;-
1514103324519;-;-;9.264847;-0.33021545;0.5693054;-;-;-;-;-;-;-;-;-;-;-;-;-;-;-
1514103324540;-;-;9.312744;-0.39485168;0.43043518;-;-;-;-;-;-;-;-;-;-;-;-;-;-;-
1514103324560;-;-;9.244507;-0.37449646;0.2233429;-;-;-;-;-;-;-;-;-;-;-;-;-;-;-
1514103324580;-;-;9.268448;-0.25239563;0.23890686;-;-;-;-;-;-;-;-;-;-;-;-;-;-;-
1514103324601;-;-;9.323517;-0.23564148;0.24967957;-;-;-;-;-;-;-;-;-;-;-;-;-;-;-
1514103324621;-;-;9.436035;-0.210495;0.1658783;-;-;-;-;-;-;-;-;-;-;-;-;-;-;-
1514103324641;-;-;9.193024;-0.20930481;0.015045166;-;-;-;-;-;-;-;-;-;-;-;-;-;-;-
1514103324662;-;-;9.242111;-0.21170044;0.21138;-;-;-;-;-;-;-;-;-;-;-;-;-;-;-
1514103324682;-;-;9.234924;-0.22845459;0.39572144;-;-;-;-;-;-;-;-;-;-;-;-;-;-;-
1514103324702;-;-;9.189438;-0.36732483;0.5944519;-;-;-;-;-;-;-;-;-;-;-;-;-;-;-
1514103324723;-;-;9.128387;-0.36611938;0.91885376;-;-;-;-;-;-;-;-;-;-;-;-;-;-;-
1514103324743;-;-;9.309143;-0.6067352;1.0373688;-;-;-;-;-;-;-;-;-;-;-;-;-;-;-
1514103324763;-;-;9.080505;-0.43914795;0.85661316;-;-;-;-;-;-;-;-;-;-;-;-;-;-;-
1514103324783;-;-;9.260071;-0.45710754;0.9344177;-;-;-;-;-;-;-;-;-;-;-;-;-;-;-
1514103324804;-;-;9.086487;-0.44273376;0.6255646;-;-;-;-;-;-;-;-;-;-;-;-;-;-;-
1514103324824;-;-;9.227737;-0.3397827;0.6052246;-;-;-;-;-;-;-;-;-;-;-;-;-;-;-
1514103324844;-;-;9.268448;-0.28471375;0.59324646;-;-;-;-;-;-;-;-;-;-;-;-;-;-;-
1514103324865;-;-;9.333084;-0.24760437;0.70098877;-;-;-;-;-;-;-;-;-;-;-;-;-;-;-
1514103324884;-;-;9.15712;-0.15184021;0.7141571;-;-;-;-;-;-;-;-;-;-;-;-;-;-;-
1514103324904;-;-;9.13916;-0.109939575;0.7548523;-;-;-;-;-;-;-;-;-;-;-;-;-;-;-
1514103324925;-;-;9.195419;-0.093185425;0.7225342;-;-;-;-;-;-;-;-;-;-;-;-;-;-;-
1514103324945;-;-;9.1523285;-0.15782166;0.7285156;-;-;-;-;-;-;-;-;-;-;-;-;-;-;-
1514103324965;-;-;9.151123;-0.18415833;0.80033875;-;-;-;-;-;-;-;-;-;-;-;-;-;-;-
1514103324987;-;-;9.115219;-0.1590271;0.923645;-;-;-;-;-;-;-;-;-;-;-;-;-;-;-
1514103325006;-;-;9.195419;-0.17578125;0.89730835;-;-;-;-;-;-;-;-;-;-;-;-;-;-;-
1514103325026;-;-;9.203796;-0.23085022;0.8554077;-;-;-;-;-;-;-;-;-;-;-;-;-;-;-
1514103325046;-;-;9.228943;-0.22845459;0.8147125;-;-;-;-;-;-;-;-;-;-;-;-;-;-;-
1514103325067;-;-;9.245697;-0.21409607;0.8302765;-;-;-;-;-;-;-;-;-;-;-;-;-;-;-
1514103325088;-;-;9.147537;-0.20211792;0.6854248;-;-;-;-;-;-;-;-;-;-;-;-;-;-;-
1514103325108;-;-;9.109222;-0.1817627;0.7823944;-;-;-;-;-;-;-;-;-;-;-;-;-;-;-
1514103325128;-;-;9.137955;-0.1697998;0.8410492;-;-;-;-;-;-;-;-;-;-;-;-;-;-;-
1514103325148;-;-;9.130783;-0.13986206;0.8422394;-;-;-;-;-;-;-;-;-;-;-;-;-;-;-
1514103325168;-;-;9.096069;-0.16619873;0.8925171;-;-;-;-;-;-;-;-;-;-;-;-;-;-;-
1514103325189;-;-;9.225342;-0.19374084;0.67225647;-;-;-;-;-;-;-;-;-;-;-;-;-;-;-
1514103325210;-;-;9.281616;-0.1769867;0.52142334;-;-;-;-;-;-;-;-;-;-;-;-;-;-;-
1514103325231;-;-;9.2313385;-0.19732666;0.5776825;-;-;-;-;-;-;-;-;-;-;-;-;-;-;-
1514103325251;-;-;9.305557;-0.23803711;0.63394165;-;-;-;-;-;-;-;-;-;-;-;-;-;-;-
1514103325271;-;-;9.246902;-0.26197815;0.6602783;-;-;-;-;-;-;-;-;-;-;-;-;-;-;-
1514103325292;-;-;9.203796;-0.21768188;0.6950073;-;-;-;-;-;-;-;-;-;-;-;-;-;-;-
1514103325312;-;-;9.146347;-0.21528625;0.65789795;-;-;-;-;-;-;-;-;-;-;-;-;-;-;-
1514103325332;-;-;9.121201;-0.17459106;0.6159973;-;-;-;-;-;-;-;-;-;-;-;-;-;-;-
1514103325352;-;-;9.210983;-0.22605896;0.66867065;-;-;-;-;-;-;-;-;-;-;-;-;-;-;-
1514103325373;-;-;9.213379;-0.2320404;0.6782379;-;-;-;-;-;-;-;-;-;-;-;-;-;-;-
1514103325393;-;-;9.203796;-0.25239563;0.70578;-;-;-;-;-;-;-;-;-;-;-;-;-;-;-
1514103325414;-;-;9.207397;-0.24281311;0.69140625;-;-;-;-;-;-;-;-;-;-;-;-;-;-;-
1514103325434;-;-;9.209793;-0.26316833;0.7943573;-;-;-;-;-;-;-;-;-;-;-;-;-;-;-
1514103325454;-;-;9.207397;-0.2715454;0.7752075;-;-;-;-;-;-;-;-;-;-;-;-;-;-;-
1514103325474;-;-;9.203796;-0.29788208;0.78956604;-;-;-;-;-;-;-;-;-;-;-;-;-;-;-
1514103325495;-;-;9.200211;-0.24880981;0.75964355;-;-;-;-;-;-;-;-;-;-;-;-;-;-;-
1514103325514;-;-;9.164291;-0.2320404;0.760849;-;-;-;-;-;-;-;-;-;-;-;-;-;-;-
1514103325535;-;-;9.200211;-0.22366333;0.7572479;-;-;-;-;-;-;-;-;-;-;-;-;-;-;-
1514103325556;-;-;9.209793;-0.24520874;0.765625;-;-;-;-;-;-;-;-;-;-;-;-;-;-;-
1514103325576;-;-;9.1523285;-0.21768188;0.6758423;-;-;-;-;-;-;-;-;-;-;-;-;-;-;-
1514103325596;-;-;9.195419;-0.21768188;0.70098877;-;-;-;-;-;-;-;-;-;-;-;-;-;-;-
1514103325617;-;-;9.245697;-0.23803711;0.64352417;-;-;-;-;-;-;-;-;-;-;-;-;-;-;-
1514103325637;-;-;9.194229;-0.210495;0.5884552;-;-;-;-;-;-;-;-;-;-;-;-;-;-;-
1514103325657;-;-;9.209793;-0.1925354;0.66867065;-;-;-;-;-;-;-;-;-;-;-;-;-;-;-
1514103325677;-;-;9.164291;-0.2272644;0.8218994;-;-;-;-;-;-;-;-;-;-;-;-;-;-;-
1514103325697;-;-;9.1128235;-0.210495;0.7859802;-;-;-;-;-;-;-;-;-;-;-;-;-;-;-
1514103325717;-;-;9.165497;-0.20451355;0.76802063;-;-;-;-;-;-;-;-;-;-;-;-;-;-;-
1514103325737;-;-;9.193024;-0.21289063;0.7177429;-;-;-;-;-;-;-;-;-;-;-;-;-;-;-
1514103325757;-;-;9.25647;-0.22486877;0.6770477;-;-;-;-;-;-;-;-;-;-;-;-;-;-;-
1514103325777;-;-;9.249298;-0.23564148;0.6770477;-;-;-;-;-;-;-;-;-;-;-;-;-;-;-
1514103325798;-;-;9.196625;-0.26675415;0.6447296;-;-;-;-;-;-;-;-;-;-;-;-;-;-;-
1514103325818;-;-;9.190628;-0.28710938;0.7357025;-;-;-;-;-;-;-;-;-;-;-;-;-;-;-
1514103325838;-;-;9.221756;-0.29309082;0.760849;-;-;-;-;-;-;-;-;-;-;-;-;-;-;-
1514103325858;-;-;9.220566;-0.28831482;0.6674652;-;-;-;-;-;-;-;-;-;-;-;-;-;-;-
1514103325879;-;-;9.201401;-0.2775421;0.65190125;-;-;-;-;-;-;-;-;-;-;-;-;-;-;-
1514103325899;-;-;9.205002;-0.29071045;0.6890106;-;-;-;-;-;-;-;-;-;-;-;-;-;-;-
1514103325919;-;-;9.200211;-0.25479126;0.6387329;-;-;-;-;-;-;-;-;-;-;-;-;-;-;-
1514103325939;-;-;9.220566;-0.2679596;0.70098877;-;-;-;-;-;-;-;-;-;-;-;-;-;-;-
1514103325959;-;-;9.173874;-0.21647644;0.7117615;-;-;-;-;-;-;-;-;-;-;-;-;-;-;-
1514103325979;-;-;9.146347;-0.20930481;0.7752075;-;-;-;-;-;-;-;-;-;-;-;-;-;-;-
1514103325999;-;-;9.172684;-0.22247314;0.7967529;-;-;-;-;-;-;-;-;-;-;-;-;-;-;-
1514103326020;-;-;9.171478;-0.210495;0.7033844;-;-;-;-;-;-;-;-;-;-;-;-;-;-;-
1514103326040;-;-;9.212173;-0.1590271;0.7345123;-;-;-;-;-;-;-;-;-;-;-;-;-;-;-
1514103326060;-;-;9.213379;-0.12789917;0.7907715;-;-;-;-;-;-;-;-;-;-;-;-;-;-;-
1514103326080;-;-;9.214569;-0.15782166;0.8230896;-;-;-;-;-;-;-;-;-;-;-;-;-;-;-
1514103326100;-;-;9.117615;-0.14225769;0.8087311;-;-;-;-;-;-;-;-;-;-;-;-;-;-;-
1514103326121;-;-;9.15712;-0.121917725;0.8159027;-;-;-;-;-;-;-;-;-;-;-;-;-;-;-
1514103326141;-;-;9.234924;-0.1590271;0.79196167;-;-;-;-;-;-;-;-;-;-;-;-;-;-;-
1514103326161;-;-;9.209793;-0.20451355;0.721344;-;-;-;-;-;-;-;-;-;-;-;-;-;-;-
1514103326181;-;-;9.208588;-0.1769867;0.75006104;-;-;-;-;-;-;-;-;-;-;-;-;-;-;-
1514103326202;-;-;9.188232;-0.19613647;0.8015442;-;-;-;-;-;-;-;-;-;-;-;-;-;-;-
1514103326222;-;-;9.147537;-0.19493103;0.8015442;-;-;-;-;-;-;-;-;-;-;-;-;-;-;-
1514103326242;-;-;9.173874;-0.23803711;0.7692261;-;-;-;-;-;-;-;-;-;-;-;-;-;-;-
1514103326262;-;-;9.165497;-0.22605896;0.74887085;-;-;-;-;-;-;-;-;-;-;-;-;-;-;-
1514103326283;-;-;9.155914;-0.20451355;0.74768066;-;-;-;-;-;-;-;-;-;-;-;-;-;-;-
1514103326304;-;-;9.190628;-0.21887207;0.7345123;-;-;-;-;-;-;-;-;-;-;-;-;-;-;-
1514103326324;-;-;9.206192;-0.210495;0.721344;-;-;-;-;-;-;-;-;-;-;-;-;-;-;-
1514103326344;-;-;9.244507;-0.22007751;0.7225342;-;-;-;-;-;-;-;-;-;-;-;-;-;-;-
1514103326365;-;-;9.225342;-0.2212677;0.73809814;-;-;-;-;-;-;-;-;-;-;-;-;-;-;-
1514103326385;-;-;9.206192;-0.26914978;0.69140625;-;-;-;-;-;-;-;-;-;-;-;-;-;-;-
1514103326405;-;-;9.294785;-0.24162292;0.67344666;-;-;-;-;-;-;-;-;-;-;-;-;-;-;-
1514103326426;-;-;9.321121;-0.2679596;0.6710663;-;-;-;-;-;-;-;-;-;-;-;-;-;-;-
1514103326446;-;-;9.23851;-0.28112793;0.6950073;-;-;-;-;-;-;-;-;-;-;-;-;-;-;-
1514103326466;-;-;9.161896;-0.2272644;0.74168396;-;-;-;-;-;-;-;-;-;-;-;-;-;-;-
1514103326487;-;-;9.135559;-0.18894958;0.8506317;-;-;-;-;-;-;-;-;-;-;-;-;-;-;-
1514103326507;-;-;9.105637;-0.18655396;0.8913269;-;-;-;-;-;-;-;-;-;-;-;-;-;-;-
1514103326527;-;-;9.127182;-0.20930481;0.91407776;-;-;-;-;-;-;-;-;-;-;-;-;-;-;-
1514103326547;-;-;9.129578;-0.23443604;0.8661804;-;-;-;-;-;-;-;-;-;-;-;-;-;-;-
1514103326568;-;-;9.165497;-0.24401855;0.8661804;-;-;-;-;-;-;-;-;-;-;-;-;-;-;-
1514103326588;-;-;9.182251;-0.22366333;0.8661804;-;-;-;-;-;-;-;-;-;-;-;-;-;-;-
1514103326608;-;-;9.12001;-0.24760437;0.96913147;-;-;-;-;-;-;-;-;-;-;-;-;-;-;-
1514103326629;-;-;9.124786;-0.2272644;0.95118713;-;-;-;-;-;-;-;-;-;-;-;-;-;-;-
1514103326649;-;-;9.15712;-0.19134521;0.96673584;-;-;-;-;-;-;-;-;-;-;-;-;-;-;-
1514103326669;-;-;9.189438;-0.25360107;0.90449524;-;-;-;-;-;-;-;-;-;-;-;-;-;-;-
1514103326690;-;-;9.154724;-0.2607727;0.82069397;-;-;-;-;-;-;-;-;-;-;-;-;-;-;-
1514103326710;-;-;9.201401;-0.20211792;0.92485046;-;-;-;-;-;-;-;-;-;-;-;-;-;-;-
1514103326730;-;-;9.1523285;-0.16500854;1.0373688;-;-;-;-;-;-;-;-;-;-;-;-;-;-;-
1514103326751;-;-;9.07811;-0.18536377;1.0684967;-;-;-;-;-;-;-;-;-;-;-;-;-;-;-
1514103326771;-;-;9.068527;-0.23564148;1.0242004;-;-;-;-;-;-;-;-;-;-;-;-;-;-;-
1514103326792;-;-;9.190628;-0.22964478;0.95118713;-;-;-;-;-;-;-;-;-;-;-;-;-;-;-
1514103326813;-;-;9.244507;-0.17936707;0.87934875;-;-;-;-;-;-;-;-;-;-;-;-;-;-;-
1514103326833;-;-;9.221756;-0.16021729;0.8302765;-;-;-;-;-;-;-;-;-;-;-;-;-;-;-
1514103326853;-;-;9.281616;-0.1769867;0.80992126;-;-;-;-;-;-;-;-;-;-;-;-;-;-;-
1514103326873;-;-;9.201401;-0.16740417;0.8805542;-;-;-;-;-;-;-;-;-;-;-;-;-;-;-
1514103326893;-;-;9.125992;-0.17219543;0.80992126;-;-;-;-;-;-;-;-;-;-;-;-;-;-;-
1514103326914;-;-;9.15712;-0.19732666;0.8230896;-;-;-;-;-;-;-;-;-;-;-;-;-;-;-
1514103326934;-;-;9.199005;-0.1769867;0.76802063;-;-;-;-;-;-;-;-;-;-;-;-;-;-;-
1514103326954;-;-;9.159515;-0.23085022;0.8554077;-;-;-;-;-;-;-;-;-;-;-;-;-;-;-
1514103326975;-;-;9.203796;-0.24641418;0.8302765;-;-;-;-;-;-;-;-;-;-;-;-;-;-;-
1514103326995;-;-;9.352234;-0.26197815;0.8087311;-;-;-;-;-;-;-;-;-;-;-;-;-;-;-
1514103327015;-;-;9.3701935;-0.19972229;0.6961975;-;-;-;-;-;-;-;-;-;-;-;-;-;-;-
1514103327035;-;-;9.254074;-0.14346313;0.75245667;-;-;-;-;-;-;-;-;-;-;-;-;-;-;-
1514103327056;-;-;9.225342;-0.12789917;0.8829498;-;-;-;-;-;-;-;-;-;-;-;-;-;-;-
1514103327077;-;-;9.033813;-0.19972229;1.0756836;-;-;-;-;-;-;-;-;-;-;-;-;-;-;-
1514103327098;-;-;8.914108;-0.26197815;1.1953888;-;-;-;-;-;-;-;-;-;-;-;-;-;-;-
1514103327118;-;-;9.001495;-0.25;1.0397644;-;-;-;-;-;-;-;-;-;-;-;-;-;-;-
1514103327138;-;-;9.215775;-0.22845459;0.96435547;-;-;-;-;-;-;-;-;-;-;-;-;-;-;-
1514103327158;-;-;9.244507;-0.20211792;0.9128723;-;-;-;-;-;-;-;-;-;-;-;-;-;-;-
1514103327179;-;-;9.245697;-0.20809937;1.0050507;-;-;-;-;-;-;-;-;-;-;-;-;-;-;-
1514103327199;-;-;9.202606;-0.20690918;0.95477295;-;-;-;-;-;-;-;-;-;-;-;-;-;-;-
1514103327219;-;-;9.093674;-0.18536377;0.8518219;-;-;-;-;-;-;-;-;-;-;-;-;-;-;-
1514103327240;-;-;9.111618;-0.21289063;0.89012146;-;-;-;-;-;-;-;-;-;-;-;-;-;-;-
1514103327260;-;-;9.151123;-0.16142273;1.002655;-;-;-;-;-;-;-;-;-;-;-;-;-;-;-
1514103327280;-;-;9.13916;-0.22486877;0.9966736;-;-;-;-;-;-;-;-;-;-;-;-;-;-;-
1514103327301;-;-;9.151123;-0.2272644;0.99069214;-;-;-;-;-;-;-;-;-;-;-;-;-;-;-
1514103327321;-;-;9.185837;-0.21409607;0.9918823;-;-;-;-;-;-;-;-;-;-;-;-;-;-;-
1514103327341;-;-;9.195419;-0.13627625;0.95477295;-;-;-;-;-;-;-;-;-;-;-;-;-;-;-
1514103327361;-;-;9.190628;-0.17219543;0.9284363;-;-;-;-;-;-;-;-;-;-;-;-;-;-;-
1514103327382;-;-;9.17746;-0.20570374;0.87457275;-;-;-;-;-;-;-;-;-;-;-;-;-;-;-
1514103327402;-;-;9.15712;-0.17817688;0.96315;-;-;-;-;-;-;-;-;-;-;-;-;-;-;-
1514103327422;-;-;9.15712;-0.16859436;0.9451904;-;-;-;-;-;-;-;-;-;-;-;-;-;-;-
1514103327442;-;-;9.182251;-0.1925354;0.91526794;-;-;-;-;-;-;-;-;-;-;-;-;-;-;-
1514103327463;-;-;9.183456;-0.20570374;0.8913269;-;-;-;-;-;-;-;-;-;-;-;-;-;-;-
1514103327483;-;-;9.167892;-0.1590271;0.91645813;-;-;-;-;-;-;-;-;-;-;-;-;-;-;-
1514103327503;-;-;9.196625;-0.16381836;0.9284363;-;-;-;-;-;-;-;-;-;-;-;-;-;-;-
1514103327523;-;-;9.194229;-0.20451355;0.98469543;-;-;-;-;-;-;-;-;-;-;-;-;-;-;-
1514103327544;-;-;9.172684;-0.1985321;0.9284363;-;-;-;-;-;-;-;-;-;-;-;-;-;-;-
1514103327564;-;-;9.127182;-0.17219543;0.95118713;-;-;-;-;-;-;-;-;-;-;-;-;-;-;-
1514103327584;-;-;9.141556;-0.18296814;0.91407776;-;-;-;-;-;-;-;-;-;-;-;-;-;-;-
1514103327605;-;-;9.225342;-0.20570374;0.8590088;-;-;-;-;-;-;-;-;-;-;-;-;-;-;-
1514103327625;-;-;9.212173;-0.23683167;0.89372253;-;-;-;-;-;-;-;-;-;-;-;-;-;-;-
1514103327645;-;-;9.122391;-0.2212677;0.96554565;-;-;-;-;-;-;-;-;-;-;-;-;-;-;-
1514103327665;-;-;9.178665;-0.21887207;0.9822998;-;-;-;-;-;-;-;-;-;-;-;-;-;-;-
1514103327686;-;-;9.183456;-0.25958252;0.9176636;-;-;-;-;-;-;-;-;-;-;-;-;-;-;-
1514103327706;-;-;9.146347;-0.28471375;0.84703064;-;-;-;-;-;-;-;-;-;-;-;-;-;-;-
1514103327727;-;-;9.244507;-0.24043274;0.90808105;-;-;-;-;-;-;-;-;-;-;-;-;-;-;-
1514103327747;-;-;9.262466;-0.24281311;0.8817444;-;-;-;-;-;-;-;-;-;-;-;-;-;-;-
1514103327767;-;-;9.172684;-0.22486877;0.8709717;-;-;-;-;-;-;-;-;-;-;-;-;-;-;-
1514103327787;-;-;9.161896;-0.17578125;0.9056854;-;-;-;-;-;-;-;-;-;-;-;-;-;-;-
1514103327808;-;-;9.123596;-0.1697998;0.9799042;-;-;-;-;-;-;-;-;-;-;-;-;-;-;-
1514103327828;-;-;9.100845;-0.22845459;1.0098419;-;-;-;-;-;-;-;-;-;-;-;-;-;-;-
1514103327848;-;-;9.147537;-0.26316833;0.8614044;-;-;-;-;-;-;-;-;-;-;-;-;-;-;-
1514103327869;-;-;9.194229;-0.25479126;0.92245483;-;-;-;-;-;-;-;-;-;-;-;-;-;-;-
1514103327889;-;-;9.201401;-0.18655396;0.9416046;-;-;-;-;-;-;-;-;-;-;-;-;-;-;-
1514103327909;-;-;9.187042;-0.2571869;0.8661804;-;-;-;-;-;-;-;-;-;-;-;-;-;-;-
1514103327929;-;-;9.189438;-0.20451355;0.85780334;-;-;-;-;-;-;-;-;-;-;-;-;-;-;-
1514103327950;-;-;9.202606;-0.18536377;0.8817444;-;-;-;-;-;-;-;-;-;-;-;-;-;-;-
1514103327970;-;-;9.182251;-0.210495;0.88414;-;-;-;-;-;-;-;-;-;-;-;-;-;-;-
1514103327990;-;-;9.086487;-0.22964478;0.87815857;-;-;-;-;-;-;-;-;-;-;-;-;-;-;-
1514103328011;-;-;9.128387;-0.210495;0.8661804;-;-;-;-;-;-;-;-;-;-;-;-;-;-;-
1514103328031;-;-;9.135559;-0.24641418;0.9176636;-;-;-;-;-;-;-;-;-;-;-;-;-;-;-
1514103328052;-;-;9.123596;-0.27394104;0.84584045;-;-;-;-;-;-;-;-;-;-;-;-;-;-;-
1514103328072;-;-;9.173874;-0.26914978;0.88653564;-;-;-;-;-;-;-;-;-;-;-;-;-;-;-
1514103328092;-;-;9.155914;-0.2607727;0.8661804;-;-;-;-;-;-;-;-;-;-;-;-;-;-;-
1514103328112;-;-;9.155914;-0.23085022;0.9176636;-;-;-;-;-;-;-;-;-;-;-;-;-;-;-
1514103328133;-;-;9.170288;-0.22845459;0.9416046;-;-;-;-;-;-;-;-;-;-;-;-;-;-;-
1514103328152;-;-;9.17627;-0.26197815;0.9715271;-;-;-;-;-;-;-;-;-;-;-;-;-;-;-
1514103328172;-;-;9.199005;-0.24880981;0.9404144;-;-;-;-;-;-;-;-;-;-;-;-;-;-;-
1514103328193;-;-;9.173874;-0.24641418;0.9739227;-;-;-;-;-;-;-;-;-;-;-;-;-;-;-
1514103328213;-;-;9.184647;-0.23803711;0.99786377;-;-;-;-;-;-;-;-;-;-;-;-;-;-;-
1514103328233;-;-;9.155914;-0.21409607;0.9811096;-;-;-;-;-;-;-;-;-;-;-;-;-;-;-
1514103328253;-;-;9.154724;-0.19493103;0.98469543;-;-;-;-;-;-;-;-;-;-;-;-;-;-;-
1514103328274;-;-;9.136765;-0.22605896;0.97273254;-;-;-;-;-;-;-;-;-;-;-;-;-;-;-
1514103328294;-;-;9.2756195;-0.2799225;0.9176636;-;-;-;-;-;-;-;-;-;-;-;-;-;-;-
1514103328314;-;-;9.151123;-0.25479126;0.9092865;-;-;-;-;-;-;-;-;-;-;-;-;-;-;-
1514103328334;-;-;9.167892;-0.2320404;0.8590088;-;-;-;-;-;-;-;-;-;-;-;-;-;-;-
1514103328355;-;-;9.170288;-0.22486877;0.844635;-;-;-;-;-;-;-;-;-;-;-;-;-;-;-
1514103328374;-;-;9.173874;-0.21528625;0.9200592;-;-;-;-;-;-;-;-;-;-;-;-;-;-;-
1514103328394;-;-;9.202606;-0.210495;0.9272461;-;-;-;-;-;-;-;-;-;-;-;-;-;-;-
1514103328415;-;-;9.181061;-0.24880981;0.9092865;-;-;-;-;-;-;-;-;-;-;-;-;-;-;-
1514103328435;-;-;9.23613;-0.25837708;0.8829498;-;-;-;-;-;-;-;-;-;-;-;-;-;-;-
1514103328455;-;-;9.170288;-0.26675415;0.8661804;-;-;-;-;-;-;-;-;-;-;-;-;-;-;-
1514103328475;-;-;9.149933;-0.25;0.87815857;-;-;-;-;-;-;-;-;-;-;-;-;-;-;-
1514103328495;-;-;9.153519;-0.26197815;0.96195984;-;-;-;-;-;-;-;-;-;-;-;-;-;-;-
1514103328516;-;-;9.161896;-0.28710938;0.9499817;-;-;-;-;-;-;-;-;-;-;-;-;-;-;-
1514103328535;-;-;9.14035;-0.28471375;0.92245483;-;-;-;-;-;-;-;-;-;-;-;-;-;-;-
1514103328555;-;-;9.146347;-0.27514648;0.91645813;-;-;-;-;-;-;-;-;-;-;-;-;-;-;-
1514103328575;-;-;9.224152;-0.21647644;0.91526794;-;-;-;-;-;-;-;-;-;-;-;-;-;-;-
1514103328596;-;-;9.195419;-0.19493103;0.9380188;-;-;-;-;-;-;-;-;-;-;-;-;-;-;-
1514103328616;-;-;9.135559;-0.21528625;0.93322754;-;-;-;-;-;-;-;-;-;-;-;-;-;-;-
1514103328636;-;-;9.123596;-0.22007751;0.93562317;-;-;-;-;-;-;-;-;-;-;-;-;-;-;-
1514103328657;-;-;9.146347;-0.1769867;0.95477295;-;-;-;-;-;-;-;-;-;-;-;-;-;-;-
1514103328677;-;-;9.194229;-0.19493103;0.8422394;-;-;-;-;-;-;-;-;-;-;-;-;-;-;-
1514103328697;-;-;9.210983;-0.24641418;0.76322937;-;-;-;-;-;-;-;-;-;-;-;-;-;-;-
1514103328717;-;-;9.170288;-0.2571869;0.82907104;-;-;-;-;-;-;-;-;-;-;-;-;-;-;-
1514103328738;-;-;9.128387;-0.23803711;0.8530121;-;-;-;-;-;-;-;-;-;-;-;-;-;-;-
1514103328758;-;-;9.118805;-0.18296814;0.7931671;-;-;-;-;-;-;-;-;-;-;-;-;-;-;-
1514103328778;-;-;9.268448;-0.1877594;0.7752075;-;-;-;-;-;-;-;-;-;-;-;-;-;-;-
1514103328798;-;-;9.292389;-0.19972229;0.70578;-;-;-;-;-;-;-;-;-;-;-;-;-;-;-
1514103328819;-;-;9.220566;-0.21887207;0.71655273;-;-;-;-;-;-;-;-;-;-;-;-;-;-;-
1514103328839;-;-;9.23613;-0.23085022;0.7692261;-;-;-;-;-;-;-;-;-;-;-;-;-;-;-
1514103328859;-;-;9.260071;-0.31105042;0.80513;-;-;-;-;-;-;-;-;-;-;-;-;-;-;-
1514103328880;-;-;9.114014;-0.29908752;0.7835846;-;-;-;-;-;-;-;-;-;-;-;-;-;-;-
1514103328900;-;-;9.185837;-0.29071045;0.8230896;-;-;-;-;-;-;-;-;-;-;-;-;-;-;-
1514103328920;-;-;9.1918335;-0.2799225;0.9116821;-;-;-;-;-;-;-;-;-;-;-;-;-;-;-
1514103328941;-;-;9.13916;-0.3002777;0.9320221;-;-;-;-;-;-;-;-;-;-;-;-;-;-;-
1514103328962;-;-;9.228943;-0.3086548;0.8721771;-;-;-;-;-;-;-;-;-;-;-;-;-;-;-
1514103328983;-;-;9.170288;-0.3002777;0.7752075;-;-;-;-;-;-;-;-;-;-;-;-;-;-;-
1514103329002;-;-;9.183456;-0.32901;0.8530121;-;-;-;-;-;-;-;-;-;-;-;-;-;-;-
1514103329022;-;-;9.194229;-0.2679596;0.8554077;-;-;-;-;-;-;-;-;-;-;-;-;-;-;-
1514103329042;-;-;9.187042;-0.2799225;0.8889313;-;-;-;-;-;-;-;-;-;-;-;-;-;-;-
1514103329063;-;-;9.15831;-0.2679596;0.9032898;-;-;-;-;-;-;-;-;-;-;-;-;-;-;-
1514103329082;-;-;9.183456;-0.31704712;0.9427948;-;-;-;-;-;-;-;-;-;-;-;-;-;-;-
1514103329102;-;-;9.175064;-0.34936523;0.899704;-;-;-;-;-;-;-;-;-;-;-;-;-;-;-
1514103329122;-;-;9.159515;-0.35176086;0.88653564;-;-;-;-;-;-;-;-;-;-;-;-;-;-;-
1514103329143;-;-;9.142746;-0.27514648;0.9272461;-;-;-;-;-;-;-;-;-;-;-;-;-;-;-
1514103329163;-;-;9.163101;-0.27514648;0.9451904;-;-;-;-;-;-;-;-;-;-;-;-;-;-;-
1514103329184;-;-;9.189438;-0.25120544;0.9535675;-;-;-;-;-;-;-;-;-;-;-;-;-;-;-
1514103329204;-;-;9.169083;-0.25360107;1.0014648;-;-;-;-;-;-;-;-;-;-;-;-;-;-;-
1514103329224;-;-;9.179855;-0.24043274;0.95118713;-;-;-;-;-;-;-;-;-;-;-;-;-;-;-
1514103329244;-;-;9.179855;-0.26556396;0.96315;-;-;-;-;-;-;-;-;-;-;-;-;-;-;-
1514103329265;-;-;9.160706;-0.27514648;1.0050507;-;-;-;-;-;-;-;-;-;-;-;-;-;-;-
1514103329284;-;-;9.134369;-0.26316833;1.0110321;-;-;-;-;-;-;-;-;-;-;-;-;-;-;-
1514103329304;-;-;9.129578;-0.24281311;1.0134277;-;-;-;-;-;-;-;-;-;-;-;-;-;-;-
1514103329325;-;-;9.128387;-0.23564148;1.0373688;-;-;-;-;-;-;-;-;-;-;-;-;-;-;-
1514103329345;-;-;9.226547;-0.3074646;1.0289917;-;-;-;-;-;-;-;-;-;-;-;-;-;-;-
1514103329365;-;-;9.172684;-0.27633667;0.91885376;-;-;-;-;-;-;-;-;-;-;-;-;-;-;-
1514103329384;-;-;9.137955;-0.2212677;1.002655;-;-;-;-;-;-;-;-;-;-;-;-;-;-;-
1514103329405;-;-;9.23851;-0.25;1.057724;-;-;-;-;-;-;-;-;-;-;-;-;-;-;-
1514103329426;-;-;9.124786;-0.28471375;0.8985138;-;-;-;-;-;-;-;-;-;-;-;-;-;-;-
1514103329446;-;-;9.178665;-0.25360107;0.9308319;-;-;-;-;-;-;-;-;-;-;-;-;-;-;-
1514103329466;-;-;9.1523285;-0.25360107;1.0230103;-;-;-;-;-;-;-;-;-;-;-;-;-;-;-
1514103329487;-;-;9.128387;-0.2571869;1.0301971;-;-;-;-;-;-;-;-;-;-;-;-;-;-;-
1514103329507;-;-;9.141556;-0.30986023;0.98350525;-;-;-;-;-;-;-;-;-;-;-;-;-;-;-
1514103329527;-;-;9.131973;-0.25479126;0.9715271;-;-;-;-;-;-;-;-;-;-;-;-;-;-;-
1514103329547;-;-;9.146347;-0.25360107;0.9799042;-;-;-;-;-;-;-;-;-;-;-;-;-;-;-
1514103329567;-;-;9.111618;-0.22366333;1.0218048;-;-;-;-;-;-;-;-;-;-;-;-;-;-;-
1514103329588;-;-;9.173874;-0.21647644;0.98709106;-;-;-;-;-;-;-;-;-;-;-;-;-;-;-
1514103329608;-;-;9.212173;-0.25239563;0.96435547;-;-;-;-;-;-;-;-;-;-;-;-;-;-;-
1514103329628;-;-;9.202606;-0.25239563;0.93322754;-;-;-;-;-;-;-;-;-;-;-;-;-;-;-
1514103329649;-;-;9.163101;-0.32063293;0.95596313;-;-;-;-;-;-;-;-;-;-;-;-;-;-;-
1514103329669;-;-;9.170288;-0.31584167;0.9679413;-;-;-;-;-;-;-;-;-;-;-;-;-;-;-
1514103329689;-;-;9.153519;-0.32182312;0.98350525;-;-;-;-;-;-;-;-;-;-;-;-;-;-;-
1514103329710;-;-;9.145142;-0.29788208;0.9990692;-;-;-;-;-;-;-;-;-;-;-;-;-;-;-
1514103329730;-;-;9.171478;-0.28710938;1.0098419;-;-;-;-;-;-;-;-;-;-;-;-;-;-;-
1514103329750;-;-;9.161896;-0.30148315;0.9775238;-;-;-;-;-;-;-;-;-;-;-;-;-;-;-
1514103329770;-;-;9.17627;-0.29309082;0.9775238;-;-;-;-;-;-;-;-;-;-;-;-;-;-;-
1514103329791;-;-;9.161896;-0.289505;1.0062408;-;-;-;-;-;-;-;-;-;-;-;-;-;-;-
1514103329811;-;-;9.159515;-0.25120544;0.96554565;-;-;-;-;-;-;-;-;-;-;-;-;-;-;-
1514103329832;-;-;9.17746;-0.28231812;0.94758606;-;-;-;-;-;-;-;-;-;-;-;-;-;-;-
1514103329852;-;-;9.170288;-0.32781982;0.95118713;-;-;-;-;-;-;-;-;-;-;-;-;-;-;-
1514103329872;-;-;9.170288;-0.289505;0.9607544;-;-;-;-;-;-;-;-;-;-;-;-;-;-;-
1514103329892;-;-;9.178665;-0.25837708;0.91885376;-;-;-;-;-;-;-;-;-;-;-;-;-;-;-
1514103329913;-;-;9.243301;-0.24880981;0.860199;-;-;-;-;-;-;-;-;-;-;-;-;-;-;-
1514103329933;-;-;9.181061;-0.2799225;0.87576294;-;-;-;-;-;-;-;-;-;-;-;-;-;-;-
1514103329953;-;-;9.130783;-0.2571869;0.89372253;-;-;-;-;-;-;-;-;-;-;-;-;-;-;-
1514103329974;-;-;9.239716;-0.28231812;0.8697815;-;-;-;-;-;-;-;-;-;-;-;-;-;-;-
1514103329994;-;-;9.15831;-0.2607727;0.80752563;-;-;-;-;-;-;-;-;-;-;-;-;-;-;-
1514103330015;-;-;9.187042;-0.24641418;0.8913269;-;-;-;-;-;-;-;-;-;-;-;-;-;-;-
1514103330035;-;-;9.220566;-0.24281311;0.92604065;-;-;-;-;-;-;-;-;-;-;-;-;-;-;-
1514103330055;-;-;9.149933;-0.22486877;0.9128723;-;-;-;-;-;-;-;-;-;-;-;-;-;-;-
1514103330075;-;-;9.151123;-0.30148315;0.82429504;-;-;-;-;-;-;-;-;-;-;-;-;-;-;-
1514103330095;-;-;9.212173;-0.2859192;0.8015442;-;-;-;-;-;-;-;-;-;-;-;-;-;-;-
1514103330116;-;-;9.220566;-0.23803711;0.7692261;-;-;-;-;-;-;-;-;-;-;-;-;-;-;-
1514103330136;-;-;9.184647;-0.2607727;0.78837585;-;-;-;-;-;-;-;-;-;-;-;-;-;-;-
1514103330157;-;-;9.187042;-0.22366333;0.7931671;-;-;-;-;-;-;-;-;-;-;-;-;-;-;-
1514103330177;-;-;9.121201;-0.33499146;0.8218994;-;-;-;-;-;-;-;-;-;-;-;-;-;-;-
1514103330197;-;-;9.17746;-0.35534668;0.7859802;-;-;-;-;-;-;-;-;-;-;-;-;-;-;-
1514103330217;-;-;9.13916;-0.35653687;0.72972107;-;-;-;-;-;-;-;-;-;-;-;-;-;-;-
1514103330238;-;-;9.199005;-0.3469696;0.7368927;-;-;-;-;-;-;-;-;-;-;-;-;-;-;-
1514103330258;-;-;9.222961;-0.36732483;0.8374634;-;-;-;-;-;-;-;-;-;-;-;-;-;-;-
1514103330278;-;-;9.193024;-0.3757019;0.83984375;-;-;-;-;-;-;-;-;-;-;-;-;-;-;-
1514103330299;-;-;9.199005;-0.39485168;0.844635;-;-;-;-;-;-;-;-;-;-;-;-;-;-;-
1514103330319;-;-;9.183456;-0.35055542;0.8111267;-;-;-;-;-;-;-;-;-;-;-;-;-;-;-
1514103330339;-;-;9.193024;-0.33140564;0.8159027;-;-;-;-;-;-;-;-;-;-;-;-;-;-;-
1514103330359;-;-;9.222961;-0.31225586;0.8230896;-;-;-;-;-;-;-;-;-;-;-;-;-;-;-
1514103330380;-;-;9.197815;-0.3194275;0.83984375;-;-;-;-;-;-;-;-;-;-;-;-;-;-;-
1514103330400;-;-;9.202606;-0.30148315;0.8338623;-;-;-;-;-;-;-;-;-;-;-;-;-;-;-
1514103330420;-;-;9.187042;-0.31225586;0.8374634;-;-;-;-;-;-;-;-;-;-;-;-;-;-;-
1514103330441;-;-;9.181061;-0.30625916;0.8422394;-;-;-;-;-;-;-;-;-;-;-;-;-;-;-
1514103330460;-;-;9.189438;-0.33259583;0.81829834;-;-;-;-;-;-;-;-;-;-;-;-;-;-;-
1514103330480;-;-;9.181061;-0.3577423;0.8254852;-;-;-;-;-;-;-;-;-;-;-;-;-;-;-
1514103330501;-;-;9.166687;-0.3002777;0.85780334;-;-;-;-;-;-;-;-;-;-;-;-;-;-;-
1514103330520;-;-;9.261261;-0.2607727;0.8230896;-;-;-;-;-;-;-;-;-;-;-;-;-;-;-
1514103330540;-;-;9.185837;-0.2715454;0.6926117;-;-;-;-;-;-;-;-;-;-;-;-;-;-;-
1514103330561;-;-;9.151123;-0.29190063;0.765625;-;-;-;-;-;-;-;-;-;-;-;-;-;-;-
1514103330580;-;-;9.15831;-0.28231812;0.8374634;-;-;-;-;-;-;-;-;-;-;-;-;-;-;-
1514103330600;-;-;9.15712;-0.29190063;0.9116821;-;-;-;-;-;-;-;-;-;-;-;-;-;-;-
1514103330621;-;-;9.141556;-0.27514648;0.9463959;-;-;-;-;-;-;-;-;-;-;-;-;-;-;-
1514103330641;-;-;9.151123;-0.25837708;0.9308319;-;-;-;-;-;-;-;-;-;-;-;-;-;-;-
1514103330662;-;-;9.167892;-0.24760437;1.0756836;-;-;-;-;-;-;-;-;-;-;-;-;-;-;-
1514103330682;-;-;9.1523285;-0.24043274;1.0110321;-;-;-;-;-;-;-;-;-;-;-;-;-;-;-
1514103330703;-;-;9.245697;-0.22366333;1.0050507;-;-;-;-;-;-;-;-;-;-;-;-;-;-;-
1514103330722;-;-;9.287598;-0.17936707;0.87934875;-;-;-;-;-;-;-;-;-;-;-;-;-;-;-
1514103330742;-;-;9.304352;-0.22964478;0.7428894;-;-;-;-;-;-;-;-;-;-;-;-;-;-;-
1514103330762;-;-;9.268448;-0.2715454;0.6650696;-;-;-;-;-;-;-;-;-;-;-;-;-;-;-
1514103330783;-;-;9.115219;-0.2775421;0.77401733;-;-;-;-;-;-;-;-;-;-;-;-;-;-;-
1514103330803;-;-;9.039795;-0.3086548;0.9966736;-;-;-;-;-;-;-;-;-;-;-;-;-;-;-
1514103330823;-;-;9.020645;-0.4666748;1.112793;-;-;-;-;-;-;-;-;-;-;-;-;-;-;-
1514103330844;-;-;9.090073;-0.51934814;1.1080017;-;-;-;-;-;-;-;-;-;-;-;-;-;-;-
1514103330865;-;-;9.214569;-0.5061798;1.0086365;-;-;-;-;-;-;-;-;-;-;-;-;-;-;-
1514103330886;-;-;9.289993;-0.3697052;0.91885376;-;-;-;-;-;-;-;-;-;-;-;-;-;-;-
1514103330907;-;-;9.289993;-0.32182312;0.88653564;-;-;-;-;-;-;-;-;-;-;-;-;-;-;-
1514103330927;-;-;9.2756195;-0.29548645;0.8374634;-;-;-;-;-;-;-;-;-;-;-;-;-;-;-
1514103330947;-;-;9.188232;-0.36013794;0.8482361;-;-;-;-;-;-;-;-;-;-;-;-;-;-;-
1514103330967;-;-;9.094864;-0.37449646;0.9092865;-;-;-;-;-;-;-;-;-;-;-;-;-;-;-
1514103330988;-;-;9.058945;-0.38887024;0.98469543;-;-;-;-;-;-;-;-;-;-;-;-;-;-;-
1514103331008;-;-;9.099655;-0.39604187;0.9811096;-;-;-;-;-;-;-;-;-;-;-;-;-;-;-
1514103331029;-;-;9.222961;-0.40203857;0.8913269;-;-;-;-;-;-;-;-;-;-;-;-;-;-;-
1514103331049;-;-;9.220566;-0.44273376;0.80513;-;-;-;-;-;-;-;-;-;-;-;-;-;-;-
1514103331069;-;-;9.306747;-0.4882202;0.8829498;-;-;-;-;-;-;-;-;-;-;-;-;-;-;-
1514103331089;-;-;9.289993;-0.49421692;0.86499023;-;-;-;-;-;-;-;-;-;-;-;-;-;-;-
1514103331109;-;-;9.104446;-0.4044342;0.89611816;-;-;-;-;-;-;-;-;-;-;-;-;-;-;-
1514103331129;-;-;9.108032;-0.37809753;0.9990692;-;-;-;-;-;-;-;-;-;-;-;-;-;-;-
1514103331150;-;-;9.136765;-0.31225586;1.0888519;-;-;-;-;-;-;-;-;-;-;-;-;-;-;-
1514103331170;-;-;9.116409;-0.28710938;1.1343384;-;-;-;-;-;-;-;-;-;-;-;-;-;-;-
1514103331190;-;-;9.189438;-0.29071045;1.0768738;-;-;-;-;-;-;-;-;-;-;-;-;-;-;-
1514103331210;-;-;9.182251;-0.26914978;1.0086365;-;-;-;-;-;-;-;-;-;-;-;-;-;-;-
1514103331230;-;-;9.125992;-0.2607727;1.0110321;-;-;-;-;-;-;-;-;-;-;-;-;-;-;-
1514103331251;-;-;9.182251;-0.27633667;1.0349731;-;-;-;-;-;-;-;-;-;-;-;-;-;-;-
1514103331271;-;-;9.182251;-0.25598145;1.0696869;-;-;-;-;-;-;-;-;-;-;-;-;-;-;-
1514103331291;-;-;9.216965;-0.24281311;1.0481415;-;-;-;-;-;-;-;-;-;-;-;-;-;-;-
1514103331312;-;-;9.181061;-0.24880981;1.0649109;-;-;-;-;-;-;-;-;-;-;-;-;-;-;-
1514103331331;-;-;9.117615;-0.27394104;1.1091919;-;-;-;-;-;-;-;-;-;-;-;-;-;-;-
1514103331351;-;-;9.125992;-0.28231812;1.1295471;-;-;-;-;-;-;-;-;-;-;-;-;-;-;-
1514103331371;-;-;9.122391;-0.27394104;1.1582794;-;-;-;-;-;-;-;-;-;-;-;-;-;-;-
1514103331392;-;-;9.121201;-0.25479126;1.1750336;-;-;-;-;-;-;-;-;-;-;-;-;-;-;-
1514103331412;-;-;9.128387;-0.24641418;1.1630707;-;-;-;-;-;-;-;-;-;-;-;-;-;-;-
1514103331432;-;-;9.169083;-0.27035522;1.1032104;-;-;-;-;-;-;-;-;-;-;-;-;-;-;-
1514103331453;-;-;9.137955;-0.18296814;1.1582794;-;-;-;-;-;-;-;-;-;-;-;-;-;-;-
1514103331473;-;-;9.165497;-0.17098999;1.1822205;-;-;-;-;-;-;-;-;-;-;-;-;-;-;-
1514103331493;-;-;9.143951;-0.20690918;1.2061615;-;-;-;-;-;-;-;-;-;-;-;-;-;-;-
1514103331513;-;-;9.130783;-0.2392273;1.2791901;-;-;-;-;-;-;-;-;-;-;-;-;-;-;-
1514103331534;-;-;9.116409;-0.21170044;1.3055267;-;-;-;-;-;-;-;-;-;-;-;-;-;-;-
1514103331554;-;-;9.092468;-0.1697998;1.2875671;-;-;-;-;-;-;-;-;-;-;-;-;-;-;-
1514103331574;-;-;9.135559;-0.20930481;1.2540436;-;-;-;-;-;-;-;-;-;-;-;-;-;-;-
1514103331595;-;-;9.122391;-0.22605896;1.1726379;-;-;-;-;-;-;-;-;-;-;-;-;-;-;-
1514103331615;-;-;9.051773;-0.23683167;1.2109528;-;-;-;-;-;-;-;-;-;-;-;-;-;-;-
1514103331635;-;-;9.165497;-0.24281311;1.2779846;-;-;-;-;-;-;-;-;-;-;-;-;-;-;-
1514103331656;-;-;9.131973;-0.19972229;1.215744;-;-;-;-;-;-;-;-;-;-;-;-;-;-;-
1514103331675;-;-;9.173874;-0.25120544;1.2815857;-;-;-;-;-;-;-;-;-;-;-;-;-;-;-
1514103331695;-;-;9.165497;-0.25239563;1.3270721;-;-;-;-;-;-;-;-;-;-;-;-;-;-;-
1514103331715;-;-;9.121201;-0.23324585;1.3893127;-;-;-;-;-;-;-;-;-;-;-;-;-;-;-
1514103331736;-;-;9.051773;-0.24401855;1.3426361;-;-;-;-;-;-;-;-;-;-;-;-;-;-;-
1514103331756;-;-;9.043396;-0.22845459;1.3689728;-;-;-;-;-;-;-;-;-;-;-;-;-;-;-
1514103331776;-;-;9.048172;-0.21409607;1.3929138;-;-;-;-;-;-;-;-;-;-;-;-;-;-;-
1514103331797;-;-;9.114014;-0.20092773;1.4324188;-;-;-;-;-;-;-;-;-;-;-;-;-;-;-
1514103331817;-;-;9.104446;-0.24043274;1.3833313;-;-;-;-;-;-;-;-;-;-;-;-;-;-;-
1514103331837;-;-;9.124786;-0.30387878;1.3881226;-;-;-;-;-;-;-;-;-;-;-;-;-;-;-
1514103331858;-;-;9.130783;-0.2607727;1.3893127;-;-;-;-;-;-;-;-;-;-;-;-;-;-;-
1514103331877;-;-;9.091278;-0.20211792;1.3330536;-;-;-;-;-;-;-;-;-;-;-;-;-;-;-
1514103331897;-;-;9.066132;-0.16740417;1.2839813;-;-;-;-;-;-;-;-;-;-;-;-;-;-;-
1514103331918;-;-;9.030228;-0.15423584;1.3282623;-;-;-;-;-;-;-;-;-;-;-;-;-;-;-
1514103331938;-;-;9.029022;-0.289505;1.3953094;-;-;-;-;-;-;-;-;-;-;-;-;-;-;-
1514103331958;-;-;9.056564;-0.43077087;1.4623413;-;-;-;-;-;-;-;-;-;-;-;-;-;-;-
1514103331978;-;-;9.09845;-0.47984314;1.5054321;-;-;-;-;-;-;-;-;-;-;-;-;-;-;-
1514103331999;-;-;9.104446;-0.38287354;1.3977051;-;-;-;-;-;-;-;-;-;-;-;-;-;-;-
1514103332019;-;-;9.103241;-0.2859192;1.3462219;-;-;-;-;-;-;-;-;-;-;-;-;-;-;-
1514103332039;-;-;9.1128235;-0.24641418;1.3282623;-;-;-;-;-;-;-;-;-;-;-;-;-;-;-
1514103332060;-;-;9.167892;-0.26556396;1.3725586;-;-;-;-;-;-;-;-;-;-;-;-;-;-;-
1514103332080;-;-;9.206192;-0.24520874;1.29953;-;-;-;-;-;-;-;-;-;-;-;-;-;-;-
1514103332100;-;-;9.0972595;-0.22964478;1.3091125;-;-;-;-;-;-;-;-;-;-;-;-;-;-;-
1514103332120;-;-;9.025436;-0.21887207;1.3797455;-;-;-;-;-;-;-;-;-;-;-;-;-;-;-
1514103332141;-;-;9.103241;-0.21887207;1.3641815;-;-;-;-;-;-;-;-;-;-;-;-;-;-;-
1514103332161;-;-;9.146347;-0.29190063;1.2576447;-;-;-;-;-;-;-;-;-;-;-;-;-;-;-
1514103332181;-;-;9.183456;-0.25479126;1.1642609;-;-;-;-;-;-;-;-;-;-;-;-;-;-;-
1514103332202;-;-;9.266052;-0.33380127;1.2169342;-;-;-;-;-;-;-;-;-;-;-;-;-;-;-
1514103332222;-;-;9.175064;-0.50738525;1.2432709;-;-;-;-;-;-;-;-;-;-;-;-;-;-;-
1514103332242;-;-;9.135559;-0.5612488;1.2085571;-;-;-;-;-;-;-;-;-;-;-;-;-;-;-
1514103332262;-;-;9.125992;-0.4774475;1.1846161;-;-;-;-;-;-;-;-;-;-;-;-;-;-;-
1514103332283;-;-;9.106842;-0.38168335;1.2660217;-;-;-;-;-;-;-;-;-;-;-;-;-;-;-
1514103332303;-;-;9.116409;-0.31105042;1.2660217;-;-;-;-;-;-;-;-;-;-;-;-;-;-;-
1514103332323;-;-;9.203796;-0.35055542;1.1941986;-;-;-;-;-;-;-;-;-;-;-;-;-;-;-
1514103332344;-;-;9.206192;-0.3972473;1.1175842;-;-;-;-;-;-;-;-;-;-;-;-;-;-;-
1514103332364;-;-;9.128387;-0.40322876;1.0744781;-;-;-;-;-;-;-;-;-;-;-;-;-;-;-
1514103332384;-;-;9.122391;-0.3876648;1.1463013;-;-;-;-;-;-;-;-;-;-;-;-;-;-;-
1514103332404;-;-;9.129578;-0.46188354;1.152298;-;-;-;-;-;-;-;-;-;-;-;-;-;-;-
1514103332425;-;-;9.125992;-0.48942566;1.1858063;-;-;-;-;-;-;-;-;-;-;-;-;-;-;-
1514103332445;-;-;9.036209;-0.50857544;1.2420807;-;-;-;-;-;-;-;-;-;-;-;-;-;-;-
1514103332464;-;-;9.064941;-0.43315125;1.2348938;-;-;-;-;-;-;-;-;-;-;-;-;-;-;-
1514103332484;-;-;9.197815;-0.32302856;1.160675;-;-;-;-;-;-;-;-;-;-;-;-;-;-;-
1514103332504;-;-;9.179855;-0.29309082;1.0457458;-;-;-;-;-;-;-;-;-;-;-;-;-;-;-
1514103332524;-;-;9.201401;-0.30148315;1.0589142;-;-;-;-;-;-;-;-;-;-;-;-;-;-;-
1514103332545;-;-;9.29718;-0.22964478;0.978714;-;-;-;-;-;-;-;-;-;-;-;-;-;-;-
1514103332565;-;-;9.291183;-0.20809937;1.0361786;-;-;-;-;-;-;-;-;-;-;-;-;-;-;-
1514103332585;-;-;9.155914;-0.2272644;1.1044159;-;-;-;-;-;-;-;-;-;-;-;-;-;-;-
1514103332605;-;-;9.051773;-0.26675415;1.1259613;-;-;-;-;-;-;-;-;-;-;-;-;-;-;-
1514103332626;-;-;9.0182495;-0.35176086;1.081665;-;-;-;-;-;-;-;-;-;-;-;-;-;-;-
1514103332646;-;-;9.0793;-0.43675232;1.0110321;-;-;-;-;-;-;-;-;-;-;-;-;-;-;-
1514103332666;-;-;9.189438;-0.3697052;0.94400024;-;-;-;-;-;-;-;-;-;-;-;-;-;-;-
1514103332686;-;-;9.210983;-0.37928772;0.8925171;-;-;-;-;-;-;-;-;-;-;-;-;-;-;-
1514103332706;-;-;9.284012;-0.37210083;0.8877411;-;-;-;-;-;-;-;-;-;-;-;-;-;-;-
1514103332726;-;-;9.252884;-0.41760254;0.84942627;-;-;-;-;-;-;-;-;-;-;-;-;-;-;-
1514103332747;-;-;9.164291;-0.41400146;0.8697815;-;-;-;-;-;-;-;-;-;-;-;-;-;-;-
1514103332767;-;-;9.13916;-0.42837524;0.9535675;-;-;-;-;-;-;-;-;-;-;-;-;-;-;-
1514103332787;-;-;9.210983;-0.41281128;0.88534546;-;-;-;-;-;-;-;-;-;-;-;-;-;-;-
1514103332807;-;-;9.159515;-0.38407898;0.8913269;-;-;-;-;-;-;-;-;-;-;-;-;-;-;-
1514103332828;-;-;9.165497;-0.32182312;1.0122375;-;-;-;-;-;-;-;-;-;-;-;-;-;-;-
1514103332847;-;-;9.149933;-0.28231812;1.1642609;-;-;-;-;-;-;-;-;-;-;-;-;-;-;-
1514103332867;-;-;9.134369;-0.30267334;1.2205353;-;-;-;-;-;-;-;-;-;-;-;-;-;-;-
1514103332887;-;-;9.115219;-0.39964294;1.2181396;-;-;-;-;-;-;-;-;-;-;-;-;-;-;-
1514103332907;-;-;9.184647;-0.39126587;1.1582794;-;-;-;-;-;-;-;-;-;-;-;-;-;-;-
1514103332928;-;-;9.124786;-0.33140564;1.1307526;-;-;-;-;-;-;-;-;-;-;-;-;-;-;-
1514103332948;-;-;9.165497;-0.38287354;1.1846161;-;-;-;-;-;-;-;-;-;-;-;-;-;-;-
1514103332968;-;-;9.197815;-0.3433838;1.2097473;-;-;-;-;-;-;-;-;-;-;-;-;-;-;-
1514103332988;-;-;9.171478;-0.37809753;1.20018;-;-;-;-;-;-;-;-;-;-;-;-;-;-;-
1514103333008;-;-;9.15831;-0.42358398;1.255249;-;-;-;-;-;-;-;-;-;-;-;-;-;-;-
1514103333029;-;-;9.124786;-0.46188354;1.1989746;-;-;-;-;-;-;-;-;-;-;-;-;-;-;-
1514103333049;-;-;9.103241;-0.49301147;1.1570892;-;-;-;-;-;-;-;-;-;-;-;-;-;-;-
1514103333069;-;-;9.129578;-0.4379425;1.1582794;-;-;-;-;-;-;-;-;-;-;-;-;-;-;-
1514103333090;-;-;9.199005;-0.49421692;1.1391296;-;-;-;-;-;-;-;-;-;-;-;-;-;-;-
1514103333110;-;-;9.208588;-0.4559021;1.1163788;-;-;-;-;-;-;-;-;-;-;-;-;-;-;-
1514103333130;-;-;9.17746;-0.4152069;1.1570892;-;-;-;-;-;-;-;-;-;-;-;-;-;-;-
1514103333151;-;-;9.14035;-0.43315125;1.1666565;-;-;-;-;-;-;-;-;-;-;-;-;-;-;-
1514103333171;-;-;9.111618;-0.43675232;1.236084;-;-;-;-;-;-;-;-;-;-;-;-;-;-;-
1514103333191;-;-;9.105637;-0.47146606;1.2324982;-;-;-;-;-;-;-;-;-;-;-;-;-;-;-
1514103333211;-;-;9.133179;-0.44033813;1.246872;-;-;-;-;-;-;-;-;-;-;-;-;-;-;-
1514103333232;-;-;9.134369;-0.4163971;1.2348938;-;-;-;-;-;-;-;-;-;-;-;-;-;-;-
1514103333252;-;-;9.115219;-0.37449646;1.255249;-;-;-;-;-;-;-;-;-;-;-;-;-;-;-
1514103333272;-;-;9.133179;-0.3086548;1.3450317;-;-;-;-;-;-;-;-;-;-;-;-;-;-;-
1514103333293;-;-;9.122391;-0.30986023;1.2672119;-;-;-;-;-;-;-;-;-;-;-;-;-;-;-
1514103333313;-;-;9.118805;-0.30267334;1.2432709;-;-;-;-;-;-;-;-;-;-;-;-;-;-;-
1514103333333;-;-;9.108032;-0.33380127;1.291153;-;-;-;-;-;-;-;-;-;-;-;-;-;-;-
