TimeStamp[ms];Prox[Cm];Lux[lux];AccX[m/s^2];AccY[m/s^2];AccZ[m/s^2];GyroX[rad/s];GyroY[rad/s];GyroZ[rad/s];MagnX[uT];MagnY[uT];MagnZ[uT];OrienYaw[degrees];OrienPitch[degrees];OrienRoll[degrees];Press[Pa];Temp[C°];Batt[%];Lat;Lng;Speed[m/s]
1514103954928;-;-;7.988739;-3.8460999;1.8023224;-;-;-;-;-;-;-;-;-;-;-;-;-;-;-
1514103954927;-;-;7.988739;-3.8460999;1.8023224;-;-;-;-;-;-;-;-;-;-;-;-;-;-;-
1514103954944;-;-;7.4572296;-3.4211273;1.552124;-;-;-;-;-;-;-;-;-;-;-;-;-;-;-
1514103954965;-;-;8.924881;-3.1721191;1.552124;-;-;-;-;-;-;-;-;-;-;-;-;-;-;-
1514103954986;-;-;8.831497;-2.997345;-0.2962036;-;-;-;-;-;-;-;-;-;-;-;-;-;-;-
1514103955006;-;-;7.8438873;-3.0380554;-0.92108154;-;-;-;-;-;-;-;-;-;-;-;-;-;-;-
1514103955026;-;-;8.238937;-2.9506683;-0.45780945;-;-;-;-;-;-;-;-;-;-;-;-;-;-;-
1514103955046;-;-;9.007477;-2.088745;0.20898438;-;-;-;-;-;-;-;-;-;-;-;-;-;-;-
1514103955067;-;-;9.094864;-1.8301697;0.18144226;-;-;-;-;-;-;-;-;-;-;-;-;-;-;-
1514103955088;-;-;10.46196;-1.9666443;-0.085510254;-;-;-;-;-;-;-;-;-;-;-;-;-;-;-
1514103955108;-;-;7.9791718;-1.0341034;-0.85523987;-;-;-;-;-;-;-;-;-;-;-;-;-;-;-
1514103955129;-;-;9.619202;-0.6354675;-0.90911865;-;-;-;-;-;-;-;-;-;-;-;-;-;-;-
1514103955149;-;-;10.664261;-1.131073;-0.21359253;-;-;-;-;-;-;-;-;-;-;-;-;-;-;-
1514103955183;-;-;9.479141;-1.8098297;-0.6002655;-;-;-;-;-;-;-;-;-;-;-;-;-;-;-
1514103955190;-;-;9.108032;-1.6302643;-0.496109;-;-;-;-;-;-;-;-;-;-;-;-;-;-;-
1514103955210;-;-;9.379776;-2.186905;-0.37879944;-;-;-;-;-;-;-;-;-;-;-;-;-;-;-
1514103955231;-;-;9.063736;-1.8972168;-0.109451294;-;-;-;-;-;-;-;-;-;-;-;-;-;-;-
1514103955251;-;-;8.97995;-1.9450989;0.07130432;-;-;-;-;-;-;-;-;-;-;-;-;-;-;-
1514103955271;-;-;8.924881;-1.641037;-0.14057922;-;-;-;-;-;-;-;-;-;-;-;-;-;-;-
1514103955291;-;-;9.0577545;-1.9822083;-0.36442566;-;-;-;-;-;-;-;-;-;-;-;-;-;-;-
1514103955312;-;-;8.746506;-1.9211578;-0.5535736;-;-;-;-;-;-;-;-;-;-;-;-;-;-;-
1514103955332;-;-;8.751297;-1.7344055;-0.17529297;-;-;-;-;-;-;-;-;-;-;-;-;-;-;-
1514103955353;-;-;9.221756;-2.016922;-0.5823059;-;-;-;-;-;-;-;-;-;-;-;-;-;-;-
1514103955373;-;-;9.125992;-1.1657867;-0.2854309;-;-;-;-;-;-;-;-;-;-;-;-;-;-;-
1514103955393;-;-;9.360626;-0.9646759;-1.5483704;-;-;-;-;-;-;-;-;-;-;-;-;-;-;-
1514103955413;-;-;9.262466;-0.49661255;-0.64456177;-;-;-;-;-;-;-;-;-;-;-;-;-;-;-
1514103955434;-;-;9.100845;-0.46188354;-1.1569061;-;-;-;-;-;-;-;-;-;-;-;-;-;-;-
1514103955454;-;-;9.421677;-0.6522217;-1.401123;-;-;-;-;-;-;-;-;-;-;-;-;-;-;-
1514103955474;-;-;9.556946;-0.44752502;-1.4621735;-;-;-;-;-;-;-;-;-;-;-;-;-;-;-
1514103955494;-;-;8.277252;-0.68933105;-1.7219391;-;-;-;-;-;-;-;-;-;-;-;-;-;-;-
1514103955515;-;-;8.83989;-0.43315125;-1.447815;-;-;-;-;-;-;-;-;-;-;-;-;-;-;-
1514103955535;-;-;9.481522;-0.15423584;-1.2502899;-;-;-;-;-;-;-;-;-;-;-;-;-;-;-
1514103955555;-;-;10.380554;0.1438446;-1.4490051;-;-;-;-;-;-;-;-;-;-;-;-;-;-;-
1514103955575;-;-;9.228943;0.02293396;-1.0886841;-;-;-;-;-;-;-;-;-;-;-;-;-;-;-
1514103955596;-;-;9.790375;-0.13388062;-2.819687;-;-;-;-;-;-;-;-;-;-;-;-;-;-;-
1514103955616;-;-;8.83989;-0.25;-1.9601746;-;-;-;-;-;-;-;-;-;-;-;-;-;-;-
1514103955636;-;-;7.7960052;1.9406891;-1.3867645;-;-;-;-;-;-;-;-;-;-;-;-;-;-;-
1514103955657;-;-;8.577713;0.37010193;-1.416687;-;-;-;-;-;-;-;-;-;-;-;-;-;-;-
1514103955677;-;-;9.12001;1.224823;-1.0395966;-;-;-;-;-;-;-;-;-;-;-;-;-;-;-
1514103955698;-;-;10.661865;0.6071167;-4.733856;-;-;-;-;-;-;-;-;-;-;-;-;-;-;-
1514103955718;-;-;10.350616;1.7886658;-4.061081;-;-;-;-;-;-;-;-;-;-;-;-;-;-;-
1514103955738;-;-;8.292801;2.4159393;-2.7694092;-;-;-;-;-;-;-;-;-;-;-;-;-;-;-
1514103955758;-;-;6.6024933;2.4398804;-2.3073273;-;-;-;-;-;-;-;-;-;-;-;-;-;-;-
1514103955779;-;-;8.521454;0.33299255;-1.5699158;-;-;-;-;-;-;-;-;-;-;-;-;-;-;-
1514103955798;-;-;9.9591675;1.5588226;-1.6908264;-;-;-;-;-;-;-;-;-;-;-;-;-;-;-
1514103955819;-;-;8.927277;2.1884918;-2.175644;-;-;-;-;-;-;-;-;-;-;-;-;-;-;-
1514103955839;-;-;7.7696686;2.7535248;-1.3508453;-;-;-;-;-;-;-;-;-;-;-;-;-;-;-
1514103955859;-;-;8.0928955;1.9047852;-1.5459747;-;-;-;-;-;-;-;-;-;-;-;-;-;-;-
1514103955880;-;-;8.544205;1.0656128;-1.4107056;-;-;-;-;-;-;-;-;-;-;-;-;-;-;-
1514103955900;-;-;7.473984;1.406784;-0.5811157;-;-;-;-;-;-;-;-;-;-;-;-;-;-;-
1514103955920;-;-;11.359787;1.3026428;-1.8967285;-;-;-;-;-;-;-;-;-;-;-;-;-;-;-
1514103955941;-;-;8.515472;1.1769409;-1.7554626;-;-;-;-;-;-;-;-;-;-;-;-;-;-;-
1514103955961;-;-;8.046204;0.81422424;-2.5826569;-;-;-;-;-;-;-;-;-;-;-;-;-;-;-
1514103955981;-;-;7.1711273;1.3505249;-1.8260956;-;-;-;-;-;-;-;-;-;-;-;-;-;-;-
1514103956002;-;-;6.7844543;0.9135742;-4.460907;-;-;-;-;-;-;-;-;-;-;-;-;-;-;-
1514103956022;-;-;6.817978;0.47903442;-3.4816895;-;-;-;-;-;-;-;-;-;-;-;-;-;-;-
1514103956042;-;-;7.7756653;-0.06803894;-2.9765015;-;-;-;-;-;-;-;-;-;-;-;-;-;-;-
1514103956063;-;-;9.457581;0.15701294;-0.8504486;-;-;-;-;-;-;-;-;-;-;-;-;-;-;-
1514103956083;-;-;10.503845;-0.083602905;-1.0000916;-;-;-;-;-;-;-;-;-;-;-;-;-;-;-
1514103956103;-;-;12.854965;-1.2471924;-1.1533203;-;-;-;-;-;-;-;-;-;-;-;-;-;-;-
1514103956123;-;-;10.183029;-9.10495;-23.104553;-;-;-;-;-;-;-;-;-;-;-;-;-;-;-
1514103956144;-;-;9.776016;2.9474487;22.431961;-;-;-;-;-;-;-;-;-;-;-;-;-;-;-
1514103956164;-;-;12.288727;-1.5739899;-11.295166;-;-;-;-;-;-;-;-;-;-;-;-;-;-;-
1514103956185;-;-;11.965515;-1.0161438;-0.7271576;-;-;-;-;-;-;-;-;-;-;-;-;-;-;-
1514103956205;-;-;9.471954;1.2391968;0.3382721;-;-;-;-;-;-;-;-;-;-;-;-;-;-;-
1514103956225;-;-;8.46759;-0.085998535;-1.2897949;-;-;-;-;-;-;-;-;-;-;-;-;-;-;-
1514103956245;-;-;9.510254;1.101532;-3.1381226;-;-;-;-;-;-;-;-;-;-;-;-;-;-;-
1514103956266;-;-;9.392944;0.14624023;-2.3300781;-;-;-;-;-;-;-;-;-;-;-;-;-;-;-
1514103956286;-;-;5.766922;2.7116241;-2.8963013;-;-;-;-;-;-;-;-;-;-;-;-;-;-;-
1514103956306;-;-;7.727768;2.8840027;-2.6484985;-;-;-;-;-;-;-;-;-;-;-;-;-;-;-
1514103956327;-;-;10.212952;0.53170776;0.03300476;-;-;-;-;-;-;-;-;-;-;-;-;-;-;-
1514103956347;-;-;9.524628;-0.9479065;-3.8049011;-;-;-;-;-;-;-;-;-;-;-;-;-;-;-
1514103956367;-;-;8.58609;0.5161438;-1.8404541;-;-;-;-;-;-;-;-;-;-;-;-;-;-;-
1514103956388;-;-;8.975159;0.6573944;-1.9362335;-;-;-;-;-;-;-;-;-;-;-;-;-;-;-
1514103956408;-;-;8.824326;0.92196655;-2.2857819;-;-;-;-;-;-;-;-;-;-;-;-;-;-;-
1514103956428;-;-;8.993118;0.793869;-2.429428;-;-;-;-;-;-;-;-;-;-;-;-;-;-;-
1514103956448;-;-;8.950012;0.54008484;-2.4797058;-;-;-;-;-;-;-;-;-;-;-;-;-;-;-
1514103956469;-;-;8.799179;0.49339294;-2.2223358;-;-;-;-;-;-;-;-;-;-;-;-;-;-;-
1514103956488;-;-;8.794388;0.4514923;-2.3396454;-;-;-;-;-;-;-;-;-;-;-;-;-;-;-
1514103956508;-;-;8.865021;0.42396545;-2.412674;-;-;-;-;-;-;-;-;-;-;-;-;-;-;-
1514103956528;-;-;8.775238;0.4694519;-2.3564148;-;-;-;-;-;-;-;-;-;-;-;-;-;-;-
1514103956549;-;-;8.740524;0.6382446;-2.3767548;-;-;-;-;-;-;-;-;-;-;-;-;-;-;-
1514103956568;-;-;8.736938;0.9195709;-2.4030914;-;-;-;-;-;-;-;-;-;-;-;-;-;-;-
1514103956588;-;-;8.795593;0.9937897;-2.5252075;-;-;-;-;-;-;-;-;-;-;-;-;-;-;-
1514103956609;-;-;8.814743;0.9470978;-2.5814667;-;-;-;-;-;-;-;-;-;-;-;-;-;-;-
1514103956629;-;-;8.871002;0.87527466;-2.5958252;-;-;-;-;-;-;-;-;-;-;-;-;-;-;-
1514103956649;-;-;8.811157;0.9997711;-2.6269531;-;-;-;-;-;-;-;-;-;-;-;-;-;-;-
1514103956669;-;-;8.6818695;1.2739105;-2.6401215;-;-;-;-;-;-;-;-;-;-;-;-;-;-;-
1514103956690;-;-;8.562149;1.4343262;-2.570694;-;-;-;-;-;-;-;-;-;-;-;-;-;-;-
1514103956710;-;-;8.5238495;1.4666443;-2.6508942;-;-;-;-;-;-;-;-;-;-;-;-;-;-;-
1514103956730;-;-;8.635178;1.3732605;-2.7430725;-;-;-;-;-;-;-;-;-;-;-;-;-;-;-
1514103956751;-;-;8.888962;1.2547607;-2.5874481;-;-;-;-;-;-;-;-;-;-;-;-;-;-;-
1514103956771;-;-;9.312744;1.2355957;-2.3875275;-;-;-;-;-;-;-;-;-;-;-;-;-;-;-
1514103956791;-;-;9.355835;1.3217926;-2.3552094;-;-;-;-;-;-;-;-;-;-;-;-;-;-;-
1514103956812;-;-;9.347458;1.3720703;-2.105011;-;-;-;-;-;-;-;-;-;-;-;-;-;-;-
1514103956832;-;-;9.428848;1.3158112;-1.8500366;-;-;-;-;-;-;-;-;-;-;-;-;-;-;-
1514103956852;-;-;9.325912;1.319397;-1.9793243;-;-;-;-;-;-;-;-;-;-;-;-;-;-;-
1514103956873;-;-;9.225342;1.3816528;-2.247467;-;-;-;-;-;-;-;-;-;-;-;-;-;-;-
1514103956893;-;-;8.732147;1.5384674;-2.0248108;-;-;-;-;-;-;-;-;-;-;-;-;-;-;-
1514103956913;-;-;8.23056;1.6102905;-1.8237;-;-;-;-;-;-;-;-;-;-;-;-;-;-;-
1514103956934;-;-;7.7361603;1.6450043;-1.8799591;-;-;-;-;-;-;-;-;-;-;-;-;-;-;-
1514103956954;-;-;7.7445374;1.3122101;-1.9517822;-;-;-;-;-;-;-;-;-;-;-;-;-;-;-
1514103956974;-;-;7.845093;0.8716736;-2.306137;-;-;-;-;-;-;-;-;-;-;-;-;-;-;-
1514103956995;-;-;8.707001;0.517334;-2.1804352;-;-;-;-;-;-;-;-;-;-;-;-;-;-;-
1514103957014;-;-;9.281616;0.2132721;-2.3157043;-;-;-;-;-;-;-;-;-;-;-;-;-;-;-
1514103957034;-;-;9.754471;-0.28112793;-2.1648712;-;-;-;-;-;-;-;-;-;-;-;-;-;-;-
1514103957054;-;-;10.125565;-0.16859436;-2.6508942;-;-;-;-;-;-;-;-;-;-;-;-;-;-;-
1514103957075;-;-;10.336258;0.43952942;-2.8376465;-;-;-;-;-;-;-;-;-;-;-;-;-;-;-
1514103957094;-;-;9.869385;0.9483032;-2.614975;-;-;-;-;-;-;-;-;-;-;-;-;-;-;-
1514103957114;-;-;8.853058;0.7531738;-2.381546;-;-;-;-;-;-;-;-;-;-;-;-;-;-;-
1514103957135;-;-;8.113235;0.6023407;-2.124176;-;-;-;-;-;-;-;-;-;-;-;-;-;-;-
1514103957155;-;-;7.91333;0.7878876;-2.0068512;-;-;-;-;-;-;-;-;-;-;-;-;-;-;-
1514103957175;-;-;8.2317505;1.1182861;-2.045166;-;-;-;-;-;-;-;-;-;-;-;-;-;-;-
1514103957196;-;-;8.414917;1.3301697;-2.2259216;-;-;-;-;-;-;-;-;-;-;-;-;-;-;-
1514103957216;-;-;8.436462;1.3912201;-2.3588104;-;-;-;-;-;-;-;-;-;-;-;-;-;-;-
1514103957236;-;-;8.535812;1.3241882;-2.3528137;-;-;-;-;-;-;-;-;-;-;-;-;-;-;-
1514103957257;-;-;8.918884;1.1326447;-2.266632;-;-;-;-;-;-;-;-;-;-;-;-;-;-;-
1514103957276;-;-;9.439636;0.90519714;-2.2905731;-;-;-;-;-;-;-;-;-;-;-;-;-;-;-
1514103957296;-;-;9.300766;0.635849;-2.452179;-;-;-;-;-;-;-;-;-;-;-;-;-;-;-
1514103957316;-;-;8.710602;0.5257263;-2.2833862;-;-;-;-;-;-;-;-;-;-;-;-;-;-;-
1514103957336;-;-;8.316742;0.34735107;-2.1062164;-;-;-;-;-;-;-;-;-;-;-;-;-;-;-
1514103957357;-;-;8.521454;-0.06803894;-2.247467;-;-;-;-;-;-;-;-;-;-;-;-;-;-;-
1514103957377;-;-;9.090073;-0.0010070801;-2.3169098;-;-;-;-;-;-;-;-;-;-;-;-;-;-;-
1514103957397;-;-;9.476746;-0.21170044;-2.3911285;-;-;-;-;-;-;-;-;-;-;-;-;-;-;-
1514103957417;-;-;8.963181;-0.39126587;-2.5527344;-;-;-;-;-;-;-;-;-;-;-;-;-;-;-
1514103957438;-;-;8.26767;-0.7803192;-2.757431;-;-;-;-;-;-;-;-;-;-;-;-;-;-;-
1514103957458;-;-;7.937271;-0.46069336;-1.9613647;-;-;-;-;-;-;-;-;-;-;-;-;-;-;-
1514103957478;-;-;8.489136;0.24081421;-1.3987274;-;-;-;-;-;-;-;-;-;-;-;-;-;-;-
1514103957499;-;-;9.462372;0.7256317;-1.9290466;-;-;-;-;-;-;-;-;-;-;-;-;-;-;-
1514103957519;-;-;9.720947;0.8716736;-2.3288727;-;-;-;-;-;-;-;-;-;-;-;-;-;-;-
1514103957539;-;-;9.649124;0.60113525;-2.271408;-;-;-;-;-;-;-;-;-;-;-;-;-;-;-
1514103957559;-;-;9.511459;0.35333252;-2.203186;-;-;-;-;-;-;-;-;-;-;-;-;-;-;-
1514103957580;-;-;9.183456;0.13186646;-2.0750885;-;-;-;-;-;-;-;-;-;-;-;-;-;-;-
1514103957600;-;-;9.06015;-0.081207275;-2.0092468;-;-;-;-;-;-;-;-;-;-;-;-;-;-;-
1514103957620;-;-;8.948822;-0.42956543;-2.3121185;-;-;-;-;-;-;-;-;-;-;-;-;-;-;-
1514103957641;-;-;8.950012;-0.7551727;-2.1505127;-;-;-;-;-;-;-;-;-;-;-;-;-;-;-
1514103957661;-;-;8.880585;-0.7503967;-1.8596191;-;-;-;-;-;-;-;-;-;-;-;-;-;-;-
1514103957681;-;-;8.770447;-0.72525024;-1.950592;-;-;-;-;-;-;-;-;-;-;-;-;-;-;-
1514103957702;-;-;8.669891;-0.47865295;-2.0307922;-;-;-;-;-;-;-;-;-;-;-;-;-;-;-
1514103957721;-;-;8.756088;0.07081604;-2.3671875;-;-;-;-;-;-;-;-;-;-;-;-;-;-;-
1514103957741;-;-;9.058945;0.7723236;-2.4078827;-;-;-;-;-;-;-;-;-;-;-;-;-;-;-
1514103957761;-;-;9.39534;1.1925049;-2.3145142;-;-;-;-;-;-;-;-;-;-;-;-;-;-;-
1514103957781;-;-;9.3941345;1.2918701;-2.5132294;-;-;-;-;-;-;-;-;-;-;-;-;-;-;-
1514103957802;-;-;9.0577545;0.8704834;-2.4821014;-;-;-;-;-;-;-;-;-;-;-;-;-;-;-
1514103957822;-;-;8.678268;0.29707336;-2.1505127;-;-;-;-;-;-;-;-;-;-;-;-;-;-;-
1514103957842;-;-;8.24971;-0.015365601;-2.179245;-;-;-;-;-;-;-;-;-;-;-;-;-;-;-
1514103957863;-;-;8.254501;-0.20930481;-2.1744537;-;-;-;-;-;-;-;-;-;-;-;-;-;-;-
1514103957884;-;-;8.708206;-0.2033081;-2.3695831;-;-;-;-;-;-;-;-;-;-;-;-;-;-;-
1514103957904;-;-;8.97995;-0.097976685;-2.3276825;-;-;-;-;-;-;-;-;-;-;-;-;-;-;-
1514103957924;-;-;9.045776;-0.09916687;-2.2187347;-;-;-;-;-;-;-;-;-;-;-;-;-;-;-
1514103957945;-;-;9.075714;-0.17338562;-2.2091675;-;-;-;-;-;-;-;-;-;-;-;-;-;-;-
1514103957965;-;-;9.041;-0.18057251;-2.2654266;-;-;-;-;-;-;-;-;-;-;-;-;-;-;-
1514103957985;-;-;8.9787445;0.03970337;-2.3695831;-;-;-;-;-;-;-;-;-;-;-;-;-;-;-
1514103958006;-;-;8.9392395;0.46347046;-2.4749146;-;-;-;-;-;-;-;-;-;-;-;-;-;-;-
1514103958026;-;-;9.155914;0.73760986;-2.3133087;-;-;-;-;-;-;-;-;-;-;-;-;-;-;-
1514103958046;-;-;8.825516;0.83935547;-2.7143402;-;-;-;-;-;-;-;-;-;-;-;-;-;-;-
1514103958067;-;-;8.861435;0.4945984;-2.5383606;-;-;-;-;-;-;-;-;-;-;-;-;-;-;-
1514103958086;-;-;8.796783;0.31263733;-2.47612;-;-;-;-;-;-;-;-;-;-;-;-;-;-;-
1514103958106;-;-;8.865021;0.11631775;-2.4306335;-;-;-;-;-;-;-;-;-;-;-;-;-;-;-
1514103958126;-;-;8.905716;-0.00579834;-2.5659027;-;-;-;-;-;-;-;-;-;-;-;-;-;-;-
1514103958147;-;-;8.906921;-0.07522583;-2.6688538;-;-;-;-;-;-;-;-;-;-;-;-;-;-;-
1514103958167;-;-;9.011063;-0.069244385;-2.7011719;-;-;-;-;-;-;-;-;-;-;-;-;-;-;-
1514103958187;-;-;8.965576;-0.028533936;-2.6951904;-;-;-;-;-;-;-;-;-;-;-;-;-;-;-
1514103958208;-;-;8.932053;0.10673523;-2.7861633;-;-;-;-;-;-;-;-;-;-;-;-;-;-;-
1514103958228;-;-;8.701019;0.259964;-2.8256683;-;-;-;-;-;-;-;-;-;-;-;-;-;-;-
1514103958248;-;-;8.807556;0.30545044;-2.6484985;-;-;-;-;-;-;-;-;-;-;-;-;-;-;-
1514103958268;-;-;8.8997345;0.14144897;-2.5958252;-;-;-;-;-;-;-;-;-;-;-;-;-;-;-
1514103958289;-;-;8.868607;-0.026138306;-2.6712494;-;-;-;-;-;-;-;-;-;-;-;-;-;-;-
1514103958309;-;-;8.686661;-0.078811646;-2.7143402;-;-;-;-;-;-;-;-;-;-;-;-;-;-;-
1514103958329;-;-;8.617218;-0.05128479;-2.8065186;-;-;-;-;-;-;-;-;-;-;-;-;-;-;-
1514103958350;-;-;8.479553;-0.00340271;-2.8855286;-;-;-;-;-;-;-;-;-;-;-;-;-;-;-
1514103958370;-;-;8.72496;0.03251648;-2.9334106;-;-;-;-;-;-;-;-;-;-;-;-;-;-;-
1514103958390;-;-;8.769257;0.17376709;-3.0447388;-;-;-;-;-;-;-;-;-;-;-;-;-;-;-
1514103958410;-;-;8.758484;0.14624023;-3.097412;-;-;-;-;-;-;-;-;-;-;-;-;-;-;-
1514103958431;-;-;8.740524;0.23123169;-2.9597473;-;-;-;-;-;-;-;-;-;-;-;-;-;-;-
1514103958451;-;-;8.8003845;0.16897583;-2.9034882;-;-;-;-;-;-;-;-;-;-;-;-;-;-;-
1514103958471;-;-;8.777634;0.103149414;-2.8472137;-;-;-;-;-;-;-;-;-;-;-;-;-;-;-
1514103958492;-;-;8.76207;0.0181427;-2.8220825;-;-;-;-;-;-;-;-;-;-;-;-;-;-;-
1514103958512;-;-;8.788406;-0.05128479;-2.8268738;-;-;-;-;-;-;-;-;-;-;-;-;-;-;-
1514103958531;-;-;8.796783;-0.021362305;-2.8532104;-;-;-;-;-;-;-;-;-;-;-;-;-;-;-
1514103958551;-;-;8.922485;0.03251648;-2.8639832;-;-;-;-;-;-;-;-;-;-;-;-;-;-;-
1514103958571;-;-;8.691437;0.076812744;-2.8867188;-;-;-;-;-;-;-;-;-;-;-;-;-;-;-
1514103958592;-;-;8.716583;0.083984375;-2.8687744;-;-;-;-;-;-;-;-;-;-;-;-;-;-;-
1514103958611;-;-;8.76207;0.08279419;-2.922638;-;-;-;-;-;-;-;-;-;-;-;-;-;-;-
1514103958631;-;-;8.8003845;0.07321167;-2.8735504;-;-;-;-;-;-;-;-;-;-;-;-;-;-;-
1514103958651;-;-;8.784821;0.107925415;-2.8867188;-;-;-;-;-;-;-;-;-;-;-;-;-;-;-
1514103958672;-;-;8.748901;0.12828064;-2.8783417;-;-;-;-;-;-;-;-;-;-;-;-;-;-;-
1514103958692;-;-;8.757278;0.1558075;-2.9202423;-;-;-;-;-;-;-;-;-;-;-;-;-;-;-
1514103958712;-;-;8.72496;0.14503479;-2.9190521;-;-;-;-;-;-;-;-;-;-;-;-;-;-;-
1514103958732;-;-;8.763275;0.1438446;-2.9142609;-;-;-;-;-;-;-;-;-;-;-;-;-;-;-
1514103958752;-;-;8.763275;0.13786316;-2.8903198;-;-;-;-;-;-;-;-;-;-;-;-;-;-;-
1514103958772;-;-;8.759674;0.17018127;-2.9166565;-;-;-;-;-;-;-;-;-;-;-;-;-;-;-
1514103958792;-;-;8.746506;0.2192688;-2.9238281;-;-;-;-;-;-;-;-;-;-;-;-;-;-;-
1514103958813;-;-;8.8003845;0.20370483;-2.931015;-;-;-;-;-;-;-;-;-;-;-;-;-;-;-
1514103958833;-;-;8.786011;0.098358154;-2.8579865;-;-;-;-;-;-;-;-;-;-;-;-;-;-;-
1514103958853;-;-;8.7656555;0.10913086;-2.8579865;-;-;-;-;-;-;-;-;-;-;-;-;-;-;-
1514103958873;-;-;8.693832;0.13186646;-2.883133;-;-;-;-;-;-;-;-;-;-;-;-;-;-;-
1514103958894;-;-;8.7213745;0.13905334;-2.898697;-;-;-;-;-;-;-;-;-;-;-;-;-;-;-
1514103958914;-;-;8.740524;0.16539001;-2.8927155;-;-;-;-;-;-;-;-;-;-;-;-;-;-;-
1514103958934;-;-;8.7812195;0.17736816;-2.9238281;-;-;-;-;-;-;-;-;-;-;-;-;-;-;-
1514103958954;-;-;8.751297;0.1845398;-2.8867188;-;-;-;-;-;-;-;-;-;-;-;-;-;-;-
1514103958974;-;-;8.702209;0.21806335;-2.8352509;-;-;-;-;-;-;-;-;-;-;-;-;-;-;-
1514103958995;-;-;8.711792;0.2348175;-2.8424377;-;-;-;-;-;-;-;-;-;-;-;-;-;-;-
1514103959015;-;-;8.739319;0.22644043;-2.9046783;-;-;-;-;-;-;-;-;-;-;-;-;-;-;-
1514103959035;-;-;8.730942;0.24440002;-2.9190521;-;-;-;-;-;-;-;-;-;-;-;-;-;-;-
1514103959055;-;-;8.775238;0.25637817;-2.9022827;-;-;-;-;-;-;-;-;-;-;-;-;-;-;-
1514103959076;-;-;8.728546;0.25038147;-2.8867188;-;-;-;-;-;-;-;-;-;-;-;-;-;-;-
1514103959096;-;-;8.758484;0.21447754;-2.8891144;-;-;-;-;-;-;-;-;-;-;-;-;-;-;-
1514103959116;-;-;8.736938;0.22644043;-2.9322205;-;-;-;-;-;-;-;-;-;-;-;-;-;-;-
1514103959137;-;-;8.7764435;0.24081421;-2.8903198;-;-;-;-;-;-;-;-;-;-;-;-;-;-;-
1514103959156;-;-;8.782425;0.23123169;-2.8939056;-;-;-;-;-;-;-;-;-;-;-;-;-;-;-
1514103959176;-;-;8.7812195;0.18933105;-2.859192;-;-;-;-;-;-;-;-;-;-;-;-;-;-;-
1514103959197;-;-;8.786011;0.19770813;-2.8843231;-;-;-;-;-;-;-;-;-;-;-;-;-;-;-
1514103959217;-;-;8.788406;0.26115417;-2.8388367;-;-;-;-;-;-;-;-;-;-;-;-;-;-;-
1514103959237;-;-;8.757278;0.24440002;-2.855606;-;-;-;-;-;-;-;-;-;-;-;-;-;-;-
1514103959258;-;-;8.764465;0.18814087;-2.9010925;-;-;-;-;-;-;-;-;-;-;-;-;-;-;-
1514103959278;-;-;8.754883;0.16419983;-2.895111;-;-;-;-;-;-;-;-;-;-;-;-;-;-;-
1514103959298;-;-;8.736938;0.17376709;-2.855606;-;-;-;-;-;-;-;-;-;-;-;-;-;-;-
1514103959318;-;-;8.704605;0.17736816;-2.8412323;-;-;-;-;-;-;-;-;-;-;-;-;-;-;-
1514103959338;-;-;8.748901;0.19651794;-2.8268738;-;-;-;-;-;-;-;-;-;-;-;-;-;-;-
1514103959358;-;-;8.739319;0.23242188;-2.8328552;-;-;-;-;-;-;-;-;-;-;-;-;-;-;-
1514103959378;-;-;8.752487;0.24679565;-2.8292694;-;-;-;-;-;-;-;-;-;-;-;-;-;-;-
1514103959399;-;-;8.811157;0.26715088;-2.8783417;-;-;-;-;-;-;-;-;-;-;-;-;-;-;-
1514103959419;-;-;8.850662;0.15940857;-2.831665;-;-;-;-;-;-;-;-;-;-;-;-;-;-;-
1514103959439;-;-;8.788406;0.1845398;-2.7777863;-;-;-;-;-;-;-;-;-;-;-;-;-;-;-
1514103959459;-;-;8.729752;0.20729065;-2.8376465;-;-;-;-;-;-;-;-;-;-;-;-;-;-;-
1514103959480;-;-;8.774048;0.18814087;-2.7670135;-;-;-;-;-;-;-;-;-;-;-;-;-;-;-
1514103959501;-;-;8.783615;0.23123169;-2.7993317;-;-;-;-;-;-;-;-;-;-;-;-;-;-;-
1514103959522;-;-;8.795593;0.16659546;-2.8172913;-;-;-;-;-;-;-;-;-;-;-;-;-;-;-
1514103959542;-;-;8.7812195;0.1953125;-2.8137054;-;-;-;-;-;-;-;-;-;-;-;-;-;-;-
1514103959562;-;-;8.758484;0.18574524;-2.8101044;-;-;-;-;-;-;-;-;-;-;-;-;-;-;-
1514103959583;-;-;8.778824;0.19770813;-2.7909546;-;-;-;-;-;-;-;-;-;-;-;-;-;-;-
1514103959602;-;-;8.777634;0.17736816;-2.8077087;-;-;-;-;-;-;-;-;-;-;-;-;-;-;-
1514103959622;-;-;8.8003845;0.1797638;-2.7933502;-;-;-;-;-;-;-;-;-;-;-;-;-;-;-
1514103959642;-;-;8.7656555;0.22045898;-2.8065186;-;-;-;-;-;-;-;-;-;-;-;-;-;-;-
1514103959663;-;-;8.795593;0.18693542;-2.7742004;-;-;-;-;-;-;-;-;-;-;-;-;-;-;-
1514103959683;-;-;8.7656555;0.1797638;-2.8244781;-;-;-;-;-;-;-;-;-;-;-;-;-;-;-
1514103959703;-;-;8.783615;0.20729065;-2.8304596;-;-;-;-;-;-;-;-;-;-;-;-;-;-;-
1514103959724;-;-;8.768051;0.19891357;-2.8292694;-;-;-;-;-;-;-;-;-;-;-;-;-;-;-
1514103959744;-;-;8.759674;0.22644043;-2.8544006;-;-;-;-;-;-;-;-;-;-;-;-;-;-;-
1514103959764;-;-;8.794388;0.23123169;-2.7861633;-;-;-;-;-;-;-;-;-;-;-;-;-;-;-
1514103959784;-;-;8.777634;0.21687317;-2.8125;-;-;-;-;-;-;-;-;-;-;-;-;-;-;-
1514103959804;-;-;8.812347;0.24919128;-2.8101044;-;-;-;-;-;-;-;-;-;-;-;-;-;-;-
1514103959825;-;-;8.791992;0.2192688;-2.7825775;-;-;-;-;-;-;-;-;-;-;-;-;-;-;-
1514103959845;-;-;8.796783;0.2192688;-2.8388367;-;-;-;-;-;-;-;-;-;-;-;-;-;-;-
1514103959865;-;-;8.770447;0.17376709;-2.8328552;-;-;-;-;-;-;-;-;-;-;-;-;-;-;-
1514103959885;-;-;8.735733;0.19293213;-2.7562408;-;-;-;-;-;-;-;-;-;-;-;-;-;-;-
1514103959906;-;-;8.759674;0.20729065;-2.7670135;-;-;-;-;-;-;-;-;-;-;-;-;-;-;-
1514103959926;-;-;8.825516;0.17855835;-2.7299042;-;-;-;-;-;-;-;-;-;-;-;-;-;-;-
1514103959946;-;-;8.7764435;0.18574524;-2.7849731;-;-;-;-;-;-;-;-;-;-;-;-;-;-;-
1514103959966;-;-;8.777634;0.21566772;-2.8424377;-;-;-;-;-;-;-;-;-;-;-;-;-;-;-
1514103959986;-;-;8.783615;0.19412231;-2.852005;-;-;-;-;-;-;-;-;-;-;-;-;-;-;-
1514103960007;-;-;8.806366;0.14025879;-2.8101044;-;-;-;-;-;-;-;-;-;-;-;-;-;-;-
1514103960027;-;-;8.778824;0.17855835;-2.7442627;-;-;-;-;-;-;-;-;-;-;-;-;-;-;-
1514103960047;-;-;8.778824;0.16419983;-2.7694092;-;-;-;-;-;-;-;-;-;-;-;-;-;-;-
1514103960068;-;-;8.807556;0.17376709;-2.772995;-;-;-;-;-;-;-;-;-;-;-;-;-;-;-
1514103960088;-;-;8.818329;0.16059875;-2.7861633;-;-;-;-;-;-;-;-;-;-;-;-;-;-;-
1514103960109;-;-;8.848267;0.1797638;-2.816101;-;-;-;-;-;-;-;-;-;-;-;-;-;-;-
1514103960129;-;-;8.799179;0.17018127;-2.7909546;-;-;-;-;-;-;-;-;-;-;-;-;-;-;-
1514103960149;-;-;8.797989;0.18933105;-2.8113098;-;-;-;-;-;-;-;-;-;-;-;-;-;-;-
1514103960169;-;-;8.8003845;0.15222168;-2.816101;-;-;-;-;-;-;-;-;-;-;-;-;-;-;-
1514103960190;-;-;8.7812195;0.20010376;-2.8412323;-;-;-;-;-;-;-;-;-;-;-;-;-;-;-
1514103960210;-;-;8.736938;0.16539001;-2.800537;-;-;-;-;-;-;-;-;-;-;-;-;-;-;-
1514103960230;-;-;8.734543;0.12588501;-2.7933502;-;-;-;-;-;-;-;-;-;-;-;-;-;-;-
1514103960251;-;-;8.783615;0.12588501;-2.7849731;-;-;-;-;-;-;-;-;-;-;-;-;-;-;-
1514103960271;-;-;8.783615;0.14624023;-2.7622223;-;-;-;-;-;-;-;-;-;-;-;-;-;-;-
1514103960291;-;-;8.7812195;0.107925415;-2.804123;-;-;-;-;-;-;-;-;-;-;-;-;-;-;-
1514103960312;-;-;8.772842;0.110321045;-2.7993317;-;-;-;-;-;-;-;-;-;-;-;-;-;-;-
1514103960331;-;-;8.783615;0.11152649;-2.781372;-;-;-;-;-;-;-;-;-;-;-;-;-;-;-
1514103960352;-;-;8.7812195;0.14982605;-2.7873688;-;-;-;-;-;-;-;-;-;-;-;-;-;-;-
1514103960372;-;-;8.814743;0.16059875;-2.8017273;-;-;-;-;-;-;-;-;-;-;-;-;-;-;-
1514103960392;-;-;8.817139;0.15940857;-2.7789917;-;-;-;-;-;-;-;-;-;-;-;-;-;-;-
1514103960412;-;-;8.806366;0.16778564;-2.7598267;-;-;-;-;-;-;-;-;-;-;-;-;-;-;-
1514103960433;-;-;8.812347;0.1725769;-2.7694092;-;-;-;-;-;-;-;-;-;-;-;-;-;-;-
1514103960453;-;-;8.7656555;0.18095398;-2.761032;-;-;-;-;-;-;-;-;-;-;-;-;-;-;-
1514103960473;-;-;8.782425;0.14025879;-2.7310944;-;-;-;-;-;-;-;-;-;-;-;-;-;-;-
1514103960494;-;-;8.76207;0.08518982;-2.709549;-;-;-;-;-;-;-;-;-;-;-;-;-;-;-
1514103960514;-;-;8.784821;0.15461731;-2.709549;-;-;-;-;-;-;-;-;-;-;-;-;-;-;-
1514103960534;-;-;8.783615;0.16539001;-2.768219;-;-;-;-;-;-;-;-;-;-;-;-;-;-;-
1514103960555;-;-;8.7812195;0.17736816;-2.7897644;-;-;-;-;-;-;-;-;-;-;-;-;-;-;-
1514103960575;-;-;8.789597;0.16897583;-2.804123;-;-;-;-;-;-;-;-;-;-;-;-;-;-;-
1514103960595;-;-;8.819534;0.14144897;-2.7478638;-;-;-;-;-;-;-;-;-;-;-;-;-;-;-
1514103960616;-;-;8.793198;0.16299438;-2.781372;-;-;-;-;-;-;-;-;-;-;-;-;-;-;-
1514103960636;-;-;8.764465;0.17018127;-2.781372;-;-;-;-;-;-;-;-;-;-;-;-;-;-;-
1514103960657;-;-;8.748901;0.14624023;-2.819687;-;-;-;-;-;-;-;-;-;-;-;-;-;-;-
1514103960677;-;-;8.812347;0.13665771;-2.79216;-;-;-;-;-;-;-;-;-;-;-;-;-;-;-
1514103960697;-;-;8.807556;0.13067627;-2.7753906;-;-;-;-;-;-;-;-;-;-;-;-;-;-;-
1514103960717;-;-;8.806366;0.16539001;-2.776596;-;-;-;-;-;-;-;-;-;-;-;-;-;-;-
1514103960736;-;-;8.788406;0.16059875;-2.8077087;-;-;-;-;-;-;-;-;-;-;-;-;-;-;-
1514103960757;-;-;8.783615;0.18814087;-2.7753906;-;-;-;-;-;-;-;-;-;-;-;-;-;-;-
1514103960777;-;-;8.790802;0.22164917;-2.7634277;-;-;-;-;-;-;-;-;-;-;-;-;-;-;-
1514103960797;-;-;8.815933;0.1953125;-2.788559;-;-;-;-;-;-;-;-;-;-;-;-;-;-;-
1514103960818;-;-;8.8051605;0.14743042;-2.752655;-;-;-;-;-;-;-;-;-;-;-;-;-;-;-
1514103960838;-;-;8.813553;0.16539001;-2.7981415;-;-;-;-;-;-;-;-;-;-;-;-;-;-;-
1514103960858;-;-;8.739319;0.1797638;-2.8424377;-;-;-;-;-;-;-;-;-;-;-;-;-;-;-
1514103960879;-;-;8.772842;0.1953125;-2.7562408;-;-;-;-;-;-;-;-;-;-;-;-;-;-;-
1514103960899;-;-;8.791992;0.1510315;-2.804123;-;-;-;-;-;-;-;-;-;-;-;-;-;-;-
1514103960919;-;-;8.7764435;0.1905365;-2.8089142;-;-;-;-;-;-;-;-;-;-;-;-;-;-;-
1514103960939;-;-;8.780029;0.20249939;-2.8137054;-;-;-;-;-;-;-;-;-;-;-;-;-;-;-
1514103960960;-;-;8.771652;0.21806335;-2.8244781;-;-;-;-;-;-;-;-;-;-;-;-;-;-;-
1514103960980;-;-;8.807556;0.19293213;-2.7718048;-;-;-;-;-;-;-;-;-;-;-;-;-;-;-
1514103961000;-;-;8.754883;0.1845398;-2.8352509;-;-;-;-;-;-;-;-;-;-;-;-;-;-;-
1514103961020;-;-;8.74411;0.18814087;-2.7742004;-;-;-;-;-;-;-;-;-;-;-;-;-;-;-
1514103961041;-;-;8.794388;0.15940857;-2.7694092;-;-;-;-;-;-;-;-;-;-;-;-;-;-;-
1514103961061;-;-;8.817139;0.124694824;-2.8388367;-;-;-;-;-;-;-;-;-;-;-;-;-;-;-
1514103961081;-;-;8.795593;0.110321045;-2.8352509;-;-;-;-;-;-;-;-;-;-;-;-;-;-;-
1514103961101;-;-;8.791992;0.14025879;-2.831665;-;-;-;-;-;-;-;-;-;-;-;-;-;-;-
1514103961122;-;-;8.740524;0.10673523;-2.7777863;-;-;-;-;-;-;-;-;-;-;-;-;-;-;-
1514103961142;-;-;8.784821;0.095962524;-2.8148956;-;-;-;-;-;-;-;-;-;-;-;-;-;-;-
1514103961162;-;-;8.7608795;0.098358154;-2.780182;-;-;-;-;-;-;-;-;-;-;-;-;-;-;-
1514103961182;-;-;8.790802;0.100753784;-2.816101;-;-;-;-;-;-;-;-;-;-;-;-;-;-;-
1514103961203;-;-;8.784821;0.10913086;-2.7670135;-;-;-;-;-;-;-;-;-;-;-;-;-;-;-
1514103961222;-;-;8.769257;0.110321045;-2.7634277;-;-;-;-;-;-;-;-;-;-;-;-;-;-;-
1514103961242;-;-;8.778824;0.16897583;-2.796936;-;-;-;-;-;-;-;-;-;-;-;-;-;-;-
1514103961263;-;-;8.746506;0.15222168;-2.8460236;-;-;-;-;-;-;-;-;-;-;-;-;-;-;-
1514103961283;-;-;8.756088;0.15342712;-2.8292694;-;-;-;-;-;-;-;-;-;-;-;-;-;-;-
1514103961303;-;-;8.770447;0.15222168;-2.8460236;-;-;-;-;-;-;-;-;-;-;-;-;-;-;-
1514103961324;-;-;8.771652;0.117507935;-2.7957458;-;-;-;-;-;-;-;-;-;-;-;-;-;-;-
1514103961344;-;-;8.76207;0.1043396;-2.800537;-;-;-;-;-;-;-;-;-;-;-;-;-;-;-
1514103961364;-;-;8.783615;0.14503479;-2.79216;-;-;-;-;-;-;-;-;-;-;-;-;-;-;-
1514103961384;-;-;8.748901;0.1797638;-2.796936;-;-;-;-;-;-;-;-;-;-;-;-;-;-;-
1514103961405;-;-;8.763275;0.20848083;-2.8544006;-;-;-;-;-;-;-;-;-;-;-;-;-;-;-
1514103961425;-;-;8.758484;0.19412231;-2.8077087;-;-;-;-;-;-;-;-;-;-;-;-;-;-;-
1514103961445;-;-;8.795593;0.15342712;-2.8268738;-;-;-;-;-;-;-;-;-;-;-;-;-;-;-
1514103961466;-;-;8.796783;0.19891357;-2.8065186;-;-;-;-;-;-;-;-;-;-;-;-;-;-;-
1514103961486;-;-;8.787216;0.17736816;-2.8113098;-;-;-;-;-;-;-;-;-;-;-;-;-;-;-
1514103961506;-;-;8.787216;0.19651794;-2.7837677;-;-;-;-;-;-;-;-;-;-;-;-;-;-;-
1514103961526;-;-;8.789597;0.1953125;-2.8484192;-;-;-;-;-;-;-;-;-;-;-;-;-;-;-
1514103961547;-;-;8.789597;0.17736816;-2.8376465;-;-;-;-;-;-;-;-;-;-;-;-;-;-;-
1514103961566;-;-;8.7764435;0.17376709;-2.828064;-;-;-;-;-;-;-;-;-;-;-;-;-;-;-
1514103961586;-;-;8.775238;0.14863586;-2.8340454;-;-;-;-;-;-;-;-;-;-;-;-;-;-;-
1514103961606;-;-;8.796783;0.20370483;-2.788559;-;-;-;-;-;-;-;-;-;-;-;-;-;-;-
1514103961626;-;-;8.757278;0.23123169;-2.8125;-;-;-;-;-;-;-;-;-;-;-;-;-;-;-
1514103961647;-;-;8.799179;0.21208191;-2.7981415;-;-;-;-;-;-;-;-;-;-;-;-;-;-;-
1514103961666;-;-;8.831497;0.1905365;-2.8472137;-;-;-;-;-;-;-;-;-;-;-;-;-;-;-
1514103961687;-;-;8.799179;0.18334961;-2.8424377;-;-;-;-;-;-;-;-;-;-;-;-;-;-;-
1514103961708;-;-;8.769257;0.18814087;-2.8017273;-;-;-;-;-;-;-;-;-;-;-;-;-;-;-
1514103961728;-;-;8.751297;0.18214417;-2.8137054;-;-;-;-;-;-;-;-;-;-;-;-;-;-;-
1514103961748;-;-;8.7764435;0.093566895;-2.7861633;-;-;-;-;-;-;-;-;-;-;-;-;-;-;-
1514103961768;-;-;8.771652;0.11631775;-2.8220825;-;-;-;-;-;-;-;-;-;-;-;-;-;-;-
1514103961788;-;-;8.7608795;0.18574524;-2.8268738;-;-;-;-;-;-;-;-;-;-;-;-;-;-;-
1514103961809;-;-;8.777634;0.21087646;-2.8328552;-;-;-;-;-;-;-;-;-;-;-;-;-;-;-
1514103961829;-;-;8.819534;0.2515869;-2.8903198;-;-;-;-;-;-;-;-;-;-;-;-;-;-;-
1514103961849;-;-;8.82193;0.21447754;-2.8328552;-;-;-;-;-;-;-;-;-;-;-;-;-;-;-
1514103961869;-;-;8.790802;0.21208191;-2.828064;-;-;-;-;-;-;-;-;-;-;-;-;-;-;-
1514103961890;-;-;8.766861;0.22164917;-2.8184967;-;-;-;-;-;-;-;-;-;-;-;-;-;-;-
1514103961910;-;-;8.7608795;0.22285461;-2.820877;-;-;-;-;-;-;-;-;-;-;-;-;-;-;-
1514103961930;-;-;8.750107;0.22164917;-2.8460236;-;-;-;-;-;-;-;-;-;-;-;-;-;-;-
1514103961950;-;-;8.780029;0.18933105;-2.8328552;-;-;-;-;-;-;-;-;-;-;-;-;-;-;-
1514103961971;-;-;8.774048;0.15222168;-2.840042;-;-;-;-;-;-;-;-;-;-;-;-;-;-;-
1514103961990;-;-;8.789597;0.16059875;-2.8340454;-;-;-;-;-;-;-;-;-;-;-;-;-;-;-
1514103962010;-;-;8.750107;0.1558075;-2.8077087;-;-;-;-;-;-;-;-;-;-;-;-;-;-;-
1514103962030;-;-;8.751297;0.18693542;-2.8544006;-;-;-;-;-;-;-;-;-;-;-;-;-;-;-
1514103962051;-;-;8.7417145;0.1438446;-2.8639832;-;-;-;-;-;-;-;-;-;-;-;-;-;-;-
1514103962070;-;-;8.764465;0.13786316;-2.8340454;-;-;-;-;-;-;-;-;-;-;-;-;-;-;-
1514103962090;-;-;8.778824;0.12109375;-2.8125;-;-;-;-;-;-;-;-;-;-;-;-;-;-;-
1514103962111;-;-;8.7417145;0.17018127;-2.8077087;-;-;-;-;-;-;-;-;-;-;-;-;-;-;-
1514103962130;-;-;8.763275;0.14624023;-2.8424377;-;-;-;-;-;-;-;-;-;-;-;-;-;-;-
1514103962150;-;-;8.74411;0.16659546;-2.8448334;-;-;-;-;-;-;-;-;-;-;-;-;-;-;-
1514103962170;-;-;8.7608795;0.18334961;-2.8532104;-;-;-;-;-;-;-;-;-;-;-;-;-;-;-
1514103962191;-;-;8.784821;0.18574524;-2.8496094;-;-;-;-;-;-;-;-;-;-;-;-;-;-;-
1514103962211;-;-;8.789597;0.1725769;-2.8639832;-;-;-;-;-;-;-;-;-;-;-;-;-;-;-
1514103962231;-;-;8.826721;0.13665771;-2.8304596;-;-;-;-;-;-;-;-;-;-;-;-;-;-;-
1514103962252;-;-;8.797989;0.13426208;-2.8496094;-;-;-;-;-;-;-;-;-;-;-;-;-;-;-
1514103962272;-;-;8.76207;0.117507935;-2.8029327;-;-;-;-;-;-;-;-;-;-;-;-;-;-;-
1514103962292;-;-;8.769257;0.15820313;-2.8424377;-;-;-;-;-;-;-;-;-;-;-;-;-;-;-
1514103962313;-;-;8.775238;0.12588501;-2.8053284;-;-;-;-;-;-;-;-;-;-;-;-;-;-;-
1514103962333;-;-;8.806366;0.124694824;-2.8244781;-;-;-;-;-;-;-;-;-;-;-;-;-;-;-
1514103962353;-;-;8.770447;0.09954834;-2.8687744;-;-;-;-;-;-;-;-;-;-;-;-;-;-;-
1514103962373;-;-;8.768051;0.103149414;-2.840042;-;-;-;-;-;-;-;-;-;-;-;-;-;-;-
1514103962394;-;-;8.771652;0.095962524;-2.7897644;-;-;-;-;-;-;-;-;-;-;-;-;-;-;-
1514103962414;-;-;8.780029;0.12828064;-2.8172913;-;-;-;-;-;-;-;-;-;-;-;-;-;-;-
1514103962434;-;-;8.750107;0.20249939;-2.8843231;-;-;-;-;-;-;-;-;-;-;-;-;-;-;-
1514103962455;-;-;8.786011;0.20610046;-2.9178467;-;-;-;-;-;-;-;-;-;-;-;-;-;-;-
1514103962475;-;-;8.801575;0.14624023;-2.8927155;-;-;-;-;-;-;-;-;-;-;-;-;-;-;-
1514103962495;-;-;8.778824;0.14263916;-2.8065186;-;-;-;-;-;-;-;-;-;-;-;-;-;-;-
1514103962515;-;-;8.764465;0.16659546;-2.8388367;-;-;-;-;-;-;-;-;-;-;-;-;-;-;-
1514103962536;-;-;8.771652;0.12348938;-2.8627777;-;-;-;-;-;-;-;-;-;-;-;-;-;-;-
1514103962556;-;-;8.806366;0.119903564;-2.8340454;-;-;-;-;-;-;-;-;-;-;-;-;-;-;-
1514103962576;-;-;8.788406;0.1618042;-2.7789917;-;-;-;-;-;-;-;-;-;-;-;-;-;-;-
1514103962597;-;-;8.835098;0.124694824;-2.7658234;-;-;-;-;-;-;-;-;-;-;-;-;-;-;-
1514103962617;-;-;8.824326;0.14863586;-2.8101044;-;-;-;-;-;-;-;-;-;-;-;-;-;-;-
1514103962638;-;-;8.854248;0.14503479;-2.8735504;-;-;-;-;-;-;-;-;-;-;-;-;-;-;-
1514103962658;-;-;8.809952;0.095962524;-2.8232727;-;-;-;-;-;-;-;-;-;-;-;-;-;-;-
1514103962678;-;-;8.835098;0.06842041;-2.737091;-;-;-;-;-;-;-;-;-;-;-;-;-;-;-
1514103962699;-;-;8.784821;0.05645752;-2.7346954;-;-;-;-;-;-;-;-;-;-;-;-;-;-;-
1514103962719;-;-;8.729752;0.03491211;-2.7502594;-;-;-;-;-;-;-;-;-;-;-;-;-;-;-
1514103962739;-;-;8.747711;0.048080444;-2.7586365;-;-;-;-;-;-;-;-;-;-;-;-;-;-;-
1514103962759;-;-;8.763275;0.11152649;-2.7933502;-;-;-;-;-;-;-;-;-;-;-;-;-;-;-
1514103962780;-;-;8.775238;0.13786316;-2.781372;-;-;-;-;-;-;-;-;-;-;-;-;-;-;-
1514103962800;-;-;8.797989;0.14982605;-2.7933502;-;-;-;-;-;-;-;-;-;-;-;-;-;-;-
1514103962820;-;-;8.768051;0.18933105;-2.816101;-;-;-;-;-;-;-;-;-;-;-;-;-;-;-
1514103962840;-;-;8.797989;0.1510315;-2.8544006;-;-;-;-;-;-;-;-;-;-;-;-;-;-;-
1514103962861;-;-;8.770447;0.20729065;-2.828064;-;-;-;-;-;-;-;-;-;-;-;-;-;-;-
1514103962882;-;-;8.786011;0.1725769;-2.8053284;-;-;-;-;-;-;-;-;-;-;-;-;-;-;-
1514103962902;-;-;8.790802;0.18693542;-2.828064;-;-;-;-;-;-;-;-;-;-;-;-;-;-;-
1514103962922;-;-;8.786011;0.18814087;-2.7849731;-;-;-;-;-;-;-;-;-;-;-;-;-;-;-
1514103962943;-;-;8.8207245;0.18214417;-2.764618;-;-;-;-;-;-;-;-;-;-;-;-;-;-;-
1514103962963;-;-;8.833893;0.23602295;-2.7777863;-;-;-;-;-;-;-;-;-;-;-;-;-;-;-
1514103962983;-;-;8.83989;0.20610046;-2.7789917;-;-;-;-;-;-;-;-;-;-;-;-;-;-;-
1514103963003;-;-;8.82193;0.20729065;-2.7909546;-;-;-;-;-;-;-;-;-;-;-;-;-;-;-
1514103963024;-;-;8.778824;0.15461731;-2.7538452;-;-;-;-;-;-;-;-;-;-;-;-;-;-;-
1514103963045;-;-;8.7213745;0.12588501;-2.7718048;-;-;-;-;-;-;-;-;-;-;-;-;-;-;-
1514103963065;-;-;8.82312;0.103149414;-2.689209;-;-;-;-;-;-;-;-;-;-;-;-;-;-;-
1514103963085;-;-;8.7812195;0.12828064;-2.6628723;-;-;-;-;-;-;-;-;-;-;-;-;-;-;-
1514103963105;-;-;8.782425;0.14144897;-2.73349;-;-;-;-;-;-;-;-;-;-;-;-;-;-;-
1514103963126;-;-;8.784821;0.16059875;-2.7670135;-;-;-;-;-;-;-;-;-;-;-;-;-;-;-
1514103963146;-;-;8.772842;0.17018127;-2.7191315;-;-;-;-;-;-;-;-;-;-;-;-;-;-;-
1514103963166;-;-;8.786011;0.18574524;-2.7083588;-;-;-;-;-;-;-;-;-;-;-;-;-;-;-
1514103963187;-;-;8.809952;0.18214417;-2.768219;-;-;-;-;-;-;-;-;-;-;-;-;-;-;-
1514103963207;-;-;8.815933;0.15342712;-2.840042;-;-;-;-;-;-;-;-;-;-;-;-;-;-;-
1514103963227;-;-;8.806366;0.2013092;-2.7694092;-;-;-;-;-;-;-;-;-;-;-;-;-;-;-
1514103963247;-;-;8.812347;0.20010376;-2.8256683;-;-;-;-;-;-;-;-;-;-;-;-;-;-;-
1514103963267;-;-;8.82312;0.1618042;-2.7562408;-;-;-;-;-;-;-;-;-;-;-;-;-;-;-
1514103963288;-;-;8.735733;0.1905365;-2.831665;-;-;-;-;-;-;-;-;-;-;-;-;-;-;-
1514103963308;-;-;8.734543;0.18095398;-2.7837677;-;-;-;-;-;-;-;-;-;-;-;-;-;-;-
1514103963328;-;-;8.690247;0.19770813;-2.7418823;-;-;-;-;-;-;-;-;-;-;-;-;-;-;-
1514103963349;-;-;8.712982;0.1845398;-2.761032;-;-;-;-;-;-;-;-;-;-;-;-;-;-;-
1514103963369;-;-;8.714188;0.14263916;-2.7670135;-;-;-;-;-;-;-;-;-;-;-;-;-;-;-
1514103963389;-;-;8.74411;0.15222168;-2.7670135;-;-;-;-;-;-;-;-;-;-;-;-;-;-;-
1514103963410;-;-;8.770447;0.13186646;-2.757431;-;-;-;-;-;-;-;-;-;-;-;-;-;-;-
1514103963429;-;-;8.763275;0.12348938;-2.780182;-;-;-;-;-;-;-;-;-;-;-;-;-;-;-
1514103963449;-;-;8.738129;0.15701294;-2.7993317;-;-;-;-;-;-;-;-;-;-;-;-;-;-;-
1514103963469;-;-;8.735733;0.21087646;-2.7909546;-;-;-;-;-;-;-;-;-;-;-;-;-;-;-
1514103963489;-;-;8.740524;0.17018127;-2.7945404;-;-;-;-;-;-;-;-;-;-;-;-;-;-;-
1514103963509;-;-;8.74292;0.16659546;-2.79216;-;-;-;-;-;-;-;-;-;-;-;-;-;-;-
1514103963529;-;-;8.794388;0.16539001;-2.7993317;-;-;-;-;-;-;-;-;-;-;-;-;-;-;-
1514103963549;-;-;8.801575;0.14025879;-2.788559;-;-;-;-;-;-;-;-;-;-;-;-;-;-;-
1514103963570;-;-;8.766861;0.15701294;-2.71315;-;-;-;-;-;-;-;-;-;-;-;-;-;-;-
1514103963590;-;-;8.7812195;0.14743042;-2.725113;-;-;-;-;-;-;-;-;-;-;-;-;-;-;-
1514103963610;-;-;8.784821;0.18214417;-2.7538452;-;-;-;-;-;-;-;-;-;-;-;-;-;-;-
1514103963631;-;-;8.80397;0.20370483;-2.7849731;-;-;-;-;-;-;-;-;-;-;-;-;-;-;-
1514103963651;-;-;8.787216;0.17376709;-2.7598267;-;-;-;-;-;-;-;-;-;-;-;-;-;-;-
1514103963672;-;-;8.8051605;0.16419983;-2.7849731;-;-;-;-;-;-;-;-;-;-;-;-;-;-;-
1514103963692;-;-;8.796783;0.13786316;-2.8484192;-;-;-;-;-;-;-;-;-;-;-;-;-;-;-
1514103963712;-;-;8.790802;0.12828064;-2.757431;-;-;-;-;-;-;-;-;-;-;-;-;-;-;-
1514103963732;-;-;8.788406;0.18334961;-2.7789917;-;-;-;-;-;-;-;-;-;-;-;-;-;-;-
1514103963752;-;-;8.7812195;0.21087646;-2.859192;-;-;-;-;-;-;-;-;-;-;-;-;-;-;-
1514103963773;-;-;8.813553;0.18933105;-2.898697;-;-;-;-;-;-;-;-;-;-;-;-;-;-;-
1514103963792;-;-;8.794388;0.1725769;-2.7622223;-;-;-;-;-;-;-;-;-;-;-;-;-;-;-
1514103963812;-;-;8.790802;0.16059875;-2.772995;-;-;-;-;-;-;-;-;-;-;-;-;-;-;-
1514103963833;-;-;8.790802;0.17497253;-2.788559;-;-;-;-;-;-;-;-;-;-;-;-;-;-;-
1514103963852;-;-;8.769257;0.16778564;-2.8113098;-;-;-;-;-;-;-;-;-;-;-;-;-;-;-
1514103963872;-;-;8.829102;0.16059875;-2.781372;-;-;-;-;-;-;-;-;-;-;-;-;-;-;-
1514103963893;-;-;8.814743;0.16299438;-2.831665;-;-;-;-;-;-;-;-;-;-;-;-;-;-;-
1514103963913;-;-;8.80397;0.14624023;-2.7849731;-;-;-;-;-;-;-;-;-;-;-;-;-;-;-
1514103963933;-;-;8.769257;0.15820313;-2.7861633;-;-;-;-;-;-;-;-;-;-;-;-;-;-;-
1514103963953;-;-;8.750107;0.18814087;-2.752655;-;-;-;-;-;-;-;-;-;-;-;-;-;-;-
1514103963974;-;-;8.7608795;0.15701294;-2.7562408;-;-;-;-;-;-;-;-;-;-;-;-;-;-;-
1514103963994;-;-;8.813553;0.112716675;-2.7753906;-;-;-;-;-;-;-;-;-;-;-;-;-;-;-
1514103964014;-;-;8.7764435;0.14025879;-2.7957458;-;-;-;-;-;-;-;-;-;-;-;-;-;-;-
1514103964034;-;-;8.793198;0.14863586;-2.7837677;-;-;-;-;-;-;-;-;-;-;-;-;-;-;-
1514103964055;-;-;8.793198;0.19412231;-2.8340454;-;-;-;-;-;-;-;-;-;-;-;-;-;-;-
1514103964075;-;-;8.797989;0.19891357;-2.79216;-;-;-;-;-;-;-;-;-;-;-;-;-;-;-
1514103964095;-;-;8.809952;0.18574524;-2.781372;-;-;-;-;-;-;-;-;-;-;-;-;-;-;-
1514103964116;-;-;8.811157;0.16539001;-2.831665;-;-;-;-;-;-;-;-;-;-;-;-;-;-;-
1514103964135;-;-;8.8051605;0.2132721;-2.816101;-;-;-;-;-;-;-;-;-;-;-;-;-;-;-
1514103964155;-;-;8.782425;0.17018127;-2.796936;-;-;-;-;-;-;-;-;-;-;-;-;-;-;-
1514103964175;-;-;8.784821;0.20249939;-2.796936;-;-;-;-;-;-;-;-;-;-;-;-;-;-;-
1514103964195;-;-;8.771652;0.19651794;-2.7718048;-;-;-;-;-;-;-;-;-;-;-;-;-;-;-
1514103964216;-;-;8.771652;0.19651794;-2.820877;-;-;-;-;-;-;-;-;-;-;-;-;-;-;-
1514103964236;-;-;8.757278;0.1953125;-2.7981415;-;-;-;-;-;-;-;-;-;-;-;-;-;-;-
1514103964256;-;-;8.777634;0.20610046;-2.7167358;-;-;-;-;-;-;-;-;-;-;-;-;-;-;-
1514103964276;-;-;8.830307;0.1845398;-2.752655;-;-;-;-;-;-;-;-;-;-;-;-;-;-;-
1514103964297;-;-;8.797989;0.18814087;-2.8184967;-;-;-;-;-;-;-;-;-;-;-;-;-;-;-
1514103964317;-;-;8.784821;0.19770813;-2.7945404;-;-;-;-;-;-;-;-;-;-;-;-;-;-;-
1514103964337;-;-;8.759674;0.19651794;-2.776596;-;-;-;-;-;-;-;-;-;-;-;-;-;-;-
1514103964358;-;-;8.7417145;0.18334961;-2.7418823;-;-;-;-;-;-;-;-;-;-;-;-;-;-;-
1514103964378;-;-;8.782425;0.18095398;-2.781372;-;-;-;-;-;-;-;-;-;-;-;-;-;-;-
1514103964398;-;-;8.772842;0.18574524;-2.8053284;-;-;-;-;-;-;-;-;-;-;-;-;-;-;-
1514103964419;-;-;8.795593;0.17376709;-2.8148956;-;-;-;-;-;-;-;-;-;-;-;-;-;-;-
1514103964439;-;-;8.82312;0.18095398;-2.7789917;-;-;-;-;-;-;-;-;-;-;-;-;-;-;-
1514103964459;-;-;8.783615;0.2240448;-2.8101044;-;-;-;-;-;-;-;-;-;-;-;-;-;-;-
1514103964479;-;-;8.797989;0.23123169;-2.7849731;-;-;-;-;-;-;-;-;-;-;-;-;-;-;-
1514103964500;-;-;8.790802;0.20249939;-2.7933502;-;-;-;-;-;-;-;-;-;-;-;-;-;-;-
1514103964520;-;-;8.775238;0.20370483;-2.8053284;-;-;-;-;-;-;-;-;-;-;-;-;-;-;-
1514103964540;-;-;8.759674;0.18095398;-2.8148956;-;-;-;-;-;-;-;-;-;-;-;-;-;-;-
1514103964561;-;-;8.772842;0.23721313;-2.7993317;-;-;-;-;-;-;-;-;-;-;-;-;-;-;-
1514103964581;-;-;8.738129;0.23841858;-2.8184967;-;-;-;-;-;-;-;-;-;-;-;-;-;-;-
1514103964601;-;-;8.769257;0.25038147;-2.7981415;-;-;-;-;-;-;-;-;-;-;-;-;-;-;-
1514103964621;-;-;8.775238;0.2132721;-2.8137054;-;-;-;-;-;-;-;-;-;-;-;-;-;-;-
1514103964642;-;-;8.786011;0.23841858;-2.828064;-;-;-;-;-;-;-;-;-;-;-;-;-;-;-
1514103964662;-;-;8.794388;0.25637817;-2.8184967;-;-;-;-;-;-;-;-;-;-;-;-;-;-;-
1514103964682;-;-;8.794388;0.24081421;-2.836441;-;-;-;-;-;-;-;-;-;-;-;-;-;-;-
1514103964702;-;-;8.784821;0.2515869;-2.8077087;-;-;-;-;-;-;-;-;-;-;-;-;-;-;-
1514103964723;-;-;8.705811;0.25756836;-2.8663788;-;-;-;-;-;-;-;-;-;-;-;-;-;-;-
1514103964743;-;-;8.739319;0.27671814;-2.8256683;-;-;-;-;-;-;-;-;-;-;-;-;-;-;-
1514103964763;-;-;8.751297;0.26715088;-2.820877;-;-;-;-;-;-;-;-;-;-;-;-;-;-;-
1514103964783;-;-;8.771652;0.25517273;-2.7861633;-;-;-;-;-;-;-;-;-;-;-;-;-;-;-
1514103964804;-;-;8.774048;0.2635498;-2.8268738;-;-;-;-;-;-;-;-;-;-;-;-;-;-;-
1514103964824;-;-;8.783615;0.24919128;-2.843628;-;-;-;-;-;-;-;-;-;-;-;-;-;-;-
1514103964844;-;-;8.787216;0.2240448;-2.7993317;-;-;-;-;-;-;-;-;-;-;-;-;-;-;-
1514103964865;-;-;8.757278;0.26115417;-2.860382;-;-;-;-;-;-;-;-;-;-;-;-;-;-;-
1514103964885;-;-;8.746506;0.2515869;-2.836441;-;-;-;-;-;-;-;-;-;-;-;-;-;-;-
1514103964905;-;-;8.795593;0.23960876;-2.8711548;-;-;-;-;-;-;-;-;-;-;-;-;-;-;-
1514103964926;-;-;8.782425;0.18814087;-2.8089142;-;-;-;-;-;-;-;-;-;-;-;-;-;-;-
1514103964946;-;-;8.766861;0.22164917;-2.8352509;-;-;-;-;-;-;-;-;-;-;-;-;-;-;-
1514103964966;-;-;8.772842;0.20249939;-2.7837677;-;-;-;-;-;-;-;-;-;-;-;-;-;-;-
1514103964986;-;-;8.772842;0.22883606;-2.819687;-;-;-;-;-;-;-;-;-;-;-;-;-;-;-
1514103965007;-;-;8.768051;0.25398254;-2.8496094;-;-;-;-;-;-;-;-;-;-;-;-;-;-;-
1514103965027;-;-;8.809952;0.21566772;-2.840042;-;-;-;-;-;-;-;-;-;-;-;-;-;-;-
1514103965047;-;-;8.848267;0.18095398;-2.8615875;-;-;-;-;-;-;-;-;-;-;-;-;-;-;-
1514103965068;-;-;8.814743;0.16897583;-2.8448334;-;-;-;-;-;-;-;-;-;-;-;-;-;-;-
1514103965088;-;-;8.8003845;0.16778564;-2.8496094;-;-;-;-;-;-;-;-;-;-;-;-;-;-;-
1514103965108;-;-;8.799179;0.18214417;-2.8532104;-;-;-;-;-;-;-;-;-;-;-;-;-;-;-
1514103965129;-;-;8.7812195;0.17497253;-2.8579865;-;-;-;-;-;-;-;-;-;-;-;-;-;-;-
1514103965149;-;-;8.757278;0.20370483;-2.8232727;-;-;-;-;-;-;-;-;-;-;-;-;-;-;-
1514103965169;-;-;8.74292;0.17616272;-2.8125;-;-;-;-;-;-;-;-;-;-;-;-;-;-;-
1514103965189;-;-;8.774048;0.19172668;-2.7945404;-;-;-;-;-;-;-;-;-;-;-;-;-;-;-
1514103965210;-;-;8.7812195;0.1797638;-2.8304596;-;-;-;-;-;-;-;-;-;-;-;-;-;-;-
1514103965230;-;-;8.764465;0.22285461;-2.8352509;-;-;-;-;-;-;-;-;-;-;-;-;-;-;-
1514103965250;-;-;8.7608795;0.2515869;-2.8723602;-;-;-;-;-;-;-;-;-;-;-;-;-;-;-
1514103965271;-;-;8.735733;0.2707367;-2.852005;-;-;-;-;-;-;-;-;-;-;-;-;-;-;-
1514103965291;-;-;8.712982;0.20729065;-2.9597473;-;-;-;-;-;-;-;-;-;-;-;-;-;-;-
1514103965312;-;-;8.708206;0.20010376;-2.9633331;-;-;-;-;-;-;-;-;-;-;-;-;-;-;-
1514103965332;-;-;8.732147;0.20010376;-2.8903198;-;-;-;-;-;-;-;-;-;-;-;-;-;-;-
1514103965352;-;-;8.690247;0.21687317;-2.934616;-;-;-;-;-;-;-;-;-;-;-;-;-;-;-
1514103965372;-;-;8.653137;0.19770813;-2.8579865;-;-;-;-;-;-;-;-;-;-;-;-;-;-;-
1514103965393;-;-;8.689041;0.15342712;-2.9034882;-;-;-;-;-;-;-;-;-;-;-;-;-;-;-
1514103965413;-;-;8.710602;0.091171265;-2.978897;-;-;-;-;-;-;-;-;-;-;-;-;-;-;-
1514103965434;-;-;8.613632;0.031311035;-2.9896698;-;-;-;-;-;-;-;-;-;-;-;-;-;-;-
1514103965453;-;-;8.529831;-0.040512085;-2.931015;-;-;-;-;-;-;-;-;-;-;-;-;-;-;-
1514103965473;-;-;8.526245;-0.042907715;-2.8687744;-;-;-;-;-;-;-;-;-;-;-;-;-;-;-
1514103965493;-;-;8.702209;-0.047698975;-3.0363617;-;-;-;-;-;-;-;-;-;-;-;-;-;-;-
1514103965513;-;-;8.965576;-0.15663147;-3.1656494;-;-;-;-;-;-;-;-;-;-;-;-;-;-;-
1514103965534;-;-;9.091278;-0.20690918;-3.0998077;-;-;-;-;-;-;-;-;-;-;-;-;-;-;-
1514103965554;-;-;9.064941;-0.14585876;-3.1608582;-;-;-;-;-;-;-;-;-;-;-;-;-;-;-
1514103965574;-;-;8.914108;-0.12310791;-3.175232;-;-;-;-;-;-;-;-;-;-;-;-;-;-;-
1514103965595;-;-;8.690247;-0.040512085;-3.1476898;-;-;-;-;-;-;-;-;-;-;-;-;-;-;-
1514103965615;-;-;8.533432;-0.083602905;-3.1668396;-;-;-;-;-;-;-;-;-;-;-;-;-;-;-
1514103965635;-;-;8.440048;-0.13269043;-3.1345215;-;-;-;-;-;-;-;-;-;-;-;-;-;-;-
1514103965656;-;-;8.667496;-0.15782166;-3.0447388;-;-;-;-;-;-;-;-;-;-;-;-;-;-;-
1514103965676;-;-;8.788406;-0.16859436;-3.0303802;-;-;-;-;-;-;-;-;-;-;-;-;-;-;-
1514103965696;-;-;8.878189;-0.22366333;-3.135727;-;-;-;-;-;-;-;-;-;-;-;-;-;-;-
1514103965716;-;-;8.869812;-0.2859192;-3.2422638;-;-;-;-;-;-;-;-;-;-;-;-;-;-;-
1514103965736;-;-;8.887772;-0.2799225;-3.3404236;-;-;-;-;-;-;-;-;-;-;-;-;-;-;-
1514103965757;-;-;8.924881;-0.01776123;-3.2937317;-;-;-;-;-;-;-;-;-;-;-;-;-;-;-
1514103965776;-;-;8.973953;0.30665588;-3.2494507;-;-;-;-;-;-;-;-;-;-;-;-;-;-;-
1514103965796;-;-;8.838684;0.6609955;-3.1716309;-;-;-;-;-;-;-;-;-;-;-;-;-;-;-
1514103965816;-;-;8.833893;0.9530792;-3.0674896;-;-;-;-;-;-;-;-;-;-;-;-;-;-;-
1514103965837;-;-;8.728546;1.3553162;-2.7562408;-;-;-;-;-;-;-;-;-;-;-;-;-;-;-
1514103965856;-;-;8.601654;1.571991;-2.6676483;-;-;-;-;-;-;-;-;-;-;-;-;-;-;-
1514103965876;-;-;8.3107605;1.2128601;-2.5108337;-;-;-;-;-;-;-;-;-;-;-;-;-;-;-
1514103965896;-;-;8.186264;-0.12550354;-2.9118652;-;-;-;-;-;-;-;-;-;-;-;-;-;-;-
1514103965917;-;-;8.624405;-0.9263611;-3.0603027;-;-;-;-;-;-;-;-;-;-;-;-;-;-;-
1514103965936;-;-;9.092468;-1.186142;-3.1548767;-;-;-;-;-;-;-;-;-;-;-;-;-;-;-
1514103965956;-;-;8.984726;-1.1849365;-3.2087402;-;-;-;-;-;-;-;-;-;-;-;-;-;-;-
1514103965976;-;-;8.709396;-1.0161438;-2.9453888;-;-;-;-;-;-;-;-;-;-;-;-;-;-;-
1514103965997;-;-;8.40892;-0.50738525;-3.2027588;-;-;-;-;-;-;-;-;-;-;-;-;-;-;-
1514103966017;-;-;8.382584;0.4514923;-3.484085;-;-;-;-;-;-;-;-;-;-;-;-;-;-;-
1514103966037;-;-;8.514267;1.3636932;-3.7270966;-;-;-;-;-;-;-;-;-;-;-;-;-;-;-
1514103966058;-;-;8.218582;1.492981;-3.317688;-;-;-;-;-;-;-;-;-;-;-;-;-;-;-
1514103966079;-;-;7.9037476;1.2535553;-2.9094696;-;-;-;-;-;-;-;-;-;-;-;-;-;-;-
1514103966098;-;-;7.9983215;1.0368805;-2.8687744;-;-;-;-;-;-;-;-;-;-;-;-;-;-;-
1514103966118;-;-;8.440048;0.87527466;-3.001648;-;-;-;-;-;-;-;-;-;-;-;-;-;-;-
1514103966139;-;-;8.393356;0.6645813;-2.9298248;-;-;-;-;-;-;-;-;-;-;-;-;-;-;-
1514103966159;-;-;8.284424;0.3904419;-2.8699646;-;-;-;-;-;-;-;-;-;-;-;-;-;-;-
1514103966180;-;-;8.2712555;0.07081604;-2.7310944;-;-;-;-;-;-;-;-;-;-;-;-;-;-;-
1514103966200;-;-;8.689041;-0.14346313;-2.6616669;-;-;-;-;-;-;-;-;-;-;-;-;-;-;-
1514103966220;-;-;9.213379;-0.1769867;-2.7155457;-;-;-;-;-;-;-;-;-;-;-;-;-;-;-
1514103966240;-;-;9.661087;-0.17098999;-2.8172913;-;-;-;-;-;-;-;-;-;-;-;-;-;-;-
1514103966260;-;-;10.021423;-0.3002777;-2.8496094;-;-;-;-;-;-;-;-;-;-;-;-;-;-;-
1514103966281;-;-;10.021423;-0.32901;-2.8903198;-;-;-;-;-;-;-;-;-;-;-;-;-;-;-
1514103966301;-;-;9.669479;-0.21409607;-2.8029327;-;-;-;-;-;-;-;-;-;-;-;-;-;-;-
1514103966321;-;-;9.081696;0.16778564;-2.7993317;-;-;-;-;-;-;-;-;-;-;-;-;-;-;-
1514103966341;-;-;8.60405;0.53170776;-2.8244781;-;-;-;-;-;-;-;-;-;-;-;-;-;-;-
1514103966362;-;-;8.374207;0.8022461;-2.860382;-;-;-;-;-;-;-;-;-;-;-;-;-;-;-
1514103966382;-;-;8.308365;0.7807007;-2.8711548;-;-;-;-;-;-;-;-;-;-;-;-;-;-;-
1514103966402;-;-;8.332306;0.5987396;-2.8711548;-;-;-;-;-;-;-;-;-;-;-;-;-;-;-
1514103966423;-;-;8.452026;0.24440002;-2.8843231;-;-;-;-;-;-;-;-;-;-;-;-;-;-;-
1514103966442;-;-;8.575317;0.112716675;-2.9765015;-;-;-;-;-;-;-;-;-;-;-;-;-;-;-
1514103966462;-;-;8.631592;0.14982605;-2.9956665;-;-;-;-;-;-;-;-;-;-;-;-;-;-;-
1514103966483;-;-;8.666306;0.35333252;-2.9561615;-;-;-;-;-;-;-;-;-;-;-;-;-;-;-
1514103966503;-;-;8.705811;0.48143005;-2.875946;-;-;-;-;-;-;-;-;-;-;-;-;-;-;-
1514103966523;-;-;8.797989;0.5783844;-2.898697;-;-;-;-;-;-;-;-;-;-;-;-;-;-;-
1514103966543;-;-;8.857834;0.5676117;-2.8963013;-;-;-;-;-;-;-;-;-;-;-;-;-;-;-
1514103966563;-;-;8.876999;0.5448761;-2.8472137;-;-;-;-;-;-;-;-;-;-;-;-;-;-;-
1514103966584;-;-;8.808762;0.47903442;-2.79216;-;-;-;-;-;-;-;-;-;-;-;-;-;-;-
1514103966604;-;-;8.74411;0.36531067;-2.721527;-;-;-;-;-;-;-;-;-;-;-;-;-;-;-
1514103966624;-;-;8.753693;0.2527771;-2.7358856;-;-;-;-;-;-;-;-;-;-;-;-;-;-;-
1514103966645;-;-;8.82312;0.23242188;-2.7705994;-;-;-;-;-;-;-;-;-;-;-;-;-;-;-
1514103966665;-;-;8.809952;0.2013092;-2.7933502;-;-;-;-;-;-;-;-;-;-;-;-;-;-;-
1514103966685;-;-;8.7812195;0.20848083;-2.7718048;-;-;-;-;-;-;-;-;-;-;-;-;-;-;-
1514103966705;-;-;8.722565;0.21806335;-2.7299042;-;-;-;-;-;-;-;-;-;-;-;-;-;-;-
1514103966726;-;-;8.653137;0.25517273;-2.531189;-;-;-;-;-;-;-;-;-;-;-;-;-;-;-
1514103966746;-;-;8.620819;0.32580566;-2.5718842;-;-;-;-;-;-;-;-;-;-;-;-;-;-;-
1514103966766;-;-;8.594482;0.5245209;-2.5575256;-;-;-;-;-;-;-;-;-;-;-;-;-;-;-
1514103966787;-;-;8.747711;0.64901733;-2.6197662;-;-;-;-;-;-;-;-;-;-;-;-;-;-;-
1514103966806;-;-;8.916504;0.7447815;-2.7035675;-;-;-;-;-;-;-;-;-;-;-;-;-;-;-
1514103966826;-;-;9.084091;0.7016907;-2.725113;-;-;-;-;-;-;-;-;-;-;-;-;-;-;-
1514103966847;-;-;9.009872;0.46705627;-2.6724396;-;-;-;-;-;-;-;-;-;-;-;-;-;-;-
1514103966867;-;-;8.82312;0.27313232;-2.5587158;-;-;-;-;-;-;-;-;-;-;-;-;-;-;-
1514103966887;-;-;8.703415;0.24798584;-2.63414;-;-;-;-;-;-;-;-;-;-;-;-;-;-;-
1514103966908;-;-;8.708206;0.417984;-2.9106598;-;-;-;-;-;-;-;-;-;-;-;-;-;-;-
1514103966928;-;-;8.673492;0.5352936;-3.065094;-;-;-;-;-;-;-;-;-;-;-;-;-;-;-
1514103966949;-;-;8.867416;0.45509338;-2.7789917;-;-;-;-;-;-;-;-;-;-;-;-;-;-;-
1514103966969;-;-;8.893753;0.27792358;-2.4821014;-;-;-;-;-;-;-;-;-;-;-;-;-;-;-
1514103966989;-;-;8.672287;0.2815094;-2.522812;-;-;-;-;-;-;-;-;-;-;-;-;-;-;-
1514103967009;-;-;8.517868;0.4371338;-2.586258;-;-;-;-;-;-;-;-;-;-;-;-;-;-;-
1514103967030;-;-;8.542999;0.5077667;-2.5048523;-;-;-;-;-;-;-;-;-;-;-;-;-;-;-
1514103967050;-;-;8.611237;0.48860168;-2.539566;-;-;-;-;-;-;-;-;-;-;-;-;-;-;-
1514103967070;-;-;8.797989;0.48382568;-2.6221619;-;-;-;-;-;-;-;-;-;-;-;-;-;-;-
1514103967091;-;-;8.869812;0.47782898;-2.6484985;-;-;-;-;-;-;-;-;-;-;-;-;-;-;-
1514103967111;-;-;8.98114;0.536499;-2.6796265;-;-;-;-;-;-;-;-;-;-;-;-;-;-;-
1514103967131;-;-;9.0793;0.67655945;-2.717926;-;-;-;-;-;-;-;-;-;-;-;-;-;-;-
1514103967152;-;-;9.084091;0.70648193;-2.7322998;-;-;-;-;-;-;-;-;-;-;-;-;-;-;-
1514103967172;-;-;8.953613;0.67655945;-2.6987762;-;-;-;-;-;-;-;-;-;-;-;-;-;-;-
1514103967192;-;-;8.82193;0.541275;-2.6844177;-;-;-;-;-;-;-;-;-;-;-;-;-;-;-
1514103967212;-;-;8.825516;0.41677856;-2.5958252;-;-;-;-;-;-;-;-;-;-;-;-;-;-;-
1514103967233;-;-;8.728546;0.29826355;-2.483307;-;-;-;-;-;-;-;-;-;-;-;-;-;-;-
1514103967253;-;-;8.684265;0.30186462;-2.4509735;-;-;-;-;-;-;-;-;-;-;-;-;-;-;-
1514103967274;-;-;8.738129;0.36291504;-2.4390106;-;-;-;-;-;-;-;-;-;-;-;-;-;-;-
1514103967295;-;-;8.832703;0.3892517;-2.491684;-;-;-;-;-;-;-;-;-;-;-;-;-;-;-
1514103967315;-;-;8.84108;0.49578857;-2.5407562;-;-;-;-;-;-;-;-;-;-;-;-;-;-;-
1514103967335;-;-;8.844666;0.5197296;-2.594635;-;-;-;-;-;-;-;-;-;-;-;-;-;-;-
1514103967356;-;-;8.850662;0.59994507;-2.7191315;-;-;-;-;-;-;-;-;-;-;-;-;-;-;-
1514103967377;-;-;8.856644;0.6322632;-2.7035675;-;-;-;-;-;-;-;-;-;-;-;-;-;-;-
1514103967397;-;-;8.814743;0.5700073;-2.6245575;-;-;-;-;-;-;-;-;-;-;-;-;-;-;-
1514103967417;-;-;8.8003845;0.38087463;-2.5096436;-;-;-;-;-;-;-;-;-;-;-;-;-;-;-
1514103967438;-;-;8.829102;0.37010193;-2.4186554;-;-;-;-;-;-;-;-;-;-;-;-;-;-;-
1514103967458;-;-;8.830307;0.4802246;-2.3839417;-;-;-;-;-;-;-;-;-;-;-;-;-;-;-
1514103967478;-;-;8.893753;0.5305023;-2.428238;-;-;-;-;-;-;-;-;-;-;-;-;-;-;-
1514103967498;-;-;8.936844;0.49220276;-2.524002;-;-;-;-;-;-;-;-;-;-;-;-;-;-;-
1514103967519;-;-;8.954803;0.30545044;-2.562317;-;-;-;-;-;-;-;-;-;-;-;-;-;-;-
1514103967538;-;-;8.96199;0.14503479;-2.5646973;-;-;-;-;-;-;-;-;-;-;-;-;-;-;-
1514103967558;-;-;8.905716;0.13186646;-2.531189;-;-;-;-;-;-;-;-;-;-;-;-;-;-;-
1514103967579;-;-;8.874603;0.23602295;-2.4438019;-;-;-;-;-;-;-;-;-;-;-;-;-;-;-
1514103967598;-;-;8.74292;0.45628357;-2.4414063;-;-;-;-;-;-;-;-;-;-;-;-;-;-;-
1514103967618;-;-;8.7608795;0.4514923;-2.3552094;-;-;-;-;-;-;-;-;-;-;-;-;-;-;-
1514103967638;-;-;8.734543;0.3425598;-2.429428;-;-;-;-;-;-;-;-;-;-;-;-;-;-;-
1514103967659;-;-;8.813553;0.18574524;-2.7430725;-;-;-;-;-;-;-;-;-;-;-;-;-;-;-
1514103967679;-;-;8.916504;0.17736816;-2.7227173;-;-;-;-;-;-;-;-;-;-;-;-;-;-;-
1514103967699;-;-;8.975159;0.27671814;-2.4988708;-;-;-;-;-;-;-;-;-;-;-;-;-;-;-
1514103967720;-;-;8.865021;0.41079712;-2.5419617;-;-;-;-;-;-;-;-;-;-;-;-;-;-;-
1514103967740;-;-;8.704605;0.43952942;-2.6760406;-;-;-;-;-;-;-;-;-;-;-;-;-;-;-
1514103967761;-;-;8.697433;0.3964386;-2.7083588;-;-;-;-;-;-;-;-;-;-;-;-;-;-;-
1514103967780;-;-;8.745316;0.35932922;-2.6173706;-;-;-;-;-;-;-;-;-;-;-;-;-;-;-
1514103967800;-;-;8.874603;0.31503296;-2.5838623;-;-;-;-;-;-;-;-;-;-;-;-;-;-;-
1514103967821;-;-;8.914108;0.32580566;-2.649704;-;-;-;-;-;-;-;-;-;-;-;-;-;-;-
1514103967841;-;-;8.830307;0.36291504;-2.5371704;-;-;-;-;-;-;-;-;-;-;-;-;-;-;-
1514103967861;-;-;8.788406;0.29826355;-2.4737244;-;-;-;-;-;-;-;-;-;-;-;-;-;-;-
1514103967881;-;-;8.82193;0.3030548;-2.5694885;-;-;-;-;-;-;-;-;-;-;-;-;-;-;-
1514103967901;-;-;8.875793;0.36650085;-2.7059631;-;-;-;-;-;-;-;-;-;-;-;-;-;-;-
1514103967922;-;-;8.953613;0.34854126;-2.879547;-;-;-;-;-;-;-;-;-;-;-;-;-;-;-
1514103967942;-;-;8.92128;0.41438293;-2.8340454;-;-;-;-;-;-;-;-;-;-;-;-;-;-;-
1514103967962;-;-;8.844666;0.46347046;-2.7227173;-;-;-;-;-;-;-;-;-;-;-;-;-;-;-
1514103967982;-;-;8.711792;0.47543335;-2.7275085;-;-;-;-;-;-;-;-;-;-;-;-;-;-;-
1514103968002;-;-;8.660324;0.49220276;-2.7227173;-;-;-;-;-;-;-;-;-;-;-;-;-;-;-
1514103968023;-;-;8.764465;0.46347046;-2.7945404;-;-;-;-;-;-;-;-;-;-;-;-;-;-;-
1514103968042;-;-;8.82312;0.4658661;-2.6880035;-;-;-;-;-;-;-;-;-;-;-;-;-;-;-
1514103968062;-;-;8.705811;0.48860168;-2.6042023;-;-;-;-;-;-;-;-;-;-;-;-;-;-;-
1514103968082;-;-;8.607651;0.46826172;-2.630539;-;-;-;-;-;-;-;-;-;-;-;-;-;-;-
1514103968103;-;-;8.557373;0.39523315;-2.665268;-;-;-;-;-;-;-;-;-;-;-;-;-;-;-
1514103968123;-;-;8.619614;0.28988647;-2.6269531;-;-;-;-;-;-;-;-;-;-;-;-;-;-;-
1514103968143;-;-;8.772842;0.34735107;-2.6772308;-;-;-;-;-;-;-;-;-;-;-;-;-;-;-
1514103968163;-;-;8.90213;0.39881897;-2.7143402;-;-;-;-;-;-;-;-;-;-;-;-;-;-;-
1514103968184;-;-;8.8997345;0.4371338;-2.7418823;-;-;-;-;-;-;-;-;-;-;-;-;-;-;-
1514103968204;-;-;8.893753;0.38327026;-2.6880035;-;-;-;-;-;-;-;-;-;-;-;-;-;-;-
1514103968224;-;-;8.837494;0.5053711;-2.6927948;-;-;-;-;-;-;-;-;-;-;-;-;-;-;-
1514103968245;-;-;8.830307;0.4862213;-2.6712494;-;-;-;-;-;-;-;-;-;-;-;-;-;-;-
1514103968265;-;-;8.825516;0.44551086;-2.7011719;-;-;-;-;-;-;-;-;-;-;-;-;-;-;-
1514103968285;-;-;8.799179;0.417984;-2.6401215;-;-;-;-;-;-;-;-;-;-;-;-;-;-;-
1514103968306;-;-;8.778824;0.39283752;-2.5646973;-;-;-;-;-;-;-;-;-;-;-;-;-;-;-
1514103968326;-;-;8.774048;0.39523315;-2.5287933;-;-;-;-;-;-;-;-;-;-;-;-;-;-;-
1514103968346;-;-;8.843475;0.42515564;-2.4821014;-;-;-;-;-;-;-;-;-;-;-;-;-;-;-
1514103968366;-;-;8.868607;0.3964386;-2.5527344;-;-;-;-;-;-;-;-;-;-;-;-;-;-;-
1514103968387;-;-;8.938049;0.32460022;-2.5742798;-;-;-;-;-;-;-;-;-;-;-;-;-;-;-
1514103968407;-;-;8.940445;0.34136963;-2.6221619;-;-;-;-;-;-;-;-;-;-;-;-;-;-;-
1514103968427;-;-;8.941635;0.34854126;-2.7107544;-;-;-;-;-;-;-;-;-;-;-;-;-;-;-
1514103968448;-;-;8.878189;0.3904419;-2.7861633;-;-;-;-;-;-;-;-;-;-;-;-;-;-;-
1514103968467;-;-;8.874603;0.33537292;-2.7634277;-;-;-;-;-;-;-;-;-;-;-;-;-;-;-
1514103968487;-;-;8.884171;0.31263733;-2.665268;-;-;-;-;-;-;-;-;-;-;-;-;-;-;-
1514103968508;-;-;8.808762;0.33059692;-2.5970306;-;-;-;-;-;-;-;-;-;-;-;-;-;-;-
1514103968528;-;-;8.732147;0.338974;-2.625763;-;-;-;-;-;-;-;-;-;-;-;-;-;-;-
1514103968548;-;-;8.635178;0.46228027;-2.586258;-;-;-;-;-;-;-;-;-;-;-;-;-;-;-
1514103968569;-;-;8.631592;0.5472717;-2.515625;-;-;-;-;-;-;-;-;-;-;-;-;-;-;-
1514103968588;-;-;8.650742;0.55444336;-2.4988708;-;-;-;-;-;-;-;-;-;-;-;-;-;-;-
1514103968608;-;-;8.808762;0.5197296;-2.5503387;-;-;-;-;-;-;-;-;-;-;-;-;-;-;-
1514103968628;-;-;8.964386;0.44911194;-2.625763;-;-;-;-;-;-;-;-;-;-;-;-;-;-;-
1514103968649;-;-;9.030228;0.39523315;-2.6365356;-;-;-;-;-;-;-;-;-;-;-;-;-;-;-
1514103968669;-;-;9.050568;0.37487793;-2.6604767;-;-;-;-;-;-;-;-;-;-;-;-;-;-;-
1514103968689;-;-;8.940445;0.35572815;-2.6329346;-;-;-;-;-;-;-;-;-;-;-;-;-;-;-
1514103968710;-;-;8.868607;0.33776855;-2.6401215;-;-;-;-;-;-;-;-;-;-;-;-;-;-;-
1514103968730;-;-;8.832703;0.35453796;-2.6449127;-;-;-;-;-;-;-;-;-;-;-;-;-;-;-
1514103968750;-;-;8.80397;0.36650085;-2.65448;-;-;-;-;-;-;-;-;-;-;-;-;-;-;-
1514103968771;-;-;8.74292;0.41438293;-2.6161804;-;-;-;-;-;-;-;-;-;-;-;-;-;-;-
1514103968791;-;-;8.633987;0.46228027;-2.5455475;-;-;-;-;-;-;-;-;-;-;-;-;-;-;-
1514103968811;-;-;8.656723;0.42277527;-2.6532898;-;-;-;-;-;-;-;-;-;-;-;-;-;-;-
1514103968832;-;-;8.708206;0.42037964;-2.6520996;-;-;-;-;-;-;-;-;-;-;-;-;-;-;-
1514103968852;-;-;8.851852;0.41079712;-2.6401215;-;-;-;-;-;-;-;-;-;-;-;-;-;-;-
1514103968872;-;-;8.972763;0.3964386;-2.6796265;-;-;-;-;-;-;-;-;-;-;-;-;-;-;-
1514103968892;-;-;8.888962;0.44311523;-2.646103;-;-;-;-;-;-;-;-;-;-;-;-;-;-;-
1514103968913;-;-;8.857834;0.4299469;-2.551529;-;-;-;-;-;-;-;-;-;-;-;-;-;-;-
1514103968933;-;-;8.6818695;0.34854126;-2.491684;-;-;-;-;-;-;-;-;-;-;-;-;-;-;-
1514103968953;-;-;8.666306;0.24320984;-2.5886536;-;-;-;-;-;-;-;-;-;-;-;-;-;-;-
1514103968974;-;-;8.696228;0.21208191;-2.4461975;-;-;-;-;-;-;-;-;-;-;-;-;-;-;-
1514103968994;-;-;8.891357;0.21447754;-2.3947144;-;-;-;-;-;-;-;-;-;-;-;-;-;-;-
1514103969015;-;-;9.019455;0.29826355;-2.4090881;-;-;-;-;-;-;-;-;-;-;-;-;-;-;-
1514103969034;-;-;8.903336;0.37487793;-2.658081;-;-;-;-;-;-;-;-;-;-;-;-;-;-;-
1514103969054;-;-;8.838684;0.28390503;-2.6329346;-;-;-;-;-;-;-;-;-;-;-;-;-;-;-
1514103969075;-;-;8.827911;0.15940857;-2.5575256;-;-;-;-;-;-;-;-;-;-;-;-;-;-;-
1514103969095;-;-;8.893753;0.20968628;-2.508438;-;-;-;-;-;-;-;-;-;-;-;-;-;-;-
1514103969115;-;-;8.848267;0.39523315;-2.5874481;-;-;-;-;-;-;-;-;-;-;-;-;-;-;-
1514103969136;-;-;8.83989;0.36291504;-2.5060425;-;-;-;-;-;-;-;-;-;-;-;-;-;-;-
1514103969156;-;-;8.857834;0.28271484;-2.5024567;-;-;-;-;-;-;-;-;-;-;-;-;-;-;-
1514103969176;-;-;8.82312;0.28749084;-2.5012512;-;-;-;-;-;-;-;-;-;-;-;-;-;-;-
1514103969197;-;-;8.699814;0.29707336;-2.3959198;-;-;-;-;-;-;-;-;-;-;-;-;-;-;-
1514103969217;-;-;8.607651;0.37010193;-2.3779602;-;-;-;-;-;-;-;-;-;-;-;-;-;-;-
1514103969238;-;-;8.660324;0.42037964;-2.345642;-;-;-;-;-;-;-;-;-;-;-;-;-;-;-
1514103969258;-;-;8.817139;0.38087463;-2.3468323;-;-;-;-;-;-;-;-;-;-;-;-;-;-;-
1514103969278;-;-;9.046982;0.31263733;-2.4186554;-;-;-;-;-;-;-;-;-;-;-;-;-;-;-
1514103969298;-;-;9.166687;0.21566772;-2.4246368;-;-;-;-;-;-;-;-;-;-;-;-;-;-;-
1514103969319;-;-;9.074509;0.18933105;-2.4390106;-;-;-;-;-;-;-;-;-;-;-;-;-;-;-
1514103969339;-;-;8.934448;0.30665588;-2.47612;-;-;-;-;-;-;-;-;-;-;-;-;-;-;-
1514103969359;-;-;8.867416;0.38685608;-2.5108337;-;-;-;-;-;-;-;-;-;-;-;-;-;-;-
1514103969380;-;-;8.780029;0.4407196;-2.5599213;-;-;-;-;-;-;-;-;-;-;-;-;-;-;-
1514103969400;-;-;8.8051605;0.40481567;-2.5599213;-;-;-;-;-;-;-;-;-;-;-;-;-;-;-
1514103969419;-;-;8.813553;0.41558838;-2.4809113;-;-;-;-;-;-;-;-;-;-;-;-;-;-;-
1514103969439;-;-;8.780029;0.4084015;-2.5024567;-;-;-;-;-;-;-;-;-;-;-;-;-;-;-
1514103969460;-;-;8.793198;0.41677856;-2.4665375;-;-;-;-;-;-;-;-;-;-;-;-;-;-;-
1514103969480;-;-;8.831497;0.38327026;-2.5120392;-;-;-;-;-;-;-;-;-;-;-;-;-;-;-
1514103969500;-;-;8.892548;0.33418274;-2.5383606;-;-;-;-;-;-;-;-;-;-;-;-;-;-;-
1514103969520;-;-;8.926071;0.33776855;-2.5934296;-;-;-;-;-;-;-;-;-;-;-;-;-;-;-
1514103969540;-;-;8.975159;0.34376526;-2.6269531;-;-;-;-;-;-;-;-;-;-;-;-;-;-;-
1514103969560;-;-;8.891357;0.3796692;-2.567093;-;-;-;-;-;-;-;-;-;-;-;-;-;-;-
1514103969580;-;-;8.791992;0.3712921;-2.5168152;-;-;-;-;-;-;-;-;-;-;-;-;-;-;-
1514103969600;-;-;8.76207;0.43354797;-2.5587158;-;-;-;-;-;-;-;-;-;-;-;-;-;-;-
1514103969620;-;-;8.851852;0.41558838;-2.6281433;-;-;-;-;-;-;-;-;-;-;-;-;-;-;-
1514103969640;-;-;8.90213;0.3677063;-2.670044;-;-;-;-;-;-;-;-;-;-;-;-;-;-;-
1514103969661;-;-;8.916504;0.36650085;-2.5814667;-;-;-;-;-;-;-;-;-;-;-;-;-;-;-
1514103969681;-;-;8.844666;0.34136963;-2.6054077;-;-;-;-;-;-;-;-;-;-;-;-;-;-;-
1514103969701;-;-;8.795593;0.36531067;-2.6353302;-;-;-;-;-;-;-;-;-;-;-;-;-;-;-
1514103969721;-;-;8.715378;0.37249756;-2.5970306;-;-;-;-;-;-;-;-;-;-;-;-;-;-;-
1514103969742;-;-;8.732147;0.43952942;-2.6365356;-;-;-;-;-;-;-;-;-;-;-;-;-;-;-
1514103969762;-;-;8.782425;0.48860168;-2.586258;-;-;-;-;-;-;-;-;-;-;-;-;-;-;-
1514103969783;-;-;8.775238;0.48860168;-2.579071;-;-;-;-;-;-;-;-;-;-;-;-;-;-;-
1514103969803;-;-;8.753693;0.4371338;-2.5263977;-;-;-;-;-;-;-;-;-;-;-;-;-;-;-
1514103969823;-;-;8.756088;0.3964386;-2.5838623;-;-;-;-;-;-;-;-;-;-;-;-;-;-;-
1514103969844;-;-;8.861435;0.33537292;-2.5742798;-;-;-;-;-;-;-;-;-;-;-;-;-;-;-
1514103969864;-;-;8.879379;0.37727356;-2.5958252;-;-;-;-;-;-;-;-;-;-;-;-;-;-;-
1514103969884;-;-;8.929672;0.4119873;-2.6556854;-;-;-;-;-;-;-;-;-;-;-;-;-;-;-
1514103969905;-;-;8.885376;0.38206482;-2.649704;-;-;-;-;-;-;-;-;-;-;-;-;-;-;-
1514103969925;-;-;8.827911;0.32341003;-2.6329346;-;-;-;-;-;-;-;-;-;-;-;-;-;-;-
1514103969945;-;-;8.74292;0.30545044;-2.5754852;-;-;-;-;-;-;-;-;-;-;-;-;-;-;-
1514103969965;-;-;8.708206;0.3617096;-2.5754852;-;-;-;-;-;-;-;-;-;-;-;-;-;-;-
1514103969986;-;-;8.778824;0.38206482;-2.6078033;-;-;-;-;-;-;-;-;-;-;-;-;-;-;-
1514103970006;-;-;8.827911;0.39404297;-2.6437073;-;-;-;-;-;-;-;-;-;-;-;-;-;-;-
1514103970026;-;-;8.838684;0.35214233;-2.6808167;-;-;-;-;-;-;-;-;-;-;-;-;-;-;-
1514103970046;-;-;8.881775;0.3509369;-2.6844177;-;-;-;-;-;-;-;-;-;-;-;-;-;-;-
1514103970067;-;-;8.859039;0.35453796;-2.6688538;-;-;-;-;-;-;-;-;-;-;-;-;-;-;-
1514103970087;-;-;8.850662;0.36531067;-2.6916046;-;-;-;-;-;-;-;-;-;-;-;-;-;-;-
1514103970107;-;-;8.862625;0.36291504;-2.6868134;-;-;-;-;-;-;-;-;-;-;-;-;-;-;-
1514103970127;-;-;8.832703;0.4012146;-2.6868134;-;-;-;-;-;-;-;-;-;-;-;-;-;-;-
1514103970147;-;-;8.791992;0.35572815;-2.6377258;-;-;-;-;-;-;-;-;-;-;-;-;-;-;-
1514103970168;-;-;8.795593;0.3964386;-2.6089935;-;-;-;-;-;-;-;-;-;-;-;-;-;-;-
1514103970188;-;-;8.764465;0.39523315;-2.5766754;-;-;-;-;-;-;-;-;-;-;-;-;-;-;-
1514103970208;-;-;8.787216;0.3892517;-2.6042023;-;-;-;-;-;-;-;-;-;-;-;-;-;-;-
1514103970228;-;-;8.808762;0.38685608;-2.6389313;-;-;-;-;-;-;-;-;-;-;-;-;-;-;-
1514103970249;-;-;8.851852;0.34136963;-2.7275085;-;-;-;-;-;-;-;-;-;-;-;-;-;-;-
