TimeStamp[ms];Prox[Cm];Lux[lux];AccX[m/s^2];AccY[m/s^2];AccZ[m/s^2];GyroX[rad/s];GyroY[rad/s];GyroZ[rad/s];MagnX[uT];MagnY[uT];MagnZ[uT];OrienYaw[degrees];OrienPitch[degrees];OrienRoll[degrees];Press[Pa];Temp[C°];Batt[%];Lat;Lng;Speed[m/s]
1514103613953;-;-;9.568924;-1.992981;0.065322876;-;-;-;-;-;-;-;-;-;-;-;-;-;-;-
1514103613952;-;-;9.568924;-1.992981;0.065322876;-;-;-;-;-;-;-;-;-;-;-;-;-;-;-
1514103613973;-;-;9.008667;-1.680542;-0.16331482;-;-;-;-;-;-;-;-;-;-;-;-;-;-;-
1514103613993;-;-;8.673492;-1.5344849;-0.10346985;-;-;-;-;-;-;-;-;-;-;-;-;-;-;-
1514103614013;-;-;9.002686;-1.8373566;-0.1669159;-;-;-;-;-;-;-;-;-;-;-;-;-;-;-
1514103614034;-;-;8.838684;-1.9031982;-0.13937378;-;-;-;-;-;-;-;-;-;-;-;-;-;-;-
1514103614054;-;-;8.905716;-1.743988;-0.07713318;-;-;-;-;-;-;-;-;-;-;-;-;-;-;-
1514103614074;-;-;9.075714;-1.7284241;-0.34527588;-;-;-;-;-;-;-;-;-;-;-;-;-;-;-
1514103614094;-;-;9.155914;-1.8337708;-0.31654358;-;-;-;-;-;-;-;-;-;-;-;-;-;-;-
1514103614114;-;-;9.093674;-1.898407;-0.3261261;-;-;-;-;-;-;-;-;-;-;-;-;-;-;-
1514103614135;-;-;9.161896;-1.8996124;-0.26387024;-;-;-;-;-;-;-;-;-;-;-;-;-;-;-
1514103614155;-;-;8.959595;-2.0265045;-0.14537048;-;-;-;-;-;-;-;-;-;-;-;-;-;-;-
1514103614175;-;-;8.878189;-2.1497955;0.09526062;-;-;-;-;-;-;-;-;-;-;-;-;-;-;-
1514103614205;-;-;9.486313;-2.1617737;1.5880432;-;-;-;-;-;-;-;-;-;-;-;-;-;-;-
1514103614216;-;-;7.7972107;-2.4897766;0.89372253;-;-;-;-;-;-;-;-;-;-;-;-;-;-;-
1514103614236;-;-;9.042191;-1.404007;-1.5088654;-;-;-;-;-;-;-;-;-;-;-;-;-;-;-
1514103614256;-;-;10.914459;-1.5488586;-0.3476715;-;-;-;-;-;-;-;-;-;-;-;-;-;-;-
1514103614277;-;-;9.327103;-1.5428772;-0.87080383;-;-;-;-;-;-;-;-;-;-;-;-;-;-;-
1514103614297;-;-;9.102051;-1.7224426;-0.64575195;-;-;-;-;-;-;-;-;-;-;-;-;-;-;-
1514103614318;-;-;8.966782;-1.874466;-0.5535736;-;-;-;-;-;-;-;-;-;-;-;-;-;-;-
1514103614338;-;-;8.825516;-1.8768616;-0.5332184;-;-;-;-;-;-;-;-;-;-;-;-;-;-;-
1514103614358;-;-;8.881775;-1.9331207;-0.59906006;-;-;-;-;-;-;-;-;-;-;-;-;-;-;-
1514103614378;-;-;9.015854;-2.1055145;-0.6373749;-;-;-;-;-;-;-;-;-;-;-;-;-;-;-
1514103614399;-;-;8.951218;-2.4682312;-0.75109863;-;-;-;-;-;-;-;-;-;-;-;-;-;-;-
1514103614419;-;-;8.850662;-2.7830658;-0.6948395;-;-;-;-;-;-;-;-;-;-;-;-;-;-;-
1514103614439;-;-;8.878189;-2.8896027;-0.6601105;-;-;-;-;-;-;-;-;-;-;-;-;-;-;-
1514103614460;-;-;9.002686;-2.5699768;-0.75468445;-;-;-;-;-;-;-;-;-;-;-;-;-;-;-
1514103614480;-;-;9.234924;-2.1809235;-1.2969818;-;-;-;-;-;-;-;-;-;-;-;-;-;-;-
1514103614500;-;-;9.530609;-1.6996918;-1.4669647;-;-;-;-;-;-;-;-;-;-;-;-;-;-;-
1514103614520;-;-;9.583282;-1.4303436;-1.4777374;-;-;-;-;-;-;-;-;-;-;-;-;-;-;-
1514103614541;-;-;9.4133;-1.2878876;-1.4059143;-;-;-;-;-;-;-;-;-;-;-;-;-;-;-
1514103614561;-;-;9.173874;-1.2232513;-1.2275391;-;-;-;-;-;-;-;-;-;-;-;-;-;-;-
1514103614581;-;-;8.898544;-1.1789551;-1.1820526;-;-;-;-;-;-;-;-;-;-;-;-;-;-;-
1514103614602;-;-;8.5849;-1.1729736;-1.0683289;-;-;-;-;-;-;-;-;-;-;-;-;-;-;-
1514103614622;-;-;8.58371;-1.2268372;-0.98931885;-;-;-;-;-;-;-;-;-;-;-;-;-;-;-
1514103614642;-;-;8.648346;-1.3214111;-1.1078339;-;-;-;-;-;-;-;-;-;-;-;-;-;-;-
1514103614662;-;-;8.857834;-1.5356903;-1.4944916;-;-;-;-;-;-;-;-;-;-;-;-;-;-;-
1514103614683;-;-;9.017059;-1.7547607;-1.6058197;-;-;-;-;-;-;-;-;-;-;-;-;-;-;-
1514103614703;-;-;9.311539;-2.0791779;-1.8117218;-;-;-;-;-;-;-;-;-;-;-;-;-;-;-
1514103614723;-;-;9.465973;-2.2683105;-2.0200195;-;-;-;-;-;-;-;-;-;-;-;-;-;-;-
1514103614744;-;-;9.622787;-2.1533966;-2.0283966;-;-;-;-;-;-;-;-;-;-;-;-;-;-;-
1514103614764;-;-;9.489914;-1.6877136;-1.3915405;-;-;-;-;-;-;-;-;-;-;-;-;-;-;-
1514103614784;-;-;9.212173;-1.2459869;-1.1030426;-;-;-;-;-;-;-;-;-;-;-;-;-;-;-
1514103614805;-;-;8.90213;-0.93833923;-1.0946655;-;-;-;-;-;-;-;-;-;-;-;-;-;-;-
1514103614825;-;-;8.886566;-0.79348755;-1.2407074;-;-;-;-;-;-;-;-;-;-;-;-;-;-;-
1514103614845;-;-;8.958389;-0.73243713;-1.2873993;-;-;-;-;-;-;-;-;-;-;-;-;-;-;-
1514103614866;-;-;8.833893;-0.68455505;-1.258667;-;-;-;-;-;-;-;-;-;-;-;-;-;-;-
1514103614885;-;-;8.927277;-0.86291504;-1.1820526;-;-;-;-;-;-;-;-;-;-;-;-;-;-;-
1514103614905;-;-;9.110428;-1.2459869;-1.3065491;-;-;-;-;-;-;-;-;-;-;-;-;-;-;-
1514103614926;-;-;9.234924;-1.4937897;-1.3436584;-;-;-;-;-;-;-;-;-;-;-;-;-;-;-
1514103614945;-;-;9.33429;-1.4566803;-1.1629028;-;-;-;-;-;-;-;-;-;-;-;-;-;-;-
1514103614965;-;-;9.173874;-1.1406403;-1.1281891;-;-;-;-;-;-;-;-;-;-;-;-;-;-;-
1514103614986;-;-;9.035004;-0.92037964;-1.188034;-;-;-;-;-;-;-;-;-;-;-;-;-;-;-
1514103615006;-;-;9.099655;-0.66659546;-1.0527649;-;-;-;-;-;-;-;-;-;-;-;-;-;-;-
1514103615026;-;-;8.753693;-0.6821594;-1.0934601;-;-;-;-;-;-;-;-;-;-;-;-;-;-;-
1514103615047;-;-;8.533432;-1.0927582;-1.6154022;-;-;-;-;-;-;-;-;-;-;-;-;-;-;-
1514103615067;-;-;9.2708435;-1.7128601;-1.618988;-;-;-;-;-;-;-;-;-;-;-;-;-;-;-
1514103615087;-;-;9.603638;-1.6230774;-1.5998383;-;-;-;-;-;-;-;-;-;-;-;-;-;-;-
1514103615108;-;-;9.481522;-1.4195709;-1.8931274;-;-;-;-;-;-;-;-;-;-;-;-;-;-;-
1514103615127;-;-;9.084091;-1.293869;-2.3157043;-;-;-;-;-;-;-;-;-;-;-;-;-;-;-
1514103615147;-;-;8.791992;-1.0867767;-2.7227173;-;-;-;-;-;-;-;-;-;-;-;-;-;-;-
1514103615167;-;-;8.626801;-0.47027588;-2.9657288;-;-;-;-;-;-;-;-;-;-;-;-;-;-;-
1514103615188;-;-;8.422089;0.22764587;-2.9369965;-;-;-;-;-;-;-;-;-;-;-;-;-;-;-
1514103615208;-;-;8.286819;0.8920288;-3.191986;-;-;-;-;-;-;-;-;-;-;-;-;-;-;-
1514103615228;-;-;8.355057;1.1290588;-3.2602234;-;-;-;-;-;-;-;-;-;-;-;-;-;-;-
1514103615248;-;-;8.575317;0.25038147;-3.5690765;-;-;-;-;-;-;-;-;-;-;-;-;-;-;-
1514103615269;-;-;8.884171;-0.91319275;-3.6887817;-;-;-;-;-;-;-;-;-;-;-;-;-;-;-
1514103615289;-;-;8.750107;-1.4470978;-3.8156738;-;-;-;-;-;-;-;-;-;-;-;-;-;-;-
1514103615309;-;-;8.717773;-1.0424805;-3.7139282;-;-;-;-;-;-;-;-;-;-;-;-;-;-;-
1514103615330;-;-;8.787216;-0.19613647;-3.3428192;-;-;-;-;-;-;-;-;-;-;-;-;-;-;-
1514103615350;-;-;8.881775;0.14982605;-3.1333313;-;-;-;-;-;-;-;-;-;-;-;-;-;-;-
1514103615370;-;-;8.653137;-0.17817688;-2.9753113;-;-;-;-;-;-;-;-;-;-;-;-;-;-;-
1514103615391;-;-;8.729752;-0.9155884;-2.646103;-;-;-;-;-;-;-;-;-;-;-;-;-;-;-
1514103615411;-;-;8.881775;-1.2208557;-2.646103;-;-;-;-;-;-;-;-;-;-;-;-;-;-;-
1514103615431;-;-;9.020645;-1.0412903;-2.816101;-;-;-;-;-;-;-;-;-;-;-;-;-;-;-
1514103615451;-;-;9.130783;-0.641449;-3.0782623;-;-;-;-;-;-;-;-;-;-;-;-;-;-;-
1514103615472;-;-;9.074509;-0.54689026;-2.788559;-;-;-;-;-;-;-;-;-;-;-;-;-;-;-
1514103615492;-;-;8.833893;-0.5935669;-2.6401215;-;-;-;-;-;-;-;-;-;-;-;-;-;-;-
1514103615512;-;-;8.849457;-0.6905365;-2.4497833;-;-;-;-;-;-;-;-;-;-;-;-;-;-;-
1514103615533;-;-;9.205002;-0.5564575;-2.230713;-;-;-;-;-;-;-;-;-;-;-;-;-;-;-
1514103615553;-;-;9.3893585;-0.32302856;-2.0906525;-;-;-;-;-;-;-;-;-;-;-;-;-;-;-
1514103615573;-;-;9.352234;-0.33859253;-2.2103577;-;-;-;-;-;-;-;-;-;-;-;-;-;-;-
1514103615594;-;-;9.006287;-0.4044342;-2.444992;-;-;-;-;-;-;-;-;-;-;-;-;-;-;-
1514103615614;-;-;8.627991;-0.25837708;-2.7322998;-;-;-;-;-;-;-;-;-;-;-;-;-;-;-
1514103615634;-;-;8.200638;0.2420044;-2.8388367;-;-;-;-;-;-;-;-;-;-;-;-;-;-;-
1514103615655;-;-;7.904953;0.8166199;-2.9274292;-;-;-;-;-;-;-;-;-;-;-;-;-;-;-
1514103615675;-;-;8.1766815;1.030899;-2.883133;-;-;-;-;-;-;-;-;-;-;-;-;-;-;-
1514103615695;-;-;8.696228;0.74957275;-2.867569;-;-;-;-;-;-;-;-;-;-;-;-;-;-;-
1514103615716;-;-;9.201401;0.107925415;-2.8819427;-;-;-;-;-;-;-;-;-;-;-;-;-;-;-
1514103615735;-;-;9.434845;-0.210495;-3.0591125;-;-;-;-;-;-;-;-;-;-;-;-;-;-;-
1514103615755;-;-;9.250488;-0.25958252;-3.0854492;-;-;-;-;-;-;-;-;-;-;-;-;-;-;-
1514103615775;-;-;8.84108;-0.04888916;-2.9968567;-;-;-;-;-;-;-;-;-;-;-;-;-;-;-
1514103615796;-;-;8.698624;0.12588501;-3.0064392;-;-;-;-;-;-;-;-;-;-;-;-;-;-;-
1514103615816;-;-;8.72496;0.2850952;-3.4361877;-;-;-;-;-;-;-;-;-;-;-;-;-;-;-
1514103615838;-;-;9.182251;0.20848083;-3.930603;-;-;-;-;-;-;-;-;-;-;-;-;-;-;-
1514103615856;-;-;9.131973;-0.03691101;-4.002426;-;-;-;-;-;-;-;-;-;-;-;-;-;-;-
1514103615876;-;-;8.4687805;-0.5504761;-3.6109772;-;-;-;-;-;-;-;-;-;-;-;-;-;-;-
1514103615897;-;-;7.5877075;-0.85572815;-3.3356323;-;-;-;-;-;-;-;-;-;-;-;-;-;-;-
1514103615917;-;-;7.1471863;-0.6797638;-3.1584625;-;-;-;-;-;-;-;-;-;-;-;-;-;-;-
1514103615938;-;-;7.406952;-0.30625916;-3.136917;-;-;-;-;-;-;-;-;-;-;-;-;-;-;-
1514103615958;-;-;8.449631;-0.20690918;-2.8771515;-;-;-;-;-;-;-;-;-;-;-;-;-;-;-
1514103615978;-;-;9.319916;-0.054870605;-3.056717;-;-;-;-;-;-;-;-;-;-;-;-;-;-;-
1514103615998;-;-;9.556946;0.13546753;-3.1572723;-;-;-;-;-;-;-;-;-;-;-;-;-;-;-
1514103616018;-;-;9.659897;0.82618713;-3.4505615;-;-;-;-;-;-;-;-;-;-;-;-;-;-;-
1514103616039;-;-;9.725739;1.3002472;-3.4756927;-;-;-;-;-;-;-;-;-;-;-;-;-;-;-
1514103616060;-;-;9.529419;0.85491943;-3.0028381;-;-;-;-;-;-;-;-;-;-;-;-;-;-;-
1514103616079;-;-;9.213379;-0.00340271;-2.7454681;-;-;-;-;-;-;-;-;-;-;-;-;-;-;-
1514103616100;-;-;8.594482;-0.67497253;-2.452179;-;-;-;-;-;-;-;-;-;-;-;-;-;-;-
1514103616120;-;-;8.15155;-0.9610748;-2.3348541;-;-;-;-;-;-;-;-;-;-;-;-;-;-;-
1514103616140;-;-;8.164719;-1.0700226;-2.5204163;-;-;-;-;-;-;-;-;-;-;-;-;-;-;-
1514103616160;-;-;8.459198;-1.0939636;-2.9609375;-;-;-;-;-;-;-;-;-;-;-;-;-;-;-
1514103616180;-;-;8.788406;-0.7922821;-2.9178467;-;-;-;-;-;-;-;-;-;-;-;-;-;-;-
1514103616200;-;-;8.627991;-0.5744171;-2.772995;-;-;-;-;-;-;-;-;-;-;-;-;-;-;-
1514103616220;-;-;8.519058;-0.6318817;-3.0124207;-;-;-;-;-;-;-;-;-;-;-;-;-;-;-
1514103616240;-;-;8.619614;-0.93473816;-2.9824982;-;-;-;-;-;-;-;-;-;-;-;-;-;-;-
1514103616261;-;-;8.661514;-1.1574097;-2.8101044;-;-;-;-;-;-;-;-;-;-;-;-;-;-;-
1514103616281;-;-;8.747711;-1.076004;-2.7382813;-;-;-;-;-;-;-;-;-;-;-;-;-;-;-
1514103616301;-;-;8.915298;-0.8688965;-2.9729156;-;-;-;-;-;-;-;-;-;-;-;-;-;-;-
1514103616321;-;-;8.752487;-0.6151123;-3.0447388;-;-;-;-;-;-;-;-;-;-;-;-;-;-;-
1514103616342;-;-;8.797989;-0.31105042;-3.2458496;-;-;-;-;-;-;-;-;-;-;-;-;-;-;-
1514103616362;-;-;8.497513;-0.19134521;-2.9202423;-;-;-;-;-;-;-;-;-;-;-;-;-;-;-
1514103616382;-;-;8.630386;-0.36732483;-3.0363617;-;-;-;-;-;-;-;-;-;-;-;-;-;-;-
1514103616402;-;-;8.673492;-0.31105042;-3.2614136;-;-;-;-;-;-;-;-;-;-;-;-;-;-;-
1514103616423;-;-;8.661514;-0.32302856;-3.0315704;-;-;-;-;-;-;-;-;-;-;-;-;-;-;-
1514103616443;-;-;8.650742;-0.43315125;-3.0004425;-;-;-;-;-;-;-;-;-;-;-;-;-;-;-
1514103616463;-;-;8.570541;-0.56843567;-3.120163;-;-;-;-;-;-;-;-;-;-;-;-;-;-;-
1514103616483;-;-;8.758484;-0.68574524;-2.8232727;-;-;-;-;-;-;-;-;-;-;-;-;-;-;-
1514103616504;-;-;8.835098;-0.8138428;-2.6484985;-;-;-;-;-;-;-;-;-;-;-;-;-;-;-
1514103616524;-;-;8.991913;-0.92277527;-2.6628723;-;-;-;-;-;-;-;-;-;-;-;-;-;-;-
1514103616544;-;-;9.31633;-1.0101624;-2.8508148;-;-;-;-;-;-;-;-;-;-;-;-;-;-;-
1514103616564;-;-;9.531799;-1.0017853;-2.907074;-;-;-;-;-;-;-;-;-;-;-;-;-;-;-
1514103616585;-;-;9.37619;-0.79348755;-2.852005;-;-;-;-;-;-;-;-;-;-;-;-;-;-;-
1514103616605;-;-;8.936844;-0.6977234;-2.5144196;-;-;-;-;-;-;-;-;-;-;-;-;-;-;-
1514103616625;-;-;8.710602;-0.6426544;-2.5024567;-;-;-;-;-;-;-;-;-;-;-;-;-;-;-
1514103616646;-;-;8.807556;-0.7779236;-3.04953;-;-;-;-;-;-;-;-;-;-;-;-;-;-;-
1514103616666;-;-;8.42569;-0.53012085;-2.97052;-;-;-;-;-;-;-;-;-;-;-;-;-;-;-
1514103616686;-;-;7.6547546;-0.45350647;-2.172058;-;-;-;-;-;-;-;-;-;-;-;-;-;-;-
1514103616707;-;-;8.175491;-1.1538086;-2.5682983;-;-;-;-;-;-;-;-;-;-;-;-;-;-;-
1514103616726;-;-;9.269638;-1.9283447;-2.895111;-;-;-;-;-;-;-;-;-;-;-;-;-;-;-
1514103616747;-;-;9.814316;-2.0695953;-3.1931763;-;-;-;-;-;-;-;-;-;-;-;-;-;-;-
1514103616767;-;-;9.519836;-1.7308197;-3.0914307;-;-;-;-;-;-;-;-;-;-;-;-;-;-;-
1514103616788;-;-;8.082123;-0.838974;-2.63414;-;-;-;-;-;-;-;-;-;-;-;-;-;-;-
1514103616808;-;-;8.454422;-1.0496674;-3.096222;-;-;-;-;-;-;-;-;-;-;-;-;-;-;-
1514103616828;-;-;8.023453;-0.8305969;-2.8352509;-;-;-;-;-;-;-;-;-;-;-;-;-;-;-
1514103616848;-;-;8.728546;-0.6522217;-2.939392;-;-;-;-;-;-;-;-;-;-;-;-;-;-;-
1514103616868;-;-;9.023041;-0.680954;-3.2326813;-;-;-;-;-;-;-;-;-;-;-;-;-;-;-
1514103616889;-;-;8.97995;-0.7264557;-3.2793732;-;-;-;-;-;-;-;-;-;-;-;-;-;-;-
1514103616910;-;-;8.934448;-0.79467773;-2.9525604;-;-;-;-;-;-;-;-;-;-;-;-;-;-;-
1514103616930;-;-;8.8207245;-0.9143982;-2.5180206;-;-;-;-;-;-;-;-;-;-;-;-;-;-;-
1514103616950;-;-;8.80397;-1.1035309;-2.4390106;-;-;-;-;-;-;-;-;-;-;-;-;-;-;-
1514103616971;-;-;8.675873;-1.1502228;-2.7777863;-;-;-;-;-;-;-;-;-;-;-;-;-;-;-
1514103616990;-;-;8.521454;-1.1394501;-2.7047577;-;-;-;-;-;-;-;-;-;-;-;-;-;-;-
1514103617010;-;-;8.617218;-1.0652313;-2.7239227;-;-;-;-;-;-;-;-;-;-;-;-;-;-;-
1514103617030;-;-;8.735733;-1.0712128;-2.8113098;-;-;-;-;-;-;-;-;-;-;-;-;-;-;-
1514103617051;-;-;8.862625;-1.0197449;-2.9130554;-;-;-;-;-;-;-;-;-;-;-;-;-;-;-
1514103617071;-;-;8.918884;-0.9826355;-2.9537659;-;-;-;-;-;-;-;-;-;-;-;-;-;-;-
1514103617091;-;-;9.090073;-0.92396545;-2.9334106;-;-;-;-;-;-;-;-;-;-;-;-;-;-;-
1514103617112;-;-;9.076904;-0.80426025;-2.709549;-;-;-;-;-;-;-;-;-;-;-;-;-;-;-
1514103617132;-;-;8.9787445;-0.72883606;-2.5527344;-;-;-;-;-;-;-;-;-;-;-;-;-;-;-
1514103617152;-;-;8.775238;-0.7384186;-2.6724396;-;-;-;-;-;-;-;-;-;-;-;-;-;-;-
1514103617173;-;-;8.641159;-0.68933105;-2.6772308;-;-;-;-;-;-;-;-;-;-;-;-;-;-;-
1514103617193;-;-;8.806366;-0.6115265;-2.7634277;-;-;-;-;-;-;-;-;-;-;-;-;-;-;-
1514103617213;-;-;8.915298;-0.53730774;-2.8065186;-;-;-;-;-;-;-;-;-;-;-;-;-;-;-
1514103617233;-;-;8.82193;-0.63905334;-2.752655;-;-;-;-;-;-;-;-;-;-;-;-;-;-;-
1514103617254;-;-;8.746506;-0.83418274;-2.717926;-;-;-;-;-;-;-;-;-;-;-;-;-;-;-
1514103617274;-;-;8.740524;-0.89164734;-2.776596;-;-;-;-;-;-;-;-;-;-;-;-;-;-;-
1514103617294;-;-;8.680664;-0.80545044;-2.8304596;-;-;-;-;-;-;-;-;-;-;-;-;-;-;-
1514103617315;-;-;8.849457;-0.7336273;-2.796936;-;-;-;-;-;-;-;-;-;-;-;-;-;-;-
1514103617334;-;-;8.98114;-0.6330719;-2.8148956;-;-;-;-;-;-;-;-;-;-;-;-;-;-;-
1514103617354;-;-;8.874603;-0.6103363;-2.7789917;-;-;-;-;-;-;-;-;-;-;-;-;-;-;-
1514103617374;-;-;8.854248;-0.5456848;-2.8340454;-;-;-;-;-;-;-;-;-;-;-;-;-;-;-
1514103617394;-;-;8.7656555;-0.47865295;-2.7394867;-;-;-;-;-;-;-;-;-;-;-;-;-;-;-
1514103617415;-;-;8.814743;-0.50857544;-2.8663788;-;-;-;-;-;-;-;-;-;-;-;-;-;-;-
1514103617436;-;-;8.911713;-0.50857544;-2.8137054;-;-;-;-;-;-;-;-;-;-;-;-;-;-;-
1514103617457;-;-;8.764465;-0.5456848;-2.6999817;-;-;-;-;-;-;-;-;-;-;-;-;-;-;-
1514103617478;-;-;8.729752;-0.45948792;-2.840042;-;-;-;-;-;-;-;-;-;-;-;-;-;-;-
1514103617497;-;-;8.675873;-0.44033813;-2.6449127;-;-;-;-;-;-;-;-;-;-;-;-;-;-;-
1514103617517;-;-;8.746506;-0.49661255;-2.8125;-;-;-;-;-;-;-;-;-;-;-;-;-;-;-
1514103617537;-;-;8.702209;-0.4918213;-2.6209717;-;-;-;-;-;-;-;-;-;-;-;-;-;-;-
1514103617558;-;-;8.655533;-0.45231628;-2.5287933;-;-;-;-;-;-;-;-;-;-;-;-;-;-;-
1514103617578;-;-;8.763275;-0.3697052;-2.6532898;-;-;-;-;-;-;-;-;-;-;-;-;-;-;-
1514103617598;-;-;8.777634;-0.34576416;-2.6520996;-;-;-;-;-;-;-;-;-;-;-;-;-;-;-
1514103617620;-;-;9.009872;-0.43077087;-2.717926;-;-;-;-;-;-;-;-;-;-;-;-;-;-;-
1514103617639;-;-;8.989517;-0.47505188;-2.7299042;-;-;-;-;-;-;-;-;-;-;-;-;-;-;-
1514103617660;-;-;8.97995;-0.42477417;-2.7586365;-;-;-;-;-;-;-;-;-;-;-;-;-;-;-
1514103617679;-;-;8.940445;-0.3864746;-2.6616669;-;-;-;-;-;-;-;-;-;-;-;-;-;-;-
1514103617700;-;-;8.88298;-0.51097107;-2.6233673;-;-;-;-;-;-;-;-;-;-;-;-;-;-;-
1514103617720;-;-;8.673492;-0.55766296;-2.488083;-;-;-;-;-;-;-;-;-;-;-;-;-;-;-
1514103617740;-;-;9.035004;-0.56604004;-2.71315;-;-;-;-;-;-;-;-;-;-;-;-;-;-;-
1514103617761;-;-;8.783615;-0.4379425;-2.6353302;-;-;-;-;-;-;-;-;-;-;-;-;-;-;-
1514103617780;-;-;8.768051;-0.46427917;-2.551529;-;-;-;-;-;-;-;-;-;-;-;-;-;-;-
1514103617800;-;-;8.636368;-0.5456848;-2.4066925;-;-;-;-;-;-;-;-;-;-;-;-;-;-;-
1514103617820;-;-;8.8602295;-0.68933105;-2.4030914;-;-;-;-;-;-;-;-;-;-;-;-;-;-;-
1514103617841;-;-;8.922485;-0.6294861;-2.345642;-;-;-;-;-;-;-;-;-;-;-;-;-;-;-
1514103617861;-;-;9.035004;-0.5959625;-2.527588;-;-;-;-;-;-;-;-;-;-;-;-;-;-;-
1514103617881;-;-;8.967972;-0.51815796;-2.4773102;-;-;-;-;-;-;-;-;-;-;-;-;-;-;-
1514103617902;-;-;8.875793;-0.4259796;-2.4593658;-;-;-;-;-;-;-;-;-;-;-;-;-;-;-
1514103617922;-;-;8.911713;-0.38526917;-2.467743;-;-;-;-;-;-;-;-;-;-;-;-;-;-;-
1514103617942;-;-;8.938049;-0.39006042;-2.5802612;-;-;-;-;-;-;-;-;-;-;-;-;-;-;-
1514103617962;-;-;8.971558;-0.3074646;-2.5646973;-;-;-;-;-;-;-;-;-;-;-;-;-;-;-
1514103617983;-;-;8.941635;-0.26197815;-2.4868927;-;-;-;-;-;-;-;-;-;-;-;-;-;-;-
1514103618003;-;-;8.911713;-0.38887024;-2.507248;-;-;-;-;-;-;-;-;-;-;-;-;-;-;-
1514103618023;-;-;9.007477;-0.48104858;-2.5682983;-;-;-;-;-;-;-;-;-;-;-;-;-;-;-
1514103618043;-;-;9.008667;-0.45231628;-2.5407562;-;-;-;-;-;-;-;-;-;-;-;-;-;-;-
1514103618064;-;-;8.945221;-0.46427917;-2.4749146;-;-;-;-;-;-;-;-;-;-;-;-;-;-;-
1514103618084;-;-;8.837494;-0.45111084;-2.484497;-;-;-;-;-;-;-;-;-;-;-;-;-;-;-
1514103618104;-;-;8.791992;-0.4451294;-2.5048523;-;-;-;-;-;-;-;-;-;-;-;-;-;-;-
1514103618125;-;-;8.7656555;-0.4271698;-2.5299835;-;-;-;-;-;-;-;-;-;-;-;-;-;-;-
1514103618145;-;-;8.799179;-0.42118835;-2.5646973;-;-;-;-;-;-;-;-;-;-;-;-;-;-;-
1514103618165;-;-;8.891357;-0.39964294;-2.6078033;-;-;-;-;-;-;-;-;-;-;-;-;-;-;-
1514103618186;-;-;8.942825;-0.3541565;-2.5850525;-;-;-;-;-;-;-;-;-;-;-;-;-;-;-
1514103618206;-;-;8.948822;-0.34098816;-2.5455475;-;-;-;-;-;-;-;-;-;-;-;-;-;-;-
1514103618226;-;-;8.893753;-0.32781982;-2.5646973;-;-;-;-;-;-;-;-;-;-;-;-;-;-;-
1514103618246;-;-;8.768051;-0.31225586;-2.5934296;-;-;-;-;-;-;-;-;-;-;-;-;-;-;-
1514103618267;-;-;8.702209;-0.3194275;-2.6125946;-;-;-;-;-;-;-;-;-;-;-;-;-;-;-
1514103618287;-;-;8.7656555;-0.34098816;-2.649704;-;-;-;-;-;-;-;-;-;-;-;-;-;-;-
1514103618307;-;-;8.896149;-0.37809753;-2.649704;-;-;-;-;-;-;-;-;-;-;-;-;-;-;-
1514103618328;-;-;8.950012;-0.4092102;-2.6221619;-;-;-;-;-;-;-;-;-;-;-;-;-;-;-
1514103618349;-;-;8.945221;-0.46069336;-2.5802612;-;-;-;-;-;-;-;-;-;-;-;-;-;-;-
1514103618369;-;-;8.8997345;-0.47505188;-2.6556854;-;-;-;-;-;-;-;-;-;-;-;-;-;-;-
1514103618389;-;-;8.903336;-0.49661255;-2.6089935;-;-;-;-;-;-;-;-;-;-;-;-;-;-;-
1514103618410;-;-;8.835098;-0.49421692;-2.5599213;-;-;-;-;-;-;-;-;-;-;-;-;-;-;-
1514103618430;-;-;8.799179;-0.51934814;-2.642517;-;-;-;-;-;-;-;-;-;-;-;-;-;-;-
1514103618450;-;-;8.829102;-0.49661255;-2.73349;-;-;-;-;-;-;-;-;-;-;-;-;-;-;-
1514103618471;-;-;8.927277;-0.45948792;-2.7694092;-;-;-;-;-;-;-;-;-;-;-;-;-;-;-
1514103618491;-;-;8.960785;-0.36372375;-2.7658234;-;-;-;-;-;-;-;-;-;-;-;-;-;-;-
1514103618511;-;-;8.849457;-0.32901;-2.7454681;-;-;-;-;-;-;-;-;-;-;-;-;-;-;-
1514103618531;-;-;8.735733;-0.4666748;-2.7622223;-;-;-;-;-;-;-;-;-;-;-;-;-;-;-
1514103618552;-;-;8.780029;-0.5504761;-2.8508148;-;-;-;-;-;-;-;-;-;-;-;-;-;-;-
1514103618572;-;-;8.890167;-0.5337219;-2.8388367;-;-;-;-;-;-;-;-;-;-;-;-;-;-;-
1514103618592;-;-;8.905716;-0.56604004;-2.8460236;-;-;-;-;-;-;-;-;-;-;-;-;-;-;-
1514103618613;-;-;8.959595;-0.581604;-2.6784363;-;-;-;-;-;-;-;-;-;-;-;-;-;-;-
1514103618633;-;-;8.938049;-0.5600586;-2.5252075;-;-;-;-;-;-;-;-;-;-;-;-;-;-;-
1514103618653;-;-;8.888962;-0.51216125;-2.4318237;-;-;-;-;-;-;-;-;-;-;-;-;-;-;-
1514103618674;-;-;8.84108;-0.6031494;-2.491684;-;-;-;-;-;-;-;-;-;-;-;-;-;-;-
1514103618694;-;-;8.885376;-0.636673;-2.546753;-;-;-;-;-;-;-;-;-;-;-;-;-;-;-
1514103618714;-;-;8.854248;-0.64863586;-2.5431519;-;-;-;-;-;-;-;-;-;-;-;-;-;-;-
1514103618734;-;-;8.782425;-0.58758545;-2.4378052;-;-;-;-;-;-;-;-;-;-;-;-;-;-;-
1514103618755;-;-;8.754883;-0.48104858;-2.3516235;-;-;-;-;-;-;-;-;-;-;-;-;-;-;-
1514103618775;-;-;8.748901;-0.4846344;-2.3995056;-;-;-;-;-;-;-;-;-;-;-;-;-;-;-
1514103618795;-;-;8.857834;-0.44992065;-2.467743;-;-;-;-;-;-;-;-;-;-;-;-;-;-;-
1514103618816;-;-;8.914108;-0.41400146;-2.6113892;-;-;-;-;-;-;-;-;-;-;-;-;-;-;-
1514103618836;-;-;8.885376;-0.42956543;-2.7275085;-;-;-;-;-;-;-;-;-;-;-;-;-;-;-
1514103618856;-;-;8.782425;-0.4774475;-2.71315;-;-;-;-;-;-;-;-;-;-;-;-;-;-;-
1514103618876;-;-;8.857834;-0.5456848;-2.625763;-;-;-;-;-;-;-;-;-;-;-;-;-;-;-
1514103618897;-;-;8.892548;-0.54089355;-2.6233673;-;-;-;-;-;-;-;-;-;-;-;-;-;-;-
1514103618917;-;-;8.8997345;-0.5444946;-2.6042023;-;-;-;-;-;-;-;-;-;-;-;-;-;-;-
1514103618938;-;-;8.856644;-0.6330719;-2.5419617;-;-;-;-;-;-;-;-;-;-;-;-;-;-;-
1514103618958;-;-;8.838684;-0.6582184;-2.5814667;-;-;-;-;-;-;-;-;-;-;-;-;-;-;-
1514103618978;-;-;8.84227;-0.64863586;-2.5323792;-;-;-;-;-;-;-;-;-;-;-;-;-;-;-
1514103618998;-;-;8.898544;-0.65940857;-2.6197662;-;-;-;-;-;-;-;-;-;-;-;-;-;-;-
1514103619019;-;-;8.898544;-0.6701813;-2.8077087;-;-;-;-;-;-;-;-;-;-;-;-;-;-;-
1514103619038;-;-;8.90094;-0.61750793;-2.7478638;-;-;-;-;-;-;-;-;-;-;-;-;-;-;-
1514103619058;-;-;8.808762;-0.5756073;-2.7514496;-;-;-;-;-;-;-;-;-;-;-;-;-;-;-
1514103619078;-;-;8.710602;-0.5157623;-2.7406769;-;-;-;-;-;-;-;-;-;-;-;-;-;-;-
1514103619099;-;-;8.651932;-0.4846344;-2.6688538;-;-;-;-;-;-;-;-;-;-;-;-;-;-;-
1514103619119;-;-;8.704605;-0.5648346;-2.6365356;-;-;-;-;-;-;-;-;-;-;-;-;-;-;-
1514103619139;-;-;8.807556;-0.5205536;-2.6628723;-;-;-;-;-;-;-;-;-;-;-;-;-;-;-
1514103619160;-;-;8.911713;-0.52893066;-2.6604767;-;-;-;-;-;-;-;-;-;-;-;-;-;-;-
1514103619179;-;-;8.938049;-0.56243896;-2.693985;-;-;-;-;-;-;-;-;-;-;-;-;-;-;-
1514103619199;-;-;8.898544;-0.59835815;-2.6676483;-;-;-;-;-;-;-;-;-;-;-;-;-;-;-
1514103619220;-;-;8.790802;-0.55766296;-2.6772308;-;-;-;-;-;-;-;-;-;-;-;-;-;-;-
1514103619240;-;-;8.632782;-0.54927063;-2.5371704;-;-;-;-;-;-;-;-;-;-;-;-;-;-;-
1514103619260;-;-;8.690247;-0.6079407;-2.5682983;-;-;-;-;-;-;-;-;-;-;-;-;-;-;-
1514103619280;-;-;8.815933;-0.65582275;-2.606598;-;-;-;-;-;-;-;-;-;-;-;-;-;-;-
1514103619300;-;-;9.020645;-0.6797638;-2.6365356;-;-;-;-;-;-;-;-;-;-;-;-;-;-;-
1514103619321;-;-;9.074509;-0.61750793;-2.6832123;-;-;-;-;-;-;-;-;-;-;-;-;-;-;-
1514103619341;-;-;8.970367;-0.5133667;-2.6137848;-;-;-;-;-;-;-;-;-;-;-;-;-;-;-
1514103619361;-;-;8.84227;-0.42837524;-2.5718842;-;-;-;-;-;-;-;-;-;-;-;-;-;-;-
1514103619382;-;-;8.774048;-0.4343567;-2.5742798;-;-;-;-;-;-;-;-;-;-;-;-;-;-;-
1514103619402;-;-;8.845871;-0.45231628;-2.5934296;-;-;-;-;-;-;-;-;-;-;-;-;-;-;-
1514103619422;-;-;8.850662;-0.46788025;-2.6473083;-;-;-;-;-;-;-;-;-;-;-;-;-;-;-
1514103619443;-;-;8.849457;-0.4163971;-2.6880035;-;-;-;-;-;-;-;-;-;-;-;-;-;-;-
1514103619463;-;-;8.885376;-0.41041565;-2.7478638;-;-;-;-;-;-;-;-;-;-;-;-;-;-;-
1514103619483;-;-;8.854248;-0.36372375;-2.749054;-;-;-;-;-;-;-;-;-;-;-;-;-;-;-
1514103619503;-;-;8.825516;-0.3864746;-2.6508942;-;-;-;-;-;-;-;-;-;-;-;-;-;-;-
1514103619523;-;-;8.797989;-0.4882202;-2.6628723;-;-;-;-;-;-;-;-;-;-;-;-;-;-;-
1514103619543;-;-;8.853058;-0.5935669;-2.6796265;-;-;-;-;-;-;-;-;-;-;-;-;-;-;-
1514103619563;-;-;8.908112;-0.5205536;-2.6245575;-;-;-;-;-;-;-;-;-;-;-;-;-;-;-
1514103619584;-;-;8.908112;-0.4559021;-2.5299835;-;-;-;-;-;-;-;-;-;-;-;-;-;-;-
1514103619604;-;-;8.832703;-0.45829773;-2.5407562;-;-;-;-;-;-;-;-;-;-;-;-;-;-;-
1514103619624;-;-;8.786011;-0.5780029;-2.522812;-;-;-;-;-;-;-;-;-;-;-;-;-;-;-
1514103619645;-;-;8.888962;-0.6187134;-2.3875275;-;-;-;-;-;-;-;-;-;-;-;-;-;-;-
1514103619665;-;-;8.903336;-0.47865295;-2.4593658;-;-;-;-;-;-;-;-;-;-;-;-;-;-;-
1514103619685;-;-;8.888962;-0.3876648;-2.539566;-;-;-;-;-;-;-;-;-;-;-;-;-;-;-
1514103619704;-;-;8.851852;-0.3697052;-2.5060425;-;-;-;-;-;-;-;-;-;-;-;-;-;-;-
1514103619724;-;-;8.892548;-0.4259796;-2.4234467;-;-;-;-;-;-;-;-;-;-;-;-;-;-;-
1514103619745;-;-;8.90094;-0.49301147;-2.5718842;-;-;-;-;-;-;-;-;-;-;-;-;-;-;-
1514103619765;-;-;8.876999;-0.51097107;-2.4090881;-;-;-;-;-;-;-;-;-;-;-;-;-;-;-
1514103619785;-;-;8.959595;-0.47865295;-2.1936035;-;-;-;-;-;-;-;-;-;-;-;-;-;-;-
1514103619805;-;-;8.971558;-0.42358398;-2.4533691;-;-;-;-;-;-;-;-;-;-;-;-;-;-;-
1514103619826;-;-;8.935654;-0.3649292;-2.7454681;-;-;-;-;-;-;-;-;-;-;-;-;-;-;-
1514103619846;-;-;8.935654;-0.2966919;-2.6317444;-;-;-;-;-;-;-;-;-;-;-;-;-;-;-
1514103619866;-;-;8.884171;-0.46188354;-2.5096436;-;-;-;-;-;-;-;-;-;-;-;-;-;-;-
1514103619887;-;-;8.905716;-0.61750793;-2.5168152;-;-;-;-;-;-;-;-;-;-;-;-;-;-;-
1514103619907;-;-;8.829102;-0.5504761;-2.4402008;-;-;-;-;-;-;-;-;-;-;-;-;-;-;-
1514103619927;-;-;8.655533;-0.5444946;-2.3252869;-;-;-;-;-;-;-;-;-;-;-;-;-;-;-
1514103619948;-;-;8.691437;-0.6139221;-2.3133087;-;-;-;-;-;-;-;-;-;-;-;-;-;-;-
1514103619968;-;-;8.903336;-0.6187134;-2.3384552;-;-;-;-;-;-;-;-;-;-;-;-;-;-;-
1514103619988;-;-;9.134369;-0.6294861;-2.3647919;-;-;-;-;-;-;-;-;-;-;-;-;-;-;-
1514103620008;-;-;9.117615;-0.6103363;-2.3635864;-;-;-;-;-;-;-;-;-;-;-;-;-;-;-
1514103620029;-;-;9.021835;-0.6294861;-2.4234467;-;-;-;-;-;-;-;-;-;-;-;-;-;-;-
1514103620049;-;-;8.894943;-0.55526733;-2.3444366;-;-;-;-;-;-;-;-;-;-;-;-;-;-;-
1514103620071;-;-;8.849457;-0.5049896;-2.223526;-;-;-;-;-;-;-;-;-;-;-;-;-;-;-
1514103620091;-;-;8.82193;-0.5648346;-2.1888123;-;-;-;-;-;-;-;-;-;-;-;-;-;-;-
1514103620112;-;-;8.890167;-0.6821594;-2.3073273;-;-;-;-;-;-;-;-;-;-;-;-;-;-;-
1514103620132;-;-;8.910507;-0.67378235;-2.4892883;-;-;-;-;-;-;-;-;-;-;-;-;-;-;-
1514103620152;-;-;8.90094;-0.55885315;-2.5491486;-;-;-;-;-;-;-;-;-;-;-;-;-;-;-
1514103620172;-;-;8.92128;-0.45948792;-2.515625;-;-;-;-;-;-;-;-;-;-;-;-;-;-;-
1514103620193;-;-;8.946426;-0.3768921;-2.4749146;-;-;-;-;-;-;-;-;-;-;-;-;-;-;-
1514103620213;-;-;8.92128;-0.40083313;-2.405487;-;-;-;-;-;-;-;-;-;-;-;-;-;-;-
1514103620233;-;-;8.859039;-0.45350647;-2.5252075;-;-;-;-;-;-;-;-;-;-;-;-;-;-;-
1514103620253;-;-;8.868607;-0.5205536;-2.5682983;-;-;-;-;-;-;-;-;-;-;-;-;-;-;-
1514103620273;-;-;8.8602295;-0.49301147;-2.483307;-;-;-;-;-;-;-;-;-;-;-;-;-;-;-
1514103620294;-;-;8.892548;-0.4547119;-2.5527344;-;-;-;-;-;-;-;-;-;-;-;-;-;-;-
1514103620313;-;-;8.92128;-0.42837524;-2.606598;-;-;-;-;-;-;-;-;-;-;-;-;-;-;-
1514103620333;-;-;8.934448;-0.38407898;-2.5371704;-;-;-;-;-;-;-;-;-;-;-;-;-;-;-
1514103620354;-;-;8.863831;-0.38887024;-2.591034;-;-;-;-;-;-;-;-;-;-;-;-;-;-;-
1514103620374;-;-;8.859039;-0.4056244;-2.6916046;-;-;-;-;-;-;-;-;-;-;-;-;-;-;-
1514103620394;-;-;8.869812;-0.48703003;-2.6293488;-;-;-;-;-;-;-;-;-;-;-;-;-;-;-
1514103620415;-;-;8.885376;-0.53730774;-2.6520996;-;-;-;-;-;-;-;-;-;-;-;-;-;-;-
1514103620435;-;-;8.912903;-0.5253296;-2.7083588;-;-;-;-;-;-;-;-;-;-;-;-;-;-;-
1514103620455;-;-;8.872208;-0.49301147;-2.71315;-;-;-;-;-;-;-;-;-;-;-;-;-;-;-
1514103620475;-;-;8.770447;-0.4343567;-2.6437073;-;-;-;-;-;-;-;-;-;-;-;-;-;-;-
1514103620496;-;-;8.84108;-0.45829773;-2.709549;-;-;-;-;-;-;-;-;-;-;-;-;-;-;-
1514103620515;-;-;8.7417145;-0.40322876;-2.73349;-;-;-;-;-;-;-;-;-;-;-;-;-;-;-
1514103620535;-;-;8.745316;-0.3984375;-2.6724396;-;-;-;-;-;-;-;-;-;-;-;-;-;-;-
1514103620556;-;-;8.887772;-0.44154358;-2.665268;-;-;-;-;-;-;-;-;-;-;-;-;-;-;-
1514103620576;-;-;8.542999;-0.3074646;-2.883133;-;-;-;-;-;-;-;-;-;-;-;-;-;-;-
1514103620596;-;-;8.827911;-0.3972473;-2.7239227;-;-;-;-;-;-;-;-;-;-;-;-;-;-;-
1514103620617;-;-;8.775238;-0.368515;-2.8137054;-;-;-;-;-;-;-;-;-;-;-;-;-;-;-
1514103620637;-;-;8.82312;-0.36253357;-2.816101;-;-;-;-;-;-;-;-;-;-;-;-;-;-;-
1514103620657;-;-;8.876999;-0.41041565;-2.6604767;-;-;-;-;-;-;-;-;-;-;-;-;-;-;-
1514103620677;-;-;8.909317;-0.49301147;-2.5814667;-;-;-;-;-;-;-;-;-;-;-;-;-;-;-
1514103620698;-;-;8.932053;-0.52893066;-2.6676483;-;-;-;-;-;-;-;-;-;-;-;-;-;-;-
1514103620718;-;-;8.875793;-0.51097107;-2.7634277;-;-;-;-;-;-;-;-;-;-;-;-;-;-;-
1514103620738;-;-;8.796783;-0.40203857;-2.7047577;-;-;-;-;-;-;-;-;-;-;-;-;-;-;-
1514103620759;-;-;8.801575;-0.42237854;-2.6868134;-;-;-;-;-;-;-;-;-;-;-;-;-;-;-
1514103620779;-;-;8.775238;-0.51216125;-2.6628723;-;-;-;-;-;-;-;-;-;-;-;-;-;-;-
1514103620799;-;-;8.799179;-0.5708313;-2.6281433;-;-;-;-;-;-;-;-;-;-;-;-;-;-;-
1514103620819;-;-;8.8602295;-0.5827942;-2.6137848;-;-;-;-;-;-;-;-;-;-;-;-;-;-;-
1514103620840;-;-;8.849457;-0.59716797;-2.618576;-;-;-;-;-;-;-;-;-;-;-;-;-;-;-
1514103620860;-;-;8.848267;-0.48703003;-2.5766754;-;-;-;-;-;-;-;-;-;-;-;-;-;-;-
1514103620880;-;-;8.881775;-0.43675232;-2.5539246;-;-;-;-;-;-;-;-;-;-;-;-;-;-;-
1514103620900;-;-;8.910507;-0.3768921;-2.6209717;-;-;-;-;-;-;-;-;-;-;-;-;-;-;-
1514103620920;-;-;8.8003845;-0.3768921;-2.5539246;-;-;-;-;-;-;-;-;-;-;-;-;-;-;-
1514103620941;-;-;8.875793;-0.47265625;-2.4617462;-;-;-;-;-;-;-;-;-;-;-;-;-;-;-
1514103620961;-;-;8.92128;-0.5253296;-2.4342194;-;-;-;-;-;-;-;-;-;-;-;-;-;-;-
1514103620981;-;-;8.955994;-0.5648346;-2.5802612;-;-;-;-;-;-;-;-;-;-;-;-;-;-;-
1514103621002;-;-;8.997894;-0.42237854;-2.7059631;-;-;-;-;-;-;-;-;-;-;-;-;-;-;-
1514103621022;-;-;8.947617;-0.19732666;-2.6520996;-;-;-;-;-;-;-;-;-;-;-;-;-;-;-
1514103621042;-;-;8.970367;-0.23324585;-2.5144196;-;-;-;-;-;-;-;-;-;-;-;-;-;-;-
1514103621062;-;-;9.002686;-0.3972473;-2.4342194;-;-;-;-;-;-;-;-;-;-;-;-;-;-;-
1514103621083;-;-;8.738129;-0.49061584;-2.4569702;-;-;-;-;-;-;-;-;-;-;-;-;-;-;-
1514103621103;-;-;8.649536;-0.53012085;-2.483307;-;-;-;-;-;-;-;-;-;-;-;-;-;-;-
1514103621123;-;-;8.732147;-0.44154358;-2.3983002;-;-;-;-;-;-;-;-;-;-;-;-;-;-;-
1514103621144;-;-;8.815933;-0.39485168;-2.3540192;-;-;-;-;-;-;-;-;-;-;-;-;-;-;-
1514103621164;-;-;8.90213;-0.41400146;-2.3923187;-;-;-;-;-;-;-;-;-;-;-;-;-;-;-
1514103621184;-;-;8.965576;-0.3649292;-2.539566;-;-;-;-;-;-;-;-;-;-;-;-;-;-;-
1514103621204;-;-;8.97995;-0.3146515;-2.5192108;-;-;-;-;-;-;-;-;-;-;-;-;-;-;-
1514103621225;-;-;8.96199;-0.25;-2.5383606;-;-;-;-;-;-;-;-;-;-;-;-;-;-;-
1514103621246;-;-;9.017059;-0.17338562;-2.522812;-;-;-;-;-;-;-;-;-;-;-;-;-;-;-
1514103621266;-;-;9.023041;-0.15542603;-2.4557648;-;-;-;-;-;-;-;-;-;-;-;-;-;-;-
1514103621286;-;-;8.995499;-0.11114502;-2.3875275;-;-;-;-;-;-;-;-;-;-;-;-;-;-;-
1514103621307;-;-;8.928467;-0.19134521;-2.4006958;-;-;-;-;-;-;-;-;-;-;-;-;-;-;-
1514103621326;-;-;8.833893;-0.22845459;-2.4186554;-;-;-;-;-;-;-;-;-;-;-;-;-;-;-
1514103621346;-;-;8.783615;-0.2679596;-2.4378052;-;-;-;-;-;-;-;-;-;-;-;-;-;-;-
1514103621366;-;-;8.8207245;-0.19134521;-2.4952698;-;-;-;-;-;-;-;-;-;-;-;-;-;-;-
1514103621387;-;-;8.829102;-0.117126465;-2.4533691;-;-;-;-;-;-;-;-;-;-;-;-;-;-;-
1514103621407;-;-;8.799179;-0.13986206;-2.2211304;-;-;-;-;-;-;-;-;-;-;-;-;-;-;-
1514103621428;-;-;8.827911;-0.25;-2.0870667;-;-;-;-;-;-;-;-;-;-;-;-;-;-;-
1514103621448;-;-;8.809952;-0.2859192;-2.207962;-;-;-;-;-;-;-;-;-;-;-;-;-;-;-
1514103621468;-;-;8.770447;-0.3002777;-2.349228;-;-;-;-;-;-;-;-;-;-;-;-;-;-;-
1514103621488;-;-;8.865021;-0.27633667;-2.3216858;-;-;-;-;-;-;-;-;-;-;-;-;-;-;-
1514103621509;-;-;8.940445;-0.210495;-2.3767548;-;-;-;-;-;-;-;-;-;-;-;-;-;-;-
1514103621529;-;-;8.917694;-0.105148315;-2.373169;-;-;-;-;-;-;-;-;-;-;-;-;-;-;-
1514103621549;-;-;8.910507;-0.06803894;-2.3695831;-;-;-;-;-;-;-;-;-;-;-;-;-;-;-
1514103621569;-;-;8.851852;-0.10395813;-2.4749146;-;-;-;-;-;-;-;-;-;-;-;-;-;-;-
1514103621589;-;-;8.875793;-0.095581055;-2.546753;-;-;-;-;-;-;-;-;-;-;-;-;-;-;-
1514103621609;-;-;8.878189;-0.06564331;-2.6508942;-;-;-;-;-;-;-;-;-;-;-;-;-;-;-
1514103621630;-;-;8.92009;-0.064453125;-2.6377258;-;-;-;-;-;-;-;-;-;-;-;-;-;-;-
1514103621650;-;-;8.914108;0.013366699;-2.5802612;-;-;-;-;-;-;-;-;-;-;-;-;-;-;-
1514103621671;-;-;8.884171;0.2803192;-3.0112305;-;-;-;-;-;-;-;-;-;-;-;-;-;-;-
1514103621691;-;-;9.096069;-1.4159851;-3.2614136;-;-;-;-;-;-;-;-;-;-;-;-;-;-;-
1514103621711;-;-;9.195419;-1.5332947;-3.5235748;-;-;-;-;-;-;-;-;-;-;-;-;-;-;-
1514103621732;-;-;8.875793;-0.9371338;-2.8184967;-;-;-;-;-;-;-;-;-;-;-;-;-;-;-
1514103621752;-;-;8.083313;-0.5612488;-2.5323792;-;-;-;-;-;-;-;-;-;-;-;-;-;-;-
1514103621772;-;-;8.150345;-0.042907715;-2.1193848;-;-;-;-;-;-;-;-;-;-;-;-;-;-;-
1514103621793;-;-;8.76207;0.5460663;-2.8723602;-;-;-;-;-;-;-;-;-;-;-;-;-;-;-
1514103621813;-;-;9.4887085;0.45269775;-2.737091;-;-;-;-;-;-;-;-;-;-;-;-;-;-;-
1514103621833;-;-;9.390549;-0.19972229;-2.5096436;-;-;-;-;-;-;-;-;-;-;-;-;-;-;-
1514103621853;-;-;8.952408;-0.53970337;-2.8053284;-;-;-;-;-;-;-;-;-;-;-;-;-;-;-
1514103621874;-;-;8.661514;0.050476074;-2.962143;-;-;-;-;-;-;-;-;-;-;-;-;-;-;-
1514103621894;-;-;8.659119;0.29588318;-2.939392;-;-;-;-;-;-;-;-;-;-;-;-;-;-;-
1514103621914;-;-;9.00029;0.05406189;-2.852005;-;-;-;-;-;-;-;-;-;-;-;-;-;-;-
1514103621935;-;-;9.182251;-0.06564331;-2.5659027;-;-;-;-;-;-;-;-;-;-;-;-;-;-;-
1514103621954;-;-;9.199005;-0.2799225;-2.4593658;-;-;-;-;-;-;-;-;-;-;-;-;-;-;-
1514103621974;-;-;9.122391;-0.48703003;-2.55513;-;-;-;-;-;-;-;-;-;-;-;-;-;-;-
1514103621995;-;-;9.0182495;-0.39006042;-2.6688538;-;-;-;-;-;-;-;-;-;-;-;-;-;-;-
1514103622014;-;-;8.799179;-0.20570374;-2.5898438;-;-;-;-;-;-;-;-;-;-;-;-;-;-;-
1514103622034;-;-;8.627991;-0.117126465;-2.5850525;-;-;-;-;-;-;-;-;-;-;-;-;-;-;-
1514103622054;-;-;8.547791;-0.121917725;-2.483307;-;-;-;-;-;-;-;-;-;-;-;-;-;-;-
1514103622075;-;-;8.606445;-0.21768188;-2.4857025;-;-;-;-;-;-;-;-;-;-;-;-;-;-;-
1514103622095;-;-;8.736938;-0.18296814;-2.294159;-;-;-;-;-;-;-;-;-;-;-;-;-;-;-
1514103622115;-;-;8.813553;-0.15542603;-2.3300781;-;-;-;-;-;-;-;-;-;-;-;-;-;-;-
1514103622136;-;-;8.793198;-0.3397827;-2.4222565;-;-;-;-;-;-;-;-;-;-;-;-;-;-;-
1514103622155;-;-;8.928467;-0.4559021;-2.5287933;-;-;-;-;-;-;-;-;-;-;-;-;-;-;-
1514103622175;-;-;8.916504;-0.58399963;-2.452179;-;-;-;-;-;-;-;-;-;-;-;-;-;-;-
1514103622196;-;-;8.935654;-0.59716797;-2.5922394;-;-;-;-;-;-;-;-;-;-;-;-;-;-;-
1514103622215;-;-;8.871002;-0.5432892;-2.6927948;-;-;-;-;-;-;-;-;-;-;-;-;-;-;-
1514103622235;-;-;8.729752;-0.34576416;-2.7275085;-;-;-;-;-;-;-;-;-;-;-;-;-;-;-
1514103622256;-;-;8.750107;-0.23564148;-2.776596;-;-;-;-;-;-;-;-;-;-;-;-;-;-;-
1514103622275;-;-;9.329498;-0.02734375;-2.9585571;-;-;-;-;-;-;-;-;-;-;-;-;-;-;-
1514103622295;-;-;9.076904;0.2300415;-2.9082794;-;-;-;-;-;-;-;-;-;-;-;-;-;-;-
1514103622315;-;-;8.674683;-0.069244385;-3.1620636;-;-;-;-;-;-;-;-;-;-;-;-;-;-;-
1514103622336;-;-;8.777634;-0.6115265;-2.717926;-;-;-;-;-;-;-;-;-;-;-;-;-;-;-
1514103622356;-;-;9.064941;-0.9048157;-2.4390106;-;-;-;-;-;-;-;-;-;-;-;-;-;-;-
1514103622376;-;-;9.137955;-0.8641205;-2.2642365;-;-;-;-;-;-;-;-;-;-;-;-;-;-;-
1514103622397;-;-;8.772842;-0.7084961;-2.5443573;-;-;-;-;-;-;-;-;-;-;-;-;-;-;-
1514103622417;-;-;8.837494;-0.62828064;-2.5359802;-;-;-;-;-;-;-;-;-;-;-;-;-;-;-
1514103622437;-;-;8.845871;-0.52653503;-2.6437073;-;-;-;-;-;-;-;-;-;-;-;-;-;-;-
1514103622458;-;-;8.938049;-0.13388062;-2.97052;-;-;-;-;-;-;-;-;-;-;-;-;-;-;-
1514103622478;-;-;8.667496;0.24559021;-2.776596;-;-;-;-;-;-;-;-;-;-;-;-;-;-;-
1514103622498;-;-;8.557373;0.3796692;-2.6353302;-;-;-;-;-;-;-;-;-;-;-;-;-;-;-
1514103622518;-;-;8.558563;-0.08241272;-2.4988708;-;-;-;-;-;-;-;-;-;-;-;-;-;-;-
1514103622539;-;-;8.513077;-0.7515869;-2.3623962;-;-;-;-;-;-;-;-;-;-;-;-;-;-;-
1514103622559;-;-;8.7417145;-0.88087463;-2.4653473;-;-;-;-;-;-;-;-;-;-;-;-;-;-;-
1514103622581;-;-;8.752487;-0.46907043;-2.7107544;-;-;-;-;-;-;-;-;-;-;-;-;-;-;-
1514103622600;-;-;8.614822;-0.21768188;-2.9537659;-;-;-;-;-;-;-;-;-;-;-;-;-;-;-
1514103622620;-;-;8.570541;-0.012969971;-2.9693298;-;-;-;-;-;-;-;-;-;-;-;-;-;-;-
1514103622641;-;-;8.82312;0.27911377;-3.0746765;-;-;-;-;-;-;-;-;-;-;-;-;-;-;-
1514103622661;-;-;8.789597;0.28390503;-3.0243835;-;-;-;-;-;-;-;-;-;-;-;-;-;-;-
1514103622681;-;-;8.447235;0.14624023;-3.0603027;-;-;-;-;-;-;-;-;-;-;-;-;-;-;-
1514103622702;-;-;8.007904;1.9836426E-4;-3.0375519;-;-;-;-;-;-;-;-;-;-;-;-;-;-;-
1514103622722;-;-;7.7457275;-0.100372314;-2.7670135;-;-;-;-;-;-;-;-;-;-;-;-;-;-;-
1514103622742;-;-;7.7301636;-0.20930481;-2.6089935;-;-;-;-;-;-;-;-;-;-;-;-;-;-;-
1514103622762;-;-;7.9935303;-0.33499146;-2.5838623;-;-;-;-;-;-;-;-;-;-;-;-;-;-;-
1514103622782;-;-;8.333511;-0.5444946;-2.6832123;-;-;-;-;-;-;-;-;-;-;-;-;-;-;-
1514103622803;-;-;8.578918;-0.7216644;-2.7849731;-;-;-;-;-;-;-;-;-;-;-;-;-;-;-
1514103622823;-;-;9.3546295;-1.0197449;-2.717926;-;-;-;-;-;-;-;-;-;-;-;-;-;-;-
1514103622843;-;-;9.9783325;-1.0963593;-2.8903198;-;-;-;-;-;-;-;-;-;-;-;-;-;-;-
1514103622863;-;-;10.268021;-0.8772888;-3.1321259;-;-;-;-;-;-;-;-;-;-;-;-;-;-;-
1514103622884;-;-;10.094437;-0.56962585;-3.5068207;-;-;-;-;-;-;-;-;-;-;-;-;-;-;-
1514103622903;-;-;9.6622925;-0.09677124;-3.6085815;-;-;-;-;-;-;-;-;-;-;-;-;-;-;-
1514103622924;-;-;8.876999;0.18214417;-3.3919067;-;-;-;-;-;-;-;-;-;-;-;-;-;-;-
1514103622944;-;-;8.138382;0.1845398;-3.1776276;-;-;-;-;-;-;-;-;-;-;-;-;-;-;-
1514103622965;-;-;7.9743805;0.079193115;-3.2494507;-;-;-;-;-;-;-;-;-;-;-;-;-;-;-
1514103622985;-;-;8.262878;0.095962524;-3.2793732;-;-;-;-;-;-;-;-;-;-;-;-;-;-;-
1514103623005;-;-;8.551376;0.20370483;-3.1871948;-;-;-;-;-;-;-;-;-;-;-;-;-;-;-
1514103623025;-;-;8.771652;0.14144897;-3.322464;-;-;-;-;-;-;-;-;-;-;-;-;-;-;-
1514103623046;-;-;8.720169;0.08998108;-3.4038696;-;-;-;-;-;-;-;-;-;-;-;-;-;-;-
1514103623066;-;-;8.58609;0.06842041;-3.449356;-;-;-;-;-;-;-;-;-;-;-;-;-;-;-
1514103623086;-;-;8.469971;-0.0010070801;-3.381134;-;-;-;-;-;-;-;-;-;-;-;-;-;-;-
1514103623107;-;-;8.571732;0.0013885498;-3.2650146;-;-;-;-;-;-;-;-;-;-;-;-;-;-;-
1514103623127;-;-;8.734543;0.32939148;-3.322464;-;-;-;-;-;-;-;-;-;-;-;-;-;-;-
1514103623148;-;-;8.824326;0.71606445;-3.5331573;-;-;-;-;-;-;-;-;-;-;-;-;-;-;-
1514103623168;-;-;8.808762;1.0296936;-3.6791992;-;-;-;-;-;-;-;-;-;-;-;-;-;-;-
1514103623188;-;-;8.954803;0.9243469;-3.5822449;-;-;-;-;-;-;-;-;-;-;-;-;-;-;-
1514103623208;-;-;9.063736;0.46228027;-3.4756927;-;-;-;-;-;-;-;-;-;-;-;-;-;-;-
1514103623229;-;-;8.833893;-0.3182373;-3.28656;-;-;-;-;-;-;-;-;-;-;-;-;-;-;-
1514103623249;-;-;8.538208;-0.8760834;-2.9896698;-;-;-;-;-;-;-;-;-;-;-;-;-;-;-
1514103623269;-;-;8.365829;-1.0867767;-2.7382813;-;-;-;-;-;-;-;-;-;-;-;-;-;-;-
1514103623289;-;-;8.413712;-1.0221252;-2.768219;-;-;-;-;-;-;-;-;-;-;-;-;-;-;-
1514103623310;-;-;8.639969;-0.8641205;-2.749054;-;-;-;-;-;-;-;-;-;-;-;-;-;-;-
1514103623330;-;-;8.863831;-0.55885315;-2.8819427;-;-;-;-;-;-;-;-;-;-;-;-;-;-;-
1514103623349;-;-;8.879379;-0.5097656;-2.879547;-;-;-;-;-;-;-;-;-;-;-;-;-;-;-
1514103623369;-;-;8.759674;-0.5277252;-3.0004425;-;-;-;-;-;-;-;-;-;-;-;-;-;-;-
1514103623389;-;-;8.436462;-0.093185425;-3.4026794;-;-;-;-;-;-;-;-;-;-;-;-;-;-;-
1514103623410;-;-;8.341888;0.40361023;-3.6983643;-;-;-;-;-;-;-;-;-;-;-;-;-;-;-
1514103623430;-;-;8.620819;0.6454315;-3.8851013;-;-;-;-;-;-;-;-;-;-;-;-;-;-;-
1514103623450;-;-;8.867416;0.33299255;-4.1269226;-;-;-;-;-;-;-;-;-;-;-;-;-;-;-
1514103623470;-;-;8.807556;0.08279419;-3.9760895;-;-;-;-;-;-;-;-;-;-;-;-;-;-;-
1514103623490;-;-;8.436462;-0.078811646;-3.5223846;-;-;-;-;-;-;-;-;-;-;-;-;-;-;-
1514103623511;-;-;8.116837;-0.34936523;-3.033966;-;-;-;-;-;-;-;-;-;-;-;-;-;-;-
1514103623531;-;-;8.112045;-0.53012085;-2.757431;-;-;-;-;-;-;-;-;-;-;-;-;-;-;-
1514103623551;-;-;8.316742;-0.7312317;-2.6963806;-;-;-;-;-;-;-;-;-;-;-;-;-;-;-
1514103623572;-;-;8.739319;-0.7551727;-2.71315;-;-;-;-;-;-;-;-;-;-;-;-;-;-;-
1514103623592;-;-;8.991913;-0.67378235;-2.8819427;-;-;-;-;-;-;-;-;-;-;-;-;-;-;-
1514103623612;-;-;9.067337;-0.47865295;-3.073471;-;-;-;-;-;-;-;-;-;-;-;-;-;-;-
1514103623633;-;-;9.1128235;-0.24760437;-3.3248596;-;-;-;-;-;-;-;-;-;-;-;-;-;-;-
1514103623653;-;-;8.996704;0.03012085;-3.4146423;-;-;-;-;-;-;-;-;-;-;-;-;-;-;-
1514103623673;-;-;8.853058;0.1558075;-3.3320465;-;-;-;-;-;-;-;-;-;-;-;-;-;-;-
1514103623694;-;-;8.728546;0.1330719;-3.3332367;-;-;-;-;-;-;-;-;-;-;-;-;-;-;-
1514103623713;-;-;8.756088;0.033706665;-3.238678;-;-;-;-;-;-;-;-;-;-;-;-;-;-;-
1514103623733;-;-;8.701019;-0.052474976;-3.3296509;-;-;-;-;-;-;-;-;-;-;-;-;-;-;-
1514103623753;-;-;8.740524;-0.02734375;-3.2793732;-;-;-;-;-;-;-;-;-;-;-;-;-;-;-
1514103623774;-;-;8.544205;0.112716675;-3.3284607;-;-;-;-;-;-;-;-;-;-;-;-;-;-;-
1514103623794;-;-;8.395752;0.18693542;-3.3128967;-;-;-;-;-;-;-;-;-;-;-;-;-;-;-
1514103623814;-;-;8.453217;0.20968628;-3.2135315;-;-;-;-;-;-;-;-;-;-;-;-;-;-;-
1514103623834;-;-;8.546585;0.08998108;-3.1620636;-;-;-;-;-;-;-;-;-;-;-;-;-;-;-
1514103623855;-;-;8.600464;0.067230225;-3.3344421;-;-;-;-;-;-;-;-;-;-;-;-;-;-;-
1514103623875;-;-;8.537018;0.03251648;-3.4266205;-;-;-;-;-;-;-;-;-;-;-;-;-;-;-
1514103623895;-;-;8.479553;-0.040512085;-3.3092957;-;-;-;-;-;-;-;-;-;-;-;-;-;-;-
1514103623916;-;-;8.458008;-0.1015625;-3.235077;-;-;-;-;-;-;-;-;-;-;-;-;-;-;-
1514103623936;-;-;8.461594;-0.08958435;-3.1153717;-;-;-;-;-;-;-;-;-;-;-;-;-;-;-
1514103623956;-;-;8.708206;-0.021362305;-3.214737;-;-;-;-;-;-;-;-;-;-;-;-;-;-;-
1514103623977;-;-;8.702209;0.0037841797;-3.346405;-;-;-;-;-;-;-;-;-;-;-;-;-;-;-
1514103623997;-;-;8.7261505;-0.0069885254;-3.44458;-;-;-;-;-;-;-;-;-;-;-;-;-;-;-
1514103624017;-;-;8.722565;-0.03213501;-3.4218292;-;-;-;-;-;-;-;-;-;-;-;-;-;-;-
1514103624038;-;-;8.701019;-0.05368042;-3.377533;-;-;-;-;-;-;-;-;-;-;-;-;-;-;-
1514103624058;-;-;8.649536;0.009765625;-3.3116913;-;-;-;-;-;-;-;-;-;-;-;-;-;-;-
1514103624079;-;-;8.639969;0.07081604;-3.3547974;-;-;-;-;-;-;-;-;-;-;-;-;-;-;-
1514103624099;-;-;8.588486;0.11631775;-3.3212738;-;-;-;-;-;-;-;-;-;-;-;-;-;-;-
1514103624121;-;-;8.56575;0.1797638;-3.3679657;-;-;-;-;-;-;-;-;-;-;-;-;-;-;-
1514103624140;-;-;8.544205;0.20489502;-3.370346;-;-;-;-;-;-;-;-;-;-;-;-;-;-;-
1514103624160;-;-;8.521454;0.29826355;-3.2721863;-;-;-;-;-;-;-;-;-;-;-;-;-;-;-
1514103624181;-;-;8.538208;0.3964386;-3.2338867;-;-;-;-;-;-;-;-;-;-;-;-;-;-;-
1514103624201;-;-;8.516663;0.40600586;-3.1476898;-;-;-;-;-;-;-;-;-;-;-;-;-;-;-
1514103624221;-;-;8.4843445;0.14144897;-3.2853546;-;-;-;-;-;-;-;-;-;-;-;-;-;-;-
1514103624241;-;-;8.452026;-0.1817627;-3.504425;-;-;-;-;-;-;-;-;-;-;-;-;-;-;-
1514103624262;-;-;8.581314;-0.3361969;-3.5606995;-;-;-;-;-;-;-;-;-;-;-;-;-;-;-
1514103624282;-;-;8.759674;-0.33738708;-3.3787384;-;-;-;-;-;-;-;-;-;-;-;-;-;-;-
1514103624302;-;-;8.865021;-0.25958252;-3.3152924;-;-;-;-;-;-;-;-;-;-;-;-;-;-;-
1514103624323;-;-;8.853058;-0.1925354;-3.4182434;-;-;-;-;-;-;-;-;-;-;-;-;-;-;-
1514103624343;-;-;8.712982;-0.1015625;-3.3978882;-;-;-;-;-;-;-;-;-;-;-;-;-;-;-
1514103624363;-;-;8.638763;-0.023742676;-3.3188782;-;-;-;-;-;-;-;-;-;-;-;-;-;-;-
1514103624383;-;-;8.637573;0.06124878;-3.3943024;-;-;-;-;-;-;-;-;-;-;-;-;-;-;-
1514103624404;-;-;8.64595;0.16778564;-3.5499115;-;-;-;-;-;-;-;-;-;-;-;-;-;-;-
1514103624424;-;-;8.64476;0.1618042;-3.5966034;-;-;-;-;-;-;-;-;-;-;-;-;-;-;-
1514103624444;-;-;8.612427;0.19770813;-3.5247803;-;-;-;-;-;-;-;-;-;-;-;-;-;-;-
1514103624465;-;-;8.534622;0.10673523;-3.4266205;-;-;-;-;-;-;-;-;-;-;-;-;-;-;-
1514103624485;-;-;8.4448395;0.02293396;-3.310501;-;-;-;-;-;-;-;-;-;-;-;-;-;-;-
1514103624505;-;-;8.46759;-0.03691101;-3.2769775;-;-;-;-;-;-;-;-;-;-;-;-;-;-;-
1514103624526;-;-;8.483139;-0.0728302;-3.159668;-;-;-;-;-;-;-;-;-;-;-;-;-;-;-
1514103624546;-;-;8.616028;-0.13388062;-3.1321259;-;-;-;-;-;-;-;-;-;-;-;-;-;-;-
1514103624566;-;-;8.736938;-0.22486877;-3.1884003;-;-;-;-;-;-;-;-;-;-;-;-;-;-;-
1514103624586;-;-;8.869812;-0.21409607;-3.2410736;-;-;-;-;-;-;-;-;-;-;-;-;-;-;-
1514103624607;-;-;8.927277;-0.1985321;-3.3164825;-;-;-;-;-;-;-;-;-;-;-;-;-;-;-
1514103624627;-;-;8.932053;-0.16619873;-3.2793732;-;-;-;-;-;-;-;-;-;-;-;-;-;-;-
1514103624647;-;-;8.836288;-0.21887207;-3.2638092;-;-;-;-;-;-;-;-;-;-;-;-;-;-;-
1514103624668;-;-;8.689041;-0.11352539;-3.346405;-;-;-;-;-;-;-;-;-;-;-;-;-;-;-
1514103624688;-;-;8.632782;0.01574707;-3.3763428;-;-;-;-;-;-;-;-;-;-;-;-;-;-;-
1514103624708;-;-;8.540604;0.06124878;-3.3907013;-;-;-;-;-;-;-;-;-;-;-;-;-;-;-
1514103624728;-;-;8.528641;0.067230225;-3.4517517;-;-;-;-;-;-;-;-;-;-;-;-;-;-;-
1514103624749;-;-;8.550186;0.05885315;-3.4266205;-;-;-;-;-;-;-;-;-;-;-;-;-;-;-
1514103624768;-;-;8.540604;0.03730774;-3.425415;-;-;-;-;-;-;-;-;-;-;-;-;-;-;-
1514103624789;-;-;8.491531;0.040893555;-3.4768982;-;-;-;-;-;-;-;-;-;-;-;-;-;-;-
1514103624809;-;-;8.459198;0.064834595;-3.3990784;-;-;-;-;-;-;-;-;-;-;-;-;-;-;-
1514103624829;-;-;8.475967;0.081588745;-3.235077;-;-;-;-;-;-;-;-;-;-;-;-;-;-;-
1514103624850;-;-;8.598068;0.13665771;-3.199173;-;-;-;-;-;-;-;-;-;-;-;-;-;-;-
1514103624870;-;-;8.613632;0.06602478;-3.235077;-;-;-;-;-;-;-;-;-;-;-;-;-;-;-
1514103624890;-;-;8.647156;-0.13986206;-3.2302856;-;-;-;-;-;-;-;-;-;-;-;-;-;-;-
1514103624910;-;-;8.6423645;-0.28231812;-3.1812134;-;-;-;-;-;-;-;-;-;-;-;-;-;-;-
1514103624931;-;-;8.708206;-0.35055542;-3.1644592;-;-;-;-;-;-;-;-;-;-;-;-;-;-;-
1514103624951;-;-;8.754883;-0.34936523;-3.2662048;-;-;-;-;-;-;-;-;-;-;-;-;-;-;-
1514103624971;-;-;8.698624;-0.32063293;-3.3404236;-;-;-;-;-;-;-;-;-;-;-;-;-;-;-
1514103624992;-;-;8.693832;-0.26556396;-3.2877502;-;-;-;-;-;-;-;-;-;-;-;-;-;-;-
1514103625013;-;-;8.629196;-0.26675415;-3.1895905;-;-;-;-;-;-;-;-;-;-;-;-;-;-;-
1514103625033;-;-;8.56575;-0.21768188;-3.183609;-;-;-;-;-;-;-;-;-;-;-;-;-;-;-
1514103625053;-;-;8.598068;-0.13148499;-3.1213531;-;-;-;-;-;-;-;-;-;-;-;-;-;-;-
1514103625074;-;-;8.685455;-0.095581055;-3.1093903;-;-;-;-;-;-;-;-;-;-;-;-;-;-;-
1514103625094;-;-;8.8003845;0.038497925;-3.1105804;-;-;-;-;-;-;-;-;-;-;-;-;-;-;-
1514103625113;-;-;8.84108;0.103149414;-3.073471;-;-;-;-;-;-;-;-;-;-;-;-;-;-;-
1514103625134;-;-;8.753693;0.14863586;-3.140503;-;-;-;-;-;-;-;-;-;-;-;-;-;-;-
1514103625154;-;-;8.68306;0.03491211;-3.1464996;-;-;-;-;-;-;-;-;-;-;-;-;-;-;-
1514103625174;-;-;8.677078;-0.052474976;-3.2003632;-;-;-;-;-;-;-;-;-;-;-;-;-;-;-
1514103625195;-;-;8.717773;-0.093185425;-3.2458496;-;-;-;-;-;-;-;-;-;-;-;-;-;-;-
1514103625215;-;-;8.808762;-0.112335205;-3.2027588;-;-;-;-;-;-;-;-;-;-;-;-;-;-;-
1514103625234;-;-;8.754883;-0.12071228;-3.1536713;-;-;-;-;-;-;-;-;-;-;-;-;-;-;-
1514103625254;-;-;8.7261505;-0.069244385;-3.20755;-;-;-;-;-;-;-;-;-;-;-;-;-;-;-
1514103625275;-;-;8.638763;-0.0440979;-3.2374725;-;-;-;-;-;-;-;-;-;-;-;-;-;-;-
1514103625294;-;-;8.60405;-0.05847168;-3.2506409;-;-;-;-;-;-;-;-;-;-;-;-;-;-;-
1514103625314;-;-;8.608841;-0.04649353;-3.2757874;-;-;-;-;-;-;-;-;-;-;-;-;-;-;-
1514103625334;-;-;8.558563;-0.021362305;-3.1979675;-;-;-;-;-;-;-;-;-;-;-;-;-;-;-
1514103625355;-;-;8.556168;0.02532959;-3.191986;-;-;-;-;-;-;-;-;-;-;-;-;-;-;-
1514103625375;-;-;8.545395;0.05885315;-3.199173;-;-;-;-;-;-;-;-;-;-;-;-;-;-;-
1514103625395;-;-;8.541809;0.083984375;-3.1620636;-;-;-;-;-;-;-;-;-;-;-;-;-;-;-
1514103625416;-;-;8.623199;0.07321167;-3.1692352;-;-;-;-;-;-;-;-;-;-;-;-;-;-;-
1514103625436;-;-;8.656723;0.08998108;-3.2027588;-;-;-;-;-;-;-;-;-;-;-;-;-;-;-
1514103625456;-;-;8.680664;0.112716675;-3.267395;-;-;-;-;-;-;-;-;-;-;-;-;-;-;-
1514103625477;-;-;8.699814;0.098358154;-3.3152924;-;-;-;-;-;-;-;-;-;-;-;-;-;-;-
1514103625497;-;-;8.702209;0.11631775;-3.3823242;-;-;-;-;-;-;-;-;-;-;-;-;-;-;-
1514103625518;-;-;8.649536;0.18334961;-3.3823242;-;-;-;-;-;-;-;-;-;-;-;-;-;-;-
1514103625538;-;-;8.595673;0.15820313;-3.4278107;-;-;-;-;-;-;-;-;-;-;-;-;-;-;-
1514103625558;-;-;8.564545;0.07800293;-3.3990784;-;-;-;-;-;-;-;-;-;-;-;-;-;-;-
1514103625578;-;-;8.522644;0.03491211;-3.3152924;-;-;-;-;-;-;-;-;-;-;-;-;-;-;-
1514103625599;-;-;8.592087;0.026535034;-3.2853546;-;-;-;-;-;-;-;-;-;-;-;-;-;-;-
1514103625619;-;-;8.636368;0.03251648;-3.3344421;-;-;-;-;-;-;-;-;-;-;-;-;-;-;-
1514103625639;-;-;8.599258;0.088775635;-3.3799286;-;-;-;-;-;-;-;-;-;-;-;-;-;-;-
1514103625659;-;-;8.625595;0.16059875;-3.3571777;-;-;-;-;-;-;-;-;-;-;-;-;-;-;-
1514103625680;-;-;8.630386;0.16059875;-3.401474;-;-;-;-;-;-;-;-;-;-;-;-;-;-;-
1514103625700;-;-;8.64595;0.11631775;-3.3571777;-;-;-;-;-;-;-;-;-;-;-;-;-;-;-
1514103625720;-;-;8.631592;0.088775635;-3.3033142;-;-;-;-;-;-;-;-;-;-;-;-;-;-;-
1514103625741;-;-;8.702209;0.11631775;-3.310501;-;-;-;-;-;-;-;-;-;-;-;-;-;-;-
1514103625761;-;-;8.750107;0.11152649;-3.3116913;-;-;-;-;-;-;-;-;-;-;-;-;-;-;-
1514103625781;-;-;8.747711;0.02532959;-3.3296509;-;-;-;-;-;-;-;-;-;-;-;-;-;-;-
1514103625802;-;-;8.625595;0.036102295;-3.2566223;-;-;-;-;-;-;-;-;-;-;-;-;-;-;-
1514103625822;-;-;8.529831;0.12709045;-3.1907806;-;-;-;-;-;-;-;-;-;-;-;-;-;-;-
1514103625842;-;-;8.588486;0.14743042;-3.2662048;-;-;-;-;-;-;-;-;-;-;-;-;-;-;-
1514103625863;-;-;8.6028595;0.16778564;-3.338028;-;-;-;-;-;-;-;-;-;-;-;-;-;-;-
1514103625883;-;-;8.619614;0.17497253;-3.3799286;-;-;-;-;-;-;-;-;-;-;-;-;-;-;-
1514103625903;-;-;8.553772;0.1043396;-3.4062653;-;-;-;-;-;-;-;-;-;-;-;-;-;-;-
1514103625923;-;-;8.610046;0.02772522;-3.389511;-;-;-;-;-;-;-;-;-;-;-;-;-;-;-
1514103625944;-;-;8.669891;0.012161255;-3.3595734;-;-;-;-;-;-;-;-;-;-;-;-;-;-;-
1514103625963;-;-;8.674683;0.038497925;-3.3488007;-;-;-;-;-;-;-;-;-;-;-;-;-;-;-
1514103625983;-;-;8.620819;0.05166626;-3.36557;-;-;-;-;-;-;-;-;-;-;-;-;-;-;-
1514103626004;-;-;8.613632;0.06842041;-3.3524017;-;-;-;-;-;-;-;-;-;-;-;-;-;-;-
1514103626023;-;-;8.578918;0.122299194;-3.2757874;-;-;-;-;-;-;-;-;-;-;-;-;-;-;-
1514103626043;-;-;8.625595;0.13186646;-3.274582;-;-;-;-;-;-;-;-;-;-;-;-;-;-;-
1514103626064;-;-;8.651932;0.13665771;-3.2554321;-;-;-;-;-;-;-;-;-;-;-;-;-;-;-
1514103626084;-;-;8.656723;-0.0021972656;-3.2805634;-;-;-;-;-;-;-;-;-;-;-;-;-;-;-
1514103626104;-;-;8.622009;-0.014175415;-3.195572;-;-;-;-;-;-;-;-;-;-;-;-;-;-;-
1514103626125;-;-;8.623199;0.02293396;-3.136917;-;-;-;-;-;-;-;-;-;-;-;-;-;-;-
1514103626145;-;-;8.6651;0.12948608;-3.2063446;-;-;-;-;-;-;-;-;-;-;-;-;-;-;-
1514103626165;-;-;8.637573;0.18933105;-3.2697906;-;-;-;-;-;-;-;-;-;-;-;-;-;-;-
1514103626186;-;-;8.613632;0.17137146;-3.2697906;-;-;-;-;-;-;-;-;-;-;-;-;-;-;-
1514103626207;-;-;8.635178;0.115112305;-3.2338867;-;-;-;-;-;-;-;-;-;-;-;-;-;-;-
1514103626227;-;-;8.678268;0.007369995;-3.2398682;-;-;-;-;-;-;-;-;-;-;-;-;-;-;-
1514103626247;-;-;8.678268;0.04447937;-3.3081055;-;-;-;-;-;-;-;-;-;-;-;-;-;-;-
1514103626268;-;-;8.715378;0.08998108;-3.2757874;-;-;-;-;-;-;-;-;-;-;-;-;-;-;-
1514103626287;-;-;8.673492;0.11392212;-3.2757874;-;-;-;-;-;-;-;-;-;-;-;-;-;-;-
1514103626307;-;-;8.614822;0.13426208;-3.282959;-;-;-;-;-;-;-;-;-;-;-;-;-;-;-
1514103626328;-;-;8.578918;0.22285461;-3.3057098;-;-;-;-;-;-;-;-;-;-;-;-;-;-;-
1514103626348;-;-;8.546585;0.20848083;-3.2961273;-;-;-;-;-;-;-;-;-;-;-;-;-;-;-
1514103626368;-;-;8.547791;0.124694824;-3.338028;-;-;-;-;-;-;-;-;-;-;-;-;-;-;-
1514103626388;-;-;8.588486;0.107925415;-3.3284607;-;-;-;-;-;-;-;-;-;-;-;-;-;-;-
1514103626409;-;-;8.594482;0.09954834;-3.3236694;-;-;-;-;-;-;-;-;-;-;-;-;-;-;-
1514103626428;-;-;8.622009;0.08279419;-3.3116913;-;-;-;-;-;-;-;-;-;-;-;-;-;-;-
1514103626448;-;-;8.607651;0.11869812;-3.3092957;-;-;-;-;-;-;-;-;-;-;-;-;-;-;-
1514103626469;-;-;8.620819;0.15222168;-3.3332367;-;-;-;-;-;-;-;-;-;-;-;-;-;-;-
1514103626488;-;-;8.619614;0.13546753;-3.377533;-;-;-;-;-;-;-;-;-;-;-;-;-;-;-
1514103626508;-;-;8.641159;0.17018127;-3.3368378;-;-;-;-;-;-;-;-;-;-;-;-;-;-;-
1514103626528;-;-;8.675873;0.15461731;-3.2650146;-;-;-;-;-;-;-;-;-;-;-;-;-;-;-
1514103626549;-;-;8.671097;0.14743042;-3.2937317;-;-;-;-;-;-;-;-;-;-;-;-;-;-;-
1514103626569;-;-;8.627991;0.115112305;-3.346405;-;-;-;-;-;-;-;-;-;-;-;-;-;-;-
1514103626589;-;-;8.639969;0.048080444;-3.3344421;-;-;-;-;-;-;-;-;-;-;-;-;-;-;-
1514103626609;-;-;8.595673;0.072021484;-3.36557;-;-;-;-;-;-;-;-;-;-;-;-;-;-;-
1514103626629;-;-;8.574127;0.08279419;-3.346405;-;-;-;-;-;-;-;-;-;-;-;-;-;-;-
1514103626649;-;-;8.620819;0.12348938;-3.3511963;-;-;-;-;-;-;-;-;-;-;-;-;-;-;-
1514103626669;-;-;8.627991;0.16659546;-3.3607788;-;-;-;-;-;-;-;-;-;-;-;-;-;-;-
1514103626689;-;-;8.601654;0.13546753;-3.3583832;-;-;-;-;-;-;-;-;-;-;-;-;-;-;-
1514103626709;-;-;8.576523;0.12109375;-3.3524017;-;-;-;-;-;-;-;-;-;-;-;-;-;-;-
1514103626729;-;-;8.580109;0.060043335;-3.3248596;-;-;-;-;-;-;-;-;-;-;-;-;-;-;-
1514103626749;-;-;8.569336;0.04447937;-3.3583832;-;-;-;-;-;-;-;-;-;-;-;-;-;-;-
1514103626769;-;-;8.587296;0.04208374;-3.3511963;-;-;-;-;-;-;-;-;-;-;-;-;-;-;-
1514103626789;-;-;8.558563;0.03730774;-3.3248596;-;-;-;-;-;-;-;-;-;-;-;-;-;-;-
1514103626809;-;-;8.606445;0.04208374;-3.3667603;-;-;-;-;-;-;-;-;-;-;-;-;-;-;-
1514103626830;-;-;8.617218;-0.00579834;-3.3679657;-;-;-;-;-;-;-;-;-;-;-;-;-;-;-
1514103626850;-;-;8.637573;0.055252075;-3.4589386;-;-;-;-;-;-;-;-;-;-;-;-;-;-;-
1514103626870;-;-;8.618423;0.08998108;-3.3954926;-;-;-;-;-;-;-;-;-;-;-;-;-;-;-
1514103626891;-;-;8.608841;0.13186646;-3.3667603;-;-;-;-;-;-;-;-;-;-;-;-;-;-;-
1514103626910;-;-;8.611237;0.13546753;-3.4134521;-;-;-;-;-;-;-;-;-;-;-;-;-;-;-
1514103626930;-;-;8.598068;0.105529785;-3.338028;-;-;-;-;-;-;-;-;-;-;-;-;-;-;-
1514103626951;-;-;8.577713;0.091171265;-3.2949371;-;-;-;-;-;-;-;-;-;-;-;-;-;-;-
1514103626971;-;-;8.582504;0.105529785;-3.3188782;-;-;-;-;-;-;-;-;-;-;-;-;-;-;-
1514103626991;-;-;8.651932;0.12948608;-3.3847198;-;-;-;-;-;-;-;-;-;-;-;-;-;-;-
1514103627011;-;-;8.675873;0.1330719;-3.3188782;-;-;-;-;-;-;-;-;-;-;-;-;-;-;-
1514103627031;-;-;8.653137;0.079193115;-3.3045197;-;-;-;-;-;-;-;-;-;-;-;-;-;-;-
1514103627052;-;-;8.674683;0.062438965;-3.3164825;-;-;-;-;-;-;-;-;-;-;-;-;-;-;-
1514103627072;-;-;8.660324;0.05166626;-3.3440094;-;-;-;-;-;-;-;-;-;-;-;-;-;-;-
1514103627092;-;-;8.660324;0.067230225;-3.3033142;-;-;-;-;-;-;-;-;-;-;-;-;-;-;-
1514103627112;-;-;8.633987;0.05645752;-3.262619;-;-;-;-;-;-;-;-;-;-;-;-;-;-;-
1514103627133;-;-;8.64595;0.083984375;-3.3212738;-;-;-;-;-;-;-;-;-;-;-;-;-;-;-
1514103627153;-;-;8.641159;0.050476074;-3.3081055;-;-;-;-;-;-;-;-;-;-;-;-;-;-;-
1514103627173;-;-;8.66391;0.060043335;-3.3332367;-;-;-;-;-;-;-;-;-;-;-;-;-;-;-
1514103627193;-;-;8.677078;0.05885315;-3.3164825;-;-;-;-;-;-;-;-;-;-;-;-;-;-;-
1514103627214;-;-;8.647156;0.117507935;-3.3116913;-;-;-;-;-;-;-;-;-;-;-;-;-;-;-
1514103627235;-;-;8.667496;0.10913086;-3.302124;-;-;-;-;-;-;-;-;-;-;-;-;-;-;-
1514103627255;-;-;8.631592;0.15342712;-3.3069;-;-;-;-;-;-;-;-;-;-;-;-;-;-;-
1514103627275;-;-;8.594482;0.103149414;-3.2686005;-;-;-;-;-;-;-;-;-;-;-;-;-;-;-
1514103627296;-;-;8.636368;0.093566895;-3.2398682;-;-;-;-;-;-;-;-;-;-;-;-;-;-;-
1514103627316;-;-;8.6818695;0.100753784;-3.2255096;-;-;-;-;-;-;-;-;-;-;-;-;-;-;-
1514103627336;-;-;8.718979;0.095962524;-3.2853546;-;-;-;-;-;-;-;-;-;-;-;-;-;-;-
1514103627356;-;-;8.695038;0.14144897;-3.3272552;-;-;-;-;-;-;-;-;-;-;-;-;-;-;-
1514103627377;-;-;8.575317;0.110321045;-3.310501;-;-;-;-;-;-;-;-;-;-;-;-;-;-;-
1514103627397;-;-;8.575317;0.076812744;-3.3823242;-;-;-;-;-;-;-;-;-;-;-;-;-;-;-
1514103627417;-;-;8.596878;0.050476074;-3.405075;-;-;-;-;-;-;-;-;-;-;-;-;-;-;-
1514103627438;-;-;8.588486;0.117507935;-3.3511963;-;-;-;-;-;-;-;-;-;-;-;-;-;-;-
1514103627458;-;-;8.605255;0.17855835;-3.3308563;-;-;-;-;-;-;-;-;-;-;-;-;-;-;-
1514103627478;-;-;8.618423;0.17497253;-3.3212738;-;-;-;-;-;-;-;-;-;-;-;-;-;-;-
1514103627499;-;-;8.550186;0.15222168;-3.4218292;-;-;-;-;-;-;-;-;-;-;-;-;-;-;-
1514103627519;-;-;8.553772;0.17616272;-3.353592;-;-;-;-;-;-;-;-;-;-;-;-;-;-;-
1514103627539;-;-;8.590881;0.16539001;-3.3092957;-;-;-;-;-;-;-;-;-;-;-;-;-;-;-
1514103627559;-;-;8.662704;0.11392212;-3.3009186;-;-;-;-;-;-;-;-;-;-;-;-;-;-;-
1514103627580;-;-;8.638763;0.13546753;-3.2889557;-;-;-;-;-;-;-;-;-;-;-;-;-;-;-
1514103627600;-;-;8.620819;0.14144897;-3.3069;-;-;-;-;-;-;-;-;-;-;-;-;-;-;-
1514103627620;-;-;8.614822;0.14982605;-3.3272552;-;-;-;-;-;-;-;-;-;-;-;-;-;-;-
1514103627641;-;-;8.623199;0.16419983;-3.2913513;-;-;-;-;-;-;-;-;-;-;-;-;-;-;-
1514103627661;-;-;8.601654;0.1558075;-3.3092957;-;-;-;-;-;-;-;-;-;-;-;-;-;-;-
1514103627681;-;-;8.620819;0.11869812;-3.2757874;-;-;-;-;-;-;-;-;-;-;-;-;-;-;-
1514103627701;-;-;8.639969;0.091171265;-3.2997284;-;-;-;-;-;-;-;-;-;-;-;-;-;-;-
1514103627722;-;-;8.632782;0.107925415;-3.2805634;-;-;-;-;-;-;-;-;-;-;-;-;-;-;-
1514103627742;-;-;8.606445;0.1330719;-3.3164825;-;-;-;-;-;-;-;-;-;-;-;-;-;-;-
1514103627762;-;-;8.620819;0.13067627;-3.3332367;-;-;-;-;-;-;-;-;-;-;-;-;-;-;-
1514103627783;-;-;8.614822;0.11631775;-3.3248596;-;-;-;-;-;-;-;-;-;-;-;-;-;-;-
1514103627803;-;-;8.620819;0.122299194;-3.2841644;-;-;-;-;-;-;-;-;-;-;-;-;-;-;-
1514103627823;-;-;8.631592;0.117507935;-3.3033142;-;-;-;-;-;-;-;-;-;-;-;-;-;-;-
1514103627844;-;-;8.635178;0.110321045;-3.3200684;-;-;-;-;-;-;-;-;-;-;-;-;-;-;-
1514103627863;-;-;8.656723;0.13186646;-3.3057098;-;-;-;-;-;-;-;-;-;-;-;-;-;-;-
1514103627883;-;-;8.671097;0.12709045;-3.314087;-;-;-;-;-;-;-;-;-;-;-;-;-;-;-
1514103627903;-;-;8.64476;0.112716675;-3.270996;-;-;-;-;-;-;-;-;-;-;-;-;-;-;-
1514103627924;-;-;8.633987;0.112716675;-3.2889557;-;-;-;-;-;-;-;-;-;-;-;-;-;-;-
1514103627944;-;-;8.636368;0.10673523;-3.2697906;-;-;-;-;-;-;-;-;-;-;-;-;-;-;-
1514103627964;-;-;8.641159;0.12948608;-3.2614136;-;-;-;-;-;-;-;-;-;-;-;-;-;-;-
1514103627985;-;-;8.600464;0.100753784;-3.274582;-;-;-;-;-;-;-;-;-;-;-;-;-;-;-
1514103628005;-;-;8.596878;0.15461731;-3.298523;-;-;-;-;-;-;-;-;-;-;-;-;-;-;-
1514103628025;-;-;8.595673;0.14503479;-3.3092957;-;-;-;-;-;-;-;-;-;-;-;-;-;-;-
1514103628045;-;-;8.639969;0.11631775;-3.3332367;-;-;-;-;-;-;-;-;-;-;-;-;-;-;-
1514103628066;-;-;8.617218;0.117507935;-3.2793732;-;-;-;-;-;-;-;-;-;-;-;-;-;-;-
1514103628086;-;-;8.6028595;0.12588501;-3.2255096;-;-;-;-;-;-;-;-;-;-;-;-;-;-;-
1514103628106;-;-;8.673492;0.13426208;-3.2494507;-;-;-;-;-;-;-;-;-;-;-;-;-;-;-
1514103628127;-;-;8.613632;0.19651794;-3.3763428;-;-;-;-;-;-;-;-;-;-;-;-;-;-;-
1514103628147;-;-;8.611237;0.16419983;-3.3943024;-;-;-;-;-;-;-;-;-;-;-;-;-;-;-
1514103628167;-;-;8.580109;0.091171265;-3.317688;-;-;-;-;-;-;-;-;-;-;-;-;-;-;-
1514103628188;-;-;8.607651;0.031311035;-3.247055;-;-;-;-;-;-;-;-;-;-;-;-;-;-;-
1514103628208;-;-;8.605255;0.098358154;-3.267395;-;-;-;-;-;-;-;-;-;-;-;-;-;-;-
1514103628228;-;-;8.629196;0.16299438;-3.3404236;-;-;-;-;-;-;-;-;-;-;-;-;-;-;-
1514103628248;-;-;8.627991;0.19412231;-3.3727417;-;-;-;-;-;-;-;-;-;-;-;-;-;-;-
1514103628269;-;-;8.701019;0.19891357;-3.4661255;-;-;-;-;-;-;-;-;-;-;-;-;-;-;-
1514103628289;-;-;8.710602;0.1905365;-3.456543;-;-;-;-;-;-;-;-;-;-;-;-;-;-;-
1514103628309;-;-;8.64595;0.21087646;-3.409851;-;-;-;-;-;-;-;-;-;-;-;-;-;-;-
1514103628330;-;-;8.590881;0.2348175;-3.377533;-;-;-;-;-;-;-;-;-;-;-;-;-;-;-
1514103628350;-;-;8.531036;0.31622314;-3.369156;-;-;-;-;-;-;-;-;-;-;-;-;-;-;-
1514103628370;-;-;8.502304;0.31861877;-3.3990784;-;-;-;-;-;-;-;-;-;-;-;-;-;-;-
1514103628390;-;-;8.503494;0.30186462;-3.425415;-;-;-;-;-;-;-;-;-;-;-;-;-;-;-
1514103628410;-;-;8.533432;0.29348755;-3.44458;-;-;-;-;-;-;-;-;-;-;-;-;-;-;-
1514103628430;-;-;8.546585;0.3102417;-3.4553528;-;-;-;-;-;-;-;-;-;-;-;-;-;-;-
1514103628451;-;-;8.552582;0.36291504;-3.4912567;-;-;-;-;-;-;-;-;-;-;-;-;-;-;-
1514103628472;-;-;8.564545;0.38327026;-3.4613342;-;-;-;-;-;-;-;-;-;-;-;-;-;-;-
1514103628492;-;-;8.589691;0.33537292;-3.468521;-;-;-;-;-;-;-;-;-;-;-;-;-;-;-
1514103628512;-;-;8.548981;0.30065918;-3.4625244;-;-;-;-;-;-;-;-;-;-;-;-;-;-;-
1514103628533;-;-;8.572922;0.2743225;-3.4433746;-;-;-;-;-;-;-;-;-;-;-;-;-;-;-
1514103628553;-;-;8.5633545;0.24440002;-3.46492;-;-;-;-;-;-;-;-;-;-;-;-;-;-;-
1514103628573;-;-;8.542999;0.259964;-3.487671;-;-;-;-;-;-;-;-;-;-;-;-;-;-;-
1514103628593;-;-;8.557373;0.27552795;-3.5427399;-;-;-;-;-;-;-;-;-;-;-;-;-;-;-
1514103628613;-;-;8.558563;0.32580566;-3.5702667;-;-;-;-;-;-;-;-;-;-;-;-;-;-;-
1514103628634;-;-;8.562149;0.3796692;-3.5307617;-;-;-;-;-;-;-;-;-;-;-;-;-;-;-
1514103628654;-;-;8.515472;0.37368774;-3.5535126;-;-;-;-;-;-;-;-;-;-;-;-;-;-;-
1514103628674;-;-;8.517868;0.38087463;-3.6157532;-;-;-;-;-;-;-;-;-;-;-;-;-;-;-
1514103628695;-;-;8.3897705;0.48382568;-3.685196;-;-;-;-;-;-;-;-;-;-;-;-;-;-;-
1514103628715;-;-;8.351471;0.541275;-3.7079315;-;-;-;-;-;-;-;-;-;-;-;-;-;-;-
1514103628735;-;-;8.46759;0.6526184;-3.6828003;-;-;-;-;-;-;-;-;-;-;-;-;-;-;-
1514103628755;-;-;8.617218;0.79985046;-3.7618103;-;-;-;-;-;-;-;-;-;-;-;-;-;-;-
1514103628776;-;-;8.650742;0.9064026;-3.7833557;-;-;-;-;-;-;-;-;-;-;-;-;-;-;-
1514103628796;-;-;8.514267;0.80703735;-3.7833557;-;-;-;-;-;-;-;-;-;-;-;-;-;-;-
1514103628816;-;-;8.416107;0.5927582;-3.6528625;-;-;-;-;-;-;-;-;-;-;-;-;-;-;-
1514103628837;-;-;8.358643;0.40242004;-3.488861;-;-;-;-;-;-;-;-;-;-;-;-;-;-;-
1514103628857;-;-;8.297592;0.24081421;-3.4996338;-;-;-;-;-;-;-;-;-;-;-;-;-;-;-
1514103628877;-;-;8.295197;0.2348175;-3.5235748;-;-;-;-;-;-;-;-;-;-;-;-;-;-;-
1514103628898;-;-;8.374207;0.2707367;-3.590622;-;-;-;-;-;-;-;-;-;-;-;-;-;-;-
1514103628918;-;-;8.466385;0.42755127;-3.6109772;-;-;-;-;-;-;-;-;-;-;-;-;-;-;-
1514103628938;-;-;8.625595;0.5281067;-3.607376;-;-;-;-;-;-;-;-;-;-;-;-;-;-;-
1514103628958;-;-;8.673492;0.47424316;-3.6193542;-;-;-;-;-;-;-;-;-;-;-;-;-;-;-
1514103628979;-;-;8.625595;0.42037964;-3.689972;-;-;-;-;-;-;-;-;-;-;-;-;-;-;-
1514103628999;-;-;8.456802;0.35812378;-3.7426453;-;-;-;-;-;-;-;-;-;-;-;-;-;-;-
1514103629019;-;-;8.322739;0.42636108;-3.6349182;-;-;-;-;-;-;-;-;-;-;-;-;-;-;-
1514103629040;-;-;8.277252;0.54248047;-3.519989;-;-;-;-;-;-;-;-;-;-;-;-;-;-;-
1514103629060;-;-;8.325134;0.58917236;-3.473297;-;-;-;-;-;-;-;-;-;-;-;-;-;-;-
1514103629080;-;-;8.503494;0.5879669;-3.5870209;-;-;-;-;-;-;-;-;-;-;-;-;-;-;-
1514103629101;-;-;8.515472;0.59754944;-3.425415;-;-;-;-;-;-;-;-;-;-;-;-;-;-;-
1514103629120;-;-;8.636368;0.4119873;-3.4278107;-;-;-;-;-;-;-;-;-;-;-;-;-;-;-
1514103629141;-;-;8.875793;0.21687317;-3.6923676;-;-;-;-;-;-;-;-;-;-;-;-;-;-;-
1514103629161;-;-;8.958389;0.16419983;-4.061081;-;-;-;-;-;-;-;-;-;-;-;-;-;-;-
1514103629181;-;-;8.926071;0.3892517;-3.9712982;-;-;-;-;-;-;-;-;-;-;-;-;-;-;-
1514103629202;-;-;8.709396;0.62028503;-3.8348236;-;-;-;-;-;-;-;-;-;-;-;-;-;-;-
