TimeStamp[ms];Prox[Cm];Lux[lux];AccX[m/s^2];AccY[m/s^2];AccZ[m/s^2];GyroX[rad/s];GyroY[rad/s];GyroZ[rad/s];MagnX[uT];MagnY[uT];MagnZ[uT];OrienYaw[degrees];OrienPitch[degrees];OrienRoll[degrees];Press[Pa];Temp[C°];Batt[%];Lat;Lng;Speed[m/s]
1514102793524;-;-;8.545395;-0.5600586;-0.46139526;-;-;-;-;-;-;-;-;-;-;-;-;-;-;-
1514102793525;-;-;8.7261505;-0.5037842;-0.5894928;-;-;-;-;-;-;-;-;-;-;-;-;-;-;-
1514102793544;-;-;8.304779;-1.1382446;-0.17050171;-;-;-;-;-;-;-;-;-;-;-;-;-;-;-
1514102793564;-;-;10.163879;-0.43196106;-2.831665;-;-;-;-;-;-;-;-;-;-;-;-;-;-;-
1514102793585;-;-;9.996277;1.5911407;-1.8739777;-;-;-;-;-;-;-;-;-;-;-;-;-;-;-
1514102793605;-;-;10.591248;1.7862701;-0.05319214;-;-;-;-;-;-;-;-;-;-;-;-;-;-;-
1514102793625;-;-;10.671448;1.6617737;-0.50808716;-;-;-;-;-;-;-;-;-;-;-;-;-;-;-
1514102793647;-;-;9.9077;0.7244415;-0.7917938;-;-;-;-;-;-;-;-;-;-;-;-;-;-;-
1514102793667;-;-;8.363434;1.2655334;-0.42070007;-;-;-;-;-;-;-;-;-;-;-;-;-;-;-
1514102793687;-;-;7.4368744;1.4522705;0.031814575;-;-;-;-;-;-;-;-;-;-;-;-;-;-;-
1514102793707;-;-;7.5362396;0.050476074;-0.10824585;-;-;-;-;-;-;-;-;-;-;-;-;-;-;-
1514102793727;-;-;7.071762;-0.39964294;-1.1940308;-;-;-;-;-;-;-;-;-;-;-;-;-;-;-
1514102793747;-;-;10.166275;0.2300415;-0.8289032;-;-;-;-;-;-;-;-;-;-;-;-;-;-;-
1514102793777;-;-;11.760803;1.5875549;1.1139832;-;-;-;-;-;-;-;-;-;-;-;-;-;-;-
1514102793788;-;-;11.153885;2.528473;-4.0072174;-;-;-;-;-;-;-;-;-;-;-;-;-;-;-
1514102793808;-;-;9.137955;2.3656616;-0.97735596;-;-;-;-;-;-;-;-;-;-;-;-;-;-;-
1514102793829;-;-;8.701019;1.106308;0.6064148;-;-;-;-;-;-;-;-;-;-;-;-;-;-;-
1514102793849;-;-;7.7612915;0.8692932;-0.4278717;-;-;-;-;-;-;-;-;-;-;-;-;-;-;-
1514102793869;-;-;7.4524384;1.5240936;-0.93066406;-;-;-;-;-;-;-;-;-;-;-;-;-;-;-
1514102793890;-;-;8.666306;1.1266632;-1.0120697;-;-;-;-;-;-;-;-;-;-;-;-;-;-;-
1514102793910;-;-;9.479141;0.73521423;-1.3089447;-;-;-;-;-;-;-;-;-;-;-;-;-;-;-
1514102793935;-;-;9.9040985;0.34376526;-1.064743;-;-;-;-;-;-;-;-;-;-;-;-;-;-;-
1514102793951;-;-;9.8645935;0.45388794;-1.2909851;-;-;-;-;-;-;-;-;-;-;-;-;-;-;-
1514102793971;-;-;9.216965;0.8226013;-0.372818;-;-;-;-;-;-;-;-;-;-;-;-;-;-;-
1514102793991;-;-;8.501099;1.2164459;-1.9158783;-;-;-;-;-;-;-;-;-;-;-;-;-;-;-
1514102794011;-;-;8.338303;2.137024;-4.4656982;-;-;-;-;-;-;-;-;-;-;-;-;-;-;-
1514102794032;-;-;9.6862335;2.4123535;-3.1704407;-;-;-;-;-;-;-;-;-;-;-;-;-;-;-
1514102794052;-;-;12.3940735;1.7264099;-1.9841156;-;-;-;-;-;-;-;-;-;-;-;-;-;-;-
1514102794072;-;-;12.055298;0.8920288;-2.6389313;-;-;-;-;-;-;-;-;-;-;-;-;-;-;-
1514102794093;-;-;10.101624;1.1625824;-3.7426453;-;-;-;-;-;-;-;-;-;-;-;-;-;-;-
1514102794112;-;-;8.6818695;0.5783844;-3.7438507;-;-;-;-;-;-;-;-;-;-;-;-;-;-;-
1514102794132;-;-;7.391388;-0.057266235;-2.867569;-;-;-;-;-;-;-;-;-;-;-;-;-;-;-
1514102794153;-;-;7.8486786;-1.0700226;-2.6903992;-;-;-;-;-;-;-;-;-;-;-;-;-;-;-
1514102794172;-;-;8.775238;-1.0221252;-2.5982208;-;-;-;-;-;-;-;-;-;-;-;-;-;-;-
1514102794192;-;-;9.519836;-0.35295105;-3.2662048;-;-;-;-;-;-;-;-;-;-;-;-;-;-;-
1514102794212;-;-;8.3502655;-0.9263611;-3.5570984;-;-;-;-;-;-;-;-;-;-;-;-;-;-;-
1514102794233;-;-;9.091278;-0.3361969;-2.682022;-;-;-;-;-;-;-;-;-;-;-;-;-;-;-
1514102794253;-;-;9.240906;-0.38407898;-2.4533691;-;-;-;-;-;-;-;-;-;-;-;-;-;-;-
1514102794273;-;-;8.489136;-0.7216644;-2.2414856;-;-;-;-;-;-;-;-;-;-;-;-;-;-;-
1514102794294;-;-;8.693832;-1.6865234;-1.6573029;-;-;-;-;-;-;-;-;-;-;-;-;-;-;-
1514102794314;-;-;8.270065;-0.21170044;-3.203949;-;-;-;-;-;-;-;-;-;-;-;-;-;-;-
1514102794334;-;-;8.707001;0.095962524;-1.9434052;-;-;-;-;-;-;-;-;-;-;-;-;-;-;-
1514102794355;-;-;7.683487;-2.6023102;-1.4382324;-;-;-;-;-;-;-;-;-;-;-;-;-;-;-
1514102794375;-;-;9.697006;-1.1873322;-2.7454681;-;-;-;-;-;-;-;-;-;-;-;-;-;-;-
1514102794395;-;-;6.7736816;-0.40083313;-1.2718353;-;-;-;-;-;-;-;-;-;-;-;-;-;-;-
1514102794415;-;-;5.426941;0.2707367;-2.211563;-;-;-;-;-;-;-;-;-;-;-;-;-;-;-
1514102794436;-;-;6.8371277;-0.32781982;-2.270218;-;-;-;-;-;-;-;-;-;-;-;-;-;-;-
1514102794456;-;-;6.7377777;0.45388794;-3.0698853;-;-;-;-;-;-;-;-;-;-;-;-;-;-;-
1514102794476;-;-;8.303574;1.3002472;-3.3715515;-;-;-;-;-;-;-;-;-;-;-;-;-;-;-
1514102794497;-;-;9.883759;2.5117035;-2.4653473;-;-;-;-;-;-;-;-;-;-;-;-;-;-;-
1514102794517;-;-;11.159866;2.3728485;-1.531601;-;-;-;-;-;-;-;-;-;-;-;-;-;-;-
1514102794537;-;-;10.787567;1.9299164;-0.34169006;-;-;-;-;-;-;-;-;-;-;-;-;-;-;-
1514102794558;-;-;10.537369;0.76634216;-2.1852264;-;-;-;-;-;-;-;-;-;-;-;-;-;-;-
1514102794578;-;-;6.1559753;-2.6442108;-6.2769165;-;-;-;-;-;-;-;-;-;-;-;-;-;-;-
1514102794598;-;-;6.6946716;-6.004471;-8.289246;-;-;-;-;-;-;-;-;-;-;-;-;-;-;-
1514102794619;-;-;6.841919;-6.749069;-5.8806763;-;-;-;-;-;-;-;-;-;-;-;-;-;-;-
1514102794639;-;-;11.272385;-2.388031;-4.219101;-;-;-;-;-;-;-;-;-;-;-;-;-;-;-
1514102794659;-;-;14.296265;2.5931091;-2.0643158;-;-;-;-;-;-;-;-;-;-;-;-;-;-;-
1514102794680;-;-;11.423233;4.774231;-5.5933685;-;-;-;-;-;-;-;-;-;-;-;-;-;-;-
1514102794700;-;-;10.495468;3.180893;-8.882996;-;-;-;-;-;-;-;-;-;-;-;-;-;-;-
1514102794720;-;-;12.723282;-0.3972473;-6.255371;-;-;-;-;-;-;-;-;-;-;-;-;-;-;-
1514102794741;-;-;10.538574;-0.16500854;-2.567093;-;-;-;-;-;-;-;-;-;-;-;-;-;-;-
1514102794761;-;-;7.5122986;1.2415924;-1.4549866;-;-;-;-;-;-;-;-;-;-;-;-;-;-;-
1514102794782;-;-;6.300827;1.6641693;-2.0439606;-;-;-;-;-;-;-;-;-;-;-;-;-;-;-
1514102794802;-;-;5.4089966;1.2535553;-1.729126;-;-;-;-;-;-;-;-;-;-;-;-;-;-;-
1514102794822;-;-;4.853531;0.27911377;-1.1233978;-;-;-;-;-;-;-;-;-;-;-;-;-;-;-
1514102794843;-;-;3.8934631;-0.12789917;-1.143753;-;-;-;-;-;-;-;-;-;-;-;-;-;-;-
1514102794863;-;-;2.9142303;0.17137146;-1.2359161;-;-;-;-;-;-;-;-;-;-;-;-;-;-;-
1514102794883;-;-;3.8778992;0.6274719;-0.7858124;-;-;-;-;-;-;-;-;-;-;-;-;-;-;-
1514102794904;-;-;6.7401733;0.3892517;-1.4118958;-;-;-;-;-;-;-;-;-;-;-;-;-;-;-
1514102794924;-;-;9.07811;-0.55526733;-3.2446594;-;-;-;-;-;-;-;-;-;-;-;-;-;-;-
1514102794944;-;-;10.36499;-1.076004;-3.0710754;-;-;-;-;-;-;-;-;-;-;-;-;-;-;-
1514102794964;-;-;9.797562;-0.33259583;-1.784195;-;-;-;-;-;-;-;-;-;-;-;-;-;-;-
1514102794985;-;-;8.450821;1.0440674;-2.0379791;-;-;-;-;-;-;-;-;-;-;-;-;-;-;-
1514102795005;-;-;6.747345;1.9155579;-1.9972839;-;-;-;-;-;-;-;-;-;-;-;-;-;-;-
1514102795025;-;-;5.288086;2.2196198;-1.2323303;-;-;-;-;-;-;-;-;-;-;-;-;-;-;-
1514102795046;-;-;5.185135;2.126236;-2.3552094;-;-;-;-;-;-;-;-;-;-;-;-;-;-;-
1514102795066;-;-;6.328369;1.5300903;-2.7670135;-;-;-;-;-;-;-;-;-;-;-;-;-;-;-
1514102795086;-;-;7.272873;0.596344;-2.3169098;-;-;-;-;-;-;-;-;-;-;-;-;-;-;-
1514102795107;-;-;8.897339;0.40361023;-1.2024078;-;-;-;-;-;-;-;-;-;-;-;-;-;-;-
1514102795127;-;-;10.5242;1.3373566;-1.9386139;-;-;-;-;-;-;-;-;-;-;-;-;-;-;-
1514102795147;-;-;10.118393;1.8832245;-4.7326508;-;-;-;-;-;-;-;-;-;-;-;-;-;-;-
1514102795167;-;-;7.422516;0.6681671;-6.701889;-;-;-;-;-;-;-;-;-;-;-;-;-;-;-
1514102795188;-;-;4.280121;-1.9953766;-5.2964935;-;-;-;-;-;-;-;-;-;-;-;-;-;-;-
1514102795208;-;-;3.964096;-4.3069763;-4.5770264;-;-;-;-;-;-;-;-;-;-;-;-;-;-;-
1514102795228;-;-;7.427307;-4.1860657;-4.3124695;-;-;-;-;-;-;-;-;-;-;-;-;-;-;-
1514102795249;-;-;11.637512;-1.1083221;-4.730255;-;-;-;-;-;-;-;-;-;-;-;-;-;-;-
1514102795269;-;-;14.755951;2.3453064;-5.6436462;-;-;-;-;-;-;-;-;-;-;-;-;-;-;-
1514102795289;-;-;17.368027;2.0496216;-4.4118347;-;-;-;-;-;-;-;-;-;-;-;-;-;-;-
1514102795310;-;-;18.410706;-3.0332642;-4.899048;-;-;-;-;-;-;-;-;-;-;-;-;-;-;-
1514102795330;-;-;22.070236;-4.5260468;-5.0271454;-;-;-;-;-;-;-;-;-;-;-;-;-;-;-
1514102795350;-;-;13.803055;-2.3078156;-1.6860352;-;-;-;-;-;-;-;-;-;-;-;-;-;-;-
1514102795370;-;-;7.18309;-0.8317871;-0.7127838;-;-;-;-;-;-;-;-;-;-;-;-;-;-;-
1514102795391;-;-;1.6273499;-0.2033081;-1.9757233;-;-;-;-;-;-;-;-;-;-;-;-;-;-;-
1514102795411;-;-;-1.6551056;-0.20809937;-1.8260956;-;-;-;-;-;-;-;-;-;-;-;-;-;-;-
1514102795431;-;-;-3.3154755;-0.8282013;-0.7451172;-;-;-;-;-;-;-;-;-;-;-;-;-;-;-
1514102795452;-;-;3.4481354;-0.5384979;-1.574707;-;-;-;-;-;-;-;-;-;-;-;-;-;-;-
1514102795472;-;-;10.041779;0.55804443;-3.1967773;-;-;-;-;-;-;-;-;-;-;-;-;-;-;-
1514102795493;-;-;11.45195;1.8054199;-4.0467224;-;-;-;-;-;-;-;-;-;-;-;-;-;-;-
1514102795513;-;-;7.6571503;1.8365479;-3.6001892;-;-;-;-;-;-;-;-;-;-;-;-;-;-;-
1514102795533;-;-;6.4396973;0.95188904;-1.1233978;-;-;-;-;-;-;-;-;-;-;-;-;-;-;-
1514102795553;-;-;7.367447;-0.1769867;-0.30218506;-;-;-;-;-;-;-;-;-;-;-;-;-;-;-
1514102795574;-;-;9.105637;-1.7104645;-1.3843689;-;-;-;-;-;-;-;-;-;-;-;-;-;-;-
1514102795594;-;-;9.649124;-2.7028656;-1.3879547;-;-;-;-;-;-;-;-;-;-;-;-;-;-;-
1514102795614;-;-;8.787216;-2.5448456;-1.9075012;-;-;-;-;-;-;-;-;-;-;-;-;-;-;-
1514102795634;-;-;7.26091;-1.9079895;-3.8132782;-;-;-;-;-;-;-;-;-;-;-;-;-;-;-
1514102795655;-;-;6.96402;-0.30148315;-5.789688;-;-;-;-;-;-;-;-;-;-;-;-;-;-;-
1514102795675;-;-;8.654327;2.7595062;-4.9337616;-;-;-;-;-;-;-;-;-;-;-;-;-;-;-
1514102795696;-;-;11.007828;5.3224945;-2.8053284;-;-;-;-;-;-;-;-;-;-;-;-;-;-;-
1514102795716;-;-;14.754761;7.0487213;-3.5151978;-;-;-;-;-;-;-;-;-;-;-;-;-;-;-
1514102795737;-;-;18.895523;7.4174347;-7.2094574;-;-;-;-;-;-;-;-;-;-;-;-;-;-;-
1514102795757;-;-;22.786102;2.718811;-6.393036;-;-;-;-;-;-;-;-;-;-;-;-;-;-;-
1514102795777;-;-;18.9458;-2.4035797;-4.2214966;-;-;-;-;-;-;-;-;-;-;-;-;-;-;-
1514102795797;-;-;10.368576;-3.148178;-0.40753174;-;-;-;-;-;-;-;-;-;-;-;-;-;-;-
1514102795818;-;-;3.616928;-1.6985016;0.26763916;-;-;-;-;-;-;-;-;-;-;-;-;-;-;-
1514102795838;-;-;-0.2353363;0.70529175;-0.69363403;-;-;-;-;-;-;-;-;-;-;-;-;-;-;-
1514102795858;-;-;-0.6291809;2.6589508;-0.46618652;-;-;-;-;-;-;-;-;-;-;-;-;-;-;-
1514102795878;-;-;2.6867828;2.6936646;-0.456604;-;-;-;-;-;-;-;-;-;-;-;-;-;-;-
1514102795907;-;-;8.046204;0.38446045;-1.3029633;-;-;-;-;-;-;-;-;-;-;-;-;-;-;-
1514102795928;-;-;8.100067;-0.33021545;-2.036789;-;-;-;-;-;-;-;-;-;-;-;-;-;-;-
1514102795948;-;-;6.4241333;-0.20211792;-1.8248901;-;-;-;-;-;-;-;-;-;-;-;-;-;-;-
1514102795968;-;-;5.7298126;0.36291504;-1.3053589;-;-;-;-;-;-;-;-;-;-;-;-;-;-;-
1514102795989;-;-;6.2637177;0.6143036;-0.5439911;-;-;-;-;-;-;-;-;-;-;-;-;-;-;-
1514102796010;-;-;7.264496;0.31143188;-0.7283478;-;-;-;-;-;-;-;-;-;-;-;-;-;-;-
1514102796031;-;-;7.375824;0.5676117;-1.2945862;-;-;-;-;-;-;-;-;-;-;-;-;-;-;-
1514102796050;-;-;7.566162;2.2782745;-1.7734222;-;-;-;-;-;-;-;-;-;-;-;-;-;-;-
1514102796070;-;-;8.232956;3.362854;-2.551529;-;-;-;-;-;-;-;-;-;-;-;-;-;-;-
1514102796090;-;-;9.25528;2.857666;-2.867569;-;-;-;-;-;-;-;-;-;-;-;-;-;-;-
1514102796110;-;-;10.046555;2.4255219;-2.781372;-;-;-;-;-;-;-;-;-;-;-;-;-;-;-
1514102796131;-;-;9.728134;2.4686127;-4.583023;-;-;-;-;-;-;-;-;-;-;-;-;-;-;-
1514102796151;-;-;8.028244;1.1350403;-6.8180084;-;-;-;-;-;-;-;-;-;-;-;-;-;-;-
1514102796171;-;-;7.174713;-1.7679291;-7.167557;-;-;-;-;-;-;-;-;-;-;-;-;-;-;-
1514102796192;-;-;9.541382;-3.972992;-4.290924;-;-;-;-;-;-;-;-;-;-;-;-;-;-;-
1514102796211;-;-;10.891708;-3.9705963;-4.416626;-;-;-;-;-;-;-;-;-;-;-;-;-;-;-
1514102796231;-;-;15.974609;-2.479004;-3.8587646;-;-;-;-;-;-;-;-;-;-;-;-;-;-;-
1514102796251;-;-;19.61139;-3.186493;-4.682373;-;-;-;-;-;-;-;-;-;-;-;-;-;-;-
1514102796272;-;-;19.660477;-5.605835;-6.456482;-;-;-;-;-;-;-;-;-;-;-;-;-;-;-
1514102796292;-;-;21.871521;-3.3241577;-4.840393;-;-;-;-;-;-;-;-;-;-;-;-;-;-;-
1514102796312;-;-;13.957489;0.5185394;-3.5379486;-;-;-;-;-;-;-;-;-;-;-;-;-;-;-
1514102796333;-;-;5.6735535;2.8014069;-2.8771515;-;-;-;-;-;-;-;-;-;-;-;-;-;-;-
1514102796353;-;-;0.16688538;2.7714844;-2.0894623;-;-;-;-;-;-;-;-;-;-;-;-;-;-;-
1514102796373;-;-;-2.5158234;1.1075134;-0.7391205;-;-;-;-;-;-;-;-;-;-;-;-;-;-;-
1514102796393;-;-;2.6819916;-1.8912201;-1.0324097;-;-;-;-;-;-;-;-;-;-;-;-;-;-;-
1514102796414;-;-;8.26767;-1.8768616;-2.357605;-;-;-;-;-;-;-;-;-;-;-;-;-;-;-
1514102796434;-;-;11.268799;-1.2316284;-2.685608;-;-;-;-;-;-;-;-;-;-;-;-;-;-;-
1514102796455;-;-;9.546173;-0.73243713;-2.5563202;-;-;-;-;-;-;-;-;-;-;-;-;-;-;-
1514102796475;-;-;7.7852325;-0.47265625;-2.3671875;-;-;-;-;-;-;-;-;-;-;-;-;-;-;-
1514102796495;-;-;6.285263;-0.33859253;-2.6353302;-;-;-;-;-;-;-;-;-;-;-;-;-;-;-
1514102796516;-;-;6.0650024;0.0061798096;-2.3085175;-;-;-;-;-;-;-;-;-;-;-;-;-;-;-
1514102796535;-;-;5.802841;-0.117126465;-1.595047;-;-;-;-;-;-;-;-;-;-;-;-;-;-;-
1514102796555;-;-;4.7841034;-0.8760834;-0.76426697;-;-;-;-;-;-;-;-;-;-;-;-;-;-;-
1514102796575;-;-;4.25618;-1.6039276;0.19700623;-;-;-;-;-;-;-;-;-;-;-;-;-;-;-
1514102796596;-;-;5.715454;-2.0911407;0.8949127;-;-;-;-;-;-;-;-;-;-;-;-;-;-;-
1514102796616;-;-;7.2657013;-3.0500183;0.058151245;-;-;-;-;-;-;-;-;-;-;-;-;-;-;-
1514102796637;-;-;9.0577545;-3.5408325;-2.1540985;-;-;-;-;-;-;-;-;-;-;-;-;-;-;-
1514102796657;-;-;10.647507;-2.6992645;-3.978485;-;-;-;-;-;-;-;-;-;-;-;-;-;-;-
1514102796677;-;-;10.335068;-0.2272644;-3.9892578;-;-;-;-;-;-;-;-;-;-;-;-;-;-;-
1514102796698;-;-;10.069305;2.2184143;-7.278885;-;-;-;-;-;-;-;-;-;-;-;-;-;-;-
1514102796718;-;-;11.341827;4.008087;-7.6763306;-;-;-;-;-;-;-;-;-;-;-;-;-;-;-
1514102796738;-;-;10.678635;4.502487;-4.1221313;-;-;-;-;-;-;-;-;-;-;-;-;-;-;-
1514102796758;-;-;12.795105;3.402359;-1.1664886;-;-;-;-;-;-;-;-;-;-;-;-;-;-;-
1514102796778;-;-;14.915176;3.8081665;-6.4600677;-;-;-;-;-;-;-;-;-;-;-;-;-;-;-
1514102796799;-;-;20.122559;5.5188293;-7.3758545;-;-;-;-;-;-;-;-;-;-;-;-;-;-;-
1514102796819;-;-;20.494858;2.4530487;-4.4345703;-;-;-;-;-;-;-;-;-;-;-;-;-;-;-
1514102796839;-;-;14.990585;-0.12550354;-2.4234467;-;-;-;-;-;-;-;-;-;-;-;-;-;-;-
1514102796859;-;-;9.622787;-0.5564575;-2.7658234;-;-;-;-;-;-;-;-;-;-;-;-;-;-;-
1514102796879;-;-;5.1994934;0.57958984;-2.7538452;-;-;-;-;-;-;-;-;-;-;-;-;-;-;-
1514102796900;-;-;1.362793;2.4937592;-2.309723;-;-;-;-;-;-;-;-;-;-;-;-;-;-;-
1514102796920;-;-;-0.15034485;3.0575867;-0.98213196;-;-;-;-;-;-;-;-;-;-;-;-;-;-;-
1514102796940;-;-;2.7885437;1.6270447;-0.4745636;-;-;-;-;-;-;-;-;-;-;-;-;-;-;-
1514102796960;-;-;5.672348;0.0025787354;-0.39675903;-;-;-;-;-;-;-;-;-;-;-;-;-;-;-
1514102796981;-;-;6.4456787;-0.50138855;-1.2526855;-;-;-;-;-;-;-;-;-;-;-;-;-;-;-
1514102797000;-;-;6.7449493;-0.50738525;-1.5076599;-;-;-;-;-;-;-;-;-;-;-;-;-;-;-
1514102797020;-;-;7.293228;0.34016418;-1.5052643;-;-;-;-;-;-;-;-;-;-;-;-;-;-;-
1514102797040;-;-;8.559753;1.1877136;-1.653717;-;-;-;-;-;-;-;-;-;-;-;-;-;-;-
1514102797060;-;-;8.64476;1.2308044;-2.421051;-;-;-;-;-;-;-;-;-;-;-;-;-;-;-
1514102797081;-;-;7.071762;0.9638519;-3.2099457;-;-;-;-;-;-;-;-;-;-;-;-;-;-;-
1514102797101;-;-;4.8068542;1.2224274;-2.5611115;-;-;-;-;-;-;-;-;-;-;-;-;-;-;-
1514102797122;-;-;4.3495636;1.6737366;-0.709198;-;-;-;-;-;-;-;-;-;-;-;-;-;-;-
1514102797141;-;-;5.569397;2.1908875;-1.847641;-;-;-;-;-;-;-;-;-;-;-;-;-;-;-
1514102797162;-;-;7.6415863;1.5707855;-3.7510376;-;-;-;-;-;-;-;-;-;-;-;-;-;-;-
1514102797182;-;-;9.021835;1.2308044;-2.962143;-;-;-;-;-;-;-;-;-;-;-;-;-;-;-
1514102797202;-;-;10.247665;1.5468445;-2.4773102;-;-;-;-;-;-;-;-;-;-;-;-;-;-;-
1514102797223;-;-;9.3498535;1.6294403;-4.879898;-;-;-;-;-;-;-;-;-;-;-;-;-;-;-
1514102797242;-;-;6.762909;0.35932922;-6.4935913;-;-;-;-;-;-;-;-;-;-;-;-;-;-;-
1514102797262;-;-;5.450897;-1.186142;-6.9377136;-;-;-;-;-;-;-;-;-;-;-;-;-;-;-
1514102797283;-;-;7.4344788;-2.9327087;-8.523865;-;-;-;-;-;-;-;-;-;-;-;-;-;-;-
1514102797303;-;-;10.71933;-3.5300598;-7.955246;-;-;-;-;-;-;-;-;-;-;-;-;-;-;-
1514102797323;-;-;14.843338;-1.2747192;-4.651245;-;-;-;-;-;-;-;-;-;-;-;-;-;-;-
1514102797344;-;-;19.010452;-0.31584167;-5.5059814;-;-;-;-;-;-;-;-;-;-;-;-;-;-;-
1514102797364;-;-;21.545914;-3.27388;-5.8806763;-;-;-;-;-;-;-;-;-;-;-;-;-;-;-
1514102797384;-;-;22.781326;-3.759903;-6.281708;-;-;-;-;-;-;-;-;-;-;-;-;-;-;-
1514102797405;-;-;14.212463;-1.2627563;-5.224655;-;-;-;-;-;-;-;-;-;-;-;-;-;-;-
1514102797425;-;-;7.6104584;1.2415924;-2.875946;-;-;-;-;-;-;-;-;-;-;-;-;-;-;-
1514102797445;-;-;3.521164;1.2272186;-1.4430237;-;-;-;-;-;-;-;-;-;-;-;-;-;-;-
1514102797466;-;-;3.0123901;-0.70610046;-2.429428;-;-;-;-;-;-;-;-;-;-;-;-;-;-;-
1514102797486;-;-;4.427368;-0.957489;-3.1464996;-;-;-;-;-;-;-;-;-;-;-;-;-;-;-
1514102797506;-;-;4.735016;0.5843811;-2.8137054;-;-;-;-;-;-;-;-;-;-;-;-;-;-;-
1514102797527;-;-;4.525528;1.1889191;-3.0543213;-;-;-;-;-;-;-;-;-;-;-;-;-;-;-
1514102797547;-;-;4.1472473;1.1936951;-3.7582092;-;-;-;-;-;-;-;-;-;-;-;-;-;-;-
1514102797567;-;-;3.4517365;1.2104645;-3.1081848;-;-;-;-;-;-;-;-;-;-;-;-;-;-;-
1514102797587;-;-;3.332016;0.3569336;-2.6473083;-;-;-;-;-;-;-;-;-;-;-;-;-;-;-
1514102797608;-;-;3.1955566;-0.97065735;-3.0004425;-;-;-;-;-;-;-;-;-;-;-;-;-;-;-
1514102797628;-;-;4.101761;-1.9881897;-1.5280151;-;-;-;-;-;-;-;-;-;-;-;-;-;-;-
1514102797649;-;-;7.8474884;-2.5065308;0.7117615;-;-;-;-;-;-;-;-;-;-;-;-;-;-;-
1514102797670;-;-;10.325485;-2.2491608;0.33467102;-;-;-;-;-;-;-;-;-;-;-;-;-;-;-
1514102797690;-;-;10.618774;-2.427536;-2.1014252;-;-;-;-;-;-;-;-;-;-;-;-;-;-;-
1514102797710;-;-;10.034592;-3.4486542;-3.70076;-;-;-;-;-;-;-;-;-;-;-;-;-;-;-
1514102797731;-;-;8.26767;-2.6238556;-5.222275;-;-;-;-;-;-;-;-;-;-;-;-;-;-;-
1514102797751;-;-;6.6767273;0.9363251;-7.804413;-;-;-;-;-;-;-;-;-;-;-;-;-;-;-
1514102797772;-;-;6.201477;4.423477;-8.131226;-;-;-;-;-;-;-;-;-;-;-;-;-;-;-
1514102797791;-;-;9.321121;5.277008;-5.382675;-;-;-;-;-;-;-;-;-;-;-;-;-;-;-
1514102797812;-;-;14.548859;3.0037231;-2.7993317;-;-;-;-;-;-;-;-;-;-;-;-;-;-;-
1514102797831;-;-;17.414719;1.2344055;-4.1113586;-;-;-;-;-;-;-;-;-;-;-;-;-;-;-
1514102797851;-;-;17.393173;1.8676758;-7.699066;-;-;-;-;-;-;-;-;-;-;-;-;-;-;-
1514102797871;-;-;18.024033;4.15773;-7.132843;-;-;-;-;-;-;-;-;-;-;-;-;-;-;-
1514102797892;-;-;16.089523;3.793808;-4.8930664;-;-;-;-;-;-;-;-;-;-;-;-;-;-;-
1514102797912;-;-;10.969528;2.8409119;-3.5606995;-;-;-;-;-;-;-;-;-;-;-;-;-;-;-
1514102797932;-;-;6.4600525;1.8724518;-2.5455475;-;-;-;-;-;-;-;-;-;-;-;-;-;-;-
1514102797953;-;-;3.569046;1.0871582;-2.2402954;-;-;-;-;-;-;-;-;-;-;-;-;-;-;-
1514102797973;-;-;2.5862274;0.7507782;-1.8069458;-;-;-;-;-;-;-;-;-;-;-;-;-;-;-
1514102797994;-;-;3.4649048;0.5185394;-0.3835907;-;-;-;-;-;-;-;-;-;-;-;-;-;-;-
1514102798014;-;-;4.936142;-0.14225769;-0.5032959;-;-;-;-;-;-;-;-;-;-;-;-;-;-;-
1514102798034;-;-;7.1962585;-0.13986206;-1.2814178;-;-;-;-;-;-;-;-;-;-;-;-;-;-;-
1514102798054;-;-;7.189087;0.3712921;-1.8141174;-;-;-;-;-;-;-;-;-;-;-;-;-;-;-
1514102798075;-;-;4.8643036;0.08998108;-1.0072784;-;-;-;-;-;-;-;-;-;-;-;-;-;-;-
1514102798095;-;-;2.6149597;-0.8772888;-0.8073578;-;-;-;-;-;-;-;-;-;-;-;-;-;-;-
1514102798115;-;-;2.2737885;-2.1138916;-0.9749603;-;-;-;-;-;-;-;-;-;-;-;-;-;-;-
1514102798136;-;-;5.868683;-2.0193176;-1.0982513;-;-;-;-;-;-;-;-;-;-;-;-;-;-;-
1514102798156;-;-;9.15831;0.6681671;-1.9757233;-;-;-;-;-;-;-;-;-;-;-;-;-;-;-
1514102798176;-;-;9.977127;4.055969;-3.401474;-;-;-;-;-;-;-;-;-;-;-;-;-;-;-
1514102798197;-;-;8.419693;5.9078827;-3.9126434;-;-;-;-;-;-;-;-;-;-;-;-;-;-;-
1514102798217;-;-;6.330765;4.375595;-4.6368866;-;-;-;-;-;-;-;-;-;-;-;-;-;-;-
1514102798237;-;-;4.2346344;0.98779297;-7.207062;-;-;-;-;-;-;-;-;-;-;-;-;-;-;-
1514102798258;-;-;3.8958588;-2.1162872;-7.8738403;-;-;-;-;-;-;-;-;-;-;-;-;-;-;-
1514102798278;-;-;8.180283;-3.9514313;-5.771744;-;-;-;-;-;-;-;-;-;-;-;-;-;-;-
1514102798298;-;-;14.084381;-4.0627747;-4.4226074;-;-;-;-;-;-;-;-;-;-;-;-;-;-;-
1514102798318;-;-;24.057434;-1.0233307;-6.6288605;-;-;-;-;-;-;-;-;-;-;-;-;-;-;-
1514102798338;-;-;30.040543;-0.80784607;-6.9053955;-;-;-;-;-;-;-;-;-;-;-;-;-;-;-
1514102798359;-;-;27.705002;-2.2276154;-7.6284485;-;-;-;-;-;-;-;-;-;-;-;-;-;-;-
1514102798379;-;-;20.70195;-3.1110687;-8.394592;-;-;-;-;-;-;-;-;-;-;-;-;-;-;-
1514102798399;-;-;7.679886;-1.3142242;-1.0623474;-;-;-;-;-;-;-;-;-;-;-;-;-;-;-
1514102798420;-;-;-0.09527588;0.8309784;1.5605011;-;-;-;-;-;-;-;-;-;-;-;-;-;-;-
1514102798440;-;-;-2.4739227;1.2188416;-1.7662354;-;-;-;-;-;-;-;-;-;-;-;-;-;-;-
1514102798460;-;-;-3.2999115;0.7615509;-2.8627777;-;-;-;-;-;-;-;-;-;-;-;-;-;-;-
1514102798481;-;-;1.8560028;0.4467163;-2.7454681;-;-;-;-;-;-;-;-;-;-;-;-;-;-;-
1514102798501;-;-;8.145569;0.75675964;-4.028763;-;-;-;-;-;-;-;-;-;-;-;-;-;-;-
1514102798521;-;-;11.3741455;0.20489502;-4.2478333;-;-;-;-;-;-;-;-;-;-;-;-;-;-;-
1514102798542;-;-;8.26886;-0.56604004;-3.3751373;-;-;-;-;-;-;-;-;-;-;-;-;-;-;-
1514102798562;-;-;5.5957336;-1.4638672;-2.4821014;-;-;-;-;-;-;-;-;-;-;-;-;-;-;-
1514102798583;-;-;4.1388702;-1.7547607;-2.693985;-;-;-;-;-;-;-;-;-;-;-;-;-;-;-
1514102798603;-;-;4.090988;-1.6697693;-2.4713287;-;-;-;-;-;-;-;-;-;-;-;-;-;-;-
1514102798622;-;-;5.2270355;-2.135437;-0.33810425;-;-;-;-;-;-;-;-;-;-;-;-;-;-;-
1514102798643;-;-;6.9891663;-3.1134644;-0.42070007;-;-;-;-;-;-;-;-;-;-;-;-;-;-;-
1514102798663;-;-;7.83432;-3.2068481;-0.23036194;-;-;-;-;-;-;-;-;-;-;-;-;-;-;-
1514102798683;-;-;7.961212;-2.341339;-0.09388733;-;-;-;-;-;-;-;-;-;-;-;-;-;-;-
1514102798704;-;-;8.814743;-1.6865234;-0.4063263;-;-;-;-;-;-;-;-;-;-;-;-;-;-;-
1514102798723;-;-;9.561737;-0.9874115;-2.1708527;-;-;-;-;-;-;-;-;-;-;-;-;-;-;-
1514102798744;-;-;8.003113;-0.91200256;-4.4237976;-;-;-;-;-;-;-;-;-;-;-;-;-;-;-
1514102798764;-;-;5.810013;-0.6222992;-6.404999;-;-;-;-;-;-;-;-;-;-;-;-;-;-;-
1514102798784;-;-;5.97641;0.46466064;-5.417389;-;-;-;-;-;-;-;-;-;-;-;-;-;-;-
1514102798805;-;-;8.629196;2.9330902;-4.089813;-;-;-;-;-;-;-;-;-;-;-;-;-;-;-
1514102798825;-;-;12.365341;5.8396454;-5.0271454;-;-;-;-;-;-;-;-;-;-;-;-;-;-;-
1514102798845;-;-;17.396759;5.0220337;-4.519577;-;-;-;-;-;-;-;-;-;-;-;-;-;-;-
1514102798866;-;-;22.06665;3.6609192;-6.8311768;-;-;-;-;-;-;-;-;-;-;-;-;-;-;-
1514102798885;-;-;22.157623;1.2607422;-5.137268;-;-;-;-;-;-;-;-;-;-;-;-;-;-;-
1514102798905;-;-;14.875671;0.014556885;-2.3444366;-;-;-;-;-;-;-;-;-;-;-;-;-;-;-
1514102798926;-;-;8.690247;0.512558;-1.2083893;-;-;-;-;-;-;-;-;-;-;-;-;-;-;-
1514102798945;-;-;4.1831665;1.240387;-1.5471649;-;-;-;-;-;-;-;-;-;-;-;-;-;-;-
1514102798965;-;-;2.5934143;1.6054993;-1.9553833;-;-;-;-;-;-;-;-;-;-;-;-;-;-;-
1514102798986;-;-;4.135269;1.9035797;-1.9769287;-;-;-;-;-;-;-;-;-;-;-;-;-;-;-
1514102799006;-;-;6.6455994;1.3696747;-1.871582;-;-;-;-;-;-;-;-;-;-;-;-;-;-;-
1514102799027;-;-;8.577713;0.2515869;-1.4238739;-;-;-;-;-;-;-;-;-;-;-;-;-;-;-
1514102799046;-;-;8.596878;-0.10874939;-1.9302368;-;-;-;-;-;-;-;-;-;-;-;-;-;-;-
1514102799067;-;-;7.636795;0.06602478;-2.179245;-;-;-;-;-;-;-;-;-;-;-;-;-;-;-
1514102799087;-;-;6.3822327;1.0691986;-3.678009;-;-;-;-;-;-;-;-;-;-;-;-;-;-;-
1514102799107;-;-;5.9189606;2.1860962;-3.0591125;-;-;-;-;-;-;-;-;-;-;-;-;-;-;-
1514102799128;-;-;5.865082;2.2028503;-1.2550812;-;-;-;-;-;-;-;-;-;-;-;-;-;-;-
1514102799148;-;-;6.412155;1.4127655;0.20179749;-;-;-;-;-;-;-;-;-;-;-;-;-;-;-
1514102799168;-;-;7.3231506;0.49699402;-0.45062256;-;-;-;-;-;-;-;-;-;-;-;-;-;-;-
1514102799189;-;-;8.114441;-0.10395813;-1.4394226;-;-;-;-;-;-;-;-;-;-;-;-;-;-;-
1514102799209;-;-;8.048599;-0.02494812;-1.8847504;-;-;-;-;-;-;-;-;-;-;-;-;-;-;-
1514102799229;-;-;8.210205;0.596344;-2.349228;-;-;-;-;-;-;-;-;-;-;-;-;-;-;-
1514102799249;-;-;8.711792;0.9973755;-1.6608887;-;-;-;-;-;-;-;-;-;-;-;-;-;-;-
1514102799270;-;-;8.542999;1.6366272;-1.9793243;-;-;-;-;-;-;-;-;-;-;-;-;-;-;-
1514102799291;-;-;7.356674;1.4570618;-3.6492767;-;-;-;-;-;-;-;-;-;-;-;-;-;-;-
1514102799310;-;-;6.418152;0.40960693;-6.879059;-;-;-;-;-;-;-;-;-;-;-;-;-;-;-
1514102799331;-;-;7.4057617;-0.6761627;-6.777298;-;-;-;-;-;-;-;-;-;-;-;-;-;-;-
1514102799351;-;-;10.082474;-1.7631378;-5.2378235;-;-;-;-;-;-;-;-;-;-;-;-;-;-;-
1514102799371;-;-;13.179367;-2.0516357;-4.986435;-;-;-;-;-;-;-;-;-;-;-;-;-;-;-
1514102799392;-;-;16.550415;-1.6972961;-5.1468506;-;-;-;-;-;-;-;-;-;-;-;-;-;-;-
1514102799411;-;-;19.411484;-3.7239838;-7.1065063;-;-;-;-;-;-;-;-;-;-;-;-;-;-;-
1514102799431;-;-;21.56865;-4.055588;-7.278885;-;-;-;-;-;-;-;-;-;-;-;-;-;-;-
1514102799452;-;-;19.665268;-1.858902;-7.683502;-;-;-;-;-;-;-;-;-;-;-;-;-;-;-
1514102799471;-;-;10.087265;0.51493835;-4.982849;-;-;-;-;-;-;-;-;-;-;-;-;-;-;-
1514102799491;-;-;3.3009033;1.2188416;-3.0459442;-;-;-;-;-;-;-;-;-;-;-;-;-;-;-
1514102799512;-;-;1.1233673;0.7795105;-2.6281433;-;-;-;-;-;-;-;-;-;-;-;-;-;-;-
1514102799531;-;-;4.137665;0.44551086;-1.9637604;-;-;-;-;-;-;-;-;-;-;-;-;-;-;-
1514102799551;-;-;7.3686523;-0.1697998;-3.0543213;-;-;-;-;-;-;-;-;-;-;-;-;-;-;-
1514102799572;-;-;7.508713;-0.94192505;-2.7837677;-;-;-;-;-;-;-;-;-;-;-;-;-;-;-
1514102799591;-;-;5.7369995;-2.0684052;-0.77264404;-;-;-;-;-;-;-;-;-;-;-;-;-;-;-
1514102799611;-;-;4.714676;-3.5061188;0.137146;-;-;-;-;-;-;-;-;-;-;-;-;-;-;-
1514102799632;-;-;4.8798676;-4.539215;-0.6888428;-;-;-;-;-;-;-;-;-;-;-;-;-;-;-
1514102799651;-;-;5.9512787;-4.551193;-1.6166077;-;-;-;-;-;-;-;-;-;-;-;-;-;-;-
1514102799671;-;-;8.477158;-3.297821;-1.7758179;-;-;-;-;-;-;-;-;-;-;-;-;-;-;-
1514102799691;-;-;10.5242;-2.1605682;-1.258667;-;-;-;-;-;-;-;-;-;-;-;-;-;-;-
1514102799711;-;-;11.056915;-1.6326599;-1.5938568;-;-;-;-;-;-;-;-;-;-;-;-;-;-;-
1514102799732;-;-;10.3697815;-1.8996124;-2.4976654;-;-;-;-;-;-;-;-;-;-;-;-;-;-;-
1514102799752;-;-;10.347031;-2.3197937;-2.2295227;-;-;-;-;-;-;-;-;-;-;-;-;-;-;-
1514102799772;-;-;10.675034;-1.4183655;-1.0767059;-;-;-;-;-;-;-;-;-;-;-;-;-;-;-
1514102799793;-;-;11.392105;0.40481567;-1.1832428;-;-;-;-;-;-;-;-;-;-;-;-;-;-;-
1514102799813;-;-;11.582443;1.8473206;-1.8404541;-;-;-;-;-;-;-;-;-;-;-;-;-;-;-
1514102799833;-;-;10.353012;1.3804474;-2.8352509;-;-;-;-;-;-;-;-;-;-;-;-;-;-;-
1514102799853;-;-;8.319138;-1.4339294;-7.2369843;-;-;-;-;-;-;-;-;-;-;-;-;-;-;-
1514102799874;-;-;7.1411896;-2.423935;-9.026657;-;-;-;-;-;-;-;-;-;-;-;-;-;-;-
1514102799894;-;-;5.7968445;0.22285461;-6.7198486;-;-;-;-;-;-;-;-;-;-;-;-;-;-;-
1514102799914;-;-;5.5167236;3.7423248;-3.4158478;-;-;-;-;-;-;-;-;-;-;-;-;-;-;-
1514102799934;-;-;6.905365;2.7212067;-2.428238;-;-;-;-;-;-;-;-;-;-;-;-;-;-;-
1514102799955;-;-;11.266403;-2.1809235;-4.0359344;-;-;-;-;-;-;-;-;-;-;-;-;-;-;-
1514102799975;-;-;15.353302;-5.767441;-5.2342377;-;-;-;-;-;-;-;-;-;-;-;-;-;-;-
1514102799995;-;-;16.844894;-4.4578094;-6.2721252;-;-;-;-;-;-;-;-;-;-;-;-;-;-;-
1514102800016;-;-;11.809891;0.71006775;-5.1983337;-;-;-;-;-;-;-;-;-;-;-;-;-;-;-
1514102800036;-;-;7.9899445;1.7012787;-3.6277313;-;-;-;-;-;-;-;-;-;-;-;-;-;-;-
1514102800056;-;-;3.9030457;1.3696747;-2.7358856;-;-;-;-;-;-;-;-;-;-;-;-;-;-;-
1514102800077;-;-;1.5315857;0.3964386;-2.7083588;-;-;-;-;-;-;-;-;-;-;-;-;-;-;-
1514102800097;-;-;1.2825775;-0.13867188;-3.018402;-;-;-;-;-;-;-;-;-;-;-;-;-;-;-
1514102800117;-;-;3.897049;0.4909973;-3.6420898;-;-;-;-;-;-;-;-;-;-;-;-;-;-;-
1514102800138;-;-;8.060562;2.4470673;-3.7199097;-;-;-;-;-;-;-;-;-;-;-;-;-;-;-
1514102800159;-;-;11.7655945;3.9458313;-3.6169586;-;-;-;-;-;-;-;-;-;-;-;-;-;-;-
1514102800179;-;-;10.6666565;3.924286;-4.0790405;-;-;-;-;-;-;-;-;-;-;-;-;-;-;-
1514102800198;-;-;8.045013;2.4171448;-3.598999;-;-;-;-;-;-;-;-;-;-;-;-;-;-;-
1514102800218;-;-;6.691086;0.46347046;-2.8687744;-;-;-;-;-;-;-;-;-;-;-;-;-;-;-
1514102800238;-;-;7.0370483;-0.61750793;-2.6772308;-;-;-;-;-;-;-;-;-;-;-;-;-;-;-
1514102800259;-;-;7.363861;-0.38287354;-2.3480225;-;-;-;-;-;-;-;-;-;-;-;-;-;-;-
1514102800279;-;-;8.224579;0.84654236;-2.9753113;-;-;-;-;-;-;-;-;-;-;-;-;-;-;-
1514102800299;-;-;8.40892;1.695282;-3.8420105;-;-;-;-;-;-;-;-;-;-;-;-;-;-;-
1514102800320;-;-;9.118805;1.8449249;-2.0008698;-;-;-;-;-;-;-;-;-;-;-;-;-;-;-
1514102800340;-;-;10.391327;-0.05128479;-0.77983093;-;-;-;-;-;-;-;-;-;-;-;-;-;-;-
1514102800360;-;-;10.955154;-0.6402588;-4.9840393;-;-;-;-;-;-;-;-;-;-;-;-;-;-;-
1514102800381;-;-;9.882553;-0.29309082;-8.328751;-;-;-;-;-;-;-;-;-;-;-;-;-;-;-
1514102800401;-;-;12.086426;-3.4570313;-9.6371765;-;-;-;-;-;-;-;-;-;-;-;-;-;-;-
1514102800421;-;-;11.942764;-3.9753876;-8.332336;-;-;-;-;-;-;-;-;-;-;-;-;-;-;-
1514102800442;-;-;9.021835;-1.9606628;-5.4102173;-;-;-;-;-;-;-;-;-;-;-;-;-;-;-
1514102800462;-;-;6.987961;-0.5792084;-5.5730133;-;-;-;-;-;-;-;-;-;-;-;-;-;-;-
1514102800482;-;-;5.5382843;1.0117493;-5.3551483;-;-;-;-;-;-;-;-;-;-;-;-;-;-;-
1514102800503;-;-;5.083374;2.1082916;-5.3766937;-;-;-;-;-;-;-;-;-;-;-;-;-;-;-
1514102800523;-;-;5.8279724;2.4291077;-4.744629;-;-;-;-;-;-;-;-;-;-;-;-;-;-;-
1514102800543;-;-;8.729752;0.62268066;-3.8072968;-;-;-;-;-;-;-;-;-;-;-;-;-;-;-
1514102800563;-;-;10.675034;-1.3621063;-4.345993;-;-;-;-;-;-;-;-;-;-;-;-;-;-;-
1514102800584;-;-;10.54216;-2.4023895;-3.9293976;-;-;-;-;-;-;-;-;-;-;-;-;-;-;-
1514102800604;-;-;9.803543;-2.4442902;-3.0028381;-;-;-;-;-;-;-;-;-;-;-;-;-;-;-
1514102800624;-;-;7.904953;-2.1713562;-2.8352509;-;-;-;-;-;-;-;-;-;-;-;-;-;-;-
1514102800645;-;-;5.7729034;-1.7774963;-3.4936523;-;-;-;-;-;-;-;-;-;-;-;-;-;-;-
1514102800665;-;-;4.7445984;-1.4746399;-3.0399475;-;-;-;-;-;-;-;-;-;-;-;-;-;-;-
1514102800685;-;-;4.9469147;-0.49899292;-2.9537659;-;-;-;-;-;-;-;-;-;-;-;-;-;-;-
1514102800705;-;-;6.414551;0.6346588;-3.448166;-;-;-;-;-;-;-;-;-;-;-;-;-;-;-
1514102800726;-;-;7.7134094;1.7060547;-3.1381226;-;-;-;-;-;-;-;-;-;-;-;-;-;-;-
1514102800745;-;-;8.581314;1.9490662;-2.8172913;-;-;-;-;-;-;-;-;-;-;-;-;-;-;-
1514102800765;-;-;9.276825;1.2475739;-2.7957458;-;-;-;-;-;-;-;-;-;-;-;-;-;-;-
1514102800786;-;-;9.397736;0.15222168;-3.4421844;-;-;-;-;-;-;-;-;-;-;-;-;-;-;-
1514102800805;-;-;9.543777;-0.625885;-3.4780884;-;-;-;-;-;-;-;-;-;-;-;-;-;-;-
1514102800826;-;-;9.600037;-0.5133667;-2.5192108;-;-;-;-;-;-;-;-;-;-;-;-;-;-;-
1514102800846;-;-;9.784393;-0.39245605;-1.7506714;-;-;-;-;-;-;-;-;-;-;-;-;-;-;-
1514102800866;-;-;10.576874;-1.0939636;-1.2502899;-;-;-;-;-;-;-;-;-;-;-;-;-;-;-
1514102800887;-;-;10.774399;-2.1737366;-1.7003937;-;-;-;-;-;-;-;-;-;-;-;-;-;-;-
1514102800906;-;-;10.087265;-2.456253;-2.7993317;-;-;-;-;-;-;-;-;-;-;-;-;-;-;-
1514102800926;-;-;10.090851;-2.392807;-8.707031;-;-;-;-;-;-;-;-;-;-;-;-;-;-;-
1514102800947;-;-;9.723343;-2.748352;-8.933273;-;-;-;-;-;-;-;-;-;-;-;-;-;-;-
1514102800966;-;-;7.5781403;-0.8473511;-6.1344604;-;-;-;-;-;-;-;-;-;-;-;-;-;-;-
1514102800986;-;-;6.0817566;2.9510498;-3.8707428;-;-;-;-;-;-;-;-;-;-;-;-;-;-;-
1514102801007;-;-;5.446106;4.796982;-3.950943;-;-;-;-;-;-;-;-;-;-;-;-;-;-;-
1514102801027;-;-;7.9276886;2.8552704;-6.104538;-;-;-;-;-;-;-;-;-;-;-;-;-;-;-
1514102801047;-;-;12.3545685;-0.059661865;-4.361557;-;-;-;-;-;-;-;-;-;-;-;-;-;-;-
1514102801068;-;-;13.80545;-0.7922821;-3.812088;-;-;-;-;-;-;-;-;-;-;-;-;-;-;-
1514102801088;-;-;10.794754;0.2886963;-4.0826263;-;-;-;-;-;-;-;-;-;-;-;-;-;-;-
1514102801108;-;-;8.161133;0.55444336;-3.3081055;-;-;-;-;-;-;-;-;-;-;-;-;-;-;-
1514102801129;-;-;6.300827;0.6538086;-2.2223358;-;-;-;-;-;-;-;-;-;-;-;-;-;-;-
1514102801149;-;-;5.4137726;0.46347046;-1.4765472;-;-;-;-;-;-;-;-;-;-;-;-;-;-;-
1514102801169;-;-;5.3730774;0.23721313;-1.1820526;-;-;-;-;-;-;-;-;-;-;-;-;-;-;-
1514102801189;-;-;6.149994;0.59994507;-1.401123;-;-;-;-;-;-;-;-;-;-;-;-;-;-;-
1514102801210;-;-;6.6851044;1.8281708;-1.9434052;-;-;-;-;-;-;-;-;-;-;-;-;-;-;-
1514102801230;-;-;6.9891663;1.7527466;-2.3432465;-;-;-;-;-;-;-;-;-;-;-;-;-;-;-
1514102801250;-;-;7.453644;-0.097976685;-2.5252075;-;-;-;-;-;-;-;-;-;-;-;-;-;-;-
1514102801270;-;-;7.2429504;-1.9043884;-2.0044556;-;-;-;-;-;-;-;-;-;-;-;-;-;-;-
1514102801291;-;-;6.1871033;-2.0851593;-1.511261;-;-;-;-;-;-;-;-;-;-;-;-;-;-;-
1514102801310;-;-;5.414978;-1.1035309;-1.9146729;-;-;-;-;-;-;-;-;-;-;-;-;-;-;-
1514102801330;-;-;4.508774;0.9758301;-2.124176;-;-;-;-;-;-;-;-;-;-;-;-;-;-;-
1514102801351;-;-;5.30484;2.2830658;-2.3959198;-;-;-;-;-;-;-;-;-;-;-;-;-;-;-
1514102801371;-;-;6.8371277;2.734375;-2.2438812;-;-;-;-;-;-;-;-;-;-;-;-;-;-;-
1514102801391;-;-;7.8546753;2.5236816;-3.1608582;-;-;-;-;-;-;-;-;-;-;-;-;-;-;-
1514102801411;-;-;7.6427765;1.9418945;-4.147278;-;-;-;-;-;-;-;-;-;-;-;-;-;-;-
1514102801431;-;-;7.715805;1.2535553;-3.496048;-;-;-;-;-;-;-;-;-;-;-;-;-;-;-
1514102801452;-;-;7.671509;0.83576965;-2.3360596;-;-;-;-;-;-;-;-;-;-;-;-;-;-;-
1514102801472;-;-;7.2740784;1.2930603;-2.7981415;-;-;-;-;-;-;-;-;-;-;-;-;-;-;-
1514102801492;-;-;6.0769806;1.1230774;-5.812439;-;-;-;-;-;-;-;-;-;-;-;-;-;-;-
1514102801512;-;-;5.3180084;-2.1689606;-7.0430603;-;-;-;-;-;-;-;-;-;-;-;-;-;-;-
1514102801532;-;-;7.7134094;-3.7479248;-6.1895294;-;-;-;-;-;-;-;-;-;-;-;-;-;-;-
1514102801553;-;-;11.377731;-1.764328;-6.235016;-;-;-;-;-;-;-;-;-;-;-;-;-;-;-
1514102801573;-;-;15.04805;0.7232361;-11.618378;-;-;-;-;-;-;-;-;-;-;-;-;-;-;-
1514102801593;-;-;20.260223;4.137375;-8.012711;-;-;-;-;-;-;-;-;-;-;-;-;-;-;-
1514102801614;-;-;21.812866;2.569168;-4.0275574;-;-;-;-;-;-;-;-;-;-;-;-;-;-;-
1514102801634;-;-;16.565964;-3.0200958;-3.2973328;-;-;-;-;-;-;-;-;-;-;-;-;-;-;-
1514102801655;-;-;11.417236;-5.3005676;-2.3001404;-;-;-;-;-;-;-;-;-;-;-;-;-;-;-
1514102801675;-;-;7.4332886;-3.6437836;-1.1712799;-;-;-;-;-;-;-;-;-;-;-;-;-;-;-
1514102801696;-;-;4.293289;-0.95988464;-1.7817993;-;-;-;-;-;-;-;-;-;-;-;-;-;-;-
1514102801716;-;-;2.1049957;0.7447815;-2.8232727;-;-;-;-;-;-;-;-;-;-;-;-;-;-;-
1514102801736;-;-;2.4413757;1.6809235;-2.345642;-;-;-;-;-;-;-;-;-;-;-;-;-;-;-
1514102801757;-;-;6.003952;1.7671051;-2.6221619;-;-;-;-;-;-;-;-;-;-;-;-;-;-;-
1514102801777;-;-;8.72377;1.5133209;-3.180008;-;-;-;-;-;-;-;-;-;-;-;-;-;-;-
1514102801797;-;-;8.080917;0.48860168;-3.4026794;-;-;-;-;-;-;-;-;-;-;-;-;-;-;-
1514102801818;-;-;5.8962097;-0.2212677;-2.5958252;-;-;-;-;-;-;-;-;-;-;-;-;-;-;-
1514102801838;-;-;4.122101;-1.0736084;-2.6473083;-;-;-;-;-;-;-;-;-;-;-;-;-;-;-
1514102801858;-;-;4.277725;-1.3609161;-3.0447388;-;-;-;-;-;-;-;-;-;-;-;-;-;-;-
1514102801879;-;-;5.983597;-1.0065765;-0.80137634;-;-;-;-;-;-;-;-;-;-;-;-;-;-;-
1514102801899;-;-;7.5398254;-1.372879;1.4060822;-;-;-;-;-;-;-;-;-;-;-;-;-;-;-
1514102801920;-;-;7.782837;-2.9159393;1.0924377;-;-;-;-;-;-;-;-;-;-;-;-;-;-;-
1514102801941;-;-;7.722992;-4.8540497;-2.1181793;-;-;-;-;-;-;-;-;-;-;-;-;-;-;-
1514102801961;-;-;9.373795;-3.3540802;-3.175232;-;-;-;-;-;-;-;-;-;-;-;-;-;-;-
1514102801982;-;-;9.5354;-0.8090515;-3.4302063;-;-;-;-;-;-;-;-;-;-;-;-;-;-;-
1514102802002;-;-;9.825104;1.0344849;-6.8694763;-;-;-;-;-;-;-;-;-;-;-;-;-;-;-
1514102802022;-;-;11.13472;3.0611725;-8.203049;-;-;-;-;-;-;-;-;-;-;-;-;-;-;-
1514102802043;-;-;12.283936;5.3057404;-7.994751;-;-;-;-;-;-;-;-;-;-;-;-;-;-;-
1514102802063;-;-;14.049667;4.925064;-3.199173;-;-;-;-;-;-;-;-;-;-;-;-;-;-;-
1514102802083;-;-;13.312256;2.6529694;-1.574707;-;-;-;-;-;-;-;-;-;-;-;-;-;-;-
1514102802104;-;-;12.444351;2.4362946;-5.8663025;-;-;-;-;-;-;-;-;-;-;-;-;-;-;-
1514102802124;-;-;12.8489685;4.6497345;-8.022293;-;-;-;-;-;-;-;-;-;-;-;-;-;-;-
1514102802145;-;-;13.771942;3.0252686;-3.8815155;-;-;-;-;-;-;-;-;-;-;-;-;-;-;-
1514102802165;-;-;12.055298;1.169754;-1.4418182;-;-;-;-;-;-;-;-;-;-;-;-;-;-;-
1514102802186;-;-;9.419281;-0.41041565;-1.5519562;-;-;-;-;-;-;-;-;-;-;-;-;-;-;-
1514102802205;-;-;6.849106;0.20729065;-1.9673462;-;-;-;-;-;-;-;-;-;-;-;-;-;-;-
1514102802225;-;-;4.434555;2.1741333;-1.9948883;-;-;-;-;-;-;-;-;-;-;-;-;-;-;-
1514102802245;-;-;1.9864807;2.1286316;-1.2024078;-;-;-;-;-;-;-;-;-;-;-;-;-;-;-
1514102802265;-;-;2.6652374;0.18814087;-1.3149261;-;-;-;-;-;-;-;-;-;-;-;-;-;-;-
1514102802286;-;-;4.616516;-0.19013977;-0.6266022;-;-;-;-;-;-;-;-;-;-;-;-;-;-;-
1514102802306;-;-;5.6986847;-0.117126465;-1.3352814;-;-;-;-;-;-;-;-;-;-;-;-;-;-;-
1514102802328;-;-;6.039856;-0.2607727;-1.0898743;-;-;-;-;-;-;-;-;-;-;-;-;-;-;-
1514102802347;-;-;7.228592;-0.43914795;-0.5021057;-;-;-;-;-;-;-;-;-;-;-;-;-;-;-
1514102802367;-;-;8.568146;0.2300415;-1.4130859;-;-;-;-;-;-;-;-;-;-;-;-;-;-;-
1514102802388;-;-;7.790024;1.4414978;-3.6097717;-;-;-;-;-;-;-;-;-;-;-;-;-;-;-
1514102802407;-;-;6.545044;2.3165894;-2.8232727;-;-;-;-;-;-;-;-;-;-;-;-;-;-;-
1514102802427;-;-;6.3738556;3.5364227;-0.69721985;-;-;-;-;-;-;-;-;-;-;-;-;-;-;-
1514102802448;-;-;7.7050323;3.161728;-2.6377258;-;-;-;-;-;-;-;-;-;-;-;-;-;-;-
1514102802468;-;-;8.376602;1.556427;-5.843567;-;-;-;-;-;-;-;-;-;-;-;-;-;-;-
1514102802488;-;-;7.683487;-0.047698975;-6.1572113;-;-;-;-;-;-;-;-;-;-;-;-;-;-;-
1514102802508;-;-;7.0897217;-1.5500488;-5.303665;-;-;-;-;-;-;-;-;-;-;-;-;-;-;-
1514102802529;-;-;6.783264;-2.692093;-5.8543396;-;-;-;-;-;-;-;-;-;-;-;-;-;-;-
1514102802549;-;-;8.294006;-3.6916656;-6.0051727;-;-;-;-;-;-;-;-;-;-;-;-;-;-;-
1514102802568;-;-;11.171829;-4.0388336;-5.4628906;-;-;-;-;-;-;-;-;-;-;-;-;-;-;-
1514102802588;-;-;14.07959;-3.364853;-4.413025;-;-;-;-;-;-;-;-;-;-;-;-;-;-;-
1514102802609;-;-;18.727936;-1.8122253;-5.211487;-;-;-;-;-;-;-;-;-;-;-;-;-;-;-
1514102802629;-;-;22.34198;-1.4315338;-5.2761383;-;-;-;-;-;-;-;-;-;-;-;-;-;-;-
1514102802649;-;-;18.975739;-0.5720215;-3.4134521;-;-;-;-;-;-;-;-;-;-;-;-;-;-;-
1514102802669;-;-;12.282745;0.01574707;-1.8656006;-;-;-;-;-;-;-;-;-;-;-;-;-;-;-
1514102802689;-;-;6.6862946;0.6945038;-1.258667;-;-;-;-;-;-;-;-;-;-;-;-;-;-;-
1514102802710;-;-;2.1828003;0.5269165;-2.1062164;-;-;-;-;-;-;-;-;-;-;-;-;-;-;-
1514102802730;-;-;0.08547974;-0.3768921;-2.3779602;-;-;-;-;-;-;-;-;-;-;-;-;-;-;-
1514102802750;-;-;3.2865295;-1.155014;-2.1074066;-;-;-;-;-;-;-;-;-;-;-;-;-;-;-
1514102802770;-;-;8.812347;-0.65582275;-3.2530365;-;-;-;-;-;-;-;-;-;-;-;-;-;-;-
1514102802791;-;-;10.950378;0.4802246;-3.350006;-;-;-;-;-;-;-;-;-;-;-;-;-;-;-
1514102802811;-;-;8.174301;0.44192505;-3.1033936;-;-;-;-;-;-;-;-;-;-;-;-;-;-;-
1514102802831;-;-;5.422165;-0.16142273;-2.1732483;-;-;-;-;-;-;-;-;-;-;-;-;-;-;-
1514102802851;-;-;3.0806274;-1.0388947;-1.966156;-;-;-;-;-;-;-;-;-;-;-;-;-;-;-
1514102802872;-;-;3.493637;-1.3058472;-1.7339172;-;-;-;-;-;-;-;-;-;-;-;-;-;-;-
1514102802891;-;-;5.8004456;-1.4806213;-0.9055176;-;-;-;-;-;-;-;-;-;-;-;-;-;-;-
1514102802911;-;-;8.01268;-2.1617737;-0.9450226;-;-;-;-;-;-;-;-;-;-;-;-;-;-;-
1514102802931;-;-;8.278442;-2.6561737;-0.8061676;-;-;-;-;-;-;-;-;-;-;-;-;-;-;-
1514102802952;-;-;7.9264984;-2.9482727;-1.0395966;-;-;-;-;-;-;-;-;-;-;-;-;-;-;-
1514102802972;-;-;8.66391;-2.0779724;-1.0707245;-;-;-;-;-;-;-;-;-;-;-;-;-;-;-
1514102802992;-;-;9.365402;-0.39245605;-2.9369965;-;-;-;-;-;-;-;-;-;-;-;-;-;-;-
1514102803012;-;-;9.128387;0.74838257;-4.551895;-;-;-;-;-;-;-;-;-;-;-;-;-;-;-
1514102803032;-;-;8.380188;1.6761322;-7.9301147;-;-;-;-;-;-;-;-;-;-;-;-;-;-;-
1514102803053;-;-;7.509903;2.6589508;-5.5897827;-;-;-;-;-;-;-;-;-;-;-;-;-;-;-
1514102803072;-;-;8.353867;4.2199707;-3.4158478;-;-;-;-;-;-;-;-;-;-;-;-;-;-;-
1514102803092;-;-;11.520187;5.4158783;-5.18396;-;-;-;-;-;-;-;-;-;-;-;-;-;-;-
1514102803112;-;-;16.789825;2.160965;-3.219513;-;-;-;-;-;-;-;-;-;-;-;-;-;-;-
1514102803133;-;-;17.473373;-0.68814087;-8.2018585;-;-;-;-;-;-;-;-;-;-;-;-;-;-;-
1514102803153;-;-;20.038757;-0.08001709;-7.213043;-;-;-;-;-;-;-;-;-;-;-;-;-;-;-
1514102803173;-;-;15.822571;0.6681671;-3.827652;-;-;-;-;-;-;-;-;-;-;-;-;-;-;-
1514102803194;-;-;10.762421;1.8760529;-2.5718842;-;-;-;-;-;-;-;-;-;-;-;-;-;-;-
1514102803214;-;-;6.647995;2.3105927;-2.0559387;-;-;-;-;-;-;-;-;-;-;-;-;-;-;-
1514102803234;-;-;2.8543854;1.9287262;-1.8799591;-;-;-;-;-;-;-;-;-;-;-;-;-;-;-
1514102803254;-;-;0.23033142;1.3636932;-1.511261;-;-;-;-;-;-;-;-;-;-;-;-;-;-;-
1514102803275;-;-;2.1002045;0.75556946;-0.111846924;-;-;-;-;-;-;-;-;-;-;-;-;-;-;-
1514102803295;-;-;6.4803925;0.75556946;-0.35006714;-;-;-;-;-;-;-;-;-;-;-;-;-;-;-
1514102803315;-;-;8.82193;1.4438934;-1.1030426;-;-;-;-;-;-;-;-;-;-;-;-;-;-;-
1514102803335;-;-;7.7732697;1.5432587;-1.5938568;-;-;-;-;-;-;-;-;-;-;-;-;-;-;-
1514102803356;-;-;6.6192627;0.59394836;-1.0587463;-;-;-;-;-;-;-;-;-;-;-;-;-;-;-
1514102803376;-;-;6.2709045;-0.34217834;-1.4454193;-;-;-;-;-;-;-;-;-;-;-;-;-;-;-
1514102803396;-;-;7.221405;-0.4271698;-1.911087;-;-;-;-;-;-;-;-;-;-;-;-;-;-;-
1514102803417;-;-;7.36026;0.8896332;-1.610611;-;-;-;-;-;-;-;-;-;-;-;-;-;-;-
1514102803437;-;-;6.5079346;2.2662964;-2.0619202;-;-;-;-;-;-;-;-;-;-;-;-;-;-;-
1514102803457;-;-;5.552643;2.631424;-1.1054382;-;-;-;-;-;-;-;-;-;-;-;-;-;-;-
1514102803477;-;-;5.972824;1.532486;-1.0048828;-;-;-;-;-;-;-;-;-;-;-;-;-;-;-
1514102803498;-;-;7.612854;0.24081421;-3.4912567;-;-;-;-;-;-;-;-;-;-;-;-;-;-;-
1514102803518;-;-;7.904953;-0.0440979;-7.4321136;-;-;-;-;-;-;-;-;-;-;-;-;-;-;-
1514102803538;-;-;8.307175;-0.8066559;-8.607666;-;-;-;-;-;-;-;-;-;-;-;-;-;-;-
1514102803559;-;-;10.600815;-0.96946716;-8.107285;-;-;-;-;-;-;-;-;-;-;-;-;-;-;-
1514102803579;-;-;13.631882;-1.3429565;-8.30481;-;-;-;-;-;-;-;-;-;-;-;-;-;-;-
1514102803599;-;-;19.296555;-2.645401;-6.96286;-;-;-;-;-;-;-;-;-;-;-;-;-;-;-
1514102803619;-;-;18.818909;-3.562378;-3.7905426;-;-;-;-;-;-;-;-;-;-;-;-;-;-;-
1514102803640;-;-;13.700119;-2.9757996;-5.0199585;-;-;-;-;-;-;-;-;-;-;-;-;-;-;-
1514102803660;-;-;9.206192;-1.7882843;-4.7075195;-;-;-;-;-;-;-;-;-;-;-;-;-;-;-
1514102803680;-;-;6.268509;0.4694519;-4.186783;-;-;-;-;-;-;-;-;-;-;-;-;-;-;-
1514102803701;-;-;5.6352386;1.6126862;-3.4816895;-;-;-;-;-;-;-;-;-;-;-;-;-;-;-
1514102803721;-;-;7.066971;1.2224274;-3.7797546;-;-;-;-;-;-;-;-;-;-;-;-;-;-;-
1514102803741;-;-;7.9947357;0.09475708;-3.7270966;-;-;-;-;-;-;-;-;-;-;-;-;-;-;-
1514102803761;-;-;8.387375;-1.4219666;-2.3228912;-;-;-;-;-;-;-;-;-;-;-;-;-;-;-
1514102803782;-;-;7.5290527;-1.9846039;-2.5587158;-;-;-;-;-;-;-;-;-;-;-;-;-;-;-
1514102803802;-;-;6.1835175;-1.5943451;-3.1069946;-;-;-;-;-;-;-;-;-;-;-;-;-;-;-
1514102803823;-;-;4.9301453;-0.8485565;-3.1907806;-;-;-;-;-;-;-;-;-;-;-;-;-;-;-
1514102803843;-;-;4.7026978;-0.6426544;-3.0686798;-;-;-;-;-;-;-;-;-;-;-;-;-;-;-
1514102803863;-;-;5.32399;-0.99220276;-3.28656;-;-;-;-;-;-;-;-;-;-;-;-;-;-;-
1514102803883;-;-;6.2481537;-0.463089;-3.2027588;-;-;-;-;-;-;-;-;-;-;-;-;-;-;-
1514102803904;-;-;6.6551666;0.5532532;-2.9106598;-;-;-;-;-;-;-;-;-;-;-;-;-;-;-
1514102803924;-;-;6.6228485;0.4407196;-1.7626495;-;-;-;-;-;-;-;-;-;-;-;-;-;-;-
1514102803944;-;-;6.6180573;-0.36732483;-0.590683;-;-;-;-;-;-;-;-;-;-;-;-;-;-;-
1514102803965;-;-;7.643982;-1.1406403;-0.049591064;-;-;-;-;-;-;-;-;-;-;-;-;-;-;-
1514102803985;-;-;8.587296;-2.4371033;-1.1581116;-;-;-;-;-;-;-;-;-;-;-;-;-;-;-
1514102804005;-;-;9.099655;-3.601883;-2.2905731;-;-;-;-;-;-;-;-;-;-;-;-;-;-;-
1514102804026;-;-;6.7772827;-2.9710083;-4.6201324;-;-;-;-;-;-;-;-;-;-;-;-;-;-;-
1514102804046;-;-;4.501587;-0.8760834;-9.166718;-;-;-;-;-;-;-;-;-;-;-;-;-;-;-
1514102804066;-;-;4.5003967;3.0013275;-6.8227844;-;-;-;-;-;-;-;-;-;-;-;-;-;-;-
1514102804087;-;-;8.220978;6.956543;-2.6832123;-;-;-;-;-;-;-;-;-;-;-;-;-;-;-
1514102804106;-;-;11.947556;6.6931763;-6.397827;-;-;-;-;-;-;-;-;-;-;-;-;-;-;-
1514102804126;-;-;18.650131;2.2770844;-5.0594635;-;-;-;-;-;-;-;-;-;-;-;-;-;-;-
1514102804147;-;-;25.016312;0.5281067;-7.472824;-;-;-;-;-;-;-;-;-;-;-;-;-;-;-
1514102804167;-;-;24.490784;-0.77911377;-7.2729034;-;-;-;-;-;-;-;-;-;-;-;-;-;-;-
1514102804187;-;-;15.088745;-0.49061584;-3.0603027;-;-;-;-;-;-;-;-;-;-;-;-;-;-;-
1514102804208;-;-;7.3099823;1.640213;-1.1413574;-;-;-;-;-;-;-;-;-;-;-;-;-;-;-
1514102804229;-;-;1.7482605;3.0516052;-1.5890656;-;-;-;-;-;-;-;-;-;-;-;-;-;-;-
1514102804248;-;-;-0.27604675;3.730362;-2.2522583;-;-;-;-;-;-;-;-;-;-;-;-;-;-;-
1514102804269;-;-;2.3934937;3.1916656;-1.7027893;-;-;-;-;-;-;-;-;-;-;-;-;-;-;-
1514102804289;-;-;5.4568787;1.5288849;-2.1313477;-;-;-;-;-;-;-;-;-;-;-;-;-;-;-
1514102804309;-;-;8.404144;-0.5145569;-1.8153229;-;-;-;-;-;-;-;-;-;-;-;-;-;-;-
1514102804330;-;-;8.326324;-1.404007;-1.4573822;-;-;-;-;-;-;-;-;-;-;-;-;-;-;-
1514102804350;-;-;7.5518036;-0.80784607;-1.432251;-;-;-;-;-;-;-;-;-;-;-;-;-;-;-
1514102804371;-;-;6.6862946;0.5819855;-2.5646973;-;-;-;-;-;-;-;-;-;-;-;-;-;-;-
1514102804391;-;-;6.0733795;1.8676758;-2.9298248;-;-;-;-;-;-;-;-;-;-;-;-;-;-;-
1514102804411;-;-;5.0103607;2.0173035;-2.7382813;-;-;-;-;-;-;-;-;-;-;-;-;-;-;-
1514102804431;-;-;4.407013;1.2715149;-1.2814178;-;-;-;-;-;-;-;-;-;-;-;-;-;-;-
1514102804452;-;-;5.2066803;2.0807495;-0.882782;-;-;-;-;-;-;-;-;-;-;-;-;-;-;-
1514102804471;-;-;6.383438;3.477768;-1.6632843;-;-;-;-;-;-;-;-;-;-;-;-;-;-;-
1514102804491;-;-;6.8921967;2.9306946;-3.654068;-;-;-;-;-;-;-;-;-;-;-;-;-;-;-
1514102804512;-;-;6.8395233;1.3720703;-4.472885;-;-;-;-;-;-;-;-;-;-;-;-;-;-;-
1514102804531;-;-;5.8160095;-0.87249756;-5.2366333;-;-;-;-;-;-;-;-;-;-;-;-;-;-;-
1514102804551;-;-;6.7581177;-2.6418152;-7.052643;-;-;-;-;-;-;-;-;-;-;-;-;-;-;-
1514102804572;-;-;10.471527;-3.100296;-4.2178955;-;-;-;-;-;-;-;-;-;-;-;-;-;-;-
1514102804591;-;-;14.706879;-3.9514313;-5.3084564;-;-;-;-;-;-;-;-;-;-;-;-;-;-;-
1514102804611;-;-;20.247055;-2.977005;-6.3966217;-;-;-;-;-;-;-;-;-;-;-;-;-;-;-
1514102804632;-;-;23.424164;0.02293396;-6.402603;-;-;-;-;-;-;-;-;-;-;-;-;-;-;-
1514102804652;-;-;20.236282;0.8632965;-7.1196747;-;-;-;-;-;-;-;-;-;-;-;-;-;-;-
1514102804672;-;-;15.022903;-0.29190063;-3.1393127;-;-;-;-;-;-;-;-;-;-;-;-;-;-;-
1514102804693;-;-;9.185837;-0.81503296;-1.6692657;-;-;-;-;-;-;-;-;-;-;-;-;-;-;-
1514102804712;-;-;4.7577667;-0.78990173;-1.8213043;-;-;-;-;-;-;-;-;-;-;-;-;-;-;-
1514102804732;-;-;1.9146576;-0.1410675;-1.4095001;-;-;-;-;-;-;-;-;-;-;-;-;-;-;-
1514102804753;-;-;1.4753113;-0.32182312;-1.4777374;-;-;-;-;-;-;-;-;-;-;-;-;-;-;-
1514102804773;-;-;4.0742188;-0.9215698;-2.1337433;-;-;-;-;-;-;-;-;-;-;-;-;-;-;-
1514102804793;-;-;6.2038727;-0.73602295;-2.8460236;-;-;-;-;-;-;-;-;-;-;-;-;-;-;-
1514102804814;-;-;7.082535;-0.34936523;-2.4593658;-;-;-;-;-;-;-;-;-;-;-;-;-;-;-
1514102804834;-;-;6.084152;-0.8066559;-2.3875275;-;-;-;-;-;-;-;-;-;-;-;-;-;-;-
1514102804854;-;-;4.9253693;-1.0484619;-2.3743591;-;-;-;-;-;-;-;-;-;-;-;-;-;-;-
1514102804875;-;-;5.14682;-1.0724182;-2.6377258;-;-;-;-;-;-;-;-;-;-;-;-;-;-;-
1514102804895;-;-;6.3104095;-0.40802002;-3.6804047;-;-;-;-;-;-;-;-;-;-;-;-;-;-;-
1514102804915;-;-;6.249359;0.6526184;-4.2095184;-;-;-;-;-;-;-;-;-;-;-;-;-;-;-
1514102804936;-;-;6.1847076;0.93273926;-1.9553833;-;-;-;-;-;-;-;-;-;-;-;-;-;-;-
1514102804956;-;-;7.5158844;-0.8605194;0.99546814;-;-;-;-;-;-;-;-;-;-;-;-;-;-;-
1514102804977;-;-;8.903336;-3.5671692;0.1874237;-;-;-;-;-;-;-;-;-;-;-;-;-;-;-
1514102804997;-;-;9.0577545;-2.9243317;-2.7478638;-;-;-;-;-;-;-;-;-;-;-;-;-;-;-
1514102805017;-;-;9.023041;-0.5648346;-3.5331573;-;-;-;-;-;-;-;-;-;-;-;-;-;-;-
1514102805038;-;-;8.140778;0.47782898;-4.2478333;-;-;-;-;-;-;-;-;-;-;-;-;-;-;-
1514102805057;-;-;7.9839478;-0.40322876;-7.658371;-;-;-;-;-;-;-;-;-;-;-;-;-;-;-
1514102805077;-;-;8.825516;0.4467163;-7.1867065;-;-;-;-;-;-;-;-;-;-;-;-;-;-;-
1514102805098;-;-;10.001068;3.7806396;-5.461685;-;-;-;-;-;-;-;-;-;-;-;-;-;-;-
1514102805118;-;-;11.393295;5.8600006;-5.67717;-;-;-;-;-;-;-;-;-;-;-;-;-;-;-
1514102805139;-;-;14.036499;3.620224;-4.2717743;-;-;-;-;-;-;-;-;-;-;-;-;-;-;-
1514102805158;-;-;13.935944;0.50416565;-7.543442;-;-;-;-;-;-;-;-;-;-;-;-;-;-;-
1514102805178;-;-;16.026077;-2.0923462;-9.524643;-;-;-;-;-;-;-;-;-;-;-;-;-;-;-
1514102805199;-;-;13.654617;-0.9910126;-4.5770264;-;-;-;-;-;-;-;-;-;-;-;-;-;-;-
1514102805219;-;-;12.093597;1.9646301;-2.3252869;-;-;-;-;-;-;-;-;-;-;-;-;-;-;-
1514102805239;-;-;9.224152;3.6154327;-3.6648407;-;-;-;-;-;-;-;-;-;-;-;-;-;-;-
1514102805260;-;-;5.0534515;3.4454498;-3.4218292;-;-;-;-;-;-;-;-;-;-;-;-;-;-;-
1514102805280;-;-;2.2869568;1.8233795;-2.1313477;-;-;-;-;-;-;-;-;-;-;-;-;-;-;-
1514102805304;-;-;3.790512;-0.119522095;-1.7602539;-;-;-;-;-;-;-;-;-;-;-;-;-;-;-
1514102805324;-;-;7.9576263;-1.4961853;-1.7913818;-;-;-;-;-;-;-;-;-;-;-;-;-;-;-
1514102805345;-;-;9.537796;-1.5883636;-2.6161804;-;-;-;-;-;-;-;-;-;-;-;-;-;-;-
1514102805365;-;-;7.8319244;-0.32063293;-2.4641418;-;-;-;-;-;-;-;-;-;-;-;-;-;-;-
1514102805385;-;-;5.97641;1.9646301;-2.4533691;-;-;-;-;-;-;-;-;-;-;-;-;-;-;-
1514102805406;-;-;5.5993347;2.6984558;-2.9250336;-;-;-;-;-;-;-;-;-;-;-;-;-;-;-
1514102805425;-;-;7.2704773;1.651001;-2.9525604;-;-;-;-;-;-;-;-;-;-;-;-;-;-;-
1514102805445;-;-;7.5039215;0.4479065;-3.0387573;-;-;-;-;-;-;-;-;-;-;-;-;-;-;-
1514102805465;-;-;6.074585;1.1290588;-1.9805145;-;-;-;-;-;-;-;-;-;-;-;-;-;-;-
1514102805486;-;-;4.5794067;2.77388;-1.5328064;-;-;-;-;-;-;-;-;-;-;-;-;-;-;-
1514102805506;-;-;4.7649536;3.532837;-1.5375977;-;-;-;-;-;-;-;-;-;-;-;-;-;-;-
1514102805526;-;-;6.8012238;3.2072296;-2.2594452;-;-;-;-;-;-;-;-;-;-;-;-;-;-;-
1514102805547;-;-;9.222961;2.011322;-2.3695831;-;-;-;-;-;-;-;-;-;-;-;-;-;-;-
1514102805567;-;-;10.265625;0.7232361;-3.0088348;-;-;-;-;-;-;-;-;-;-;-;-;-;-;-
1514102805588;-;-;9.55455;0.14624023;-3.9928436;-;-;-;-;-;-;-;-;-;-;-;-;-;-;-
1514102805608;-;-;6.3295593;-1.1609955;-5.5047913;-;-;-;-;-;-;-;-;-;-;-;-;-;-;-
1514102805628;-;-;5.6927032;-2.9267273;-5.6089325;-;-;-;-;-;-;-;-;-;-;-;-;-;-;-
1514102805648;-;-;7.7457275;-5.176071;-7.797226;-;-;-;-;-;-;-;-;-;-;-;-;-;-;-
1514102805669;-;-;13.959885;-6.5287933;-6.923355;-;-;-;-;-;-;-;-;-;-;-;-;-;-;-
1514102805689;-;-;18.12819;-2.9793854;-6.5187225;-;-;-;-;-;-;-;-;-;-;-;-;-;-;-
1514102805710;-;-;19.404297;0.7735138;-6.274521;-;-;-;-;-;-;-;-;-;-;-;-;-;-;-
1514102805730;-;-;20.194382;-2.1007233;-6.8862457;-;-;-;-;-;-;-;-;-;-;-;-;-;-;-
1514102805750;-;-;16.992142;-3.9167175;-7.278885;-;-;-;-;-;-;-;-;-;-;-;-;-;-;-
1514102805770;-;-;10.721725;-3.242752;-3.678009;-;-;-;-;-;-;-;-;-;-;-;-;-;-;-
1514102805791;-;-;5.296463;-1.3657074;-3.3583832;-;-;-;-;-;-;-;-;-;-;-;-;-;-;-
1514102805811;-;-;1.5866547;-0.85095215;-3.3871155;-;-;-;-;-;-;-;-;-;-;-;-;-;-;-
1514102805831;-;-;0.32369995;-1.5093536;-3.1105804;-;-;-;-;-;-;-;-;-;-;-;-;-;-;-
1514102805852;-;-;2.106186;-0.8581238;-3.1500854;-;-;-;-;-;-;-;-;-;-;-;-;-;-;-
1514102805872;-;-;6.0015564;0.0756073;-2.3013458;-;-;-;-;-;-;-;-;-;-;-;-;-;-;-
1514102805892;-;-;8.48674;-0.2272644;-2.2798004;-;-;-;-;-;-;-;-;-;-;-;-;-;-;-
1514102805912;-;-;8.5633545;-1.483017;-1.5866699;-;-;-;-;-;-;-;-;-;-;-;-;-;-;-
1514102805933;-;-;8.089294;-2.6585693;-1.337677;-;-;-;-;-;-;-;-;-;-;-;-;-;-;-
1514102805953;-;-;7.5206757;-2.9722137;-0.68644714;-;-;-;-;-;-;-;-;-;-;-;-;-;-;-
1514102805973;-;-;7.614044;-2.7387695;-0.62779236;-;-;-;-;-;-;-;-;-;-;-;-;-;-;-
1514102805993;-;-;8.639969;-1.9307251;-1.4514008;-;-;-;-;-;-;-;-;-;-;-;-;-;-;-
1514102806014;-;-;8.848267;-1.0484619;-1.9984741;-;-;-;-;-;-;-;-;-;-;-;-;-;-;-
1514102806034;-;-;9.461182;-0.7444;-2.7239227;-;-;-;-;-;-;-;-;-;-;-;-;-;-;-
1514102806054;-;-;11.37056;-1.1598053;-1.7075806;-;-;-;-;-;-;-;-;-;-;-;-;-;-;-
1514102806074;-;-;13.588776;-0.9539032;-1.1868439;-;-;-;-;-;-;-;-;-;-;-;-;-;-;-
1514102806094;-;-;12.705322;-0.8677063;-6.9221497;-;-;-;-;-;-;-;-;-;-;-;-;-;-;-
1514102806115;-;-;13.362534;0.067230225;-7.7469482;-;-;-;-;-;-;-;-;-;-;-;-;-;-;-
1514102806135;-;-;11.119156;0.6645813;-7.797226;-;-;-;-;-;-;-;-;-;-;-;-;-;-;-
1514102806155;-;-;6.6180573;0.62268066;-7.275299;-;-;-;-;-;-;-;-;-;-;-;-;-;-;-
1514102806176;-;-;3.8108673;1.0213165;-6.188324;-;-;-;-;-;-;-;-;-;-;-;-;-;-;-
1514102806196;-;-;5.2545624;1.3217926;-3.3631744;-;-;-;-;-;-;-;-;-;-;-;-;-;-;-
1514102806217;-;-;8.005508;-0.2212677;-3.432602;-;-;-;-;-;-;-;-;-;-;-;-;-;-;-
1514102806237;-;-;11.484283;-1.9127808;-4.3950653;-;-;-;-;-;-;-;-;-;-;-;-;-;-;-
1514102806257;-;-;12.589203;-2.2790833;-5.732239;-;-;-;-;-;-;-;-;-;-;-;-;-;-;-
1514102806277;-;-;10.551743;-2.1785278;-5.199524;-;-;-;-;-;-;-;-;-;-;-;-;-;-;-
1514102806298;-;-;8.144363;-1.0484619;-3.9677124;-;-;-;-;-;-;-;-;-;-;-;-;-;-;-
1514102806318;-;-;5.5825653;0.5053711;-3.0878448;-;-;-;-;-;-;-;-;-;-;-;-;-;-;-
1514102806338;-;-;3.244629;1.3146057;-3.4541473;-;-;-;-;-;-;-;-;-;-;-;-;-;-;-
1514102806358;-;-;2.1995697;1.3265839;-3.9018707;-;-;-;-;-;-;-;-;-;-;-;-;-;-;-
1514102806379;-;-;4.3184357;1.8485107;-3.5295715;-;-;-;-;-;-;-;-;-;-;-;-;-;-;-
1514102806399;-;-;10.70018;2.6697235;-3.7989197;-;-;-;-;-;-;-;-;-;-;-;-;-;-;-
1514102806419;-;-;12.538925;2.5583954;-4.594986;-;-;-;-;-;-;-;-;-;-;-;-;-;-;-
1514102806439;-;-;9.708984;1.3170013;-4.278946;-;-;-;-;-;-;-;-;-;-;-;-;-;-;-
1514102806460;-;-;6.6898956;-0.10635376;-3.0603027;-;-;-;-;-;-;-;-;-;-;-;-;-;-;-
1514102806480;-;-;5.9895782;-0.84017944;-2.3623962;-;-;-;-;-;-;-;-;-;-;-;-;-;-;-
1514102806500;-;-;6.7257996;-0.72883606;-1.5806885;-;-;-;-;-;-;-;-;-;-;-;-;-;-;-
1514102806521;-;-;8.297592;0.02772522;-1.8823547;-;-;-;-;-;-;-;-;-;-;-;-;-;-;-
1514102806541;-;-;9.49469;1.5420532;-3.0507202;-;-;-;-;-;-;-;-;-;-;-;-;-;-;-
1514102806561;-;-;8.661514;2.3740387;-3.8491974;-;-;-;-;-;-;-;-;-;-;-;-;-;-;-
1514102806582;-;-;7.849884;1.4846039;-1.9888916;-;-;-;-;-;-;-;-;-;-;-;-;-;-;-
1514102806602;-;-;7.707428;0.1797638;-0.49371338;-;-;-;-;-;-;-;-;-;-;-;-;-;-;-
1514102806622;-;-;9.445618;-0.6402588;-2.6676483;-;-;-;-;-;-;-;-;-;-;-;-;-;-;-
1514102806643;-;-;11.503433;-0.93115234;-6.6695557;-;-;-;-;-;-;-;-;-;-;-;-;-;-;-
1514102806663;-;-;14.056854;-2.921936;-11.460358;-;-;-;-;-;-;-;-;-;-;-;-;-;-;-
1514102806683;-;-;15.0312805;-3.45224;-9.460007;-;-;-;-;-;-;-;-;-;-;-;-;-;-;-
1514102806704;-;-;11.026993;-0.5564575;-6.559433;-;-;-;-;-;-;-;-;-;-;-;-;-;-;-
1514102806724;-;-;6.6862946;-1.4854126;-4.720688;-;-;-;-;-;-;-;-;-;-;-;-;-;-;-
1514102806744;-;-;3.6133423;-2.2731018;-4.179596;-;-;-;-;-;-;-;-;-;-;-;-;-;-;-
1514102806765;-;-;3.4840546;-1.2591553;-5.250992;-;-;-;-;-;-;-;-;-;-;-;-;-;-;-
1514102806785;-;-;4.690735;0.56163025;-5.097763;-;-;-;-;-;-;-;-;-;-;-;-;-;-;-
1514102806805;-;-;6.4720154;1.453476;-4.8942566;-;-;-;-;-;-;-;-;-;-;-;-;-;-;-
1514102806826;-;-;8.815933;0.8309784;-4.958908;-;-;-;-;-;-;-;-;-;-;-;-;-;-;-
1514102806845;-;-;9.550964;-0.46188354;-4.0993805;-;-;-;-;-;-;-;-;-;-;-;-;-;-;-
1514102806866;-;-;9.699402;-2.1462097;-3.1069946;-;-;-;-;-;-;-;-;-;-;-;-;-;-;-
1514102806886;-;-;9.547363;-3.2870483;-2.6078033;-;-;-;-;-;-;-;-;-;-;-;-;-;-;-
1514102806906;-;-;7.949234;-3.084732;-2.6221619;-;-;-;-;-;-;-;-;-;-;-;-;-;-;-
1514102806926;-;-;5.0103607;-1.5955505;-2.2259216;-;-;-;-;-;-;-;-;-;-;-;-;-;-;-
1514102806946;-;-;4.410614;-0.2212677;-2.2223358;-;-;-;-;-;-;-;-;-;-;-;-;-;-;-
1514102806967;-;-;6.2086487;0.7795105;-2.3779602;-;-;-;-;-;-;-;-;-;-;-;-;-;-;-
1514102806987;-;-;8.083313;1.0093536;-2.5682983;-;-;-;-;-;-;-;-;-;-;-;-;-;-;-
1514102807007;-;-;8.917694;0.6849365;-2.0643158;-;-;-;-;-;-;-;-;-;-;-;-;-;-;-
1514102807028;-;-;9.06134;-0.5097656;-1.9350281;-;-;-;-;-;-;-;-;-;-;-;-;-;-;-
1514102807048;-;-;8.857834;-1.6913147;-2.8843231;-;-;-;-;-;-;-;-;-;-;-;-;-;-;-
1514102807068;-;-;9.694611;-1.8361664;-3.247055;-;-;-;-;-;-;-;-;-;-;-;-;-;-;-
1514102807089;-;-;11.007828;0.15222168;-3.0543213;-;-;-;-;-;-;-;-;-;-;-;-;-;-;-
1514102807109;-;-;11.0030365;0.91596985;-2.3695831;-;-;-;-;-;-;-;-;-;-;-;-;-;-;-
1514102807129;-;-;10.190216;-1.0975494;-0.7606659;-;-;-;-;-;-;-;-;-;-;-;-;-;-;-
1514102807150;-;-;8.92128;-4.0747375;-3.9736938;-;-;-;-;-;-;-;-;-;-;-;-;-;-;-
1514102807170;-;-;11.880524;-5.002487;-10.414093;-;-;-;-;-;-;-;-;-;-;-;-;-;-;-
1514102807190;-;-;12.112762;-2.2359924;-9.050598;-;-;-;-;-;-;-;-;-;-;-;-;-;-;-
1514102807211;-;-;9.268448;2.002945;-6.729416;-;-;-;-;-;-;-;-;-;-;-;-;-;-;-
1514102807231;-;-;6.260132;4.782608;-3.899475;-;-;-;-;-;-;-;-;-;-;-;-;-;-;-
1514102807251;-;-;6.632431;2.023285;-4.799698;-;-;-;-;-;-;-;-;-;-;-;-;-;-;-
1514102807271;-;-;8.687851;-2.495758;-5.3240204;-;-;-;-;-;-;-;-;-;-;-;-;-;-;-
1514102807292;-;-;11.742859;-4.2004395;-4.409439;-;-;-;-;-;-;-;-;-;-;-;-;-;-;-
1514102807312;-;-;11.84581;-2.2683105;-3.638504;-;-;-;-;-;-;-;-;-;-;-;-;-;-;-
1514102807332;-;-;10.186615;-0.2787323;-3.903061;-;-;-;-;-;-;-;-;-;-;-;-;-;-;-
1514102807352;-;-;8.625595;0.0049743652;-3.827652;-;-;-;-;-;-;-;-;-;-;-;-;-;-;-
1514102807373;-;-;6.37027;0.37368774;-3.2554321;-;-;-;-;-;-;-;-;-;-;-;-;-;-;-
1514102807393;-;-;4.372299;0.41438293;-3.0746765;-;-;-;-;-;-;-;-;-;-;-;-;-;-;-
1514102807413;-;-;2.0355682;0.4359436;-3.1536713;-;-;-;-;-;-;-;-;-;-;-;-;-;-;-
1514102807433;-;-;3.648056;0.9602661;-2.6748352;-;-;-;-;-;-;-;-;-;-;-;-;-;-;-
1514102807454;-;-;8.183868;1.8796387;-3.1548767;-;-;-;-;-;-;-;-;-;-;-;-;-;-;-
1514102807474;-;-;10.695389;1.8497162;-3.0052338;-;-;-;-;-;-;-;-;-;-;-;-;-;-;-
1514102807494;-;-;10.355408;1.5145264;-2.4078827;-;-;-;-;-;-;-;-;-;-;-;-;-;-;-
1514102807515;-;-;9.161896;1.461853;-2.2881775;-;-;-;-;-;-;-;-;-;-;-;-;-;-;-
1514102807535;-;-;8.7812195;1.8640747;-2.6664581;-;-;-;-;-;-;-;-;-;-;-;-;-;-;-
1514102807556;-;-;8.255692;1.971817;-2.9501648;-;-;-;-;-;-;-;-;-;-;-;-;-;-;-
1514102807576;-;-;7.8869934;1.2308044;-3.4637299;-;-;-;-;-;-;-;-;-;-;-;-;-;-;-
1514102807596;-;-;7.2273865;0.809433;-4.4692993;-;-;-;-;-;-;-;-;-;-;-;-;-;-;-
1514102807616;-;-;7.1160583;2.687683;-3.3751373;-;-;-;-;-;-;-;-;-;-;-;-;-;-;-
1514102807637;-;-;7.2597046;4.1804657;-2.100235;-;-;-;-;-;-;-;-;-;-;-;-;-;-;-
1514102807657;-;-;8.358643;3.316162;-2.6676483;-;-;-;-;-;-;-;-;-;-;-;-;-;-;-
1514102807677;-;-;9.498291;1.3840332;-5.6795654;-;-;-;-;-;-;-;-;-;-;-;-;-;-;-
1514102807698;-;-;10.789963;-1.1502228;-11.554932;-;-;-;-;-;-;-;-;-;-;-;-;-;-;-
1514102807718;-;-;13.009384;-3.792221;-6.2721252;-;-;-;-;-;-;-;-;-;-;-;-;-;-;-
1514102807739;-;-;9.462372;-1.4506989;-3.408661;-;-;-;-;-;-;-;-;-;-;-;-;-;-;-
1514102807759;-;-;8.502304;-1.4470978;-2.9417877;-;-;-;-;-;-;-;-;-;-;-;-;-;-;-
1514102807778;-;-;7.964798;-0.6797638;-5.216278;-;-;-;-;-;-;-;-;-;-;-;-;-;-;-
1514102807798;-;-;8.307175;1.4091797;-4.0251617;-;-;-;-;-;-;-;-;-;-;-;-;-;-;-
1514102807818;-;-;8.272461;3.5088959;-4.5734406;-;-;-;-;-;-;-;-;-;-;-;-;-;-;-
1514102807839;-;-;8.477158;3.259903;-3.666031;-;-;-;-;-;-;-;-;-;-;-;-;-;-;-
1514102807859;-;-;9.404907;0.72683716;-3.0698853;-;-;-;-;-;-;-;-;-;-;-;-;-;-;-
1514102807879;-;-;9.63237;-1.6673737;-3.3069;-;-;-;-;-;-;-;-;-;-;-;-;-;-;-
1514102807900;-;-;8.156342;-2.5639954;-2.421051;-;-;-;-;-;-;-;-;-;-;-;-;-;-;-
1514102807919;-;-;6.3104095;-2.4969635;-1.7626495;-;-;-;-;-;-;-;-;-;-;-;-;-;-;-
1514102807939;-;-;3.569046;-1.9355164;-2.4330292;-;-;-;-;-;-;-;-;-;-;-;-;-;-;-
1514102807960;-;-;2.178009;-0.70610046;-3.0531158;-;-;-;-;-;-;-;-;-;-;-;-;-;-;-
1514102807980;-;-;5.0330963;0.8046417;-3.0782623;-;-;-;-;-;-;-;-;-;-;-;-;-;-;-
1514102808000;-;-;8.025848;1.8425293;-3.9042664;-;-;-;-;-;-;-;-;-;-;-;-;-;-;-
1514102808021;-;-;9.767639;2.2315826;-3.1895905;-;-;-;-;-;-;-;-;-;-;-;-;-;-;-
1514102808041;-;-;9.135559;1.4881897;-2.6796265;-;-;-;-;-;-;-;-;-;-;-;-;-;-;-
1514102808061;-;-;7.1998596;0.3964386;-2.108612;-;-;-;-;-;-;-;-;-;-;-;-;-;-;-
1514102808082;-;-;5.8830414;-1.0712128;-2.1409302;-;-;-;-;-;-;-;-;-;-;-;-;-;-;-
1514102808102;-;-;5.398224;-2.3401337;-1.1257935;-;-;-;-;-;-;-;-;-;-;-;-;-;-;-
1514102808122;-;-;6.0721893;-2.4143677;-0.15733337;-;-;-;-;-;-;-;-;-;-;-;-;-;-;-
1514102808142;-;-;7.355484;-1.9917908;-0.6014557;-;-;-;-;-;-;-;-;-;-;-;-;-;-;-
1514102808163;-;-;8.857834;-1.6937103;-2.7227173;-;-;-;-;-;-;-;-;-;-;-;-;-;-;-
1514102808183;-;-;9.507858;-1.0879669;-2.9992523;-;-;-;-;-;-;-;-;-;-;-;-;-;-;-
1514102808204;-;-;10.036987;-0.3864746;-2.531189;-;-;-;-;-;-;-;-;-;-;-;-;-;-;-
1514102808224;-;-;10.550537;-0.8282013;-2.8460236;-;-;-;-;-;-;-;-;-;-;-;-;-;-;-
1514102808244;-;-;9.106842;-1.3812561;-6.624069;-;-;-;-;-;-;-;-;-;-;-;-;-;-;-
1514102808264;-;-;7.0262756;-0.48703003;-8.210236;-;-;-;-;-;-;-;-;-;-;-;-;-;-;-
1514102808285;-;-;6.920929;3.1904602;-6.871872;-;-;-;-;-;-;-;-;-;-;-;-;-;-;-
1514102808305;-;-;7.2082367;6.8966827;-5.3120575;-;-;-;-;-;-;-;-;-;-;-;-;-;-;-
1514102808325;-;-;9.43364;7.0463257;-6.305649;-;-;-;-;-;-;-;-;-;-;-;-;-;-;-
1514102808347;-;-;15.538864;1.7024689;-3.4505615;-;-;-;-;-;-;-;-;-;-;-;-;-;-;-
1514102808367;-;-;16.091919;-2.2048645;-2.3049316;-;-;-;-;-;-;-;-;-;-;-;-;-;-;-
1514102808387;-;-;14.559631;-0.6833496;-7.7589264;-;-;-;-;-;-;-;-;-;-;-;-;-;-;-
1514102808407;-;-;13.989807;2.430313;-5.4389496;-;-;-;-;-;-;-;-;-;-;-;-;-;-;-
1514102808428;-;-;12.153458;3.3580627;-3.7199097;-;-;-;-;-;-;-;-;-;-;-;-;-;-;-
1514102808448;-;-;10.962341;2.474594;-1.8165131;-;-;-;-;-;-;-;-;-;-;-;-;-;-;-
1514102808468;-;-;6.0877533;1.7000732;-1.1569061;-;-;-;-;-;-;-;-;-;-;-;-;-;-;-
1514102808488;-;-;1.3591919;1.671341;-1.061142;-;-;-;-;-;-;-;-;-;-;-;-;-;-;-
1514102808509;-;-;0.5703125;1.4857941;0.4759369;-;-;-;-;-;-;-;-;-;-;-;-;-;-;-
1514102808529;-;-;3.5319366;1.0129395;0.14912415;-;-;-;-;-;-;-;-;-;-;-;-;-;-;-
1514102808549;-;-;6.521103;-0.14225769;-1.6321564;-;-;-;-;-;-;-;-;-;-;-;-;-;-;-
1514102808570;-;-;8.112045;-0.5037842;-2.4773102;-;-;-;-;-;-;-;-;-;-;-;-;-;-;-
1514102808589;-;-;7.387802;0.07321167;-2.1014252;-;-;-;-;-;-;-;-;-;-;-;-;-;-;-
1514102808609;-;-;5.152817;0.80822754;-2.282196;-;-;-;-;-;-;-;-;-;-;-;-;-;-;-
1514102808629;-;-;3.2673798;1.2332001;-1.792572;-;-;-;-;-;-;-;-;-;-;-;-;-;-;-
1514102808650;-;-;3.9066315;0.9099884;-1.8775635;-;-;-;-;-;-;-;-;-;-;-;-;-;-;-
1514102808670;-;-;6.426529;1.0763855;-3.5175934;-;-;-;-;-;-;-;-;-;-;-;-;-;-;-
1514102808690;-;-;9.59166;1.5971222;-4.9050293;-;-;-;-;-;-;-;-;-;-;-;-;-;-;-
1514102808711;-;-;11.523788;2.1908875;-3.9186249;-;-;-;-;-;-;-;-;-;-;-;-;-;-;-
1514102808731;-;-;9.834671;1.8796387;-3.9569397;-;-;-;-;-;-;-;-;-;-;-;-;-;-;-
1514102808751;-;-;6.738968;1.4953766;-5.753784;-;-;-;-;-;-;-;-;-;-;-;-;-;-;-
1514102808771;-;-;3.6935425;-0.29788208;-6.0961456;-;-;-;-;-;-;-;-;-;-;-;-;-;-;-
1514102808792;-;-;3.6348877;-4.587097;-5.0714264;-;-;-;-;-;-;-;-;-;-;-;-;-;-;-
1514102808812;-;-;6.1643677;-6.4533844;-6.1500244;-;-;-;-;-;-;-;-;-;-;-;-;-;-;-
1514102808832;-;-;13.733627;-5.8883514;-4.6680145;-;-;-;-;-;-;-;-;-;-;-;-;-;-;-
