TimeStamp[ms];Prox[Cm];Lux[lux];AccX[m/s^2];AccY[m/s^2];AccZ[m/s^2];GyroX[rad/s];GyroY[rad/s];GyroZ[rad/s];MagnX[uT];MagnY[uT];MagnZ[uT];OrienYaw[degrees];OrienPitch[degrees];OrienRoll[degrees];Press[Pa];Temp[C°];Batt[%];Lat;Lng;Speed[m/s]
1514102836345;-;-;8.502304;0.82618713;0.8542175;-;-;-;-;-;-;-;-;-;-;-;-;-;-;-
1514102836345;-;-;8.502304;0.82618713;0.8542175;-;-;-;-;-;-;-;-;-;-;-;-;-;-;-
1514102836364;-;-;7.525467;0.9075928;-0.45899963;-;-;-;-;-;-;-;-;-;-;-;-;-;-;-
1514102836384;-;-;5.829178;2.4997406;-0.24232483;-;-;-;-;-;-;-;-;-;-;-;-;-;-;-
1514102836404;-;-;7.056198;-0.6007538;1.0206146;-;-;-;-;-;-;-;-;-;-;-;-;-;-;-
1514102836425;-;-;6.4875793;-1.2507782;-1.6070251;-;-;-;-;-;-;-;-;-;-;-;-;-;-;-
1514102836445;-;-;9.3498535;-1.2232513;-2.2953491;-;-;-;-;-;-;-;-;-;-;-;-;-;-;-
1514102836465;-;-;12.611954;-0.5528717;-1.1521301;-;-;-;-;-;-;-;-;-;-;-;-;-;-;-
1514102836486;-;-;12.716095;1.0488586;-0.06515503;-;-;-;-;-;-;-;-;-;-;-;-;-;-;-
1514102836506;-;-;10.708557;2.165741;-3.8348236;-;-;-;-;-;-;-;-;-;-;-;-;-;-;-
1514102836526;-;-;10.274002;1.5073395;-4.129318;-;-;-;-;-;-;-;-;-;-;-;-;-;-;-
1514102836547;-;-;8.96199;0.33059692;-0.20761108;-;-;-;-;-;-;-;-;-;-;-;-;-;-;-
1514102836567;-;-;8.284424;0.7136688;0.5573273;-;-;-;-;-;-;-;-;-;-;-;-;-;-;-
1514102836598;-;-;8.660324;0.50057983;-2.2678223;-;-;-;-;-;-;-;-;-;-;-;-;-;-;-
1514102836607;-;-;8.550186;0.5927582;-1.9781189;-;-;-;-;-;-;-;-;-;-;-;-;-;-;-
1514102836628;-;-;8.320343;1.3612976;-0.39675903;-;-;-;-;-;-;-;-;-;-;-;-;-;-;-
1514102836648;-;-;9.323517;1.0991364;-7.0801697;-;-;-;-;-;-;-;-;-;-;-;-;-;-;-
1514102836668;-;-;8.562149;2.900772;-7.4237366;-;-;-;-;-;-;-;-;-;-;-;-;-;-;-
1514102836689;-;-;12.148666;1.8999939;-5.32283;-;-;-;-;-;-;-;-;-;-;-;-;-;-;-
1514102836709;-;-;14.407593;1.3493195;-3.7426453;-;-;-;-;-;-;-;-;-;-;-;-;-;-;-
1514102836729;-;-;12.558075;-0.100372314;-4.313675;-;-;-;-;-;-;-;-;-;-;-;-;-;-;-
1514102836749;-;-;9.947205;-1.7774963;-6.200302;-;-;-;-;-;-;-;-;-;-;-;-;-;-;-
1514102836770;-;-;7.59729;-1.2292328;-5.6328735;-;-;-;-;-;-;-;-;-;-;-;-;-;-;-
1514102836790;-;-;3.967682;-0.7767334;-2.5970306;-;-;-;-;-;-;-;-;-;-;-;-;-;-;-
1514102836810;-;-;9.357025;-3.3181763;-0.67567444;-;-;-;-;-;-;-;-;-;-;-;-;-;-;-
1514102836830;-;-;9.82869;-1.8900299;-2.8567963;-;-;-;-;-;-;-;-;-;-;-;-;-;-;-
1514102836851;-;-;10.0776825;-1.9965668;-4.1819916;-;-;-;-;-;-;-;-;-;-;-;-;-;-;-
1514102836871;-;-;8.92009;-3.0117188;-1.9434052;-;-;-;-;-;-;-;-;-;-;-;-;-;-;-
1514102836891;-;-;7.3052063;-0.5253296;-2.1038208;-;-;-;-;-;-;-;-;-;-;-;-;-;-;-
1514102836912;-;-;9.702988;-1.8289795;-2.0283966;-;-;-;-;-;-;-;-;-;-;-;-;-;-;-
1514102836932;-;-;8.024658;-2.4263306;-2.215149;-;-;-;-;-;-;-;-;-;-;-;-;-;-;-
1514102836952;-;-;7.3231506;-1.2424011;-1.2095795;-;-;-;-;-;-;-;-;-;-;-;-;-;-;-
1514102836973;-;-;7.040634;-0.6115265;-0.72476196;-;-;-;-;-;-;-;-;-;-;-;-;-;-;-
1514102836993;-;-;6.5390472;0.107925415;-0.4338684;-;-;-;-;-;-;-;-;-;-;-;-;-;-;-
1514102837013;-;-;6.0326843;0.3569336;-0.8791809;-;-;-;-;-;-;-;-;-;-;-;-;-;-;-
1514102837034;-;-;6.050644;1.7455597;-1.4490051;-;-;-;-;-;-;-;-;-;-;-;-;-;-;-
1514102837054;-;-;8.378998;-2.4993591;2.2895355;-;-;-;-;-;-;-;-;-;-;-;-;-;-;-
1514102837074;-;-;8.618423;1.7790833;-1.2969818;-;-;-;-;-;-;-;-;-;-;-;-;-;-;-
1514102837095;-;-;8.423294;1.5061493;-1.8572235;-;-;-;-;-;-;-;-;-;-;-;-;-;-;-
1514102837115;-;-;9.4935;1.2703094;-1.9853058;-;-;-;-;-;-;-;-;-;-;-;-;-;-;-
1514102837135;-;-;10.612793;0.27671814;-4.307678;-;-;-;-;-;-;-;-;-;-;-;-;-;-;-
1514102837155;-;-;10.008255;-2.8465118;-4.136505;-;-;-;-;-;-;-;-;-;-;-;-;-;-;-
1514102837177;-;-;11.632721;-4.151352;-2.3671875;-;-;-;-;-;-;-;-;-;-;-;-;-;-;-
1514102837196;-;-;8.334702;-3.6401978;1.2456665;-;-;-;-;-;-;-;-;-;-;-;-;-;-;-
1514102837217;-;-;9.541382;-3.1182556;1.1319427;-;-;-;-;-;-;-;-;-;-;-;-;-;-;-
1514102837237;-;-;12.57962;-2.214447;1.3582001;-;-;-;-;-;-;-;-;-;-;-;-;-;-;-
1514102837257;-;-;12.991425;-1.9833984;-0.19085693;-;-;-;-;-;-;-;-;-;-;-;-;-;-;-
1514102837278;-;-;11.6710205;-1.8529205;-7.2094574;-;-;-;-;-;-;-;-;-;-;-;-;-;-;-
1514102837298;-;-;10.672638;-2.1210785;-7.796036;-;-;-;-;-;-;-;-;-;-;-;-;-;-;-
1514102837318;-;-;10.036987;-1.5847626;-6.4888;-;-;-;-;-;-;-;-;-;-;-;-;-;-;-
1514102837338;-;-;8.738129;-0.8413696;-5.9848175;-;-;-;-;-;-;-;-;-;-;-;-;-;-;-
1514102837359;-;-;8.480759;1.3217926;-5.448517;-;-;-;-;-;-;-;-;-;-;-;-;-;-;-
1514102837379;-;-;9.875381;3.26828;-6.3511353;-;-;-;-;-;-;-;-;-;-;-;-;-;-;-
1514102837399;-;-;11.235275;3.627411;-6.7916718;-;-;-;-;-;-;-;-;-;-;-;-;-;-;-
1514102837420;-;-;11.656662;3.568756;-5.113327;-;-;-;-;-;-;-;-;-;-;-;-;-;-;-
1514102837440;-;-;8.210205;2.4829865;-4.0826263;-;-;-;-;-;-;-;-;-;-;-;-;-;-;-
1514102837460;-;-;5.0211334;1.2152557;-1.8751678;-;-;-;-;-;-;-;-;-;-;-;-;-;-;-
1514102837480;-;-;4.7170715;0.0013885498;-1.8404541;-;-;-;-;-;-;-;-;-;-;-;-;-;-;-
1514102837501;-;-;5.4520874;-0.88446045;-2.163681;-;-;-;-;-;-;-;-;-;-;-;-;-;-;-
1514102837521;-;-;5.8040314;-1.4794312;-2.3719635;-;-;-;-;-;-;-;-;-;-;-;-;-;-;-
1514102837541;-;-;5.79924;-0.66539;-1.6860352;-;-;-;-;-;-;-;-;-;-;-;-;-;-;-
1514102837562;-;-;5.7441864;0.64183044;-0.7391205;-;-;-;-;-;-;-;-;-;-;-;-;-;-;-
1514102837582;-;-;6.6587677;0.77711487;-0.8325043;-;-;-;-;-;-;-;-;-;-;-;-;-;-;-
1514102837602;-;-;8.206619;-0.72525024;-1.8548279;-;-;-;-;-;-;-;-;-;-;-;-;-;-;-
1514102837623;-;-;8.18866;-1.775116;-1.4226685;-;-;-;-;-;-;-;-;-;-;-;-;-;-;-
1514102837643;-;-;7.7050323;-2.2479706;-0.57632446;-;-;-;-;-;-;-;-;-;-;-;-;-;-;-
1514102837664;-;-;7.363861;-1.5835724;-0.372818;-;-;-;-;-;-;-;-;-;-;-;-;-;-;-
1514102837684;-;-;6.5989075;-0.06324768;-0.5894928;-;-;-;-;-;-;-;-;-;-;-;-;-;-;-
1514102837704;-;-;5.671158;1.3864288;-0.57032776;-;-;-;-;-;-;-;-;-;-;-;-;-;-;-
1514102837725;-;-;4.621292;2.018509;-1.4621735;-;-;-;-;-;-;-;-;-;-;-;-;-;-;-
1514102837745;-;-;5.4844055;1.540863;-1.3304901;-;-;-;-;-;-;-;-;-;-;-;-;-;-;-
1514102837765;-;-;7.020294;1.2236328;-1.0743103;-;-;-;-;-;-;-;-;-;-;-;-;-;-;-
1514102837786;-;-;8.108459;1.5217133;-1.4095001;-;-;-;-;-;-;-;-;-;-;-;-;-;-;-
1514102837806;-;-;9.228943;2.0927277;-1.887146;-;-;-;-;-;-;-;-;-;-;-;-;-;-;-
1514102837826;-;-;10.220139;2.6278229;-3.4278107;-;-;-;-;-;-;-;-;-;-;-;-;-;-;-
1514102837847;-;-;10.432022;2.8588715;-5.0427094;-;-;-;-;-;-;-;-;-;-;-;-;-;-;-
1514102837867;-;-;8.291611;2.6936646;-5.3994446;-;-;-;-;-;-;-;-;-;-;-;-;-;-;-
1514102837887;-;-;5.7693176;0.6789551;-6.1500244;-;-;-;-;-;-;-;-;-;-;-;-;-;-;-
1514102837907;-;-;6.0027466;-3.8532715;-8.590912;-;-;-;-;-;-;-;-;-;-;-;-;-;-;-
1514102837928;-;-;11.863754;-7.183609;-9.492325;-;-;-;-;-;-;-;-;-;-;-;-;-;-;-
1514102837948;-;-;19.090652;-4.8253174;-3.8887024;-;-;-;-;-;-;-;-;-;-;-;-;-;-;-
1514102837968;-;-;20.205154;0.76753235;-2.3384552;-;-;-;-;-;-;-;-;-;-;-;-;-;-;-
1514102837988;-;-;14.542877;0.8788605;-5.1001587;-;-;-;-;-;-;-;-;-;-;-;-;-;-;-
1514102838008;-;-;13.31105;-2.6717377;-1.8440552;-;-;-;-;-;-;-;-;-;-;-;-;-;-;-
1514102838029;-;-;20.373947;-7.5930176;-2.2378998;-;-;-;-;-;-;-;-;-;-;-;-;-;-;-
1514102838049;-;-;13.750397;-6.472534;-1.8404541;-;-;-;-;-;-;-;-;-;-;-;-;-;-;-
1514102838069;-;-;6.5905304;-2.1701508;-1.6166077;-;-;-;-;-;-;-;-;-;-;-;-;-;-;-
1514102838089;-;-;3.1644287;-0.42477417;-2.5922394;-;-;-;-;-;-;-;-;-;-;-;-;-;-;-
1514102838109;-;-;0.40151978;0.5257263;-2.0164337;-;-;-;-;-;-;-;-;-;-;-;-;-;-;-
1514102838130;-;-;-0.8710022;1.374466;-0.946228;-;-;-;-;-;-;-;-;-;-;-;-;-;-;-
1514102838150;-;-;3.2254791;0.6274719;-0.92826843;-;-;-;-;-;-;-;-;-;-;-;-;-;-;-
1514102838170;-;-;6.975998;-0.1410675;-2.076294;-;-;-;-;-;-;-;-;-;-;-;-;-;-;-
1514102838191;-;-;9.612015;-0.06324768;-3.472107;-;-;-;-;-;-;-;-;-;-;-;-;-;-;-
1514102838211;-;-;9.82988;0.26834106;-3.3488007;-;-;-;-;-;-;-;-;-;-;-;-;-;-;-
1514102838231;-;-;7.6655273;0.25398254;-3.144104;-;-;-;-;-;-;-;-;-;-;-;-;-;-;-
1514102838252;-;-;5.783676;-0.6618042;-3.0004425;-;-;-;-;-;-;-;-;-;-;-;-;-;-;-
1514102838272;-;-;5.513138;-0.8282013;-1.6321564;-;-;-;-;-;-;-;-;-;-;-;-;-;-;-
1514102838292;-;-;6.099716;-0.46188354;0.55374146;-;-;-;-;-;-;-;-;-;-;-;-;-;-;-
1514102838313;-;-;6.770096;-0.80545044;1.2384796;-;-;-;-;-;-;-;-;-;-;-;-;-;-;-
1514102838333;-;-;6.9149475;-1.9941711;0.74768066;-;-;-;-;-;-;-;-;-;-;-;-;-;-;-
1514102838353;-;-;6.699463;-2.9937592;-1.5375977;-;-;-;-;-;-;-;-;-;-;-;-;-;-;-
1514102838374;-;-;7.9205017;-2.5879364;-3.4457703;-;-;-;-;-;-;-;-;-;-;-;-;-;-;-
1514102838394;-;-;9.521027;-0.63427734;-1.203598;-;-;-;-;-;-;-;-;-;-;-;-;-;-;-
1514102838414;-;-;10.367386;-1.0448761;-3.9617157;-;-;-;-;-;-;-;-;-;-;-;-;-;-;-
1514102838435;-;-;11.951141;-0.5241394;-9.450424;-;-;-;-;-;-;-;-;-;-;-;-;-;-;-
1514102838457;-;-;12.856155;2.8433075;-8.151581;-;-;-;-;-;-;-;-;-;-;-;-;-;-;-
1514102838477;-;-;12.750809;6.5603027;-6.0326996;-;-;-;-;-;-;-;-;-;-;-;-;-;-;-
1514102838497;-;-;15.852493;5.91626;-3.1776276;-;-;-;-;-;-;-;-;-;-;-;-;-;-;-
1514102838517;-;-;17.945038;4.5348053;-9.331909;-;-;-;-;-;-;-;-;-;-;-;-;-;-;-
1514102838538;-;-;17.745117;2.3692474;-6.8347626;-;-;-;-;-;-;-;-;-;-;-;-;-;-;-
1514102838557;-;-;14.109528;1.264328;-2.5742798;-;-;-;-;-;-;-;-;-;-;-;-;-;-;-
1514102838577;-;-;9.148727;0.58917236;-2.0272064;-;-;-;-;-;-;-;-;-;-;-;-;-;-;-
1514102838597;-;-;5.264145;0.47065735;-2.4246368;-;-;-;-;-;-;-;-;-;-;-;-;-;-;-
1514102838618;-;-;2.1911774;1.6426086;-1.753067;-;-;-;-;-;-;-;-;-;-;-;-;-;-;-
1514102838638;-;-;0.9282379;2.5224762;-0.7774353;-;-;-;-;-;-;-;-;-;-;-;-;-;-;-
1514102838659;-;-;1.5722809;1.5839539;-0.64216614;-;-;-;-;-;-;-;-;-;-;-;-;-;-;-
1514102838679;-;-;3.0112;-0.11352539;-0.7080078;-;-;-;-;-;-;-;-;-;-;-;-;-;-;-
1514102838700;-;-;5.7298126;-1.5021667;-0.8468628;-;-;-;-;-;-;-;-;-;-;-;-;-;-;-
1514102838720;-;-;7.6894684;-1.2579651;-1.6920166;-;-;-;-;-;-;-;-;-;-;-;-;-;-;-
1514102838740;-;-;8.229355;-0.54089355;-3.0423431;-;-;-;-;-;-;-;-;-;-;-;-;-;-;-
1514102838760;-;-;7.8714294;0.34854126;-3.282959;-;-;-;-;-;-;-;-;-;-;-;-;-;-;-
1514102838780;-;-;7.2585144;0.65859985;-2.5192108;-;-;-;-;-;-;-;-;-;-;-;-;-;-;-
1514102838801;-;-;6.96402;1.4762115;-0.8468628;-;-;-;-;-;-;-;-;-;-;-;-;-;-;-
1514102838821;-;-;6.3774414;3.0671692;-0.121414185;-;-;-;-;-;-;-;-;-;-;-;-;-;-;-
1514102838841;-;-;5.7884674;4.7048035;-1.5471649;-;-;-;-;-;-;-;-;-;-;-;-;-;-;-
1514102838861;-;-;5.2521667;5.1908264;-5.0115814;-;-;-;-;-;-;-;-;-;-;-;-;-;-;-
1514102838882;-;-;7.2944183;1.8892212;-3.5942078;-;-;-;-;-;-;-;-;-;-;-;-;-;-;-
1514102838901;-;-;7.451248;0.12109375;-2.365982;-;-;-;-;-;-;-;-;-;-;-;-;-;-;-
1514102838921;-;-;7.2824554;-1.4925995;-4.9181976;-;-;-;-;-;-;-;-;-;-;-;-;-;-;-
1514102838941;-;-;7.3925934;-2.2252197;-7.0586243;-;-;-;-;-;-;-;-;-;-;-;-;-;-;-
1514102838963;-;-;10.599625;-2.803421;-6.6013336;-;-;-;-;-;-;-;-;-;-;-;-;-;-;-
1514102838982;-;-;14.484207;-4.0663605;-4.4537354;-;-;-;-;-;-;-;-;-;-;-;-;-;-;-
1514102839003;-;-;19.81131;-3.0548096;-4.6955414;-;-;-;-;-;-;-;-;-;-;-;-;-;-;-
1514102839023;-;-;22.693924;-1.0388947;-5.5921783;-;-;-;-;-;-;-;-;-;-;-;-;-;-;-
1514102839044;-;-;21.64647;-3.9059448;-4.737442;-;-;-;-;-;-;-;-;-;-;-;-;-;-;-
1514102839063;-;-;21.380707;-4.918701;-3.6959686;-;-;-;-;-;-;-;-;-;-;-;-;-;-;-
1514102839084;-;-;11.558502;-3.2607117;-0.8384857;-;-;-;-;-;-;-;-;-;-;-;-;-;-;-
1514102839104;-;-;4.9277496;-1.3812561;-0.669693;-;-;-;-;-;-;-;-;-;-;-;-;-;-;-
1514102839124;-;-;2.3468018;0.56521606;-2.017624;-;-;-;-;-;-;-;-;-;-;-;-;-;-;-
1514102839145;-;-;0.28419495;1.2667236;-2.491684;-;-;-;-;-;-;-;-;-;-;-;-;-;-;-
1514102839165;-;-;-1.6874237;0.74838257;-1.4861145;-;-;-;-;-;-;-;-;-;-;-;-;-;-;-
1514102839185;-;-;3.6408691;-0.17098999;-1.5256195;-;-;-;-;-;-;-;-;-;-;-;-;-;-;-
1514102839206;-;-;7.4129333;-0.9874115;-2.922638;-;-;-;-;-;-;-;-;-;-;-;-;-;-;-
1514102839226;-;-;6.663559;-1.5368805;-2.9405975;-;-;-;-;-;-;-;-;-;-;-;-;-;-;-
1514102839246;-;-;5.71904;-0.98143005;-2.8855286;-;-;-;-;-;-;-;-;-;-;-;-;-;-;-
1514102839267;-;-;6.592926;-0.081207275;-3.717514;-;-;-;-;-;-;-;-;-;-;-;-;-;-;-
1514102839286;-;-;8.940445;0.7830963;-4.35437;-;-;-;-;-;-;-;-;-;-;-;-;-;-;-
1514102839306;-;-;9.365402;0.83935547;-4.0754395;-;-;-;-;-;-;-;-;-;-;-;-;-;-;-
1514102839326;-;-;7.240555;0.98420715;-2.2594452;-;-;-;-;-;-;-;-;-;-;-;-;-;-;-
1514102839347;-;-;4.770935;0.31143188;0.97631836;-;-;-;-;-;-;-;-;-;-;-;-;-;-;-
1514102839367;-;-;3.284134;-1.2663422;3.3777008;-;-;-;-;-;-;-;-;-;-;-;-;-;-;-
1514102839387;-;-;4.1592255;-2.8261566;3.3381958;-;-;-;-;-;-;-;-;-;-;-;-;-;-;-
1514102839408;-;-;7.1519775;-3.1924744;-2.709549;-;-;-;-;-;-;-;-;-;-;-;-;-;-;-
1514102839428;-;-;8.575317;-3.2942352;-5.8375854;-;-;-;-;-;-;-;-;-;-;-;-;-;-;-
1514102839448;-;-;7.51709;-1.1645813;-8.357483;-;-;-;-;-;-;-;-;-;-;-;-;-;-;-
1514102839468;-;-;7.561386;2.0675812;-7.840332;-;-;-;-;-;-;-;-;-;-;-;-;-;-;-
1514102839489;-;-;10.299149;5.1644897;-3.6037903;-;-;-;-;-;-;-;-;-;-;-;-;-;-;-
1514102839509;-;-;14.296265;8.112946;-5.1540375;-;-;-;-;-;-;-;-;-;-;-;-;-;-;-
1514102839529;-;-;18.459778;5.2746124;-4.7865295;-;-;-;-;-;-;-;-;-;-;-;-;-;-;-
1514102839549;-;-;22.830399;1.5923309;-7.045456;-;-;-;-;-;-;-;-;-;-;-;-;-;-;-
1514102839570;-;-;29.924423;1.209259;-8.468811;-;-;-;-;-;-;-;-;-;-;-;-;-;-;-
1514102839590;-;-;14.581177;1.3852386;-2.1026306;-;-;-;-;-;-;-;-;-;-;-;-;-;-;-
1514102839610;-;-;6.6982727;0.1043396;-1.5962524;-;-;-;-;-;-;-;-;-;-;-;-;-;-;-
1514102839631;-;-;2.6209412;0.03251648;-2.0236206;-;-;-;-;-;-;-;-;-;-;-;-;-;-;-
1514102839651;-;-;1.3101196;1.9095612;-2.3360596;-;-;-;-;-;-;-;-;-;-;-;-;-;-;-
1514102839671;-;-;1.4214478;3.5280457;-1.5304108;-;-;-;-;-;-;-;-;-;-;-;-;-;-;-
1514102839692;-;-;1.9002838;2.7223969;-1.061142;-;-;-;-;-;-;-;-;-;-;-;-;-;-;-
1514102839712;-;-;5.3778687;0.5987396;-0.097473145;-;-;-;-;-;-;-;-;-;-;-;-;-;-;-
1514102839733;-;-;7.6499634;-0.46907043;-0.68167114;-;-;-;-;-;-;-;-;-;-;-;-;-;-;-
1514102839755;-;-;6.9317017;-0.80784607;-1.653717;-;-;-;-;-;-;-;-;-;-;-;-;-;-;-
1514102839775;-;-;5.933319;-0.50857544;-1.1533203;-;-;-;-;-;-;-;-;-;-;-;-;-;-;-
1514102839796;-;-;5.5358887;0.5460663;-0.67567444;-;-;-;-;-;-;-;-;-;-;-;-;-;-;-
1514102839816;-;-;5.4640503;1.3002472;-0.7858124;-;-;-;-;-;-;-;-;-;-;-;-;-;-;-
1514102839836;-;-;5.5478516;0.9973755;-1.9039001;-;-;-;-;-;-;-;-;-;-;-;-;-;-;-
1514102839856;-;-;5.731018;0.61190796;-2.3827515;-;-;-;-;-;-;-;-;-;-;-;-;-;-;-
1514102839877;-;-;6.2553406;1.0524445;-1.0515747;-;-;-;-;-;-;-;-;-;-;-;-;-;-;-
1514102839897;-;-;6.5677795;2.5572052;-0.8372803;-;-;-;-;-;-;-;-;-;-;-;-;-;-;-
1514102839917;-;-;6.7569275;2.8049927;-3.8468018;-;-;-;-;-;-;-;-;-;-;-;-;-;-;-
1514102839938;-;-;6.5043335;1.1087036;-7.4165497;-;-;-;-;-;-;-;-;-;-;-;-;-;-;-
1514102839958;-;-;5.960861;-0.6869507;-7.45726;-;-;-;-;-;-;-;-;-;-;-;-;-;-;-
1514102839978;-;-;8.059372;-1.0987396;-6.7557526;-;-;-;-;-;-;-;-;-;-;-;-;-;-;-
1514102839999;-;-;12.744827;-2.2563477;-9.206223;-;-;-;-;-;-;-;-;-;-;-;-;-;-;-
1514102840019;-;-;17.599075;-2.839325;-4.672806;-;-;-;-;-;-;-;-;-;-;-;-;-;-;-
1514102840039;-;-;22.604141;-2.2132416;-4.235855;-;-;-;-;-;-;-;-;-;-;-;-;-;-;-
1514102840060;-;-;20.634918;-4.302185;-7.310013;-;-;-;-;-;-;-;-;-;-;-;-;-;-;-
1514102840080;-;-;24.18193;-6.101425;-7.7277985;-;-;-;-;-;-;-;-;-;-;-;-;-;-;-
1514102840100;-;-;16.361267;-3.146988;-3.4146423;-;-;-;-;-;-;-;-;-;-;-;-;-;-;-
1514102840121;-;-;6.7485504;0.8166199;-1.6704712;-;-;-;-;-;-;-;-;-;-;-;-;-;-;-
1514102840141;-;-;3.0531006;2.8444977;-2.8328552;-;-;-;-;-;-;-;-;-;-;-;-;-;-;-
1514102840161;-;-;0.8636017;1.9682312;-2.1349487;-;-;-;-;-;-;-;-;-;-;-;-;-;-;-
1514102840182;-;-;4.15683;-0.46788025;-1.7387085;-;-;-;-;-;-;-;-;-;-;-;-;-;-;-
1514102840202;-;-;8.027054;-1.3321838;-2.954956;-;-;-;-;-;-;-;-;-;-;-;-;-;-;-
1514102840222;-;-;7.1962585;-1.0400848;-2.4390106;-;-;-;-;-;-;-;-;-;-;-;-;-;-;-
1514102840243;-;-;5.568207;-1.1442413;-2.2247314;-;-;-;-;-;-;-;-;-;-;-;-;-;-;-
1514102840263;-;-;4.1472473;-1.2651367;-2.9238281;-;-;-;-;-;-;-;-;-;-;-;-;-;-;-
1514102840283;-;-;3.9233856;-0.84017944;-2.907074;-;-;-;-;-;-;-;-;-;-;-;-;-;-;-
1514102840303;-;-;6.146408;0.15820313;-2.8376465;-;-;-;-;-;-;-;-;-;-;-;-;-;-;-
1514102840324;-;-;8.262878;1.2667236;-4.180786;-;-;-;-;-;-;-;-;-;-;-;-;-;-;-
1514102840343;-;-;6.5127106;1.4283295;-4.9409485;-;-;-;-;-;-;-;-;-;-;-;-;-;-;-
1514102840363;-;-;4.466873;0.27552795;-3.6420898;-;-;-;-;-;-;-;-;-;-;-;-;-;-;-
1514102840383;-;-;3.7809296;-1.0388947;-0.18367004;-;-;-;-;-;-;-;-;-;-;-;-;-;-;-
1514102840403;-;-;4.9265594;-3.0021362;1.6754303;-;-;-;-;-;-;-;-;-;-;-;-;-;-;-
1514102840424;-;-;7.403366;-4.3548584;1.6742249;-;-;-;-;-;-;-;-;-;-;-;-;-;-;-
1514102840444;-;-;8.740524;-2.653778;-1.6956024;-;-;-;-;-;-;-;-;-;-;-;-;-;-;-
1514102840464;-;-;10.014236;-1.0616302;-3.1464996;-;-;-;-;-;-;-;-;-;-;-;-;-;-;-
1514102840485;-;-;8.783615;-1.1190948;-2.5503387;-;-;-;-;-;-;-;-;-;-;-;-;-;-;-
1514102840505;-;-;7.20105;-1.5273132;-6.7952576;-;-;-;-;-;-;-;-;-;-;-;-;-;-;-
1514102840525;-;-;8.441254;1.8652802;-6.358322;-;-;-;-;-;-;-;-;-;-;-;-;-;-;-
1514102840545;-;-;10.651093;4.1553345;-3.5487213;-;-;-;-;-;-;-;-;-;-;-;-;-;-;-
1514102840566;-;-;13.92157;3.2634888;-5.2809296;-;-;-;-;-;-;-;-;-;-;-;-;-;-;-
1514102840586;-;-;19.003265;-1.4925995;-4.5806274;-;-;-;-;-;-;-;-;-;-;-;-;-;-;-
1514102840606;-;-;21.96489;-2.6956787;-10.704987;-;-;-;-;-;-;-;-;-;-;-;-;-;-;-
1514102840627;-;-;22.037918;1.8580933;-8.376633;-;-;-;-;-;-;-;-;-;-;-;-;-;-;-
1514102840647;-;-;15.699265;4.2235565;-4.270569;-;-;-;-;-;-;-;-;-;-;-;-;-;-;-
1514102840667;-;-;9.9077;4.722748;-3.3057098;-;-;-;-;-;-;-;-;-;-;-;-;-;-;-
1514102840687;-;-;5.280899;4.461792;-2.9824982;-;-;-;-;-;-;-;-;-;-;-;-;-;-;-
1514102840708;-;-;1.8643799;3.383194;-3.1428986;-;-;-;-;-;-;-;-;-;-;-;-;-;-;-
1514102840728;-;-;0.40631104;1.5755768;-1.6764526;-;-;-;-;-;-;-;-;-;-;-;-;-;-;-
1514102840748;-;-;0.54037476;-0.8880615;-0.063964844;-;-;-;-;-;-;-;-;-;-;-;-;-;-;-
1514102840769;-;-;4.33519;-2.9925537;0.53578186;-;-;-;-;-;-;-;-;-;-;-;-;-;-;-
1514102840788;-;-;8.062958;-3.2678986;-1.1904297;-;-;-;-;-;-;-;-;-;-;-;-;-;-;-
1514102840808;-;-;7.6236267;-1.9199524;-3.04953;-;-;-;-;-;-;-;-;-;-;-;-;-;-;-
1514102840829;-;-;5.5550385;-0.23683167;-3.0531158;-;-;-;-;-;-;-;-;-;-;-;-;-;-;-
1514102840850;-;-;3.5594635;0.89682007;-2.7825775;-;-;-;-;-;-;-;-;-;-;-;-;-;-;-
1514102840870;-;-;4.205902;0.8800659;-2.551529;-;-;-;-;-;-;-;-;-;-;-;-;-;-;-
1514102840890;-;-;6.218231;1.046463;-1.6680756;-;-;-;-;-;-;-;-;-;-;-;-;-;-;-
1514102840911;-;-;7.387802;2.0771637;-1.1449432;-;-;-;-;-;-;-;-;-;-;-;-;-;-;-
1514102840931;-;-;7.35907;3.723175;-2.1624756;-;-;-;-;-;-;-;-;-;-;-;-;-;-;-
1514102840951;-;-;6.956848;4.501297;-3.519989;-;-;-;-;-;-;-;-;-;-;-;-;-;-;-
1514102840972;-;-;5.5310974;3.180893;-3.2901459;-;-;-;-;-;-;-;-;-;-;-;-;-;-;-
1514102840991;-;-;3.8108673;1.1841278;-4.8272247;-;-;-;-;-;-;-;-;-;-;-;-;-;-;-
1514102841011;-;-;3.3966675;-0.9479065;-7.864273;-;-;-;-;-;-;-;-;-;-;-;-;-;-;-
1514102841032;-;-;7.0741577;-2.6741333;-10.694214;-;-;-;-;-;-;-;-;-;-;-;-;-;-;-
1514102841052;-;-;14.114304;-2.692093;-8.019897;-;-;-;-;-;-;-;-;-;-;-;-;-;-;-
1514102841072;-;-;24.268112;0.0013885498;-6.0997467;-;-;-;-;-;-;-;-;-;-;-;-;-;-;-
1514102841093;-;-;26.893356;-1.1035309;-9.27565;-;-;-;-;-;-;-;-;-;-;-;-;-;-;-
1514102841113;-;-;21.918213;-5.4298553;-7.8032227;-;-;-;-;-;-;-;-;-;-;-;-;-;-;-
1514102841133;-;-;16.909546;-5.289795;-3.2757874;-;-;-;-;-;-;-;-;-;-;-;-;-;-;-
1514102841154;-;-;9.185837;-3.1062775;-0.20761108;-;-;-;-;-;-;-;-;-;-;-;-;-;-;-
1514102841174;-;-;5.06781;-1.5931549;-0.90312195;-;-;-;-;-;-;-;-;-;-;-;-;-;-;-
1514102841194;-;-;2.5215912;-0.6546173;-2.3983002;-;-;-;-;-;-;-;-;-;-;-;-;-;-;-
1514102841214;-;-;2.549118;-1.1394501;-2.350418;-;-;-;-;-;-;-;-;-;-;-;-;-;-;-
1514102841235;-;-;6.6108856;-1.3010559;-2.804123;-;-;-;-;-;-;-;-;-;-;-;-;-;-;-
1514102841255;-;-;8.865021;-0.5205536;-3.5367432;-;-;-;-;-;-;-;-;-;-;-;-;-;-;-
1514102841275;-;-;8.985931;0.30186462;-3.338028;-;-;-;-;-;-;-;-;-;-;-;-;-;-;-
1514102841296;-;-;7.7337646;0.21208191;-2.0583344;-;-;-;-;-;-;-;-;-;-;-;-;-;-;-
1514102841316;-;-;5.565811;0.21208191;-1.2371216;-;-;-;-;-;-;-;-;-;-;-;-;-;-;-
1514102841336;-;-;4.596161;0.05885315;-1.8847504;-;-;-;-;-;-;-;-;-;-;-;-;-;-;-
1514102841357;-;-;5.0522614;-0.739624;-3.1452942;-;-;-;-;-;-;-;-;-;-;-;-;-;-;-
1514102841376;-;-;5.3575134;-1.6338501;-3.2099457;-;-;-;-;-;-;-;-;-;-;-;-;-;-;-
1514102841396;-;-;4.5446777;-1.9857941;-2.4390106;-;-;-;-;-;-;-;-;-;-;-;-;-;-;-
1514102841416;-;-;3.5654602;-2.2766876;-0.86961365;-;-;-;-;-;-;-;-;-;-;-;-;-;-;-
1514102841437;-;-;4.387863;-2.2982483;0.69021606;-;-;-;-;-;-;-;-;-;-;-;-;-;-;-
1514102841457;-;-;6.673126;-2.1150818;1.2767944;-;-;-;-;-;-;-;-;-;-;-;-;-;-;-
1514102841478;-;-;9.084091;-2.0576172;-0.3943634;-;-;-;-;-;-;-;-;-;-;-;-;-;-;-
1514102841498;-;-;10.574478;-2.2072601;-1.8859406;-;-;-;-;-;-;-;-;-;-;-;-;-;-;-
1514102841518;-;-;10.734894;-1.8026428;-3.1428986;-;-;-;-;-;-;-;-;-;-;-;-;-;-;-
1514102841538;-;-;10.278793;-1.3585205;-5.686737;-;-;-;-;-;-;-;-;-;-;-;-;-;-;-
1514102841559;-;-;10.380554;-1.3285828;-6.243393;-;-;-;-;-;-;-;-;-;-;-;-;-;-;-
1514102841579;-;-;10.137543;2.2124329;-5.813629;-;-;-;-;-;-;-;-;-;-;-;-;-;-;-
1514102841599;-;-;11.050934;6.149704;-3.6983643;-;-;-;-;-;-;-;-;-;-;-;-;-;-;-
1514102841620;-;-;12.093597;6.5914307;-3.2398682;-;-;-;-;-;-;-;-;-;-;-;-;-;-;-
1514102841639;-;-;15.140228;5.220749;-6.521118;-;-;-;-;-;-;-;-;-;-;-;-;-;-;-
1514102841659;-;-;20.71872;5.7402954;-7.429718;-;-;-;-;-;-;-;-;-;-;-;-;-;-;-
1514102841680;-;-;22.06186;0.4909973;-5.654419;-;-;-;-;-;-;-;-;-;-;-;-;-;-;-
1514102841700;-;-;15.829758;-4.0831146;-3.3883057;-;-;-;-;-;-;-;-;-;-;-;-;-;-;-
1514102841720;-;-;7.679886;-4.7259674;-1.3340912;-;-;-;-;-;-;-;-;-;-;-;-;-;-;-
1514102841740;-;-;1.8703613;-2.3868256;-1.7327118;-;-;-;-;-;-;-;-;-;-;-;-;-;-;-
1514102841760;-;-;-0.21618652;1.2427826;-2.1947937;-;-;-;-;-;-;-;-;-;-;-;-;-;-;-
1514102841780;-;-;-0.8626251;3.3855896;-2.231903;-;-;-;-;-;-;-;-;-;-;-;-;-;-;-
1514102841801;-;-;3.4469452;2.3500977;-0.5715332;-;-;-;-;-;-;-;-;-;-;-;-;-;-;-
1514102841821;-;-;7.624832;0.769928;-1.9529877;-;-;-;-;-;-;-;-;-;-;-;-;-;-;-
1514102841841;-;-;7.9025574;0.96984863;-2.405487;-;-;-;-;-;-;-;-;-;-;-;-;-;-;-
1514102841862;-;-;5.8327637;2.2866516;-2.7454681;-;-;-;-;-;-;-;-;-;-;-;-;-;-;-
1514102841882;-;-;6.090149;3.134201;-2.606598;-;-;-;-;-;-;-;-;-;-;-;-;-;-;-
1514102841902;-;-;7.803192;2.4674225;-2.5814667;-;-;-;-;-;-;-;-;-;-;-;-;-;-;-
1514102841923;-;-;8.580109;1.164978;-1.3280945;-;-;-;-;-;-;-;-;-;-;-;-;-;-;-
1514102841943;-;-;9.188232;-0.32781982;-0.76187134;-;-;-;-;-;-;-;-;-;-;-;-;-;-;-
1514102841963;-;-;8.499908;0.08518982;-0.45899963;-;-;-;-;-;-;-;-;-;-;-;-;-;-;-
1514102841983;-;-;7.351883;1.877243;0.18862915;-;-;-;-;-;-;-;-;-;-;-;-;-;-;-
1514102842004;-;-;6.7449493;3.5543823;0.63993835;-;-;-;-;-;-;-;-;-;-;-;-;-;-;-
1514102842024;-;-;6.8443146;4.757477;-0.07234192;-;-;-;-;-;-;-;-;-;-;-;-;-;-;-
1514102842045;-;-;6.7018585;4.106247;-0.8169403;-;-;-;-;-;-;-;-;-;-;-;-;-;-;-
1514102842065;-;-;5.679535;1.5923309;-4.4692993;-;-;-;-;-;-;-;-;-;-;-;-;-;-;-
1514102842085;-;-;5.8638916;-2.535263;-7.915741;-;-;-;-;-;-;-;-;-;-;-;-;-;-;-
1514102842106;-;-;11.618347;-5.0467834;-8.192276;-;-;-;-;-;-;-;-;-;-;-;-;-;-;-
1514102842126;-;-;16.387604;-6.416275;-10.179459;-;-;-;-;-;-;-;-;-;-;-;-;-;-;-
1514102842146;-;-;23.652802;-3.1577606;-7.9109497;-;-;-;-;-;-;-;-;-;-;-;-;-;-;-
1514102842167;-;-;23.94371;-2.502945;-8.027069;-;-;-;-;-;-;-;-;-;-;-;-;-;-;-
1514102842187;-;-;20.339233;-2.7519379;-6.6731567;-;-;-;-;-;-;-;-;-;-;-;-;-;-;-
1514102842207;-;-;18.852432;-2.8058167;-7.1543884;-;-;-;-;-;-;-;-;-;-;-;-;-;-;-
1514102842228;-;-;10.534973;-0.86172485;-2.978897;-;-;-;-;-;-;-;-;-;-;-;-;-;-;-
1514102842248;-;-;4.711075;1.2607422;-3.0830536;-;-;-;-;-;-;-;-;-;-;-;-;-;-;-
1514102842268;-;-;2.9393768;1.2080688;-3.6983643;-;-;-;-;-;-;-;-;-;-;-;-;-;-;-
1514102842288;-;-;4.2944946;-0.7216644;-2.3827515;-;-;-;-;-;-;-;-;-;-;-;-;-;-;-
1514102842309;-;-;5.751358;-1.9199524;-2.3564148;-;-;-;-;-;-;-;-;-;-;-;-;-;-;-
1514102842329;-;-;5.6974945;-1.5787811;-2.3755646;-;-;-;-;-;-;-;-;-;-;-;-;-;-;-
1514102842350;-;-;4.2968903;-1.289093;-1.590271;-;-;-;-;-;-;-;-;-;-;-;-;-;-;-
1514102842370;-;-;2.600586;-1.8050385;-1.2155762;-;-;-;-;-;-;-;-;-;-;-;-;-;-;-
1514102842390;-;-;2.822052;-2.2467651;-0.7570801;-;-;-;-;-;-;-;-;-;-;-;-;-;-;-
1514102842410;-;-;5.3227997;-0.9084015;-0.59547424;-;-;-;-;-;-;-;-;-;-;-;-;-;-;-
1514102842431;-;-;7.5601807;-0.26675415;-0.27105713;-;-;-;-;-;-;-;-;-;-;-;-;-;-;-
1514102842451;-;-;8.855438;-0.49061584;0.35263062;-;-;-;-;-;-;-;-;-;-;-;-;-;-;-
1514102842471;-;-;9.589264;-2.2443695;-0.6996155;-;-;-;-;-;-;-;-;-;-;-;-;-;-;-
1514102842492;-;-;10.902481;-3.7251892;-1.6908264;-;-;-;-;-;-;-;-;-;-;-;-;-;-;-
1514102842514;-;-;12.396469;-2.918335;-2.2199402;-;-;-;-;-;-;-;-;-;-;-;-;-;-;-
1514102842532;-;-;12.805878;-1.5380859;-0.88397217;-;-;-;-;-;-;-;-;-;-;-;-;-;-;-
1514102842554;-;-;13.087189;-1.7212372;0.70217896;-;-;-;-;-;-;-;-;-;-;-;-;-;-;-
1514102842573;-;-;12.293518;-3.1805115;-6.0363007;-;-;-;-;-;-;-;-;-;-;-;-;-;-;-
1514102842593;-;-;15.461044;-2.1282501;-8.62204;-;-;-;-;-;-;-;-;-;-;-;-;-;-;-
1514102842613;-;-;14.644623;1.5097351;-8.479584;-;-;-;-;-;-;-;-;-;-;-;-;-;-;-
1514102842634;-;-;9.6862335;2.1094818;-7.723007;-;-;-;-;-;-;-;-;-;-;-;-;-;-;-
1514102842654;-;-;4.7757263;2.157364;-6.868286;-;-;-;-;-;-;-;-;-;-;-;-;-;-;-
1514102842674;-;-;3.098587;1.7371826;-4.741028;-;-;-;-;-;-;-;-;-;-;-;-;-;-;-
1514102842695;-;-;5.526306;0.29467773;-4.226288;-;-;-;-;-;-;-;-;-;-;-;-;-;-;-
1514102842715;-;-;8.376602;-1.186142;-3.2171173;-;-;-;-;-;-;-;-;-;-;-;-;-;-;-
1514102842735;-;-;10.886917;-2.8800354;-3.2614136;-;-;-;-;-;-;-;-;-;-;-;-;-;-;-
1514102842755;-;-;11.507019;-2.6394196;-3.6732178;-;-;-;-;-;-;-;-;-;-;-;-;-;-;-
1514102842776;-;-;12.250427;-0.83299255;-4.5698547;-;-;-;-;-;-;-;-;-;-;-;-;-;-;-
1514102842797;-;-;10.574478;-0.06324768;-4.0251617;-;-;-;-;-;-;-;-;-;-;-;-;-;-;-
1514102842817;-;-;6.462433;-0.8712921;-4.6991425;-;-;-;-;-;-;-;-;-;-;-;-;-;-;-
1514102842838;-;-;4.2861176;-1.3920441;-5.1935425;-;-;-;-;-;-;-;-;-;-;-;-;-;-;-
1514102842858;-;-;5.276108;0.4299469;-4.0323486;-;-;-;-;-;-;-;-;-;-;-;-;-;-;-
1514102842878;-;-;8.493927;2.8468933;-5.00679;-;-;-;-;-;-;-;-;-;-;-;-;-;-;-
1514102842899;-;-;9.892136;3.611847;-4.8152466;-;-;-;-;-;-;-;-;-;-;-;-;-;-;-
1514102842919;-;-;7.1016846;2.157364;-3.6480865;-;-;-;-;-;-;-;-;-;-;-;-;-;-;-
1514102842939;-;-;4.450119;1.169754;-2.7275085;-;-;-;-;-;-;-;-;-;-;-;-;-;-;-
1514102842960;-;-;4.458496;1.288269;-2.6772308;-;-;-;-;-;-;-;-;-;-;-;-;-;-;-
1514102842980;-;-;5.6699524;1.3505249;-2.8735504;-;-;-;-;-;-;-;-;-;-;-;-;-;-;-
1514102843001;-;-;6.922119;0.99139404;-2.939392;-;-;-;-;-;-;-;-;-;-;-;-;-;-;-
1514102843021;-;-;8.332306;0.97224426;-3.112976;-;-;-;-;-;-;-;-;-;-;-;-;-;-;-
1514102843041;-;-;8.297592;1.5288849;-3.2326813;-;-;-;-;-;-;-;-;-;-;-;-;-;-;-
1514102843061;-;-;7.4919434;2.1789093;-3.112976;-;-;-;-;-;-;-;-;-;-;-;-;-;-;-
1514102843082;-;-;7.7577057;2.1525726;-1.6549072;-;-;-;-;-;-;-;-;-;-;-;-;-;-;-
1514102843102;-;-;9.312744;0.59994507;-0.29978943;-;-;-;-;-;-;-;-;-;-;-;-;-;-;-
1514102843122;-;-;10.68103;-0.34098816;-2.6796265;-;-;-;-;-;-;-;-;-;-;-;-;-;-;-
1514102843143;-;-;11.065292;0.8046417;-10.4392395;-;-;-;-;-;-;-;-;-;-;-;-;-;-;-
1514102843163;-;-;14.585968;-1.4878082;-11.474731;-;-;-;-;-;-;-;-;-;-;-;-;-;-;-
1514102843183;-;-;12.287537;-3.9801636;-7.954056;-;-;-;-;-;-;-;-;-;-;-;-;-;-;-
1514102843203;-;-;11.638702;-3.0093231;-4.551895;-;-;-;-;-;-;-;-;-;-;-;-;-;-;-
1514102843224;-;-;9.336685;-1.9103851;-6.0877686;-;-;-;-;-;-;-;-;-;-;-;-;-;-;-
1514102843244;-;-;8.797989;0.4479065;-4.9732666;-;-;-;-;-;-;-;-;-;-;-;-;-;-;-
1514102843265;-;-;7.4440613;1.3624878;-3.8863068;-;-;-;-;-;-;-;-;-;-;-;-;-;-;-
1514102843285;-;-;4.7182617;0.093566895;-4.460907;-;-;-;-;-;-;-;-;-;-;-;-;-;-;-
1514102843305;-;-;4.513565;-0.3876648;-3.729477;-;-;-;-;-;-;-;-;-;-;-;-;-;-;-
1514102843326;-;-;6.9580383;-0.05607605;-4.0646667;-;-;-;-;-;-;-;-;-;-;-;-;-;-;-
1514102843346;-;-;6.9712067;0.36889648;-3.7498322;-;-;-;-;-;-;-;-;-;-;-;-;-;-;-
1514102843366;-;-;6.580948;-0.30506897;-2.9501648;-;-;-;-;-;-;-;-;-;-;-;-;-;-;-
1514102843387;-;-;5.568207;-1.0855713;-2.5874481;-;-;-;-;-;-;-;-;-;-;-;-;-;-;-
1514102843407;-;-;5.485611;-1.0867767;-2.8508148;-;-;-;-;-;-;-;-;-;-;-;-;-;-;-
1514102843427;-;-;7.229782;-0.7336273;-2.9214478;-;-;-;-;-;-;-;-;-;-;-;-;-;-;-
1514102843448;-;-;9.164291;-0.28352356;-2.9286194;-;-;-;-;-;-;-;-;-;-;-;-;-;-;-
1514102843468;-;-;9.410904;0.06842041;-2.8903198;-;-;-;-;-;-;-;-;-;-;-;-;-;-;-
1514102843488;-;-;8.967972;0.6238861;-1.8751678;-;-;-;-;-;-;-;-;-;-;-;-;-;-;-
1514102843508;-;-;8.995499;0.2240448;-1.3436584;-;-;-;-;-;-;-;-;-;-;-;-;-;-;-
1514102843529;-;-;9.541382;-1.2843018;-2.211563;-;-;-;-;-;-;-;-;-;-;-;-;-;-;-
1514102843551;-;-;9.910095;-2.186905;-2.7933502;-;-;-;-;-;-;-;-;-;-;-;-;-;-;-
1514102843571;-;-;10.379349;-1.4363251;-2.9609375;-;-;-;-;-;-;-;-;-;-;-;-;-;-;-
1514102843591;-;-;9.698196;0.14743042;-2.3564148;-;-;-;-;-;-;-;-;-;-;-;-;-;-;-
1514102843611;-;-;9.001495;0.47543335;-1.6010437;-;-;-;-;-;-;-;-;-;-;-;-;-;-;-
1514102843632;-;-;8.83989;-0.9550934;-1.1413574;-;-;-;-;-;-;-;-;-;-;-;-;-;-;-
1514102843652;-;-;8.709396;-3.949051;-0.5571594;-;-;-;-;-;-;-;-;-;-;-;-;-;-;-
1514102843672;-;-;9.33429;-7.039963;0.30714417;-;-;-;-;-;-;-;-;-;-;-;-;-;-;-
1514102843693;-;-;10.42485;-7.985672;0.098846436;-;-;-;-;-;-;-;-;-;-;-;-;-;-;-
1514102843713;-;-;11.015015;-6.0786896;-0.7630615;-;-;-;-;-;-;-;-;-;-;-;-;-;-;-
1514102843733;-;-;10.822281;-3.3241577;-7.643997;-;-;-;-;-;-;-;-;-;-;-;-;-;-;-
1514102843754;-;-;11.934387;-0.50738525;-10.898926;-;-;-;-;-;-;-;-;-;-;-;-;-;-;-
1514102843774;-;-;11.301117;2.0496216;-7.244171;-;-;-;-;-;-;-;-;-;-;-;-;-;-;-
1514102843794;-;-;9.281616;3.7040253;-6.0195313;-;-;-;-;-;-;-;-;-;-;-;-;-;-;-
1514102843814;-;-;7.454834;5.2243347;-5.51915;-;-;-;-;-;-;-;-;-;-;-;-;-;-;-
1514102843835;-;-;7.8211517;4.111038;-6.449295;-;-;-;-;-;-;-;-;-;-;-;-;-;-;-
1514102843855;-;-;9.516251;1.932312;-4.943344;-;-;-;-;-;-;-;-;-;-;-;-;-;-;-
1514102843875;-;-;9.364212;1.1242676;-5.144455;-;-;-;-;-;-;-;-;-;-;-;-;-;-;-
1514102843896;-;-;7.51828;0.89323425;-4.3268433;-;-;-;-;-;-;-;-;-;-;-;-;-;-;-
1514102843916;-;-;6.29126;0.848938;-2.467743;-;-;-;-;-;-;-;-;-;-;-;-;-;-;-
1514102843937;-;-;7.0526123;1.046463;-2.4593658;-;-;-;-;-;-;-;-;-;-;-;-;-;-;-
1514102843956;-;-;7.7253876;1.0476532;-2.7346954;-;-;-;-;-;-;-;-;-;-;-;-;-;-;-
1514102843976;-;-;7.9863434;1.3158112;-2.9932709;-;-;-;-;-;-;-;-;-;-;-;-;-;-;-
1514102843996;-;-;8.180283;1.5145264;-2.3276825;-;-;-;-;-;-;-;-;-;-;-;-;-;-;-
1514102844017;-;-;7.9181213;1.9263306;-2.3851318;-;-;-;-;-;-;-;-;-;-;-;-;-;-;-
1514102844037;-;-;7.458435;1.674942;-2.8496094;-;-;-;-;-;-;-;-;-;-;-;-;-;-;-
1514102844057;-;-;8.079727;0.5065613;-2.5048523;-;-;-;-;-;-;-;-;-;-;-;-;-;-;-
1514102844078;-;-;8.353867;-0.7108917;-2.0104523;-;-;-;-;-;-;-;-;-;-;-;-;-;-;-
1514102844098;-;-;7.5230713;-0.5504761;-2.4162598;-;-;-;-;-;-;-;-;-;-;-;-;-;-;-
1514102844118;-;-;6.2302094;0.73521423;-2.5874481;-;-;-;-;-;-;-;-;-;-;-;-;-;-;-
1514102844138;-;-;5.901001;1.0033569;-2.1337433;-;-;-;-;-;-;-;-;-;-;-;-;-;-;-
1514102844159;-;-;6.347519;1.1362457;-2.2019806;-;-;-;-;-;-;-;-;-;-;-;-;-;-;-
1514102844179;-;-;7.451248;1.1398315;-2.5192108;-;-;-;-;-;-;-;-;-;-;-;-;-;-;-
1514102844199;-;-;8.094086;0.61190796;-2.8532104;-;-;-;-;-;-;-;-;-;-;-;-;-;-;-
1514102844220;-;-;7.9073334;0.67774963;-3.5762482;-;-;-;-;-;-;-;-;-;-;-;-;-;-;-
1514102844240;-;-;7.4201202;1.6976776;-4.0119934;-;-;-;-;-;-;-;-;-;-;-;-;-;-;-
1514102844261;-;-;6.896988;1.8568878;-3.7893372;-;-;-;-;-;-;-;-;-;-;-;-;-;-;-
1514102844281;-;-;5.902191;1.0548401;-2.6808167;-;-;-;-;-;-;-;-;-;-;-;-;-;-;-
1514102844301;-;-;5.255768;0.64064026;-1.9446106;-;-;-;-;-;-;-;-;-;-;-;-;-;-;-
1514102844321;-;-;4.8164215;1.0237122;-2.105011;-;-;-;-;-;-;-;-;-;-;-;-;-;-;-
1514102844342;-;-;5.6891174;1.114685;-1.4514008;-;-;-;-;-;-;-;-;-;-;-;-;-;-;-
1514102844362;-;-;7.6631317;1.1446228;0.31193542;-;-;-;-;-;-;-;-;-;-;-;-;-;-;-
1514102844382;-;-;9.941208;1.7323914;-0.7498932;-;-;-;-;-;-;-;-;-;-;-;-;-;-;-
1514102844403;-;-;10.816299;1.8209839;-4.9325714;-;-;-;-;-;-;-;-;-;-;-;-;-;-;-
1514102844423;-;-;8.01149;1.4163666;-3.93898;-;-;-;-;-;-;-;-;-;-;-;-;-;-;-
1514102844443;-;-;4.603348;0.4479065;-2.421051;-;-;-;-;-;-;-;-;-;-;-;-;-;-;-
1514102844463;-;-;4.9888153;-0.62828064;-4.737442;-;-;-;-;-;-;-;-;-;-;-;-;-;-;-
1514102844484;-;-;7.458435;-2.1809235;-10.676254;-;-;-;-;-;-;-;-;-;-;-;-;-;-;-
1514102844504;-;-;13.051285;-3.0655823;-6.56662;-;-;-;-;-;-;-;-;-;-;-;-;-;-;-
1514102844524;-;-;16.124237;-1.0065765;-2.63414;-;-;-;-;-;-;-;-;-;-;-;-;-;-;-
1514102844544;-;-;19.243881;-0.59477234;-6.4038086;-;-;-;-;-;-;-;-;-;-;-;-;-;-;-
1514102844564;-;-;22.573029;-2.5448456;-4.5698547;-;-;-;-;-;-;-;-;-;-;-;-;-;-;-
1514102844586;-;-;20.430206;-5.688431;-4.9289856;-;-;-;-;-;-;-;-;-;-;-;-;-;-;-
1514102844606;-;-;12.926788;-4.570343;-2.8256683;-;-;-;-;-;-;-;-;-;-;-;-;-;-;-
1514102844626;-;-;6.877838;-2.0217133;-1.697998;-;-;-;-;-;-;-;-;-;-;-;-;-;-;-
1514102844646;-;-;1.620163;0.69929504;-2.4318237;-;-;-;-;-;-;-;-;-;-;-;-;-;-;-
1514102844667;-;-;-1.2887878;2.105896;-3.3045197;-;-;-;-;-;-;-;-;-;-;-;-;-;-;-
1514102844687;-;-;-2.6750336;2.29982;-3.8180695;-;-;-;-;-;-;-;-;-;-;-;-;-;-;-
1514102844707;-;-;1.0599213;1.3541107;-2.0559387;-;-;-;-;-;-;-;-;-;-;-;-;-;-;-
1514102844728;-;-;6.7641144;0.27313232;-2.6724396;-;-;-;-;-;-;-;-;-;-;-;-;-;-;-
1514102844749;-;-;10.442795;-0.30506897;-3.4361877;-;-;-;-;-;-;-;-;-;-;-;-;-;-;-
1514102844768;-;-;9.222961;-1.1538086;-3.3368378;-;-;-;-;-;-;-;-;-;-;-;-;-;-;-
1514102844789;-;-;7.1567535;-1.8469391;-2.819687;-;-;-;-;-;-;-;-;-;-;-;-;-;-;-
1514102844809;-;-;6.3966064;-1.4614716;-1.7363129;-;-;-;-;-;-;-;-;-;-;-;-;-;-;-
1514102844829;-;-;6.778473;-0.680954;-0.25309753;-;-;-;-;-;-;-;-;-;-;-;-;-;-;-
1514102844850;-;-;7.9600067;0.06842041;0.17306519;-;-;-;-;-;-;-;-;-;-;-;-;-;-;-
1514102844869;-;-;8.6423645;0.009765625;-0.6804657;-;-;-;-;-;-;-;-;-;-;-;-;-;-;-
1514102844889;-;-;8.390976;-0.7587738;-1.7626495;-;-;-;-;-;-;-;-;-;-;-;-;-;-;-
1514102844910;-;-;7.556595;-1.1238861;-2.0104523;-;-;-;-;-;-;-;-;-;-;-;-;-;-;-
1514102844930;-;-;7.2238007;-0.89404297;-4.124527;-;-;-;-;-;-;-;-;-;-;-;-;-;-;-
1514102844950;-;-;9.303162;-0.6546173;-7.1831207;-;-;-;-;-;-;-;-;-;-;-;-;-;-;-
1514102844970;-;-;10.767212;1.6773376;-8.60527;-;-;-;-;-;-;-;-;-;-;-;-;-;-;-
1514102844991;-;-;11.25444;4.202011;-5.8938446;-;-;-;-;-;-;-;-;-;-;-;-;-;-;-
1514102845011;-;-;12.0026245;4.8113403;-2.7478638;-;-;-;-;-;-;-;-;-;-;-;-;-;-;-
1514102845032;-;-;12.99382;3.5914917;-3.836029;-;-;-;-;-;-;-;-;-;-;-;-;-;-;-
1514102845052;-;-;17.661316;2.0161133;-8.826736;-;-;-;-;-;-;-;-;-;-;-;-;-;-;-
1514102845072;-;-;23.4505;-2.3437347;-5.306061;-;-;-;-;-;-;-;-;-;-;-;-;-;-;-
1514102845092;-;-;15.792648;-2.4574585;-3.7342682;-;-;-;-;-;-;-;-;-;-;-;-;-;-;-
1514102845113;-;-;11.059311;0.30665588;-3.686386;-;-;-;-;-;-;-;-;-;-;-;-;-;-;-
1514102845133;-;-;5.7681274;2.8157654;-2.8867188;-;-;-;-;-;-;-;-;-;-;-;-;-;-;-
1514102845153;-;-;0.466156;3.7794342;-2.7957458;-;-;-;-;-;-;-;-;-;-;-;-;-;-;-
1514102845173;-;-;-2.2716064;2.734375;-1.5974426;-;-;-;-;-;-;-;-;-;-;-;-;-;-;-
1514102845194;-;-;0.32011414;1.0380707;-0.7175751;-;-;-;-;-;-;-;-;-;-;-;-;-;-;-
1514102845214;-;-;3.8048706;-0.08958435;0.05934143;-;-;-;-;-;-;-;-;-;-;-;-;-;-;-
1514102845234;-;-;5.8112183;-0.5720215;-0.32731628;-;-;-;-;-;-;-;-;-;-;-;-;-;-;-
1514102845255;-;-;6.2661133;-0.28352356;-1.1772614;-;-;-;-;-;-;-;-;-;-;-;-;-;-;-
1514102845275;-;-;7.770874;0.6849365;-1.7015991;-;-;-;-;-;-;-;-;-;-;-;-;-;-;-
1514102845295;-;-;10.52301;1.947876;-2.2103577;-;-;-;-;-;-;-;-;-;-;-;-;-;-;-
1514102845316;-;-;12.307877;2.7642975;-3.1728363;-;-;-;-;-;-;-;-;-;-;-;-;-;-;-
1514102845336;-;-;10.684616;2.1166687;-4.5686493;-;-;-;-;-;-;-;-;-;-;-;-;-;-;-
1514102845356;-;-;7.5278625;1.3960114;-3.6983643;-;-;-;-;-;-;-;-;-;-;-;-;-;-;-
1514102845377;-;-;4.2789307;0.95547485;-2.6676483;-;-;-;-;-;-;-;-;-;-;-;-;-;-;-
1514102845398;-;-;2.5383453;0.92196655;-1.9649506;-;-;-;-;-;-;-;-;-;-;-;-;-;-;-
1514102845417;-;-;4.134079;1.2954559;-0.9641876;-;-;-;-;-;-;-;-;-;-;-;-;-;-;-
1514102845437;-;-;6.928116;1.6330414;-1.8560181;-;-;-;-;-;-;-;-;-;-;-;-;-;-;-
1514102845457;-;-;8.368225;0.8273926;-3.175232;-;-;-;-;-;-;-;-;-;-;-;-;-;-;-
1514102845478;-;-;9.3103485;0.13546753;-4.097;-;-;-;-;-;-;-;-;-;-;-;-;-;-;-
1514102845498;-;-;9.159515;0.019348145;-5.884262;-;-;-;-;-;-;-;-;-;-;-;-;-;-;-
1514102845518;-;-;10.12796;0.23123169;-7.9480743;-;-;-;-;-;-;-;-;-;-;-;-;-;-;-
1514102845538;-;-;12.63829;-0.21887207;-7.785263;-;-;-;-;-;-;-;-;-;-;-;-;-;-;-
1514102845559;-;-;11.978683;-1.6889191;-4.310074;-;-;-;-;-;-;-;-;-;-;-;-;-;-;-
1514102845579;-;-;10.562515;-3.3864136;-1.674057;-;-;-;-;-;-;-;-;-;-;-;-;-;-;-
1514102845599;-;-;12.40126;-5.878769;-3.0830536;-;-;-;-;-;-;-;-;-;-;-;-;-;-;-
1514102845619;-;-;18.296982;-6.2690277;-3.135727;-;-;-;-;-;-;-;-;-;-;-;-;-;-;-
1514102845640;-;-;19.186432;-2.9542542;-3.5487213;-;-;-;-;-;-;-;-;-;-;-;-;-;-;-
1514102845659;-;-;17.075943;-1.155014;-4.4656982;-;-;-;-;-;-;-;-;-;-;-;-;-;-;-
1514102845679;-;-;12.81546;0.4467163;-2.8807373;-;-;-;-;-;-;-;-;-;-;-;-;-;-;-
1514102845699;-;-;8.128799;0.8908386;-2.7442627;-;-;-;-;-;-;-;-;-;-;-;-;-;-;-
1514102845720;-;-;3.5403137;0.79267883;-2.5347748;-;-;-;-;-;-;-;-;-;-;-;-;-;-;-
1514102845740;-;-;1.3412476;0.4072113;-2.16008;-;-;-;-;-;-;-;-;-;-;-;-;-;-;-
1514102845760;-;-;2.5203857;-0.24401855;-2.136139;-;-;-;-;-;-;-;-;-;-;-;-;-;-;-
1514102845781;-;-;4.252594;-0.62828064;-1.6201935;-;-;-;-;-;-;-;-;-;-;-;-;-;-;-
1514102845801;-;-;5.5753937;-0.8533478;-1.3843689;-;-;-;-;-;-;-;-;-;-;-;-;-;-;-
1514102845821;-;-;6.2936554;-0.55526733;-1.7877808;-;-;-;-;-;-;-;-;-;-;-;-;-;-;-
1514102845842;-;-;7.10408;-0.3697052;-1.9170685;-;-;-;-;-;-;-;-;-;-;-;-;-;-;-
1514102845862;-;-;7.7098236;-1.0269165;-2.8927155;-;-;-;-;-;-;-;-;-;-;-;-;-;-;-
1514102845882;-;-;7.3052063;-1.4243622;-3.484085;-;-;-;-;-;-;-;-;-;-;-;-;-;-;-
1514102845903;-;-;5.805237;-0.7120819;-1.7243347;-;-;-;-;-;-;-;-;-;-;-;-;-;-;-
1514102845923;-;-;5.4880066;0.0037841797;0.57289124;-;-;-;-;-;-;-;-;-;-;-;-;-;-;-
1514102845943;-;-;6.8515015;-0.49061584;1.2660217;-;-;-;-;-;-;-;-;-;-;-;-;-;-;-
1514102845964;-;-;7.6942596;-1.4985809;0.5848694;-;-;-;-;-;-;-;-;-;-;-;-;-;-;-
1514102845983;-;-;8.753693;-1.3992157;-0.29978943;-;-;-;-;-;-;-;-;-;-;-;-;-;-;-
1514102846003;-;-;10.24408;-0.4882202;-3.4637299;-;-;-;-;-;-;-;-;-;-;-;-;-;-;-
1514102846023;-;-;9.331894;-0.1590271;-3.7103271;-;-;-;-;-;-;-;-;-;-;-;-;-;-;-
1514102846044;-;-;7.557785;-0.73483276;-7.7505493;-;-;-;-;-;-;-;-;-;-;-;-;-;-;-
1514102846064;-;-;6.829956;1.0763855;-7.8475037;-;-;-;-;-;-;-;-;-;-;-;-;-;-;-
1514102846085;-;-;8.734543;4.265457;-4.9768677;-;-;-;-;-;-;-;-;-;-;-;-;-;-;-
1514102846105;-;-;11.196976;4.8364716;-4.8547516;-;-;-;-;-;-;-;-;-;-;-;-;-;-;-
1514102846125;-;-;16.755112;1.4881897;-4.7673645;-;-;-;-;-;-;-;-;-;-;-;-;-;-;-
1514102846146;-;-;18.783005;-1.724823;-5.3862762;-;-;-;-;-;-;-;-;-;-;-;-;-;-;-
1514102846166;-;-;15.84053;1.0596313;-7.405777;-;-;-;-;-;-;-;-;-;-;-;-;-;-;-
1514102846186;-;-;12.277954;4.8197174;-5.4185944;-;-;-;-;-;-;-;-;-;-;-;-;-;-;-
1514102846206;-;-;9.042191;6.039566;-4.7350464;-;-;-;-;-;-;-;-;-;-;-;-;-;-;-
1514102846227;-;-;8.600464;4.208008;-3.8013153;-;-;-;-;-;-;-;-;-;-;-;-;-;-;-
1514102846247;-;-;5.8878326;1.9550629;-2.79216;-;-;-;-;-;-;-;-;-;-;-;-;-;-;-
1514102846268;-;-;1.426239;-0.20809937;-2.2175446;-;-;-;-;-;-;-;-;-;-;-;-;-;-;-
1514102846288;-;-;0.27941895;-2.5005493;-0.922287;-;-;-;-;-;-;-;-;-;-;-;-;-;-;-
1514102846308;-;-;5.781296;-2.416748;-0.7199707;-;-;-;-;-;-;-;-;-;-;-;-;-;-;-
1514102846328;-;-;7.851074;0.38206482;-2.2642365;-;-;-;-;-;-;-;-;-;-;-;-;-;-;-
1514102846349;-;-;7.1639404;2.670929;-2.3959198;-;-;-;-;-;-;-;-;-;-;-;-;-;-;-
1514102846369;-;-;5.892624;2.6685333;-1.5531616;-;-;-;-;-;-;-;-;-;-;-;-;-;-;-
1514102846389;-;-;5.1552124;1.5109406;-0.9151001;-;-;-;-;-;-;-;-;-;-;-;-;-;-;-
1514102846410;-;-;5.14563;0.5460663;-1.610611;-;-;-;-;-;-;-;-;-;-;-;-;-;-;-
1514102846430;-;-;6.0542297;0.48262024;-2.223526;-;-;-;-;-;-;-;-;-;-;-;-;-;-;-
1514102846450;-;-;7.1711273;0.9470978;-1.6154022;-;-;-;-;-;-;-;-;-;-;-;-;-;-;-
1514102846471;-;-;7.221405;1.1877136;-3.235077;-;-;-;-;-;-;-;-;-;-;-;-;-;-;-
1514102846491;-;-;6.8550873;1.169754;-2.4042969;-;-;-;-;-;-;-;-;-;-;-;-;-;-;-
1514102846511;-;-;6.3415375;0.7447815;-3.5858307;-;-;-;-;-;-;-;-;-;-;-;-;-;-;-
1514102846532;-;-;6.446884;-0.6833496;-7.2812805;-;-;-;-;-;-;-;-;-;-;-;-;-;-;-
1514102846552;-;-;6.5474396;-2.7124329;-9.981934;-;-;-;-;-;-;-;-;-;-;-;-;-;-;-
1514102846572;-;-;9.852631;-3.2750702;-8.436478;-;-;-;-;-;-;-;-;-;-;-;-;-;-;-
1514102846593;-;-;16.020096;-2.0348816;-5.729843;-;-;-;-;-;-;-;-;-;-;-;-;-;-;-
1514102846613;-;-;19.545563;0.5676117;-4.033554;-;-;-;-;-;-;-;-;-;-;-;-;-;-;-
1514102846633;-;-;18.873978;1.7850647;-7.5266876;-;-;-;-;-;-;-;-;-;-;-;-;-;-;-
1514102846654;-;-;17.530838;-1.822998;-3.5810394;-;-;-;-;-;-;-;-;-;-;-;-;-;-;-
1514102846675;-;-;16.07756;-6.419861;-3.9796753;-;-;-;-;-;-;-;-;-;-;-;-;-;-;-
1514102846695;-;-;12.717285;-6.0391846;-2.5814667;-;-;-;-;-;-;-;-;-;-;-;-;-;-;-
1514102846715;-;-;8.510681;-2.380844;-2.2582397;-;-;-;-;-;-;-;-;-;-;-;-;-;-;-
1514102846736;-;-;5.455673;1.1829224;-3.6037903;-;-;-;-;-;-;-;-;-;-;-;-;-;-;-
1514102846756;-;-;2.7813568;2.7236023;-3.3488007;-;-;-;-;-;-;-;-;-;-;-;-;-;-;-
1514102846776;-;-;3.6049652;1.6761322;-3.056717;-;-;-;-;-;-;-;-;-;-;-;-;-;-;-
1514102846796;-;-;6.102112;-0.5792084;-3.183609;-;-;-;-;-;-;-;-;-;-;-;-;-;-;-
1514102846817;-;-;7.3734283;-1.2962646;-3.496048;-;-;-;-;-;-;-;-;-;-;-;-;-;-;-
1514102846837;-;-;6.6024933;-0.60913086;-3.0303802;-;-;-;-;-;-;-;-;-;-;-;-;-;-;-
1514102846857;-;-;4.102951;-0.050079346;-2.5539246;-;-;-;-;-;-;-;-;-;-;-;-;-;-;-
1514102846878;-;-;2.145691;-0.16261292;-3.3643646;-;-;-;-;-;-;-;-;-;-;-;-;-;-;-
1514102846898;-;-;2.2438507;-0.6618042;-3.6684265;-;-;-;-;-;-;-;-;-;-;-;-;-;-;-
1514102846918;-;-;4.4764557;-0.76475525;-2.9765015;-;-;-;-;-;-;-;-;-;-;-;-;-;-;-
1514102846938;-;-;7.7014465;-0.4547119;-1.9553833;-;-;-;-;-;-;-;-;-;-;-;-;-;-;-
1514102846958;-;-;8.685455;-1.0448761;-0.78341675;-;-;-;-;-;-;-;-;-;-;-;-;-;-;-
1514102846979;-;-;8.651932;-1.9427032;-0.7690582;-;-;-;-;-;-;-;-;-;-;-;-;-;-;-
1514102847000;-;-;8.914108;-2.3628845;-1.5124512;-;-;-;-;-;-;-;-;-;-;-;-;-;-;-
1514102847019;-;-;9.049377;-1.7391968;-2.831665;-;-;-;-;-;-;-;-;-;-;-;-;-;-;-
1514102847040;-;-;9.257675;0.06364441;-2.73349;-;-;-;-;-;-;-;-;-;-;-;-;-;-;-
1514102847060;-;-;8.637573;0.33418274;-2.8256683;-;-;-;-;-;-;-;-;-;-;-;-;-;-;-
1514102847080;-;-;8.747711;-1.2028961;-6.2841034;-;-;-;-;-;-;-;-;-;-;-;-;-;-;-
1514102847101;-;-;9.49469;-1.1741638;-7.912155;-;-;-;-;-;-;-;-;-;-;-;-;-;-;-
1514102847121;-;-;11.231689;0.55085754;-5.5861816;-;-;-;-;-;-;-;-;-;-;-;-;-;-;-
1514102847141;-;-;12.2612;1.7132416;-5.619705;-;-;-;-;-;-;-;-;-;-;-;-;-;-;-
1514102847161;-;-;14.69371;1.5097351;-3.2279053;-;-;-;-;-;-;-;-;-;-;-;-;-;-;-
1514102847182;-;-;14.348938;0.5233307;-3.5151978;-;-;-;-;-;-;-;-;-;-;-;-;-;-;-
1514102847201;-;-;13.047699;0.7830963;-7.4704285;-;-;-;-;-;-;-;-;-;-;-;-;-;-;-
1514102847221;-;-;11.517792;3.9889374;-8.171921;-;-;-;-;-;-;-;-;-;-;-;-;-;-;-
1514102847242;-;-;10.169861;5.5942383;-4.615341;-;-;-;-;-;-;-;-;-;-;-;-;-;-;-
1514102847261;-;-;9.869385;4.49411;-3.7426453;-;-;-;-;-;-;-;-;-;-;-;-;-;-;-
1514102847281;-;-;9.251678;2.849289;-3.2446594;-;-;-;-;-;-;-;-;-;-;-;-;-;-;-
1514102847302;-;-;7.590103;1.2523651;-2.9920654;-;-;-;-;-;-;-;-;-;-;-;-;-;-;-
1514102847322;-;-;5.431732;-0.1769867;-1.5280151;-;-;-;-;-;-;-;-;-;-;-;-;-;-;-
1514102847342;-;-;3.145279;-2.0109406;-1.143753;-;-;-;-;-;-;-;-;-;-;-;-;-;-;-
1514102847362;-;-;4.014374;-2.6118774;-1.1964111;-;-;-;-;-;-;-;-;-;-;-;-;-;-;-
1514102847383;-;-;7.508713;-1.3573151;-1.6800537;-;-;-;-;-;-;-;-;-;-;-;-;-;-;-
1514102847402;-;-;7.7888336;0.47543335;-3.302124;-;-;-;-;-;-;-;-;-;-;-;-;-;-;-
1514102847422;-;-;5.826782;1.3349609;-2.8974915;-;-;-;-;-;-;-;-;-;-;-;-;-;-;-
1514102847443;-;-;3.4696808;1.3636932;-2.5563202;-;-;-;-;-;-;-;-;-;-;-;-;-;-;-
1514102847462;-;-;3.5199585;1.6653595;-1.6608887;-;-;-;-;-;-;-;-;-;-;-;-;-;-;-
1514102847482;-;-;5.5382843;1.7802734;-1.8823547;-;-;-;-;-;-;-;-;-;-;-;-;-;-;-
1514102847503;-;-;6.7329865;2.137024;-2.9669342;-;-;-;-;-;-;-;-;-;-;-;-;-;-;-
1514102847523;-;-;6.76651;2.6182556;-3.4852753;-;-;-;-;-;-;-;-;-;-;-;-;-;-;-
1514102847543;-;-;6.735382;2.600296;-2.3121185;-;-;-;-;-;-;-;-;-;-;-;-;-;-;-
1514102847564;-;-;7.624832;1.6533813;-3.678009;-;-;-;-;-;-;-;-;-;-;-;-;-;-;-
1514102847584;-;-;6.9903564;0.14503479;-6.742584;-;-;-;-;-;-;-;-;-;-;-;-;-;-;-
1514102847604;-;-;5.865082;-2.6585693;-7.752945;-;-;-;-;-;-;-;-;-;-;-;-;-;-;-
1514102847625;-;-;6.9736023;-5.028824;-10.084885;-;-;-;-;-;-;-;-;-;-;-;-;-;-;-
1514102847645;-;-;12.111557;-4.310562;-5.887863;-;-;-;-;-;-;-;-;-;-;-;-;-;-;-
1514102847665;-;-;16.551605;-1.0867767;-4.717087;-;-;-;-;-;-;-;-;-;-;-;-;-;-;-
1514102847686;-;-;20.098618;1.7910614;-8.185089;-;-;-;-;-;-;-;-;-;-;-;-;-;-;-
1514102847706;-;-;25.546616;-4.080719;-6.4696503;-;-;-;-;-;-;-;-;-;-;-;-;-;-;-
1514102847727;-;-;24.046661;-6.886734;-7.6571655;-;-;-;-;-;-;-;-;-;-;-;-;-;-;-
1514102847747;-;-;14.206482;-1.7822876;-2.6197662;-;-;-;-;-;-;-;-;-;-;-;-;-;-;-
1514102847767;-;-;6.0817566;1.4726257;-1.5723114;-;-;-;-;-;-;-;-;-;-;-;-;-;-;-
1514102847787;-;-;0.1872406;2.53685;-1.4897003;-;-;-;-;-;-;-;-;-;-;-;-;-;-;-
1514102847808;-;-;-2.7552338;1.7838745;-1.9936829;-;-;-;-;-;-;-;-;-;-;-;-;-;-;-
1514102847828;-;-;-3.436386;-0.5133667;-2.772995;-;-;-;-;-;-;-;-;-;-;-;-;-;-;-
1514102847848;-;-;-0.058166504;-1.6314545;-2.8412323;-;-;-;-;-;-;-;-;-;-;-;-;-;-;-
1514102847868;-;-;7.001129;-0.40682983;-3.5894165;-;-;-;-;-;-;-;-;-;-;-;-;-;-;-
1514102847889;-;-;9.82988;-0.27394104;-3.1476898;-;-;-;-;-;-;-;-;-;-;-;-;-;-;-
1514102847909;-;-;7.040634;-0.4846344;-2.4330292;-;-;-;-;-;-;-;-;-;-;-;-;-;-;-
1514102847929;-;-;5.217453;-1.4530945;-1.9398193;-;-;-;-;-;-;-;-;-;-;-;-;-;-;-
1514102847950;-;-;5.1396484;-1.8241882;-1.950592;-;-;-;-;-;-;-;-;-;-;-;-;-;-;-
1514102847970;-;-;7.7696686;-0.8246155;-1.3688049;-;-;-;-;-;-;-;-;-;-;-;-;-;-;-
1514102847992;-;-;9.41449;-0.4056244;-0.32133484;-;-;-;-;-;-;-;-;-;-;-;-;-;-;-
1514102848011;-;-;8.851852;-2.2922516;-0.5236511;-;-;-;-;-;-;-;-;-;-;-;-;-;-;-
1514102848032;-;-;7.248932;-4.5799103;-0.98931885;-;-;-;-;-;-;-;-;-;-;-;-;-;-;-
1514102848052;-;-;5.8004456;-5.0898743;-2.2163544;-;-;-;-;-;-;-;-;-;-;-;-;-;-;-
1514102848073;-;-;4.41539;-2.1486053;-4.7913055;-;-;-;-;-;-;-;-;-;-;-;-;-;-;-
1514102848092;-;-;6.402588;0.36889648;-8.353882;-;-;-;-;-;-;-;-;-;-;-;-;-;-;-
1514102848112;-;-;10.299149;3.7207794;-7.663162;-;-;-;-;-;-;-;-;-;-;-;-;-;-;-
1514102848133;-;-;14.053253;6.3184967;-7.251358;-;-;-;-;-;-;-;-;-;-;-;-;-;-;-
1514102848153;-;-;17.431473;6.9338074;-5.8818665;-;-;-;-;-;-;-;-;-;-;-;-;-;-;-
1514102848173;-;-;17.631393;1.1242676;-6.402603;-;-;-;-;-;-;-;-;-;-;-;-;-;-;-
1514102848194;-;-;19.759842;-0.8174286;-9.181076;-;-;-;-;-;-;-;-;-;-;-;-;-;-;-
1514102848215;-;-;14.979813;2.1860962;-3.654068;-;-;-;-;-;-;-;-;-;-;-;-;-;-;-
1514102848235;-;-;10.769608;2.3692474;-2.6748352;-;-;-;-;-;-;-;-;-;-;-;-;-;-;-
1514102848255;-;-;8.237747;1.4750214;-2.6329346;-;-;-;-;-;-;-;-;-;-;-;-;-;-;-
1514102848275;-;-;5.7525635;1.006958;-1.5723114;-;-;-;-;-;-;-;-;-;-;-;-;-;-;-
1514102848296;-;-;4.798477;0.9087982;-1.5136566;-;-;-;-;-;-;-;-;-;-;-;-;-;-;-
1514102848315;-;-;3.2757568;1.0045624;-2.2905731;-;-;-;-;-;-;-;-;-;-;-;-;-;-;-
1514102848335;-;-;1.4741211;0.4084015;-2.7849731;-;-;-;-;-;-;-;-;-;-;-;-;-;-;-
1514102848355;-;-;3.0542908;-0.59477234;-1.7183533;-;-;-;-;-;-;-;-;-;-;-;-;-;-;-
1514102848376;-;-;8.893753;-0.31105042;-1.6788483;-;-;-;-;-;-;-;-;-;-;-;-;-;-;-
1514102848396;-;-;10.198593;0.60832214;-2.6832123;-;-;-;-;-;-;-;-;-;-;-;-;-;-;-
1514102848416;-;-;8.618423;1.2930603;-2.1301575;-;-;-;-;-;-;-;-;-;-;-;-;-;-;-
1514102848439;-;-;8.133591;1.7826691;-1.8847504;-;-;-;-;-;-;-;-;-;-;-;-;-;-;-
1514102848457;-;-;7.909729;1.7383881;-2.2414856;-;-;-;-;-;-;-;-;-;-;-;-;-;-;-
1514102848478;-;-;8.209015;1.4989624;-2.2139587;-;-;-;-;-;-;-;-;-;-;-;-;-;-;-
1514102848498;-;-;8.045013;1.2595367;-2.2043762;-;-;-;-;-;-;-;-;-;-;-;-;-;-;-
1514102848518;-;-;7.2070313;0.8022461;-1.2526855;-;-;-;-;-;-;-;-;-;-;-;-;-;-;-
1514102848538;-;-;6.7796783;0.41079712;-1.1329651;-;-;-;-;-;-;-;-;-;-;-;-;-;-;-
1514102848558;-;-;6.8515015;0.40481567;-0.9629822;-;-;-;-;-;-;-;-;-;-;-;-;-;-;-
1514102848579;-;-;7.2345734;1.0967407;-0.7522888;-;-;-;-;-;-;-;-;-;-;-;-;-;-;-
1514102848599;-;-;7.700241;2.3896027;0.6531067;-;-;-;-;-;-;-;-;-;-;-;-;-;-;-
1514102848619;-;-;8.26886;2.5332642;0.80752563;-;-;-;-;-;-;-;-;-;-;-;-;-;-;-
1514102848640;-;-;9.25528;0.77830505;-2.132553;-;-;-;-;-;-;-;-;-;-;-;-;-;-;-
1514102848660;-;-;7.7373505;0.37010193;-4.5219574;-;-;-;-;-;-;-;-;-;-;-;-;-;-;-
1514102848680;-;-;3.498413;0.083984375;-3.468521;-;-;-;-;-;-;-;-;-;-;-;-;-;-;-
1514102848700;-;-;2.2259064;-2.8656616;-3.496048;-;-;-;-;-;-;-;-;-;-;-;-;-;-;-
1514102848721;-;-;4.945709;-5.471756;-9.482758;-;-;-;-;-;-;-;-;-;-;-;-;-;-;-
1514102848741;-;-;12.400055;-5.7817993;-12.277985;-;-;-;-;-;-;-;-;-;-;-;-;-;-;-
1514102848764;-;-;19.489288;0.3964386;-8.3479;-;-;-;-;-;-;-;-;-;-;-;-;-;-;-
1514102848784;-;-;26.050598;4.248703;-5.9094086;-;-;-;-;-;-;-;-;-;-;-;-;-;-;-
1514102848804;-;-;28.893723;0.013366699;-5.971649;-;-;-;-;-;-;-;-;-;-;-;-;-;-;-
1514102848824;-;-;26.075745;-4.7654724;-7.465637;-;-;-;-;-;-;-;-;-;-;-;-;-;-;-
1514102848845;-;-;11.348999;-4.356064;-1.8955231;-;-;-;-;-;-;-;-;-;-;-;-;-;-;-
1514102848864;-;-;1.197586;-0.43914795;0.84584045;-;-;-;-;-;-;-;-;-;-;-;-;-;-;-
1514102848884;-;-;-0.3107605;0.82858276;-3.0004425;-;-;-;-;-;-;-;-;-;-;-;-;-;-;-
1514102848904;-;-;-0.8207245;1.6916962;-3.302124;-;-;-;-;-;-;-;-;-;-;-;-;-;-;-
1514102848925;-;-;2.178009;2.2794647;-1.3664093;-;-;-;-;-;-;-;-;-;-;-;-;-;-;-
1514102848945;-;-;7.135208;1.8209839;-2.191208;-;-;-;-;-;-;-;-;-;-;-;-;-;-;-
1514102848965;-;-;7.4009705;-0.41760254;-1.2143707;-;-;-;-;-;-;-;-;-;-;-;-;-;-;-
1514102848985;-;-;5.7405853;-1.5656128;-1.4095001;-;-;-;-;-;-;-;-;-;-;-;-;-;-;-
1514102849005;-;-;5.1444244;-0.96707153;-1.784195;-;-;-;-;-;-;-;-;-;-;-;-;-;-;-
1514102849026;-;-;7.236969;-0.5923767;-1.9948883;-;-;-;-;-;-;-;-;-;-;-;-;-;-;-
1514102849046;-;-;9.677856;-0.799469;-1.4154816;-;-;-;-;-;-;-;-;-;-;-;-;-;-;-
1514102849066;-;-;10.670242;-1.8325653;-1.2634583;-;-;-;-;-;-;-;-;-;-;-;-;-;-;-
1514102849088;-;-;11.903259;-4.000519;1.330658;-;-;-;-;-;-;-;-;-;-;-;-;-;-;-
1514102849108;-;-;12.093597;-5.54718;1.473114;-;-;-;-;-;-;-;-;-;-;-;-;-;-;-
1514102849128;-;-;10.7456665;-4.549988;-1.3843689;-;-;-;-;-;-;-;-;-;-;-;-;-;-;-
1514102849148;-;-;8.1371765;-2.1079102;-6.8670807;-;-;-;-;-;-;-;-;-;-;-;-;-;-;-
1514102849168;-;-;7.964798;-0.8928528;-13.351776;-;-;-;-;-;-;-;-;-;-;-;-;-;-;-
1514102849189;-;-;8.258087;2.2782745;-11.478317;-;-;-;-;-;-;-;-;-;-;-;-;-;-;-
1514102849209;-;-;10.781586;2.3656616;-2.3851318;-;-;-;-;-;-;-;-;-;-;-;-;-;-;-
1514102849229;-;-;13.023743;-1.0724182;-5.0522766;-;-;-;-;-;-;-;-;-;-;-;-;-;-;-
1514102849250;-;-;17.512878;-4.127411;-8.238968;-;-;-;-;-;-;-;-;-;-;-;-;-;-;-
1514102849270;-;-;18.763855;-4.850464;-7.232193;-;-;-;-;-;-;-;-;-;-;-;-;-;-;-
1514102849290;-;-;12.564056;-1.617096;-5.789688;-;-;-;-;-;-;-;-;-;-;-;-;-;-;-
1514102849311;-;-;5.374283;-0.88087463;-3.4912567;-;-;-;-;-;-;-;-;-;-;-;-;-;-;-
1514102849331;-;-;1.9014893;-2.0289001;-3.3284607;-;-;-;-;-;-;-;-;-;-;-;-;-;-;-
1514102849351;-;-;0.9258423;-1.2819061;-4.930176;-;-;-;-;-;-;-;-;-;-;-;-;-;-;-
1514102849371;-;-;2.2510376;0.91596985;-4.9062347;-;-;-;-;-;-;-;-;-;-;-;-;-;-;-
1514102849392;-;-;3.7809296;2.0687866;-5.314438;-;-;-;-;-;-;-;-;-;-;-;-;-;-;-
1514102849412;-;-;6.8766327;2.2866516;-4.290924;-;-;-;-;-;-;-;-;-;-;-;-;-;-;-
1514102849433;-;-;10.725311;2.1238556;-3.9413757;-;-;-;-;-;-;-;-;-;-;-;-;-;-;-
1514102849453;-;-;10.451187;1.8916168;-5.0546722;-;-;-;-;-;-;-;-;-;-;-;-;-;-;-
1514102849473;-;-;6.5713806;0.9315338;-4.1700134;-;-;-;-;-;-;-;-;-;-;-;-;-;-;-
1514102849493;-;-;4.4644775;0.3712921;-3.6744232;-;-;-;-;-;-;-;-;-;-;-;-;-;-;-
1514102849514;-;-;4.3663177;0.70529175;-3.120163;-;-;-;-;-;-;-;-;-;-;-;-;-;-;-
1514102849534;-;-;5.374283;1.5887451;-2.79216;-;-;-;-;-;-;-;-;-;-;-;-;-;-;-
1514102849554;-;-;7.532654;2.3465118;-3.6887817;-;-;-;-;-;-;-;-;-;-;-;-;-;-;-
1514102849575;-;-;9.1918335;3.1198425;-3.9437714;-;-;-;-;-;-;-;-;-;-;-;-;-;-;-
1514102849595;-;-;9.043396;3.8907623;-3.741455;-;-;-;-;-;-;-;-;-;-;-;-;-;-;-
1514102849615;-;-;8.831497;3.893158;-2.5527344;-;-;-;-;-;-;-;-;-;-;-;-;-;-;-
1514102849636;-;-;8.853058;2.1525726;-2.0882568;-;-;-;-;-;-;-;-;-;-;-;-;-;-;-
1514102849655;-;-;8.412521;0.13665771;-2.500061;-;-;-;-;-;-;-;-;-;-;-;-;-;-;-
1514102849675;-;-;8.653137;-0.5325165;-2.5096436;-;-;-;-;-;-;-;-;-;-;-;-;-;-;-
1514102849695;-;-;9.3701935;-0.73243713;-2.2366943;-;-;-;-;-;-;-;-;-;-;-;-;-;-;-
1514102849716;-;-;9.6467285;-0.047698975;-4.2478333;-;-;-;-;-;-;-;-;-;-;-;-;-;-;-
1514102849736;-;-;9.774811;-1.6985016;-7.266922;-;-;-;-;-;-;-;-;-;-;-;-;-;-;-
1514102849756;-;-;13.334991;-4.3273315;-6.6994934;-;-;-;-;-;-;-;-;-;-;-;-;-;-;-
1514102849777;-;-;12.116348;-3.7503204;-8.315582;-;-;-;-;-;-;-;-;-;-;-;-;-;-;-
1514102849797;-;-;10.30513;-3.4905548;-6.382263;-;-;-;-;-;-;-;-;-;-;-;-;-;-;-
1514102849818;-;-;7.3854065;-1.9941711;-4.930176;-;-;-;-;-;-;-;-;-;-;-;-;-;-;-
1514102849838;-;-;6.138031;-0.6618042;-4.682373;-;-;-;-;-;-;-;-;-;-;-;-;-;-;-
1514102849858;-;-;6.3499146;-0.28710938;-4.9529266;-;-;-;-;-;-;-;-;-;-;-;-;-;-;-
1514102849879;-;-;6.932907;-0.17459106;-6.863495;-;-;-;-;-;-;-;-;-;-;-;-;-;-;-
1514102849899;-;-;7.4811707;0.060043335;-6.9257355;-;-;-;-;-;-;-;-;-;-;-;-;-;-;-
1514102849919;-;-;7.7517242;0.6238861;-5.7430115;-;-;-;-;-;-;-;-;-;-;-;-;-;-;-
1514102849940;-;-;8.42688;0.79626465;-5.073822;-;-;-;-;-;-;-;-;-;-;-;-;-;-;-
1514102849960;-;-;8.759674;0.23721313;-4.2538147;-;-;-;-;-;-;-;-;-;-;-;-;-;-;-
1514102849980;-;-;8.302383;-0.9658661;-3.5259705;-;-;-;-;-;-;-;-;-;-;-;-;-;-;-
1514102850000;-;-;8.143173;-1.9079895;-2.5096436;-;-;-;-;-;-;-;-;-;-;-;-;-;-;-
1514102850021;-;-;7.85347;-1.2878876;-2.5012512;-;-;-;-;-;-;-;-;-;-;-;-;-;-;-
1514102850041;-;-;7.8786163;0.19412231;-2.831665;-;-;-;-;-;-;-;-;-;-;-;-;-;-;-
1514102850061;-;-;7.7936096;0.80822754;-2.7705994;-;-;-;-;-;-;-;-;-;-;-;-;-;-;-
1514102850082;-;-;7.04303;-0.02255249;-2.1181793;-;-;-;-;-;-;-;-;-;-;-;-;-;-;-
1514102850102;-;-;5.8519135;-1.2675323;-1.5926514;-;-;-;-;-;-;-;-;-;-;-;-;-;-;-
1514102850122;-;-;4.7924805;-1.6506042;-1.6489258;-;-;-;-;-;-;-;-;-;-;-;-;-;-;-
1514102850143;-;-;6.0614166;-0.6103363;-1.452591;-;-;-;-;-;-;-;-;-;-;-;-;-;-;-
1514102850163;-;-;7.6667175;0.42515564;-3.5140076;-;-;-;-;-;-;-;-;-;-;-;-;-;-;-
1514102850184;-;-;9.06015;-0.100372314;-3.3332367;-;-;-;-;-;-;-;-;-;-;-;-;-;-;-
1514102850203;-;-;10.775589;-1.7080688;0.13595581;-;-;-;-;-;-;-;-;-;-;-;-;-;-;-
1514102850223;-;-;13.323029;-2.2096558;-0.01966858;-;-;-;-;-;-;-;-;-;-;-;-;-;-;-
1514102850244;-;-;11.773972;-2.803421;-5.7190704;-;-;-;-;-;-;-;-;-;-;-;-;-;-;-
1514102850264;-;-;11.309494;-2.3078156;-14.333405;-;-;-;-;-;-;-;-;-;-;-;-;-;-;-
1514102850284;-;-;11.060501;1.2822876;-8.1671295;-;-;-;-;-;-;-;-;-;-;-;-;-;-;-
1514102850305;-;-;8.1527405;6.5303802;-7.3135986;-;-;-;-;-;-;-;-;-;-;-;-;-;-;-
1514102850324;-;-;6.4600525;6.8799286;-5.6017456;-;-;-;-;-;-;-;-;-;-;-;-;-;-;-
1514102850344;-;-;7.8762207;1.7335968;-5.638855;-;-;-;-;-;-;-;-;-;-;-;-;-;-;-
1514102850364;-;-;11.247253;-2.269516;-5.5335083;-;-;-;-;-;-;-;-;-;-;-;-;-;-;-
1514102850385;-;-;12.757996;-1.6577911;-4.4070435;-;-;-;-;-;-;-;-;-;-;-;-;-;-;-
1514102850405;-;-;10.426041;1.5815582;-4.0275574;-;-;-;-;-;-;-;-;-;-;-;-;-;-;-
1514102850426;-;-;8.375412;1.7359924;-3.369156;-;-;-;-;-;-;-;-;-;-;-;-;-;-;-
1514102850446;-;-;6.6432037;0.9602661;-2.567093;-;-;-;-;-;-;-;-;-;-;-;-;-;-;-
1514102850465;-;-;5.696289;0.026535034;-1.6549072;-;-;-;-;-;-;-;-;-;-;-;-;-;-;-
1514102850485;-;-;4.897827;-0.74560547;-2.0475616;-;-;-;-;-;-;-;-;-;-;-;-;-;-;-
1514102850506;-;-;3.4804688;-1.0269165;-2.0343933;-;-;-;-;-;-;-;-;-;-;-;-;-;-;-
1514102850525;-;-;3.4337769;-0.5444946;-1.7458801;-;-;-;-;-;-;-;-;-;-;-;-;-;-;-
1514102850545;-;-;6.8203735;0.4479065;-1.6177979;-;-;-;-;-;-;-;-;-;-;-;-;-;-;-
1514102850566;-;-;11.481888;1.698883;-2.3372498;-;-;-;-;-;-;-;-;-;-;-;-;-;-;-
1514102850586;-;-;11.207748;2.1741333;-3.4553528;-;-;-;-;-;-;-;-;-;-;-;-;-;-;-
1514102850606;-;-;9.980713;2.4398804;-2.7705994;-;-;-;-;-;-;-;-;-;-;-;-;-;-;-
1514102850626;-;-;7.921707;1.4726257;-1.5459747;-;-;-;-;-;-;-;-;-;-;-;-;-;-;-
1514102850647;-;-;8.104858;-0.28112793;-2.6880035;-;-;-;-;-;-;-;-;-;-;-;-;-;-;-
1514102850667;-;-;8.174301;-0.70370483;-4.0790405;-;-;-;-;-;-;-;-;-;-;-;-;-;-;-
1514102850687;-;-;7.0897217;1.0847626;-2.6556854;-;-;-;-;-;-;-;-;-;-;-;-;-;-;-
1514102850707;-;-;6.5438385;3.086319;-2.1181793;-;-;-;-;-;-;-;-;-;-;-;-;-;-;-
1514102850728;-;-;6.9352875;2.8468933;-4.3878937;-;-;-;-;-;-;-;-;-;-;-;-;-;-;-
1514102850748;-;-;10.296753;1.8880157;-12.578445;-;-;-;-;-;-;-;-;-;-;-;-;-;-;-
1514102850768;-;-;14.8684845;-0.82580566;-8.79921;-;-;-;-;-;-;-;-;-;-;-;-;-;-;-
1514102850788;-;-;13.010574;-1.3357697;-5.160019;-;-;-;-;-;-;-;-;-;-;-;-;-;-;-
1514102850809;-;-;11.089233;-1.4195709;-3.310501;-;-;-;-;-;-;-;-;-;-;-;-;-;-;-
1514102850829;-;-;8.976349;-1.5835724;-4.575836;-;-;-;-;-;-;-;-;-;-;-;-;-;-;-
1514102850849;-;-;8.237747;0.040893555;-4.633301;-;-;-;-;-;-;-;-;-;-;-;-;-;-;-
1514102850870;-;-;7.2657013;1.5851593;-4.301697;-;-;-;-;-;-;-;-;-;-;-;-;-;-;-
1514102850890;-;-;5.8722687;2.260315;-4.100586;-;-;-;-;-;-;-;-;-;-;-;-;-;-;-
1514102850910;-;-;7.2238007;1.288269;-3.8707428;-;-;-;-;-;-;-;-;-;-;-;-;-;-;-
1514102850930;-;-;7.961212;-0.38049316;-3.6804047;-;-;-;-;-;-;-;-;-;-;-;-;-;-;-
1514102850951;-;-;7.7409363;-1.3752747;-2.9513702;-;-;-;-;-;-;-;-;-;-;-;-;-;-;-
1514102850971;-;-;6.728195;-2.0540314;-2.816101;-;-;-;-;-;-;-;-;-;-;-;-;-;-;-
1514102850992;-;-;5.4915924;-2.135437;-3.2207184;-;-;-;-;-;-;-;-;-;-;-;-;-;-;-
1514102851012;-;-;4.8858643;-1.0532532;-3.7677917;-;-;-;-;-;-;-;-;-;-;-;-;-;-;-
1514102851033;-;-;7.411743;0.8513336;-3.3248596;-;-;-;-;-;-;-;-;-;-;-;-;-;-;-
1514102851054;-;-;9.230133;1.1781464;-3.3595734;-;-;-;-;-;-;-;-;-;-;-;-;-;-;-
1514102851074;-;-;9.95079;0.7723236;-3.112976;-;-;-;-;-;-;-;-;-;-;-;-;-;-;-
1514102851094;-;-;9.392944;0.23960876;-2.5204163;-;-;-;-;-;-;-;-;-;-;-;-;-;-;-
1514102851115;-;-;8.259293;-0.2787323;-2.7550507;-;-;-;-;-;-;-;-;-;-;-;-;-;-;-
1514102851135;-;-;7.082535;-0.56843567;-2.591034;-;-;-;-;-;-;-;-;-;-;-;-;-;-;-
1514102851155;-;-;5.8004456;-0.88446045;-1.9398193;-;-;-;-;-;-;-;-;-;-;-;-;-;-;-
1514102851176;-;-;4.611725;-1.1837463;-1.3460541;-;-;-;-;-;-;-;-;-;-;-;-;-;-;-
1514102851195;-;-;4.6069336;-1.1226959;-1.511261;-;-;-;-;-;-;-;-;-;-;-;-;-;-;-
1514102851215;-;-;5.727417;-0.064453125;-1.6429291;-;-;-;-;-;-;-;-;-;-;-;-;-;-;-
1514102851235;-;-;6.7772827;0.5185394;-2.041565;-;-;-;-;-;-;-;-;-;-;-;-;-;-;-
1514102851256;-;-;7.4249115;-0.00579834;-3.0112305;-;-;-;-;-;-;-;-;-;-;-;-;-;-;-
1514102851276;-;-;7.454834;-1.0747986;-2.4234467;-;-;-;-;-;-;-;-;-;-;-;-;-;-;-
1514102851296;-;-;7.5625763;-1.4375305;-1.1904297;-;-;-;-;-;-;-;-;-;-;-;-;-;-;-
1514102851316;-;-;8.848267;-1.4267578;-0.5176544;-;-;-;-;-;-;-;-;-;-;-;-;-;-;-
1514102851337;-;-;10.279999;-1.7547607;-1.4813232;-;-;-;-;-;-;-;-;-;-;-;-;-;-;-
1514102851357;-;-;9.552155;-1.8158112;-3.4984436;-;-;-;-;-;-;-;-;-;-;-;-;-;-;-
1514102851378;-;-;8.92009;-0.3146515;-7.046646;-;-;-;-;-;-;-;-;-;-;-;-;-;-;-
1514102851398;-;-;9.401321;1.1901093;-6.4947815;-;-;-;-;-;-;-;-;-;-;-;-;-;-;-
1514102851418;-;-;9.537796;4.4354553;-6.053055;-;-;-;-;-;-;-;-;-;-;-;-;-;-;-
1514102851438;-;-;10.965927;6.355606;-5.662796;-;-;-;-;-;-;-;-;-;-;-;-;-;-;-
1514102851458;-;-;13.3146515;5.704376;-4.131714;-;-;-;-;-;-;-;-;-;-;-;-;-;-;-
1514102851479;-;-;17.672089;8.239838;-8.988342;-;-;-;-;-;-;-;-;-;-;-;-;-;-;-
1514102851498;-;-;24.752945;8.784515;-7.9109497;-;-;-;-;-;-;-;-;-;-;-;-;-;-;-
1514102851518;-;-;16.86525;1.2260284;-4.187973;-;-;-;-;-;-;-;-;-;-;-;-;-;-;-
1514102851539;-;-;8.335907;-4.2327576;-2.0631256;-;-;-;-;-;-;-;-;-;-;-;-;-;-;-
1514102851558;-;-;1.9792938;-7.0423584;-1.064743;-;-;-;-;-;-;-;-;-;-;-;-;-;-;-
1514102851578;-;-;-0.8159332;-6.0738983;-0.9761505;-;-;-;-;-;-;-;-;-;-;-;-;-;-;-
1514102851599;-;-;-0.874588;-1.2172546;0.8338623;-;-;-;-;-;-;-;-;-;-;-;-;-;-;-
1514102851618;-;-;4.347168;1.8042297;0.26763916;-;-;-;-;-;-;-;-;-;-;-;-;-;-;-
1514102851638;-;-;8.186264;3.6214294;-1.650116;-;-;-;-;-;-;-;-;-;-;-;-;-;-;-
1514102851658;-;-;7.669113;4.2463074;-1.9721375;-;-;-;-;-;-;-;-;-;-;-;-;-;-;-
1514102851678;-;-;7.648773;3.36763;-2.4473877;-;-;-;-;-;-;-;-;-;-;-;-;-;-;-
