TimeStamp[ms];Prox[Cm];Lux[lux];AccX[m/s^2];AccY[m/s^2];AccZ[m/s^2];GyroX[rad/s];GyroY[rad/s];GyroZ[rad/s];MagnX[uT];MagnY[uT];MagnZ[uT];OrienYaw[degrees];OrienPitch[degrees];OrienRoll[degrees];Press[Pa];Temp[C°];Batt[%];Lat;Lng;Speed[m/s]
1514102882082;-;-;7.1088715;-2.0576172;5.4630585;-;-;-;-;-;-;-;-;-;-;-;-;-;-;-
1514102882082;-;-;7.1088715;-2.0576172;5.4630585;-;-;-;-;-;-;-;-;-;-;-;-;-;-;-
1514102882101;-;-;6.280487;-2.2132416;4.394043;-;-;-;-;-;-;-;-;-;-;-;-;-;-;-
1514102882122;-;-;7.272873;-1.6781464;4.258774;-;-;-;-;-;-;-;-;-;-;-;-;-;-;-
1514102882141;-;-;8.134796;-1.2400055;5.302643;-;-;-;-;-;-;-;-;-;-;-;-;-;-;-
1514102882161;-;-;8.511871;-1.2088776;5.434326;-;-;-;-;-;-;-;-;-;-;-;-;-;-;-
1514102882181;-;-;8.64476;-1.2196503;4.963867;-;-;-;-;-;-;-;-;-;-;-;-;-;-;-
1514102882202;-;-;8.033035;-1.1981049;3.8673248;-;-;-;-;-;-;-;-;-;-;-;-;-;-;-
1514102882223;-;-;7.43927;-1.2316284;2.8342133;-;-;-;-;-;-;-;-;-;-;-;-;-;-;-
1514102882243;-;-;7.7253876;-0.89404297;2.5948029;-;-;-;-;-;-;-;-;-;-;-;-;-;-;-
1514102882262;-;-;8.252106;-0.6438446;2.8617554;-;-;-;-;-;-;-;-;-;-;-;-;-;-;-
1514102882282;-;-;7.945648;-0.0440979;1.899292;-;-;-;-;-;-;-;-;-;-;-;-;-;-;-
1514102882303;-;-;9.141556;-0.1925354;3.0365295;-;-;-;-;-;-;-;-;-;-;-;-;-;-;-
1514102882336;-;-;8.699814;-0.17936707;0.023422241;-;-;-;-;-;-;-;-;-;-;-;-;-;-;-
1514102882342;-;-;8.861435;-0.17459106;0.32270813;-;-;-;-;-;-;-;-;-;-;-;-;-;-;-
1514102882362;-;-;9.459976;0.2695465;-2.1900177;-;-;-;-;-;-;-;-;-;-;-;-;-;-;-
1514102882383;-;-;7.8043976;1.7060547;-1.7506714;-;-;-;-;-;-;-;-;-;-;-;-;-;-;-
1514102882403;-;-;10.658279;1.1841278;-0.2351532;-;-;-;-;-;-;-;-;-;-;-;-;-;-;-
1514102882423;-;-;10.695389;0.42156982;-0.8492584;-;-;-;-;-;-;-;-;-;-;-;-;-;-;-
1514102882444;-;-;9.565323;0.5197296;-1.1892395;-;-;-;-;-;-;-;-;-;-;-;-;-;-;-
1514102882464;-;-;8.200638;-0.02015686;-0.34048462;-;-;-;-;-;-;-;-;-;-;-;-;-;-;-
1514102882485;-;-;9.937622;-0.289505;-0.59547424;-;-;-;-;-;-;-;-;-;-;-;-;-;-;-
1514102882504;-;-;10.302734;-0.44154358;-0.6768799;-;-;-;-;-;-;-;-;-;-;-;-;-;-;-
1514102882524;-;-;10.757645;0.38087463;-0.2674713;-;-;-;-;-;-;-;-;-;-;-;-;-;-;-
1514102882544;-;-;11.648285;-0.6043396;-0.4278717;-;-;-;-;-;-;-;-;-;-;-;-;-;-;-
1514102882565;-;-;11.123947;-0.5217438;-0.70440674;-;-;-;-;-;-;-;-;-;-;-;-;-;-;-
1514102882586;-;-;11.090439;0.03970337;-0.11903381;-;-;-;-;-;-;-;-;-;-;-;-;-;-;-
1514102882607;-;-;10.4882965;-0.02015686;-1.5519562;-;-;-;-;-;-;-;-;-;-;-;-;-;-;-
1514102882626;-;-;7.3973694;2.0364532;-1.0659332;-;-;-;-;-;-;-;-;-;-;-;-;-;-;-
1514102882646;-;-;6.4792023;3.2718658;-1.7758179;-;-;-;-;-;-;-;-;-;-;-;-;-;-;-
1514102882667;-;-;7.743332;1.571991;-0.5248413;-;-;-;-;-;-;-;-;-;-;-;-;-;-;-
1514102882687;-;-;9.868195;0.28390503;-0.6253967;-;-;-;-;-;-;-;-;-;-;-;-;-;-;-
1514102882707;-;-;8.334702;0.71606445;-0.68644714;-;-;-;-;-;-;-;-;-;-;-;-;-;-;-
1514102882727;-;-;8.886566;0.9351349;-0.20881653;-;-;-;-;-;-;-;-;-;-;-;-;-;-;-
1514102882748;-;-;9.408508;0.48980713;-1.4597778;-;-;-;-;-;-;-;-;-;-;-;-;-;-;-
1514102882768;-;-;9.015854;0.3102417;-0.6194153;-;-;-;-;-;-;-;-;-;-;-;-;-;-;-
1514102882788;-;-;7.786438;1.7515564;0.3789673;-;-;-;-;-;-;-;-;-;-;-;-;-;-;-
1514102882809;-;-;8.229355;1.8820343;0.122787476;-;-;-;-;-;-;-;-;-;-;-;-;-;-;-
1514102882829;-;-;8.881775;1.674942;0.39572144;-;-;-;-;-;-;-;-;-;-;-;-;-;-;-
1514102882849;-;-;8.575317;1.185318;0.54177856;-;-;-;-;-;-;-;-;-;-;-;-;-;-;-
1514102882869;-;-;8.1527405;0.9351349;-0.9941101;-;-;-;-;-;-;-;-;-;-;-;-;-;-;-
1514102882890;-;-;8.431671;2.224411;1.0828552;-;-;-;-;-;-;-;-;-;-;-;-;-;-;-
1514102882910;-;-;8.653137;1.4810028;0.4795227;-;-;-;-;-;-;-;-;-;-;-;-;-;-;-
1514102882930;-;-;9.289993;1.1158905;0.51065063;-;-;-;-;-;-;-;-;-;-;-;-;-;-;-
1514102882951;-;-;9.742493;0.9758301;1.207367;-;-;-;-;-;-;-;-;-;-;-;-;-;-;-
1514102882972;-;-;8.302383;1.2978516;1.1582794;-;-;-;-;-;-;-;-;-;-;-;-;-;-;-
1514102882992;-;-;8.396957;1.0680084;1.3558044;-;-;-;-;-;-;-;-;-;-;-;-;-;-;-
1514102883012;-;-;8.124023;1.2966461;-0.2111969;-;-;-;-;-;-;-;-;-;-;-;-;-;-;-
1514102883032;-;-;9.906494;0.576004;-2.5934296;-;-;-;-;-;-;-;-;-;-;-;-;-;-;-
1514102883053;-;-;12.1762085;0.5747986;-3.3057098;-;-;-;-;-;-;-;-;-;-;-;-;-;-;-
1514102883073;-;-;16.188889;0.29707336;-2.8424377;-;-;-;-;-;-;-;-;-;-;-;-;-;-;-
1514102883094;-;-;15.180923;3.3807983;-3.1644592;-;-;-;-;-;-;-;-;-;-;-;-;-;-;-
1514102883114;-;-;14.945099;6.8524017;-3.7306824;-;-;-;-;-;-;-;-;-;-;-;-;-;-;-
1514102883134;-;-;12.426392;8.074631;-4.618927;-;-;-;-;-;-;-;-;-;-;-;-;-;-;-
1514102883154;-;-;9.263657;4.583893;-6.2493744;-;-;-;-;-;-;-;-;-;-;-;-;-;-;-
1514102883175;-;-;6.8610687;1.6366272;-5.42099;-;-;-;-;-;-;-;-;-;-;-;-;-;-;-
1514102883194;-;-;5.4485016;-0.5564575;-3.9437714;-;-;-;-;-;-;-;-;-;-;-;-;-;-;-
1514102883214;-;-;5.1396484;-1.4602661;-3.5487213;-;-;-;-;-;-;-;-;-;-;-;-;-;-;-
1514102883234;-;-;6.7449493;-0.9263611;-5.9752502;-;-;-;-;-;-;-;-;-;-;-;-;-;-;-
1514102883255;-;-;8.0138855;-0.32182312;-6.2541656;-;-;-;-;-;-;-;-;-;-;-;-;-;-;-
1514102883275;-;-;8.060562;0.5077667;-5.3599396;-;-;-;-;-;-;-;-;-;-;-;-;-;-;-
1514102883295;-;-;8.077332;1.327774;-3.997635;-;-;-;-;-;-;-;-;-;-;-;-;-;-;-
1514102883316;-;-;7.5589905;1.5731812;-3.607376;-;-;-;-;-;-;-;-;-;-;-;-;-;-;-
1514102883336;-;-;7.813965;0.5736084;-3.4529572;-;-;-;-;-;-;-;-;-;-;-;-;-;-;-
1514102883356;-;-;8.206619;-0.3768921;-3.0878448;-;-;-;-;-;-;-;-;-;-;-;-;-;-;-
1514102883377;-;-;8.431671;-1.1334686;-2.8448334;-;-;-;-;-;-;-;-;-;-;-;-;-;-;-
1514102883397;-;-;8.449631;-1.6063232;-2.6078033;-;-;-;-;-;-;-;-;-;-;-;-;-;-;-
1514102883417;-;-;8.037827;-1.8876343;-2.136139;-;-;-;-;-;-;-;-;-;-;-;-;-;-;-
1514102883437;-;-;7.1627502;-1.9822083;-2.4270325;-;-;-;-;-;-;-;-;-;-;-;-;-;-;-
1514102883457;-;-;6.414551;-1.5500488;-2.2067719;-;-;-;-;-;-;-;-;-;-;-;-;-;-;-
1514102883478;-;-;5.2545624;-1.1645813;-2.0990295;-;-;-;-;-;-;-;-;-;-;-;-;-;-;-
1514102883497;-;-;5.838745;-0.8976288;-1.8584137;-;-;-;-;-;-;-;-;-;-;-;-;-;-;-
1514102883517;-;-;6.8766327;-1.0496674;-1.5699158;-;-;-;-;-;-;-;-;-;-;-;-;-;-;-
1514102883538;-;-;7.7936096;-1.2627563;-1.7003937;-;-;-;-;-;-;-;-;-;-;-;-;-;-;-
1514102883558;-;-;8.897339;-1.506958;-2.041565;-;-;-;-;-;-;-;-;-;-;-;-;-;-;-
1514102883578;-;-;11.27478;-2.0695953;-2.2103577;-;-;-;-;-;-;-;-;-;-;-;-;-;-;-
1514102883598;-;-;13.18895;-2.3940125;-2.994461;-;-;-;-;-;-;-;-;-;-;-;-;-;-;-
1514102883618;-;-;14.894821;-1.6482086;-3.3559875;-;-;-;-;-;-;-;-;-;-;-;-;-;-;-
1514102883639;-;-;15.123459;-0.41281128;-2.8352509;-;-;-;-;-;-;-;-;-;-;-;-;-;-;-
1514102883659;-;-;12.123535;-0.28831482;-4.594986;-;-;-;-;-;-;-;-;-;-;-;-;-;-;-
1514102883679;-;-;9.74968;-0.8461609;-7.5985107;-;-;-;-;-;-;-;-;-;-;-;-;-;-;-
1514102883700;-;-;10.232117;-0.98501587;-6.80484;-;-;-;-;-;-;-;-;-;-;-;-;-;-;-
1514102883720;-;-;10.862976;-0.9503021;-5.8459625;-;-;-;-;-;-;-;-;-;-;-;-;-;-;-
1514102883740;-;-;11.447174;-1.5584412;-4.675186;-;-;-;-;-;-;-;-;-;-;-;-;-;-;-
1514102883760;-;-;8.896149;-1.700882;-9.211014;-;-;-;-;-;-;-;-;-;-;-;-;-;-;-
1514102883780;-;-;7.2238007;-1.4686584;-9.3367;-;-;-;-;-;-;-;-;-;-;-;-;-;-;-
1514102883801;-;-;6.8083954;-0.29309082;-5.406616;-;-;-;-;-;-;-;-;-;-;-;-;-;-;-
1514102883821;-;-;5.7693176;0.27313232;-3.1428986;-;-;-;-;-;-;-;-;-;-;-;-;-;-;-
1514102883841;-;-;5.2904816;-0.47505188;-3.0220032;-;-;-;-;-;-;-;-;-;-;-;-;-;-;-
1514102883862;-;-;5.0462646;-0.9539032;-2.5682983;-;-;-;-;-;-;-;-;-;-;-;-;-;-;-
1514102883882;-;-;6.8945923;-1.3740845;-2.7777863;-;-;-;-;-;-;-;-;-;-;-;-;-;-;-
1514102883902;-;-;7.086136;-1.1286774;-4.246628;-;-;-;-;-;-;-;-;-;-;-;-;-;-;-
1514102883923;-;-;6.062607;-0.5720215;-3.970108;-;-;-;-;-;-;-;-;-;-;-;-;-;-;-
1514102883943;-;-;4.438141;0.7016907;-3.8216553;-;-;-;-;-;-;-;-;-;-;-;-;-;-;-
1514102883963;-;-;3.6444702;2.394394;-3.2578278;-;-;-;-;-;-;-;-;-;-;-;-;-;-;-
1514102883984;-;-;4.3770905;3.1832886;-2.6784363;-;-;-;-;-;-;-;-;-;-;-;-;-;-;-
1514102884004;-;-;6.0961304;2.631424;-3.0926208;-;-;-;-;-;-;-;-;-;-;-;-;-;-;-
1514102884024;-;-;7.556595;1.9347076;-4.270569;-;-;-;-;-;-;-;-;-;-;-;-;-;-;-
1514102884045;-;-;8.039017;1.2751007;-4.681183;-;-;-;-;-;-;-;-;-;-;-;-;-;-;-
1514102884065;-;-;7.383011;2.0304718;-3.8839111;-;-;-;-;-;-;-;-;-;-;-;-;-;-;-
1514102884085;-;-;7.798401;2.8014069;-2.7406769;-;-;-;-;-;-;-;-;-;-;-;-;-;-;-
1514102884106;-;-;8.26886;2.9630127;-2.6078033;-;-;-;-;-;-;-;-;-;-;-;-;-;-;-
1514102884126;-;-;8.611237;3.063568;-2.772995;-;-;-;-;-;-;-;-;-;-;-;-;-;-;-
1514102884146;-;-;9.246902;3.2395477;-3.3057098;-;-;-;-;-;-;-;-;-;-;-;-;-;-;-
1514102884167;-;-;9.822708;3.4825592;-3.3571777;-;-;-;-;-;-;-;-;-;-;-;-;-;-;-
1514102884187;-;-;10.139938;3.3688354;-2.8843231;-;-;-;-;-;-;-;-;-;-;-;-;-;-;-
1514102884207;-;-;9.088882;2.687683;-3.4361877;-;-;-;-;-;-;-;-;-;-;-;-;-;-;-
1514102884228;-;-;8.066559;2.3429108;-8.317978;-;-;-;-;-;-;-;-;-;-;-;-;-;-;-
1514102884247;-;-;9.895721;2.727188;-8.375427;-;-;-;-;-;-;-;-;-;-;-;-;-;-;-
1514102884267;-;-;11.538147;2.9869537;-8.236572;-;-;-;-;-;-;-;-;-;-;-;-;-;-;-
1514102884288;-;-;12.516174;2.5500183;-7.374649;-;-;-;-;-;-;-;-;-;-;-;-;-;-;-
1514102884307;-;-;9.001495;2.809784;-8.171921;-;-;-;-;-;-;-;-;-;-;-;-;-;-;-
1514102884327;-;-;6.798828;1.2451782;-6.5654144;-;-;-;-;-;-;-;-;-;-;-;-;-;-;-
1514102884347;-;-;5.6699524;-2.3269653;-5.4940033;-;-;-;-;-;-;-;-;-;-;-;-;-;-;-
1514102884368;-;-;5.6771393;-3.9550323;-5.227051;-;-;-;-;-;-;-;-;-;-;-;-;-;-;-
1514102884388;-;-;7.0609894;-2.62146;-4.618927;-;-;-;-;-;-;-;-;-;-;-;-;-;-;-
1514102884408;-;-;7.9037476;-0.1015625;-2.6389313;-;-;-;-;-;-;-;-;-;-;-;-;-;-;-
1514102884429;-;-;6.363083;0.7112732;-3.8216553;-;-;-;-;-;-;-;-;-;-;-;-;-;-;-
1514102884449;-;-;6.651581;0.28390503;-3.6576538;-;-;-;-;-;-;-;-;-;-;-;-;-;-;-
1514102884469;-;-;7.031067;-0.46069336;-3.6049805;-;-;-;-;-;-;-;-;-;-;-;-;-;-;-
1514102884490;-;-;5.6184845;-1.1897278;-3.4589386;-;-;-;-;-;-;-;-;-;-;-;-;-;-;-
1514102884510;-;-;3.8922577;-1.819397;-3.3308563;-;-;-;-;-;-;-;-;-;-;-;-;-;-;-
1514102884530;-;-;4.470459;-2.143814;-2.8879242;-;-;-;-;-;-;-;-;-;-;-;-;-;-;-
1514102884551;-;-;6.3894196;-2.2132416;-3.0064392;-;-;-;-;-;-;-;-;-;-;-;-;-;-;-
1514102884571;-;-;7.581726;-1.7894745;-3.6121674;-;-;-;-;-;-;-;-;-;-;-;-;-;-;-
1514102884591;-;-;7.841507;-2.344925;-3.3871155;-;-;-;-;-;-;-;-;-;-;-;-;-;-;-
1514102884612;-;-;7.849884;-3.084732;-3.0710754;-;-;-;-;-;-;-;-;-;-;-;-;-;-;-
1514102884631;-;-;9.254074;-2.4610443;-3.950943;-;-;-;-;-;-;-;-;-;-;-;-;-;-;-
1514102884651;-;-;10.262039;-1.6877136;-4.492035;-;-;-;-;-;-;-;-;-;-;-;-;-;-;-
1514102884671;-;-;11.0772705;-2.221634;-4.8535614;-;-;-;-;-;-;-;-;-;-;-;-;-;-;-
1514102884692;-;-;13.069244;-2.9781952;-4.618927;-;-;-;-;-;-;-;-;-;-;-;-;-;-;-
1514102884712;-;-;13.894043;-2.581955;-5.771744;-;-;-;-;-;-;-;-;-;-;-;-;-;-;-
1514102884732;-;-;12.511383;-2.174942;-7.6763306;-;-;-;-;-;-;-;-;-;-;-;-;-;-;-
1514102884753;-;-;10.368576;-1.4854126;-7.6882935;-;-;-;-;-;-;-;-;-;-;-;-;-;-;-
1514102884773;-;-;9.445618;-1.4147797;-7.2345886;-;-;-;-;-;-;-;-;-;-;-;-;-;-;-
1514102884793;-;-;9.629974;-1.4878082;-4.2023315;-;-;-;-;-;-;-;-;-;-;-;-;-;-;-
1514102884813;-;-;8.135986;-1.2088776;-7.3411407;-;-;-;-;-;-;-;-;-;-;-;-;-;-;-
1514102884834;-;-;6.2589264;-1.3860474;-10.254883;-;-;-;-;-;-;-;-;-;-;-;-;-;-;-
1514102884854;-;-;6.5031433;-0.32302856;-7.3878174;-;-;-;-;-;-;-;-;-;-;-;-;-;-;-
1514102884874;-;-;7.8965607;0.2803192;-5.033127;-;-;-;-;-;-;-;-;-;-;-;-;-;-;-
1514102884895;-;-;7.612854;0.29348755;-3.6277313;-;-;-;-;-;-;-;-;-;-;-;-;-;-;-
1514102884915;-;-;6.391815;0.9016113;-2.728714;-;-;-;-;-;-;-;-;-;-;-;-;-;-;-
1514102884936;-;-;5.79805;0.6322632;-2.7981415;-;-;-;-;-;-;-;-;-;-;-;-;-;-;-
1514102884956;-;-;5.5861664;0.1438446;-4.123337;-;-;-;-;-;-;-;-;-;-;-;-;-;-;-
1514102884976;-;-;5.2461853;0.033706665;-3.9916534;-;-;-;-;-;-;-;-;-;-;-;-;-;-;-
1514102884996;-;-;4.1280975;0.2635498;-3.4122467;-;-;-;-;-;-;-;-;-;-;-;-;-;-;-
1514102885017;-;-;3.6684113;0.89323425;-2.522812;-;-;-;-;-;-;-;-;-;-;-;-;-;-;-
1514102885037;-;-;4.5446777;1.4846039;-2.124176;-;-;-;-;-;-;-;-;-;-;-;-;-;-;-
1514102885057;-;-;6.1523895;1.6031036;-2.8639832;-;-;-;-;-;-;-;-;-;-;-;-;-;-;-
1514102885078;-;-;6.5713806;1.2164459;-4.639282;-;-;-;-;-;-;-;-;-;-;-;-;-;-;-
1514102885098;-;-;7.3291473;1.4558716;-4.594986;-;-;-;-;-;-;-;-;-;-;-;-;-;-;-
1514102885118;-;-;7.738556;2.7762756;-3.8982697;-;-;-;-;-;-;-;-;-;-;-;-;-;-;-
1514102885138;-;-;8.141968;3.596283;-3.3595734;-;-;-;-;-;-;-;-;-;-;-;-;-;-;-
1514102885159;-;-;8.705811;3.5591736;-3.5403442;-;-;-;-;-;-;-;-;-;-;-;-;-;-;-
1514102885179;-;-;10.362595;3.4167175;-3.3966827;-;-;-;-;-;-;-;-;-;-;-;-;-;-;-
1514102885199;-;-;11.384918;3.0408325;-3.5738678;-;-;-;-;-;-;-;-;-;-;-;-;-;-;-
1514102885220;-;-;10.79834;2.8109894;-3.6923676;-;-;-;-;-;-;-;-;-;-;-;-;-;-;-
1514102885240;-;-;8.835098;1.8329468;-6.563019;-;-;-;-;-;-;-;-;-;-;-;-;-;-;-
1514102885261;-;-;10.151901;2.4542542;-8.696259;-;-;-;-;-;-;-;-;-;-;-;-;-;-;-
1514102885280;-;-;11.534561;3.6214294;-8.092911;-;-;-;-;-;-;-;-;-;-;-;-;-;-;-
1514102885301;-;-;11.091629;4.5515747;-6.559433;-;-;-;-;-;-;-;-;-;-;-;-;-;-;-
1514102885321;-;-;8.582504;3.240738;-6.290085;-;-;-;-;-;-;-;-;-;-;-;-;-;-;-
1514102885341;-;-;6.300827;1.6210632;-5.853134;-;-;-;-;-;-;-;-;-;-;-;-;-;-;-
1514102885361;-;-;5.442505;-1.3692932;-5.939331;-;-;-;-;-;-;-;-;-;-;-;-;-;-;-
1514102885382;-;-;5.1360474;-3.3026123;-5.3635254;-;-;-;-;-;-;-;-;-;-;-;-;-;-;-
1514102885402;-;-;6.304428;-2.9901733;-3.6971588;-;-;-;-;-;-;-;-;-;-;-;-;-;-;-
1514102885423;-;-;7.3973694;-1.2747192;-2.717926;-;-;-;-;-;-;-;-;-;-;-;-;-;-;-
1514102885443;-;-;6.853897;-0.3469696;-3.496048;-;-;-;-;-;-;-;-;-;-;-;-;-;-;-
1514102885463;-;-;6.640808;-0.21528625;-4.004822;-;-;-;-;-;-;-;-;-;-;-;-;-;-;-
1514102885483;-;-;5.9500732;-0.82580566;-3.7749786;-;-;-;-;-;-;-;-;-;-;-;-;-;-;-
1514102885503;-;-;4.9301453;-1.6601868;-3.0603027;-;-;-;-;-;-;-;-;-;-;-;-;-;-;-
1514102885524;-;-;4.5506744;-2.1258545;-2.9322205;-;-;-;-;-;-;-;-;-;-;-;-;-;-;-
1514102885544;-;-;5.2785034;-1.9558716;-3.0531158;-;-;-;-;-;-;-;-;-;-;-;-;-;-;-
1514102885564;-;-;6.560608;-1.1873322;-3.511612;-;-;-;-;-;-;-;-;-;-;-;-;-;-;-
1514102885585;-;-;7.28125;-0.55166626;-4.709915;-;-;-;-;-;-;-;-;-;-;-;-;-;-;-
1514102885604;-;-;7.0490265;-0.86291504;-4.697937;-;-;-;-;-;-;-;-;-;-;-;-;-;-;-
1514102885624;-;-;7.739746;-1.3956299;-3.9617157;-;-;-;-;-;-;-;-;-;-;-;-;-;-;-
1514102885645;-;-;9.953186;-1.8170013;-3.7977142;-;-;-;-;-;-;-;-;-;-;-;-;-;-;-
1514102885665;-;-;10.943192;-2.4682312;-4.3052826;-;-;-;-;-;-;-;-;-;-;-;-;-;-;-
1514102885685;-;-;11.807495;-3.546814;-4.871521;-;-;-;-;-;-;-;-;-;-;-;-;-;-;-
1514102885705;-;-;14.308243;-3.1493835;-4.816452;-;-;-;-;-;-;-;-;-;-;-;-;-;-;-
1514102885726;-;-;14.967834;-1.5057678;-5.199524;-;-;-;-;-;-;-;-;-;-;-;-;-;-;-
1514102885746;-;-;11.690186;0.050476074;-6.98201;-;-;-;-;-;-;-;-;-;-;-;-;-;-;-
1514102885766;-;-;9.108032;0.16419983;-8.635208;-;-;-;-;-;-;-;-;-;-;-;-;-;-;-
1514102885787;-;-;7.746933;-0.52293396;-9.8502655;-;-;-;-;-;-;-;-;-;-;-;-;-;-;-
1514102885807;-;-;7.604477;-1.3441467;-4.1736145;-;-;-;-;-;-;-;-;-;-;-;-;-;-;-
1514102885827;-;-;7.4093475;-0.57681274;-3.1860046;-;-;-;-;-;-;-;-;-;-;-;-;-;-;-
1514102885847;-;-;6.9388885;-0.6127167;-9.4791565;-;-;-;-;-;-;-;-;-;-;-;-;-;-;-
1514102885868;-;-;6.814392;-0.4882202;-8.739349;-;-;-;-;-;-;-;-;-;-;-;-;-;-;-
1514102885888;-;-;7.881012;-0.100372314;-4.298111;-;-;-;-;-;-;-;-;-;-;-;-;-;-;-
1514102885908;-;-;7.1076813;-0.45111084;-2.0355835;-;-;-;-;-;-;-;-;-;-;-;-;-;-;-
1514102885929;-;-;5.71904;-1.0747986;-2.4461975;-;-;-;-;-;-;-;-;-;-;-;-;-;-;-
1514102885949;-;-;6.1212616;-2.0923462;-2.551529;-;-;-;-;-;-;-;-;-;-;-;-;-;-;-
1514102885969;-;-;5.8950195;-2.1414185;-3.3835144;-;-;-;-;-;-;-;-;-;-;-;-;-;-;-
1514102885989;-;-;5.055847;-1.0400848;-3.930603;-;-;-;-;-;-;-;-;-;-;-;-;-;-;-
1514102886010;-;-;3.6743927;1.0476532;-3.6636505;-;-;-;-;-;-;-;-;-;-;-;-;-;-;-
1514102886030;-;-;2.9669037;3.094696;-2.7358856;-;-;-;-;-;-;-;-;-;-;-;-;-;-;-
1514102886052;-;-;5.1324615;3.4693909;-3.3057098;-;-;-;-;-;-;-;-;-;-;-;-;-;-;-
1514102886072;-;-;7.007126;2.3596802;-4.4477386;-;-;-;-;-;-;-;-;-;-;-;-;-;-;-
1514102886092;-;-;7.806778;1.7240143;-5.1001587;-;-;-;-;-;-;-;-;-;-;-;-;-;-;-
1514102886112;-;-;8.34787;2.1561737;-4.1580505;-;-;-;-;-;-;-;-;-;-;-;-;-;-;-
1514102886133;-;-;8.865021;2.3094025;-3.4673157;-;-;-;-;-;-;-;-;-;-;-;-;-;-;-
1514102886153;-;-;8.859039;2.2974243;-2.9681244;-;-;-;-;-;-;-;-;-;-;-;-;-;-;-
1514102886173;-;-;9.668274;2.284256;-3.2877502;-;-;-;-;-;-;-;-;-;-;-;-;-;-;-
1514102886194;-;-;11.196976;2.4051666;-3.8779297;-;-;-;-;-;-;-;-;-;-;-;-;-;-;-
1514102886214;-;-;12.007416;3.3089752;-4.1376953;-;-;-;-;-;-;-;-;-;-;-;-;-;-;-
1514102886234;-;-;10.63913;3.869217;-4.1748047;-;-;-;-;-;-;-;-;-;-;-;-;-;-;-
1514102886255;-;-;9.062546;2.7116241;-5.9094086;-;-;-;-;-;-;-;-;-;-;-;-;-;-;-
1514102886275;-;-;10.574478;2.6457825;-8.630417;-;-;-;-;-;-;-;-;-;-;-;-;-;-;-
1514102886294;-;-;11.247253;3.2395477;-6.4121857;-;-;-;-;-;-;-;-;-;-;-;-;-;-;-
1514102886314;-;-;11.495056;3.225174;-5.32283;-;-;-;-;-;-;-;-;-;-;-;-;-;-;-
1514102886334;-;-;8.432861;2.6026917;-7.247757;-;-;-;-;-;-;-;-;-;-;-;-;-;-;-
1514102886355;-;-;4.529129;2.1094818;-7.740967;-;-;-;-;-;-;-;-;-;-;-;-;-;-;-
1514102886375;-;-;2.9824677;-0.90122986;-5.046295;-;-;-;-;-;-;-;-;-;-;-;-;-;-;-
1514102886395;-;-;3.4493408;-3.6677246;-3.420639;-;-;-;-;-;-;-;-;-;-;-;-;-;-;-
1514102886416;-;-;6.7533417;-3.399582;-3.5379486;-;-;-;-;-;-;-;-;-;-;-;-;-;-;-
1514102886436;-;-;9.527023;-0.83657837;-1.98172;-;-;-;-;-;-;-;-;-;-;-;-;-;-;-
1514102886456;-;-;8.292801;0.4658661;-3.6528625;-;-;-;-;-;-;-;-;-;-;-;-;-;-;-
1514102886477;-;-;6.6707306;0.09475708;-4.045517;-;-;-;-;-;-;-;-;-;-;-;-;-;-;-
1514102886497;-;-;4.912201;-0.69532776;-4.1664276;-;-;-;-;-;-;-;-;-;-;-;-;-;-;-
1514102886517;-;-;3.3284302;-1.680542;-4.0562897;-;-;-;-;-;-;-;-;-;-;-;-;-;-;-
1514102886538;-;-;3.794098;-2.416748;-3.5379486;-;-;-;-;-;-;-;-;-;-;-;-;-;-;-
1514102886558;-;-;6.336746;-2.574768;-2.800537;-;-;-;-;-;-;-;-;-;-;-;-;-;-;-
1514102886578;-;-;8.401749;-1.3896484;-3.259018;-;-;-;-;-;-;-;-;-;-;-;-;-;-;-
1514102886598;-;-;8.186264;-0.5612488;-3.9174347;-;-;-;-;-;-;-;-;-;-;-;-;-;-;-
1514102886619;-;-;7.379425;-1.2902832;-3.8887024;-;-;-;-;-;-;-;-;-;-;-;-;-;-;-
1514102886639;-;-;7.5996857;-2.135437;-3.0231934;-;-;-;-;-;-;-;-;-;-;-;-;-;-;-
1514102886659;-;-;9.822708;-1.8660889;-3.1668396;-;-;-;-;-;-;-;-;-;-;-;-;-;-;-
1514102886679;-;-;11.305908;-2.3197937;-3.6373138;-;-;-;-;-;-;-;-;-;-;-;-;-;-;-
1514102886700;-;-;12.099594;-3.1661377;-4.19516;-;-;-;-;-;-;-;-;-;-;-;-;-;-;-
1514102886720;-;-;14.206482;-2.966217;-4.1855774;-;-;-;-;-;-;-;-;-;-;-;-;-;-;-
1514102886740;-;-;14.481812;-1.7379913;-5.046295;-;-;-;-;-;-;-;-;-;-;-;-;-;-;-
1514102886761;-;-;11.568069;-0.16381836;-7.0681915;-;-;-;-;-;-;-;-;-;-;-;-;-;-;-
1514102886781;-;-;8.763275;-0.090789795;-8.691467;-;-;-;-;-;-;-;-;-;-;-;-;-;-;-
1514102886801;-;-;7.040634;-1.2028961;-9.238541;-;-;-;-;-;-;-;-;-;-;-;-;-;-;-
1514102886822;-;-;8.886566;-1.2388;-1.618988;-;-;-;-;-;-;-;-;-;-;-;-;-;-;-
1514102886842;-;-;9.264847;0.2527771;-1.5878754;-;-;-;-;-;-;-;-;-;-;-;-;-;-;-
1514102886862;-;-;6.4085693;-0.06324768;-9.35585;-;-;-;-;-;-;-;-;-;-;-;-;-;-;-
1514102886882;-;-;5.751358;-0.6222992;-8.279663;-;-;-;-;-;-;-;-;-;-;-;-;-;-;-
1514102886903;-;-;6.9424744;-0.3864746;-4.6608276;-;-;-;-;-;-;-;-;-;-;-;-;-;-;-
1514102886923;-;-;6.553421;-0.3768921;-2.7299042;-;-;-;-;-;-;-;-;-;-;-;-;-;-;-
1514102886943;-;-;5.6699524;0.7507782;-1.9793243;-;-;-;-;-;-;-;-;-;-;-;-;-;-;-
1514102886964;-;-;6.6228485;1.6414185;-3.7701874;-;-;-;-;-;-;-;-;-;-;-;-;-;-;-
1514102886984;-;-;6.8993835;1.4283295;-5.0510864;-;-;-;-;-;-;-;-;-;-;-;-;-;-;-
1514102887004;-;-;6.6827087;0.8800659;-5.527527;-;-;-;-;-;-;-;-;-;-;-;-;-;-;-
1514102887025;-;-;6.6072845;0.6849365;-4.6141357;-;-;-;-;-;-;-;-;-;-;-;-;-;-;-
1514102887045;-;-;6.8000183;0.8585205;-3.9473572;-;-;-;-;-;-;-;-;-;-;-;-;-;-;-
1514102887065;-;-;6.5043335;0.82858276;-3.6121674;-;-;-;-;-;-;-;-;-;-;-;-;-;-;-
1514102887086;-;-;6.4301147;0.5257263;-3.4745026;-;-;-;-;-;-;-;-;-;-;-;-;-;-;-
1514102887106;-;-;6.3211823;0.40361023;-3.911438;-;-;-;-;-;-;-;-;-;-;-;-;-;-;-
1514102887127;-;-;6.5749664;1.1529999;-3.5235748;-;-;-;-;-;-;-;-;-;-;-;-;-;-;-
1514102887147;-;-;7.135208;2.117859;-3.151291;-;-;-;-;-;-;-;-;-;-;-;-;-;-;-
1514102887167;-;-;7.5709534;2.5512085;-3.1297302;-;-;-;-;-;-;-;-;-;-;-;-;-;-;-
1514102887187;-;-;7.7098236;2.0699768;-2.8627777;-;-;-;-;-;-;-;-;-;-;-;-;-;-;-
1514102887208;-;-;7.7493286;1.5899353;-3.1943817;-;-;-;-;-;-;-;-;-;-;-;-;-;-;-
1514102887228;-;-;8.481949;2.1202545;-3.2458496;-;-;-;-;-;-;-;-;-;-;-;-;-;-;-
1514102887249;-;-;9.127182;3.0563965;-3.4996338;-;-;-;-;-;-;-;-;-;-;-;-;-;-;-
1514102887269;-;-;9.851425;3.745926;-3.6420898;-;-;-;-;-;-;-;-;-;-;-;-;-;-;-
1514102887288;-;-;10.943192;4.2510986;-3.3954926;-;-;-;-;-;-;-;-;-;-;-;-;-;-;-
1514102887308;-;-;12.637085;3.8620453;-3.3092957;-;-;-;-;-;-;-;-;-;-;-;-;-;-;-
1514102887328;-;-;13.1015625;3.0013275;-2.5048523;-;-;-;-;-;-;-;-;-;-;-;-;-;-;-
1514102887349;-;-;10.915649;2.177719;-6.360718;-;-;-;-;-;-;-;-;-;-;-;-;-;-;-
1514102887369;-;-;8.100067;3.1377869;-6.736603;-;-;-;-;-;-;-;-;-;-;-;-;-;-;-
1514102887389;-;-;7.312378;4.8364716;-1.8153229;-;-;-;-;-;-;-;-;-;-;-;-;-;-;-
1514102887410;-;-;7.6343994;5.311722;-3.705536;-;-;-;-;-;-;-;-;-;-;-;-;-;-;-
1514102887430;-;-;6.3056183;5.0878754;-7.426132;-;-;-;-;-;-;-;-;-;-;-;-;-;-;-
1514102887450;-;-;4.4417267;3.3652496;-8.088135;-;-;-;-;-;-;-;-;-;-;-;-;-;-;-
1514102887471;-;-;6.020706;-1.1166992;-6.290085;-;-;-;-;-;-;-;-;-;-;-;-;-;-;-
1514102887490;-;-;7.095703;-2.8381348;-4.3795166;-;-;-;-;-;-;-;-;-;-;-;-;-;-;-
1514102887510;-;-;8.144363;-3.8221588;-3.120163;-;-;-;-;-;-;-;-;-;-;-;-;-;-;-
1514102887530;-;-;9.3893585;-2.2683105;-4.480072;-;-;-;-;-;-;-;-;-;-;-;-;-;-;-
1514102887551;-;-;9.056564;0.8297882;-5.041504;-;-;-;-;-;-;-;-;-;-;-;-;-;-;-
1514102887571;-;-;8.236542;2.8349304;-4.3435974;-;-;-;-;-;-;-;-;-;-;-;-;-;-;-
1514102887591;-;-;6.6144714;3.2503204;-4.618927;-;-;-;-;-;-;-;-;-;-;-;-;-;-;-
1514102887612;-;-;5.0295105;1.8592834;-4.457321;-;-;-;-;-;-;-;-;-;-;-;-;-;-;-
1514102887632;-;-;4.477646;-0.5349121;-4.0586853;-;-;-;-;-;-;-;-;-;-;-;-;-;-;-
1514102887653;-;-;4.9648743;-3.1601563;-3.1464996;-;-;-;-;-;-;-;-;-;-;-;-;-;-;-
1514102887672;-;-;7.090912;-3.6880798;-4.2334595;-;-;-;-;-;-;-;-;-;-;-;-;-;-;-
1514102887693;-;-;8.638763;-2.3425293;-5.3611298;-;-;-;-;-;-;-;-;-;-;-;-;-;-;-
1514102887713;-;-;8.924881;-0.33140564;-4.720688;-;-;-;-;-;-;-;-;-;-;-;-;-;-;-
1514102887733;-;-;8.26767;0.9854126;-4.2178955;-;-;-;-;-;-;-;-;-;-;-;-;-;-;-
1514102887754;-;-;7.53743;1.2344055;-4.1772003;-;-;-;-;-;-;-;-;-;-;-;-;-;-;-
1514102887774;-;-;6.941284;0.4287567;-4.100586;-;-;-;-;-;-;-;-;-;-;-;-;-;-;-
1514102887794;-;-;6.9029694;-0.5612488;-3.4828796;-;-;-;-;-;-;-;-;-;-;-;-;-;-;-
1514102887815;-;-;6.6144714;-0.6917267;-2.3743591;-;-;-;-;-;-;-;-;-;-;-;-;-;-;-
1514102887835;-;-;6.438492;-0.92277527;-1.5184326;-;-;-;-;-;-;-;-;-;-;-;-;-;-;-
1514102887855;-;-;6.409775;-1.2603607;-1.6429291;-;-;-;-;-;-;-;-;-;-;-;-;-;-;-
1514102887875;-;-;7.046631;-1.285492;-1.7997589;-;-;-;-;-;-;-;-;-;-;-;-;-;-;-
1514102887896;-;-;8.228165;-0.9981842;-2.3121185;-;-;-;-;-;-;-;-;-;-;-;-;-;-;-
1514102887916;-;-;9.319916;-0.83299255;-3.0303802;-;-;-;-;-;-;-;-;-;-;-;-;-;-;-
1514102887936;-;-;9.609619;-0.8305969;-3.429016;-;-;-;-;-;-;-;-;-;-;-;-;-;-;-
1514102887957;-;-;9.404907;-0.92037964;-3.1309357;-;-;-;-;-;-;-;-;-;-;-;-;-;-;-
1514102887977;-;-;9.722153;-1.020935;-2.7861633;-;-;-;-;-;-;-;-;-;-;-;-;-;-;-
1514102887997;-;-;10.673843;-0.6546173;-2.4593658;-;-;-;-;-;-;-;-;-;-;-;-;-;-;-
1514102888018;-;-;10.124374;-0.2715454;-2.954956;-;-;-;-;-;-;-;-;-;-;-;-;-;-;-
1514102888038;-;-;8.875793;-0.42477417;-9.635986;-;-;-;-;-;-;-;-;-;-;-;-;-;-;-
1514102888058;-;-;10.14711;1.7754974;-9.701813;-;-;-;-;-;-;-;-;-;-;-;-;-;-;-
1514102888079;-;-;13.09198;2.1394043;-6.0075684;-;-;-;-;-;-;-;-;-;-;-;-;-;-;-
1514102888099;-;-;11.935593;2.8313293;-7.175934;-;-;-;-;-;-;-;-;-;-;-;-;-;-;-
1514102888119;-;-;8.381393;3.9554138;-6.114105;-;-;-;-;-;-;-;-;-;-;-;-;-;-;-
1514102888140;-;-;5.9859924;3.6764832;-5.1384735;-;-;-;-;-;-;-;-;-;-;-;-;-;-;-
1514102888160;-;-;5.0654297;1.5432587;-6.444504;-;-;-;-;-;-;-;-;-;-;-;-;-;-;-
1514102888180;-;-;5.7932587;-0.035720825;-6.009964;-;-;-;-;-;-;-;-;-;-;-;-;-;-;-
1514102888201;-;-;6.755722;-0.22247314;-4.7661743;-;-;-;-;-;-;-;-;-;-;-;-;-;-;-
1514102888221;-;-;7.317169;0.02293396;-3.8743286;-;-;-;-;-;-;-;-;-;-;-;-;-;-;-
1514102888241;-;-;8.479553;0.2420044;-3.8468018;-;-;-;-;-;-;-;-;-;-;-;-;-;-;-
1514102888261;-;-;9.076904;1.2032776;-3.1656494;-;-;-;-;-;-;-;-;-;-;-;-;-;-;-
1514102888281;-;-;8.763275;2.3489075;-2.8172913;-;-;-;-;-;-;-;-;-;-;-;-;-;-;-
1514102888302;-;-;7.549408;2.4566498;-2.7394867;-;-;-;-;-;-;-;-;-;-;-;-;-;-;-
1514102888322;-;-;5.95607;1.5516357;-2.3049316;-;-;-;-;-;-;-;-;-;-;-;-;-;-;-
1514102888342;-;-;5.0702057;0.60832214;-2.041565;-;-;-;-;-;-;-;-;-;-;-;-;-;-;-
1514102888362;-;-;5.1480255;0.091171265;-2.0702972;-;-;-;-;-;-;-;-;-;-;-;-;-;-;-
1514102888383;-;-;5.770523;0.3569336;-1.753067;-;-;-;-;-;-;-;-;-;-;-;-;-;-;-
1514102888405;-;-;6.5091248;0.42755127;-0.83010864;-;-;-;-;-;-;-;-;-;-;-;-;-;-;-
1514102888426;-;-;7.398575;0.15940857;-0.23634338;-;-;-;-;-;-;-;-;-;-;-;-;-;-;-
1514102888446;-;-;8.240128;0.060043335;-0.922287;-;-;-;-;-;-;-;-;-;-;-;-;-;-;-
1514102888466;-;-;9.261261;0.38206482;-1.7147675;-;-;-;-;-;-;-;-;-;-;-;-;-;-;-
1514102888486;-;-;10.805527;0.69091797;-1.990097;-;-;-;-;-;-;-;-;-;-;-;-;-;-;-
1514102888507;-;-;12.822632;0.20968628;-1.3795776;-;-;-;-;-;-;-;-;-;-;-;-;-;-;-
1514102888527;-;-;14.146637;-0.2571869;-1.6513214;-;-;-;-;-;-;-;-;-;-;-;-;-;-;-
1514102888547;-;-;12.355774;0.7759094;-1.653717;-;-;-;-;-;-;-;-;-;-;-;-;-;-;-
1514102888568;-;-;9.657501;3.1593475;-7.116089;-;-;-;-;-;-;-;-;-;-;-;-;-;-;-
1514102888587;-;-;6.568985;6.3496094;-12.37854;-;-;-;-;-;-;-;-;-;-;-;-;-;-;-
1514102888607;-;-;5.833969;6.1844177;-9.11644;-;-;-;-;-;-;-;-;-;-;-;-;-;-;-
1514102888628;-;-;9.808334;2.686493;-6.0913696;-;-;-;-;-;-;-;-;-;-;-;-;-;-;-
1514102888648;-;-;12.062485;-1.6972961;-8.335922;-;-;-;-;-;-;-;-;-;-;-;-;-;-;-
1514102888668;-;-;10.245285;-2.411972;-8.932083;-;-;-;-;-;-;-;-;-;-;-;-;-;-;-
1514102888689;-;-;10.497864;0.8441467;-4.982849;-;-;-;-;-;-;-;-;-;-;-;-;-;-;-
1514102888708;-;-;9.960373;1.1565857;-4.4154205;-;-;-;-;-;-;-;-;-;-;-;-;-;-;-
1514102888728;-;-;10.554138;0.45030212;-5.4425354;-;-;-;-;-;-;-;-;-;-;-;-;-;-;-
1514102888749;-;-;9.105637;0.119903564;-5.6843567;-;-;-;-;-;-;-;-;-;-;-;-;-;-;-
1514102888769;-;-;4.9983826;-0.12550354;-6.1356506;-;-;-;-;-;-;-;-;-;-;-;-;-;-;-
1514102888789;-;-;1.5267944;-0.7491913;-5.59935;-;-;-;-;-;-;-;-;-;-;-;-;-;-;-
1514102888809;-;-;1.9218292;-3.2750702;-3.4302063;-;-;-;-;-;-;-;-;-;-;-;-;-;-;-
1514102888830;-;-;4.438141;-5.6752625;-3.0938263;-;-;-;-;-;-;-;-;-;-;-;-;-;-;-
1514102888849;-;-;8.077332;-6.8184967;-4.0598907;-;-;-;-;-;-;-;-;-;-;-;-;-;-;-
1514102888869;-;-;10.950378;-6.3204956;-3.6025848;-;-;-;-;-;-;-;-;-;-;-;-;-;-;-
1514102888889;-;-;10.792358;-4.728363;-2.5204163;-;-;-;-;-;-;-;-;-;-;-;-;-;-;-
1514102888910;-;-;9.844254;-3.0895233;-1.7279358;-;-;-;-;-;-;-;-;-;-;-;-;-;-;-
1514102888930;-;-;8.367035;-1.8493347;-1.8500366;-;-;-;-;-;-;-;-;-;-;-;-;-;-;-
1514102888950;-;-;6.778473;-0.59954834;-1.614212;-;-;-;-;-;-;-;-;-;-;-;-;-;-;-
1514102888971;-;-;5.596939;-0.67497253;-1.74469;-;-;-;-;-;-;-;-;-;-;-;-;-;-;-
1514102888991;-;-;5.770523;-2.5867462;-2.4354248;-;-;-;-;-;-;-;-;-;-;-;-;-;-;-
1514102889011;-;-;9.178665;-3.9957275;-2.2558594;-;-;-;-;-;-;-;-;-;-;-;-;-;-;-
1514102889031;-;-;11.285553;-2.8333435;-1.1114197;-;-;-;-;-;-;-;-;-;-;-;-;-;-;-
1514102889052;-;-;11.875732;-1.2016907;-2.0164337;-;-;-;-;-;-;-;-;-;-;-;-;-;-;-
1514102889073;-;-;12.580826;-0.45350647;-2.5742798;-;-;-;-;-;-;-;-;-;-;-;-;-;-;-
1514102889093;-;-;14.29747;-0.6977234;-3.0375519;-;-;-;-;-;-;-;-;-;-;-;-;-;-;-
1514102889114;-;-;15.826157;-0.99220276;-3.2817688;-;-;-;-;-;-;-;-;-;-;-;-;-;-;-
1514102889134;-;-;14.795456;-1.7918701;-5.6687927;-;-;-;-;-;-;-;-;-;-;-;-;-;-;-
1514102889154;-;-;10.9192505;-3.9682007;-10.116013;-;-;-;-;-;-;-;-;-;-;-;-;-;-;-
1514102889175;-;-;9.063736;-6.052353;-5.908203;-;-;-;-;-;-;-;-;-;-;-;-;-;-;-
1514102889194;-;-;6.1320343;-4.316559;-2.55513;-;-;-;-;-;-;-;-;-;-;-;-;-;-;-
1514102889214;-;-;5.655594;-2.7016602;-7.7397766;-;-;-;-;-;-;-;-;-;-;-;-;-;-;-
1514102889235;-;-;5.576584;-0.7084961;-11.320297;-;-;-;-;-;-;-;-;-;-;-;-;-;-;-
1514102889255;-;-;7.008316;2.4877625;-8.511902;-;-;-;-;-;-;-;-;-;-;-;-;-;-;-
1514102889275;-;-;6.9975433;3.7195892;-5.9728546;-;-;-;-;-;-;-;-;-;-;-;-;-;-;-
1514102889296;-;-;6.857483;1.7718964;-5.594574;-;-;-;-;-;-;-;-;-;-;-;-;-;-;-
1514102889315;-;-;7.6667175;-0.502594;-5.9177856;-;-;-;-;-;-;-;-;-;-;-;-;-;-;-
1514102889335;-;-;8.368225;-1.5356903;-4.934967;-;-;-;-;-;-;-;-;-;-;-;-;-;-;-
1514102889356;-;-;7.837906;-2.250351;-4.5411224;-;-;-;-;-;-;-;-;-;-;-;-;-;-;-
1514102889376;-;-;7.2513275;-2.2635193;-3.7438507;-;-;-;-;-;-;-;-;-;-;-;-;-;-;-
1514102889396;-;-;6.873047;-1.3285828;-3.1668396;-;-;-;-;-;-;-;-;-;-;-;-;-;-;-
1514102889417;-;-;5.277313;-0.19972229;-2.9717255;-;-;-;-;-;-;-;-;-;-;-;-;-;-;-
1514102889437;-;-;4.73143;0.54248047;-2.5718842;-;-;-;-;-;-;-;-;-;-;-;-;-;-;-
1514102889457;-;-;5.1408386;0.86450195;-2.500061;-;-;-;-;-;-;-;-;-;-;-;-;-;-;-
1514102889478;-;-;5.93692;1.0452576;-3.472107;-;-;-;-;-;-;-;-;-;-;-;-;-;-;-
1514102889497;-;-;6.7688904;1.8102112;-3.7773743;-;-;-;-;-;-;-;-;-;-;-;-;-;-;-
1514102889517;-;-;7.145981;2.5200958;-3.2051544;-;-;-;-;-;-;-;-;-;-;-;-;-;-;-
1514102889538;-;-;7.016693;2.7056427;-3.4709167;-;-;-;-;-;-;-;-;-;-;-;-;-;-;-
1514102889558;-;-;7.837906;2.22081;-3.3739471;-;-;-;-;-;-;-;-;-;-;-;-;-;-;-
1514102889578;-;-;8.507095;1.7048645;-3.041153;-;-;-;-;-;-;-;-;-;-;-;-;-;-;-
1514102889599;-;-;9.430054;2.165741;-3.1297302;-;-;-;-;-;-;-;-;-;-;-;-;-;-;-
1514102889619;-;-;7.8007965;4.3887634;-2.9429932;-;-;-;-;-;-;-;-;-;-;-;-;-;-;-
1514102889639;-;-;7.506317;4.144562;-2.9214478;-;-;-;-;-;-;-;-;-;-;-;-;-;-;-
1514102889660;-;-;8.570541;3.1078644;-3.4517517;-;-;-;-;-;-;-;-;-;-;-;-;-;-;-
1514102889680;-;-;10.464355;1.9059753;-4.4345703;-;-;-;-;-;-;-;-;-;-;-;-;-;-;-
1514102889700;-;-;11.7260895;2.2100372;-4.883484;-;-;-;-;-;-;-;-;-;-;-;-;-;-;-
1514102889720;-;-;10.908478;3.8213348;-6.8982086;-;-;-;-;-;-;-;-;-;-;-;-;-;-;-
1514102889740;-;-;12.352173;3.896759;-8.274872;-;-;-;-;-;-;-;-;-;-;-;-;-;-;-
1514102889761;-;-;11.171829;4.688034;-6.3810577;-;-;-;-;-;-;-;-;-;-;-;-;-;-;-
1514102889781;-;-;10.137543;5.4996796;-6.5941467;-;-;-;-;-;-;-;-;-;-;-;-;-;-;-
1514102889801;-;-;7.980362;5.249481;-7.6799164;-;-;-;-;-;-;-;-;-;-;-;-;-;-;-
1514102889822;-;-;6.7677;2.8433075;-7.3602905;-;-;-;-;-;-;-;-;-;-;-;-;-;-;-
1514102889842;-;-;4.9540863;-0.75398254;-7.472824;-;-;-;-;-;-;-;-;-;-;-;-;-;-;-
1514102889863;-;-;5.161194;-3.8257446;-5.468872;-;-;-;-;-;-;-;-;-;-;-;-;-;-;-
1514102889883;-;-;7.26091;-2.142624;-4.1628265;-;-;-;-;-;-;-;-;-;-;-;-;-;-;-
1514102889903;-;-;7.655945;0.4874115;-3.669632;-;-;-;-;-;-;-;-;-;-;-;-;-;-;-
1514102889923;-;-;7.150772;1.8413391;-4.0514984;-;-;-;-;-;-;-;-;-;-;-;-;-;-;-
1514102889943;-;-;6.850296;2.2351837;-3.6744232;-;-;-;-;-;-;-;-;-;-;-;-;-;-;-
1514102889963;-;-;5.7765045;1.4786072;-3.5319672;-;-;-;-;-;-;-;-;-;-;-;-;-;-;-
1514102889984;-;-;3.6576385;-0.06324768;-2.772995;-;-;-;-;-;-;-;-;-;-;-;-;-;-;-
1514102890004;-;-;2.1983643;-1.7667236;-1.7913818;-;-;-;-;-;-;-;-;-;-;-;-;-;-;-
1514102890024;-;-;3.6935425;-3.4187317;-1.5040741;-;-;-;-;-;-;-;-;-;-;-;-;-;-;-
1514102890045;-;-;8.304779;-3.835312;-3.1093903;-;-;-;-;-;-;-;-;-;-;-;-;-;-;-
1514102890065;-;-;10.030991;-2.3952026;-4.172409;-;-;-;-;-;-;-;-;-;-;-;-;-;-;-
1514102890085;-;-;9.063736;-1.4375305;-4.4980164;-;-;-;-;-;-;-;-;-;-;-;-;-;-;-
1514102890106;-;-;7.51828;-1.6637726;-3.875534;-;-;-;-;-;-;-;-;-;-;-;-;-;-;-
1514102890126;-;-;7.02269;-1.570404;-3.8743286;-;-;-;-;-;-;-;-;-;-;-;-;-;-;-
1514102890147;-;-;8.495117;-0.51934814;-3.6420898;-;-;-;-;-;-;-;-;-;-;-;-;-;-;-
1514102890167;-;-;10.14592;-0.80784607;-3.2255096;-;-;-;-;-;-;-;-;-;-;-;-;-;-;-
1514102890187;-;-;10.574478;-2.5436401;-4.0167847;-;-;-;-;-;-;-;-;-;-;-;-;-;-;-
1514102890208;-;-;11.948746;-2.9171448;-4.6129456;-;-;-;-;-;-;-;-;-;-;-;-;-;-;-
1514102890228;-;-;13.609131;-2.2192383;-4.7637787;-;-;-;-;-;-;-;-;-;-;-;-;-;-;-
1514102890248;-;-;13.928757;-0.41041565;-5.4976044;-;-;-;-;-;-;-;-;-;-;-;-;-;-;-
1514102890269;-;-;11.424423;1.0165253;-7.8654633;-;-;-;-;-;-;-;-;-;-;-;-;-;-;-
1514102890289;-;-;9.582092;-0.13748169;-8.556198;-;-;-;-;-;-;-;-;-;-;-;-;-;-;-
1514102890310;-;-;7.9181213;-2.214447;-8.432892;-;-;-;-;-;-;-;-;-;-;-;-;-;-;-
1514102890329;-;-;7.9899445;-3.6449738;-4.520767;-;-;-;-;-;-;-;-;-;-;-;-;-;-;-
1514102890350;-;-;6.9400787;-3.2140198;-6.3882446;-;-;-;-;-;-;-;-;-;-;-;-;-;-;-
1514102890370;-;-;6.8239594;-3.01651;-9.467194;-;-;-;-;-;-;-;-;-;-;-;-;-;-;-
1514102890390;-;-;7.763687;-0.85214233;-5.0247498;-;-;-;-;-;-;-;-;-;-;-;-;-;-;-
1514102890410;-;-;7.3219604;0.7028961;-3.3248596;-;-;-;-;-;-;-;-;-;-;-;-;-;-;-
1514102890431;-;-;5.6460114;0.87527466;-2.345642;-;-;-;-;-;-;-;-;-;-;-;-;-;-;-
1514102890451;-;-;4.739807;0.5185394;-2.8723602;-;-;-;-;-;-;-;-;-;-;-;-;-;-;-
1514102890471;-;-;4.465683;-0.42837524;-3.7510376;-;-;-;-;-;-;-;-;-;-;-;-;-;-;-
1514102890492;-;-;5.0690155;-0.1482544;-4.246628;-;-;-;-;-;-;-;-;-;-;-;-;-;-;-
1514102890512;-;-;5.576584;0.87527466;-4.0874176;-;-;-;-;-;-;-;-;-;-;-;-;-;-;-
1514102890532;-;-;5.1755524;2.663742;-3.8934937;-;-;-;-;-;-;-;-;-;-;-;-;-;-;-
1514102890552;-;-;5.6496124;3.362854;-3.0375519;-;-;-;-;-;-;-;-;-;-;-;-;-;-;-
1514102890573;-;-;7.1052856;2.3129883;-3.0902252;-;-;-;-;-;-;-;-;-;-;-;-;-;-;-
1514102890593;-;-;7.3626556;0.57121277;-4.4740753;-;-;-;-;-;-;-;-;-;-;-;-;-;-;-
1514102890613;-;-;7.802002;-0.0021972656;-4.8451843;-;-;-;-;-;-;-;-;-;-;-;-;-;-;-
1514102890634;-;-;8.535812;0.79745483;-3.6911774;-;-;-;-;-;-;-;-;-;-;-;-;-;-;-
1514102890656;-;-;8.774048;2.7954254;-2.0499573;-;-;-;-;-;-;-;-;-;-;-;-;-;-;-
1514102890676;-;-;8.623199;3.9194946;-1.8392639;-;-;-;-;-;-;-;-;-;-;-;-;-;-;-
1514102890696;-;-;9.070923;3.927887;-2.6664581;-;-;-;-;-;-;-;-;-;-;-;-;-;-;-
1514102890716;-;-;10.792358;3.2347565;-3.3631744;-;-;-;-;-;-;-;-;-;-;-;-;-;-;-
1514102890737;-;-;11.51181;2.9019623;-4.4896393;-;-;-;-;-;-;-;-;-;-;-;-;-;-;-
1514102890757;-;-;10.302734;3.1629333;-4.1903687;-;-;-;-;-;-;-;-;-;-;-;-;-;-;-
1514102890777;-;-;9.612015;2.0041351;-8.308395;-;-;-;-;-;-;-;-;-;-;-;-;-;-;-
1514102890798;-;-;12.719681;2.4710083;-7.5147095;-;-;-;-;-;-;-;-;-;-;-;-;-;-;-
1514102890818;-;-;11.310699;4.3253174;-7.666748;-;-;-;-;-;-;-;-;-;-;-;-;-;-;-
1514102890838;-;-;10.198593;3.4191132;-7.6140747;-;-;-;-;-;-;-;-;-;-;-;-;-;-;-
1514102890858;-;-;6.0135345;3.3580627;-7.302826;-;-;-;-;-;-;-;-;-;-;-;-;-;-;-
1514102890879;-;-;3.794098;1.1027222;-5.3012695;-;-;-;-;-;-;-;-;-;-;-;-;-;-;-
1514102890899;-;-;3.363144;-2.2192383;-3.4218292;-;-;-;-;-;-;-;-;-;-;-;-;-;-;-
1514102890920;-;-;3.6935425;-4.115448;-2.3013458;-;-;-;-;-;-;-;-;-;-;-;-;-;-;-
1514102890940;-;-;6.256546;-3.3780212;-3.5175934;-;-;-;-;-;-;-;-;-;-;-;-;-;-;-
1514102890960;-;-;7.9516296;-1.6063232;-2.610199;-;-;-;-;-;-;-;-;-;-;-;-;-;-;-
1514102890980;-;-;7.3865967;0.22285461;-4.222687;-;-;-;-;-;-;-;-;-;-;-;-;-;-;-
1514102891000;-;-;6.2122498;0.6394501;-4.086212;-;-;-;-;-;-;-;-;-;-;-;-;-;-;-
1514102891020;-;-;5.0642242;0.045684814;-3.2817688;-;-;-;-;-;-;-;-;-;-;-;-;-;-;-
1514102891041;-;-;4.225052;-0.68455505;-3.5499115;-;-;-;-;-;-;-;-;-;-;-;-;-;-;-
1514102891060;-;-;4.9708557;-1.4590759;-3.1931763;-;-;-;-;-;-;-;-;-;-;-;-;-;-;-
1514102891080;-;-;7.1076813;-2.0516357;-2.7598267;-;-;-;-;-;-;-;-;-;-;-;-;-;-;-
1514102891101;-;-;9.141556;-1.700882;-3.1895905;-;-;-;-;-;-;-;-;-;-;-;-;-;-;-
1514102891120;-;-;9.386963;-1.3824615;-4.5171814;-;-;-;-;-;-;-;-;-;-;-;-;-;-;-
1514102891141;-;-;8.559753;-1.6865234;-4.8415833;-;-;-;-;-;-;-;-;-;-;-;-;-;-;-
1514102891161;-;-;8.250916;-1.5165405;-3.3128967;-;-;-;-;-;-;-;-;-;-;-;-;-;-;-
1514102891182;-;-;9.437241;-0.8701019;-2.8663788;-;-;-;-;-;-;-;-;-;-;-;-;-;-;-
1514102891202;-;-;9.894531;-0.917984;-2.8891144;-;-;-;-;-;-;-;-;-;-;-;-;-;-;-
1514102891222;-;-;10.497864;-3.570755;-4.2095184;-;-;-;-;-;-;-;-;-;-;-;-;-;-;-
1514102891242;-;-;11.129929;-4.8768005;-4.657242;-;-;-;-;-;-;-;-;-;-;-;-;-;-;-
1514102891262;-;-;11.911636;-4.2160034;-4.7913055;-;-;-;-;-;-;-;-;-;-;-;-;-;-;-
1514102891283;-;-;11.931992;-1.9798126;-6.2422028;-;-;-;-;-;-;-;-;-;-;-;-;-;-;-
1514102891303;-;-;9.92804;-0.44631958;-8.066574;-;-;-;-;-;-;-;-;-;-;-;-;-;-;-
1514102891323;-;-;10.138733;-0.8198242;-7.144806;-;-;-;-;-;-;-;-;-;-;-;-;-;-;-
1514102891344;-;-;12.225281;-2.221634;-3.0615082;-;-;-;-;-;-;-;-;-;-;-;-;-;-;-
1514102891363;-;-;9.5282135;-3.1170654;-6.7509613;-;-;-;-;-;-;-;-;-;-;-;-;-;-;-
1514102891383;-;-;7.110077;-3.3935852;-10.788788;-;-;-;-;-;-;-;-;-;-;-;-;-;-;-
1514102891403;-;-;6.6467896;-1.3082428;-9.202621;-;-;-;-;-;-;-;-;-;-;-;-;-;-;-
1514102891424;-;-;6.2541504;1.4965668;-5.327606;-;-;-;-;-;-;-;-;-;-;-;-;-;-;-
1514102891444;-;-;6.079361;2.1908875;-3.2697906;-;-;-;-;-;-;-;-;-;-;-;-;-;-;-
1514102891464;-;-;5.3862457;1.0751953;-3.8013153;-;-;-;-;-;-;-;-;-;-;-;-;-;-;-
1514102891484;-;-;5.821991;0.1510315;-2.5802612;-;-;-;-;-;-;-;-;-;-;-;-;-;-;-
1514102891505;-;-;6.35231;-1.0460815;-3.2925415;-;-;-;-;-;-;-;-;-;-;-;-;-;-;-
1514102891525;-;-;5.7789;-2.016922;-4.456131;-;-;-;-;-;-;-;-;-;-;-;-;-;-;-
1514102891545;-;-;5.236603;-1.8648987;-4.120941;-;-;-;-;-;-;-;-;-;-;-;-;-;-;-
1514102891565;-;-;3.1644287;0.16539001;-3.788147;-;-;-;-;-;-;-;-;-;-;-;-;-;-;-
1514102891586;-;-;3.3535767;2.1681366;-3.9210205;-;-;-;-;-;-;-;-;-;-;-;-;-;-;-
1514102891606;-;-;5.2785034;2.9737854;-3.7031403;-;-;-;-;-;-;-;-;-;-;-;-;-;-;-
1514102891626;-;-;7.552994;2.1837006;-4.289734;-;-;-;-;-;-;-;-;-;-;-;-;-;-;-
1514102891647;-;-;7.901352;1.5001526;-4.5854034;-;-;-;-;-;-;-;-;-;-;-;-;-;-;-
1514102891667;-;-;8.203018;1.734787;-4.186783;-;-;-;-;-;-;-;-;-;-;-;-;-;-;-
1514102891687;-;-;8.400543;2.4757996;-3.6193542;-;-;-;-;-;-;-;-;-;-;-;-;-;-;-
1514102891708;-;-;9.019455;2.6266327;-3.2362823;-;-;-;-;-;-;-;-;-;-;-;-;-;-;-
1514102891728;-;-;10.023819;2.303421;-2.7777863;-;-;-;-;-;-;-;-;-;-;-;-;-;-;-
1514102891748;-;-;10.931213;2.6194458;-3.3164825;-;-;-;-;-;-;-;-;-;-;-;-;-;-;-
1514102891769;-;-;11.94516;4.126602;-4.1269226;-;-;-;-;-;-;-;-;-;-;-;-;-;-;-
1514102891788;-;-;11.655457;5.533188;-3.93898;-;-;-;-;-;-;-;-;-;-;-;-;-;-;-
1514102891808;-;-;11.302322;4.1720886;-3.38591;-;-;-;-;-;-;-;-;-;-;-;-;-;-;-
1514102891829;-;-;10.676239;1.7491608;-10.5625305;-;-;-;-;-;-;-;-;-;-;-;-;-;-;-
1514102891849;-;-;15.959045;0.72683716;-7.7876587;-;-;-;-;-;-;-;-;-;-;-;-;-;-;-
1514102891869;-;-;9.239716;5.2542725;-6.15361;-;-;-;-;-;-;-;-;-;-;-;-;-;-;-
1514102891890;-;-;8.865021;2.9534454;-7.365082;-;-;-;-;-;-;-;-;-;-;-;-;-;-;-
1514102891910;-;-;2.4988403;4.089493;-7.292053;-;-;-;-;-;-;-;-;-;-;-;-;-;-;-
1514102891930;-;-;1.7063599;0.93273926;-5.692734;-;-;-;-;-;-;-;-;-;-;-;-;-;-;-
1514102891950;-;-;2.2115326;-3.005722;-3.432602;-;-;-;-;-;-;-;-;-;-;-;-;-;-;-
1514102891971;-;-;4.07901;-6.204376;-3.511612;-;-;-;-;-;-;-;-;-;-;-;-;-;-;-
1514102891991;-;-;10.499069;-2.977005;-5.0798187;-;-;-;-;-;-;-;-;-;-;-;-;-;-;-
1514102892011;-;-;8.835098;0.05406189;-4.0946045;-;-;-;-;-;-;-;-;-;-;-;-;-;-;-
1514102892032;-;-;6.323578;1.3995972;-3.9844666;-;-;-;-;-;-;-;-;-;-;-;-;-;-;-
1514102892052;-;-;3.5259552;1.492981;-3.7103271;-;-;-;-;-;-;-;-;-;-;-;-;-;-;-
1514102892072;-;-;2.1648407;-0.86172485;-2.5994263;-;-;-;-;-;-;-;-;-;-;-;-;-;-;-
1514102892093;-;-;3.1955566;-3.218811;-3.0243835;-;-;-;-;-;-;-;-;-;-;-;-;-;-;-
1514102892113;-;-;5.6831207;-4.324936;-3.144104;-;-;-;-;-;-;-;-;-;-;-;-;-;-;-
1514102892133;-;-;9.650314;-3.3457031;-3.1584625;-;-;-;-;-;-;-;-;-;-;-;-;-;-;-
1514102892154;-;-;12.119934;-1.5153351;-3.8623657;-;-;-;-;-;-;-;-;-;-;-;-;-;-;-
1514102892176;-;-;10.3697815;-0.2679596;-4.8068695;-;-;-;-;-;-;-;-;-;-;-;-;-;-;-
1514102892196;-;-;8.501099;-0.4547119;-4.3124695;-;-;-;-;-;-;-;-;-;-;-;-;-;-;-
1514102892216;-;-;7.363861;-0.7108917;-3.001648;-;-;-;-;-;-;-;-;-;-;-;-;-;-;-
1514102892238;-;-;8.6818695;-1.1083221;-1.8009491;-;-;-;-;-;-;-;-;-;-;-;-;-;-;-
1514102892257;-;-;8.908112;-2.5256958;-2.460556;-;-;-;-;-;-;-;-;-;-;-;-;-;-;-
1514102892277;-;-;9.87059;-3.5396423;-3.0794525;-;-;-;-;-;-;-;-;-;-;-;-;-;-;-
1514102892298;-;-;11.636307;-3.5647736;-3.7438507;-;-;-;-;-;-;-;-;-;-;-;-;-;-;-
1514102892318;-;-;13.680954;-2.4227448;-4.7075195;-;-;-;-;-;-;-;-;-;-;-;-;-;-;-
1514102892338;-;-;13.023743;-0.49061584;-7.6248474;-;-;-;-;-;-;-;-;-;-;-;-;-;-;-
1514102892359;-;-;11.759613;0.124694824;-7.5985107;-;-;-;-;-;-;-;-;-;-;-;-;-;-;-
1514102892379;-;-;11.2556305;-0.61990356;-6.212265;-;-;-;-;-;-;-;-;-;-;-;-;-;-;-
1514102892399;-;-;10.190216;-1.7212372;-7.223816;-;-;-;-;-;-;-;-;-;-;-;-;-;-;-
1514102892419;-;-;9.105637;-2.0660095;-5.367111;-;-;-;-;-;-;-;-;-;-;-;-;-;-;-
1514102892440;-;-;7.035858;-1.6350555;-7.4548645;-;-;-;-;-;-;-;-;-;-;-;-;-;-;-
1514102892460;-;-;6.43132;-1.1921234;-10.233337;-;-;-;-;-;-;-;-;-;-;-;-;-;-;-
1514102892481;-;-;7.1004944;0.122299194;-7.076584;-;-;-;-;-;-;-;-;-;-;-;-;-;-;-
1514102892501;-;-;7.6631317;1.2272186;-3.001648;-;-;-;-;-;-;-;-;-;-;-;-;-;-;-
1514102892521;-;-;5.821991;0.15701294;-3.0662842;-;-;-;-;-;-;-;-;-;-;-;-;-;-;-
1514102892541;-;-;4.73143;-0.7084961;-1.689621;-;-;-;-;-;-;-;-;-;-;-;-;-;-;-
1514102892562;-;-;4.9624786;-1.8265839;-1.2526855;-;-;-;-;-;-;-;-;-;-;-;-;-;-;-
1514102892582;-;-;5.2940674;-3.1661377;-2.8101044;-;-;-;-;-;-;-;-;-;-;-;-;-;-;-
1514102892602;-;-;5.734604;-2.5496368;-3.0519257;-;-;-;-;-;-;-;-;-;-;-;-;-;-;-
1514102892622;-;-;4.7086945;-0.12669373;-3.072281;-;-;-;-;-;-;-;-;-;-;-;-;-;-;-
1514102892643;-;-;3.968872;2.137024;-3.3823242;-;-;-;-;-;-;-;-;-;-;-;-;-;-;-
1514102892662;-;-;4.6500244;3.7926025;-3.2961273;-;-;-;-;-;-;-;-;-;-;-;-;-;-;-
1514102892683;-;-;7.8558655;3.5065002;-4.0467224;-;-;-;-;-;-;-;-;-;-;-;-;-;-;-
1514102892703;-;-;9.220566;1.8987885;-5.441345;-;-;-;-;-;-;-;-;-;-;-;-;-;-;-
1514102892723;-;-;9.638351;0.6669769;-5.9441223;-;-;-;-;-;-;-;-;-;-;-;-;-;-;-
1514102892743;-;-;9.29718;1.0237122;-5.048691;-;-;-;-;-;-;-;-;-;-;-;-;-;-;-
1514102892764;-;-;8.541809;3.0204773;-3.5475311;-;-;-;-;-;-;-;-;-;-;-;-;-;-;-
1514102892784;-;-;8.569336;3.8620453;-2.7047577;-;-;-;-;-;-;-;-;-;-;-;-;-;-;-
1514102892804;-;-;8.534622;3.3484802;-2.326477;-;-;-;-;-;-;-;-;-;-;-;-;-;-;-
1514102892825;-;-;8.787216;3.5926971;-2.254654;-;-;-;-;-;-;-;-;-;-;-;-;-;-;-
1514102892845;-;-;9.934036;4.9095;-2.4461975;-;-;-;-;-;-;-;-;-;-;-;-;-;-;-
1514102892865;-;-;11.843414;4.51326;-1.8955231;-;-;-;-;-;-;-;-;-;-;-;-;-;-;-
1514102892885;-;-;10.804321;2.1250458;-2.895111;-;-;-;-;-;-;-;-;-;-;-;-;-;-;-
1514102892906;-;-;10.446396;0.17616272;-8.532257;-;-;-;-;-;-;-;-;-;-;-;-;-;-;-
1514102892926;-;-;12.051697;0.6274719;-9.080521;-;-;-;-;-;-;-;-;-;-;-;-;-;-;-
1514102892946;-;-;8.7656555;3.896759;-5.898636;-;-;-;-;-;-;-;-;-;-;-;-;-;-;-
1514102892967;-;-;9.408508;4.722748;-5.686737;-;-;-;-;-;-;-;-;-;-;-;-;-;-;-
1514102892986;-;-;7.240555;4.640152;-7.5302734;-;-;-;-;-;-;-;-;-;-;-;-;-;-;-
1514102893006;-;-;3.7282562;3.541214;-8.157562;-;-;-;-;-;-;-;-;-;-;-;-;-;-;-
1514102893026;-;-;4.7122803;-0.838974;-7.175934;-;-;-;-;-;-;-;-;-;-;-;-;-;-;-
1514102893047;-;-;4.429764;-4.9749603;-4.086212;-;-;-;-;-;-;-;-;-;-;-;-;-;-;-
1514102893067;-;-;6.9544525;-3.988556;-5.4820404;-;-;-;-;-;-;-;-;-;-;-;-;-;-;-
1514102893087;-;-;8.577713;-0.21289063;-2.7299042;-;-;-;-;-;-;-;-;-;-;-;-;-;-;-
1514102893108;-;-;7.145981;2.284256;-3.5343628;-;-;-;-;-;-;-;-;-;-;-;-;-;-;-
1514102893127;-;-;6.6779175;3.0025177;-3.3679657;-;-;-;-;-;-;-;-;-;-;-;-;-;-;-
1514102893147;-;-;5.073807;1.8975983;-3.5618896;-;-;-;-;-;-;-;-;-;-;-;-;-;-;-
1514102893168;-;-;3.7067108;-0.44273376;-2.796936;-;-;-;-;-;-;-;-;-;-;-;-;-;-;-
1514102893187;-;-;3.2673798;-2.8129883;-1.9410095;-;-;-;-;-;-;-;-;-;-;-;-;-;-;-
1514102893207;-;-;4.96846;-4.317749;-1.8979187;-;-;-;-;-;-;-;-;-;-;-;-;-;-;-
1514102893228;-;-;7.8367157;-3.949051;-2.931015;-;-;-;-;-;-;-;-;-;-;-;-;-;-;-
1514102893247;-;-;9.025436;-2.5855408;-3.4780884;-;-;-;-;-;-;-;-;-;-;-;-;-;-;-
1514102893267;-;-;9.407303;-1.2376099;-4.1149445;-;-;-;-;-;-;-;-;-;-;-;-;-;-;-
1514102893287;-;-;8.651932;-0.8305969;-3.788147;-;-;-;-;-;-;-;-;-;-;-;-;-;-;-
1514102893308;-;-;7.9743805;-0.52893066;-2.8472137;-;-;-;-;-;-;-;-;-;-;-;-;-;-;-
1514102893328;-;-;7.810379;-0.8413696;-2.6784363;-;-;-;-;-;-;-;-;-;-;-;-;-;-;-
1514102893348;-;-;7.6583405;-2.1497955;-2.4773102;-;-;-;-;-;-;-;-;-;-;-;-;-;-;-
1514102893368;-;-;8.394562;-3.289444;-2.9022827;-;-;-;-;-;-;-;-;-;-;-;-;-;-;-
1514102893389;-;-;9.118805;-3.6665344;-2.9250336;-;-;-;-;-;-;-;-;-;-;-;-;-;-;-
1514102893408;-;-;9.3701935;-2.966217;-3.3488007;-;-;-;-;-;-;-;-;-;-;-;-;-;-;-
1514102893428;-;-;9.9077;-1.9690399;-4.0706635;-;-;-;-;-;-;-;-;-;-;-;-;-;-;-
1514102893448;-;-;10.391327;-1.9175568;-4.8379974;-;-;-;-;-;-;-;-;-;-;-;-;-;-;-
1514102893468;-;-;11.072479;-2.514923;-4.500412;-;-;-;-;-;-;-;-;-;-;-;-;-;-;-
1514102893489;-;-;11.0425415;-2.411972;-5.793289;-;-;-;-;-;-;-;-;-;-;-;-;-;-;-
1514102893509;-;-;11.015015;-2.1091003;-8.821945;-;-;-;-;-;-;-;-;-;-;-;-;-;-;-
1514102893529;-;-;13.242813;-2.1330414;-1.2371216;-;-;-;-;-;-;-;-;-;-;-;-;-;-;-
1514102893550;-;-;12.513779;-3.6330109;-5.302475;-;-;-;-;-;-;-;-;-;-;-;-;-;-;-
1514102893569;-;-;11.447174;-3.7970123;-7.7756805;-;-;-;-;-;-;-;-;-;-;-;-;-;-;-
1514102893589;-;-;9.159515;-2.3856354;-8.440079;-;-;-;-;-;-;-;-;-;-;-;-;-;-;-
1514102893609;-;-;7.1016846;-0.26316833;-7.562607;-;-;-;-;-;-;-;-;-;-;-;-;-;-;-
1514102893629;-;-;5.7046814;0.062438965;-6.9760284;-;-;-;-;-;-;-;-;-;-;-;-;-;-;-
1514102893650;-;-;6.123657;-0.90242004;-4.8619385;-;-;-;-;-;-;-;-;-;-;-;-;-;-;-
1514102893670;-;-;7.51709;-1.6182861;-4.575836;-;-;-;-;-;-;-;-;-;-;-;-;-;-;-
1514102893690;-;-;8.128799;-1.0616302;-3.8096924;-;-;-;-;-;-;-;-;-;-;-;-;-;-;-
1514102893711;-;-;6.7617188;0.12709045;-3.982071;-;-;-;-;-;-;-;-;-;-;-;-;-;-;-
1514102893731;-;-;5.376663;0.7232361;-3.6349182;-;-;-;-;-;-;-;-;-;-;-;-;-;-;-
1514102893751;-;-;5.138443;0.64782715;-3.3943024;-;-;-;-;-;-;-;-;-;-;-;-;-;-;-
1514102893772;-;-;5.4963837;0.68852234;-4.083832;-;-;-;-;-;-;-;-;-;-;-;-;-;-;-
1514102893792;-;-;6.5558167;1.3780518;-4.3639526;-;-;-;-;-;-;-;-;-;-;-;-;-;-;-
1514102893812;-;-;6.975998;1.7060547;-4.0670624;-;-;-;-;-;-;-;-;-;-;-;-;-;-;-
1514102893833;-;-;6.814392;0.98779297;-4.180786;-;-;-;-;-;-;-;-;-;-;-;-;-;-;-
1514102893853;-;-;6.967621;-0.06324768;-4.4692993;-;-;-;-;-;-;-;-;-;-;-;-;-;-;-
1514102893873;-;-;6.8826294;0.35572815;-3.78096;-;-;-;-;-;-;-;-;-;-;-;-;-;-;-
1514102893894;-;-;6.308014;1.5217133;-3.5690765;-;-;-;-;-;-;-;-;-;-;-;-;-;-;-
1514102893913;-;-;5.763336;2.035263;-3.0950165;-;-;-;-;-;-;-;-;-;-;-;-;-;-;-
1514102893933;-;-;5.0845795;1.789856;-2.6437073;-;-;-;-;-;-;-;-;-;-;-;-;-;-;-
1514102893953;-;-;5.1803436;1.3493195;-2.4438019;-;-;-;-;-;-;-;-;-;-;-;-;-;-;-
1514102893974;-;-;6.0183105;1.5121307;-2.108612;-;-;-;-;-;-;-;-;-;-;-;-;-;-;-
1514102893994;-;-;6.888611;2.026886;-1.9386139;-;-;-;-;-;-;-;-;-;-;-;-;-;-;-
1514102894014;-;-;7.866638;2.2591248;-1.8033447;-;-;-;-;-;-;-;-;-;-;-;-;-;-;-
1514102894035;-;-;8.777634;2.078354;-1.9888916;-;-;-;-;-;-;-;-;-;-;-;-;-;-;-
1514102894055;-;-;9.418076;2.0939178;-2.0679016;-;-;-;-;-;-;-;-;-;-;-;-;-;-;-
1514102894075;-;-;9.2756195;2.0220947;-2.029602;-;-;-;-;-;-;-;-;-;-;-;-;-;-;-
1514102894096;-;-;9.025436;1.6390228;-1.4657593;-;-;-;-;-;-;-;-;-;-;-;-;-;-;-
1514102894116;-;-;9.207397;0.90519714;-0.90312195;-;-;-;-;-;-;-;-;-;-;-;-;-;-;-
1514102894136;-;-;10.136337;0.7950592;-0.7343445;-;-;-;-;-;-;-;-;-;-;-;-;-;-;-
1514102894157;-;-;10.220139;1.4283295;-1.0491791;-;-;-;-;-;-;-;-;-;-;-;-;-;-;-
1514102894177;-;-;9.993881;3.790207;-6.215866;-;-;-;-;-;-;-;-;-;-;-;-;-;-;-
1514102894197;-;-;9.705383;6.484894;-9.843079;-;-;-;-;-;-;-;-;-;-;-;-;-;-;-
1514102894218;-;-;11.527374;6.817688;-7.417755;-;-;-;-;-;-;-;-;-;-;-;-;-;-;-
1514102894238;-;-;10.654694;3.8500671;-7.1472015;-;-;-;-;-;-;-;-;-;-;-;-;-;-;-
1514102894258;-;-;7.2992096;-1.254364;-7.8068085;-;-;-;-;-;-;-;-;-;-;-;-;-;-;-
1514102894279;-;-;5.2545624;-2.8417206;-7.8941956;-;-;-;-;-;-;-;-;-;-;-;-;-;-;-
1514102894299;-;-;4.307663;-1.0412903;-5.7442017;-;-;-;-;-;-;-;-;-;-;-;-;-;-;-
1514102894319;-;-;4.9864197;1.121872;-4.7434235;-;-;-;-;-;-;-;-;-;-;-;-;-;-;-
1514102894339;-;-;7.9935303;1.8580933;-5.824417;-;-;-;-;-;-;-;-;-;-;-;-;-;-;-
1514102894360;-;-;10.767212;1.1134949;-6.9257355;-;-;-;-;-;-;-;-;-;-;-;-;-;-;-
1514102894380;-;-;9.736511;0.18814087;-6.0758057;-;-;-;-;-;-;-;-;-;-;-;-;-;-;-
1514102894400;-;-;7.708618;-0.8126373;-4.820038;-;-;-;-;-;-;-;-;-;-;-;-;-;-;-
1514102894420;-;-;6.0243073;-1.8206024;-4.404648;-;-;-;-;-;-;-;-;-;-;-;-;-;-;-
1514102894441;-;-;4.5279236;-2.269516;-4.5099945;-;-;-;-;-;-;-;-;-;-;-;-;-;-;-
1514102894460;-;-;4.6739655;-2.0229034;-4.8056793;-;-;-;-;-;-;-;-;-;-;-;-;-;-;-
1514102894480;-;-;6.7760773;-1.3788757;-4.3244476;-;-;-;-;-;-;-;-;-;-;-;-;-;-;-
1514102894500;-;-;9.41449;-1.3812561;-4.7554016;-;-;-;-;-;-;-;-;-;-;-;-;-;-;-
1514102894521;-;-;9.718552;-2.080368;-4.864334;-;-;-;-;-;-;-;-;-;-;-;-;-;-;-
1514102894541;-;-;8.082123;-2.4837952;-3.9772797;-;-;-;-;-;-;-;-;-;-;-;-;-;-;-
1514102894561;-;-;6.517502;-2.2072601;-3.5570984;-;-;-;-;-;-;-;-;-;-;-;-;-;-;-
1514102894582;-;-;6.869461;-1.427948;-3.1273346;-;-;-;-;-;-;-;-;-;-;-;-;-;-;-
1514102894602;-;-;8.475967;-0.6498413;-2.4342194;-;-;-;-;-;-;-;-;-;-;-;-;-;-;-
1514102894622;-;-;9.353439;-0.4834442;-2.2953491;-;-;-;-;-;-;-;-;-;-;-;-;-;-;-
1514102894642;-;-;9.694611;-1.1250763;-1.9338379;-;-;-;-;-;-;-;-;-;-;-;-;-;-;-
1514102894663;-;-;10.337448;-2.2862701;-3.001648;-;-;-;-;-;-;-;-;-;-;-;-;-;-;-
1514102894683;-;-;11.107193;-2.0743866;-3.4278107;-;-;-;-;-;-;-;-;-;-;-;-;-;-;-
1514102894703;-;-;10.70137;-0.14465332;-3.010025;-;-;-;-;-;-;-;-;-;-;-;-;-;-;-
1514102894724;-;-;9.4492035;1.6916962;-2.4653473;-;-;-;-;-;-;-;-;-;-;-;-;-;-;-
1514102894744;-;-;7.778061;1.6342316;-4.729065;-;-;-;-;-;-;-;-;-;-;-;-;-;-;-
1514102894764;-;-;6.668335;1.0632172;-10.434448;-;-;-;-;-;-;-;-;-;-;-;-;-;-;-
1514102894785;-;-;6.269699;1.8724518;-10.568527;-;-;-;-;-;-;-;-;-;-;-;-;-;-;-
1514102894805;-;-;7.963608;2.1825104;-4.381897;-;-;-;-;-;-;-;-;-;-;-;-;-;-;-
1514102894825;-;-;9.127182;0.58078;-6.6683655;-;-;-;-;-;-;-;-;-;-;-;-;-;-;-
1514102894846;-;-;10.633133;-1.3836517;-7.517105;-;-;-;-;-;-;-;-;-;-;-;-;-;-;-
1514102894866;-;-;13.4379425;-2.1857147;-4.8822937;-;-;-;-;-;-;-;-;-;-;-;-;-;-;-
1514102894886;-;-;13.045303;-0.028533936;-5.0630493;-;-;-;-;-;-;-;-;-;-;-;-;-;-;-
1514102894906;-;-;11.365768;2.9031677;-5.1073456;-;-;-;-;-;-;-;-;-;-;-;-;-;-;-
1514102894927;-;-;8.0533905;3.7710571;-4.958908;-;-;-;-;-;-;-;-;-;-;-;-;-;-;-
1514102894947;-;-;5.1564026;2.5572052;-2.9992523;-;-;-;-;-;-;-;-;-;-;-;-;-;-;-
1514102894968;-;-;3.5642548;1.2858734;-1.8859406;-;-;-;-;-;-;-;-;-;-;-;-;-;-;-
1514102894988;-;-;3.256607;0.9423065;-1.6944122;-;-;-;-;-;-;-;-;-;-;-;-;-;-;-
1514102895008;-;-;4.63208;0.5233307;-1.48732;-;-;-;-;-;-;-;-;-;-;-;-;-;-;-
1514102895029;-;-;7.1603546;-0.25239563;-1.7578583;-;-;-;-;-;-;-;-;-;-;-;-;-;-;-
1514102895049;-;-;8.368225;0.05885315;-2.2534637;-;-;-;-;-;-;-;-;-;-;-;-;-;-;-
1514102895069;-;-;8.424484;0.83695984;-2.1074066;-;-;-;-;-;-;-;-;-;-;-;-;-;-;-
1514102895090;-;-;7.8546753;1.8712616;-1.4358368;-;-;-;-;-;-;-;-;-;-;-;-;-;-;-
1514102895110;-;-;7.7996063;2.7451477;-1.3149261;-;-;-;-;-;-;-;-;-;-;-;-;-;-;-
1514102895130;-;-;7.7301636;4.0380096;-1.7494812;-;-;-;-;-;-;-;-;-;-;-;-;-;-;-
1514102895151;-;-;7.9576263;5.0136566;-2.6245575;-;-;-;-;-;-;-;-;-;-;-;-;-;-;-
1514102895171;-;-;9.066132;4.7957764;-3.135727;-;-;-;-;-;-;-;-;-;-;-;-;-;-;-
1514102895191;-;-;10.179443;4.755081;-2.6137848;-;-;-;-;-;-;-;-;-;-;-;-;-;-;-
1514102895212;-;-;11.387314;5.2398987;-1.9697418;-;-;-;-;-;-;-;-;-;-;-;-;-;-;-
1514102895232;-;-;13.05368;5.8157043;-1.3855591;-;-;-;-;-;-;-;-;-;-;-;-;-;-;-
1514102895252;-;-;13.917984;3.573532;-8.414932;-;-;-;-;-;-;-;-;-;-;-;-;-;-;-
1514102895272;-;-;16.05481;4.249893;-6.1512146;-;-;-;-;-;-;-;-;-;-;-;-;-;-;-
1514102895294;-;-;9.708984;3.1868744;-6.1751556;-;-;-;-;-;-;-;-;-;-;-;-;-;-;-
1514102895315;-;-;5.853119;3.8823853;-5.7837067;-;-;-;-;-;-;-;-;-;-;-;-;-;-;-
1514102895335;-;-;3.536728;3.6693115;-7.1927032;-;-;-;-;-;-;-;-;-;-;-;-;-;-;-
1514102895355;-;-;4.9552917;-0.5923767;-7.8870087;-;-;-;-;-;-;-;-;-;-;-;-;-;-;-
1514102895375;-;-;6.5354614;-3.2930298;-7.6320343;-;-;-;-;-;-;-;-;-;-;-;-;-;-;-
1514102895396;-;-;8.8051605;-2.2563477;-4.186783;-;-;-;-;-;-;-;-;-;-;-;-;-;-;-
1514102895416;-;-;10.327881;-0.4834442;-4.651245;-;-;-;-;-;-;-;-;-;-;-;-;-;-;-
1514102895436;-;-;9.592865;0.55444336;-5.057068;-;-;-;-;-;-;-;-;-;-;-;-;-;-;-
1514102895457;-;-;8.157532;0.9794159;-4.1496735;-;-;-;-;-;-;-;-;-;-;-;-;-;-;-
1514102895477;-;-;6.443283;0.675354;-3.0950165;-;-;-;-;-;-;-;-;-;-;-;-;-;-;-
1514102895497;-;-;5.0259247;-0.621109;-2.9262238;-;-;-;-;-;-;-;-;-;-;-;-;-;-;-
1514102895518;-;-;4.0838013;-2.4407043;-2.3683777;-;-;-;-;-;-;-;-;-;-;-;-;-;-;-
1514102895538;-;-;5.023529;-3.3397217;-1.8165131;-;-;-;-;-;-;-;-;-;-;-;-;-;-;-
1514102895558;-;-;7.34111;-3.0021362;-2.0319977;-;-;-;-;-;-;-;-;-;-;-;-;-;-;-
1514102895578;-;-;10.253662;-1.3561249;-2.3611908;-;-;-;-;-;-;-;-;-;-;-;-;-;-;-
1514102895599;-;-;10.637924;-0.16859436;-3.7905426;-;-;-;-;-;-;-;-;-;-;-;-;-;-;-
1514102895619;-;-;8.570541;0.112716675;-4.179596;-;-;-;-;-;-;-;-;-;-;-;-;-;-;-
1514102895639;-;-;5.881851;-0.34457397;-3.6277313;-;-;-;-;-;-;-;-;-;-;-;-;-;-;-
1514102895660;-;-;5.371887;-0.6905365;-2.8687744;-;-;-;-;-;-;-;-;-;-;-;-;-;-;-
1514102895679;-;-;7.4165344;-1.5536499;-2.7658234;-;-;-;-;-;-;-;-;-;-;-;-;-;-;-
1514102895699;-;-;9.850235;-2.5915375;-3.3919067;-;-;-;-;-;-;-;-;-;-;-;-;-;-;-
1514102895719;-;-;11.533356;-3.6401978;-3.7905426;-;-;-;-;-;-;-;-;-;-;-;-;-;-;-
1514102895740;-;-;11.515396;-4.1262207;-5.1348724;-;-;-;-;-;-;-;-;-;-;-;-;-;-;-
1514102895759;-;-;11.058105;-2.945877;-4.6285095;-;-;-;-;-;-;-;-;-;-;-;-;-;-;-
1514102895779;-;-;10.549347;-1.4626617;-5.6005554;-;-;-;-;-;-;-;-;-;-;-;-;-;-;-
1514102895799;-;-;10.610397;-0.012969971;-7.7158356;-;-;-;-;-;-;-;-;-;-;-;-;-;-;-
1514102895820;-;-;9.995087;0.45988464;-9.913712;-;-;-;-;-;-;-;-;-;-;-;-;-;-;-
1514102895840;-;-;10.166275;-0.045303345;-7.5925293;-;-;-;-;-;-;-;-;-;-;-;-;-;-;-
1514102895860;-;-;8.886566;-1.8469391;-4.0874176;-;-;-;-;-;-;-;-;-;-;-;-;-;-;-
1514102895881;-;-;6.297241;-2.479004;-6.756958;-;-;-;-;-;-;-;-;-;-;-;-;-;-;-
1514102895901;-;-;5.759735;-2.9518585;-8.430496;-;-;-;-;-;-;-;-;-;-;-;-;-;-;-
1514102895921;-;-;7.478775;-2.0037537;-4.907425;-;-;-;-;-;-;-;-;-;-;-;-;-;-;-
1514102895942;-;-;8.418503;-1.2052917;-2.8340454;-;-;-;-;-;-;-;-;-;-;-;-;-;-;-
1514102895962;-;-;7.2261963;-0.704895;-3.4637299;-;-;-;-;-;-;-;-;-;-;-;-;-;-;-
1514102895982;-;-;6.0266876;-0.026138306;-2.646103;-;-;-;-;-;-;-;-;-;-;-;-;-;-;-
1514102896003;-;-;5.2845;-0.023742676;-2.9046783;-;-;-;-;-;-;-;-;-;-;-;-;-;-;-
1514102896023;-;-;5.2832947;-0.5384979;-3.8372192;-;-;-;-;-;-;-;-;-;-;-;-;-;-;-
1514102896043;-;-;5.6424255;0.18933105;-3.8192596;-;-;-;-;-;-;-;-;-;-;-;-;-;-;-
1514102896064;-;-;5.3970184;1.9131622;-3.8108826;-;-;-;-;-;-;-;-;-;-;-;-;-;-;-
1514102896084;-;-;5.1959076;2.394394;-3.9006653;-;-;-;-;-;-;-;-;-;-;-;-;-;-;-
1514102896104;-;-;6.873047;2.3094025;-3.4517517;-;-;-;-;-;-;-;-;-;-;-;-;-;-;-
1514102896124;-;-;8.553772;1.7862701;-4.286133;-;-;-;-;-;-;-;-;-;-;-;-;-;-;-
1514102896145;-;-;8.559753;1.4833984;-5.813629;-;-;-;-;-;-;-;-;-;-;-;-;-;-;-
1514102896165;-;-;8.326324;1.2272186;-5.350357;-;-;-;-;-;-;-;-;-;-;-;-;-;-;-
1514102896185;-;-;7.8355103;1.4127655;-3.927002;-;-;-;-;-;-;-;-;-;-;-;-;-;-;-
1514102896206;-;-;7.9743805;2.0316772;-2.658081;-;-;-;-;-;-;-;-;-;-;-;-;-;-;-
1514102896226;-;-;7.664322;3.118637;-2.3611908;-;-;-;-;-;-;-;-;-;-;-;-;-;-;-
1514102896246;-;-;7.841507;3.2539063;-3.219513;-;-;-;-;-;-;-;-;-;-;-;-;-;-;-
1514102896266;-;-;8.715378;3.1306152;-3.863556;-;-;-;-;-;-;-;-;-;-;-;-;-;-;-
1514102896287;-;-;10.299149;2.8684387;-4.0874176;-;-;-;-;-;-;-;-;-;-;-;-;-;-;-
1514102896308;-;-;11.651871;2.449463;-3.9928436;-;-;-;-;-;-;-;-;-;-;-;-;-;-;-
1514102896328;-;-;10.823471;2.0891266;-4.338806;-;-;-;-;-;-;-;-;-;-;-;-;-;-;-
1514102896348;-;-;9.260071;1.611496;-7.725403;-;-;-;-;-;-;-;-;-;-;-;-;-;-;-
1514102896369;-;-;9.213379;1.4235382;-8.8004;-;-;-;-;-;-;-;-;-;-;-;-;-;-;-
1514102896388;-;-;9.06134;1.3301697;-6.9209595;-;-;-;-;-;-;-;-;-;-;-;-;-;-;-
1514102896408;-;-;10.089661;2.7774658;-5.5502777;-;-;-;-;-;-;-;-;-;-;-;-;-;-;-
1514102896428;-;-;6.090149;3.8907623;-8.095306;-;-;-;-;-;-;-;-;-;-;-;-;-;-;-
1514102896448;-;-;2.987259;2.8313293;-8.273682;-;-;-;-;-;-;-;-;-;-;-;-;-;-;-
1514102896469;-;-;3.5894012;-0.55766296;-6.679138;-;-;-;-;-;-;-;-;-;-;-;-;-;-;-
1514102896489;-;-;5.2832947;-2.3461304;-3.9964294;-;-;-;-;-;-;-;-;-;-;-;-;-;-;-
1514102896509;-;-;8.242523;-1.6230774;-4.587799;-;-;-;-;-;-;-;-;-;-;-;-;-;-;-
1514102896529;-;-;9.774811;0.21447754;-3.9401703;-;-;-;-;-;-;-;-;-;-;-;-;-;-;-
1514102896550;-;-;8.355057;0.54248047;-3.1871948;-;-;-;-;-;-;-;-;-;-;-;-;-;-;-
1514102896570;-;-;6.8526917;-0.2571869;-3.3081055;-;-;-;-;-;-;-;-;-;-;-;-;-;-;-
1514102896590;-;-;5.569397;-1.0939636;-3.1656494;-;-;-;-;-;-;-;-;-;-;-;-;-;-;-
1514102896611;-;-;4.2226715;-2.0971222;-3.7582092;-;-;-;-;-;-;-;-;-;-;-;-;-;-;-
1514102896631;-;-;4.3938446;-2.4442902;-3.0207977;-;-;-;-;-;-;-;-;-;-;-;-;-;-;-
1514102896651;-;-;6.5426483;-2.1773376;-2.55513;-;-;-;-;-;-;-;-;-;-;-;-;-;-;-
1514102896671;-;-;8.924881;-1.2878876;-3.4996338;-;-;-;-;-;-;-;-;-;-;-;-;-;-;-
1514102896692;-;-;9.67067;-0.61750793;-4.930176;-;-;-;-;-;-;-;-;-;-;-;-;-;-;-
1514102896712;-;-;8.814743;-0.9371338;-4.9217987;-;-;-;-;-;-;-;-;-;-;-;-;-;-;-
1514102896732;-;-;7.4811707;-1.6877136;-4.129318;-;-;-;-;-;-;-;-;-;-;-;-;-;-;-
1514102896753;-;-;7.6068726;-1.9594574;-3.9377747;-;-;-;-;-;-;-;-;-;-;-;-;-;-;-
1514102896773;-;-;8.311966;-2.1055145;-3.970108;-;-;-;-;-;-;-;-;-;-;-;-;-;-;-
1514102896793;-;-;8.740524;-3.024887;-4.3112793;-;-;-;-;-;-;-;-;-;-;-;-;-;-;-
1514102896814;-;-;9.209793;-3.8640442;-4.627304;-;-;-;-;-;-;-;-;-;-;-;-;-;-;-
1514102896834;-;-;10.62236;-3.5755463;-5.582596;-;-;-;-;-;-;-;-;-;-;-;-;-;-;-
1514102896856;-;-;12.297104;-2.2000732;-5.9441223;-;-;-;-;-;-;-;-;-;-;-;-;-;-;-
1514102896875;-;-;11.781158;-1.1717682;-6.7832947;-;-;-;-;-;-;-;-;-;-;-;-;-;-;-
1514102896895;-;-;10.924042;-0.9539032;-8.966797;-;-;-;-;-;-;-;-;-;-;-;-;-;-;-
1514102896915;-;-;11.09642;-0.6905365;-10.685837;-;-;-;-;-;-;-;-;-;-;-;-;-;-;-
1514102896935;-;-;13.123108;-3.6952515;-0.79299927;-;-;-;-;-;-;-;-;-;-;-;-;-;-;-
1514102896956;-;-;9.783203;-3.7491302;-5.539505;-;-;-;-;-;-;-;-;-;-;-;-;-;-;-
1514102896976;-;-;6.9556427;-3.03685;-9.126007;-;-;-;-;-;-;-;-;-;-;-;-;-;-;-
1514102896996;-;-;5.414978;-0.70610046;-7.9025726;-;-;-;-;-;-;-;-;-;-;-;-;-;-;-
1514102897017;-;-;3.751007;1.1996918;-4.832016;-;-;-;-;-;-;-;-;-;-;-;-;-;-;-
1514102897037;-;-;3.5870056;0.6645813;-3.0399475;-;-;-;-;-;-;-;-;-;-;-;-;-;-;-
1514102897057;-;-;4.833191;-1.0221252;-2.9130554;-;-;-;-;-;-;-;-;-;-;-;-;-;-;-
1514102897078;-;-;7.3219604;-0.6127167;-2.3193054;-;-;-;-;-;-;-;-;-;-;-;-;-;-;-
1514102897098;-;-;7.643982;-0.20570374;-4.508789;-;-;-;-;-;-;-;-;-;-;-;-;-;-;-
1514102897118;-;-;7.12204;-0.22486877;-4.942154;-;-;-;-;-;-;-;-;-;-;-;-;-;-;-
1514102897138;-;-;6.102112;0.19651794;-4.0251617;-;-;-;-;-;-;-;-;-;-;-;-;-;-;-
1514102897159;-;-;4.470459;1.0524445;-3.784546;-;-;-;-;-;-;-;-;-;-;-;-;-;-;-
1514102897179;-;-;4.209503;1.7096558;-3.669632;-;-;-;-;-;-;-;-;-;-;-;-;-;-;-
1514102897199;-;-;5.660385;1.5683899;-3.4529572;-;-;-;-;-;-;-;-;-;-;-;-;-;-;-
1514102897220;-;-;7.5446167;0.7807007;-4.35318;-;-;-;-;-;-;-;-;-;-;-;-;-;-;-
1514102897239;-;-;7.8127747;0.43832397;-4.811661;-;-;-;-;-;-;-;-;-;-;-;-;-;-;-
1514102897259;-;-;7.7062225;0.82499695;-4.235855;-;-;-;-;-;-;-;-;-;-;-;-;-;-;-
1514102897279;-;-;7.0370483;2.4362946;-3.4062653;-;-;-;-;-;-;-;-;-;-;-;-;-;-;-
1514102897300;-;-;7.3423157;3.4645996;-3.017212;-;-;-;-;-;-;-;-;-;-;-;-;-;-;-
1514102897320;-;-;8.025848;3.3113708;-3.0507202;-;-;-;-;-;-;-;-;-;-;-;-;-;-;-
1514102897340;-;-;8.90213;2.727188;-3.7474365;-;-;-;-;-;-;-;-;-;-;-;-;-;-;-
1514102897361;-;-;9.699402;2.6817017;-3.978485;-;-;-;-;-;-;-;-;-;-;-;-;-;-;-
1514102897381;-;-;10.868973;2.2938385;-3.5128021;-;-;-;-;-;-;-;-;-;-;-;-;-;-;-
1514102897401;-;-;10.943192;2.2136383;-3.9724884;-;-;-;-;-;-;-;-;-;-;-;-;-;-;-
1514102897422;-;-;10.210556;2.782257;-6.346344;-;-;-;-;-;-;-;-;-;-;-;-;-;-;-
1514102897442;-;-;10.563705;3.2814484;-8.14798;-;-;-;-;-;-;-;-;-;-;-;-;-;-;-
