TimeStamp[ms];Prox[Cm];Lux[lux];AccX[m/s^2];AccY[m/s^2];AccZ[m/s^2];GyroX[rad/s];GyroY[rad/s];GyroZ[rad/s];MagnX[uT];MagnY[uT];MagnZ[uT];OrienYaw[degrees];OrienPitch[degrees];OrienRoll[degrees];Press[Pa];Temp[C°];Batt[%];Lat;Lng;Speed[m/s]
1514102922851;-;-;8.261688;-0.23803711;2.2943268;-;-;-;-;-;-;-;-;-;-;-;-;-;-;-
1514102922852;-;-;8.261688;-0.23803711;2.2943268;-;-;-;-;-;-;-;-;-;-;-;-;-;-;-
1514102922866;-;-;7.995926;-0.31225586;2.7204895;-;-;-;-;-;-;-;-;-;-;-;-;-;-;-
1514102922887;-;-;8.112045;0.105529785;2.0477295;-;-;-;-;-;-;-;-;-;-;-;-;-;-;-
1514102922907;-;-;8.466385;-0.12071228;2.714508;-;-;-;-;-;-;-;-;-;-;-;-;-;-;-
1514102922928;-;-;8.7608795;-0.3397827;1.8873138;-;-;-;-;-;-;-;-;-;-;-;-;-;-;-
1514102922948;-;-;9.392944;0.3282013;1.4443817;-;-;-;-;-;-;-;-;-;-;-;-;-;-;-
1514102922968;-;-;9.07811;0.1438446;2.1506805;-;-;-;-;-;-;-;-;-;-;-;-;-;-;-
1514102922989;-;-;9.446808;0.1510315;1.0349731;-;-;-;-;-;-;-;-;-;-;-;-;-;-;-
1514102923009;-;-;9.594055;0.42037964;-1.9972839;-;-;-;-;-;-;-;-;-;-;-;-;-;-;-
1514102923029;-;-;9.612015;0.33776855;-2.5012512;-;-;-;-;-;-;-;-;-;-;-;-;-;-;-
1514102923049;-;-;10.083664;1.0656128;-1.1760712;-;-;-;-;-;-;-;-;-;-;-;-;-;-;-
1514102923070;-;-;10.104019;2.8193665;-0.6601105;-;-;-;-;-;-;-;-;-;-;-;-;-;-;-
1514102923090;-;-;13.428375;2.7451477;-0.4733734;-;-;-;-;-;-;-;-;-;-;-;-;-;-;-
1514102923111;-;-;9.263657;0.076812744;-2.507248;-;-;-;-;-;-;-;-;-;-;-;-;-;-;-
1514102923131;-;-;7.506317;-1.4770355;-1.1712799;-;-;-;-;-;-;-;-;-;-;-;-;-;-;-
1514102923152;-;-;7.10289;-2.3676758;-2.8065186;-;-;-;-;-;-;-;-;-;-;-;-;-;-;-
1514102923172;-;-;8.290421;-2.5017548;-4.112549;-;-;-;-;-;-;-;-;-;-;-;-;-;-;-
1514102923192;-;-;10.135147;-0.44992065;-4.788925;-;-;-;-;-;-;-;-;-;-;-;-;-;-;-
1514102923212;-;-;9.858612;2.5512085;-5.001999;-;-;-;-;-;-;-;-;-;-;-;-;-;-;-
1514102923233;-;-;7.4644165;3.2239838;-4.1137543;-;-;-;-;-;-;-;-;-;-;-;-;-;-;-
1514102923253;-;-;7.399765;2.370453;-4.1137543;-;-;-;-;-;-;-;-;-;-;-;-;-;-;-
1514102923273;-;-;9.081696;-0.25239563;-3.199173;-;-;-;-;-;-;-;-;-;-;-;-;-;-;-
1514102923294;-;-;8.338303;-5.6321716;-3.583435;-;-;-;-;-;-;-;-;-;-;-;-;-;-;-
1514102923314;-;-;9.737701;-1.9822083;-3.9641113;-;-;-;-;-;-;-;-;-;-;-;-;-;-;-
1514102923334;-;-;8.313156;-0.29788208;-3.136917;-;-;-;-;-;-;-;-;-;-;-;-;-;-;-
1514102923354;-;-;8.266464;0.33537292;-3.235077;-;-;-;-;-;-;-;-;-;-;-;-;-;-;-
1514102923375;-;-;9.977127;-0.21887207;-3.3272552;-;-;-;-;-;-;-;-;-;-;-;-;-;-;-
1514102923395;-;-;7.8163605;-0.7264557;-2.507248;-;-;-;-;-;-;-;-;-;-;-;-;-;-;-
1514102923415;-;-;6.4289246;0.12828064;-2.1253662;-;-;-;-;-;-;-;-;-;-;-;-;-;-;-
1514102923436;-;-;6.6060944;0.5245209;-2.0906525;-;-;-;-;-;-;-;-;-;-;-;-;-;-;-
1514102923456;-;-;7.4488525;0.5376892;-2.79216;-;-;-;-;-;-;-;-;-;-;-;-;-;-;-
1514102923476;-;-;8.16951;-0.59716797;-2.7873688;-;-;-;-;-;-;-;-;-;-;-;-;-;-;-
1514102923497;-;-;9.33429;-0.68574524;-2.2977448;-;-;-;-;-;-;-;-;-;-;-;-;-;-;-
1514102923517;-;-;9.588074;-1.0640259;-2.012848;-;-;-;-;-;-;-;-;-;-;-;-;-;-;-
1514102923538;-;-;8.915298;-1.0257263;-1.3197174;-;-;-;-;-;-;-;-;-;-;-;-;-;-;-
1514102923558;-;-;9.274429;-1.1825409;-2.2642365;-;-;-;-;-;-;-;-;-;-;-;-;-;-;-
1514102923578;-;-;7.411743;-1.6685638;-2.728714;-;-;-;-;-;-;-;-;-;-;-;-;-;-;-
1514102923598;-;-;7.7289734;-2.0911407;-1.069519;-;-;-;-;-;-;-;-;-;-;-;-;-;-;-
1514102923619;-;-;7.2740784;-1.4985809;-1.1940308;-;-;-;-;-;-;-;-;-;-;-;-;-;-;-
1514102923639;-;-;9.925659;-1.2998657;-1.3089447;-;-;-;-;-;-;-;-;-;-;-;-;-;-;-
1514102923659;-;-;9.822708;-0.82341003;-0.8169403;-;-;-;-;-;-;-;-;-;-;-;-;-;-;-
1514102923680;-;-;11.076065;0.2192688;-2.0738983;-;-;-;-;-;-;-;-;-;-;-;-;-;-;-
1514102923700;-;-;11.509415;1.0775757;-5.963272;-;-;-;-;-;-;-;-;-;-;-;-;-;-;-
1514102923721;-;-;11.996643;1.4822083;-9.376205;-;-;-;-;-;-;-;-;-;-;-;-;-;-;-
1514102923741;-;-;9.616806;-0.6222992;-8.722595;-;-;-;-;-;-;-;-;-;-;-;-;-;-;-
1514102923761;-;-;11.223312;-1.2819061;-6.9245453;-;-;-;-;-;-;-;-;-;-;-;-;-;-;-
1514102923781;-;-;12.717285;0.14144897;-5.5287323;-;-;-;-;-;-;-;-;-;-;-;-;-;-;-
1514102923801;-;-;7.995926;2.4566498;-5.302475;-;-;-;-;-;-;-;-;-;-;-;-;-;-;-
1514102923822;-;-;5.079788;2.323761;-5.1456604;-;-;-;-;-;-;-;-;-;-;-;-;-;-;-
1514102923842;-;-;4.6177063;0.93751526;-4.365143;-;-;-;-;-;-;-;-;-;-;-;-;-;-;-
1514102923863;-;-;5.667572;1.0033569;-2.7909546;-;-;-;-;-;-;-;-;-;-;-;-;-;-;-
1514102923883;-;-;8.197037;0.82618713;-2.4617462;-;-;-;-;-;-;-;-;-;-;-;-;-;-;-
1514102923903;-;-;11.040161;-0.090789795;-2.6604767;-;-;-;-;-;-;-;-;-;-;-;-;-;-;-
1514102923923;-;-;13.291901;0.12828064;-3.440979;-;-;-;-;-;-;-;-;-;-;-;-;-;-;-
1514102923944;-;-;12.902847;0.64782715;-4.129318;-;-;-;-;-;-;-;-;-;-;-;-;-;-;-
1514102923964;-;-;9.321121;0.8956299;-2.7299042;-;-;-;-;-;-;-;-;-;-;-;-;-;-;-
1514102923984;-;-;6.5426483;0.9423065;-1.4681549;-;-;-;-;-;-;-;-;-;-;-;-;-;-;-
1514102924005;-;-;4.9672546;1.6893005;-1.0599518;-;-;-;-;-;-;-;-;-;-;-;-;-;-;-
1514102924024;-;-;4.714676;2.3429108;-0.9294586;-;-;-;-;-;-;-;-;-;-;-;-;-;-;-
1514102924044;-;-;5.4053955;2.679306;-0.8001709;-;-;-;-;-;-;-;-;-;-;-;-;-;-;-
1514102924065;-;-;6.443283;2.4003754;-1.1569061;-;-;-;-;-;-;-;-;-;-;-;-;-;-;-
1514102924084;-;-;7.099304;1.8066101;-1.313736;-;-;-;-;-;-;-;-;-;-;-;-;-;-;-
1514102924104;-;-;7.3818207;1.4522705;-1.4202728;-;-;-;-;-;-;-;-;-;-;-;-;-;-;-
1514102924125;-;-;7.166336;0.8908386;-1.2095795;-;-;-;-;-;-;-;-;-;-;-;-;-;-;-
1514102924145;-;-;6.880234;0.7507782;-0.45062256;-;-;-;-;-;-;-;-;-;-;-;-;-;-;-
1514102924165;-;-;7.442871;1.5707855;-0.10107422;-;-;-;-;-;-;-;-;-;-;-;-;-;-;-
1514102924186;-;-;8.382584;2.6362152;-0.44703674;-;-;-;-;-;-;-;-;-;-;-;-;-;-;-
1514102924206;-;-;8.930862;3.2610931;-1.4358368;-;-;-;-;-;-;-;-;-;-;-;-;-;-;-
1514102924226;-;-;9.856216;3.1126556;-1.6058197;-;-;-;-;-;-;-;-;-;-;-;-;-;-;-
1514102924247;-;-;13.260773;2.2519379;-0.6397705;-;-;-;-;-;-;-;-;-;-;-;-;-;-;-
1514102924267;-;-;14.945099;2.1884918;-2.9441833;-;-;-;-;-;-;-;-;-;-;-;-;-;-;-
1514102924287;-;-;16.190079;3.03125;-3.6337128;-;-;-;-;-;-;-;-;-;-;-;-;-;-;-
1514102924307;-;-;15.4969635;4.585083;-6.3798676;-;-;-;-;-;-;-;-;-;-;-;-;-;-;-
1514102924328;-;-;16.130234;5.8324738;-2.172058;-;-;-;-;-;-;-;-;-;-;-;-;-;-;-
1514102924348;-;-;8.088104;7.133713;-7.651184;-;-;-;-;-;-;-;-;-;-;-;-;-;-;-
1514102924368;-;-;5.8243866;5.485306;-6.4672546;-;-;-;-;-;-;-;-;-;-;-;-;-;-;-
1514102924389;-;-;3.8048706;2.5093079;-6.8335724;-;-;-;-;-;-;-;-;-;-;-;-;-;-;-
1514102924409;-;-;4.7134705;-0.9562988;-6.852722;-;-;-;-;-;-;-;-;-;-;-;-;-;-;-
1514102924429;-;-;8.004303;-4.357254;-7.465637;-;-;-;-;-;-;-;-;-;-;-;-;-;-;-
1514102924450;-;-;11.507019;-3.2164154;-6.7677307;-;-;-;-;-;-;-;-;-;-;-;-;-;-;-
1514102924470;-;-;9.975937;0.24919128;-4.598572;-;-;-;-;-;-;-;-;-;-;-;-;-;-;-
1514102924490;-;-;7.4129333;0.79745483;-4.725464;-;-;-;-;-;-;-;-;-;-;-;-;-;-;-
1514102924510;-;-;6.039856;1.2355957;-3.6636505;-;-;-;-;-;-;-;-;-;-;-;-;-;-;-
1514102924531;-;-;5.1097107;0.9590759;-2.8172913;-;-;-;-;-;-;-;-;-;-;-;-;-;-;-
1514102924551;-;-;4.348358;-0.23564148;-2.6078033;-;-;-;-;-;-;-;-;-;-;-;-;-;-;-
1514102924571;-;-;4.220276;-1.4985809;-2.2929688;-;-;-;-;-;-;-;-;-;-;-;-;-;-;-
1514102924592;-;-;4.778122;-2.5137177;-2.0702972;-;-;-;-;-;-;-;-;-;-;-;-;-;-;-
1514102924612;-;-;6.0889435;-2.9781952;-2.3564148;-;-;-;-;-;-;-;-;-;-;-;-;-;-;-
1514102924632;-;-;7.750519;-2.6322327;-2.8448334;-;-;-;-;-;-;-;-;-;-;-;-;-;-;-
1514102924653;-;-;8.193451;-2.0265045;-2.9812927;-;-;-;-;-;-;-;-;-;-;-;-;-;-;-
1514102924673;-;-;7.6260223;-1.4554901;-2.8771515;-;-;-;-;-;-;-;-;-;-;-;-;-;-;-
1514102924693;-;-;7.36026;-1.091568;-2.586258;-;-;-;-;-;-;-;-;-;-;-;-;-;-;-
1514102924713;-;-;8.759674;-0.8820648;-2.199585;-;-;-;-;-;-;-;-;-;-;-;-;-;-;-
1514102924734;-;-;10.021423;-1.5165405;-2.7143402;-;-;-;-;-;-;-;-;-;-;-;-;-;-;-
1514102924754;-;-;10.360199;-2.3616943;-2.682022;-;-;-;-;-;-;-;-;-;-;-;-;-;-;-
1514102924774;-;-;10.432022;-2.8465118;-2.8879242;-;-;-;-;-;-;-;-;-;-;-;-;-;-;-
1514102924794;-;-;11.110779;-3.0236816;-3.2925415;-;-;-;-;-;-;-;-;-;-;-;-;-;-;-
1514102924815;-;-;11.936783;-2.5173187;-4.3555603;-;-;-;-;-;-;-;-;-;-;-;-;-;-;-
1514102924835;-;-;11.9631195;-2.1629639;-5.2138824;-;-;-;-;-;-;-;-;-;-;-;-;-;-;-
1514102924855;-;-;11.869751;-1.6063232;-7.491974;-;-;-;-;-;-;-;-;-;-;-;-;-;-;-
1514102924876;-;-;10.698975;-0.8138428;-9.728149;-;-;-;-;-;-;-;-;-;-;-;-;-;-;-
1514102924896;-;-;9.732925;-0.973053;-10.970749;-;-;-;-;-;-;-;-;-;-;-;-;-;-;-
1514102924916;-;-;10.969528;-1.3285828;-5.338394;-;-;-;-;-;-;-;-;-;-;-;-;-;-;-
1514102924937;-;-;9.576096;-0.74679565;-5.9644775;-;-;-;-;-;-;-;-;-;-;-;-;-;-;-
1514102924957;-;-;6.237381;-0.79707336;-9.864624;-;-;-;-;-;-;-;-;-;-;-;-;-;-;-
1514102924977;-;-;6.2541504;-0.30986023;-5.3240204;-;-;-;-;-;-;-;-;-;-;-;-;-;-;-
1514102924997;-;-;6.8526917;-0.720459;-2.4497833;-;-;-;-;-;-;-;-;-;-;-;-;-;-;-
1514102925018;-;-;5.6783447;-1.4171753;-0.8767853;-;-;-;-;-;-;-;-;-;-;-;-;-;-;-
1514102925038;-;-;4.711075;-2.0133362;-0.62060547;-;-;-;-;-;-;-;-;-;-;-;-;-;-;-
1514102925058;-;-;5.289276;-2.942276;-1.7398987;-;-;-;-;-;-;-;-;-;-;-;-;-;-;-
1514102925079;-;-;6.11409;-2.9039764;-2.7694092;-;-;-;-;-;-;-;-;-;-;-;-;-;-;-
1514102925099;-;-;6.038666;-1.210083;-3.0698853;-;-;-;-;-;-;-;-;-;-;-;-;-;-;-
1514102925120;-;-;5.003174;1.461853;-2.895111;-;-;-;-;-;-;-;-;-;-;-;-;-;-;-
1514102925140;-;-;4.2897034;5.023224;-2.8125;-;-;-;-;-;-;-;-;-;-;-;-;-;-;-
1514102925159;-;-;4.7912903;5.869583;-2.7742004;-;-;-;-;-;-;-;-;-;-;-;-;-;-;-
1514102925179;-;-;6.755722;3.651352;-4.0706635;-;-;-;-;-;-;-;-;-;-;-;-;-;-;-
1514102925199;-;-;8.418503;0.94351196;-5.326416;-;-;-;-;-;-;-;-;-;-;-;-;-;-;-
1514102925219;-;-;9.266052;-0.30387878;-4.365143;-;-;-;-;-;-;-;-;-;-;-;-;-;-;-
1514102925240;-;-;8.975159;0.43115234;-2.9178467;-;-;-;-;-;-;-;-;-;-;-;-;-;-;-
1514102925260;-;-;8.386185;1.8497162;-2.0164337;-;-;-;-;-;-;-;-;-;-;-;-;-;-;-
1514102925280;-;-;9.31752;2.7020416;-2.2582397;-;-;-;-;-;-;-;-;-;-;-;-;-;-;-
1514102925301;-;-;10.294357;2.984558;-3.3057098;-;-;-;-;-;-;-;-;-;-;-;-;-;-;-
1514102925322;-;-;10.981491;3.371231;-3.745041;-;-;-;-;-;-;-;-;-;-;-;-;-;-;-
1514102925342;-;-;10.538574;3.3053894;-2.6329346;-;-;-;-;-;-;-;-;-;-;-;-;-;-;-
1514102925362;-;-;9.776016;2.9390717;-6.7988434;-;-;-;-;-;-;-;-;-;-;-;-;-;-;-
1514102925382;-;-;11.882919;4.2427216;-9.725769;-;-;-;-;-;-;-;-;-;-;-;-;-;-;-
1514102925402;-;-;11.841019;5.442215;-7.369873;-;-;-;-;-;-;-;-;-;-;-;-;-;-;-
1514102925423;-;-;11.936783;4.113434;-7.4009857;-;-;-;-;-;-;-;-;-;-;-;-;-;-;-
1514102925443;-;-;7.889389;1.9490662;-7.8463135;-;-;-;-;-;-;-;-;-;-;-;-;-;-;-
1514102925463;-;-;4.4764557;-0.67855835;-6.504364;-;-;-;-;-;-;-;-;-;-;-;-;-;-;-
1514102925483;-;-;4.0095825;-3.5923004;-4.357956;-;-;-;-;-;-;-;-;-;-;-;-;-;-;-
1514102925504;-;-;3.3056793;-6.8520203;-4.3711243;-;-;-;-;-;-;-;-;-;-;-;-;-;-;-
1514102925524;-;-;7.008316;-3.407959;-4.5171814;-;-;-;-;-;-;-;-;-;-;-;-;-;-;-
1514102925544;-;-;8.10965;0.07800293;-4.0072174;-;-;-;-;-;-;-;-;-;-;-;-;-;-;-
1514102925566;-;-;7.53743;2.3728485;-3.733078;-;-;-;-;-;-;-;-;-;-;-;-;-;-;-
1514102925586;-;-;6.6132813;3.299408;-4.0072174;-;-;-;-;-;-;-;-;-;-;-;-;-;-;-
1514102925607;-;-;5.7789;1.868866;-4.076645;-;-;-;-;-;-;-;-;-;-;-;-;-;-;-
1514102925627;-;-;4.821213;-1.7918701;-3.1979675;-;-;-;-;-;-;-;-;-;-;-;-;-;-;-
1514102925647;-;-;3.8359985;-3.9669952;-2.9645386;-;-;-;-;-;-;-;-;-;-;-;-;-;-;-
1514102925667;-;-;4.695526;-4.7594757;-3.0303802;-;-;-;-;-;-;-;-;-;-;-;-;-;-;-
1514102925687;-;-;6.936493;-3.5599823;-3.7677917;-;-;-;-;-;-;-;-;-;-;-;-;-;-;-
1514102925708;-;-;8.738129;-1.4351349;-4.222687;-;-;-;-;-;-;-;-;-;-;-;-;-;-;-
1514102925728;-;-;9.205002;-0.5504761;-4.9158173;-;-;-;-;-;-;-;-;-;-;-;-;-;-;-
1514102925748;-;-;8.326324;-1.5632172;-4.4154205;-;-;-;-;-;-;-;-;-;-;-;-;-;-;-
1514102925769;-;-;7.4608154;-2.0372772;-3.5475311;-;-;-;-;-;-;-;-;-;-;-;-;-;-;-
1514102925789;-;-;8.4843445;-1.6134949;-3.0626984;-;-;-;-;-;-;-;-;-;-;-;-;-;-;-
1514102925809;-;-;9.258865;-2.0504456;-3.389511;-;-;-;-;-;-;-;-;-;-;-;-;-;-;-
1514102925829;-;-;9.799957;-2.6094818;-4.298111;-;-;-;-;-;-;-;-;-;-;-;-;-;-;-
1514102925850;-;-;11.8853;-2.3652802;-5.2294464;-;-;-;-;-;-;-;-;-;-;-;-;-;-;-
1514102925870;-;-;12.583221;-1.5835724;-6.1667786;-;-;-;-;-;-;-;-;-;-;-;-;-;-;-
1514102925890;-;-;10.946777;-1.1585999;-8.4747925;-;-;-;-;-;-;-;-;-;-;-;-;-;-;-
1514102925911;-;-;8.575317;-3.1817017;-10.800751;-;-;-;-;-;-;-;-;-;-;-;-;-;-;-
1514102925931;-;-;9.911285;-5.404724;-7.9408875;-;-;-;-;-;-;-;-;-;-;-;-;-;-;-
1514102925951;-;-;16.348099;-3.305008;-2.9669342;-;-;-;-;-;-;-;-;-;-;-;-;-;-;-
1514102925972;-;-;10.608002;-0.8533478;-10.074112;-;-;-;-;-;-;-;-;-;-;-;-;-;-;-
1514102925992;-;-;5.5622253;-0.28112793;-12.3965;-;-;-;-;-;-;-;-;-;-;-;-;-;-;-
1514102926012;-;-;4.7374115;1.5911407;-6.100937;-;-;-;-;-;-;-;-;-;-;-;-;-;-;-
1514102926032;-;-;4.3782806;1.9119568;-2.2893677;-;-;-;-;-;-;-;-;-;-;-;-;-;-;-
1514102926053;-;-;3.0459137;0.793869;-0.97735596;-;-;-;-;-;-;-;-;-;-;-;-;-;-;-
1514102926073;-;-;2.8986664;0.3030548;-2.1708527;-;-;-;-;-;-;-;-;-;-;-;-;-;-;-
1514102926093;-;-;3.758194;-0.76834106;-3.254242;-;-;-;-;-;-;-;-;-;-;-;-;-;-;-
1514102926114;-;-;6.5953217;-1.3465424;-4.0119934;-;-;-;-;-;-;-;-;-;-;-;-;-;-;-
1514102926134;-;-;7.6655273;-1.0448761;-4.105377;-;-;-;-;-;-;-;-;-;-;-;-;-;-;-
1514102926154;-;-;6.5785522;-0.105148315;-4.666809;-;-;-;-;-;-;-;-;-;-;-;-;-;-;-
1514102926175;-;-;6.236191;1.2535553;-4.441757;-;-;-;-;-;-;-;-;-;-;-;-;-;-;-
1514102926195;-;-;6.774887;1.9813995;-3.6887817;-;-;-;-;-;-;-;-;-;-;-;-;-;-;-
1514102926216;-;-;7.458435;1.5947266;-4.6835785;-;-;-;-;-;-;-;-;-;-;-;-;-;-;-
1514102926236;-;-;6.5354614;1.5755768;-5.2126923;-;-;-;-;-;-;-;-;-;-;-;-;-;-;-
1514102926256;-;-;7.0334625;2.2112427;-3.6528625;-;-;-;-;-;-;-;-;-;-;-;-;-;-;-
1514102926276;-;-;8.80397;2.5488129;-3.20755;-;-;-;-;-;-;-;-;-;-;-;-;-;-;-
1514102926296;-;-;9.832275;2.5021362;-3.401474;-;-;-;-;-;-;-;-;-;-;-;-;-;-;-
1514102926317;-;-;10.537369;3.1772919;-4.1101685;-;-;-;-;-;-;-;-;-;-;-;-;-;-;-
1514102926337;-;-;12.289932;3.2335663;-3.6576538;-;-;-;-;-;-;-;-;-;-;-;-;-;-;-
1514102926358;-;-;11.917633;2.6134644;-2.642517;-;-;-;-;-;-;-;-;-;-;-;-;-;-;-
1514102926378;-;-;10.95755;1.5049438;-2.7071533;-;-;-;-;-;-;-;-;-;-;-;-;-;-;-
1514102926398;-;-;9.445618;1.4462891;-7.7170258;-;-;-;-;-;-;-;-;-;-;-;-;-;-;-
1514102926418;-;-;7.451248;2.7571106;-11.900894;-;-;-;-;-;-;-;-;-;-;-;-;-;-;-
1514102926439;-;-;8.526245;4.6976166;-7.4249268;-;-;-;-;-;-;-;-;-;-;-;-;-;-;-
1514102926459;-;-;9.88855;1.224823;-4.9457397;-;-;-;-;-;-;-;-;-;-;-;-;-;-;-
1514102926479;-;-;6.2816772;-1.0185394;-7.646393;-;-;-;-;-;-;-;-;-;-;-;-;-;-;-
1514102926499;-;-;3.1237183;-1.7104645;-6.065033;-;-;-;-;-;-;-;-;-;-;-;-;-;-;-
1514102926520;-;-;3.5941925;-3.404358;-2.852005;-;-;-;-;-;-;-;-;-;-;-;-;-;-;-
1514102926539;-;-;4.826004;-4.0986786;-1.7279358;-;-;-;-;-;-;-;-;-;-;-;-;-;-;-
1514102926559;-;-;7.3470917;-1.8708801;-3.4768982;-;-;-;-;-;-;-;-;-;-;-;-;-;-;-
1514102926580;-;-;7.659546;-0.66778564;-4.152054;-;-;-;-;-;-;-;-;-;-;-;-;-;-;-
1514102926599;-;-;7.1819;-0.30625916;-4.2765656;-;-;-;-;-;-;-;-;-;-;-;-;-;-;-
1514102926619;-;-;6.2589264;-0.15184021;-4.101776;-;-;-;-;-;-;-;-;-;-;-;-;-;-;-
1514102926640;-;-;5.260544;-0.76475525;-4.1460724;-;-;-;-;-;-;-;-;-;-;-;-;-;-;-
1514102926660;-;-;4.4453278;-1.6625824;-4.179596;-;-;-;-;-;-;-;-;-;-;-;-;-;-;-
1514102926681;-;-;5.2521667;-1.8469391;-3.4026794;-;-;-;-;-;-;-;-;-;-;-;-;-;-;-
1514102926701;-;-;7.4524384;-1.5476532;-3.9449615;-;-;-;-;-;-;-;-;-;-;-;-;-;-;-
1514102926721;-;-;8.319138;-1.4075928;-4.4297943;-;-;-;-;-;-;-;-;-;-;-;-;-;-;-
1514102926742;-;-;9.117615;-2.1713562;-5.0438995;-;-;-;-;-;-;-;-;-;-;-;-;-;-;-
1514102926761;-;-;9.655106;-2.5879364;-4.954117;-;-;-;-;-;-;-;-;-;-;-;-;-;-;-
1514102926781;-;-;9.513855;-3.107483;-5.839966;-;-;-;-;-;-;-;-;-;-;-;-;-;-;-
1514102926802;-;-;11.408859;-3.5288544;-5.1636047;-;-;-;-;-;-;-;-;-;-;-;-;-;-;-
1514102926822;-;-;13.357742;-3.4845734;-5.388672;-;-;-;-;-;-;-;-;-;-;-;-;-;-;-
1514102926842;-;-;14.461472;-2.7184296;-5.760971;-;-;-;-;-;-;-;-;-;-;-;-;-;-;-
1514102926863;-;-;12.408447;-0.581604;-7.9181366;-;-;-;-;-;-;-;-;-;-;-;-;-;-;-
1514102926883;-;-;8.7417145;-0.58758545;-8.95961;-;-;-;-;-;-;-;-;-;-;-;-;-;-;-
1514102926903;-;-;6.62883;-1.8098297;-7.8582916;-;-;-;-;-;-;-;-;-;-;-;-;-;-;-
1514102926923;-;-;5.912964;-3.225998;-6.09375;-;-;-;-;-;-;-;-;-;-;-;-;-;-;-
1514102926943;-;-;7.8881836;-2.2587433;-2.6963806;-;-;-;-;-;-;-;-;-;-;-;-;-;-;-
1514102926964;-;-;6.53067;-1.1669769;-5.741806;-;-;-;-;-;-;-;-;-;-;-;-;-;-;-
1514102926983;-;-;5.818405;-0.8198242;-7.8666687;-;-;-;-;-;-;-;-;-;-;-;-;-;-;-
1514102927003;-;-;6.1715393;-0.1817627;-5.69751;-;-;-;-;-;-;-;-;-;-;-;-;-;-;-
1514102927024;-;-;5.9776154;0.68014526;-3.0986176;-;-;-;-;-;-;-;-;-;-;-;-;-;-;-
1514102927044;-;-;5.7717133;1.4654388;-2.728714;-;-;-;-;-;-;-;-;-;-;-;-;-;-;-
1514102927064;-;-;5.2437897;1.5971222;-3.4601288;-;-;-;-;-;-;-;-;-;-;-;-;-;-;-
1514102927085;-;-;4.7613525;1.7551422;-4.1736145;-;-;-;-;-;-;-;-;-;-;-;-;-;-;-
1514102927105;-;-;4.5027924;1.6282501;-4.9613037;-;-;-;-;-;-;-;-;-;-;-;-;-;-;-
1514102927126;-;-;4.9229736;1.0440674;-4.514786;-;-;-;-;-;-;-;-;-;-;-;-;-;-;-
1514102927145;-;-;5.4353333;0.714859;-4.4537354;-;-;-;-;-;-;-;-;-;-;-;-;-;-;-
1514102927165;-;-;6.6551666;0.7986603;-4.5662537;-;-;-;-;-;-;-;-;-;-;-;-;-;-;-
1514102927185;-;-;7.763687;1.2080688;-5.108551;-;-;-;-;-;-;-;-;-;-;-;-;-;-;-
1514102927206;-;-;8.875793;2.0316772;-5.5730133;-;-;-;-;-;-;-;-;-;-;-;-;-;-;-
1514102927226;-;-;9.011063;3.0839233;-5.048691;-;-;-;-;-;-;-;-;-;-;-;-;-;-;-
1514102927246;-;-;8.183868;2.4626312;-3.7474365;-;-;-;-;-;-;-;-;-;-;-;-;-;-;-
1514102927266;-;-;7.766083;1.753952;-3.033966;-;-;-;-;-;-;-;-;-;-;-;-;-;-;-
1514102927287;-;-;8.373016;2.4051666;-4.112549;-;-;-;-;-;-;-;-;-;-;-;-;-;-;-
1514102927306;-;-;9.837067;3.0132904;-5.330002;-;-;-;-;-;-;-;-;-;-;-;-;-;-;-
1514102927326;-;-;10.683411;3.3807983;-5.5622406;-;-;-;-;-;-;-;-;-;-;-;-;-;-;-
1514102927346;-;-;10.288376;2.2627106;-5.2330475;-;-;-;-;-;-;-;-;-;-;-;-;-;-;-
1514102927367;-;-;9.202606;0.1905365;-5.977646;-;-;-;-;-;-;-;-;-;-;-;-;-;-;-
1514102927387;-;-;8.195847;-0.5097656;-6.9484863;-;-;-;-;-;-;-;-;-;-;-;-;-;-;-
1514102927407;-;-;6.402588;-0.18894958;-8.945251;-;-;-;-;-;-;-;-;-;-;-;-;-;-;-
1514102927427;-;-;8.035431;1.7623291;-7.833145;-;-;-;-;-;-;-;-;-;-;-;-;-;-;-
1514102927448;-;-;9.103241;4.1672974;-6.670761;-;-;-;-;-;-;-;-;-;-;-;-;-;-;-
1514102927468;-;-;6.928116;3.7255707;-8.689072;-;-;-;-;-;-;-;-;-;-;-;-;-;-;-
1514102927488;-;-;4.5315094;2.936676;-8.477188;-;-;-;-;-;-;-;-;-;-;-;-;-;-;-
1514102927508;-;-;4.9074097;-0.21170044;-5.1109314;-;-;-;-;-;-;-;-;-;-;-;-;-;-;-
1514102927529;-;-;6.60849;-3.9322815;-1.8847504;-;-;-;-;-;-;-;-;-;-;-;-;-;-;-
1514102927549;-;-;7.4249115;-4.2962036;-2.1110077;-;-;-;-;-;-;-;-;-;-;-;-;-;-;-
1514102927569;-;-;7.411743;-2.0791779;-3.0387573;-;-;-;-;-;-;-;-;-;-;-;-;-;-;-
1514102927590;-;-;6.888611;-0.5277252;-4.4106293;-;-;-;-;-;-;-;-;-;-;-;-;-;-;-
1514102927609;-;-;6.60968;0.4802246;-4.061081;-;-;-;-;-;-;-;-;-;-;-;-;-;-;-
1514102927629;-;-;5.584961;0.7986603;-3.7079315;-;-;-;-;-;-;-;-;-;-;-;-;-;-;-
1514102927650;-;-;4.529129;-0.026138306;-3.646881;-;-;-;-;-;-;-;-;-;-;-;-;-;-;-
1514102927670;-;-;5.1324615;-0.96946716;-3.100998;-;-;-;-;-;-;-;-;-;-;-;-;-;-;-
1514102927690;-;-;7.3183746;-1.6673737;-2.9753113;-;-;-;-;-;-;-;-;-;-;-;-;-;-;-
1514102927710;-;-;8.641159;-1.6362457;-3.6420898;-;-;-;-;-;-;-;-;-;-;-;-;-;-;-
1514102927731;-;-;8.599258;-1.8612976;-4.1269226;-;-;-;-;-;-;-;-;-;-;-;-;-;-;-
1514102927751;-;-;8.303574;-2.5065308;-3.7462463;-;-;-;-;-;-;-;-;-;-;-;-;-;-;-
1514102927771;-;-;8.491531;-2.9626312;-3.5535126;-;-;-;-;-;-;-;-;-;-;-;-;-;-;-
1514102927792;-;-;9.960373;-2.4335175;-2.8172913;-;-;-;-;-;-;-;-;-;-;-;-;-;-;-
1514102927812;-;-;10.252457;-3.0943146;-3.3368378;-;-;-;-;-;-;-;-;-;-;-;-;-;-;-
1514102927832;-;-;10.983887;-4.388382;-3.8898926;-;-;-;-;-;-;-;-;-;-;-;-;-;-;-
1514102927853;-;-;12.267181;-4.4649963;-4.385498;-;-;-;-;-;-;-;-;-;-;-;-;-;-;-
1514102927872;-;-;13.205704;-2.5220947;-4.456131;-;-;-;-;-;-;-;-;-;-;-;-;-;-;-
1514102927892;-;-;11.679413;0.07321167;-5.2809296;-;-;-;-;-;-;-;-;-;-;-;-;-;-;-
1514102927913;-;-;9.151123;0.0756073;-7.6871033;-;-;-;-;-;-;-;-;-;-;-;-;-;-;-
1514102927933;-;-;7.384201;-1.7679291;-11.290375;-;-;-;-;-;-;-;-;-;-;-;-;-;-;-
1514102927953;-;-;8.638763;-3.0488281;-7.0586243;-;-;-;-;-;-;-;-;-;-;-;-;-;-;-
1514102927974;-;-;12.513779;-1.4902039;-0.43984985;-;-;-;-;-;-;-;-;-;-;-;-;-;-;-
1514102927994;-;-;9.459976;0.016952515;-8.944061;-;-;-;-;-;-;-;-;-;-;-;-;-;-;-
1514102928014;-;-;5.6017303;0.59994507;-8.97757;-;-;-;-;-;-;-;-;-;-;-;-;-;-;-
1514102928034;-;-;6.2505493;1.8126068;-3.1572723;-;-;-;-;-;-;-;-;-;-;-;-;-;-;-
1514102928055;-;-;5.72023;1.4008026;-1.5531616;-;-;-;-;-;-;-;-;-;-;-;-;-;-;-
1514102928075;-;-;4.1436615;0.35333252;-1.3628082;-;-;-;-;-;-;-;-;-;-;-;-;-;-;-
1514102928095;-;-;4.549469;-0.93115234;-2.594635;-;-;-;-;-;-;-;-;-;-;-;-;-;-;-
1514102928116;-;-;5.8076324;-2.1162872;-3.8264465;-;-;-;-;-;-;-;-;-;-;-;-;-;-;-
1514102928136;-;-;6.0326843;-1.3716888;-4.84758;-;-;-;-;-;-;-;-;-;-;-;-;-;-;-
1514102928156;-;-;4.8247986;0.78549194;-4.1819916;-;-;-;-;-;-;-;-;-;-;-;-;-;-;-
1514102928176;-;-;4.328003;2.4039764;-4.793701;-;-;-;-;-;-;-;-;-;-;-;-;-;-;-
1514102928197;-;-;4.7493896;3.2826385;-4.579422;-;-;-;-;-;-;-;-;-;-;-;-;-;-;-
1514102928217;-;-;6.6982727;2.4997406;-4.302902;-;-;-;-;-;-;-;-;-;-;-;-;-;-;-
1514102928237;-;-;8.114441;1.200882;-5.097763;-;-;-;-;-;-;-;-;-;-;-;-;-;-;-
1514102928258;-;-;8.334702;0.86569214;-5.7226563;-;-;-;-;-;-;-;-;-;-;-;-;-;-;-
1514102928278;-;-;7.714615;1.1829224;-4.7829285;-;-;-;-;-;-;-;-;-;-;-;-;-;-;-
1514102928298;-;-;7.2477417;1.7659149;-3.709137;-;-;-;-;-;-;-;-;-;-;-;-;-;-;-
1514102928319;-;-;7.12204;2.8145752;-2.8711548;-;-;-;-;-;-;-;-;-;-;-;-;-;-;-
1514102928338;-;-;7.566162;3.1677246;-2.5108337;-;-;-;-;-;-;-;-;-;-;-;-;-;-;-
1514102928358;-;-;8.308365;3.1820831;-2.8172913;-;-;-;-;-;-;-;-;-;-;-;-;-;-;-
1514102928378;-;-;9.056564;3.9973145;-3.666031;-;-;-;-;-;-;-;-;-;-;-;-;-;-;-
1514102928399;-;-;10.649902;4.073929;-4.4190063;-;-;-;-;-;-;-;-;-;-;-;-;-;-;-
1514102928419;-;-;11.520187;3.5603638;-4.5052032;-;-;-;-;-;-;-;-;-;-;-;-;-;-;-
1514102928440;-;-;11.110779;2.370453;-3.7869415;-;-;-;-;-;-;-;-;-;-;-;-;-;-;-
1514102928460;-;-;9.491104;0.73760986;-4.583023;-;-;-;-;-;-;-;-;-;-;-;-;-;-;-
1514102928480;-;-;10.436813;0.88365173;-7.3878174;-;-;-;-;-;-;-;-;-;-;-;-;-;-;-
1514102928501;-;-;12.567657;5.2554626;-4.1305084;-;-;-;-;-;-;-;-;-;-;-;-;-;-;-
1514102928521;-;-;11.244858;7.146881;-4.936157;-;-;-;-;-;-;-;-;-;-;-;-;-;-;-
1514102928541;-;-;6.319992;6.0491486;-8.003128;-;-;-;-;-;-;-;-;-;-;-;-;-;-;-
1514102928561;-;-;3.5558777;4.162506;-8.2677;-;-;-;-;-;-;-;-;-;-;-;-;-;-;-
1514102928581;-;-;2.0355682;-0.9167938;-6.081787;-;-;-;-;-;-;-;-;-;-;-;-;-;-;-
1514102928603;-;-;4.1484375;-3.5276642;-4.1269226;-;-;-;-;-;-;-;-;-;-;-;-;-;-;-
1514102928622;-;-;7.5877075;-3.3852081;-3.180008;-;-;-;-;-;-;-;-;-;-;-;-;-;-;-
1514102928642;-;-;9.659897;-0.28471375;-5.5371094;-;-;-;-;-;-;-;-;-;-;-;-;-;-;-
1514102928663;-;-;9.552155;2.5045319;-5.338394;-;-;-;-;-;-;-;-;-;-;-;-;-;-;-
1514102928683;-;-;8.168304;3.5543823;-3.966507;-;-;-;-;-;-;-;-;-;-;-;-;-;-;-
1514102928703;-;-;6.3930054;2.4614258;-4.2526093;-;-;-;-;-;-;-;-;-;-;-;-;-;-;-
1514102928723;-;-;5.0295105;0.8441467;-4.3268433;-;-;-;-;-;-;-;-;-;-;-;-;-;-;-
1514102928744;-;-;4.1676025;-0.66539;-3.6504822;-;-;-;-;-;-;-;-;-;-;-;-;-;-;-
1514102928764;-;-;4.3411713;-2.0265045;-2.7119446;-;-;-;-;-;-;-;-;-;-;-;-;-;-;-
1514102928784;-;-;6.4564514;-2.5005493;-3.370346;-;-;-;-;-;-;-;-;-;-;-;-;-;-;-
1514102928805;-;-;8.065353;-1.6996918;-5.385071;-;-;-;-;-;-;-;-;-;-;-;-;-;-;-
1514102928825;-;-;7.83432;-0.7767334;-5.3288116;-;-;-;-;-;-;-;-;-;-;-;-;-;-;-
1514102928845;-;-;7.1292267;-0.17578125;-4.1592407;-;-;-;-;-;-;-;-;-;-;-;-;-;-;-
1514102928865;-;-;7.1471863;0.019348145;-3.9401703;-;-;-;-;-;-;-;-;-;-;-;-;-;-;-
1514102928886;-;-;7.5470123;-0.42956543;-3.824051;-;-;-;-;-;-;-;-;-;-;-;-;-;-;-
1514102928906;-;-;7.5553894;-1.1334686;-3.5583038;-;-;-;-;-;-;-;-;-;-;-;-;-;-;-
1514102928926;-;-;7.3782196;-1.6829376;-3.025589;-;-;-;-;-;-;-;-;-;-;-;-;-;-;-
1514102928947;-;-;7.552994;-1.9319305;-2.9741058;-;-;-;-;-;-;-;-;-;-;-;-;-;-;-
1514102928967;-;-;7.770874;-1.5883636;-2.7143402;-;-;-;-;-;-;-;-;-;-;-;-;-;-;-
1514102928987;-;-;7.7577057;-0.8748932;-2.2211304;-;-;-;-;-;-;-;-;-;-;-;-;-;-;-
1514102929008;-;-;7.9516296;-0.26556396;-2.326477;-;-;-;-;-;-;-;-;-;-;-;-;-;-;-
1514102929027;-;-;8.450821;0.08518982;-2.39711;-;-;-;-;-;-;-;-;-;-;-;-;-;-;-
1514102929048;-;-;8.791992;0.35572815;-2.5814667;-;-;-;-;-;-;-;-;-;-;-;-;-;-;-
1514102929068;-;-;8.024658;0.25398254;-2.084671;-;-;-;-;-;-;-;-;-;-;-;-;-;-;-
1514102929088;-;-;7.93248;-0.700119;-2.4354248;-;-;-;-;-;-;-;-;-;-;-;-;-;-;-
1514102929108;-;-;8.989517;-0.5061798;-2.4425964;-;-;-;-;-;-;-;-;-;-;-;-;-;-;-
1514102929129;-;-;8.199432;-0.64624023;-2.8819427;-;-;-;-;-;-;-;-;-;-;-;-;-;-;-
1514102929149;-;-;8.219788;-1.6398315;-1.2048035;-;-;-;-;-;-;-;-;-;-;-;-;-;-;-
1514102929169;-;-;9.834671;-0.68455505;-1.8823547;-;-;-;-;-;-;-;-;-;-;-;-;-;-;-
1514102929190;-;-;10.490677;-0.34936523;-10.845047;-;-;-;-;-;-;-;-;-;-;-;-;-;-;-
1514102929210;-;-;13.5169525;1.6318359;-8.987152;-;-;-;-;-;-;-;-;-;-;-;-;-;-;-
1514102929230;-;-;13.569626;0.809433;-8.487961;-;-;-;-;-;-;-;-;-;-;-;-;-;-;-
1514102929250;-;-;8.903336;2.1585693;-7.8223724;-;-;-;-;-;-;-;-;-;-;-;-;-;-;-
1514102929271;-;-;6.6372223;3.668106;-6.1260834;-;-;-;-;-;-;-;-;-;-;-;-;-;-;-
1514102929291;-;-;6.2709045;2.569168;-5.898636;-;-;-;-;-;-;-;-;-;-;-;-;-;-;-
1514102929311;-;-;7.7612915;-0.60554504;-4.9888306;-;-;-;-;-;-;-;-;-;-;-;-;-;-;-
1514102929332;-;-;9.422867;-2.2874756;-4.951721;-;-;-;-;-;-;-;-;-;-;-;-;-;-;-
1514102929352;-;-;8.756088;-1.5356903;-4.8415833;-;-;-;-;-;-;-;-;-;-;-;-;-;-;-
1514102929372;-;-;7.185486;0.7759094;-4.11615;-;-;-;-;-;-;-;-;-;-;-;-;-;-;-
1514102929393;-;-;7.0382385;1.0428619;-3.4158478;-;-;-;-;-;-;-;-;-;-;-;-;-;-;-
1514102929413;-;-;6.4648285;0.23123169;-3.1081848;-;-;-;-;-;-;-;-;-;-;-;-;-;-;-
1514102929433;-;-;6.3211823;-0.4666748;-2.3635864;-;-;-;-;-;-;-;-;-;-;-;-;-;-;-
1514102929454;-;-;5.648407;-0.28231812;-1.9529877;-;-;-;-;-;-;-;-;-;-;-;-;-;-;-
1514102929475;-;-;6.139221;0.65141296;-1.9601746;-;-;-;-;-;-;-;-;-;-;-;-;-;-;-
1514102929495;-;-;7.542221;1.3373566;-2.0331879;-;-;-;-;-;-;-;-;-;-;-;-;-;-;-
1514102929515;-;-;8.808762;1.4462891;-2.0032654;-;-;-;-;-;-;-;-;-;-;-;-;-;-;-
1514102929536;-;-;8.989517;1.1350403;-1.6956024;-;-;-;-;-;-;-;-;-;-;-;-;-;-;-
1514102929556;-;-;8.587296;0.9650574;-1.610611;-;-;-;-;-;-;-;-;-;-;-;-;-;-;-
1514102929577;-;-;8.4448395;1.2535553;-1.0779114;-;-;-;-;-;-;-;-;-;-;-;-;-;-;-
1514102929597;-;-;9.111618;1.7623291;-0.82173157;-;-;-;-;-;-;-;-;-;-;-;-;-;-;-
1514102929617;-;-;10.092056;1.5923309;-1.2598572;-;-;-;-;-;-;-;-;-;-;-;-;-;-;-
1514102929638;-;-;10.06691;1.7838745;-1.550766;-;-;-;-;-;-;-;-;-;-;-;-;-;-;-
1514102929658;-;-;9.578491;3.0348358;-1.3963318;-;-;-;-;-;-;-;-;-;-;-;-;-;-;-
1514102929678;-;-;9.202606;4.0918884;-2.1696625;-;-;-;-;-;-;-;-;-;-;-;-;-;-;-
1514102929698;-;-;8.070145;4.3061676;-9.072144;-;-;-;-;-;-;-;-;-;-;-;-;-;-;-
1514102929719;-;-;7.552994;2.7331696;-12.376144;-;-;-;-;-;-;-;-;-;-;-;-;-;-;-
1514102929739;-;-;9.15712;-0.3972473;-5.654419;-;-;-;-;-;-;-;-;-;-;-;-;-;-;-
1514102929759;-;-;9.825104;-2.2240143;-4.409439;-;-;-;-;-;-;-;-;-;-;-;-;-;-;-
1514102929780;-;-;7.6475677;-3.3074036;-9.980743;-;-;-;-;-;-;-;-;-;-;-;-;-;-;-
1514102929800;-;-;8.32872;-1.8768616;-8.938065;-;-;-;-;-;-;-;-;-;-;-;-;-;-;-
1514102929820;-;-;10.484695;1.9766083;-5.3755035;-;-;-;-;-;-;-;-;-;-;-;-;-;-;-
1514102929840;-;-;11.266403;2.2136383;-7.4345093;-;-;-;-;-;-;-;-;-;-;-;-;-;-;-
1514102929861;-;-;11.674622;0.61909485;-6.385849;-;-;-;-;-;-;-;-;-;-;-;-;-;-;-
1514102929881;-;-;7.7612915;0.3102417;-6.370285;-;-;-;-;-;-;-;-;-;-;-;-;-;-;-
1514102929901;-;-;4.355545;-0.9215698;-6.1464233;-;-;-;-;-;-;-;-;-;-;-;-;-;-;-
1514102929922;-;-;3.0135956;-3.2283936;-4.733856;-;-;-;-;-;-;-;-;-;-;-;-;-;-;-
1514102929942;-;-;2.9465485;-5.234726;-3.3332367;-;-;-;-;-;-;-;-;-;-;-;-;-;-;-
1514102929962;-;-;4.31723;-5.806946;-2.6676483;-;-;-;-;-;-;-;-;-;-;-;-;-;-;-
1514102929983;-;-;8.043808;-4.6948395;-2.5659027;-;-;-;-;-;-;-;-;-;-;-;-;-;-;-
1514102930002;-;-;9.533005;-3.8173676;-2.1217804;-;-;-;-;-;-;-;-;-;-;-;-;-;-;-
1514102930022;-;-;9.519836;-3.4761963;-1.7746124;-;-;-;-;-;-;-;-;-;-;-;-;-;-;-
1514102930042;-;-;8.614822;-2.732788;-1.9290466;-;-;-;-;-;-;-;-;-;-;-;-;-;-;-
1514102930063;-;-;8.465195;-1.4925995;-1.7698364;-;-;-;-;-;-;-;-;-;-;-;-;-;-;-
1514102930083;-;-;7.2704773;-1.1645813;-1.777008;-;-;-;-;-;-;-;-;-;-;-;-;-;-;-
1514102930103;-;-;6.7413635;-3.187683;-2.55513;-;-;-;-;-;-;-;-;-;-;-;-;-;-;-
1514102930124;-;-;8.592087;-5.1820526;-2.13974;-;-;-;-;-;-;-;-;-;-;-;-;-;-;-
1514102930144;-;-;10.825867;-5.4035187;-1.7303314;-;-;-;-;-;-;-;-;-;-;-;-;-;-;-
1514102930164;-;-;12.522171;-3.950241;-1.6656799;-;-;-;-;-;-;-;-;-;-;-;-;-;-;-
1514102930184;-;-;14.81102;-1.214859;-2.2438812;-;-;-;-;-;-;-;-;-;-;-;-;-;-;-
1514102930205;-;-;16.009323;-0.32182312;-3.8659515;-;-;-;-;-;-;-;-;-;-;-;-;-;-;-
1514102930225;-;-;15.493362;-0.69651794;-6.5726013;-;-;-;-;-;-;-;-;-;-;-;-;-;-;-
1514102930245;-;-;13.957489;-2.253952;-9.618027;-;-;-;-;-;-;-;-;-;-;-;-;-;-;-
1514102930266;-;-;9.318726;-4.2674713;-7.626053;-;-;-;-;-;-;-;-;-;-;-;-;-;-;-
1514102930286;-;-;5.6304474;-3.3421173;-7.022705;-;-;-;-;-;-;-;-;-;-;-;-;-;-;-
1514102930307;-;-;6.4444885;-1.8014526;-8.877014;-;-;-;-;-;-;-;-;-;-;-;-;-;-;-
1514102930327;-;-;6.5821533;0.03730774;-9.03743;-;-;-;-;-;-;-;-;-;-;-;-;-;-;-
1514102930346;-;-;6.8910065;1.1577911;-7.562607;-;-;-;-;-;-;-;-;-;-;-;-;-;-;-
1514102930366;-;-;8.262878;-0.99938965;-5.0043945;-;-;-;-;-;-;-;-;-;-;-;-;-;-;-
1514102930387;-;-;8.382584;-3.2475433;-4.250229;-;-;-;-;-;-;-;-;-;-;-;-;-;-;-
1514102930407;-;-;9.026627;-3.9059448;-2.7514496;-;-;-;-;-;-;-;-;-;-;-;-;-;-;-
1514102930427;-;-;8.07135;-2.8465118;-2.0391846;-;-;-;-;-;-;-;-;-;-;-;-;-;-;-
1514102930448;-;-;6.37027;-1.9415131;-2.551529;-;-;-;-;-;-;-;-;-;-;-;-;-;-;-
1514102930468;-;-;5.0690155;-0.6797638;-2.7598267;-;-;-;-;-;-;-;-;-;-;-;-;-;-;-
1514102930489;-;-;3.3248444;0.9004059;-2.6078033;-;-;-;-;-;-;-;-;-;-;-;-;-;-;-
1514102930509;-;-;2.6963654;2.2471466;-2.938202;-;-;-;-;-;-;-;-;-;-;-;-;-;-;-
1514102930529;-;-;4.848755;2.5440369;-2.907074;-;-;-;-;-;-;-;-;-;-;-;-;-;-;-
1514102930551;-;-;8.443649;1.3421478;-3.6289215;-;-;-;-;-;-;-;-;-;-;-;-;-;-;-
1514102930571;-;-;9.056564;0.0037841797;-4.773361;-;-;-;-;-;-;-;-;-;-;-;-;-;-;-
1514102930591;-;-;7.9755707;0.18214417;-3.7761688;-;-;-;-;-;-;-;-;-;-;-;-;-;-;-
1514102930611;-;-;6.922119;1.556427;-3.3488007;-;-;-;-;-;-;-;-;-;-;-;-;-;-;-
1514102930632;-;-;6.60849;2.928299;-2.5922394;-;-;-;-;-;-;-;-;-;-;-;-;-;-;-
1514102930652;-;-;7.732559;2.9977264;-3.1022034;-;-;-;-;-;-;-;-;-;-;-;-;-;-;-
1514102930672;-;-;7.9995117;2.3932037;-3.6169586;-;-;-;-;-;-;-;-;-;-;-;-;-;-;-
1514102930693;-;-;8.74292;2.20047;-3.4026794;-;-;-;-;-;-;-;-;-;-;-;-;-;-;-
1514102930713;-;-;10.405685;2.5500183;-3.4194336;-;-;-;-;-;-;-;-;-;-;-;-;-;-;-
1514102930733;-;-;11.271194;2.8708344;-3.559494;-;-;-;-;-;-;-;-;-;-;-;-;-;-;-
1514102930754;-;-;11.127548;2.8457031;-3.7306824;-;-;-;-;-;-;-;-;-;-;-;-;-;-;-
1514102930774;-;-;10.873764;2.4291077;-2.8089142;-;-;-;-;-;-;-;-;-;-;-;-;-;-;-
1514102930794;-;-;10.430832;0.98779297;-0.9833374;-;-;-;-;-;-;-;-;-;-;-;-;-;-;-
1514102930815;-;-;9.254074;-0.62828064;-11.187424;-;-;-;-;-;-;-;-;-;-;-;-;-;-;-
1514102930835;-;-;13.866516;2.7080383;-7.1280518;-;-;-;-;-;-;-;-;-;-;-;-;-;-;-
1514102930855;-;-;13.3194275;6.204773;-7.831955;-;-;-;-;-;-;-;-;-;-;-;-;-;-;-
1514102930876;-;-;9.625183;5.541565;-8.019897;-;-;-;-;-;-;-;-;-;-;-;-;-;-;-
1514102930896;-;-;5.292877;4.3384857;-7.22023;-;-;-;-;-;-;-;-;-;-;-;-;-;-;-
1514102930916;-;-;2.6053772;-0.09197998;-4.7973022;-;-;-;-;-;-;-;-;-;-;-;-;-;-;-
1514102930937;-;-;1.9086609;-4.997711;-0.77983093;-;-;-;-;-;-;-;-;-;-;-;-;-;-;-
1514102930957;-;-;4.311249;-4.89476;-2.1074066;-;-;-;-;-;-;-;-;-;-;-;-;-;-;-
1514102930977;-;-;8.201828;-0.581604;-3.796524;-;-;-;-;-;-;-;-;-;-;-;-;-;-;-
1514102930997;-;-;8.0905;1.4714355;-4.089813;-;-;-;-;-;-;-;-;-;-;-;-;-;-;-
1514102931018;-;-;6.4684296;2.409958;-3.8659515;-;-;-;-;-;-;-;-;-;-;-;-;-;-;-
1514102931038;-;-;4.75058;1.2822876;-3.2302856;-;-;-;-;-;-;-;-;-;-;-;-;-;-;-
1514102931058;-;-;3.3284302;-0.6438446;-2.79216;-;-;-;-;-;-;-;-;-;-;-;-;-;-;-
1514102931079;-;-;4.0179596;-2.4023895;-2.859192;-;-;-;-;-;-;-;-;-;-;-;-;-;-;-
1514102931099;-;-;6.3846283;-3.6820831;-3.1417084;-;-;-;-;-;-;-;-;-;-;-;-;-;-;-
1514102931119;-;-;9.179855;-4.0256653;-3.4709167;-;-;-;-;-;-;-;-;-;-;-;-;-;-;-
1514102931139;-;-;11.607574;-3.3899994;-4.1269226;-;-;-;-;-;-;-;-;-;-;-;-;-;-;-
1514102931160;-;-;11.712921;-2.942276;-4.816452;-;-;-;-;-;-;-;-;-;-;-;-;-;-;-
1514102931180;-;-;10.180634;-2.9195404;-5.6101227;-;-;-;-;-;-;-;-;-;-;-;-;-;-;-
1514102931201;-;-;9.436035;-1.1837463;-3.5894165;-;-;-;-;-;-;-;-;-;-;-;-;-;-;-
1514102931221;-;-;11.260422;-1.6996918;-2.8089142;-;-;-;-;-;-;-;-;-;-;-;-;-;-;-
1514102931241;-;-;12.227676;-1.661377;-3.6995544;-;-;-;-;-;-;-;-;-;-;-;-;-;-;-
1514102931262;-;-;13.970657;-0.009384155;-2.2103577;-;-;-;-;-;-;-;-;-;-;-;-;-;-;-
1514102931282;-;-;12.440765;0.48143005;-4.5901947;-;-;-;-;-;-;-;-;-;-;-;-;-;-;-
1514102931302;-;-;9.23732;-2.598709;-12.467117;-;-;-;-;-;-;-;-;-;-;-;-;-;-;-
1514102931323;-;-;5.923752;-5.4334564;-16.131454;-;-;-;-;-;-;-;-;-;-;-;-;-;-;-
1514102931343;-;-;10.063324;-7.6049957;-3.1476898;-;-;-;-;-;-;-;-;-;-;-;-;-;-;-
1514102931364;-;-;15.099518;-0.61631775;1.4204407;-;-;-;-;-;-;-;-;-;-;-;-;-;-;-
1514102931384;-;-;8.198242;0.4586792;-12.743652;-;-;-;-;-;-;-;-;-;-;-;-;-;-;-
1514102931404;-;-;5.960861;1.1170807;-6.828781;-;-;-;-;-;-;-;-;-;-;-;-;-;-;-
1514102931424;-;-;3.873108;2.512909;-1.2622528;-;-;-;-;-;-;-;-;-;-;-;-;-;-;-
1514102931445;-;-;0.68045044;0.17018127;0.0856781;-;-;-;-;-;-;-;-;-;-;-;-;-;-;-
1514102931465;-;-;1.8583832;-1.2388;-2.8232727;-;-;-;-;-;-;-;-;-;-;-;-;-;-;-
1514102931485;-;-;4.9648743;-1.601532;-3.3440094;-;-;-;-;-;-;-;-;-;-;-;-;-;-;-
1514102931505;-;-;8.1874695;-1.0628357;-3.5379486;-;-;-;-;-;-;-;-;-;-;-;-;-;-;-
1514102931527;-;-;7.4249115;0.21566772;-4.2131195;-;-;-;-;-;-;-;-;-;-;-;-;-;-;-
1514102931547;-;-;6.1954803;2.9067535;-3.9090424;-;-;-;-;-;-;-;-;-;-;-;-;-;-;-
1514102931568;-;-;5.510742;3.908722;-3.7558136;-;-;-;-;-;-;-;-;-;-;-;-;-;-;-
1514102931588;-;-;7.2980194;2.026886;-4.393875;-;-;-;-;-;-;-;-;-;-;-;-;-;-;-
1514102931608;-;-;8.24971;0.095962524;-4.6847687;-;-;-;-;-;-;-;-;-;-;-;-;-;-;-
1514102931629;-;-;8.546585;0.10673523;-3.8815155;-;-;-;-;-;-;-;-;-;-;-;-;-;-;-
1514102931649;-;-;9.250488;0.88365173;-2.8053284;-;-;-;-;-;-;-;-;-;-;-;-;-;-;-
1514102931669;-;-;9.363022;1.9670258;-2.2774048;-;-;-;-;-;-;-;-;-;-;-;-;-;-;-
1514102931690;-;-;9.352234;3.5831146;-2.71315;-;-;-;-;-;-;-;-;-;-;-;-;-;-;-
1514102931710;-;-;10.888123;4.2068024;-3.9880524;-;-;-;-;-;-;-;-;-;-;-;-;-;-;-
1514102931730;-;-;10.664261;4.173279;-6.535492;-;-;-;-;-;-;-;-;-;-;-;-;-;-;-
1514102931750;-;-;11.812286;3.9901276;-7.0286865;-;-;-;-;-;-;-;-;-;-;-;-;-;-;-
1514102931771;-;-;14.168182;3.1114502;-6.0949554;-;-;-;-;-;-;-;-;-;-;-;-;-;-;-
1514102931791;-;-;12.481461;3.908722;-7.125656;-;-;-;-;-;-;-;-;-;-;-;-;-;-;-
1514102931811;-;-;9.23732;2.7930298;-7.294449;-;-;-;-;-;-;-;-;-;-;-;-;-;-;-
1514102931832;-;-;6.457657;1.1936951;-5.0367126;-;-;-;-;-;-;-;-;-;-;-;-;-;-;-
1514102931853;-;-;5.347946;-1.7463837;-3.6097717;-;-;-;-;-;-;-;-;-;-;-;-;-;-;-
1514102931872;-;-;4.8283997;-3.9873505;-3.6564636;-;-;-;-;-;-;-;-;-;-;-;-;-;-;-
1514102931893;-;-;6.299637;-3.0955048;-3.3763428;-;-;-;-;-;-;-;-;-;-;-;-;-;-;-
1514102931913;-;-;8.018677;-0.25479126;-2.717926;-;-;-;-;-;-;-;-;-;-;-;-;-;-;-
1514102931933;-;-;7.554199;1.6545868;-2.4952698;-;-;-;-;-;-;-;-;-;-;-;-;-;-;-
1514102931954;-;-;6.62764;2.0280762;-3.5714722;-;-;-;-;-;-;-;-;-;-;-;-;-;-;-
1514102931974;-;-;5.69989;0.59155273;-3.7199097;-;-;-;-;-;-;-;-;-;-;-;-;-;-;-
1514102931994;-;-;5.1671753;-0.957489;-3.5247803;-;-;-;-;-;-;-;-;-;-;-;-;-;-;-
1514102932015;-;-;4.6332703;-2.320984;-3.4397888;-;-;-;-;-;-;-;-;-;-;-;-;-;-;-
1514102932034;-;-;5.2030945;-3.1517792;-2.3983002;-;-;-;-;-;-;-;-;-;-;-;-;-;-;-
1514102932054;-;-;7.145981;-2.1845245;-2.271408;-;-;-;-;-;-;-;-;-;-;-;-;-;-;-
1514102932075;-;-;7.3865967;-0.8964386;-3.04953;-;-;-;-;-;-;-;-;-;-;-;-;-;-;-
1514102932095;-;-;7.173523;-0.35653687;-2.852005;-;-;-;-;-;-;-;-;-;-;-;-;-;-;-
1514102932115;-;-;7.020294;-0.82341003;-2.13974;-;-;-;-;-;-;-;-;-;-;-;-;-;-;-
1514102932135;-;-;7.827133;-1.5033722;-1.1533203;-;-;-;-;-;-;-;-;-;-;-;-;-;-;-
1514102932156;-;-;9.307953;-2.2096558;-1.1389618;-;-;-;-;-;-;-;-;-;-;-;-;-;-;-
1514102932176;-;-;10.8402405;-2.5675964;-2.0044556;-;-;-;-;-;-;-;-;-;-;-;-;-;-;-
1514102932196;-;-;11.739258;-2.7902527;-2.2007904;-;-;-;-;-;-;-;-;-;-;-;-;-;-;-
1514102932217;-;-;12.190567;-2.514923;-2.508438;-;-;-;-;-;-;-;-;-;-;-;-;-;-;-
1514102932237;-;-;12.461105;-2.6047058;-2.282196;-;-;-;-;-;-;-;-;-;-;-;-;-;-;-
1514102932257;-;-;11.716522;-1.7535553;-4.289734;-;-;-;-;-;-;-;-;-;-;-;-;-;-;-
1514102932277;-;-;10.039383;-1.9175568;-7.117279;-;-;-;-;-;-;-;-;-;-;-;-;-;-;-
1514102932298;-;-;10.60321;-3.3421173;-10.137558;-;-;-;-;-;-;-;-;-;-;-;-;-;-;-
1514102932318;-;-;12.778351;-4.4386597;-6.041092;-;-;-;-;-;-;-;-;-;-;-;-;-;-;-
1514102932338;-;-;16.300217;-4.0663605;-2.8268738;-;-;-;-;-;-;-;-;-;-;-;-;-;-;-
1514102932359;-;-;11.461533;-2.5316772;-10.485916;-;-;-;-;-;-;-;-;-;-;-;-;-;-;-
1514102932379;-;-;6.759323;-1.0029755;-10.721756;-;-;-;-;-;-;-;-;-;-;-;-;-;-;-
1514102932399;-;-;5.5406647;2.6230469;-5.3766937;-;-;-;-;-;-;-;-;-;-;-;-;-;-;-
1514102932420;-;-;3.976059;4.374405;-1.9960785;-;-;-;-;-;-;-;-;-;-;-;-;-;-;-
1514102932440;-;-;3.6336975;2.2315826;-1.9494019;-;-;-;-;-;-;-;-;-;-;-;-;-;-;-
1514102932460;-;-;4.7493896;-0.48703003;-2.6389313;-;-;-;-;-;-;-;-;-;-;-;-;-;-;-
1514102932481;-;-;5.794464;-2.1067047;-2.5934296;-;-;-;-;-;-;-;-;-;-;-;-;-;-;-
1514102932501;-;-;6.0937347;-2.8836212;-3.559494;-;-;-;-;-;-;-;-;-;-;-;-;-;-;-
1514102932521;-;-;5.667572;-1.8900299;-3.4756927;-;-;-;-;-;-;-;-;-;-;-;-;-;-;-
1514102932542;-;-;4.5147552;0.3605194;-3.2422638;-;-;-;-;-;-;-;-;-;-;-;-;-;-;-
1514102932562;-;-;4.1233063;3.0803375;-3.6361084;-;-;-;-;-;-;-;-;-;-;-;-;-;-;-
1514102932582;-;-;5.62088;3.9661865;-3.6588593;-;-;-;-;-;-;-;-;-;-;-;-;-;-;-
1514102932603;-;-;7.6080627;2.9977264;-4.1927643;-;-;-;-;-;-;-;-;-;-;-;-;-;-;-
1514102932623;-;-;8.181473;1.2020874;-4.9577026;-;-;-;-;-;-;-;-;-;-;-;-;-;-;-
1514102932643;-;-;8.059372;-0.062057495;-5.3288116;-;-;-;-;-;-;-;-;-;-;-;-;-;-;-
1514102932663;-;-;8.112045;0.41319275;-4.567459;-;-;-;-;-;-;-;-;-;-;-;-;-;-;-
1514102932684;-;-;8.374207;2.1394043;-3.788147;-;-;-;-;-;-;-;-;-;-;-;-;-;-;-
1514102932704;-;-;10.081268;3.6010742;-4.2885284;-;-;-;-;-;-;-;-;-;-;-;-;-;-;-
1514102932724;-;-;11.091629;4.4713593;-4.330429;-;-;-;-;-;-;-;-;-;-;-;-;-;-;-
1514102932745;-;-;10.862976;4.755081;-4.0479126;-;-;-;-;-;-;-;-;-;-;-;-;-;-;-
1514102932765;-;-;10.447586;4.4510193;-1.9051056;-;-;-;-;-;-;-;-;-;-;-;-;-;-;-
1514102932785;-;-;9.7808075;2.6098785;-2.4497833;-;-;-;-;-;-;-;-;-;-;-;-;-;-;-
1514102932806;-;-;8.006699;1.1984863;-11.155106;-;-;-;-;-;-;-;-;-;-;-;-;-;-;-
1514102932826;-;-;9.783203;1.3313751;-9.45282;-;-;-;-;-;-;-;-;-;-;-;-;-;-;-
1514102932846;-;-;11.814682;3.7375336;-8.546616;-;-;-;-;-;-;-;-;-;-;-;-;-;-;-
1514102932866;-;-;8.92009;2.3261566;-6.400223;-;-;-;-;-;-;-;-;-;-;-;-;-;-;-
1514102932887;-;-;5.063034;1.6641693;-7.9492645;-;-;-;-;-;-;-;-;-;-;-;-;-;-;-
1514102932906;-;-;4.6380615;-1.2376099;-6.7940674;-;-;-;-;-;-;-;-;-;-;-;-;-;-;-
1514102932926;-;-;4.5267334;-3.6365967;-4.4621124;-;-;-;-;-;-;-;-;-;-;-;-;-;-;-
1514102932946;-;-;5.3802643;-4.1286163;-0.79418945;-;-;-;-;-;-;-;-;-;-;-;-;-;-;-
1514102932967;-;-;7.6391907;-1.2136688;-3.8216553;-;-;-;-;-;-;-;-;-;-;-;-;-;-;-
1514102932987;-;-;6.8706512;0.9901886;-3.745041;-;-;-;-;-;-;-;-;-;-;-;-;-;-;-
1514102933007;-;-;5.216263;1.5899353;-3.8372192;-;-;-;-;-;-;-;-;-;-;-;-;-;-;-
1514102933028;-;-;4.0047913;0.7819061;-3.796524;-;-;-;-;-;-;-;-;-;-;-;-;-;-;-
1514102933048;-;-;3.9473267;-1.412384;-2.6449127;-;-;-;-;-;-;-;-;-;-;-;-;-;-;-
1514102933068;-;-;2.9669037;-3.8520813;-2.7718048;-;-;-;-;-;-;-;-;-;-;-;-;-;-;-
1514102933088;-;-;4.818817;-4.4626007;-3.0136108;-;-;-;-;-;-;-;-;-;-;-;-;-;-;-
1514102933109;-;-;8.697433;-3.1733246;-3.472107;-;-;-;-;-;-;-;-;-;-;-;-;-;-;-
1514102933129;-;-;10.762421;-1.4159851;-5.674774;-;-;-;-;-;-;-;-;-;-;-;-;-;-;-
1514102933149;-;-;9.783203;-0.35653687;-6.484009;-;-;-;-;-;-;-;-;-;-;-;-;-;-;-
1514102933169;-;-;9.114014;-0.25;-5.314438;-;-;-;-;-;-;-;-;-;-;-;-;-;-;-
1514102933190;-;-;8.712982;-1.2579651;-3.5738678;-;-;-;-;-;-;-;-;-;-;-;-;-;-;-
1514102933210;-;-;9.71376;-4.1058655;-4.554291;-;-;-;-;-;-;-;-;-;-;-;-;-;-;-
1514102933231;-;-;12.680176;-4.213608;-3.8695374;-;-;-;-;-;-;-;-;-;-;-;-;-;-;-
1514102933251;-;-;13.882065;-2.8932037;-5.0905914;-;-;-;-;-;-;-;-;-;-;-;-;-;-;-
1514102933271;-;-;13.34697;-0.02734375;-6.053055;-;-;-;-;-;-;-;-;-;-;-;-;-;-;-
1514102933291;-;-;10.263229;2.1585693;-8.44606;-;-;-;-;-;-;-;-;-;-;-;-;-;-;-
1514102933312;-;-;8.630386;0.7016907;-8.596893;-;-;-;-;-;-;-;-;-;-;-;-;-;-;-
1514102933332;-;-;8.394562;-2.5783691;-6.8263855;-;-;-;-;-;-;-;-;-;-;-;-;-;-;-
1514102933352;-;-;8.701019;-5.099457;-3.6528625;-;-;-;-;-;-;-;-;-;-;-;-;-;-;-
1514102933373;-;-;8.745316;-4.3752136;-6.1069183;-;-;-;-;-;-;-;-;-;-;-;-;-;-;-
1514102933392;-;-;7.8630524;-3.2774658;-9.260086;-;-;-;-;-;-;-;-;-;-;-;-;-;-;-
1514102933413;-;-;7.320755;-0.19134521;-6.2888794;-;-;-;-;-;-;-;-;-;-;-;-;-;-;-
1514102933432;-;-;5.8363495;1.4606476;-3.5535126;-;-;-;-;-;-;-;-;-;-;-;-;-;-;-
1514102933452;-;-;4.7769165;0.6897278;-2.5994263;-;-;-;-;-;-;-;-;-;-;-;-;-;-;-
1514102933473;-;-;4.8643036;-0.02734375;-2.4354248;-;-;-;-;-;-;-;-;-;-;-;-;-;-;-
1514102933493;-;-;5.1731567;-0.54927063;-3.3595734;-;-;-;-;-;-;-;-;-;-;-;-;-;-;-
1514102933513;-;-;5.2617493;-0.8186188;-4.7709656;-;-;-;-;-;-;-;-;-;-;-;-;-;-;-
1514102933534;-;-;5.06781;-0.32421875;-4.662018;-;-;-;-;-;-;-;-;-;-;-;-;-;-;-
1514102933554;-;-;4.794876;0.9207611;-3.7306824;-;-;-;-;-;-;-;-;-;-;-;-;-;-;-
1514102933576;-;-;5.042679;2.1860962;-3.6648407;-;-;-;-;-;-;-;-;-;-;-;-;-;-;-
1514102933595;-;-;5.8950195;2.229187;-4.0910034;-;-;-;-;-;-;-;-;-;-;-;-;-;-;-
1514102933615;-;-;7.086136;0.967453;-4.593796;-;-;-;-;-;-;-;-;-;-;-;-;-;-;-
1514102933635;-;-;8.261688;0.11631775;-5.0750275;-;-;-;-;-;-;-;-;-;-;-;-;-;-;-
1514102933656;-;-;8.162323;0.27792358;-5.1863556;-;-;-;-;-;-;-;-;-;-;-;-;-;-;-
1514102933676;-;-;7.532654;1.2224274;-3.9557343;-;-;-;-;-;-;-;-;-;-;-;-;-;-;-
1514102933696;-;-;7.12204;2.6326141;-2.7167358;-;-;-;-;-;-;-;-;-;-;-;-;-;-;-
1514102933716;-;-;8.163513;3.0875092;-2.4402008;-;-;-;-;-;-;-;-;-;-;-;-;-;-;-
1514102933737;-;-;8.796783;2.7523193;-3.7139282;-;-;-;-;-;-;-;-;-;-;-;-;-;-;-
1514102933757;-;-;9.505478;3.1150513;-4.5806274;-;-;-;-;-;-;-;-;-;-;-;-;-;-;-
1514102933777;-;-;10.238098;3.3604584;-4.3483887;-;-;-;-;-;-;-;-;-;-;-;-;-;-;-
1514102933797;-;-;10.288376;3.2191925;-4.3831024;-;-;-;-;-;-;-;-;-;-;-;-;-;-;-
1514102933818;-;-;9.75087;2.2818604;-4.5818176;-;-;-;-;-;-;-;-;-;-;-;-;-;-;-
1514102933838;-;-;9.340271;1.5791626;-8.179108;-;-;-;-;-;-;-;-;-;-;-;-;-;-;-
1514102933858;-;-;11.704544;2.8684387;-8.905746;-;-;-;-;-;-;-;-;-;-;-;-;-;-;-
1514102933879;-;-;12.605957;4.4761505;-5.5263367;-;-;-;-;-;-;-;-;-;-;-;-;-;-;-
1514102933899;-;-;9.957977;4.90831;-6.445709;-;-;-;-;-;-;-;-;-;-;-;-;-;-;-
1514102933920;-;-;5.359909;3.6956482;-9.061371;-;-;-;-;-;-;-;-;-;-;-;-;-;-;-
1514102933940;-;-;3.1321106;0.9423065;-7.013138;-;-;-;-;-;-;-;-;-;-;-;-;-;-;-
1514102933960;-;-;4.312454;-2.6801147;-5.0558777;-;-;-;-;-;-;-;-;-;-;-;-;-;-;-
1514102933981;-;-;5.2593536;-5.3556366;-2.6329346;-;-;-;-;-;-;-;-;-;-;-;-;-;-;-
1514102934001;-;-;8.533432;-4.43985;-4.004822;-;-;-;-;-;-;-;-;-;-;-;-;-;-;-
1514102934021;-;-;9.042191;-1.9355164;-4.7506104;-;-;-;-;-;-;-;-;-;-;-;-;-;-;-
1514102934042;-;-;8.442444;-0.1769867;-4.393875;-;-;-;-;-;-;-;-;-;-;-;-;-;-;-
1514102934061;-;-;6.7569275;1.4893799;-3.6744232;-;-;-;-;-;-;-;-;-;-;-;-;-;-;-
1514102934081;-;-;4.849945;1.2272186;-3.8851013;-;-;-;-;-;-;-;-;-;-;-;-;-;-;-
1514102934102;-;-;3.232666;-0.27035522;-3.5930176;-;-;-;-;-;-;-;-;-;-;-;-;-;-;-
1514102934121;-;-;3.0854187;-1.8948212;-2.539566;-;-;-;-;-;-;-;-;-;-;-;-;-;-;-
1514102934141;-;-;5.418564;-3.4306946;-1.7889862;-;-;-;-;-;-;-;-;-;-;-;-;-;-;-
1514102934161;-;-;8.370621;-3.2487335;-3.073471;-;-;-;-;-;-;-;-;-;-;-;-;-;-;-
1514102934182;-;-;10.230911;-1.9606628;-4.147278;-;-;-;-;-;-;-;-;-;-;-;-;-;-;-
1514102934202;-;-;9.917267;-0.95150757;-4.515976;-;-;-;-;-;-;-;-;-;-;-;-;-;-;-
1514102934222;-;-;8.610046;-0.8701019;-4.1065674;-;-;-;-;-;-;-;-;-;-;-;-;-;-;-
1514102934243;-;-;6.644394;-1.4638672;-3.317688;-;-;-;-;-;-;-;-;-;-;-;-;-;-;-
1514102934262;-;-;6.084152;-1.9235535;-2.665268;-;-;-;-;-;-;-;-;-;-;-;-;-;-;-
1514102934282;-;-;6.8874054;-2.775879;-2.8687744;-;-;-;-;-;-;-;-;-;-;-;-;-;-;-
1514102934303;-;-;7.9205017;-3.2367706;-3.089035;-;-;-;-;-;-;-;-;-;-;-;-;-;-;-
1514102934323;-;-;8.532227;-3.325348;-2.8567963;-;-;-;-;-;-;-;-;-;-;-;-;-;-;-
1514102934343;-;-;10.034592;-3.1050873;-3.6444855;-;-;-;-;-;-;-;-;-;-;-;-;-;-;-
1514102934363;-;-;10.861786;-2.8094025;-4.347183;-;-;-;-;-;-;-;-;-;-;-;-;-;-;-
1514102934384;-;-;10.87854;-2.5771637;-5.954895;-;-;-;-;-;-;-;-;-;-;-;-;-;-;-
1514102934404;-;-;10.856995;-2.5292816;-5.6328735;-;-;-;-;-;-;-;-;-;-;-;-;-;-;-
1514102934424;-;-;9.893326;-0.9323425;-11.748856;-;-;-;-;-;-;-;-;-;-;-;-;-;-;-
1514102934446;-;-;11.803909;-1.2280273;-4.436966;-;-;-;-;-;-;-;-;-;-;-;-;-;-;-
1514102934466;-;-;13.020157;-4.9510193;-4.0431213;-;-;-;-;-;-;-;-;-;-;-;-;-;-;-
1514102934486;-;-;12.839401;-5.4933014;-8.631607;-;-;-;-;-;-;-;-;-;-;-;-;-;-;-
1514102934507;-;-;9.421677;-4.1968384;-8.699844;-;-;-;-;-;-;-;-;-;-;-;-;-;-;-
1514102934527;-;-;6.0817566;-1.2136688;-6.3678894;-;-;-;-;-;-;-;-;-;-;-;-;-;-;-
1514102934547;-;-;4.755371;0.02532959;-5.057068;-;-;-;-;-;-;-;-;-;-;-;-;-;-;-
1514102934567;-;-;5.0259247;-0.43077087;-3.7127228;-;-;-;-;-;-;-;-;-;-;-;-;-;-;-
1514102934587;-;-;6.074585;-2.344925;-4.634491;-;-;-;-;-;-;-;-;-;-;-;-;-;-;-
1514102934608;-;-;8.367035;-2.4131622;-3.6265259;-;-;-;-;-;-;-;-;-;-;-;-;-;-;-
1514102934628;-;-;6.802414;-1.364502;-4.4776764;-;-;-;-;-;-;-;-;-;-;-;-;-;-;-
1514102934648;-;-;6.5198975;0.14624023;-3.9569397;-;-;-;-;-;-;-;-;-;-;-;-;-;-;-
1514102934668;-;-;6.4696198;2.153778;-3.8647614;-;-;-;-;-;-;-;-;-;-;-;-;-;-;-
1514102934688;-;-;5.4963837;3.2539063;-5.844757;-;-;-;-;-;-;-;-;-;-;-;-;-;-;-
1514102934709;-;-;4.6584015;3.596283;-6.5175323;-;-;-;-;-;-;-;-;-;-;-;-;-;-;-
1514102934729;-;-;4.3663177;3.275467;-6.457672;-;-;-;-;-;-;-;-;-;-;-;-;-;-;-
1514102934749;-;-;5.1408386;2.2974243;-6.2098694;-;-;-;-;-;-;-;-;-;-;-;-;-;-;-
1514102934770;-;-;6.5510254;1.3205872;-5.8471527;-;-;-;-;-;-;-;-;-;-;-;-;-;-;-
1514102934790;-;-;6.809601;0.9399109;-5.75737;-;-;-;-;-;-;-;-;-;-;-;-;-;-;-
1514102934810;-;-;6.122467;0.81062317;-5.1815643;-;-;-;-;-;-;-;-;-;-;-;-;-;-;-
1514102934830;-;-;5.3862457;0.6681671;-4.888275;-;-;-;-;-;-;-;-;-;-;-;-;-;-;-
1514102934851;-;-;5.5442657;0.060043335;-4.4477386;-;-;-;-;-;-;-;-;-;-;-;-;-;-;-
1514102934871;-;-;6.0925293;-0.542099;-3.3092957;-;-;-;-;-;-;-;-;-;-;-;-;-;-;-
1514102934891;-;-;6.4301147;-0.56843567;-2.2462769;-;-;-;-;-;-;-;-;-;-;-;-;-;-;-
1514102934912;-;-;6.5558167;0.04927063;-1.863205;-;-;-;-;-;-;-;-;-;-;-;-;-;-;-
1514102934932;-;-;6.8921967;0.47782898;-2.3528137;-;-;-;-;-;-;-;-;-;-;-;-;-;-;-
1514102934952;-;-;7.532654;0.872879;-2.5958252;-;-;-;-;-;-;-;-;-;-;-;-;-;-;-
1514102934973;-;-;8.255692;1.2463684;-2.658081;-;-;-;-;-;-;-;-;-;-;-;-;-;-;-
1514102934993;-;-;8.557373;1.2439728;-2.4653473;-;-;-;-;-;-;-;-;-;-;-;-;-;-;-
1514102935013;-;-;8.880585;0.71006775;-1.8548279;-;-;-;-;-;-;-;-;-;-;-;-;-;-;-
1514102935033;-;-;9.513855;0.0049743652;-1.1353607;-;-;-;-;-;-;-;-;-;-;-;-;-;-;-
1514102935054;-;-;10.837845;-0.25958252;-0.72236633;-;-;-;-;-;-;-;-;-;-;-;-;-;-;-
1514102935074;-;-;13.01178;-0.42118835;-0.94262695;-;-;-;-;-;-;-;-;-;-;-;-;-;-;-
1514102935095;-;-;13.977844;0.34376526;-0.64216614;-;-;-;-;-;-;-;-;-;-;-;-;-;-;-
1514102935115;-;-;9.534195;4.324127;-9.832306;-;-;-;-;-;-;-;-;-;-;-;-;-;-;-
1514102935135;-;-;4.311249;7.7921143;-14.833786;-;-;-;-;-;-;-;-;-;-;-;-;-;-;-
1514102935156;-;-;4.469269;8.0914;-6.090164;-;-;-;-;-;-;-;-;-;-;-;-;-;-;-
1514102935176;-;-;10.335068;2.1765137;-5.666397;-;-;-;-;-;-;-;-;-;-;-;-;-;-;-
1514102935196;-;-;10.4823;-2.3700714;-8.97757;-;-;-;-;-;-;-;-;-;-;-;-;-;-;-
1514102935217;-;-;7.12204;-3.538437;-13.175812;-;-;-;-;-;-;-;-;-;-;-;-;-;-;-
1514102935237;-;-;8.793198;-0.114730835;-7.118469;-;-;-;-;-;-;-;-;-;-;-;-;-;-;-
1514102935258;-;-;8.274857;2.3860168;-4.441757;-;-;-;-;-;-;-;-;-;-;-;-;-;-;-
1514102935278;-;-;10.378159;1.0009613;-8.095306;-;-;-;-;-;-;-;-;-;-;-;-;-;-;-
1514102935298;-;-;9.4492035;1.4462891;-7.9767914;-;-;-;-;-;-;-;-;-;-;-;-;-;-;-
1514102935319;-;-;6.364273;1.5552216;-7.0011597;-;-;-;-;-;-;-;-;-;-;-;-;-;-;-
1514102935339;-;-;3.806076;-0.074035645;-5.726242;-;-;-;-;-;-;-;-;-;-;-;-;-;-;-
1514102935360;-;-;2.0690765;-1.6937103;-5.279724;-;-;-;-;-;-;-;-;-;-;-;-;-;-;-
1514102935380;-;-;1.4465942;-2.7256012;-4.907425;-;-;-;-;-;-;-;-;-;-;-;-;-;-;-
1514102935400;-;-;4.57341;-3.447464;-4.9002533;-;-;-;-;-;-;-;-;-;-;-;-;-;-;-
1514102935420;-;-;9.165497;-3.9215088;-5.10376;-;-;-;-;-;-;-;-;-;-;-;-;-;-;-
1514102935441;-;-;9.932831;-4.1812744;-4.386688;-;-;-;-;-;-;-;-;-;-;-;-;-;-;-
1514102935461;-;-;7.5518036;-3.19487;-2.5850525;-;-;-;-;-;-;-;-;-;-;-;-;-;-;-
1514102935481;-;-;5.902191;-2.2635193;-2.7861633;-;-;-;-;-;-;-;-;-;-;-;-;-;-;-
1514102935502;-;-;5.6065063;-2.1761322;-2.8544006;-;-;-;-;-;-;-;-;-;-;-;-;-;-;-
1514102935524;-;-;6.917343;-2.0743866;-2.017624;-;-;-;-;-;-;-;-;-;-;-;-;-;-;-
1514102935544;-;-;8.76207;-1.1035309;-2.0331879;-;-;-;-;-;-;-;-;-;-;-;-;-;-;-
1514102935564;-;-;9.477936;-0.21528625;-1.9398193;-;-;-;-;-;-;-;-;-;-;-;-;-;-;-
1514102935584;-;-;9.971146;-1.2388;-2.350418;-;-;-;-;-;-;-;-;-;-;-;-;-;-;-
1514102935605;-;-;11.090439;-1.9247437;-2.3216858;-;-;-;-;-;-;-;-;-;-;-;-;-;-;-
1514102935624;-;-;12.086426;-0.917984;-2.1947937;-;-;-;-;-;-;-;-;-;-;-;-;-;-;-
1514102935646;-;-;11.265213;0.15940857;-2.7382813;-;-;-;-;-;-;-;-;-;-;-;-;-;-;-
1514102935666;-;-;9.740097;-0.11114502;-8.783646;-;-;-;-;-;-;-;-;-;-;-;-;-;-;-
1514102935686;-;-;9.538986;1.1494141;-13.332626;-;-;-;-;-;-;-;-;-;-;-;-;-;-;-
1514102935707;-;-;9.65271;3.1030731;-8.794418;-;-;-;-;-;-;-;-;-;-;-;-;-;-;-
1514102935726;-;-;8.559753;1.7683105;-5.642456;-;-;-;-;-;-;-;-;-;-;-;-;-;-;-
1514102935746;-;-;8.936844;-0.5349121;-7.013138;-;-;-;-;-;-;-;-;-;-;-;-;-;-;-
1514102935766;-;-;10.380554;-0.8533478;-7.1316376;-;-;-;-;-;-;-;-;-;-;-;-;-;-;-
1514102935787;-;-;10.677429;0.6897278;-5.171997;-;-;-;-;-;-;-;-;-;-;-;-;-;-;-
1514102935806;-;-;9.451599;1.7754974;-4.714691;-;-;-;-;-;-;-;-;-;-;-;-;-;-;-
1514102935826;-;-;7.884598;1.9801941;-4.8379974;-;-;-;-;-;-;-;-;-;-;-;-;-;-;-
1514102935846;-;-;6.29126;1.6378326;-3.3368378;-;-;-;-;-;-;-;-;-;-;-;-;-;-;-
1514102935867;-;-;5.6065063;1.1709595;-1.7626495;-;-;-;-;-;-;-;-;-;-;-;-;-;-;-
1514102935887;-;-;5.3814545;1.0835724;-1.5878754;-;-;-;-;-;-;-;-;-;-;-;-;-;-;-
1514102935907;-;-;4.748184;1.5300903;-1.650116;-;-;-;-;-;-;-;-;-;-;-;-;-;-;-
1514102935928;-;-;5.0450745;2.169342;-1.3699951;-;-;-;-;-;-;-;-;-;-;-;-;-;-;-
1514102935947;-;-;7.020294;1.9538574;-1.8560181;-;-;-;-;-;-;-;-;-;-;-;-;-;-;-
1514102935967;-;-;8.643555;0.7986603;-2.6281433;-;-;-;-;-;-;-;-;-;-;-;-;-;-;-
1514102935987;-;-;8.185074;0.29588318;-1.7698364;-;-;-;-;-;-;-;-;-;-;-;-;-;-;-
1514102936008;-;-;8.135986;0.14144897;-0.38838196;-;-;-;-;-;-;-;-;-;-;-;-;-;-;-
1514102936028;-;-;8.630386;0.62268066;-0.6888428;-;-;-;-;-;-;-;-;-;-;-;-;-;-;-
1514102936048;-;-;9.117615;2.4147491;-2.3049316;-;-;-;-;-;-;-;-;-;-;-;-;-;-;-
1514102936069;-;-;8.876999;3.881195;-3.056717;-;-;-;-;-;-;-;-;-;-;-;-;-;-;-
1514102936089;-;-;9.835876;4.6593018;-1.9134827;-;-;-;-;-;-;-;-;-;-;-;-;-;-;-
1514102936109;-;-;10.585251;5.2039948;-1.7458801;-;-;-;-;-;-;-;-;-;-;-;-;-;-;-
1514102936129;-;-;12.297104;5.209976;-5.16481;-;-;-;-;-;-;-;-;-;-;-;-;-;-;-
1514102936150;-;-;14.175354;4.8197174;-7.8618774;-;-;-;-;-;-;-;-;-;-;-;-;-;-;-
1514102936170;-;-;14.998962;4.552765;-6.7078705;-;-;-;-;-;-;-;-;-;-;-;-;-;-;-
1514102936190;-;-;7.7445374;4.865204;-6.6731567;-;-;-;-;-;-;-;-;-;-;-;-;-;-;-
1514102936211;-;-;4.905014;5.134552;-6.053055;-;-;-;-;-;-;-;-;-;-;-;-;-;-;-
1514102936231;-;-;4.782913;3.5759277;-7.7397766;-;-;-;-;-;-;-;-;-;-;-;-;-;-;-
1514102936251;-;-;6.03627;-0.6725769;-9.420502;-;-;-;-;-;-;-;-;-;-;-;-;-;-;-
1514102936272;-;-;7.4404755;-3.8029938;-8.54303;-;-;-;-;-;-;-;-;-;-;-;-;-;-;-
1514102936292;-;-;10.02861;-1.783493;-4.2382507;-;-;-;-;-;-;-;-;-;-;-;-;-;-;-
1514102936312;-;-;9.929245;0.7795105;-4.6249084;-;-;-;-;-;-;-;-;-;-;-;-;-;-;-
1514102936332;-;-;8.016281;1.5635986;-5.120514;-;-;-;-;-;-;-;-;-;-;-;-;-;-;-
1514102936353;-;-;6.53067;1.7814789;-4.0598907;-;-;-;-;-;-;-;-;-;-;-;-;-;-;-
1514102936373;-;-;4.9145813;0.8237915;-2.9872742;-;-;-;-;-;-;-;-;-;-;-;-;-;-;-
1514102936394;-;-;4.062256;-1.3920441;-2.6772308;-;-;-;-;-;-;-;-;-;-;-;-;-;-;-
1514102936414;-;-;3.929367;-3.124237;-2.8340454;-;-;-;-;-;-;-;-;-;-;-;-;-;-;-
1514102936435;-;-;5.604126;-3.658142;-2.6221619;-;-;-;-;-;-;-;-;-;-;-;-;-;-;-
1514102936454;-;-;7.5877075;-2.7854614;-3.033966;-;-;-;-;-;-;-;-;-;-;-;-;-;-;-
1514102936474;-;-;10.539764;-0.8198242;-3.4314117;-;-;-;-;-;-;-;-;-;-;-;-;-;-;-
1514102936494;-;-;10.183029;-0.28471375;-4.089813;-;-;-;-;-;-;-;-;-;-;-;-;-;-;-
1514102936515;-;-;7.572159;-0.36013794;-4.5339355;-;-;-;-;-;-;-;-;-;-;-;-;-;-;-
1514102936535;-;-;5.8638916;-0.8377838;-3.733078;-;-;-;-;-;-;-;-;-;-;-;-;-;-;-
1514102936555;-;-;7.581726;-1.5907593;-3.180008;-;-;-;-;-;-;-;-;-;-;-;-;-;-;-
1514102936576;-;-;9.887344;-2.0684052;-3.369156;-;-;-;-;-;-;-;-;-;-;-;-;-;-;-
1514102936596;-;-;10.4487915;-2.5053406;-4.180786;-;-;-;-;-;-;-;-;-;-;-;-;-;-;-
1514102936616;-;-;10.363785;-3.266693;-5.1707916;-;-;-;-;-;-;-;-;-;-;-;-;-;-;-
1514102936636;-;-;10.491882;-2.416748;-5.1300964;-;-;-;-;-;-;-;-;-;-;-;-;-;-;-
1514102936657;-;-;10.423645;-1.2471924;-4.911026;-;-;-;-;-;-;-;-;-;-;-;-;-;-;-
1514102936676;-;-;10.16507;0.54367065;-5.34198;-;-;-;-;-;-;-;-;-;-;-;-;-;-;-
1514102936696;-;-;8.501099;0.27671814;-11.672241;-;-;-;-;-;-;-;-;-;-;-;-;-;-;-
1514102936716;-;-;7.53743;-2.0947418;-13.335022;-;-;-;-;-;-;-;-;-;-;-;-;-;-;-
1514102936736;-;-;10.1566925;-4.763077;-3.5630798;-;-;-;-;-;-;-;-;-;-;-;-;-;-;-
1514102936757;-;-;10.725311;-5.2610626;-4.35318;-;-;-;-;-;-;-;-;-;-;-;-;-;-;-
1514102936777;-;-;7.722992;-4.3632355;-10.880966;-;-;-;-;-;-;-;-;-;-;-;-;-;-;-
1514102936798;-;-;6.138031;-2.2252197;-9.544998;-;-;-;-;-;-;-;-;-;-;-;-;-;-;-
1514102936818;-;-;5.8435364;1.185318;-3.7079315;-;-;-;-;-;-;-;-;-;-;-;-;-;-;-
1514102936838;-;-;5.158798;2.473404;-1.9446106;-;-;-;-;-;-;-;-;-;-;-;-;-;-;-
1514102936859;-;-;4.9576874;1.5240936;-2.0319977;-;-;-;-;-;-;-;-;-;-;-;-;-;-;-
1514102936879;-;-;5.829178;0.23242188;-3.0830536;-;-;-;-;-;-;-;-;-;-;-;-;-;-;-
1514102936899;-;-;6.415756;-1.2771149;-3.70195;-;-;-;-;-;-;-;-;-;-;-;-;-;-;-
1514102936920;-;-;6.236191;-1.6374359;-3.5570984;-;-;-;-;-;-;-;-;-;-;-;-;-;-;-
1514102936940;-;-;5.000778;-0.38287354;-3.2949371;-;-;-;-;-;-;-;-;-;-;-;-;-;-;-
1514102936960;-;-;4.8942413;1.3517151;-3.4661255;-;-;-;-;-;-;-;-;-;-;-;-;-;-;-
1514102936980;-;-;5.8483276;2.6350098;-4.179596;-;-;-;-;-;-;-;-;-;-;-;-;-;-;-
1514102937001;-;-;8.006699;2.5033264;-5.171997;-;-;-;-;-;-;-;-;-;-;-;-;-;-;-
1514102937021;-;-;8.82312;1.8269653;-5.6735687;-;-;-;-;-;-;-;-;-;-;-;-;-;-;-
1514102937041;-;-;8.290421;2.303421;-5.393448;-;-;-;-;-;-;-;-;-;-;-;-;-;-;-
1514102937062;-;-;8.218582;2.9330902;-4.002426;-;-;-;-;-;-;-;-;-;-;-;-;-;-;-
1514102937082;-;-;7.8642426;3.714798;-3.326065;-;-;-;-;-;-;-;-;-;-;-;-;-;-;-
1514102937102;-;-;8.1766815;4.0451965;-3.0698853;-;-;-;-;-;-;-;-;-;-;-;-;-;-;-
1514102937123;-;-;9.710175;3.395172;-3.0291748;-;-;-;-;-;-;-;-;-;-;-;-;-;-;-
1514102937143;-;-;11.407669;2.7559204;-3.4302063;-;-;-;-;-;-;-;-;-;-;-;-;-;-;-
1514102937163;-;-;10.142334;2.3022156;-2.2055817;-;-;-;-;-;-;-;-;-;-;-;-;-;-;-
1514102937183;-;-;9.164291;1.4163666;-9.036224;-;-;-;-;-;-;-;-;-;-;-;-;-;-;-
1514102937204;-;-;13.078812;1.3600922;-7.804413;-;-;-;-;-;-;-;-;-;-;-;-;-;-;-
1514102937224;-;-;9.523422;4.4055176;-8.647171;-;-;-;-;-;-;-;-;-;-;-;-;-;-;-
1514102937244;-;-;10.120773;2.569168;-4.578232;-;-;-;-;-;-;-;-;-;-;-;-;-;-;-
1514102937267;-;-;5.2078857;1.6665497;-4.622528;-;-;-;-;-;-;-;-;-;-;-;-;-;-;-
1514102937286;-;-;3.2422333;0.25038147;-5.635269;-;-;-;-;-;-;-;-;-;-;-;-;-;-;-
1514102937306;-;-;2.8435974;-3.3421173;-4.8272247;-;-;-;-;-;-;-;-;-;-;-;-;-;-;-
1514102937326;-;-;5.260544;-3.4738007;-4.2574005;-;-;-;-;-;-;-;-;-;-;-;-;-;-;-
1514102937346;-;-;10.110001;0.51135254;-4.7865295;-;-;-;-;-;-;-;-;-;-;-;-;-;-;-
1514102937367;-;-;9.719757;2.2627106;-3.7426453;-;-;-;-;-;-;-;-;-;-;-;-;-;-;-
1514102937386;-;-;8.571732;1.8066101;-4.349579;-;-;-;-;-;-;-;-;-;-;-;-;-;-;-
1514102937406;-;-;6.2002716;0.6669769;-3.9258118;-;-;-;-;-;-;-;-;-;-;-;-;-;-;-
1514102937427;-;-;4.2262573;-0.9910126;-3.1297302;-;-;-;-;-;-;-;-;-;-;-;-;-;-;-
1514102937447;-;-;3.0914001;-2.6035004;-2.6233673;-;-;-;-;-;-;-;-;-;-;-;-;-;-;-
1514102937467;-;-;3.375122;-3.1649475;-2.5168152;-;-;-;-;-;-;-;-;-;-;-;-;-;-;-
1514102937488;-;-;6.2146454;-2.6118774;-2.5718842;-;-;-;-;-;-;-;-;-;-;-;-;-;-;-
1514102937508;-;-;8.653137;-0.8856659;-4.2083282;-;-;-;-;-;-;-;-;-;-;-;-;-;-;-
1514102937528;-;-;9.045776;-0.6354675;-4.887085;-;-;-;-;-;-;-;-;-;-;-;-;-;-;-
1514102937548;-;-;8.707001;-1.3309784;-4.2370605;-;-;-;-;-;-;-;-;-;-;-;-;-;-;-
1514102937569;-;-;8.240128;-2.183319;-3.8659515;-;-;-;-;-;-;-;-;-;-;-;-;-;-;-
1514102937589;-;-;8.124023;-1.8768616;-4.160446;-;-;-;-;-;-;-;-;-;-;-;-;-;-;-
1514102937609;-;-;9.391739;-1.8996124;-3.4242249;-;-;-;-;-;-;-;-;-;-;-;-;-;-;-
1514102937630;-;-;10.52301;-2.7196198;-3.6576538;-;-;-;-;-;-;-;-;-;-;-;-;-;-;-
1514102937650;-;-;12.522171;-3.3780212;-4.4429626;-;-;-;-;-;-;-;-;-;-;-;-;-;-;-
1514102937670;-;-;13.018967;-1.822998;-4.6536407;-;-;-;-;-;-;-;-;-;-;-;-;-;-;-
1514102937690;-;-;10.397308;-0.45948792;-6.914963;-;-;-;-;-;-;-;-;-;-;-;-;-;-;-
1514102937711;-;-;7.997116;-1.5332947;-10.928848;-;-;-;-;-;-;-;-;-;-;-;-;-;-;-
1514102937731;-;-;8.819534;-3.5839233;-10.712173;-;-;-;-;-;-;-;-;-;-;-;-;-;-;-
1514102937752;-;-;12.716095;-5.041992;-0.9905243;-;-;-;-;-;-;-;-;-;-;-;-;-;-;-
1514102937774;-;-;11.875732;-2.396408;-8.707031;-;-;-;-;-;-;-;-;-;-;-;-;-;-;-
1514102937794;-;-;8.620819;-1.2244415;-13.555283;-;-;-;-;-;-;-;-;-;-;-;-;-;-;-
1514102937814;-;-;6.9185333;1.461853;-6.923355;-;-;-;-;-;-;-;-;-;-;-;-;-;-;-
1514102937835;-;-;4.7565765;3.0695648;-2.6760406;-;-;-;-;-;-;-;-;-;-;-;-;-;-;-
1514102937855;-;-;3.363144;0.86569214;-1.1772614;-;-;-;-;-;-;-;-;-;-;-;-;-;-;-
1514102937875;-;-;3.818039;-0.4954071;-1.5136566;-;-;-;-;-;-;-;-;-;-;-;-;-;-;-
1514102937896;-;-;4.9648743;-2.0911407;-2.1385345;-;-;-;-;-;-;-;-;-;-;-;-;-;-;-
1514102937916;-;-;6.6216583;-3.19487;-3.44458;-;-;-;-;-;-;-;-;-;-;-;-;-;-;-
1514102937935;-;-;5.71904;-2.0396729;-3.9449615;-;-;-;-;-;-;-;-;-;-;-;-;-;-;-
1514102937955;-;-;4.259781;1.4259338;-3.4541473;-;-;-;-;-;-;-;-;-;-;-;-;-;-;-
1514102937975;-;-;3.687561;3.924286;-3.5415344;-;-;-;-;-;-;-;-;-;-;-;-;-;-;-
1514102937996;-;-;6.2541504;4.152939;-3.2183228;-;-;-;-;-;-;-;-;-;-;-;-;-;-;-
1514102938016;-;-;9.063736;1.7635193;-5.270157;-;-;-;-;-;-;-;-;-;-;-;-;-;-;-
1514102938036;-;-;9.470749;0.38565063;-6.705475;-;-;-;-;-;-;-;-;-;-;-;-;-;-;-
1514102938057;-;-;8.590881;1.1817322;-5.468872;-;-;-;-;-;-;-;-;-;-;-;-;-;-;-
1514102938077;-;-;8.320343;2.5871277;-4.1927643;-;-;-;-;-;-;-;-;-;-;-;-;-;-;-
1514102938097;-;-;9.3151245;3.3029938;-3.7043457;-;-;-;-;-;-;-;-;-;-;-;-;-;-;-
1514102938118;-;-;10.234512;4.528824;-3.6313171;-;-;-;-;-;-;-;-;-;-;-;-;-;-;-
1514102938137;-;-;10.628357;4.932251;-3.5726624;-;-;-;-;-;-;-;-;-;-;-;-;-;-;-
1514102938157;-;-;10.631943;3.7040253;-2.136139;-;-;-;-;-;-;-;-;-;-;-;-;-;-;-
1514102938178;-;-;8.526245;0.8704834;-7.2250214;-;-;-;-;-;-;-;-;-;-;-;-;-;-;-
1514102938198;-;-;11.038956;0.14982605;-11.096436;-;-;-;-;-;-;-;-;-;-;-;-;-;-;-
1514102938218;-;-;8.079727;2.1322327;-9.5976715;-;-;-;-;-;-;-;-;-;-;-;-;-;-;-
1514102938239;-;-;11.420837;2.8828125;-5.9369354;-;-;-;-;-;-;-;-;-;-;-;-;-;-;-
