TimeStamp[ms];Prox[Cm];Lux[lux];AccX[m/s^2];AccY[m/s^2];AccZ[m/s^2];GyroX[rad/s];GyroY[rad/s];GyroZ[rad/s];MagnX[uT];MagnY[uT];MagnZ[uT];OrienYaw[degrees];OrienPitch[degrees];OrienRoll[degrees];Press[Pa];Temp[C°];Batt[%];Lat;Lng;Speed[m/s]
1514176723544;-;-;8.356247;-2.8333435;1.6969757;-;-;-;-;-;-;-;-;-;-;-;-;-;-;-
1514176723549;-;-;8.84108;-2.3066254;0.14553833;-;-;-;-;-;-;-;-;-;-;-;-;-;-;-
1514176723568;-;-;8.687851;-2.0181274;-0.25549316;-;-;-;-;-;-;-;-;-;-;-;-;-;-;-
1514176723588;-;-;8.420898;-2.6621552;1.9100647;-;-;-;-;-;-;-;-;-;-;-;-;-;-;-
1514176723608;-;-;8.546585;-1.819397;0.5657196;-;-;-;-;-;-;-;-;-;-;-;-;-;-;-
1514176723629;-;-;7.842697;-2.0276947;1.1534882;-;-;-;-;-;-;-;-;-;-;-;-;-;-;-
1514176723650;-;-;6.632431;-1.5680084;-0.31774902;-;-;-;-;-;-;-;-;-;-;-;-;-;-;-
1514176723670;-;-;7.0502167;-2.3161926;-1.0288239;-;-;-;-;-;-;-;-;-;-;-;-;-;-;-
1514176723690;-;-;8.752487;-2.590332;-0.43745422;-;-;-;-;-;-;-;-;-;-;-;-;-;-;-
1514176723710;-;-;11.544128;-1.6697693;-0.15733337;-;-;-;-;-;-;-;-;-;-;-;-;-;-;-
1514176723731;-;-;12.939957;-1.0137482;-0.30577087;-;-;-;-;-;-;-;-;-;-;-;-;-;-;-
1514176723751;-;-;10.949173;-1.4925995;-1.4765472;-;-;-;-;-;-;-;-;-;-;-;-;-;-;-
1514176723771;-;-;10.276398;-1.3848572;-1.2251434;-;-;-;-;-;-;-;-;-;-;-;-;-;-;-
1514176723796;-;-;9.878967;-2.0947418;-1.1030426;-;-;-;-;-;-;-;-;-;-;-;-;-;-;-
1514176723812;-;-;8.906921;-2.3006287;-1.3125305;-;-;-;-;-;-;-;-;-;-;-;-;-;-;-
1514176723832;-;-;8.763275;-2.3988037;-1.1162109;-;-;-;-;-;-;-;-;-;-;-;-;-;-;-
1514176723853;-;-;8.406525;-2.6633606;-1.3987274;-;-;-;-;-;-;-;-;-;-;-;-;-;-;-
1514176723873;-;-;8.906921;-2.6394196;-1.085083;-;-;-;-;-;-;-;-;-;-;-;-;-;-;-
1514176723893;-;-;8.994308;-2.70047;-0.7451172;-;-;-;-;-;-;-;-;-;-;-;-;-;-;-
1514176723914;-;-;9.286407;-2.696869;-1.0886841;-;-;-;-;-;-;-;-;-;-;-;-;-;-;-
1514176723934;-;-;9.282806;-2.4837952;-0.7020111;-;-;-;-;-;-;-;-;-;-;-;-;-;-;-
1514176723955;-;-;8.526245;-1.9822083;-1.9529877;-;-;-;-;-;-;-;-;-;-;-;-;-;-;-
1514176723975;-;-;8.936844;-1.9666443;-1.7303314;-;-;-;-;-;-;-;-;-;-;-;-;-;-;-
1514176723995;-;-;8.953613;-2.071991;-1.1533203;-;-;-;-;-;-;-;-;-;-;-;-;-;-;-
1514176724015;-;-;9.002686;-2.1940918;-1.1365662;-;-;-;-;-;-;-;-;-;-;-;-;-;-;-
1514176724041;-;-;8.5082855;-1.8146057;-1.0168457;-;-;-;-;-;-;-;-;-;-;-;-;-;-;-
1514176724058;-;-;8.888962;-1.827774;-1.8308868;-;-;-;-;-;-;-;-;-;-;-;-;-;-;-
1514176724079;-;-;7.684677;-1.6996918;-1.2203674;-;-;-;-;-;-;-;-;-;-;-;-;-;-;-
1514176724099;-;-;11.119156;-2.2252197;-1.4430237;-;-;-;-;-;-;-;-;-;-;-;-;-;-;-
1514176724119;-;-;10.118393;-2.3796387;-1.4573822;-;-;-;-;-;-;-;-;-;-;-;-;-;-;-
1514176724140;-;-;9.880157;-2.519699;-1.1425476;-;-;-;-;-;-;-;-;-;-;-;-;-;-;-
1514176724160;-;-;8.84108;-2.1126862;-0.96058655;-;-;-;-;-;-;-;-;-;-;-;-;-;-;-
1514176724180;-;-;8.197037;-2.0073395;-1.1497345;-;-;-;-;-;-;-;-;-;-;-;-;-;-;-
1514176724201;-;-;8.5633545;-2.5316772;-1.5663147;-;-;-;-;-;-;-;-;-;-;-;-;-;-;-
1514176724221;-;-;9.327103;-2.566391;-1.6058197;-;-;-;-;-;-;-;-;-;-;-;-;-;-;-
1514176724241;-;-;9.390549;-2.6992645;-0.8061676;-;-;-;-;-;-;-;-;-;-;-;-;-;-;-
1514176724262;-;-;9.203796;-1.9941711;-0.709198;-;-;-;-;-;-;-;-;-;-;-;-;-;-;-
1514176724282;-;-;8.802765;-1.7487793;-1.9697418;-;-;-;-;-;-;-;-;-;-;-;-;-;-;-
1514176724302;-;-;8.398148;-2.368866;-1.526825;-;-;-;-;-;-;-;-;-;-;-;-;-;-;-
1514176724322;-;-;8.728546;-2.566391;-0.867218;-;-;-;-;-;-;-;-;-;-;-;-;-;-;-
1514176724343;-;-;10.20697;-2.3377533;-1.3915405;-;-;-;-;-;-;-;-;-;-;-;-;-;-;-
1514176724363;-;-;9.346252;-2.0516357;-1.9625702;-;-;-;-;-;-;-;-;-;-;-;-;-;-;-
1514176724383;-;-;9.872986;-2.2443695;-1.5136566;-;-;-;-;-;-;-;-;-;-;-;-;-;-;-
1514176724404;-;-;9.695816;-2.997345;-1.5818787;-;-;-;-;-;-;-;-;-;-;-;-;-;-;-
1514176724423;-;-;8.793198;-2.3521118;-1.5663147;-;-;-;-;-;-;-;-;-;-;-;-;-;-;-
1514176724443;-;-;8.548981;-0.71328735;-1.148529;-;-;-;-;-;-;-;-;-;-;-;-;-;-;-
1514176724463;-;-;9.160706;-1.3309784;-0.5619507;-;-;-;-;-;-;-;-;-;-;-;-;-;-;-
1514176724484;-;-;9.886154;-1.680542;-1.0336151;-;-;-;-;-;-;-;-;-;-;-;-;-;-;-
1514176724504;-;-;8.039017;-1.3501434;-2.1277618;-;-;-;-;-;-;-;-;-;-;-;-;-;-;-
1514176724524;-;-;8.158737;-1.4866028;-2.128952;-;-;-;-;-;-;-;-;-;-;-;-;-;-;-
1514176724545;-;-;7.952835;-0.033325195;-1.1856384;-;-;-;-;-;-;-;-;-;-;-;-;-;-;-
1514176724564;-;-;9.116409;-0.6977234;-2.2642365;-;-;-;-;-;-;-;-;-;-;-;-;-;-;-
1514176724584;-;-;9.525818;0.048080444;-1.006073;-;-;-;-;-;-;-;-;-;-;-;-;-;-;-
1514176724604;-;-;7.5948944;-0.39964294;-2.6245575;-;-;-;-;-;-;-;-;-;-;-;-;-;-;-
1514176724624;-;-;8.23056;1.4678345;-1.8260956;-;-;-;-;-;-;-;-;-;-;-;-;-;-;-
1514176724645;-;-;9.080505;0.48143005;-1.9122772;-;-;-;-;-;-;-;-;-;-;-;-;-;-;-
1514176724665;-;-;8.886566;0.6717682;-1.3807678;-;-;-;-;-;-;-;-;-;-;-;-;-;-;-
1514176724686;-;-;8.539413;0.14503479;-1.4083099;-;-;-;-;-;-;-;-;-;-;-;-;-;-;-
1514176724706;-;-;8.649536;-0.24880981;-1.2466888;-;-;-;-;-;-;-;-;-;-;-;-;-;-;-
1514176724725;-;-;9.469559;-1.0999451;-0.5787201;-;-;-;-;-;-;-;-;-;-;-;-;-;-;-
1514176724746;-;-;8.345474;-2.040863;-0.029251099;-;-;-;-;-;-;-;-;-;-;-;-;-;-;-
1514176724766;-;-;8.790802;-2.5556183;-1.2610626;-;-;-;-;-;-;-;-;-;-;-;-;-;-;-
1514176724786;-;-;8.708206;-3.265503;-1.5280151;-;-;-;-;-;-;-;-;-;-;-;-;-;-;-
1514176724806;-;-;12.039734;-3.9801636;-0.7295532;-;-;-;-;-;-;-;-;-;-;-;-;-;-;-
1514176724827;-;-;10.347031;-1.6278687;-4.4501343;-;-;-;-;-;-;-;-;-;-;-;-;-;-;-
1514176724847;-;-;7.462021;-0.55526733;-0.69244385;-;-;-;-;-;-;-;-;-;-;-;-;-;-;-
1514176724867;-;-;8.955994;-0.3194275;-2.4629517;-;-;-;-;-;-;-;-;-;-;-;-;-;-;-
1514176724887;-;-;10.349426;-0.48942566;-1.9039001;-;-;-;-;-;-;-;-;-;-;-;-;-;-;-
1514176724908;-;-;8.576523;-0.957489;-2.7514496;-;-;-;-;-;-;-;-;-;-;-;-;-;-;-
1514176724929;-;-;7.884598;-0.6833496;-2.2893677;-;-;-;-;-;-;-;-;-;-;-;-;-;-;-
1514176724949;-;-;8.46759;-0.7264557;-2.6903992;-;-;-;-;-;-;-;-;-;-;-;-;-;-;-
1514176724969;-;-;8.64476;-0.3697052;-3.0088348;-;-;-;-;-;-;-;-;-;-;-;-;-;-;-
1514176724989;-;-;8.625595;-0.720459;-3.3739471;-;-;-;-;-;-;-;-;-;-;-;-;-;-;-
1514176725010;-;-;8.711792;-1.4614716;-3.3344421;-;-;-;-;-;-;-;-;-;-;-;-;-;-;-
1514176725030;-;-;8.977554;-1.9474945;-3.3871155;-;-;-;-;-;-;-;-;-;-;-;-;-;-;-
1514176725051;-;-;8.794388;-1.8888397;-3.607376;-;-;-;-;-;-;-;-;-;-;-;-;-;-;-
1514176725071;-;-;8.332306;-0.97784424;-3.9126434;-;-;-;-;-;-;-;-;-;-;-;-;-;-;-
1514176725092;-;-;7.110077;0.41558838;-3.942566;-;-;-;-;-;-;-;-;-;-;-;-;-;-;-
1514176725112;-;-;7.0933075;0.6825409;-3.7210999;-;-;-;-;-;-;-;-;-;-;-;-;-;-;-
1514176725132;-;-;7.1076813;0.22525024;-3.6241455;-;-;-;-;-;-;-;-;-;-;-;-;-;-;-
1514176725152;-;-;7.463211;-0.7300415;-3.5774536;-;-;-;-;-;-;-;-;-;-;-;-;-;-;-
1514176725172;-;-;7.7457275;-1.2579651;-3.2650146;-;-;-;-;-;-;-;-;-;-;-;-;-;-;-
1514176725193;-;-;8.084518;-1.0317078;-4.093399;-;-;-;-;-;-;-;-;-;-;-;-;-;-;-
1514176725212;-;-;8.479553;-0.7982788;-4.5686493;-;-;-;-;-;-;-;-;-;-;-;-;-;-;-
1514176725233;-;-;8.98114;-1.0197449;-4.5303497;-;-;-;-;-;-;-;-;-;-;-;-;-;-;-
1514176725253;-;-;9.88974;-1.4638672;-4.5135803;-;-;-;-;-;-;-;-;-;-;-;-;-;-;-
1514176725273;-;-;10.411682;-1.4327393;-4.4585114;-;-;-;-;-;-;-;-;-;-;-;-;-;-;-
1514176725293;-;-;9.962769;-0.19613647;-4.709915;-;-;-;-;-;-;-;-;-;-;-;-;-;-;-
1514176725314;-;-;8.537018;0.51493835;-4.5375214;-;-;-;-;-;-;-;-;-;-;-;-;-;-;-
1514176725335;-;-;6.8395233;1.046463;-4.268173;-;-;-;-;-;-;-;-;-;-;-;-;-;-;-
1514176725354;-;-;5.513138;1.1841278;-3.740265;-;-;-;-;-;-;-;-;-;-;-;-;-;-;-
1514176725375;-;-;4.766144;1.0117493;-3.2913513;-;-;-;-;-;-;-;-;-;-;-;-;-;-;-
1514176725395;-;-;4.569824;0.556839;-2.9968567;-;-;-;-;-;-;-;-;-;-;-;-;-;-;-
1514176725416;-;-;4.450119;-0.18296814;-3.4505615;-;-;-;-;-;-;-;-;-;-;-;-;-;-;-
1514176725435;-;-;4.5662384;-0.3074646;-4.5686493;-;-;-;-;-;-;-;-;-;-;-;-;-;-;-
1514176725455;-;-;3.8958588;-0.3936615;-4.635681;-;-;-;-;-;-;-;-;-;-;-;-;-;-;-
1514176725476;-;-;2.845993;0.5460663;-6.2613525;-;-;-;-;-;-;-;-;-;-;-;-;-;-;-
1514176725496;-;-;4.1316833;1.0739899;-5.4628906;-;-;-;-;-;-;-;-;-;-;-;-;-;-;-
1514176725516;-;-;8.750107;0.8190155;-6.243393;-;-;-;-;-;-;-;-;-;-;-;-;-;-;-
1514176725536;-;-;8.833893;0.25756836;-6.132065;-;-;-;-;-;-;-;-;-;-;-;-;-;-;-
1514176725557;-;-;7.691864;-0.4487152;-5.771744;-;-;-;-;-;-;-;-;-;-;-;-;-;-;-
1514176725578;-;-;5.0091553;-0.75756836;-6.0997467;-;-;-;-;-;-;-;-;-;-;-;-;-;-;-
1514176725598;-;-;3.940155;-1.0317078;-4.175995;-;-;-;-;-;-;-;-;-;-;-;-;-;-;-
1514176725618;-;-;4.2418213;-2.0588226;-3.214737;-;-;-;-;-;-;-;-;-;-;-;-;-;-;-
1514176725638;-;-;5.2114716;-3.028473;-4.696747;-;-;-;-;-;-;-;-;-;-;-;-;-;-;-
1514176725659;-;-;6.2541504;-2.3892212;-6.2613525;-;-;-;-;-;-;-;-;-;-;-;-;-;-;-
1514176725679;-;-;6.858673;-0.6833496;-7.7505493;-;-;-;-;-;-;-;-;-;-;-;-;-;-;-
1514176725699;-;-;6.139221;1.1134949;-9.09848;-;-;-;-;-;-;-;-;-;-;-;-;-;-;-
1514176725720;-;-;6.347519;2.3297424;-9.586899;-;-;-;-;-;-;-;-;-;-;-;-;-;-;-
1514176725740;-;-;6.825165;3.0264587;-8.786041;-;-;-;-;-;-;-;-;-;-;-;-;-;-;-
1514176725760;-;-;6.185913;2.3979797;-8.7165985;-;-;-;-;-;-;-;-;-;-;-;-;-;-;-
1514176725781;-;-;6.692276;-0.67378235;-8.805191;-;-;-;-;-;-;-;-;-;-;-;-;-;-;-
1514176725801;-;-;6.023102;-2.1306458;-8.817169;-;-;-;-;-;-;-;-;-;-;-;-;-;-;-
1514176725821;-;-;4.9696503;-1.7344055;-8.353882;-;-;-;-;-;-;-;-;-;-;-;-;-;-;-
1514176725842;-;-;5.394623;-0.625885;-8.370636;-;-;-;-;-;-;-;-;-;-;-;-;-;-;-
1514176725862;-;-;6.038666;0.0025787354;-8.84111;-;-;-;-;-;-;-;-;-;-;-;-;-;-;-
1514176725882;-;-;6.7401733;0.22164917;-9.458801;-;-;-;-;-;-;-;-;-;-;-;-;-;-;-
1514176725903;-;-;6.889801;0.39164734;-9.780823;-;-;-;-;-;-;-;-;-;-;-;-;-;-;-
1514176725922;-;-;6.218231;0.39283752;-9.925674;-;-;-;-;-;-;-;-;-;-;-;-;-;-;-
1514176725943;-;-;6.205063;-0.015365601;-9.386978;-;-;-;-;-;-;-;-;-;-;-;-;-;-;-
1514176725963;-;-;7.5793304;-0.0069885254;-8.678299;-;-;-;-;-;-;-;-;-;-;-;-;-;-;-
1514176725983;-;-;7.973175;0.095962524;-8.7621;-;-;-;-;-;-;-;-;-;-;-;-;-;-;-
1514176726004;-;-;8.570541;0.31263733;-8.470001;-;-;-;-;-;-;-;-;-;-;-;-;-;-;-
1514176726024;-;-;13.108749;-0.58877563;-8.616043;-;-;-;-;-;-;-;-;-;-;-;-;-;-;-
1514176726044;-;-;15.589142;-0.41879272;-9.6527405;-;-;-;-;-;-;-;-;-;-;-;-;-;-;-
1514176726065;-;-;11.128738;-1.3297882;-11.418457;-;-;-;-;-;-;-;-;-;-;-;-;-;-;-
1514176726085;-;-;9.279221;-1.5715942;-9.801178;-;-;-;-;-;-;-;-;-;-;-;-;-;-;-
1514176726105;-;-;10.478714;-1.2447968;-6.1177063;-;-;-;-;-;-;-;-;-;-;-;-;-;-;-
1514176726125;-;-;8.594482;0.007369995;-3.9377747;-;-;-;-;-;-;-;-;-;-;-;-;-;-;-
1514176726145;-;-;6.51033;0.18095398;-1.753067;-;-;-;-;-;-;-;-;-;-;-;-;-;-;-
1514176726166;-;-;5.505951;0.31263733;-0.1309967;-;-;-;-;-;-;-;-;-;-;-;-;-;-;-
1514176726186;-;-;5.589752;0.08518982;1.2983398;-;-;-;-;-;-;-;-;-;-;-;-;-;-;-
1514176726206;-;-;5.9393005;-0.58877563;1.4001007;-;-;-;-;-;-;-;-;-;-;-;-;-;-;-
1514176726227;-;-;7.0418396;-0.7779236;-0.008895874;-;-;-;-;-;-;-;-;-;-;-;-;-;-;-
1514176726247;-;-;8.926071;-0.6905365;-2.2103577;-;-;-;-;-;-;-;-;-;-;-;-;-;-;-
1514176726268;-;-;9.966354;-0.48703003;-3.317688;-;-;-;-;-;-;-;-;-;-;-;-;-;-;-
1514176726288;-;-;10.427231;-1.1035309;-3.2279053;-;-;-;-;-;-;-;-;-;-;-;-;-;-;-
1514176726308;-;-;10.725311;-1.4387207;-2.3216858;-;-;-;-;-;-;-;-;-;-;-;-;-;-;-
1514176726328;-;-;10.768417;-0.88327026;-1.4358368;-;-;-;-;-;-;-;-;-;-;-;-;-;-;-
1514176726348;-;-;10.177048;-0.13388062;-0.7977905;-;-;-;-;-;-;-;-;-;-;-;-;-;-;-
1514176726369;-;-;9.391739;0.34376526;-0.34288025;-;-;-;-;-;-;-;-;-;-;-;-;-;-;-
1514176726389;-;-;8.552582;0.46466064;0.1539154;-;-;-;-;-;-;-;-;-;-;-;-;-;-;-
1514176726410;-;-;7.877411;0.37727356;0.45318604;-;-;-;-;-;-;-;-;-;-;-;-;-;-;-
1514176726430;-;-;7.672714;-0.31225586;0.6136017;-;-;-;-;-;-;-;-;-;-;-;-;-;-;-
1514176726451;-;-;8.399353;-0.6977234;0.058151245;-;-;-;-;-;-;-;-;-;-;-;-;-;-;-
1514176726471;-;-;8.924881;-0.5732269;-0.91030884;-;-;-;-;-;-;-;-;-;-;-;-;-;-;-
1514176726491;-;-;9.25528;-0.083602905;-1.0491791;-;-;-;-;-;-;-;-;-;-;-;-;-;-;-
1514176726511;-;-;9.419281;0.08279419;-0.52963257;-;-;-;-;-;-;-;-;-;-;-;-;-;-;-
1514176726532;-;-;9.487518;-0.04649353;-0.23753357;-;-;-;-;-;-;-;-;-;-;-;-;-;-;-
1514176726552;-;-;9.657501;-0.12908936;-0.2111969;-;-;-;-;-;-;-;-;-;-;-;-;-;-;-
1514176726572;-;-;9.369003;0.100753784;-0.372818;-;-;-;-;-;-;-;-;-;-;-;-;-;-;-
1514176726593;-;-;9.030228;0.4945984;-0.06036377;-;-;-;-;-;-;-;-;-;-;-;-;-;-;-
1514176726613;-;-;8.918884;0.5843811;0.14193726;-;-;-;-;-;-;-;-;-;-;-;-;-;-;-
1514176726633;-;-;8.844666;0.44311523;0.1539154;-;-;-;-;-;-;-;-;-;-;-;-;-;-;-
1514176726653;-;-;8.935654;-0.00579834;0.041381836;-;-;-;-;-;-;-;-;-;-;-;-;-;-;-
1514176726674;-;-;9.312744;-0.21409607;-0.10824585;-;-;-;-;-;-;-;-;-;-;-;-;-;-;-
1514176726694;-;-;9.550964;-0.09677124;-0.25909424;-;-;-;-;-;-;-;-;-;-;-;-;-;-;-
1514176726714;-;-;9.640747;0.31263733;-0.20521545;-;-;-;-;-;-;-;-;-;-;-;-;-;-;-
1514176726735;-;-;9.359421;0.35572815;-0.25909424;-;-;-;-;-;-;-;-;-;-;-;-;-;-;-
1514176726755;-;-;9.284012;-0.15663147;-0.40393066;-;-;-;-;-;-;-;-;-;-;-;-;-;-;-
1514176726775;-;-;9.220566;-0.5384979;-0.6804657;-;-;-;-;-;-;-;-;-;-;-;-;-;-;-
1514176726795;-;-;9.137955;-0.6689911;-1.2383118;-;-;-;-;-;-;-;-;-;-;-;-;-;-;-
1514176726816;-;-;9.099655;-0.6833496;-1.5531616;-;-;-;-;-;-;-;-;-;-;-;-;-;-;-
1514176726836;-;-;9.579697;-0.5756073;-1.6752625;-;-;-;-;-;-;-;-;-;-;-;-;-;-;-
1514176726858;-;-;9.87178;-0.44273376;-1.6620941;-;-;-;-;-;-;-;-;-;-;-;-;-;-;-
1514176726878;-;-;9.653915;-1.0005798;-1.7398987;-;-;-;-;-;-;-;-;-;-;-;-;-;-;-
1514176726898;-;-;9.571304;-1.6087189;-1.7363129;-;-;-;-;-;-;-;-;-;-;-;-;-;-;-
1514176726918;-;-;9.509064;-1.4722443;-1.7051849;-;-;-;-;-;-;-;-;-;-;-;-;-;-;-
1514176726939;-;-;9.09845;-0.74560547;-1.7662354;-;-;-;-;-;-;-;-;-;-;-;-;-;-;-
1514176726959;-;-;8.929672;-0.67736816;-1.5100555;-;-;-;-;-;-;-;-;-;-;-;-;-;-;-
1514176726980;-;-;9.3498535;-0.5097656;-1.618988;-;-;-;-;-;-;-;-;-;-;-;-;-;-;-
1514176727001;-;-;9.272034;-0.90122986;-2.0834656;-;-;-;-;-;-;-;-;-;-;-;-;-;-;-
1514176727021;-;-;9.003891;-0.7707367;-2.5371704;-;-;-;-;-;-;-;-;-;-;-;-;-;-;-
1514176727041;-;-;9.284012;-0.95988464;-2.3695831;-;-;-;-;-;-;-;-;-;-;-;-;-;-;-
1514176727061;-;-;8.861435;-0.4846344;-2.9920654;-;-;-;-;-;-;-;-;-;-;-;-;-;-;-
1514176727082;-;-;9.196625;0.024139404;-2.614975;-;-;-;-;-;-;-;-;-;-;-;-;-;-;-
1514176727102;-;-;9.406113;-0.052474976;-2.547943;-;-;-;-;-;-;-;-;-;-;-;-;-;-;-
1514176727122;-;-;9.258865;0.22285461;-2.5168152;-;-;-;-;-;-;-;-;-;-;-;-;-;-;-
1514176727143;-;-;8.951218;0.4981842;-2.0870667;-;-;-;-;-;-;-;-;-;-;-;-;-;-;-
1514176727163;-;-;9.347458;0.5951538;-1.401123;-;-;-;-;-;-;-;-;-;-;-;-;-;-;-
1514176727183;-;-;9.165497;0.9064026;-1.4370422;-;-;-;-;-;-;-;-;-;-;-;-;-;-;-
1514176727203;-;-;8.690247;0.97224426;-1.5890656;-;-;-;-;-;-;-;-;-;-;-;-;-;-;-
1514176727224;-;-;8.92009;0.73880005;-1.4262543;-;-;-;-;-;-;-;-;-;-;-;-;-;-;-
1514176727243;-;-;9.153519;0.22285461;-1.784195;-;-;-;-;-;-;-;-;-;-;-;-;-;-;-
1514176727263;-;-;9.121201;0.095962524;-1.6656799;-;-;-;-;-;-;-;-;-;-;-;-;-;-;-
1514176727284;-;-;8.807556;-0.26437378;-1.6884308;-;-;-;-;-;-;-;-;-;-;-;-;-;-;-
1514176727304;-;-;9.020645;-0.35176086;-1.4035187;-;-;-;-;-;-;-;-;-;-;-;-;-;-;-
1514176727325;-;-;9.184647;-0.4056244;-1.3592224;-;-;-;-;-;-;-;-;-;-;-;-;-;-;-
1514176727345;-;-;9.055359;-0.03213501;-1.4334412;-;-;-;-;-;-;-;-;-;-;-;-;-;-;-
1514176727365;-;-;8.867416;0.4359436;-1.2945862;-;-;-;-;-;-;-;-;-;-;-;-;-;-;-
1514176727385;-;-;8.995499;0.58317566;-1.2311401;-;-;-;-;-;-;-;-;-;-;-;-;-;-;-
1514176727406;-;-;9.254074;0.49339294;-1.1078339;-;-;-;-;-;-;-;-;-;-;-;-;-;-;-
1514176727426;-;-;9.480331;0.31982422;-1.3292999;-;-;-;-;-;-;-;-;-;-;-;-;-;-;-
1514176727446;-;-;9.021835;0.14025879;-1.8141174;-;-;-;-;-;-;-;-;-;-;-;-;-;-;-
1514176727467;-;-;8.971558;-0.015365601;-2.2247314;-;-;-;-;-;-;-;-;-;-;-;-;-;-;-
1514176727487;-;-;8.959595;-0.4451294;-2.4162598;-;-;-;-;-;-;-;-;-;-;-;-;-;-;-
1514176727507;-;-;9.647919;-0.69651794;-2.3085175;-;-;-;-;-;-;-;-;-;-;-;-;-;-;-
1514176727528;-;-;9.473145;-0.73602295;-2.673645;-;-;-;-;-;-;-;-;-;-;-;-;-;-;-
1514176727547;-;-;9.473145;-0.80426025;-2.2534637;-;-;-;-;-;-;-;-;-;-;-;-;-;-;-
1514176727567;-;-;8.569336;-0.3864746;-2.0307922;-;-;-;-;-;-;-;-;-;-;-;-;-;-;-
1514176727588;-;-;9.383362;-0.34457397;-1.6285706;-;-;-;-;-;-;-;-;-;-;-;-;-;-;-
1514176727608;-;-;9.001495;-0.2775421;-1.5387878;-;-;-;-;-;-;-;-;-;-;-;-;-;-;-
1514176727628;-;-;9.0182495;-0.41999817;-1.3209229;-;-;-;-;-;-;-;-;-;-;-;-;-;-;-
1514176727649;-;-;8.954803;-0.3577423;-1.1545258;-;-;-;-;-;-;-;-;-;-;-;-;-;-;-
1514176727669;-;-;8.918884;-0.25239563;-1.1449432;-;-;-;-;-;-;-;-;-;-;-;-;-;-;-
1514176727689;-;-;8.541809;-0.25479126;-1.4897003;-;-;-;-;-;-;-;-;-;-;-;-;-;-;-
1514176727710;-;-;9.127182;-0.41999817;-1.0395966;-;-;-;-;-;-;-;-;-;-;-;-;-;-;-
1514176727730;-;-;9.705383;-0.5648346;-0.9941101;-;-;-;-;-;-;-;-;-;-;-;-;-;-;-
1514176727750;-;-;10.193802;-0.4152069;-0.8241272;-;-;-;-;-;-;-;-;-;-;-;-;-;-;-
1514176727770;-;-;9.304352;-0.21768188;-0.61343384;-;-;-;-;-;-;-;-;-;-;-;-;-;-;-
1514176727791;-;-;7.890579;-0.24162292;-1.5663147;-;-;-;-;-;-;-;-;-;-;-;-;-;-;-
1514176727811;-;-;8.304779;-0.45829773;-1.8727875;-;-;-;-;-;-;-;-;-;-;-;-;-;-;-
1514176727831;-;-;10.818695;-0.8892517;-1.6034393;-;-;-;-;-;-;-;-;-;-;-;-;-;-;-
1514176727852;-;-;11.532166;-0.79348755;-1.1760712;-;-;-;-;-;-;-;-;-;-;-;-;-;-;-
1514176727872;-;-;9.768829;-0.35176086;-0.8863678;-;-;-;-;-;-;-;-;-;-;-;-;-;-;-
1514176727893;-;-;7.767273;-0.621109;-0.8600311;-;-;-;-;-;-;-;-;-;-;-;-;-;-;-
1514176727913;-;-;7.43927;-0.86531067;-0.7271576;-;-;-;-;-;-;-;-;-;-;-;-;-;-;-
1514176727938;-;-;8.396957;-1.0400848;0.3598175;-;-;-;-;-;-;-;-;-;-;-;-;-;-;-
1514176727958;-;-;9.151123;-0.6905365;0.19342041;-;-;-;-;-;-;-;-;-;-;-;-;-;-;-
1514176727978;-;-;9.477936;-0.3194275;-0.69721985;-;-;-;-;-;-;-;-;-;-;-;-;-;-;-
1514176727999;-;-;10.204575;-0.5049896;-1.3089447;-;-;-;-;-;-;-;-;-;-;-;-;-;-;-
1514176728018;-;-;10.766022;-0.29788208;-1.2275391;-;-;-;-;-;-;-;-;-;-;-;-;-;-;-
1514176728038;-;-;10.788757;0.14144897;-0.5727234;-;-;-;-;-;-;-;-;-;-;-;-;-;-;-
1514176728059;-;-;9.582092;-0.093185425;-0.7103882;-;-;-;-;-;-;-;-;-;-;-;-;-;-;-
1514176728080;-;-;8.144363;-0.28112793;-0.6625061;-;-;-;-;-;-;-;-;-;-;-;-;-;-;-
1514176728100;-;-;7.5194855;-0.25598145;-0.25430298;-;-;-;-;-;-;-;-;-;-;-;-;-;-;-
1514176728120;-;-;9.201401;-0.1925354;0.31072998;-;-;-;-;-;-;-;-;-;-;-;-;-;-;-
1514176728140;-;-;10.256058;-0.2966919;0.6650696;-;-;-;-;-;-;-;-;-;-;-;-;-;-;-
1514176728161;-;-;9.714966;-0.7408142;0.55255127;-;-;-;-;-;-;-;-;-;-;-;-;-;-;-
1514176728181;-;-;9.188232;-1.0592499;0.3993225;-;-;-;-;-;-;-;-;-;-;-;-;-;-;-
1514176728201;-;-;8.489136;-0.97424316;-0.12261963;-;-;-;-;-;-;-;-;-;-;-;-;-;-;-
1514176728222;-;-;8.9991;-0.71806335;-0.4637909;-;-;-;-;-;-;-;-;-;-;-;-;-;-;-
1514176728242;-;-;9.424072;-0.5061798;-0.40872192;-;-;-;-;-;-;-;-;-;-;-;-;-;-;-
1514176728262;-;-;9.65152;-0.42358398;-0.14176941;-;-;-;-;-;-;-;-;-;-;-;-;-;-;-
1514176728283;-;-;9.485123;-0.3589325;0.029418945;-;-;-;-;-;-;-;-;-;-;-;-;-;-;-
1514176728302;-;-;9.199005;-0.5133667;-0.06036377;-;-;-;-;-;-;-;-;-;-;-;-;-;-;-
1514176728322;-;-;9.209793;-0.8688965;-0.063964844;-;-;-;-;-;-;-;-;-;-;-;-;-;-;-
1514176728343;-;-;9.250488;-1.2639465;-0.099868774;-;-;-;-;-;-;-;-;-;-;-;-;-;-;-
1514176728364;-;-;9.471954;-1.467453;-0.071136475;-;-;-;-;-;-;-;-;-;-;-;-;-;-;-
1514176728384;-;-;9.742493;-1.2615509;0.24728394;-;-;-;-;-;-;-;-;-;-;-;-;-;-;-
1514176728404;-;-;9.839462;-0.680954;0.5154419;-;-;-;-;-;-;-;-;-;-;-;-;-;-;-
1514176728425;-;-;9.67186;-0.43077087;0.41726685;-;-;-;-;-;-;-;-;-;-;-;-;-;-;-
1514176728445;-;-;9.437241;-0.59954834;0.28320313;-;-;-;-;-;-;-;-;-;-;-;-;-;-;-
1514176728465;-;-;9.25528;-0.74679565;0.40290833;-;-;-;-;-;-;-;-;-;-;-;-;-;-;-
1514176728485;-;-;9.085281;-0.76116943;0.48431396;-;-;-;-;-;-;-;-;-;-;-;-;-;-;-
1514176728506;-;-;8.90094;-0.66659546;0.62197876;-;-;-;-;-;-;-;-;-;-;-;-;-;-;-
1514176728526;-;-;8.766861;-0.63067627;0.60401917;-;-;-;-;-;-;-;-;-;-;-;-;-;-;-
1514176728546;-;-;8.947617;-0.58039856;0.63394165;-;-;-;-;-;-;-;-;-;-;-;-;-;-;-
1514176728566;-;-;8.970367;-0.42477417;0.6279602;-;-;-;-;-;-;-;-;-;-;-;-;-;-;-
1514176728587;-;-;8.989517;-0.32063293;0.5405731;-;-;-;-;-;-;-;-;-;-;-;-;-;-;-
1514176728607;-;-;9.039795;-0.23085022;0.43762207;-;-;-;-;-;-;-;-;-;-;-;-;-;-;-
1514176728627;-;-;9.25528;-0.20690918;0.42326355;-;-;-;-;-;-;-;-;-;-;-;-;-;-;-
1514176728648;-;-;9.680252;-0.33021545;0.5860596;-;-;-;-;-;-;-;-;-;-;-;-;-;-;-
1514176728668;-;-;9.631165;-0.6330719;0.3885498;-;-;-;-;-;-;-;-;-;-;-;-;-;-;-
1514176728688;-;-;9.355835;-1.0508575;0.27720642;-;-;-;-;-;-;-;-;-;-;-;-;-;-;-
1514176728709;-;-;9.261261;-1.249588;0.6746521;-;-;-;-;-;-;-;-;-;-;-;-;-;-;-
1514176728729;-;-;9.428848;-1.1298676;1.1726379;-;-;-;-;-;-;-;-;-;-;-;-;-;-;-
1514176728749;-;-;9.293579;-0.92996216;1.2684174;-;-;-;-;-;-;-;-;-;-;-;-;-;-;-
1514176728769;-;-;9.2313385;-0.739624;1.270813;-;-;-;-;-;-;-;-;-;-;-;-;-;-;-
1514176728791;-;-;9.154724;-0.52893066;1.1846161;-;-;-;-;-;-;-;-;-;-;-;-;-;-;-
1514176728812;-;-;8.984726;-0.29071045;1.3617859;-;-;-;-;-;-;-;-;-;-;-;-;-;-;-
1514176728832;-;-;9.164291;-0.21409607;1.4108734;-;-;-;-;-;-;-;-;-;-;-;-;-;-;-
1514176728852;-;-;8.940445;-0.26556396;1.4407959;-;-;-;-;-;-;-;-;-;-;-;-;-;-;-
1514176728873;-;-;8.934448;-0.31704712;1.2588348;-;-;-;-;-;-;-;-;-;-;-;-;-;-;-
1514176728893;-;-;8.892548;-0.34576416;1.2013702;-;-;-;-;-;-;-;-;-;-;-;-;-;-;-
1514176728913;-;-;9.013458;-0.47984314;1.3964996;-;-;-;-;-;-;-;-;-;-;-;-;-;-;-
1514176728934;-;-;9.087677;-0.6031494;1.4982605;-;-;-;-;-;-;-;-;-;-;-;-;-;-;-
1514176728954;-;-;9.121201;-0.7228546;1.5700836;-;-;-;-;-;-;-;-;-;-;-;-;-;-;-
1514176728974;-;-;9.3103485;-0.6330719;1.3450317;-;-;-;-;-;-;-;-;-;-;-;-;-;-;-
1514176728994;-;-;8.98233;-0.43554688;1.1618652;-;-;-;-;-;-;-;-;-;-;-;-;-;-;-
1514176729015;-;-;8.923676;-0.38407898;1.1008148;-;-;-;-;-;-;-;-;-;-;-;-;-;-;-
1514176729035;-;-;9.043396;-0.41400146;0.94400024;-;-;-;-;-;-;-;-;-;-;-;-;-;-;-
1514176729055;-;-;9.233734;-0.30506897;0.7692261;-;-;-;-;-;-;-;-;-;-;-;-;-;-;-
1514176729076;-;-;9.143951;-0.13867188;0.79914856;-;-;-;-;-;-;-;-;-;-;-;-;-;-;-
1514176729095;-;-;9.321121;-0.083602905;0.82788086;-;-;-;-;-;-;-;-;-;-;-;-;-;-;-
1514176729115;-;-;9.570114;0.04447937;0.666275;-;-;-;-;-;-;-;-;-;-;-;-;-;-;-
1514176729135;-;-;9.248093;-0.045303345;0.5381775;-;-;-;-;-;-;-;-;-;-;-;-;-;-;-
1514176729156;-;-;9.352234;-0.07043457;0.47354126;-;-;-;-;-;-;-;-;-;-;-;-;-;-;-
1514176729176;-;-;9.401321;-0.15542603;0.3825531;-;-;-;-;-;-;-;-;-;-;-;-;-;-;-
1514176729196;-;-;9.352234;-0.25360107;0.27243042;-;-;-;-;-;-;-;-;-;-;-;-;-;-;-
1514176729216;-;-;9.299576;-0.37809753;0.21376038;-;-;-;-;-;-;-;-;-;-;-;-;-;-;-
1514176729237;-;-;9.287598;-0.38887024;0.2987671;-;-;-;-;-;-;-;-;-;-;-;-;-;-;-
1514176729257;-;-;9.261261;-0.4846344;0.117996216;-;-;-;-;-;-;-;-;-;-;-;-;-;-;-
1514176729277;-;-;9.267242;-0.44154358;0.15270996;-;-;-;-;-;-;-;-;-;-;-;-;-;-;-
1514176729298;-;-;9.323517;-0.37449646;0.171875;-;-;-;-;-;-;-;-;-;-;-;-;-;-;-
1514176729318;-;-;9.227737;-0.22605896;0.067718506;-;-;-;-;-;-;-;-;-;-;-;-;-;-;-
1514176729339;-;-;9.160706;-0.17459106;-0.032836914;-;-;-;-;-;-;-;-;-;-;-;-;-;-;-
1514176729358;-;-;9.268448;-0.13627625;-0.026855469;-;-;-;-;-;-;-;-;-;-;-;-;-;-;-
1514176729379;-;-;9.254074;-0.088394165;-0.13937378;-;-;-;-;-;-;-;-;-;-;-;-;-;-;-
1514176729399;-;-;9.254074;-0.09916687;-0.18725586;-;-;-;-;-;-;-;-;-;-;-;-;-;-;-
1514176729419;-;-;9.203796;-0.04888916;-0.23394775;-;-;-;-;-;-;-;-;-;-;-;-;-;-;-
1514176729440;-;-;9.306747;-0.06086731;-0.2399292;-;-;-;-;-;-;-;-;-;-;-;-;-;-;-
1514176729461;-;-;9.346252;-0.117126465;-0.32133484;-;-;-;-;-;-;-;-;-;-;-;-;-;-;-
1514176729481;-;-;9.299576;-0.13388062;-0.4278717;-;-;-;-;-;-;-;-;-;-;-;-;-;-;-
1514176729501;-;-;9.167892;0.013366699;-0.5787201;-;-;-;-;-;-;-;-;-;-;-;-;-;-;-
1514176729521;-;-;9.216965;0.14743042;-0.66371155;-;-;-;-;-;-;-;-;-;-;-;-;-;-;-
1514176729541;-;-;9.178665;0.19651794;-0.7008209;-;-;-;-;-;-;-;-;-;-;-;-;-;-;-
1514176729562;-;-;9.228943;0.2420044;-0.7115936;-;-;-;-;-;-;-;-;-;-;-;-;-;-;-
1514176729582;-;-;9.300766;0.28630066;-0.7498932;-;-;-;-;-;-;-;-;-;-;-;-;-;-;-
1514176729603;-;-;9.289993;0.27671814;-0.72236633;-;-;-;-;-;-;-;-;-;-;-;-;-;-;-
1514176729623;-;-;9.3498535;0.32699585;-0.74391174;-;-;-;-;-;-;-;-;-;-;-;-;-;-;-
1514176729644;-;-;9.398926;0.21447754;-0.6553345;-;-;-;-;-;-;-;-;-;-;-;-;-;-;-
1514176729663;-;-;9.3498535;0.08039856;-0.60505676;-;-;-;-;-;-;-;-;-;-;-;-;-;-;-
1514176729683;-;-;9.336685;-0.033325195;-0.56555176;-;-;-;-;-;-;-;-;-;-;-;-;-;-;-
1514176729704;-;-;9.292389;-0.03213501;-0.60505676;-;-;-;-;-;-;-;-;-;-;-;-;-;-;-
1514176729724;-;-;9.2756195;-0.040512085;-0.48054504;-;-;-;-;-;-;-;-;-;-;-;-;-;-;-
1514176729745;-;-;9.300766;-0.059661865;-0.38238525;-;-;-;-;-;-;-;-;-;-;-;-;-;-;-
1514176729765;-;-;9.292389;-0.19374084;-0.23155212;-;-;-;-;-;-;-;-;-;-;-;-;-;-;-
1514176729785;-;-;9.286407;-0.34457397;-0.09509277;-;-;-;-;-;-;-;-;-;-;-;-;-;-;-
1514176729806;-;-;9.293579;-0.3984375;-0.08192444;-;-;-;-;-;-;-;-;-;-;-;-;-;-;-
1514176729826;-;-;9.3151245;-0.32781982;-0.073532104;-;-;-;-;-;-;-;-;-;-;-;-;-;-;-
1514176729846;-;-;9.263657;-0.18655396;-0.09388733;-;-;-;-;-;-;-;-;-;-;-;-;-;-;-
1514176729866;-;-;9.25528;-0.12669373;-0.075927734;-;-;-;-;-;-;-;-;-;-;-;-;-;-;-
1514176729888;-;-;9.2756195;-0.10874939;-0.07473755;-;-;-;-;-;-;-;-;-;-;-;-;-;-;-
1514176729907;-;-;9.329498;-0.097976685;-0.025650024;-;-;-;-;-;-;-;-;-;-;-;-;-;-;-
1514176729927;-;-;9.244507;-0.052474976;-0.030441284;-;-;-;-;-;-;-;-;-;-;-;-;-;-;-
1514176729947;-;-;9.260071;-0.03453064;0.024627686;-;-;-;-;-;-;-;-;-;-;-;-;-;-;-
1514176729968;-;-;9.312744;0.024139404;-0.035232544;-;-;-;-;-;-;-;-;-;-;-;-;-;-;-
1514176729988;-;-;9.264847;0.01574707;-0.10107422;-;-;-;-;-;-;-;-;-;-;-;-;-;-;-
1514176730009;-;-;9.21936;-0.0105896;-0.05079651;-;-;-;-;-;-;-;-;-;-;-;-;-;-;-
1514176730029;-;-;9.190628;-0.08480835;0.009063721;-;-;-;-;-;-;-;-;-;-;-;-;-;-;-
1514176730049;-;-;9.233734;-0.10635376;-0.011291504;-;-;-;-;-;-;-;-;-;-;-;-;-;-;-
1514176730070;-;-;9.243301;-0.11592102;0.084472656;-;-;-;-;-;-;-;-;-;-;-;-;-;-;-
1514176730090;-;-;9.251678;-0.1302948;0.13476563;-;-;-;-;-;-;-;-;-;-;-;-;-;-;-
1514176730111;-;-;9.2313385;-0.16261292;0.1658783;-;-;-;-;-;-;-;-;-;-;-;-;-;-;-
1514176730131;-;-;9.274429;-0.16142273;0.1874237;-;-;-;-;-;-;-;-;-;-;-;-;-;-;-
1514176730151;-;-;9.272034;-0.1530304;0.20419312;-;-;-;-;-;-;-;-;-;-;-;-;-;-;-
1514176730172;-;-;9.273239;-0.13986206;0.21138;-;-;-;-;-;-;-;-;-;-;-;-;-;-;-
1514176730192;-;-;9.251678;-0.09437561;0.23651123;-;-;-;-;-;-;-;-;-;-;-;-;-;-;-
1514176730212;-;-;9.303162;-0.109939575;0.24249268;-;-;-;-;-;-;-;-;-;-;-;-;-;-;-
1514176730233;-;-;9.227737;-0.121917725;0.255661;-;-;-;-;-;-;-;-;-;-;-;-;-;-;-
1514176730253;-;-;9.225342;-0.12550354;0.20898438;-;-;-;-;-;-;-;-;-;-;-;-;-;-;-
1514176730273;-;-;9.221756;-0.09677124;0.22692871;-;-;-;-;-;-;-;-;-;-;-;-;-;-;-
1514176730294;-;-;9.239716;-0.13986206;0.18623352;-;-;-;-;-;-;-;-;-;-;-;-;-;-;-
1514176730314;-;-;9.280411;-0.14944458;0.21736145;-;-;-;-;-;-;-;-;-;-;-;-;-;-;-
1514176730334;-;-;9.262466;-0.11831665;0.18623352;-;-;-;-;-;-;-;-;-;-;-;-;-;-;-
1514176730355;-;-;9.272034;-0.16859436;0.17306519;-;-;-;-;-;-;-;-;-;-;-;-;-;-;-
1514176730375;-;-;9.284012;-0.17459106;0.16348267;-;-;-;-;-;-;-;-;-;-;-;-;-;-;-
1514176730395;-;-;9.282806;-0.24281311;0.15270996;-;-;-;-;-;-;-;-;-;-;-;-;-;-;-
1514176730416;-;-;9.289993;-0.2679596;0.12757874;-;-;-;-;-;-;-;-;-;-;-;-;-;-;-
1514176730435;-;-;9.269638;-0.31105042;0.14433289;-;-;-;-;-;-;-;-;-;-;-;-;-;-;-
1514176730455;-;-;9.278015;-0.29788208;0.18383789;-;-;-;-;-;-;-;-;-;-;-;-;-;-;-
1514176730476;-;-;9.274429;-0.2859192;0.16468811;-;-;-;-;-;-;-;-;-;-;-;-;-;-;-
1514176730496;-;-;9.282806;-0.29548645;0.10482788;-;-;-;-;-;-;-;-;-;-;-;-;-;-;-
1514176730516;-;-;9.341461;-0.30506897;0.091659546;-;-;-;-;-;-;-;-;-;-;-;-;-;-;-
1514176730537;-;-;9.303162;-0.2775421;0.117996216;-;-;-;-;-;-;-;-;-;-;-;-;-;-;-
1514176730557;-;-;9.243301;-0.28112793;0.12637329;-;-;-;-;-;-;-;-;-;-;-;-;-;-;-
1514176730578;-;-;9.288788;-0.24760437;0.117996216;-;-;-;-;-;-;-;-;-;-;-;-;-;-;-
1514176730598;-;-;9.319916;-0.24043274;-0.016082764;-;-;-;-;-;-;-;-;-;-;-;-;-;-;-
1514176730618;-;-;9.243301;-0.18415833;-0.04600525;-;-;-;-;-;-;-;-;-;-;-;-;-;-;-
1514176730639;-;-;9.220566;-0.16261292;-0.011291504;-;-;-;-;-;-;-;-;-;-;-;-;-;-;-
1514176730659;-;-;9.263657;-0.14465332;0.03060913;-;-;-;-;-;-;-;-;-;-;-;-;-;-;-
1514176730679;-;-;9.267242;-0.10395813;0.09046936;-;-;-;-;-;-;-;-;-;-;-;-;-;-;-
1514176730700;-;-;9.285202;-0.081207275;0.006668091;-;-;-;-;-;-;-;-;-;-;-;-;-;-;-
1514176730719;-;-;9.246902;-0.0728302;0.04019165;-;-;-;-;-;-;-;-;-;-;-;-;-;-;-
1514176730739;-;-;9.272034;-0.09437561;0.06892395;-;-;-;-;-;-;-;-;-;-;-;-;-;-;-
1514176730761;-;-;9.293579;-0.097976685;0.07609558;-;-;-;-;-;-;-;-;-;-;-;-;-;-;-
1514176730781;-;-;9.254074;-0.12071228;0.108428955;-;-;-;-;-;-;-;-;-;-;-;-;-;-;-
1514176730802;-;-;9.2756195;-0.12789917;0.09764099;-;-;-;-;-;-;-;-;-;-;-;-;-;-;-
1514176730822;-;-;9.323517;-0.13986206;0.17066956;-;-;-;-;-;-;-;-;-;-;-;-;-;-;-
1514176730842;-;-;9.333084;-0.1482544;0.137146;-;-;-;-;-;-;-;-;-;-;-;-;-;-;-
1514176730863;-;-;9.287598;-0.16859436;0.11920166;-;-;-;-;-;-;-;-;-;-;-;-;-;-;-
1514176730883;-;-;9.245697;-0.1590271;0.216156;-;-;-;-;-;-;-;-;-;-;-;-;-;-;-
1514176730904;-;-;9.281616;-0.1482544;0.24369812;-;-;-;-;-;-;-;-;-;-;-;-;-;-;-
1514176730924;-;-;9.239716;-0.17338562;0.26045227;-;-;-;-;-;-;-;-;-;-;-;-;-;-;-
1514176730944;-;-;9.257675;-0.19134521;0.23292542;-;-;-;-;-;-;-;-;-;-;-;-;-;-;-
1514176730964;-;-;9.264847;-0.20211792;0.19581604;-;-;-;-;-;-;-;-;-;-;-;-;-;-;-
1514176730985;-;-;9.233734;-0.17936707;0.16708374;-;-;-;-;-;-;-;-;-;-;-;-;-;-;-
1514176731005;-;-;9.251678;-0.15782166;0.16108704;-;-;-;-;-;-;-;-;-;-;-;-;-;-;-
1514176731025;-;-;9.266052;-0.11592102;0.18623352;-;-;-;-;-;-;-;-;-;-;-;-;-;-;-
1514176731046;-;-;9.267242;-0.1410675;0.23171997;-;-;-;-;-;-;-;-;-;-;-;-;-;-;-
1514176731066;-;-;9.260071;-0.16021729;0.21017456;-;-;-;-;-;-;-;-;-;-;-;-;-;-;-
1514176731086;-;-;9.268448;-0.1482544;0.19940186;-;-;-;-;-;-;-;-;-;-;-;-;-;-;-
1514176731106;-;-;9.29718;-0.1410675;0.24130249;-;-;-;-;-;-;-;-;-;-;-;-;-;-;-
1514176731127;-;-;9.23851;-0.15663147;0.25326538;-;-;-;-;-;-;-;-;-;-;-;-;-;-;-
1514176731147;-;-;9.285202;-0.10635376;0.23171997;-;-;-;-;-;-;-;-;-;-;-;-;-;-;-
1514176731167;-;-;9.262466;-0.09437561;0.2915802;-;-;-;-;-;-;-;-;-;-;-;-;-;-;-
1514176731190;-;-;9.263657;-0.13986206;0.30474854;-;-;-;-;-;-;-;-;-;-;-;-;-;-;-
1514176731208;-;-;9.281616;-0.13269043;0.33467102;-;-;-;-;-;-;-;-;-;-;-;-;-;-;-
1514176731228;-;-;9.25528;-0.16740417;0.34425354;-;-;-;-;-;-;-;-;-;-;-;-;-;-;-
1514176731248;-;-;9.209793;-0.15663147;0.3610077;-;-;-;-;-;-;-;-;-;-;-;-;-;-;-
1514176731269;-;-;9.276825;-0.1410675;0.35502625;-;-;-;-;-;-;-;-;-;-;-;-;-;-;-
1514176731289;-;-;9.3103485;-0.14585876;0.21496582;-;-;-;-;-;-;-;-;-;-;-;-;-;-;-
1514176731309;-;-;9.251678;-0.14944458;0.22453308;-;-;-;-;-;-;-;-;-;-;-;-;-;-;-
1514176731330;-;-;9.257675;-0.15065002;0.27122498;-;-;-;-;-;-;-;-;-;-;-;-;-;-;-
1514176731350;-;-;9.252884;-0.1530304;0.28678894;-;-;-;-;-;-;-;-;-;-;-;-;-;-;-
1514176731370;-;-;9.281616;-0.16381836;0.2987671;-;-;-;-;-;-;-;-;-;-;-;-;-;-;-
1514176731391;-;-;9.25528;-0.13148499;0.32270813;-;-;-;-;-;-;-;-;-;-;-;-;-;-;-
1514176731411;-;-;9.246902;-0.090789795;0.3310852;-;-;-;-;-;-;-;-;-;-;-;-;-;-;-
1514176731432;-;-;9.249298;-0.117126465;0.3035431;-;-;-;-;-;-;-;-;-;-;-;-;-;-;-
1514176731452;-;-;9.279221;-0.15542603;0.31671143;-;-;-;-;-;-;-;-;-;-;-;-;-;-;-
1514176731472;-;-;9.274429;-0.15542603;0.30593872;-;-;-;-;-;-;-;-;-;-;-;-;-;-;-
1514176731492;-;-;9.251678;-0.1769867;0.32868958;-;-;-;-;-;-;-;-;-;-;-;-;-;-;-
1514176731513;-;-;9.2756195;-0.14704895;0.3310852;-;-;-;-;-;-;-;-;-;-;-;-;-;-;-
1514176731533;-;-;9.301956;-0.1590271;0.28199768;-;-;-;-;-;-;-;-;-;-;-;-;-;-;-
1514176731553;-;-;9.29718;-0.13508606;0.27960205;-;-;-;-;-;-;-;-;-;-;-;-;-;-;-
1514176731574;-;-;9.284012;-0.13867188;0.2640381;-;-;-;-;-;-;-;-;-;-;-;-;-;-;-
1514176731593;-;-;9.269638;-0.13748169;0.24130249;-;-;-;-;-;-;-;-;-;-;-;-;-;-;-
1514176731613;-;-;9.289993;-0.1530304;0.23651123;-;-;-;-;-;-;-;-;-;-;-;-;-;-;-
1514176731633;-;-;9.269638;-0.12071228;0.2628479;-;-;-;-;-;-;-;-;-;-;-;-;-;-;-
1514176731654;-;-;9.276825;-0.12789917;0.2915802;-;-;-;-;-;-;-;-;-;-;-;-;-;-;-
1514176731674;-;-;9.243301;-0.13627625;0.21017456;-;-;-;-;-;-;-;-;-;-;-;-;-;-;-
1514176731695;-;-;9.260071;-0.14346313;0.19581604;-;-;-;-;-;-;-;-;-;-;-;-;-;-;-
1514176731715;-;-;9.272034;-0.1590271;0.17425537;-;-;-;-;-;-;-;-;-;-;-;-;-;-;-
1514176731736;-;-;9.266052;-0.1410675;0.2233429;-;-;-;-;-;-;-;-;-;-;-;-;-;-;-
1514176731756;-;-;9.272034;-0.16740417;0.23890686;-;-;-;-;-;-;-;-;-;-;-;-;-;-;-
1514176731776;-;-;9.312744;-0.17219543;0.21496582;-;-;-;-;-;-;-;-;-;-;-;-;-;-;-
1514176731797;-;-;9.309143;-0.15663147;0.19821167;-;-;-;-;-;-;-;-;-;-;-;-;-;-;-
1514176731817;-;-;9.252884;-0.1697998;0.15989685;-;-;-;-;-;-;-;-;-;-;-;-;-;-;-
1514176731839;-;-;9.248093;-0.13148499;0.23651123;-;-;-;-;-;-;-;-;-;-;-;-;-;-;-
1514176731859;-;-;9.279221;-0.1410675;0.26524353;-;-;-;-;-;-;-;-;-;-;-;-;-;-;-
1514176731879;-;-;9.273239;-0.13627625;0.26643372;-;-;-;-;-;-;-;-;-;-;-;-;-;-;-
1514176731900;-;-;9.23613;-0.12550354;0.29516602;-;-;-;-;-;-;-;-;-;-;-;-;-;-;-
1514176731920;-;-;9.234924;-0.12550354;0.3023529;-;-;-;-;-;-;-;-;-;-;-;-;-;-;-
1514176731940;-;-;9.286407;-0.13388062;0.32270813;-;-;-;-;-;-;-;-;-;-;-;-;-;-;-
1514176731961;-;-;9.263657;-0.16142273;0.26763916;-;-;-;-;-;-;-;-;-;-;-;-;-;-;-
1514176731981;-;-;9.205002;-0.14944458;0.26045227;-;-;-;-;-;-;-;-;-;-;-;-;-;-;-
1514176732001;-;-;9.305557;-0.13986206;0.25805664;-;-;-;-;-;-;-;-;-;-;-;-;-;-;-
1514176732022;-;-;9.282806;-0.15423584;0.19581604;-;-;-;-;-;-;-;-;-;-;-;-;-;-;-
1514176732042;-;-;9.251678;-0.1769867;0.1946106;-;-;-;-;-;-;-;-;-;-;-;-;-;-;-
1514176732063;-;-;9.267242;-0.19732666;0.25805664;-;-;-;-;-;-;-;-;-;-;-;-;-;-;-
1514176732083;-;-;9.25528;-0.20451355;0.2640381;-;-;-;-;-;-;-;-;-;-;-;-;-;-;-
1514176732103;-;-;9.280411;-0.20211792;0.2233429;-;-;-;-;-;-;-;-;-;-;-;-;-;-;-
1514176732124;-;-;9.274429;-0.17578125;0.20179749;-;-;-;-;-;-;-;-;-;-;-;-;-;-;-
1514176732144;-;-;9.2708435;-0.1985321;0.21257019;-;-;-;-;-;-;-;-;-;-;-;-;-;-;-
1514176732164;-;-;9.299576;-0.19134521;0.22692871;-;-;-;-;-;-;-;-;-;-;-;-;-;-;-
1514176732185;-;-;9.276825;-0.19732666;0.21855164;-;-;-;-;-;-;-;-;-;-;-;-;-;-;-
1514176732205;-;-;9.327103;-0.15065002;0.20179749;-;-;-;-;-;-;-;-;-;-;-;-;-;-;-
1514176732225;-;-;9.386963;-0.15663147;0.16229248;-;-;-;-;-;-;-;-;-;-;-;-;-;-;-
1514176732246;-;-;9.361816;-0.14346313;0.1826477;-;-;-;-;-;-;-;-;-;-;-;-;-;-;-
1514176732266;-;-;9.220566;-0.10874939;0.23532104;-;-;-;-;-;-;-;-;-;-;-;-;-;-;-
1514176732286;-;-;9.15831;-0.105148315;0.34065247;-;-;-;-;-;-;-;-;-;-;-;-;-;-;-
1514176732306;-;-;9.263657;-0.16142273;0.29397583;-;-;-;-;-;-;-;-;-;-;-;-;-;-;-
1514176732327;-;-;9.303162;-0.22247314;0.31072998;-;-;-;-;-;-;-;-;-;-;-;-;-;-;-
1514176732347;-;-;9.2708435;-0.24520874;0.3825531;-;-;-;-;-;-;-;-;-;-;-;-;-;-;-
1514176732367;-;-;9.224152;-0.18536377;0.4388275;-;-;-;-;-;-;-;-;-;-;-;-;-;-;-
1514176732388;-;-;9.190628;-0.2033081;0.40888977;-;-;-;-;-;-;-;-;-;-;-;-;-;-;-
1514176732408;-;-;9.234924;-0.19972229;0.4112854;-;-;-;-;-;-;-;-;-;-;-;-;-;-;-
1514176732428;-;-;9.226547;-0.21409607;0.3717804;-;-;-;-;-;-;-;-;-;-;-;-;-;-;-
1514176732449;-;-;9.303162;-0.22007751;0.4040985;-;-;-;-;-;-;-;-;-;-;-;-;-;-;-
1514176732469;-;-;9.266052;-0.21768188;0.3310852;-;-;-;-;-;-;-;-;-;-;-;-;-;-;-
1514176732489;-;-;9.305557;-0.23564148;0.35263062;-;-;-;-;-;-;-;-;-;-;-;-;-;-;-
1514176732509;-;-;9.291183;-0.22366333;0.37417603;-;-;-;-;-;-;-;-;-;-;-;-;-;-;-
1514176732530;-;-;9.267242;-0.21170044;0.36819458;-;-;-;-;-;-;-;-;-;-;-;-;-;-;-
1514176732550;-;-;9.240906;-0.14465332;0.3717804;-;-;-;-;-;-;-;-;-;-;-;-;-;-;-
1514176732570;-;-;9.257675;-0.15782166;0.39572144;-;-;-;-;-;-;-;-;-;-;-;-;-;-;-
1514176732591;-;-;9.25647;-0.12908936;0.42684937;-;-;-;-;-;-;-;-;-;-;-;-;-;-;-
1514176732611;-;-;9.261261;-0.13269043;0.45677185;-;-;-;-;-;-;-;-;-;-;-;-;-;-;-
1514176732631;-;-;9.244507;-0.18057251;0.48191833;-;-;-;-;-;-;-;-;-;-;-;-;-;-;-
1514176732651;-;-;9.285202;-0.16021729;0.46635437;-;-;-;-;-;-;-;-;-;-;-;-;-;-;-
1514176732672;-;-;9.29837;-0.14465332;0.44480896;-;-;-;-;-;-;-;-;-;-;-;-;-;-;-
1514176732693;-;-;9.260071;-0.12908936;0.44480896;-;-;-;-;-;-;-;-;-;-;-;-;-;-;-
1514176732712;-;-;9.225342;-0.12669373;0.5190277;-;-;-;-;-;-;-;-;-;-;-;-;-;-;-
1514176732733;-;-;9.280411;-0.12550354;0.47833252;-;-;-;-;-;-;-;-;-;-;-;-;-;-;-
1514176732753;-;-;9.301956;-0.16261292;0.40649414;-;-;-;-;-;-;-;-;-;-;-;-;-;-;-
1514176732773;-;-;9.249298;-0.14225769;0.42086792;-;-;-;-;-;-;-;-;-;-;-;-;-;-;-
1514176732794;-;-;9.25647;-0.20930481;0.48191833;-;-;-;-;-;-;-;-;-;-;-;-;-;-;-
1514176732813;-;-;9.264847;-0.2033081;0.54655457;-;-;-;-;-;-;-;-;-;-;-;-;-;-;-
1514176732834;-;-;9.287598;-0.1877594;0.53578186;-;-;-;-;-;-;-;-;-;-;-;-;-;-;-
1514176732854;-;-;9.251678;-0.18655396;0.54177856;-;-;-;-;-;-;-;-;-;-;-;-;-;-;-
1514176732874;-;-;9.214569;-0.14944458;0.5489502;-;-;-;-;-;-;-;-;-;-;-;-;-;-;-
1514176732895;-;-;9.262466;-0.17936707;0.53219604;-;-;-;-;-;-;-;-;-;-;-;-;-;-;-
1514176732915;-;-;9.251678;-0.22486877;0.5381775;-;-;-;-;-;-;-;-;-;-;-;-;-;-;-
1514176732935;-;-;9.285202;-0.20451355;0.57289124;-;-;-;-;-;-;-;-;-;-;-;-;-;-;-
1514176732956;-;-;9.260071;-0.20451355;0.63394165;-;-;-;-;-;-;-;-;-;-;-;-;-;-;-
1514176732976;-;-;9.258865;-0.1985321;0.6375427;-;-;-;-;-;-;-;-;-;-;-;-;-;-;-
1514176732996;-;-;9.260071;-0.17578125;0.6351471;-;-;-;-;-;-;-;-;-;-;-;-;-;-;-
1514176733017;-;-;9.227737;-0.12789917;0.65789795;-;-;-;-;-;-;-;-;-;-;-;-;-;-;-
1514176733037;-;-;9.215775;-0.16261292;0.6650696;-;-;-;-;-;-;-;-;-;-;-;-;-;-;-
1514176733057;-;-;9.21936;-0.11352539;0.6926117;-;-;-;-;-;-;-;-;-;-;-;-;-;-;-
1514176733078;-;-;9.23613;-0.14704895;0.64352417;-;-;-;-;-;-;-;-;-;-;-;-;-;-;-
1514176733098;-;-;9.212173;-0.1482544;0.69740295;-;-;-;-;-;-;-;-;-;-;-;-;-;-;-
1514176733118;-;-;9.254074;-0.17936707;0.6279602;-;-;-;-;-;-;-;-;-;-;-;-;-;-;-
1514176733138;-;-;9.284012;-0.2212677;0.6555023;-;-;-;-;-;-;-;-;-;-;-;-;-;-;-
1514176733159;-;-;9.263657;-0.19613647;0.602829;-;-;-;-;-;-;-;-;-;-;-;-;-;-;-
1514176733179;-;-;9.225342;-0.1877594;0.64112854;-;-;-;-;-;-;-;-;-;-;-;-;-;-;-
1514176733199;-;-;9.208588;-0.20809937;0.6315613;-;-;-;-;-;-;-;-;-;-;-;-;-;-;-
1514176733220;-;-;9.242111;-0.22486877;0.65190125;-;-;-;-;-;-;-;-;-;-;-;-;-;-;-
1514176733240;-;-;9.23732;-0.19134521;0.6483154;-;-;-;-;-;-;-;-;-;-;-;-;-;-;-
1514176733260;-;-;9.263657;-0.1925354;0.6710663;-;-;-;-;-;-;-;-;-;-;-;-;-;-;-
1514176733281;-;-;9.228943;-0.19134521;0.6483154;-;-;-;-;-;-;-;-;-;-;-;-;-;-;-
1514176733301;-;-;9.224152;-0.23324585;0.6279602;-;-;-;-;-;-;-;-;-;-;-;-;-;-;-
1514176733321;-;-;9.244507;-0.24401855;0.6375427;-;-;-;-;-;-;-;-;-;-;-;-;-;-;-
1514176733341;-;-;9.268448;-0.2607727;0.70578;-;-;-;-;-;-;-;-;-;-;-;-;-;-;-
1514176733362;-;-;9.266052;-0.29548645;0.6770477;-;-;-;-;-;-;-;-;-;-;-;-;-;-;-
1514176733382;-;-;9.2708435;-0.3433838;0.6351471;-;-;-;-;-;-;-;-;-;-;-;-;-;-;-
1514176733402;-;-;9.263657;-0.3481598;0.63993835;-;-;-;-;-;-;-;-;-;-;-;-;-;-;-
1514176733423;-;-;9.23732;-0.30148315;0.6064148;-;-;-;-;-;-;-;-;-;-;-;-;-;-;-
1514176733443;-;-;9.243301;-0.24880981;0.66148376;-;-;-;-;-;-;-;-;-;-;-;-;-;-;-
1514176733463;-;-;9.304352;-0.25360107;0.6279602;-;-;-;-;-;-;-;-;-;-;-;-;-;-;-
1514176733483;-;-;9.288788;-0.27035522;0.58366394;-;-;-;-;-;-;-;-;-;-;-;-;-;-;-
1514176733504;-;-;9.224152;-0.33259583;0.681839;-;-;-;-;-;-;-;-;-;-;-;-;-;-;-
1514176733524;-;-;9.23851;-0.30986023;0.68782043;-;-;-;-;-;-;-;-;-;-;-;-;-;-;-
1514176733544;-;-;9.284012;-0.25360107;0.6710663;-;-;-;-;-;-;-;-;-;-;-;-;-;-;-
1514176733565;-;-;9.224152;-0.19732666;0.5920563;-;-;-;-;-;-;-;-;-;-;-;-;-;-;-
1514176733585;-;-;9.208588;-0.21887207;0.6243744;-;-;-;-;-;-;-;-;-;-;-;-;-;-;-
1514176733606;-;-;9.212173;-0.17459106;0.6710663;-;-;-;-;-;-;-;-;-;-;-;-;-;-;-
1514176733625;-;-;9.220566;-0.14944458;0.71894836;-;-;-;-;-;-;-;-;-;-;-;-;-;-;-
1514176733646;-;-;9.208588;-0.10395813;0.75964355;-;-;-;-;-;-;-;-;-;-;-;-;-;-;-
1514176733666;-;-;9.193024;-0.117126465;0.72732544;-;-;-;-;-;-;-;-;-;-;-;-;-;-;-
1514176733686;-;-;9.182251;-0.18536377;0.7620392;-;-;-;-;-;-;-;-;-;-;-;-;-;-;-
1514176733707;-;-;9.227737;-0.289505;0.7321167;-;-;-;-;-;-;-;-;-;-;-;-;-;-;-
1514176733727;-;-;9.240906;-0.3469696;0.7931671;-;-;-;-;-;-;-;-;-;-;-;-;-;-;-
1514176733748;-;-;9.196625;-0.34457397;0.80033875;-;-;-;-;-;-;-;-;-;-;-;-;-;-;-
1514176733768;-;-;9.208588;-0.2966919;0.85661316;-;-;-;-;-;-;-;-;-;-;-;-;-;-;-
1514176733788;-;-;9.303162;-0.30625916;0.9404144;-;-;-;-;-;-;-;-;-;-;-;-;-;-;-
1514176733808;-;-;9.331894;-0.31704712;0.9128723;-;-;-;-;-;-;-;-;-;-;-;-;-;-;-
1514176733829;-;-;9.25647;-0.36611938;0.84703064;-;-;-;-;-;-;-;-;-;-;-;-;-;-;-
1514176733849;-;-;9.129578;-0.39126587;0.7716217;-;-;-;-;-;-;-;-;-;-;-;-;-;-;-
1514176733869;-;-;9.072113;-0.44154358;0.70817566;-;-;-;-;-;-;-;-;-;-;-;-;-;-;-
1514176733890;-;-;9.201401;-0.5097656;0.6531067;-;-;-;-;-;-;-;-;-;-;-;-;-;-;-
1514176733910;-;-;9.206192;-0.5432892;0.3490448;-;-;-;-;-;-;-;-;-;-;-;-;-;-;-
1514176733930;-;-;9.214569;-0.759964;0.18144226;-;-;-;-;-;-;-;-;-;-;-;-;-;-;-
1514176733950;-;-;9.347458;-0.87968445;0.23292542;-;-;-;-;-;-;-;-;-;-;-;-;-;-;-
1514176733971;-;-;9.358231;-1.0376892;0.25926208;-;-;-;-;-;-;-;-;-;-;-;-;-;-;-
1514176733991;-;-;9.306747;-1.0807953;0.39213562;-;-;-;-;-;-;-;-;-;-;-;-;-;-;-
1514176734011;-;-;9.348648;-1.1011353;0.47833252;-;-;-;-;-;-;-;-;-;-;-;-;-;-;-
1514176734032;-;-;9.358231;-1.0640259;0.563324;-;-;-;-;-;-;-;-;-;-;-;-;-;-;-
1514176734052;-;-;9.390549;-1.1131134;0.63035583;-;-;-;-;-;-;-;-;-;-;-;-;-;-;-
1514176734073;-;-;9.345062;-1.0771942;0.6387329;-;-;-;-;-;-;-;-;-;-;-;-;-;-;-
1514176734092;-;-;9.300766;-1.0831909;0.72732544;-;-;-;-;-;-;-;-;-;-;-;-;-;-;-
1514176734113;-;-;9.272034;-1.0604401;0.8913269;-;-;-;-;-;-;-;-;-;-;-;-;-;-;-
1514176734133;-;-;9.221756;-1.1047363;0.8590088;-;-;-;-;-;-;-;-;-;-;-;-;-;-;-
1514176734153;-;-;9.187042;-1.1286774;0.6746521;-;-;-;-;-;-;-;-;-;-;-;-;-;-;-
1514176734174;-;-;9.213379;-1.0724182;0.62677;-;-;-;-;-;-;-;-;-;-;-;-;-;-;-
1514176734194;-;-;9.214569;-0.9766388;0.7368927;-;-;-;-;-;-;-;-;-;-;-;-;-;-;-
1514176734215;-;-;9.193024;-0.8712921;0.95835876;-;-;-;-;-;-;-;-;-;-;-;-;-;-;-
1514176734235;-;-;9.203796;-0.7779236;1.1391296;-;-;-;-;-;-;-;-;-;-;-;-;-;-;-
1514176734255;-;-;9.167892;-0.7551727;1.2133484;-;-;-;-;-;-;-;-;-;-;-;-;-;-;-
1514176734275;-;-;9.190628;-0.8497467;1.2085571;-;-;-;-;-;-;-;-;-;-;-;-;-;-;-
1514176734296;-;-;9.164291;-0.9467163;1.0780792;-;-;-;-;-;-;-;-;-;-;-;-;-;-;-
1514176734316;-;-;9.051773;-0.9107971;0.9775238;-;-;-;-;-;-;-;-;-;-;-;-;-;-;-
1514176734336;-;-;9.153519;-0.73243713;0.9284363;-;-;-;-;-;-;-;-;-;-;-;-;-;-;-
1514176734357;-;-;9.23613;-0.7384186;0.90689087;-;-;-;-;-;-;-;-;-;-;-;-;-;-;-
1514176734377;-;-;9.245697;-0.6725769;1.033783;-;-;-;-;-;-;-;-;-;-;-;-;-;-;-
1514176734398;-;-;9.21817;-0.67497253;1.0780792;-;-;-;-;-;-;-;-;-;-;-;-;-;-;-
1514176734419;-;-;9.189438;-0.5744171;1.0720825;-;-;-;-;-;-;-;-;-;-;-;-;-;-;-
1514176734440;-;-;9.153519;-0.581604;1.0218048;-;-;-;-;-;-;-;-;-;-;-;-;-;-;-
1514176734460;-;-;9.202606;-0.6294861;1.0313873;-;-;-;-;-;-;-;-;-;-;-;-;-;-;-
1514176734480;-;-;9.193024;-0.680954;1.0469513;-;-;-;-;-;-;-;-;-;-;-;-;-;-;-
1514176734501;-;-;9.17627;-0.71328735;0.9966736;-;-;-;-;-;-;-;-;-;-;-;-;-;-;-
1514176734521;-;-;9.21936;-0.77433777;0.9032898;-;-;-;-;-;-;-;-;-;-;-;-;-;-;-
1514176734542;-;-;9.25647;-0.86172485;0.8625946;-;-;-;-;-;-;-;-;-;-;-;-;-;-;-
1514176734562;-;-;9.279221;-0.8688965;0.760849;-;-;-;-;-;-;-;-;-;-;-;-;-;-;-
1514176734582;-;-;9.285202;-0.8868561;0.6315613;-;-;-;-;-;-;-;-;-;-;-;-;-;-;-
1514176734602;-;-;9.266052;-0.89045715;0.55374146;-;-;-;-;-;-;-;-;-;-;-;-;-;-;-
1514176734623;-;-;9.276825;-0.8988342;0.47354126;-;-;-;-;-;-;-;-;-;-;-;-;-;-;-
1514176734645;-;-;9.281616;-0.92037964;0.43522644;-;-;-;-;-;-;-;-;-;-;-;-;-;-;-
1514176734665;-;-;9.279221;-0.9143982;0.43043518;-;-;-;-;-;-;-;-;-;-;-;-;-;-;-
1514176734686;-;-;9.322311;-0.8892517;0.42684937;-;-;-;-;-;-;-;-;-;-;-;-;-;-;-
1514176734706;-;-;9.304352;-0.86291504;0.36460876;-;-;-;-;-;-;-;-;-;-;-;-;-;-;-
1514176734726;-;-;9.279221;-0.8569336;0.3598175;-;-;-;-;-;-;-;-;-;-;-;-;-;-;-
1514176734747;-;-;9.23613;-0.91319275;0.38136292;-;-;-;-;-;-;-;-;-;-;-;-;-;-;-
1514176734766;-;-;9.25528;-0.89523315;0.4280548;-;-;-;-;-;-;-;-;-;-;-;-;-;-;-
1514176734786;-;-;9.276825;-0.86172485;0.43762207;-;-;-;-;-;-;-;-;-;-;-;-;-;-;-
1514176734807;-;-;9.273239;-0.9084015;0.5441742;-;-;-;-;-;-;-;-;-;-;-;-;-;-;-
1514176734827;-;-;9.276825;-0.89523315;0.5860596;-;-;-;-;-;-;-;-;-;-;-;-;-;-;-
1514176734847;-;-;9.23732;-0.9072113;0.6351471;-;-;-;-;-;-;-;-;-;-;-;-;-;-;-
1514176734867;-;-;9.226547;-0.88087463;0.7404938;-;-;-;-;-;-;-;-;-;-;-;-;-;-;-
1514176734888;-;-;9.210983;-0.85095215;0.77401733;-;-;-;-;-;-;-;-;-;-;-;-;-;-;-
1514176734908;-;-;9.264847;-0.8677063;0.7931671;-;-;-;-;-;-;-;-;-;-;-;-;-;-;-
1514176734929;-;-;9.281616;-0.8760834;0.74887085;-;-;-;-;-;-;-;-;-;-;-;-;-;-;-
1514176734948;-;-;9.323517;-0.8593292;0.7548523;-;-;-;-;-;-;-;-;-;-;-;-;-;-;-
1514176734969;-;-;9.340271;-0.81144714;0.70217896;-;-;-;-;-;-;-;-;-;-;-;-;-;-;-
1514176734989;-;-;9.443222;-0.8282013;0.5920563;-;-;-;-;-;-;-;-;-;-;-;-;-;-;-
1514176735009;-;-;9.41449;-0.88327026;0.6495056;-;-;-;-;-;-;-;-;-;-;-;-;-;-;-
1514176735030;-;-;9.306747;-0.9251709;0.61479187;-;-;-;-;-;-;-;-;-;-;-;-;-;-;-
1514176735050;-;-;9.224152;-0.878479;0.61479187;-;-;-;-;-;-;-;-;-;-;-;-;-;-;-
1514176735070;-;-;9.0793;-0.8246155;0.63394165;-;-;-;-;-;-;-;-;-;-;-;-;-;-;-
1514176735091;-;-;9.019455;-0.79467773;0.65908813;-;-;-;-;-;-;-;-;-;-;-;-;-;-;-
1514176735110;-;-;9.175064;-0.8186188;0.7249298;-;-;-;-;-;-;-;-;-;-;-;-;-;-;-
1514176735131;-;-;9.175064;-0.74560547;0.6459198;-;-;-;-;-;-;-;-;-;-;-;-;-;-;-
1514176735151;-;-;9.124786;-0.55526733;0.5441742;-;-;-;-;-;-;-;-;-;-;-;-;-;-;-
1514176735171;-;-;9.161896;-0.50138855;0.5764923;-;-;-;-;-;-;-;-;-;-;-;-;-;-;-
1514176735191;-;-;9.125992;-0.6222992;0.61120605;-;-;-;-;-;-;-;-;-;-;-;-;-;-;-
1514176735212;-;-;9.145142;-0.7024994;0.58366394;-;-;-;-;-;-;-;-;-;-;-;-;-;-;-
1514176735232;-;-;9.184647;-0.83657837;0.65190125;-;-;-;-;-;-;-;-;-;-;-;-;-;-;-
1514176735253;-;-;9.2708435;-0.89045715;0.60762024;-;-;-;-;-;-;-;-;-;-;-;-;-;-;-
1514176735273;-;-;9.25528;-1.0293121;0.6555023;-;-;-;-;-;-;-;-;-;-;-;-;-;-;-
1514176735294;-;-;9.21936;-1.0795898;0.66148376;-;-;-;-;-;-;-;-;-;-;-;-;-;-;-
1514176735314;-;-;9.187042;-1.0951538;0.80752563;-;-;-;-;-;-;-;-;-;-;-;-;-;-;-
1514176735334;-;-;9.123596;-1.0352936;0.8410492;-;-;-;-;-;-;-;-;-;-;-;-;-;-;-
1514176735354;-;-;9.070923;-1.0065765;0.8709717;-;-;-;-;-;-;-;-;-;-;-;-;-;-;-
1514176735375;-;-;9.114014;-1.0975494;0.9092865;-;-;-;-;-;-;-;-;-;-;-;-;-;-;-
1514176735395;-;-;9.149933;-1.186142;0.96195984;-;-;-;-;-;-;-;-;-;-;-;-;-;-;-
1514176735415;-;-;9.094864;-1.1490326;0.9703369;-;-;-;-;-;-;-;-;-;-;-;-;-;-;-
1514176735436;-;-;9.21936;-1.2208557;1.0708923;-;-;-;-;-;-;-;-;-;-;-;-;-;-;-
1514176735456;-;-;9.533005;-1.4315338;1.0373688;-;-;-;-;-;-;-;-;-;-;-;-;-;-;-
1514176735476;-;-;9.550964;-1.5368805;0.88414;-;-;-;-;-;-;-;-;-;-;-;-;-;-;-
1514176735497;-;-;9.506668;-1.5273132;0.899704;-;-;-;-;-;-;-;-;-;-;-;-;-;-;-
1514176735517;-;-;9.4492035;-1.562027;0.72013855;-;-;-;-;-;-;-;-;-;-;-;-;-;-;-
1514176735537;-;-;9.200211;-1.4590759;0.5118408;-;-;-;-;-;-;-;-;-;-;-;-;-;-;-
1514176735557;-;-;8.972763;-1.2016907;0.42684937;-;-;-;-;-;-;-;-;-;-;-;-;-;-;-
1514176735578;-;-;9.114014;-0.8305969;0.36579895;-;-;-;-;-;-;-;-;-;-;-;-;-;-;-
1514176735598;-;-;9.348648;-0.59117126;0.36698914;-;-;-;-;-;-;-;-;-;-;-;-;-;-;-
1514176735618;-;-;9.239716;-0.37449646;0.43522644;-;-;-;-;-;-;-;-;-;-;-;-;-;-;-
1514176735639;-;-;8.936844;-0.22605896;0.5800781;-;-;-;-;-;-;-;-;-;-;-;-;-;-;-
1514176735659;-;-;8.671097;-0.35176086;0.844635;-;-;-;-;-;-;-;-;-;-;-;-;-;-;-
1514176735679;-;-;8.880585;-0.73483276;0.96315;-;-;-;-;-;-;-;-;-;-;-;-;-;-;-
1514176735700;-;-;9.260071;-0.98023987;0.65071106;-;-;-;-;-;-;-;-;-;-;-;-;-;-;-
1514176735720;-;-;9.327103;-0.89523315;0.34544373;-;-;-;-;-;-;-;-;-;-;-;-;-;-;-
1514176735740;-;-;9.289993;-0.7013092;0.34065247;-;-;-;-;-;-;-;-;-;-;-;-;-;-;-
1514176735761;-;-;9.194229;-0.7084961;0.41368103;-;-;-;-;-;-;-;-;-;-;-;-;-;-;-
1514176735781;-;-;9.114014;-1.0149536;0.8434448;-;-;-;-;-;-;-;-;-;-;-;-;-;-;-
1514176735801;-;-;9.210983;-1.2795105;1.1989746;-;-;-;-;-;-;-;-;-;-;-;-;-;-;-
1514176735821;-;-;9.351044;-1.4483032;1.2779846;-;-;-;-;-;-;-;-;-;-;-;-;-;-;-
1514176735842;-;-;9.21817;-1.3956299;1.291153;-;-;-;-;-;-;-;-;-;-;-;-;-;-;-
1514176735861;-;-;9.267242;-1.2723236;1.4120636;-;-;-;-;-;-;-;-;-;-;-;-;-;-;-
1514176735882;-;-;9.151123;-1.3549194;1.1427155;-;-;-;-;-;-;-;-;-;-;-;-;-;-;-
1514176735902;-;-;9.260071;-1.4710388;0.8218994;-;-;-;-;-;-;-;-;-;-;-;-;-;-;-
1514176735923;-;-;9.189438;-1.5680084;0.47354126;-;-;-;-;-;-;-;-;-;-;-;-;-;-;-
1514176735947;-;-;9.246902;-1.3537292;0.3023529;-;-;-;-;-;-;-;-;-;-;-;-;-;-;-
1514176735968;-;-;9.378571;-1.0747986;0.58366394;-;-;-;-;-;-;-;-;-;-;-;-;-;-;-
1514176735988;-;-;9.383362;-1.0975494;0.79196167;-;-;-;-;-;-;-;-;-;-;-;-;-;-;-
1514176736008;-;-;9.425262;-1.186142;0.8542175;-;-;-;-;-;-;-;-;-;-;-;-;-;-;-
1514176736028;-;-;9.372589;-1.2364197;0.8195038;-;-;-;-;-;-;-;-;-;-;-;-;-;-;-
1514176736049;-;-;9.153519;-1.2232513;0.7943573;-;-;-;-;-;-;-;-;-;-;-;-;-;-;-
1514176736069;-;-;9.075714;-1.2471924;0.8135071;-;-;-;-;-;-;-;-;-;-;-;-;-;-;-
1514176736089;-;-;9.032608;-1.2016907;0.8889313;-;-;-;-;-;-;-;-;-;-;-;-;-;-;-
1514176736110;-;-;9.043396;-1.131073;1.0529327;-;-;-;-;-;-;-;-;-;-;-;-;-;-;-
1514176736130;-;-;9.123596;-1.0628357;1.1115875;-;-;-;-;-;-;-;-;-;-;-;-;-;-;-
1514176736150;-;-;9.051773;-1.0400848;1.1894073;-;-;-;-;-;-;-;-;-;-;-;-;-;-;-
1514176736171;-;-;9.151123;-1.1430359;1.1750336;-;-;-;-;-;-;-;-;-;-;-;-;-;-;-
1514176736190;-;-;9.088882;-1.3058472;1.1331329;-;-;-;-;-;-;-;-;-;-;-;-;-;-;-
1514176736210;-;-;9.003891;-1.506958;1.2169342;-;-;-;-;-;-;-;-;-;-;-;-;-;-;-
1514176736230;-;-;9.100845;-1.5548401;1.2528534;-;-;-;-;-;-;-;-;-;-;-;-;-;-;-
1514176736251;-;-;9.171478;-1.451889;1.1774292;-;-;-;-;-;-;-;-;-;-;-;-;-;-;-
1514176736271;-;-;9.17627;-1.5009766;1.0804749;-;-;-;-;-;-;-;-;-;-;-;-;-;-;-
1514176736291;-;-;9.153519;-1.4387207;0.9523773;-;-;-;-;-;-;-;-;-;-;-;-;-;-;-
1514176736312;-;-;9.178665;-1.2747192;0.79556274;-;-;-;-;-;-;-;-;-;-;-;-;-;-;-
1514176736332;-;-;9.23613;-1.0388947;0.71055603;-;-;-;-;-;-;-;-;-;-;-;-;-;-;-
1514176736352;-;-;9.184647;-1.0400848;0.6926117;-;-;-;-;-;-;-;-;-;-;-;-;-;-;-
1514176736373;-;-;9.17746;-1.0867767;0.7620392;-;-;-;-;-;-;-;-;-;-;-;-;-;-;-
1514176736393;-;-;9.242111;-1.1059265;0.8530121;-;-;-;-;-;-;-;-;-;-;-;-;-;-;-
1514176736413;-;-;9.250488;-1.0305176;0.83865356;-;-;-;-;-;-;-;-;-;-;-;-;-;-;-
1514176736434;-;-;9.233734;-0.9550934;0.8147125;-;-;-;-;-;-;-;-;-;-;-;-;-;-;-
1514176736454;-;-;9.261261;-0.85572815;0.8254852;-;-;-;-;-;-;-;-;-;-;-;-;-;-;-
1514176736474;-;-;9.274429;-0.84017944;0.8230896;-;-;-;-;-;-;-;-;-;-;-;-;-;-;-
1514176736495;-;-;9.282806;-0.9910126;0.7572479;-;-;-;-;-;-;-;-;-;-;-;-;-;-;-
1514176736515;-;-;9.242111;-1.0448761;0.8015442;-;-;-;-;-;-;-;-;-;-;-;-;-;-;-
1514176736535;-;-;9.1523285;-0.98501587;0.7763977;-;-;-;-;-;-;-;-;-;-;-;-;-;-;-
1514176736556;-;-;9.104446;-0.85095215;0.79556274;-;-;-;-;-;-;-;-;-;-;-;-;-;-;-
1514176736577;-;-;9.199005;-0.77552795;0.80752563;-;-;-;-;-;-;-;-;-;-;-;-;-;-;-
1514176736598;-;-;9.276825;-0.75756836;0.8015442;-;-;-;-;-;-;-;-;-;-;-;-;-;-;-
1514176736618;-;-;9.29718;-0.7982788;0.81710815;-;-;-;-;-;-;-;-;-;-;-;-;-;-;-
1514176736638;-;-;9.288788;-0.88327026;0.78956604;-;-;-;-;-;-;-;-;-;-;-;-;-;-;-
1514176736658;-;-;9.331894;-0.9610748;0.844635;-;-;-;-;-;-;-;-;-;-;-;-;-;-;-
1514176736679;-;-;9.269638;-1.0173492;0.83865356;-;-;-;-;-;-;-;-;-;-;-;-;-;-;-
1514176736699;-;-;9.214569;-1.0412903;0.7404938;-;-;-;-;-;-;-;-;-;-;-;-;-;-;-
1514176736720;-;-;9.244507;-1.0388947;0.7464752;-;-;-;-;-;-;-;-;-;-;-;-;-;-;-
1514176736740;-;-;9.21936;-1.0137482;0.6830292;-;-;-;-;-;-;-;-;-;-;-;-;-;-;-
1514176736760;-;-;9.146347;-0.91200256;0.66867065;-;-;-;-;-;-;-;-;-;-;-;-;-;-;-
1514176736780;-;-;9.146347;-0.9191742;0.7823944;-;-;-;-;-;-;-;-;-;-;-;-;-;-;-
1514176736801;-;-;9.222961;-0.95269775;0.7692261;-;-;-;-;-;-;-;-;-;-;-;-;-;-;-
1514176736821;-;-;9.23851;-0.94192505;0.7249298;-;-;-;-;-;-;-;-;-;-;-;-;-;-;-
1514176736842;-;-;9.239716;-0.90242004;0.7069702;-;-;-;-;-;-;-;-;-;-;-;-;-;-;-
1514176736862;-;-;9.234924;-0.9263611;0.7799988;-;-;-;-;-;-;-;-;-;-;-;-;-;-;-
1514176736883;-;-;9.243301;-0.878479;0.83506775;-;-;-;-;-;-;-;-;-;-;-;-;-;-;-
1514176736903;-;-;9.225342;-0.9060211;0.90689087;-;-;-;-;-;-;-;-;-;-;-;-;-;-;-
1514176736923;-;-;9.248093;-0.9646759;0.89730835;-;-;-;-;-;-;-;-;-;-;-;-;-;-;-
1514176736944;-;-;9.193024;-0.98501587;0.9128723;-;-;-;-;-;-;-;-;-;-;-;-;-;-;-
1514176736964;-;-;9.183456;-1.0233307;0.87815857;-;-;-;-;-;-;-;-;-;-;-;-;-;-;-
1514176736984;-;-;9.239716;-1.0317078;0.8542175;-;-;-;-;-;-;-;-;-;-;-;-;-;-;-
1514176737005;-;-;9.154724;-1.0472717;0.83984375;-;-;-;-;-;-;-;-;-;-;-;-;-;-;-
1514176737026;-;-;9.146347;-1.0269165;0.85661316;-;-;-;-;-;-;-;-;-;-;-;-;-;-;-
1514176737046;-;-;9.215775;-0.9622803;0.9380188;-;-;-;-;-;-;-;-;-;-;-;-;-;-;-
1514176737066;-;-;9.239716;-0.9215698;0.939209;-;-;-;-;-;-;-;-;-;-;-;-;-;-;-
1514176737087;-;-;9.252884;-0.8593292;0.899704;-;-;-;-;-;-;-;-;-;-;-;-;-;-;-
1514176737107;-;-;9.268448;-0.82940674;0.8230896;-;-;-;-;-;-;-;-;-;-;-;-;-;-;-
1514176737127;-;-;9.216965;-0.82940674;0.7620392;-;-;-;-;-;-;-;-;-;-;-;-;-;-;-
1514176737148;-;-;9.200211;-0.8569336;0.78118896;-;-;-;-;-;-;-;-;-;-;-;-;-;-;-
1514176737168;-;-;9.214569;-0.80545044;0.81829834;-;-;-;-;-;-;-;-;-;-;-;-;-;-;-
1514176737188;-;-;9.216965;-0.86291504;0.7644348;-;-;-;-;-;-;-;-;-;-;-;-;-;-;-
1514176737208;-;-;9.181061;-0.8892517;0.7716217;-;-;-;-;-;-;-;-;-;-;-;-;-;-;-
1514176737229;-;-;9.210983;-0.9287567;0.7931671;-;-;-;-;-;-;-;-;-;-;-;-;-;-;-
1514176737249;-;-;9.220566;-0.9622803;0.74168396;-;-;-;-;-;-;-;-;-;-;-;-;-;-;-
1514176737269;-;-;9.232529;-0.9934082;0.7285156;-;-;-;-;-;-;-;-;-;-;-;-;-;-;-
1514176737290;-;-;9.215775;-1.0161438;0.69859314;-;-;-;-;-;-;-;-;-;-;-;-;-;-;-
1514176737310;-;-;9.232529;-1.0017853;0.72732544;-;-;-;-;-;-;-;-;-;-;-;-;-;-;-
1514176737330;-;-;9.222961;-1.0089569;0.765625;-;-;-;-;-;-;-;-;-;-;-;-;-;-;-
1514176737351;-;-;9.233734;-1.0137482;0.76683044;-;-;-;-;-;-;-;-;-;-;-;-;-;-;-
1514176737371;-;-;9.230133;-0.99938965;0.7943573;-;-;-;-;-;-;-;-;-;-;-;-;-;-;-
1514176737391;-;-;9.250488;-1.0005798;0.7512665;-;-;-;-;-;-;-;-;-;-;-;-;-;-;-
1514176737411;-;-;9.244507;-1.0149536;0.78956604;-;-;-;-;-;-;-;-;-;-;-;-;-;-;-
1514176737432;-;-;9.232529;-0.97784424;0.80033875;-;-;-;-;-;-;-;-;-;-;-;-;-;-;-
1514176737452;-;-;9.244507;-1.0053711;0.7823944;-;-;-;-;-;-;-;-;-;-;-;-;-;-;-
1514176737472;-;-;9.221756;-0.92996216;0.70578;-;-;-;-;-;-;-;-;-;-;-;-;-;-;-
1514176737493;-;-;9.200211;-0.8988342;0.7404938;-;-;-;-;-;-;-;-;-;-;-;-;-;-;-
1514176737513;-;-;9.216965;-0.91200256;0.760849;-;-;-;-;-;-;-;-;-;-;-;-;-;-;-
1514176737534;-;-;9.205002;-0.95150757;0.7464752;-;-;-;-;-;-;-;-;-;-;-;-;-;-;-
1514176737554;-;-;9.220566;-0.9275665;0.77879333;-;-;-;-;-;-;-;-;-;-;-;-;-;-;-
1514176737574;-;-;9.206192;-0.8868561;0.80633545;-;-;-;-;-;-;-;-;-;-;-;-;-;-;-
1514176737594;-;-;9.226547;-0.83418274;0.79914856;-;-;-;-;-;-;-;-;-;-;-;-;-;-;-
1514176737615;-;-;9.244507;-0.83657837;0.80633545;-;-;-;-;-;-;-;-;-;-;-;-;-;-;-
1514176737635;-;-;9.182251;-0.83657837;0.76683044;-;-;-;-;-;-;-;-;-;-;-;-;-;-;-
1514176737655;-;-;9.212173;-0.84017944;0.73091125;-;-;-;-;-;-;-;-;-;-;-;-;-;-;-
1514176737675;-;-;9.249298;-0.8581238;0.70098877;-;-;-;-;-;-;-;-;-;-;-;-;-;-;-
1514176737696;-;-;9.242111;-0.9167938;0.6207886;-;-;-;-;-;-;-;-;-;-;-;-;-;-;-
1514176737716;-;-;9.230133;-0.9323425;0.6459198;-;-;-;-;-;-;-;-;-;-;-;-;-;-;-
1514176737736;-;-;9.21936;-0.9215698;0.66867065;-;-;-;-;-;-;-;-;-;-;-;-;-;-;-
1514176737757;-;-;9.213379;-0.9646759;0.666275;-;-;-;-;-;-;-;-;-;-;-;-;-;-;-
1514176737777;-;-;9.212173;-0.9754486;0.6542969;-;-;-;-;-;-;-;-;-;-;-;-;-;-;-
1514176737798;-;-;9.2313385;-1.0065765;0.6447296;-;-;-;-;-;-;-;-;-;-;-;-;-;-;-
1514176737818;-;-;9.254074;-1.0724182;0.6638794;-;-;-;-;-;-;-;-;-;-;-;-;-;-;-
1514176737838;-;-;9.240906;-1.0747986;0.6136017;-;-;-;-;-;-;-;-;-;-;-;-;-;-;-
1514176737858;-;-;9.232529;-1.0568542;0.6159973;-;-;-;-;-;-;-;-;-;-;-;-;-;-;-
1514176737880;-;-;9.263657;-1.0293121;0.666275;-;-;-;-;-;-;-;-;-;-;-;-;-;-;-
1514176737900;-;-;9.210983;-1.0245209;0.6351471;-;-;-;-;-;-;-;-;-;-;-;-;-;-;-
1514176737921;-;-;9.25528;-1.0089569;0.66986084;-;-;-;-;-;-;-;-;-;-;-;-;-;-;-
1514176737941;-;-;9.226547;-0.99220276;0.6315613;-;-;-;-;-;-;-;-;-;-;-;-;-;-;-
1514176737961;-;-;9.203796;-0.9550934;0.6243744;-;-;-;-;-;-;-;-;-;-;-;-;-;-;-
1514176737982;-;-;9.233734;-0.8928528;0.61839294;-;-;-;-;-;-;-;-;-;-;-;-;-;-;-
1514176738002;-;-;9.23851;-0.9107971;0.6171875;-;-;-;-;-;-;-;-;-;-;-;-;-;-;-
1514176738022;-;-;9.23613;-0.8677063;0.6459198;-;-;-;-;-;-;-;-;-;-;-;-;-;-;-
1514176738043;-;-;9.226547;-0.82940674;0.6363373;-;-;-;-;-;-;-;-;-;-;-;-;-;-;-
1514176738063;-;-;9.2313385;-0.8964386;0.62677;-;-;-;-;-;-;-;-;-;-;-;-;-;-;-
1514176738083;-;-;9.226547;-0.9048157;0.6243744;-;-;-;-;-;-;-;-;-;-;-;-;-;-;-
1514176738104;-;-;9.234924;-0.94551086;0.58966064;-;-;-;-;-;-;-;-;-;-;-;-;-;-;-
1514176738124;-;-;9.252884;-0.9503021;0.6171875;-;-;-;-;-;-;-;-;-;-;-;-;-;-;-
1514176738144;-;-;9.213379;-0.9826355;0.63394165;-;-;-;-;-;-;-;-;-;-;-;-;-;-;-
1514176738165;-;-;9.234924;-0.9838257;0.666275;-;-;-;-;-;-;-;-;-;-;-;-;-;-;-
1514176738185;-;-;9.201401;-0.9610748;0.6782379;-;-;-;-;-;-;-;-;-;-;-;-;-;-;-
1514176738205;-;-;9.221756;-0.9957886;0.6830292;-;-;-;-;-;-;-;-;-;-;-;-;-;-;-
1514176738226;-;-;9.248093;-0.9682617;0.71894836;-;-;-;-;-;-;-;-;-;-;-;-;-;-;-
1514176738245;-;-;9.197815;-0.94192505;0.6926117;-;-;-;-;-;-;-;-;-;-;-;-;-;-;-
1514176738265;-;-;9.228943;-0.91200256;0.67944336;-;-;-;-;-;-;-;-;-;-;-;-;-;-;-
1514176738286;-;-;9.254074;-0.8928528;0.686615;-;-;-;-;-;-;-;-;-;-;-;-;-;-;-
1514176738306;-;-;9.25647;-0.90242004;0.67344666;-;-;-;-;-;-;-;-;-;-;-;-;-;-;-
1514176738326;-;-;9.193024;-0.8677063;0.7153473;-;-;-;-;-;-;-;-;-;-;-;-;-;-;-
1514176738346;-;-;9.25528;-0.8820648;0.7368927;-;-;-;-;-;-;-;-;-;-;-;-;-;-;-
1514176738367;-;-;9.276825;-0.92037964;0.6483154;-;-;-;-;-;-;-;-;-;-;-;-;-;-;-
1514176738387;-;-;9.234924;-0.92396545;0.61239624;-;-;-;-;-;-;-;-;-;-;-;-;-;-;-
1514176738407;-;-;9.233734;-0.92396545;0.66867065;-;-;-;-;-;-;-;-;-;-;-;-;-;-;-
1514176738428;-;-;9.185837;-0.92277527;0.7249298;-;-;-;-;-;-;-;-;-;-;-;-;-;-;-
1514176738448;-;-;9.23851;-0.9263611;0.6997833;-;-;-;-;-;-;-;-;-;-;-;-;-;-;-
1514176738468;-;-;9.203796;-0.8964386;0.6674652;-;-;-;-;-;-;-;-;-;-;-;-;-;-;-
1514176738488;-;-;9.199005;-0.93473816;0.6926117;-;-;-;-;-;-;-;-;-;-;-;-;-;-;-
1514176738509;-;-;9.23851;-0.9610748;0.6782379;-;-;-;-;-;-;-;-;-;-;-;-;-;-;-
1514176738530;-;-;9.222961;-0.9395294;0.66986084;-;-;-;-;-;-;-;-;-;-;-;-;-;-;-
1514176738551;-;-;9.201401;-0.92996216;0.6890106;-;-;-;-;-;-;-;-;-;-;-;-;-;-;-
1514176738571;-;-;9.226547;-0.92037964;0.6854248;-;-;-;-;-;-;-;-;-;-;-;-;-;-;-
1514176738591;-;-;9.250488;-0.89045715;0.6710663;-;-;-;-;-;-;-;-;-;-;-;-;-;-;-
1514176738612;-;-;9.274429;-0.95269775;0.681839;-;-;-;-;-;-;-;-;-;-;-;-;-;-;-
1514176738632;-;-;9.222961;-0.9443207;0.6950073;-;-;-;-;-;-;-;-;-;-;-;-;-;-;-
1514176738652;-;-;9.226547;-0.93473816;0.6842346;-;-;-;-;-;-;-;-;-;-;-;-;-;-;-
1514176738673;-;-;9.2313385;-0.9287567;0.6830292;-;-;-;-;-;-;-;-;-;-;-;-;-;-;-
1514176738693;-;-;9.220566;-0.9263611;0.70098877;-;-;-;-;-;-;-;-;-;-;-;-;-;-;-
1514176738712;-;-;9.233734;-0.9359436;0.721344;-;-;-;-;-;-;-;-;-;-;-;-;-;-;-
1514176738732;-;-;9.213379;-0.90122986;0.71655273;-;-;-;-;-;-;-;-;-;-;-;-;-;-;-
1514176738753;-;-;9.250488;-0.8712921;0.70217896;-;-;-;-;-;-;-;-;-;-;-;-;-;-;-
1514176738773;-;-;9.222961;-0.8988342;0.7368927;-;-;-;-;-;-;-;-;-;-;-;-;-;-;-
1514176738793;-;-;9.216965;-0.8928528;0.7033844;-;-;-;-;-;-;-;-;-;-;-;-;-;-;-
1514176738814;-;-;9.226547;-0.9323425;0.71894836;-;-;-;-;-;-;-;-;-;-;-;-;-;-;-
1514176738834;-;-;9.226547;-0.9431305;0.686615;-;-;-;-;-;-;-;-;-;-;-;-;-;-;-
1514176738854;-;-;9.222961;-0.9443207;0.67944336;-;-;-;-;-;-;-;-;-;-;-;-;-;-;-
