TimeStamp[ms];Prox[Cm];Lux[lux];AccX[m/s^2];AccY[m/s^2];AccZ[m/s^2];GyroX[rad/s];GyroY[rad/s];GyroZ[rad/s];MagnX[uT];MagnY[uT];MagnZ[uT];OrienYaw[degrees];OrienPitch[degrees];OrienRoll[degrees];Press[Pa];Temp[C°];Batt[%];Lat;Lng;Speed[m/s]
1514176992013;-;-;8.423294;-1.6733551;3.1634216;-;-;-;-;-;-;-;-;-;-;-;-;-;-;-
1514176992013;-;-;8.423294;-1.6733551;3.1634216;-;-;-;-;-;-;-;-;-;-;-;-;-;-;-
1514176992027;-;-;8.32991;-1.6494141;3.0712433;-;-;-;-;-;-;-;-;-;-;-;-;-;-;-
1514176992048;-;-;8.301193;-1.656601;2.9766693;-;-;-;-;-;-;-;-;-;-;-;-;-;-;-
1514176992068;-;-;8.558563;-1.6194916;3.0173798;-;-;-;-;-;-;-;-;-;-;-;-;-;-;-
1514176992088;-;-;8.696228;-1.5201263;2.9287872;-;-;-;-;-;-;-;-;-;-;-;-;-;-;-
1514176992109;-;-;8.915298;-1.3393707;2.8198547;-;-;-;-;-;-;-;-;-;-;-;-;-;-;-
1514176992129;-;-;8.957199;-1.3142242;2.6857758;-;-;-;-;-;-;-;-;-;-;-;-;-;-;-
1514176992149;-;-;8.946426;-1.2843018;2.6127625;-;-;-;-;-;-;-;-;-;-;-;-;-;-;-
1514176992170;-;-;9.076904;-1.3226013;2.5349426;-;-;-;-;-;-;-;-;-;-;-;-;-;-;-
1514176992190;-;-;9.006287;-1.2411957;2.493042;-;-;-;-;-;-;-;-;-;-;-;-;-;-;-
1514176992210;-;-;9.014664;-1.2986603;2.5457153;-;-;-;-;-;-;-;-;-;-;-;-;-;-;-
1514176992231;-;-;8.940445;-1.483017;2.2883453;-;-;-;-;-;-;-;-;-;-;-;-;-;-;-
1514176992264;-;-;8.698624;-1.4878082;2.3984833;-;-;-;-;-;-;-;-;-;-;-;-;-;-;-
1514176992271;-;-;8.641159;-1.4542847;2.3577728;-;-;-;-;-;-;-;-;-;-;-;-;-;-;-
1514176992291;-;-;8.657928;-1.562027;1.9615326;-;-;-;-;-;-;-;-;-;-;-;-;-;-;-
1514176992312;-;-;8.4843445;-1.530899;2.0237885;-;-;-;-;-;-;-;-;-;-;-;-;-;-;-
1514176992332;-;-;8.357452;-1.7930603;1.9004822;-;-;-;-;-;-;-;-;-;-;-;-;-;-;-
1514176992352;-;-;7.861847;-1.7727203;1.3438263;-;-;-;-;-;-;-;-;-;-;-;-;-;-;-
1514176992373;-;-;8.315552;-1.8074341;1.310318;-;-;-;-;-;-;-;-;-;-;-;-;-;-;-
1514176992394;-;-;8.880585;-2.1677551;1.3929138;-;-;-;-;-;-;-;-;-;-;-;-;-;-;-
1514176992413;-;-;8.867416;-0.8461609;0.41368103;-;-;-;-;-;-;-;-;-;-;-;-;-;-;-
1514176992434;-;-;6.625244;-0.3876648;-2.0559387;-;-;-;-;-;-;-;-;-;-;-;-;-;-;-
1514176992453;-;-;7.4847565;-0.24162292;-0.2399292;-;-;-;-;-;-;-;-;-;-;-;-;-;-;-
1514176992473;-;-;9.510254;-0.27514648;0.55015564;-;-;-;-;-;-;-;-;-;-;-;-;-;-;-
1514176992493;-;-;10.484695;-0.24043274;-2.3216858;-;-;-;-;-;-;-;-;-;-;-;-;-;-;-
1514176992514;-;-;11.951141;1.2655334;-0.9438324;-;-;-;-;-;-;-;-;-;-;-;-;-;-;-
1514176992535;-;-;11.888901;2.0280762;-2.057129;-;-;-;-;-;-;-;-;-;-;-;-;-;-;-
1514176992555;-;-;11.214935;0.04927063;-2.1540985;-;-;-;-;-;-;-;-;-;-;-;-;-;-;-
1514176992575;-;-;9.128387;-0.66539;-1.5591431;-;-;-;-;-;-;-;-;-;-;-;-;-;-;-
1514176992596;-;-;8.535812;-0.46069336;-1.2526855;-;-;-;-;-;-;-;-;-;-;-;-;-;-;-
1514176992616;-;-;8.824326;-0.3397827;-1.3723907;-;-;-;-;-;-;-;-;-;-;-;-;-;-;-
1514176992636;-;-;8.926071;-0.20570374;-1.2885895;-;-;-;-;-;-;-;-;-;-;-;-;-;-;-
1514176992657;-;-;8.989517;-0.17578125;-1.4813232;-;-;-;-;-;-;-;-;-;-;-;-;-;-;-
1514176992677;-;-;9.094864;-0.27394104;-1.8955231;-;-;-;-;-;-;-;-;-;-;-;-;-;-;-
1514176992698;-;-;9.172684;-0.13627625;-1.7674408;-;-;-;-;-;-;-;-;-;-;-;-;-;-;-
1514176992718;-;-;9.149933;-0.16381836;-1.7782135;-;-;-;-;-;-;-;-;-;-;-;-;-;-;-
1514176992738;-;-;9.214569;0.15940857;-1.5208282;-;-;-;-;-;-;-;-;-;-;-;-;-;-;-
1514176992759;-;-;9.134369;0.093566895;-1.5411835;-;-;-;-;-;-;-;-;-;-;-;-;-;-;-
1514176992778;-;-;8.799179;0.14982605;-1.4430237;-;-;-;-;-;-;-;-;-;-;-;-;-;-;-
1514176992798;-;-;9.203796;0.19293213;-1.8727875;-;-;-;-;-;-;-;-;-;-;-;-;-;-;-
1514176992818;-;-;8.97995;0.22883606;-1.8332825;-;-;-;-;-;-;-;-;-;-;-;-;-;-;-
1514176992839;-;-;9.911285;-0.2033081;-1.8392639;-;-;-;-;-;-;-;-;-;-;-;-;-;-;-
1514176992859;-;-;8.065353;0.2635498;-2.2187347;-;-;-;-;-;-;-;-;-;-;-;-;-;-;-
1514176992879;-;-;8.728546;0.97224426;-1.6716614;-;-;-;-;-;-;-;-;-;-;-;-;-;-;-
1514176992899;-;-;8.102463;2.663742;-0.55955505;-;-;-;-;-;-;-;-;-;-;-;-;-;-;-
1514176992920;-;-;9.116409;-0.50019836;-1.6968079;-;-;-;-;-;-;-;-;-;-;-;-;-;-;-
1514176992940;-;-;9.623978;-1.5751953;-1.6800537;-;-;-;-;-;-;-;-;-;-;-;-;-;-;-
1514176992960;-;-;10.708557;-1.1286774;-2.0092468;-;-;-;-;-;-;-;-;-;-;-;-;-;-;-
1514176992980;-;-;10.040573;-1.0604401;-1.7830048;-;-;-;-;-;-;-;-;-;-;-;-;-;-;-
1514176993000;-;-;8.437653;0.15820313;-1.0707245;-;-;-;-;-;-;-;-;-;-;-;-;-;-;-
1514176993021;-;-;8.15155;0.02772522;-1.3245087;-;-;-;-;-;-;-;-;-;-;-;-;-;-;-
1514176993041;-;-;8.722565;-0.04888916;-1.9039001;-;-;-;-;-;-;-;-;-;-;-;-;-;-;-
1514176993061;-;-;9.015854;-0.4163971;-2.1888123;-;-;-;-;-;-;-;-;-;-;-;-;-;-;-
1514176993082;-;-;8.813553;-0.030929565;-1.9494019;-;-;-;-;-;-;-;-;-;-;-;-;-;-;-
1514176993102;-;-;9.406113;0.3222046;-1.990097;-;-;-;-;-;-;-;-;-;-;-;-;-;-;-
1514176993122;-;-;7.532654;-0.1769867;-1.4107056;-;-;-;-;-;-;-;-;-;-;-;-;-;-;-
1514176993142;-;-;8.34787;-0.7312317;-2.6377258;-;-;-;-;-;-;-;-;-;-;-;-;-;-;-
1514176993163;-;-;8.396957;-0.7276459;-3.4062653;-;-;-;-;-;-;-;-;-;-;-;-;-;-;-
1514176993183;-;-;5.3611145;0.5484619;-4.3280334;-;-;-;-;-;-;-;-;-;-;-;-;-;-;-
1514176993203;-;-;8.046204;1.3948212;-3.238678;-;-;-;-;-;-;-;-;-;-;-;-;-;-;-
1514176993224;-;-;8.134796;-1.3393707;-3.0207977;-;-;-;-;-;-;-;-;-;-;-;-;-;-;-
1514176993244;-;-;4.67157;-0.20451355;-4.4585114;-;-;-;-;-;-;-;-;-;-;-;-;-;-;-
1514176993265;-;-;4.7445984;0.1845398;-5.511963;-;-;-;-;-;-;-;-;-;-;-;-;-;-;-
1514176993285;-;-;7.12204;-1.4411163;-5.072632;-;-;-;-;-;-;-;-;-;-;-;-;-;-;-
1514176993305;-;-;7.056198;-1.194519;-1.6704712;-;-;-;-;-;-;-;-;-;-;-;-;-;-;-
1514176993326;-;-;7.739746;-1.3585205;-2.3719635;-;-;-;-;-;-;-;-;-;-;-;-;-;-;-
1514176993346;-;-;5.868683;-1.4794312;-2.8113098;-;-;-;-;-;-;-;-;-;-;-;-;-;-;-
1514176993366;-;-;3.7917023;-3.124237;-1.4861145;-;-;-;-;-;-;-;-;-;-;-;-;-;-;-
1514176993388;-;-;8.677078;-2.3545074;-5.223465;-;-;-;-;-;-;-;-;-;-;-;-;-;-;-
1514176993408;-;-;7.8762207;-1.696106;-4.8894806;-;-;-;-;-;-;-;-;-;-;-;-;-;-;-
1514176993428;-;-;3.8276215;0.12828064;-2.934616;-;-;-;-;-;-;-;-;-;-;-;-;-;-;-
1514176993448;-;-;6.6300354;-0.01776123;-4.5171814;-;-;-;-;-;-;-;-;-;-;-;-;-;-;-
1514176993469;-;-;6.8239594;-0.25239563;-4.322052;-;-;-;-;-;-;-;-;-;-;-;-;-;-;-
1514176993489;-;-;6.952057;-0.96707153;-3.0423431;-;-;-;-;-;-;-;-;-;-;-;-;-;-;-
1514176993509;-;-;5.806427;-0.60554504;-3.203949;-;-;-;-;-;-;-;-;-;-;-;-;-;-;-
1514176993530;-;-;6.462433;-0.43914795;-3.970108;-;-;-;-;-;-;-;-;-;-;-;-;-;-;-
1514176993550;-;-;7.4261017;-0.80545044;-5.1851654;-;-;-;-;-;-;-;-;-;-;-;-;-;-;-
1514176993570;-;-;7.6547546;-1.0939636;-6.085373;-;-;-;-;-;-;-;-;-;-;-;-;-;-;-
1514176993590;-;-;7.240555;-1.1262817;-5.5622406;-;-;-;-;-;-;-;-;-;-;-;-;-;-;-
1514176993610;-;-;7.367447;-1.0975494;-5.2569885;-;-;-;-;-;-;-;-;-;-;-;-;-;-;-
1514176993631;-;-;7.9276886;-1.3429565;-5.429367;-;-;-;-;-;-;-;-;-;-;-;-;-;-;-
1514176993651;-;-;8.915298;-1.8684845;-5.669983;-;-;-;-;-;-;-;-;-;-;-;-;-;-;-
1514176993671;-;-;9.363022;-2.3233795;-6.243393;-;-;-;-;-;-;-;-;-;-;-;-;-;-;-
1514176993692;-;-;8.977554;-2.3185883;-6.875458;-;-;-;-;-;-;-;-;-;-;-;-;-;-;-
1514176993714;-;-;7.732559;-1.5560455;-7.1747437;-;-;-;-;-;-;-;-;-;-;-;-;-;-;-
1514176993732;-;-;6.498352;-0.3577423;-6.6647797;-;-;-;-;-;-;-;-;-;-;-;-;-;-;-
1514176993753;-;-;6.3822327;0.30903625;-5.760971;-;-;-;-;-;-;-;-;-;-;-;-;-;-;-
1514176993773;-;-;6.9305115;-0.15782166;-5.6364594;-;-;-;-;-;-;-;-;-;-;-;-;-;-;-
1514176993793;-;-;7.588913;-1.0017853;-5.89624;-;-;-;-;-;-;-;-;-;-;-;-;-;-;-
1514176993814;-;-;8.436462;-1.3214111;-6.0470734;-;-;-;-;-;-;-;-;-;-;-;-;-;-;-
1514176993834;-;-;9.382172;-0.89523315;-6.8359528;-;-;-;-;-;-;-;-;-;-;-;-;-;-;-
1514176993854;-;-;10.299149;-1.0029755;-7.503937;-;-;-;-;-;-;-;-;-;-;-;-;-;-;-
1514176993875;-;-;9.093674;-1.1789551;-7.065796;-;-;-;-;-;-;-;-;-;-;-;-;-;-;-
1514176993895;-;-;8.416107;-1.1765594;-5.9967957;-;-;-;-;-;-;-;-;-;-;-;-;-;-;-
1514176993915;-;-;7.9983215;-0.9060211;-4.792511;-;-;-;-;-;-;-;-;-;-;-;-;-;-;-
1514176993935;-;-;8.128799;-0.36732483;-4.7111053;-;-;-;-;-;-;-;-;-;-;-;-;-;-;-
1514176993956;-;-;8.695038;-0.16142273;-4.4669037;-;-;-;-;-;-;-;-;-;-;-;-;-;-;-
1514176993976;-;-;11.654266;-1.0795898;-3.567871;-;-;-;-;-;-;-;-;-;-;-;-;-;-;-
1514176993996;-;-;14.570404;-1.443512;-4.682373;-;-;-;-;-;-;-;-;-;-;-;-;-;-;-
1514176994017;-;-;16.0596;-1.740387;-7.6571655;-;-;-;-;-;-;-;-;-;-;-;-;-;-;-
1514176994038;-;-;14.601532;-2.001358;-9.627594;-;-;-;-;-;-;-;-;-;-;-;-;-;-;-
1514176994058;-;-;14.29866;-1.2771149;-5.701111;-;-;-;-;-;-;-;-;-;-;-;-;-;-;-
1514176994078;-;-;11.881714;-0.5145569;-2.7897644;-;-;-;-;-;-;-;-;-;-;-;-;-;-;-
1514176994098;-;-;8.18866;-0.5349121;-1.6405487;-;-;-;-;-;-;-;-;-;-;-;-;-;-;-
1514176994119;-;-;5.7693176;-0.74560547;-0.6792755;-;-;-;-;-;-;-;-;-;-;-;-;-;-;-
1514176994139;-;-;4.4561005;-0.7886963;0.6746521;-;-;-;-;-;-;-;-;-;-;-;-;-;-;-
1514176994159;-;-;4.3064575;-0.4056244;1.8945007;-;-;-;-;-;-;-;-;-;-;-;-;-;-;-
1514176994180;-;-;5.489197;0.31982422;1.370163;-;-;-;-;-;-;-;-;-;-;-;-;-;-;-
1514176994200;-;-;7.632004;0.6430359;-0.59547424;-;-;-;-;-;-;-;-;-;-;-;-;-;-;-
1514176994220;-;-;10.567291;0.71006775;-2.4569702;-;-;-;-;-;-;-;-;-;-;-;-;-;-;-
1514176994241;-;-;11.973892;0.31622314;-3.0112305;-;-;-;-;-;-;-;-;-;-;-;-;-;-;-
1514176994261;-;-;11.769196;-0.49061584;-2.4019012;-;-;-;-;-;-;-;-;-;-;-;-;-;-;-
1514176994281;-;-;10.959946;-0.98143005;-1.6632843;-;-;-;-;-;-;-;-;-;-;-;-;-;-;-
1514176994302;-;-;10.1171875;-0.8712921;-0.7403259;-;-;-;-;-;-;-;-;-;-;-;-;-;-;-
1514176994322;-;-;9.367798;-0.58399963;-0.11424255;-;-;-;-;-;-;-;-;-;-;-;-;-;-;-
1514176994342;-;-;8.478363;-0.06803894;-0.056777954;-;-;-;-;-;-;-;-;-;-;-;-;-;-;-
1514176994363;-;-;8.09169;0.43234253;0.034194946;-;-;-;-;-;-;-;-;-;-;-;-;-;-;-
1514176994382;-;-;7.8283386;0.7986603;0.21257019;-;-;-;-;-;-;-;-;-;-;-;-;-;-;-
1514176994402;-;-;7.794815;1.109909;0.10003662;-;-;-;-;-;-;-;-;-;-;-;-;-;-;-
1514176994422;-;-;8.359848;1.0847626;-0.42189026;-;-;-;-;-;-;-;-;-;-;-;-;-;-;-
1514176994443;-;-;8.722565;0.9016113;-0.5691376;-;-;-;-;-;-;-;-;-;-;-;-;-;-;-
1514176994463;-;-;8.98114;0.59155273;-0.43984985;-;-;-;-;-;-;-;-;-;-;-;-;-;-;-
1514176994483;-;-;8.98233;0.26115417;-0.2399292;-;-;-;-;-;-;-;-;-;-;-;-;-;-;-
1514176994504;-;-;9.154724;-0.00579834;-0.10586548;-;-;-;-;-;-;-;-;-;-;-;-;-;-;-
1514176994523;-;-;9.359421;-0.21409607;-0.33210754;-;-;-;-;-;-;-;-;-;-;-;-;-;-;-
1514176994543;-;-;9.339081;0.045684814;-0.5499878;-;-;-;-;-;-;-;-;-;-;-;-;-;-;-
1514176994564;-;-;9.353439;0.31622314;-0.5607605;-;-;-;-;-;-;-;-;-;-;-;-;-;-;-
1514176994583;-;-;9.264847;0.20968628;-0.24951172;-;-;-;-;-;-;-;-;-;-;-;-;-;-;-
1514176994603;-;-;9.072113;-0.18296814;0.082092285;-;-;-;-;-;-;-;-;-;-;-;-;-;-;-
1514176994624;-;-;9.00029;-0.6007538;0.022232056;-;-;-;-;-;-;-;-;-;-;-;-;-;-;-
1514176994644;-;-;9.017059;-0.5432892;-0.23155212;-;-;-;-;-;-;-;-;-;-;-;-;-;-;-
1514176994664;-;-;8.923676;-0.47265625;-0.4230957;-;-;-;-;-;-;-;-;-;-;-;-;-;-;-
1514176994684;-;-;8.944031;-0.46548462;-0.7056122;-;-;-;-;-;-;-;-;-;-;-;-;-;-;-
1514176994705;-;-;9.367798;-0.21887207;-0.9641876;-;-;-;-;-;-;-;-;-;-;-;-;-;-;-
1514176994725;-;-;9.784393;0.1797638;-1.3652039;-;-;-;-;-;-;-;-;-;-;-;-;-;-;-
1514176994745;-;-;10.121979;0.30545044;-1.1329651;-;-;-;-;-;-;-;-;-;-;-;-;-;-;-
1514176994766;-;-;9.945999;-0.07043457;-1.7219391;-;-;-;-;-;-;-;-;-;-;-;-;-;-;-
1514176994786;-;-;9.527023;-0.58758545;-2.3611908;-;-;-;-;-;-;-;-;-;-;-;-;-;-;-
1514176994806;-;-;9.210983;-0.6079407;-2.5539246;-;-;-;-;-;-;-;-;-;-;-;-;-;-;-
1514176994826;-;-;9.165497;-0.54089355;-2.508438;-;-;-;-;-;-;-;-;-;-;-;-;-;-;-
1514176994847;-;-;9.3701935;-0.24520874;-1.9984741;-;-;-;-;-;-;-;-;-;-;-;-;-;-;-
1514176994867;-;-;9.307953;-0.7084961;-1.3855591;-;-;-;-;-;-;-;-;-;-;-;-;-;-;-
1514176994887;-;-;9.4935;-0.3972473;-1.416687;-;-;-;-;-;-;-;-;-;-;-;-;-;-;-
1514176994908;-;-;9.054169;-0.2966919;-1.2095795;-;-;-;-;-;-;-;-;-;-;-;-;-;-;-
1514176994928;-;-;9.348648;-0.22247314;-1.4466095;-;-;-;-;-;-;-;-;-;-;-;-;-;-;-
1514176994949;-;-;8.509476;-0.5744171;-1.9625702;-;-;-;-;-;-;-;-;-;-;-;-;-;-;-
1514176994969;-;-;8.927277;-0.59117126;-2.1529083;-;-;-;-;-;-;-;-;-;-;-;-;-;-;-
1514176994989;-;-;9.031418;-0.86172485;-2.0918427;-;-;-;-;-;-;-;-;-;-;-;-;-;-;-
1514176995010;-;-;9.728134;-0.48942566;-1.9075012;-;-;-;-;-;-;-;-;-;-;-;-;-;-;-
1514176995030;-;-;9.677856;-0.25120544;-1.9589691;-;-;-;-;-;-;-;-;-;-;-;-;-;-;-
1514176995050;-;-;9.797562;-0.08958435;-1.5004883;-;-;-;-;-;-;-;-;-;-;-;-;-;-;-
1514176995071;-;-;9.323517;-0.071640015;-1.6261749;-;-;-;-;-;-;-;-;-;-;-;-;-;-;-
1514176995091;-;-;9.14035;-0.14465332;-1.3855591;-;-;-;-;-;-;-;-;-;-;-;-;-;-;-
1514176995111;-;-;8.283234;-0.52893066;-0.98573303;-;-;-;-;-;-;-;-;-;-;-;-;-;-;-
1514176995131;-;-;8.339493;-0.56962585;-1.179657;-;-;-;-;-;-;-;-;-;-;-;-;-;-;-
1514176995152;-;-;8.520264;-0.799469;-1.0036774;-;-;-;-;-;-;-;-;-;-;-;-;-;-;-
1514176995172;-;-;9.012268;-0.8748932;-1.2909851;-;-;-;-;-;-;-;-;-;-;-;-;-;-;-
1514176995192;-;-;9.304352;-0.82341003;-1.2790222;-;-;-;-;-;-;-;-;-;-;-;-;-;-;-
1514176995212;-;-;9.676651;-0.5744171;-1.3472595;-;-;-;-;-;-;-;-;-;-;-;-;-;-;-
1514176995233;-;-;9.658707;-0.31225586;-1.4825287;-;-;-;-;-;-;-;-;-;-;-;-;-;-;-
1514176995253;-;-;9.47435;-0.15184021;-1.4992828;-;-;-;-;-;-;-;-;-;-;-;-;-;-;-
1514176995273;-;-;9.075714;-0.26316833;-1.2538757;-;-;-;-;-;-;-;-;-;-;-;-;-;-;-
1514176995294;-;-;9.109222;0.12828064;-1.5459747;-;-;-;-;-;-;-;-;-;-;-;-;-;-;-
1514176995314;-;-;8.732147;-0.0728302;-0.7786255;-;-;-;-;-;-;-;-;-;-;-;-;-;-;-
1514176995335;-;-;9.17627;0.16419983;-1.1844482;-;-;-;-;-;-;-;-;-;-;-;-;-;-;-
1514176995355;-;-;8.777634;-0.26316833;-0.7391205;-;-;-;-;-;-;-;-;-;-;-;-;-;-;-
1514176995375;-;-;9.272034;-0.13148499;-1.0324097;-;-;-;-;-;-;-;-;-;-;-;-;-;-;-
1514176995396;-;-;9.154724;-0.28352356;-0.60743713;-;-;-;-;-;-;-;-;-;-;-;-;-;-;-
1514176995416;-;-;9.511459;-0.040512085;-0.9151001;-;-;-;-;-;-;-;-;-;-;-;-;-;-;-
1514176995436;-;-;8.964386;-0.25958252;-0.5416107;-;-;-;-;-;-;-;-;-;-;-;-;-;-;-
1514176995456;-;-;9.199005;-0.02494812;-0.68525696;-;-;-;-;-;-;-;-;-;-;-;-;-;-;-
1514176995477;-;-;8.07254;-0.2799225;-0.6984253;-;-;-;-;-;-;-;-;-;-;-;-;-;-;-
1514176995497;-;-;9.419281;-0.6701813;-0.69244385;-;-;-;-;-;-;-;-;-;-;-;-;-;-;-
1514176995518;-;-;9.549759;-0.4846344;-0.8648224;-;-;-;-;-;-;-;-;-;-;-;-;-;-;-
1514176995538;-;-;9.400131;-0.46427917;-1.1233978;-;-;-;-;-;-;-;-;-;-;-;-;-;-;-
1514176995558;-;-;9.4887085;-0.5361023;-0.69721985;-;-;-;-;-;-;-;-;-;-;-;-;-;-;-
1514176995578;-;-;9.426468;-0.6474457;-0.8755951;-;-;-;-;-;-;-;-;-;-;-;-;-;-;-
1514176995599;-;-;9.014664;-0.5349121;-0.61701965;-;-;-;-;-;-;-;-;-;-;-;-;-;-;-
1514176995619;-;-;8.7656555;-0.4882202;-0.5332184;-;-;-;-;-;-;-;-;-;-;-;-;-;-;-
1514176995639;-;-;8.903336;-0.5935669;-0.7786255;-;-;-;-;-;-;-;-;-;-;-;-;-;-;-
1514176995660;-;-;9.038605;-0.42237854;-0.7786255;-;-;-;-;-;-;-;-;-;-;-;-;-;-;-
1514176995679;-;-;9.07811;-0.31225586;-0.9474182;-;-;-;-;-;-;-;-;-;-;-;-;-;-;-
1514176995699;-;-;9.181061;-0.23443604;-1.1712799;-;-;-;-;-;-;-;-;-;-;-;-;-;-;-
1514176995719;-;-;9.1523285;-0.076416016;-1.2670441;-;-;-;-;-;-;-;-;-;-;-;-;-;-;-
1514176995740;-;-;9.361816;0.15820313;-1.2215576;-;-;-;-;-;-;-;-;-;-;-;-;-;-;-
1514176995760;-;-;9.3498535;0.06842041;-1.1940308;-;-;-;-;-;-;-;-;-;-;-;-;-;-;-
1514176995780;-;-;9.391739;-0.24520874;-1.1760712;-;-;-;-;-;-;-;-;-;-;-;-;-;-;-
1514176995801;-;-;9.47554;-0.3469696;-1.148529;-;-;-;-;-;-;-;-;-;-;-;-;-;-;-
1514176995821;-;-;9.386963;-0.23803711;-0.843277;-;-;-;-;-;-;-;-;-;-;-;-;-;-;-
1514176995842;-;-;9.352234;-0.27514648;-0.69602966;-;-;-;-;-;-;-;-;-;-;-;-;-;-;-
1514176995861;-;-;9.210983;-0.41760254;-0.64575195;-;-;-;-;-;-;-;-;-;-;-;-;-;-;-
1514176995881;-;-;9.257675;-0.463089;-0.69244385;-;-;-;-;-;-;-;-;-;-;-;-;-;-;-
1514176995902;-;-;9.373795;-0.33380127;-0.68644714;-;-;-;-;-;-;-;-;-;-;-;-;-;-;-
1514176995921;-;-;9.319916;-0.20690918;-0.5787201;-;-;-;-;-;-;-;-;-;-;-;-;-;-;-
1514176995941;-;-;9.23851;-0.16261292;-0.5691376;-;-;-;-;-;-;-;-;-;-;-;-;-;-;-
1514176995961;-;-;9.194229;-0.13388062;-0.5439911;-;-;-;-;-;-;-;-;-;-;-;-;-;-;-
1514176995982;-;-;9.087677;0.013366699;-0.34048462;-;-;-;-;-;-;-;-;-;-;-;-;-;-;-
1514176996003;-;-;9.096069;0.012161255;-0.30337524;-;-;-;-;-;-;-;-;-;-;-;-;-;-;-
1514176996022;-;-;9.187042;-0.018966675;-0.4230957;-;-;-;-;-;-;-;-;-;-;-;-;-;-;-
1514176996043;-;-;9.245697;0.055252075;-0.45780945;-;-;-;-;-;-;-;-;-;-;-;-;-;-;-
1514176996062;-;-;9.309143;0.30903625;-0.34288025;-;-;-;-;-;-;-;-;-;-;-;-;-;-;-
1514176996082;-;-;9.230133;0.4909973;-0.28781128;-;-;-;-;-;-;-;-;-;-;-;-;-;-;-
1514176996102;-;-;9.325912;0.46228027;-0.2566986;-;-;-;-;-;-;-;-;-;-;-;-;-;-;-
1514176996123;-;-;9.487518;0.35932922;-0.39675903;-;-;-;-;-;-;-;-;-;-;-;-;-;-;-
1514176996143;-;-;9.468353;0.27552795;-0.60983276;-;-;-;-;-;-;-;-;-;-;-;-;-;-;-
1514176996163;-;-;8.97995;0.28271484;-0.65293884;-;-;-;-;-;-;-;-;-;-;-;-;-;-;-
1514176996184;-;-;8.936844;0.37487793;-0.4230957;-;-;-;-;-;-;-;-;-;-;-;-;-;-;-
1514176996204;-;-;9.351044;0.4012146;-0.20881653;-;-;-;-;-;-;-;-;-;-;-;-;-;-;-
1514176996224;-;-;9.357025;0.39404297;-0.3261261;-;-;-;-;-;-;-;-;-;-;-;-;-;-;-
1514176996245;-;-;9.159515;0.37727356;-0.31414795;-;-;-;-;-;-;-;-;-;-;-;-;-;-;-
1514176996265;-;-;8.996704;0.2850952;-0.19923401;-;-;-;-;-;-;-;-;-;-;-;-;-;-;-
1514176996285;-;-;8.903336;0.1510315;-0.1381836;-;-;-;-;-;-;-;-;-;-;-;-;-;-;-
1514176996306;-;-;9.00029;0.0756073;-0.17289734;-;-;-;-;-;-;-;-;-;-;-;-;-;-;-
1514176996326;-;-;9.242111;-0.033325195;-0.22796631;-;-;-;-;-;-;-;-;-;-;-;-;-;-;-
1514176996346;-;-;9.278015;-0.078811646;-0.377594;-;-;-;-;-;-;-;-;-;-;-;-;-;-;-
1514176996366;-;-;9.254074;-0.3397827;-0.42189026;-;-;-;-;-;-;-;-;-;-;-;-;-;-;-
1514176996387;-;-;9.252884;-0.3194275;-0.23753357;-;-;-;-;-;-;-;-;-;-;-;-;-;-;-
1514176996409;-;-;9.1918335;-0.2212677;-0.24472046;-;-;-;-;-;-;-;-;-;-;-;-;-;-;-
1514176996427;-;-;9.091278;-0.2212677;-0.3668213;-;-;-;-;-;-;-;-;-;-;-;-;-;-;-
1514176996447;-;-;9.228943;-0.22007751;-0.30337524;-;-;-;-;-;-;-;-;-;-;-;-;-;-;-
1514176996468;-;-;9.352234;-0.22007751;-0.15374756;-;-;-;-;-;-;-;-;-;-;-;-;-;-;-
1514176996488;-;-;9.348648;-0.23683167;-0.25430298;-;-;-;-;-;-;-;-;-;-;-;-;-;-;-
1514176996509;-;-;9.33548;-0.37210083;-0.33570862;-;-;-;-;-;-;-;-;-;-;-;-;-;-;-
1514176996529;-;-;9.401321;-0.42837524;-0.23753357;-;-;-;-;-;-;-;-;-;-;-;-;-;-;-
1514176996549;-;-;9.380966;-0.46069336;-0.18247986;-;-;-;-;-;-;-;-;-;-;-;-;-;-;-
1514176996570;-;-;9.285202;-0.368515;-0.23275757;-;-;-;-;-;-;-;-;-;-;-;-;-;-;-
1514176996590;-;-;9.360626;-0.32302856;-0.3548584;-;-;-;-;-;-;-;-;-;-;-;-;-;-;-
1514176996610;-;-;9.372589;-0.23324585;-0.44822693;-;-;-;-;-;-;-;-;-;-;-;-;-;-;-
1514176996632;-;-;9.363022;0.04208374;-0.412323;-;-;-;-;-;-;-;-;-;-;-;-;-;-;-
1514176996651;-;-;9.260071;0.2420044;-0.42189026;-;-;-;-;-;-;-;-;-;-;-;-;-;-;-
1514176996671;-;-;9.137955;0.21566772;-0.55477905;-;-;-;-;-;-;-;-;-;-;-;-;-;-;-
1514176996692;-;-;9.123596;0.11869812;-0.5439911;-;-;-;-;-;-;-;-;-;-;-;-;-;-;-
1514176996712;-;-;9.102051;0.28271484;-0.33929443;-;-;-;-;-;-;-;-;-;-;-;-;-;-;-
1514176996732;-;-;9.100845;0.43234253;-0.2291565;-;-;-;-;-;-;-;-;-;-;-;-;-;-;-
1514176996753;-;-;9.068527;0.5376892;-0.2399292;-;-;-;-;-;-;-;-;-;-;-;-;-;-;-
1514176996773;-;-;9.13916;0.48501587;-0.24472046;-;-;-;-;-;-;-;-;-;-;-;-;-;-;-
1514176996793;-;-;9.257675;0.32341003;-0.14537048;-;-;-;-;-;-;-;-;-;-;-;-;-;-;-
1514176996814;-;-;9.261261;0.26594543;-0.120224;-;-;-;-;-;-;-;-;-;-;-;-;-;-;-
1514176996834;-;-;9.233734;0.23602295;-0.08909607;-;-;-;-;-;-;-;-;-;-;-;-;-;-;-
1514176996854;-;-;9.181061;0.28271484;-0.11663818;-;-;-;-;-;-;-;-;-;-;-;-;-;-;-
1514176996875;-;-;9.136765;0.3677063;-0.14057922;-;-;-;-;-;-;-;-;-;-;-;-;-;-;-
1514176996895;-;-;9.155914;0.37010193;-0.0687561;-;-;-;-;-;-;-;-;-;-;-;-;-;-;-
1514176996915;-;-;9.214569;0.39283752;-0.16810608;-;-;-;-;-;-;-;-;-;-;-;-;-;-;-
1514176996936;-;-;9.239716;0.3796692;-0.19683838;-;-;-;-;-;-;-;-;-;-;-;-;-;-;-
1514176996955;-;-;9.242111;0.3222046;-0.2854309;-;-;-;-;-;-;-;-;-;-;-;-;-;-;-
1514176996975;-;-;9.206192;0.3102417;-0.2902069;-;-;-;-;-;-;-;-;-;-;-;-;-;-;-
1514176996995;-;-;9.114014;0.2922821;-0.26028442;-;-;-;-;-;-;-;-;-;-;-;-;-;-;-
1514176997016;-;-;9.185837;0.29348755;-0.23036194;-;-;-;-;-;-;-;-;-;-;-;-;-;-;-
1514176997035;-;-;9.216965;0.24559021;-0.2578888;-;-;-;-;-;-;-;-;-;-;-;-;-;-;-
1514176997055;-;-;9.21936;0.17736816;-0.19923401;-;-;-;-;-;-;-;-;-;-;-;-;-;-;-
1514176997075;-;-;9.233734;0.1558075;-0.24472046;-;-;-;-;-;-;-;-;-;-;-;-;-;-;-
1514176997096;-;-;9.3151245;0.115112305;-0.29499817;-;-;-;-;-;-;-;-;-;-;-;-;-;-;-
1514176997116;-;-;9.266052;0.086380005;-0.34648132;-;-;-;-;-;-;-;-;-;-;-;-;-;-;-
1514176997136;-;-;9.239716;0.093566895;-0.3871765;-;-;-;-;-;-;-;-;-;-;-;-;-;-;-
1514176997157;-;-;9.206192;0.119903564;-0.36442566;-;-;-;-;-;-;-;-;-;-;-;-;-;-;-
1514176997177;-;-;9.21936;0.14144897;-0.3440857;-;-;-;-;-;-;-;-;-;-;-;-;-;-;-
1514176997197;-;-;9.226547;0.14263916;-0.41351318;-;-;-;-;-;-;-;-;-;-;-;-;-;-;-
1514176997218;-;-;9.213379;0.17855835;-0.5176544;-;-;-;-;-;-;-;-;-;-;-;-;-;-;-
1514176997238;-;-;9.159515;0.1438446;-0.48054504;-;-;-;-;-;-;-;-;-;-;-;-;-;-;-
1514176997258;-;-;9.170288;0.098358154;-0.46020508;-;-;-;-;-;-;-;-;-;-;-;-;-;-;-
1514176997279;-;-;9.185837;0.088775635;-0.36083984;-;-;-;-;-;-;-;-;-;-;-;-;-;-;-
1514176997299;-;-;9.276825;0.098358154;-0.42189026;-;-;-;-;-;-;-;-;-;-;-;-;-;-;-
1514176997319;-;-;9.29718;0.15820313;-0.40992737;-;-;-;-;-;-;-;-;-;-;-;-;-;-;-
1514176997340;-;-;9.323517;0.24798584;-0.3764038;-;-;-;-;-;-;-;-;-;-;-;-;-;-;-
1514176997359;-;-;9.250488;0.29826355;-0.33210754;-;-;-;-;-;-;-;-;-;-;-;-;-;-;-
1514176997379;-;-;9.15712;0.3569336;-0.3835907;-;-;-;-;-;-;-;-;-;-;-;-;-;-;-
1514176997400;-;-;9.154724;0.35572815;-0.3656311;-;-;-;-;-;-;-;-;-;-;-;-;-;-;-
1514176997420;-;-;9.163101;0.33776855;-0.29260254;-;-;-;-;-;-;-;-;-;-;-;-;-;-;-
1514176997440;-;-;9.151123;0.32460022;-0.28422546;-;-;-;-;-;-;-;-;-;-;-;-;-;-;-
1514176997460;-;-;9.203796;0.29348755;-0.2566986;-;-;-;-;-;-;-;-;-;-;-;-;-;-;-
1514176997481;-;-;9.221756;0.29707336;-0.30937195;-;-;-;-;-;-;-;-;-;-;-;-;-;-;-
1514176997501;-;-;9.234924;0.259964;-0.34648132;-;-;-;-;-;-;-;-;-;-;-;-;-;-;-
1514176997522;-;-;9.248093;0.24559021;-0.33929443;-;-;-;-;-;-;-;-;-;-;-;-;-;-;-
1514176997542;-;-;9.2313385;0.25398254;-0.33450317;-;-;-;-;-;-;-;-;-;-;-;-;-;-;-
1514176997561;-;-;9.232529;0.1953125;-0.3584442;-;-;-;-;-;-;-;-;-;-;-;-;-;-;-
1514176997581;-;-;9.245697;0.1797638;-0.4626007;-;-;-;-;-;-;-;-;-;-;-;-;-;-;-
1514176997602;-;-;9.209793;0.21687317;-0.37521362;-;-;-;-;-;-;-;-;-;-;-;-;-;-;-
1514176997622;-;-;9.230133;0.23602295;-0.35365295;-;-;-;-;-;-;-;-;-;-;-;-;-;-;-
1514176997642;-;-;9.269638;0.2192688;-0.3835907;-;-;-;-;-;-;-;-;-;-;-;-;-;-;-
1514176997662;-;-;9.197815;0.2240448;-0.46020508;-;-;-;-;-;-;-;-;-;-;-;-;-;-;-
1514176997683;-;-;9.171478;0.2132721;-0.39794922;-;-;-;-;-;-;-;-;-;-;-;-;-;-;-
1514176997703;-;-;9.193024;0.20848083;-0.38119507;-;-;-;-;-;-;-;-;-;-;-;-;-;-;-
1514176997723;-;-;9.21817;0.22883606;-0.33570862;-;-;-;-;-;-;-;-;-;-;-;-;-;-;-
1514176997743;-;-;9.215775;0.22644043;-0.333313;-;-;-;-;-;-;-;-;-;-;-;-;-;-;-
1514176997764;-;-;9.228943;0.20010376;-0.3476715;-;-;-;-;-;-;-;-;-;-;-;-;-;-;-
1514176997784;-;-;9.181061;0.23841858;-0.37400818;-;-;-;-;-;-;-;-;-;-;-;-;-;-;-
1514176997804;-;-;9.17627;0.2132721;-0.3764038;-;-;-;-;-;-;-;-;-;-;-;-;-;-;-
1514176997824;-;-;9.224152;0.23841858;-0.39076233;-;-;-;-;-;-;-;-;-;-;-;-;-;-;-
1514176997844;-;-;9.23732;0.22164917;-0.3476715;-;-;-;-;-;-;-;-;-;-;-;-;-;-;-
1514176997865;-;-;9.210983;0.21208191;-0.3153534;-;-;-;-;-;-;-;-;-;-;-;-;-;-;-
1514176997885;-;-;9.273239;0.22164917;-0.29978943;-;-;-;-;-;-;-;-;-;-;-;-;-;-;-
1514176997905;-;-;9.233734;0.26594543;-0.3440857;-;-;-;-;-;-;-;-;-;-;-;-;-;-;-
1514176997926;-;-;9.227737;0.29109192;-0.3620453;-;-;-;-;-;-;-;-;-;-;-;-;-;-;-
1514176997945;-;-;9.195419;0.28988647;-0.37998962;-;-;-;-;-;-;-;-;-;-;-;-;-;-;-
1514176997965;-;-;9.188232;0.29707336;-0.33810425;-;-;-;-;-;-;-;-;-;-;-;-;-;-;-
1514176997985;-;-;9.203796;0.2886963;-0.33091736;-;-;-;-;-;-;-;-;-;-;-;-;-;-;-
1514176998006;-;-;9.243301;0.29707336;-0.33570862;-;-;-;-;-;-;-;-;-;-;-;-;-;-;-
1514176998026;-;-;9.214569;0.30545044;-0.35604858;-;-;-;-;-;-;-;-;-;-;-;-;-;-;-
1514176998046;-;-;9.21817;0.27313232;-0.32254028;-;-;-;-;-;-;-;-;-;-;-;-;-;-;-
1514176998067;-;-;9.189438;0.29707336;-0.38478088;-;-;-;-;-;-;-;-;-;-;-;-;-;-;-
1514176998087;-;-;9.206192;0.25517273;-0.32133484;-;-;-;-;-;-;-;-;-;-;-;-;-;-;-
1514176998107;-;-;9.286407;0.22285461;-0.32731628;-;-;-;-;-;-;-;-;-;-;-;-;-;-;-
1514176998127;-;-;9.246902;0.24081421;-0.38957214;-;-;-;-;-;-;-;-;-;-;-;-;-;-;-
1514176998148;-;-;9.199005;0.21087646;-0.34169006;-;-;-;-;-;-;-;-;-;-;-;-;-;-;-
1514176998167;-;-;9.203796;0.2420044;-0.2973938;-;-;-;-;-;-;-;-;-;-;-;-;-;-;-
1514176998187;-;-;9.258865;0.24440002;-0.32254028;-;-;-;-;-;-;-;-;-;-;-;-;-;-;-
1514176998207;-;-;9.173874;0.20848083;-0.3835907;-;-;-;-;-;-;-;-;-;-;-;-;-;-;-
1514176998228;-;-;9.182251;0.22883606;-0.3440857;-;-;-;-;-;-;-;-;-;-;-;-;-;-;-
1514176998248;-;-;9.154724;0.20848083;-0.29499817;-;-;-;-;-;-;-;-;-;-;-;-;-;-;-
1514176998268;-;-;9.221756;0.1953125;-0.26986694;-;-;-;-;-;-;-;-;-;-;-;-;-;-;-
1514176998289;-;-;9.246902;0.21806335;-0.2507019;-;-;-;-;-;-;-;-;-;-;-;-;-;-;-
1514176998309;-;-;9.246902;0.2240448;-0.31056213;-;-;-;-;-;-;-;-;-;-;-;-;-;-;-
1514176998330;-;-;9.182251;0.22285461;-0.29859924;-;-;-;-;-;-;-;-;-;-;-;-;-;-;-
1514176998350;-;-;9.208588;0.24798584;-0.29859924;-;-;-;-;-;-;-;-;-;-;-;-;-;-;-
1514176998370;-;-;9.243301;0.22764587;-0.2973938;-;-;-;-;-;-;-;-;-;-;-;-;-;-;-
1514176998390;-;-;9.232529;0.25398254;-0.29859924;-;-;-;-;-;-;-;-;-;-;-;-;-;-;-
1514176998411;-;-;9.248093;0.23242188;-0.28182983;-;-;-;-;-;-;-;-;-;-;-;-;-;-;-
1514176998431;-;-;9.243301;0.26115417;-0.33210754;-;-;-;-;-;-;-;-;-;-;-;-;-;-;-
1514176998452;-;-;9.212173;0.28271484;-0.33810425;-;-;-;-;-;-;-;-;-;-;-;-;-;-;-
1514176998472;-;-;9.182251;0.29826355;-0.32254028;-;-;-;-;-;-;-;-;-;-;-;-;-;-;-
1514176998492;-;-;9.181061;0.28749084;-0.3548584;-;-;-;-;-;-;-;-;-;-;-;-;-;-;-
1514176998512;-;-;9.215775;0.2815094;-0.32731628;-;-;-;-;-;-;-;-;-;-;-;-;-;-;-
1514176998533;-;-;9.246902;0.24679565;-0.3584442;-;-;-;-;-;-;-;-;-;-;-;-;-;-;-
1514176998552;-;-;9.228943;0.26115417;-0.36323547;-;-;-;-;-;-;-;-;-;-;-;-;-;-;-
1514176998573;-;-;9.199005;0.28749084;-0.35604858;-;-;-;-;-;-;-;-;-;-;-;-;-;-;-
1514176998593;-;-;9.1918335;0.31982422;-0.33570862;-;-;-;-;-;-;-;-;-;-;-;-;-;-;-
1514176998613;-;-;9.21817;0.28749084;-0.33091736;-;-;-;-;-;-;-;-;-;-;-;-;-;-;-
1514176998633;-;-;9.182251;0.29826355;-0.32373047;-;-;-;-;-;-;-;-;-;-;-;-;-;-;-
1514176998654;-;-;9.169083;0.24679565;-0.31295776;-;-;-;-;-;-;-;-;-;-;-;-;-;-;-
1514176998674;-;-;9.222961;0.28988647;-0.4051361;-;-;-;-;-;-;-;-;-;-;-;-;-;-;-
1514176998694;-;-;9.164291;0.26235962;-0.377594;-;-;-;-;-;-;-;-;-;-;-;-;-;-;-
1514176998714;-;-;9.171478;0.27192688;-0.29141235;-;-;-;-;-;-;-;-;-;-;-;-;-;-;-
1514176998735;-;-;9.274429;0.23960876;-0.3368988;-;-;-;-;-;-;-;-;-;-;-;-;-;-;-
1514176998755;-;-;9.266052;0.24320984;-0.4015503;-;-;-;-;-;-;-;-;-;-;-;-;-;-;-
1514176998776;-;-;9.214569;0.18933105;-0.33450317;-;-;-;-;-;-;-;-;-;-;-;-;-;-;-
1514176998797;-;-;9.21817;0.17616272;-0.30337524;-;-;-;-;-;-;-;-;-;-;-;-;-;-;-
1514176998817;-;-;9.210983;0.17497253;-0.3249359;-;-;-;-;-;-;-;-;-;-;-;-;-;-;-
1514176998837;-;-;9.248093;0.16419983;-0.30337524;-;-;-;-;-;-;-;-;-;-;-;-;-;-;-
1514176998858;-;-;9.220566;0.19172668;-0.35125732;-;-;-;-;-;-;-;-;-;-;-;-;-;-;-
1514176998878;-;-;9.240906;0.21806335;-0.4015503;-;-;-;-;-;-;-;-;-;-;-;-;-;-;-
1514176998898;-;-;9.201401;0.24320984;-0.4063263;-;-;-;-;-;-;-;-;-;-;-;-;-;-;-
1514176998919;-;-;9.171478;0.24679565;-0.3835907;-;-;-;-;-;-;-;-;-;-;-;-;-;-;-
1514176998939;-;-;9.169083;0.22285461;-0.36083984;-;-;-;-;-;-;-;-;-;-;-;-;-;-;-
1514176998959;-;-;9.196625;0.2527771;-0.4015503;-;-;-;-;-;-;-;-;-;-;-;-;-;-;-
1514176998979;-;-;9.234924;0.27552795;-0.46139526;-;-;-;-;-;-;-;-;-;-;-;-;-;-;-
1514176999000;-;-;9.213379;0.31143188;-0.47216797;-;-;-;-;-;-;-;-;-;-;-;-;-;-;-
1514176999020;-;-;9.182251;0.25756836;-0.4338684;-;-;-;-;-;-;-;-;-;-;-;-;-;-;-
1514176999040;-;-;9.172684;0.24919128;-0.38957214;-;-;-;-;-;-;-;-;-;-;-;-;-;-;-
1514176999061;-;-;9.207397;0.25875854;-0.33091736;-;-;-;-;-;-;-;-;-;-;-;-;-;-;-
1514176999081;-;-;9.225342;0.25038147;-0.3249359;-;-;-;-;-;-;-;-;-;-;-;-;-;-;-
1514176999101;-;-;9.215775;0.2743225;-0.29499817;-;-;-;-;-;-;-;-;-;-;-;-;-;-;-
1514176999122;-;-;9.252884;0.26715088;-0.2866211;-;-;-;-;-;-;-;-;-;-;-;-;-;-;-
1514176999142;-;-;9.249298;0.17497253;-0.3081665;-;-;-;-;-;-;-;-;-;-;-;-;-;-;-
1514176999162;-;-;9.230133;0.19172668;-0.29978943;-;-;-;-;-;-;-;-;-;-;-;-;-;-;-
1514176999183;-;-;9.182251;0.14863586;-0.3249359;-;-;-;-;-;-;-;-;-;-;-;-;-;-;-
1514176999203;-;-;9.163101;0.17376709;-0.333313;-;-;-;-;-;-;-;-;-;-;-;-;-;-;-
1514176999225;-;-;9.21817;0.14743042;-0.36442566;-;-;-;-;-;-;-;-;-;-;-;-;-;-;-
1514176999245;-;-;9.23613;0.13786316;-0.4051361;-;-;-;-;-;-;-;-;-;-;-;-;-;-;-
1514176999265;-;-;9.224152;0.1953125;-0.44343567;-;-;-;-;-;-;-;-;-;-;-;-;-;-;-
1514176999286;-;-;9.329498;0.22525024;-0.5523834;-;-;-;-;-;-;-;-;-;-;-;-;-;-;-
1514176999306;-;-;9.300766;0.17376709;-0.60743713;-;-;-;-;-;-;-;-;-;-;-;-;-;-;-
1514176999326;-;-;9.239716;0.14624023;-0.5799103;-;-;-;-;-;-;-;-;-;-;-;-;-;-;-
1514176999347;-;-;9.207397;0.13665771;-0.40274048;-;-;-;-;-;-;-;-;-;-;-;-;-;-;-
1514176999366;-;-;9.171478;0.18693542;-0.34648132;-;-;-;-;-;-;-;-;-;-;-;-;-;-;-
1514176999386;-;-;9.17746;0.19412231;-0.3440857;-;-;-;-;-;-;-;-;-;-;-;-;-;-;-
1514176999407;-;-;9.187042;0.24798584;-0.38957214;-;-;-;-;-;-;-;-;-;-;-;-;-;-;-
1514176999426;-;-;9.206192;0.27313232;-0.43626404;-;-;-;-;-;-;-;-;-;-;-;-;-;-;-
1514176999446;-;-;9.248093;0.3174286;-0.37042236;-;-;-;-;-;-;-;-;-;-;-;-;-;-;-
1514176999466;-;-;9.239716;0.3282013;-0.3943634;-;-;-;-;-;-;-;-;-;-;-;-;-;-;-
1514176999487;-;-;9.179855;0.3174286;-0.38598633;-;-;-;-;-;-;-;-;-;-;-;-;-;-;-
1514176999507;-;-;9.197815;0.30545044;-0.36442566;-;-;-;-;-;-;-;-;-;-;-;-;-;-;-
1514176999527;-;-;9.227737;0.31143188;-0.3943634;-;-;-;-;-;-;-;-;-;-;-;-;-;-;-
1514176999547;-;-;9.222961;0.31622314;-0.3476715;-;-;-;-;-;-;-;-;-;-;-;-;-;-;-
1514176999568;-;-;9.220566;0.34854126;-0.40393066;-;-;-;-;-;-;-;-;-;-;-;-;-;-;-
1514176999588;-;-;9.17746;0.30903625;-0.39794922;-;-;-;-;-;-;-;-;-;-;-;-;-;-;-
1514176999608;-;-;9.160706;0.31622314;-0.39076233;-;-;-;-;-;-;-;-;-;-;-;-;-;-;-
1514176999629;-;-;9.196625;0.33537292;-0.3871765;-;-;-;-;-;-;-;-;-;-;-;-;-;-;-
1514176999648;-;-;9.201401;0.29588318;-0.3835907;-;-;-;-;-;-;-;-;-;-;-;-;-;-;-
1514176999668;-;-;9.188232;0.28271484;-0.42549133;-;-;-;-;-;-;-;-;-;-;-;-;-;-;-
1514176999688;-;-;9.220566;0.29826355;-0.4242859;-;-;-;-;-;-;-;-;-;-;-;-;-;-;-
1514176999709;-;-;9.2313385;0.25756836;-0.4338684;-;-;-;-;-;-;-;-;-;-;-;-;-;-;-
1514176999729;-;-;9.257675;0.24919128;-0.43026733;-;-;-;-;-;-;-;-;-;-;-;-;-;-;-
1514176999749;-;-;9.232529;0.23602295;-0.4530182;-;-;-;-;-;-;-;-;-;-;-;-;-;-;-
1514176999770;-;-;9.17746;0.24440002;-0.36442566;-;-;-;-;-;-;-;-;-;-;-;-;-;-;-
1514176999790;-;-;9.199005;0.27552795;-0.35246277;-;-;-;-;-;-;-;-;-;-;-;-;-;-;-
1514176999810;-;-;9.251678;0.24679565;-0.4063263;-;-;-;-;-;-;-;-;-;-;-;-;-;-;-
1514176999831;-;-;9.205002;0.21447754;-0.3668213;-;-;-;-;-;-;-;-;-;-;-;-;-;-;-
1514176999851;-;-;9.263657;0.29109192;-0.38838196;-;-;-;-;-;-;-;-;-;-;-;-;-;-;-
1514176999873;-;-;9.3151245;0.29348755;-0.45420837;-;-;-;-;-;-;-;-;-;-;-;-;-;-;-
1514176999892;-;-;9.182251;0.23841858;-0.4446411;-;-;-;-;-;-;-;-;-;-;-;-;-;-;-
1514176999912;-;-;9.184647;0.22883606;-0.37042236;-;-;-;-;-;-;-;-;-;-;-;-;-;-;-
1514176999932;-;-;9.205002;0.25875854;-0.3081665;-;-;-;-;-;-;-;-;-;-;-;-;-;-;-
1514176999953;-;-;9.226547;0.25637817;-0.31176758;-;-;-;-;-;-;-;-;-;-;-;-;-;-;-
1514176999973;-;-;9.227737;0.30065918;-0.3476715;-;-;-;-;-;-;-;-;-;-;-;-;-;-;-
1514176999993;-;-;9.240906;0.33299255;-0.4051361;-;-;-;-;-;-;-;-;-;-;-;-;-;-;-
1514177000013;-;-;9.215775;0.3210144;-0.38478088;-;-;-;-;-;-;-;-;-;-;-;-;-;-;-
1514177000034;-;-;9.187042;0.32580566;-0.4063263;-;-;-;-;-;-;-;-;-;-;-;-;-;-;-
1514177000054;-;-;9.189438;0.28390503;-0.34288025;-;-;-;-;-;-;-;-;-;-;-;-;-;-;-
1514177000074;-;-;9.202606;0.2886963;-0.32731628;-;-;-;-;-;-;-;-;-;-;-;-;-;-;-
1514177000095;-;-;9.251678;0.27552795;-0.34527588;-;-;-;-;-;-;-;-;-;-;-;-;-;-;-
1514177000114;-;-;9.25528;0.2850952;-0.3764038;-;-;-;-;-;-;-;-;-;-;-;-;-;-;-
1514177000134;-;-;9.224152;0.28271484;-0.38238525;-;-;-;-;-;-;-;-;-;-;-;-;-;-;-
1514177000155;-;-;9.179855;0.2743225;-0.38598633;-;-;-;-;-;-;-;-;-;-;-;-;-;-;-
1514177000174;-;-;9.182251;0.28988647;-0.35964966;-;-;-;-;-;-;-;-;-;-;-;-;-;-;-
1514177000195;-;-;9.190628;0.25756836;-0.3440857;-;-;-;-;-;-;-;-;-;-;-;-;-;-;-
1514177000214;-;-;9.193024;0.1953125;-0.3548584;-;-;-;-;-;-;-;-;-;-;-;-;-;-;-
1514177000234;-;-;9.209793;0.21208191;-0.37161255;-;-;-;-;-;-;-;-;-;-;-;-;-;-;-
1514177000254;-;-;9.240906;0.25517273;-0.39915466;-;-;-;-;-;-;-;-;-;-;-;-;-;-;-
1514177000275;-;-;9.251678;0.2240448;-0.3548584;-;-;-;-;-;-;-;-;-;-;-;-;-;-;-
1514177000296;-;-;9.286407;0.17616272;-0.36802673;-;-;-;-;-;-;-;-;-;-;-;-;-;-;-
1514177000316;-;-;9.227737;0.21806335;-0.40872192;-;-;-;-;-;-;-;-;-;-;-;-;-;-;-
1514177000337;-;-;9.196625;0.20249939;-0.32133484;-;-;-;-;-;-;-;-;-;-;-;-;-;-;-
1514177000356;-;-;9.193024;0.26594543;-0.34887695;-;-;-;-;-;-;-;-;-;-;-;-;-;-;-
1514177000376;-;-;9.210983;0.26834106;-0.30937195;-;-;-;-;-;-;-;-;-;-;-;-;-;-;-
1514177000397;-;-;9.230133;0.2300415;-0.24832153;-;-;-;-;-;-;-;-;-;-;-;-;-;-;-
1514177000417;-;-;9.172684;0.22045898;-0.28781128;-;-;-;-;-;-;-;-;-;-;-;-;-;-;-
1514177000437;-;-;9.273239;0.3102417;-0.29859924;-;-;-;-;-;-;-;-;-;-;-;-;-;-;-
1514177000457;-;-;9.249298;0.259964;-0.36083984;-;-;-;-;-;-;-;-;-;-;-;-;-;-;-
1514177000478;-;-;9.209793;0.2803192;-0.37400818;-;-;-;-;-;-;-;-;-;-;-;-;-;-;-
1514177000498;-;-;9.200211;0.2707367;-0.3943634;-;-;-;-;-;-;-;-;-;-;-;-;-;-;-
1514177000518;-;-;9.205002;0.33059692;-0.34887695;-;-;-;-;-;-;-;-;-;-;-;-;-;-;-
1514177000539;-;-;9.2313385;0.3569336;-0.33210754;-;-;-;-;-;-;-;-;-;-;-;-;-;-;-
1514177000559;-;-;9.209793;0.3497467;-0.36802673;-;-;-;-;-;-;-;-;-;-;-;-;-;-;-
1514177000580;-;-;9.202606;0.3617096;-0.3871765;-;-;-;-;-;-;-;-;-;-;-;-;-;-;-
1514177000600;-;-;9.248093;0.3425598;-0.40393066;-;-;-;-;-;-;-;-;-;-;-;-;-;-;-
1514177000619;-;-;9.194229;0.3509369;-0.412323;-;-;-;-;-;-;-;-;-;-;-;-;-;-;-
1514177000639;-;-;9.220566;0.27671814;-0.4051361;-;-;-;-;-;-;-;-;-;-;-;-;-;-;-
1514177000659;-;-;9.23613;0.31143188;-0.41111755;-;-;-;-;-;-;-;-;-;-;-;-;-;-;-
1514177000680;-;-;9.227737;0.3222046;-0.37879944;-;-;-;-;-;-;-;-;-;-;-;-;-;-;-
1514177000700;-;-;9.187042;0.33537292;-0.34527588;-;-;-;-;-;-;-;-;-;-;-;-;-;-;-
1514177000720;-;-;9.14035;0.36531067;-0.4015503;-;-;-;-;-;-;-;-;-;-;-;-;-;-;-
1514177000741;-;-;9.187042;0.34495544;-0.37161255;-;-;-;-;-;-;-;-;-;-;-;-;-;-;-
1514177000761;-;-;9.185837;0.3617096;-0.3955536;-;-;-;-;-;-;-;-;-;-;-;-;-;-;-
1514177000782;-;-;9.183456;0.30186462;-0.39675903;-;-;-;-;-;-;-;-;-;-;-;-;-;-;-
1514177000802;-;-;9.220566;0.31263733;-0.38238525;-;-;-;-;-;-;-;-;-;-;-;-;-;-;-
1514177000822;-;-;9.225342;0.28988647;-0.38238525;-;-;-;-;-;-;-;-;-;-;-;-;-;-;-
1514177000842;-;-;9.197815;0.26115417;-0.3548584;-;-;-;-;-;-;-;-;-;-;-;-;-;-;-
1514177000863;-;-;9.1918335;0.2922821;-0.3835907;-;-;-;-;-;-;-;-;-;-;-;-;-;-;-
1514177000883;-;-;9.23613;0.2527771;-0.40393066;-;-;-;-;-;-;-;-;-;-;-;-;-;-;-
1514177000904;-;-;9.203796;0.27671814;-0.4637909;-;-;-;-;-;-;-;-;-;-;-;-;-;-;-
1514177000924;-;-;9.181061;0.3102417;-0.47097778;-;-;-;-;-;-;-;-;-;-;-;-;-;-;-
1514177000944;-;-;9.225342;0.30784607;-0.47816467;-;-;-;-;-;-;-;-;-;-;-;-;-;-;-
1514177000964;-;-;9.230133;0.3222046;-0.45780945;-;-;-;-;-;-;-;-;-;-;-;-;-;-;-
1514177000984;-;-;9.171478;0.2743225;-0.49850464;-;-;-;-;-;-;-;-;-;-;-;-;-;-;-
1514177001005;-;-;9.251678;0.3425598;-0.5032959;-;-;-;-;-;-;-;-;-;-;-;-;-;-;-
1514177001025;-;-;9.257675;0.35333252;-0.5499878;-;-;-;-;-;-;-;-;-;-;-;-;-;-;-
1514177001045;-;-;9.143951;0.33418274;-0.61701965;-;-;-;-;-;-;-;-;-;-;-;-;-;-;-
1514177001066;-;-;9.178665;0.33059692;-0.51527405;-;-;-;-;-;-;-;-;-;-;-;-;-;-;-
1514177001086;-;-;9.203796;0.34495544;-0.5104828;-;-;-;-;-;-;-;-;-;-;-;-;-;-;-
1514177001106;-;-;9.212173;0.35572815;-0.52604675;-;-;-;-;-;-;-;-;-;-;-;-;-;-;-
1514177001126;-;-;9.206192;0.33776855;-0.54519653;-;-;-;-;-;-;-;-;-;-;-;-;-;-;-
1514177001147;-;-;9.166687;0.32460022;-0.535614;-;-;-;-;-;-;-;-;-;-;-;-;-;-;-
1514177001167;-;-;9.173874;0.33299255;-0.5068817;-;-;-;-;-;-;-;-;-;-;-;-;-;-;-
1514177001188;-;-;9.171478;0.33776855;-0.51646423;-;-;-;-;-;-;-;-;-;-;-;-;-;-;-
1514177001208;-;-;9.232529;0.3138275;-0.47097778;-;-;-;-;-;-;-;-;-;-;-;-;-;-;-
1514177001228;-;-;9.226547;0.33299255;-0.48294067;-;-;-;-;-;-;-;-;-;-;-;-;-;-;-
1514177001248;-;-;9.239716;0.33776855;-0.52604675;-;-;-;-;-;-;-;-;-;-;-;-;-;-;-
1514177001269;-;-;9.194229;0.3174286;-0.5392151;-;-;-;-;-;-;-;-;-;-;-;-;-;-;-
1514177001289;-;-;9.190628;0.33059692;-0.5619507;-;-;-;-;-;-;-;-;-;-;-;-;-;-;-
1514177001309;-;-;9.163101;0.30665588;-0.52005005;-;-;-;-;-;-;-;-;-;-;-;-;-;-;-
1514177001330;-;-;9.200211;0.31982422;-0.496109;-;-;-;-;-;-;-;-;-;-;-;-;-;-;-
1514177001350;-;-;9.226547;0.32939148;-0.5056915;-;-;-;-;-;-;-;-;-;-;-;-;-;-;-
1514177001370;-;-;9.227737;0.31143188;-0.5236511;-;-;-;-;-;-;-;-;-;-;-;-;-;-;-
1514177001391;-;-;9.207397;0.29707336;-0.5439911;-;-;-;-;-;-;-;-;-;-;-;-;-;-;-
1514177001412;-;-;9.21817;0.2527771;-0.51646423;-;-;-;-;-;-;-;-;-;-;-;-;-;-;-
1514177001432;-;-;9.205002;0.2922821;-0.50450134;-;-;-;-;-;-;-;-;-;-;-;-;-;-;-
1514177001453;-;-;9.183456;0.3102417;-0.496109;-;-;-;-;-;-;-;-;-;-;-;-;-;-;-
1514177001473;-;-;9.203796;0.3282013;-0.50450134;-;-;-;-;-;-;-;-;-;-;-;-;-;-;-
1514177001493;-;-;9.184647;0.35214233;-0.5176544;-;-;-;-;-;-;-;-;-;-;-;-;-;-;-
1514177001514;-;-;9.207397;0.36291504;-0.53800964;-;-;-;-;-;-;-;-;-;-;-;-;-;-;-
1514177001534;-;-;9.257675;0.34854126;-0.5140686;-;-;-;-;-;-;-;-;-;-;-;-;-;-;-
1514177001554;-;-;9.175064;0.30545044;-0.4626007;-;-;-;-;-;-;-;-;-;-;-;-;-;-;-
1514177001574;-;-;9.202606;0.28630066;-0.44343567;-;-;-;-;-;-;-;-;-;-;-;-;-;-;-
1514177001595;-;-;9.220566;0.33299255;-0.45420837;-;-;-;-;-;-;-;-;-;-;-;-;-;-;-
1514177001615;-;-;8.988327;0.26715088;-0.50450134;-;-;-;-;-;-;-;-;-;-;-;-;-;-;-
1514177001635;-;-;8.985931;0.24798584;-0.5428009;-;-;-;-;-;-;-;-;-;-;-;-;-;-;-
1514177001656;-;-;9.278015;0.34136963;-0.5140686;-;-;-;-;-;-;-;-;-;-;-;-;-;-;-
1514177001676;-;-;9.510254;0.4084015;-0.5032959;-;-;-;-;-;-;-;-;-;-;-;-;-;-;-
1514177001696;-;-;9.442017;0.36410522;-0.62779236;-;-;-;-;-;-;-;-;-;-;-;-;-;-;-
1514177001717;-;-;9.15712;0.42515564;-0.5894928;-;-;-;-;-;-;-;-;-;-;-;-;-;-;-
1514177001737;-;-;8.996704;0.40242004;-0.46139526;-;-;-;-;-;-;-;-;-;-;-;-;-;-;-
1514177001757;-;-;9.06134;0.37010193;-0.42549133;-;-;-;-;-;-;-;-;-;-;-;-;-;-;-
1514177001778;-;-;9.189438;0.3317871;-0.45420837;-;-;-;-;-;-;-;-;-;-;-;-;-;-;-
1514177001798;-;-;9.234924;0.27552795;-0.42668152;-;-;-;-;-;-;-;-;-;-;-;-;-;-;-
1514177001818;-;-;9.281616;0.26834106;-0.4853363;-;-;-;-;-;-;-;-;-;-;-;-;-;-;-
1514177001838;-;-;9.268448;0.22764587;-0.47695923;-;-;-;-;-;-;-;-;-;-;-;-;-;-;-
1514177001859;-;-;9.093674;0.2348175;-0.48654175;-;-;-;-;-;-;-;-;-;-;-;-;-;-;-
1514177001879;-;-;9.124786;0.22764587;-0.5643463;-;-;-;-;-;-;-;-;-;-;-;-;-;-;-
1514177001899;-;-;9.240906;0.39283752;-0.5332184;-;-;-;-;-;-;-;-;-;-;-;-;-;-;-
1514177001920;-;-;9.342667;0.40481567;-0.6038513;-;-;-;-;-;-;-;-;-;-;-;-;-;-;-
1514177001940;-;-;9.293579;0.4000244;-0.60505676;-;-;-;-;-;-;-;-;-;-;-;-;-;-;-
1514177001960;-;-;9.188232;0.41079712;-0.5823059;-;-;-;-;-;-;-;-;-;-;-;-;-;-;-
1514177001981;-;-;9.142746;0.38446045;-0.5284424;-;-;-;-;-;-;-;-;-;-;-;-;-;-;-
1514177002001;-;-;9.148727;0.3712921;-0.4673767;-;-;-;-;-;-;-;-;-;-;-;-;-;-;-
1514177002021;-;-;9.213379;0.41319275;-0.48773193;-;-;-;-;-;-;-;-;-;-;-;-;-;-;-
1514177002042;-;-;9.243301;0.39404297;-0.45541382;-;-;-;-;-;-;-;-;-;-;-;-;-;-;-
1514177002062;-;-;9.239716;0.41558838;-0.45541382;-;-;-;-;-;-;-;-;-;-;-;-;-;-;-
1514177002082;-;-;9.224152;0.3677063;-0.41949463;-;-;-;-;-;-;-;-;-;-;-;-;-;-;-
1514177002103;-;-;9.0972595;0.3497467;-0.33570862;-;-;-;-;-;-;-;-;-;-;-;-;-;-;-
1514177002123;-;-;9.030228;0.1845398;-0.3620453;-;-;-;-;-;-;-;-;-;-;-;-;-;-;-
1514177002143;-;-;9.190628;0.16539001;-0.4458313;-;-;-;-;-;-;-;-;-;-;-;-;-;-;-
1514177002164;-;-;9.445618;0.38685608;-0.590683;-;-;-;-;-;-;-;-;-;-;-;-;-;-;-
1514177002183;-;-;9.430054;0.4874115;-0.7115936;-;-;-;-;-;-;-;-;-;-;-;-;-;-;-
1514177002203;-;-;9.133179;0.5053711;-0.7056122;-;-;-;-;-;-;-;-;-;-;-;-;-;-;-
1514177002223;-;-;9.090073;0.378479;-0.52963257;-;-;-;-;-;-;-;-;-;-;-;-;-;-;-
1514177002244;-;-;9.104446;0.3892517;-0.45420837;-;-;-;-;-;-;-;-;-;-;-;-;-;-;-
1514177002263;-;-;9.170288;0.41079712;-0.3955536;-;-;-;-;-;-;-;-;-;-;-;-;-;-;-
1514177002283;-;-;9.194229;0.40960693;-0.4530182;-;-;-;-;-;-;-;-;-;-;-;-;-;-;-
1514177002303;-;-;9.227737;0.3677063;-0.45420837;-;-;-;-;-;-;-;-;-;-;-;-;-;-;-
1514177002324;-;-;9.233734;0.338974;-0.4530182;-;-;-;-;-;-;-;-;-;-;-;-;-;-;-
1514177002344;-;-;9.23851;0.32939148;-0.40393066;-;-;-;-;-;-;-;-;-;-;-;-;-;-;-
1514177002364;-;-;9.21817;0.36889648;-0.45899963;-;-;-;-;-;-;-;-;-;-;-;-;-;-;-
1514177002385;-;-;9.189438;0.29467773;-0.39675903;-;-;-;-;-;-;-;-;-;-;-;-;-;-;-
1514177002405;-;-;9.179855;0.30665588;-0.48294067;-;-;-;-;-;-;-;-;-;-;-;-;-;-;-
1514177002425;-;-;9.185837;0.28749084;-0.48414612;-;-;-;-;-;-;-;-;-;-;-;-;-;-;-
1514177002446;-;-;9.173874;0.25875854;-0.5224457;-;-;-;-;-;-;-;-;-;-;-;-;-;-;-
1514177002466;-;-;9.208588;0.3210144;-0.5320282;-;-;-;-;-;-;-;-;-;-;-;-;-;-;-
1514177002486;-;-;9.222961;0.30665588;-0.5499878;-;-;-;-;-;-;-;-;-;-;-;-;-;-;-
1514177002507;-;-;9.21936;0.35214233;-0.5332184;-;-;-;-;-;-;-;-;-;-;-;-;-;-;-
1514177002527;-;-;9.164291;0.4084015;-0.5463867;-;-;-;-;-;-;-;-;-;-;-;-;-;-;-
1514177002547;-;-;9.142746;0.378479;-0.5056915;-;-;-;-;-;-;-;-;-;-;-;-;-;-;-
1514177002567;-;-;9.196625;0.3605194;-0.46139526;-;-;-;-;-;-;-;-;-;-;-;-;-;-;-
1514177002588;-;-;9.227737;0.3796692;-0.41949463;-;-;-;-;-;-;-;-;-;-;-;-;-;-;-
1514177002607;-;-;9.245697;0.4000244;-0.4338684;-;-;-;-;-;-;-;-;-;-;-;-;-;-;-
1514177002627;-;-;9.222961;0.40361023;-0.4278717;-;-;-;-;-;-;-;-;-;-;-;-;-;-;-
1514177002648;-;-;9.201401;0.39404297;-0.43026733;-;-;-;-;-;-;-;-;-;-;-;-;-;-;-
1514177002667;-;-;9.164291;0.41558838;-0.44343567;-;-;-;-;-;-;-;-;-;-;-;-;-;-;-
1514177002687;-;-;9.213379;0.4084015;-0.44224548;-;-;-;-;-;-;-;-;-;-;-;-;-;-;-
1514177002708;-;-;9.194229;0.38327026;-0.51885986;-;-;-;-;-;-;-;-;-;-;-;-;-;-;-
1514177002727;-;-;9.125992;0.35214233;-0.44943237;-;-;-;-;-;-;-;-;-;-;-;-;-;-;-
1514177002747;-;-;9.216965;0.37010193;-0.43026733;-;-;-;-;-;-;-;-;-;-;-;-;-;-;-
1514177002768;-;-;9.285202;0.34735107;-0.5104828;-;-;-;-;-;-;-;-;-;-;-;-;-;-;-
1514177002787;-;-;9.172684;0.30426025;-0.57032776;-;-;-;-;-;-;-;-;-;-;-;-;-;-;-
1514177002807;-;-;9.17627;0.28630066;-0.50927734;-;-;-;-;-;-;-;-;-;-;-;-;-;-;-
1514177002828;-;-;9.212173;0.31622314;-0.44224548;-;-;-;-;-;-;-;-;-;-;-;-;-;-;-
1514177002848;-;-;9.254074;0.2922821;-0.42668152;-;-;-;-;-;-;-;-;-;-;-;-;-;-;-
1514177002868;-;-;9.214569;0.2803192;-0.4350586;-;-;-;-;-;-;-;-;-;-;-;-;-;-;-
1514177002888;-;-;9.183456;0.30784607;-0.43626404;-;-;-;-;-;-;-;-;-;-;-;-;-;-;-
1514177002909;-;-;9.203796;0.30784607;-0.4350586;-;-;-;-;-;-;-;-;-;-;-;-;-;-;-
1514177002929;-;-;9.201401;0.34376526;-0.42549133;-;-;-;-;-;-;-;-;-;-;-;-;-;-;-
1514177002949;-;-;9.220566;0.3282013;-0.4458313;-;-;-;-;-;-;-;-;-;-;-;-;-;-;-
1514177002970;-;-;9.21817;0.33537292;-0.40753174;-;-;-;-;-;-;-;-;-;-;-;-;-;-;-
1514177002990;-;-;9.232529;0.29109192;-0.4051361;-;-;-;-;-;-;-;-;-;-;-;-;-;-;-
1514177003010;-;-;9.207397;0.3509369;-0.43026733;-;-;-;-;-;-;-;-;-;-;-;-;-;-;-
1514177003031;-;-;9.190628;0.3617096;-0.40872192;-;-;-;-;-;-;-;-;-;-;-;-;-;-;-
1514177003051;-;-;9.17627;0.35932922;-0.39076233;-;-;-;-;-;-;-;-;-;-;-;-;-;-;-
1514177003071;-;-;9.243301;0.38087463;-0.4051361;-;-;-;-;-;-;-;-;-;-;-;-;-;-;-
1514177003091;-;-;9.224152;0.39523315;-0.42907715;-;-;-;-;-;-;-;-;-;-;-;-;-;-;-
1514177003112;-;-;9.209793;0.39523315;-0.43984985;-;-;-;-;-;-;-;-;-;-;-;-;-;-;-
1514177003132;-;-;9.15831;0.3497467;-0.43865967;-;-;-;-;-;-;-;-;-;-;-;-;-;-;-
1514177003152;-;-;9.160706;0.32580566;-0.4446411;-;-;-;-;-;-;-;-;-;-;-;-;-;-;-
1514177003172;-;-;9.179855;0.31982422;-0.44343567;-;-;-;-;-;-;-;-;-;-;-;-;-;-;-
1514177003192;-;-;9.205002;0.31263733;-0.44822693;-;-;-;-;-;-;-;-;-;-;-;-;-;-;-
1514177003213;-;-;9.267242;0.2886963;-0.48654175;-;-;-;-;-;-;-;-;-;-;-;-;-;-;-
1514177003233;-;-;9.2313385;0.2707367;-0.491333;-;-;-;-;-;-;-;-;-;-;-;-;-;-;-
1514177003254;-;-;9.21936;0.30065918;-0.44822693;-;-;-;-;-;-;-;-;-;-;-;-;-;-;-
1514177003274;-;-;9.228943;0.29348755;-0.45899963;-;-;-;-;-;-;-;-;-;-;-;-;-;-;-
1514177003294;-;-;9.216965;0.30065918;-0.4733734;-;-;-;-;-;-;-;-;-;-;-;-;-;-;-
1514177003315;-;-;9.105637;0.26594543;-0.451828;-;-;-;-;-;-;-;-;-;-;-;-;-;-;-
1514177003336;-;-;9.227737;0.30784607;-0.43147278;-;-;-;-;-;-;-;-;-;-;-;-;-;-;-
1514177003356;-;-;9.325912;0.34854126;-0.48414612;-;-;-;-;-;-;-;-;-;-;-;-;-;-;-
1514177003377;-;-;9.210983;0.30065918;-0.53082275;-;-;-;-;-;-;-;-;-;-;-;-;-;-;-
1514177003397;-;-;9.160706;0.3317871;-0.4817505;-;-;-;-;-;-;-;-;-;-;-;-;-;-;-
1514177003417;-;-;9.185837;0.39283752;-0.39315796;-;-;-;-;-;-;-;-;-;-;-;-;-;-;-
1514177003438;-;-;9.233734;0.38685608;-0.38119507;-;-;-;-;-;-;-;-;-;-;-;-;-;-;-
1514177003458;-;-;9.175064;0.378479;-0.44224548;-;-;-;-;-;-;-;-;-;-;-;-;-;-;-
1514177003478;-;-;9.169083;0.37487793;-0.41471863;-;-;-;-;-;-;-;-;-;-;-;-;-;-;-
1514177003498;-;-;9.203796;0.37727356;-0.45420837;-;-;-;-;-;-;-;-;-;-;-;-;-;-;-
1514177003519;-;-;9.209793;0.33776855;-0.41111755;-;-;-;-;-;-;-;-;-;-;-;-;-;-;-
1514177003539;-;-;9.222961;0.3677063;-0.48414612;-;-;-;-;-;-;-;-;-;-;-;-;-;-;-
1514177003559;-;-;9.21817;0.34735107;-0.46499634;-;-;-;-;-;-;-;-;-;-;-;-;-;-;-
1514177003580;-;-;9.244507;0.34376526;-0.41351318;-;-;-;-;-;-;-;-;-;-;-;-;-;-;-
1514177003600;-;-;9.21817;0.3569336;-0.46020508;-;-;-;-;-;-;-;-;-;-;-;-;-;-;-
1514177003620;-;-;9.183456;0.338974;-0.4733734;-;-;-;-;-;-;-;-;-;-;-;-;-;-;-
1514177003640;-;-;9.181061;0.35333252;-0.43984985;-;-;-;-;-;-;-;-;-;-;-;-;-;-;-
1514177003661;-;-;9.205002;0.32460022;-0.43147278;-;-;-;-;-;-;-;-;-;-;-;-;-;-;-
1514177003681;-;-;9.233734;0.3138275;-0.38238525;-;-;-;-;-;-;-;-;-;-;-;-;-;-;-
1514177003701;-;-;9.23732;0.28988647;-0.40274048;-;-;-;-;-;-;-;-;-;-;-;-;-;-;-
1514177003722;-;-;9.242111;0.28271484;-0.41351318;-;-;-;-;-;-;-;-;-;-;-;-;-;-;-
1514177003741;-;-;9.230133;0.2922821;-0.38838196;-;-;-;-;-;-;-;-;-;-;-;-;-;-;-
1514177003761;-;-;9.195419;0.30665588;-0.40034485;-;-;-;-;-;-;-;-;-;-;-;-;-;-;-
1514177003782;-;-;9.190628;0.34136963;-0.39915466;-;-;-;-;-;-;-;-;-;-;-;-;-;-;-
1514177003802;-;-;9.200211;0.33299255;-0.4242859;-;-;-;-;-;-;-;-;-;-;-;-;-;-;-
1514177003822;-;-;9.243301;0.34495544;-0.451828;-;-;-;-;-;-;-;-;-;-;-;-;-;-;-
1514177003842;-;-;9.178665;0.35333252;-0.36921692;-;-;-;-;-;-;-;-;-;-;-;-;-;-;-
1514177003863;-;-;9.200211;0.36291504;-0.3955536;-;-;-;-;-;-;-;-;-;-;-;-;-;-;-
1514177003883;-;-;9.254074;0.35214233;-0.412323;-;-;-;-;-;-;-;-;-;-;-;-;-;-;-
1514177003903;-;-;9.199005;0.30903625;-0.42189026;-;-;-;-;-;-;-;-;-;-;-;-;-;-;-
1514177003924;-;-;9.187042;0.3617096;-0.37998962;-;-;-;-;-;-;-;-;-;-;-;-;-;-;-
1514177003944;-;-;9.287598;0.35453796;-0.4350586;-;-;-;-;-;-;-;-;-;-;-;-;-;-;-
1514177003964;-;-;9.196625;0.40242004;-0.49731445;-;-;-;-;-;-;-;-;-;-;-;-;-;-;-
1514177003985;-;-;9.15712;0.338974;-0.4458313;-;-;-;-;-;-;-;-;-;-;-;-;-;-;-
1514177004005;-;-;9.221756;0.34376526;-0.41351318;-;-;-;-;-;-;-;-;-;-;-;-;-;-;-
1514177004025;-;-;9.243301;0.33418274;-0.377594;-;-;-;-;-;-;-;-;-;-;-;-;-;-;-
1514177004046;-;-;9.213379;0.33537292;-0.38957214;-;-;-;-;-;-;-;-;-;-;-;-;-;-;-
1514177004065;-;-;9.183456;0.33537292;-0.4051361;-;-;-;-;-;-;-;-;-;-;-;-;-;-;-
1514177004085;-;-;9.212173;0.35214233;-0.42549133;-;-;-;-;-;-;-;-;-;-;-;-;-;-;-
1514177004106;-;-;9.216965;0.3138275;-0.412323;-;-;-;-;-;-;-;-;-;-;-;-;-;-;-
1514177004125;-;-;9.224152;0.29588318;-0.39915466;-;-;-;-;-;-;-;-;-;-;-;-;-;-;-
1514177004145;-;-;9.203796;0.27911377;-0.38478088;-;-;-;-;-;-;-;-;-;-;-;-;-;-;-
1514177004166;-;-;9.264847;0.2743225;-0.39915466;-;-;-;-;-;-;-;-;-;-;-;-;-;-;-
1514177004185;-;-;9.264847;0.27671814;-0.40992737;-;-;-;-;-;-;-;-;-;-;-;-;-;-;-
1514177004207;-;-;9.185837;0.3497467;-0.41830444;-;-;-;-;-;-;-;-;-;-;-;-;-;-;-
1514177004227;-;-;9.160706;0.32939148;-0.39794922;-;-;-;-;-;-;-;-;-;-;-;-;-;-;-
1514177004247;-;-;9.164291;0.29348755;-0.33210754;-;-;-;-;-;-;-;-;-;-;-;-;-;-;-
1514177004268;-;-;9.210983;0.18095398;-0.28182983;-;-;-;-;-;-;-;-;-;-;-;-;-;-;-
1514177004288;-;-;9.266052;0.18334961;-0.42189026;-;-;-;-;-;-;-;-;-;-;-;-;-;-;-
1514177004308;-;-;9.286407;0.2815094;-0.45420837;-;-;-;-;-;-;-;-;-;-;-;-;-;-;-
1514177004329;-;-;9.210983;0.34854126;-0.46618652;-;-;-;-;-;-;-;-;-;-;-;-;-;-;-
1514177004349;-;-;9.178665;0.43354797;-0.40753174;-;-;-;-;-;-;-;-;-;-;-;-;-;-;-
1514177004369;-;-;9.149933;0.4191742;-0.44703674;-;-;-;-;-;-;-;-;-;-;-;-;-;-;-
1514177004390;-;-;9.23732;0.43952942;-0.44343567;-;-;-;-;-;-;-;-;-;-;-;-;-;-;-
1514177004411;-;-;9.210983;0.5269165;-0.39315796;-;-;-;-;-;-;-;-;-;-;-;-;-;-;-
1514177004431;-;-;9.171478;0.4909973;-0.3297119;-;-;-;-;-;-;-;-;-;-;-;-;-;-;-
1514177004451;-;-;9.142746;0.4299469;-0.2973938;-;-;-;-;-;-;-;-;-;-;-;-;-;-;-
1514177004471;-;-;9.171478;0.38565063;-0.27464294;-;-;-;-;-;-;-;-;-;-;-;-;-;-;-
1514177004491;-;-;9.25528;0.32699585;-0.2758484;-;-;-;-;-;-;-;-;-;-;-;-;-;-;-
1514177004512;-;-;9.246902;0.2515869;-0.29859924;-;-;-;-;-;-;-;-;-;-;-;-;-;-;-
1514177004532;-;-;9.129578;0.2300415;-0.30337524;-;-;-;-;-;-;-;-;-;-;-;-;-;-;-
1514177004552;-;-;9.200211;0.30426025;-0.31414795;-;-;-;-;-;-;-;-;-;-;-;-;-;-;-
1514177004573;-;-;9.1918335;0.35932922;-0.4745636;-;-;-;-;-;-;-;-;-;-;-;-;-;-;-
1514177004593;-;-;9.129578;0.33657837;-0.47695923;-;-;-;-;-;-;-;-;-;-;-;-;-;-;-
1514177004613;-;-;9.220566;0.4084015;-0.37998962;-;-;-;-;-;-;-;-;-;-;-;-;-;-;-
1514177004634;-;-;9.260071;0.42755127;-0.3668213;-;-;-;-;-;-;-;-;-;-;-;-;-;-;-
1514177004654;-;-;9.17746;0.3102417;-0.30337524;-;-;-;-;-;-;-;-;-;-;-;-;-;-;-
1514177004675;-;-;9.17627;0.24919128;-0.3620453;-;-;-;-;-;-;-;-;-;-;-;-;-;-;-
1514177004695;-;-;9.215775;0.32699585;-0.44822693;-;-;-;-;-;-;-;-;-;-;-;-;-;-;-
1514177004715;-;-;9.240906;0.46466064;-0.5428009;-;-;-;-;-;-;-;-;-;-;-;-;-;-;-
1514177004736;-;-;9.17746;0.46228027;-0.5128784;-;-;-;-;-;-;-;-;-;-;-;-;-;-;-
1514177004756;-;-;9.074509;0.38206482;-0.4530182;-;-;-;-;-;-;-;-;-;-;-;-;-;-;-
1514177004777;-;-;9.202606;0.3317871;-0.037628174;-;-;-;-;-;-;-;-;-;-;-;-;-;-;-
1514177004796;-;-;9.321121;0.0025787354;-0.4446411;-;-;-;-;-;-;-;-;-;-;-;-;-;-;-
1514177004816;-;-;9.595245;0.23841858;-0.47816467;-;-;-;-;-;-;-;-;-;-;-;-;-;-;-
1514177004836;-;-;9.337875;0.103149414;-0.30697632;-;-;-;-;-;-;-;-;-;-;-;-;-;-;-
1514177004857;-;-;9.011063;0.17137146;-0.47097778;-;-;-;-;-;-;-;-;-;-;-;-;-;-;-
1514177004876;-;-;9.036209;0.2515869;-0.46618652;-;-;-;-;-;-;-;-;-;-;-;-;-;-;-
1514177004896;-;-;9.088882;0.3892517;-0.46020508;-;-;-;-;-;-;-;-;-;-;-;-;-;-;-
1514177004916;-;-;9.062546;0.3904419;-0.4745636;-;-;-;-;-;-;-;-;-;-;-;-;-;-;-
1514177004937;-;-;9.195419;0.4012146;-0.4338684;-;-;-;-;-;-;-;-;-;-;-;-;-;-;-
1514177004957;-;-;9.333084;0.45509338;-0.5176544;-;-;-;-;-;-;-;-;-;-;-;-;-;-;-
1514177004977;-;-;9.404907;0.43832397;-0.55836487;-;-;-;-;-;-;-;-;-;-;-;-;-;-;-
1514177004998;-;-;9.366608;0.3497467;-0.57032776;-;-;-;-;-;-;-;-;-;-;-;-;-;-;-
1514177005018;-;-;9.17746;0.31143188;-0.5176544;-;-;-;-;-;-;-;-;-;-;-;-;-;-;-
1514177005038;-;-;9.050568;0.27313232;-0.47576904;-;-;-;-;-;-;-;-;-;-;-;-;-;-;-
1514177005058;-;-;9.183456;0.38206482;-0.46020508;-;-;-;-;-;-;-;-;-;-;-;-;-;-;-
1514177005079;-;-;9.309143;0.457489;-0.40753174;-;-;-;-;-;-;-;-;-;-;-;-;-;-;-
1514177005099;-;-;9.242111;0.512558;-0.41949463;-;-;-;-;-;-;-;-;-;-;-;-;-;-;-
1514177005119;-;-;9.127182;0.3892517;-0.46499634;-;-;-;-;-;-;-;-;-;-;-;-;-;-;-
1514177005140;-;-;9.110428;0.22525024;-0.45541382;-;-;-;-;-;-;-;-;-;-;-;-;-;-;-
1514177005160;-;-;9.118805;0.23123169;-0.4350586;-;-;-;-;-;-;-;-;-;-;-;-;-;-;-
1514177005181;-;-;9.227737;0.338974;-0.38957214;-;-;-;-;-;-;-;-;-;-;-;-;-;-;-
1514177005201;-;-;9.145142;0.36410522;-0.45420837;-;-;-;-;-;-;-;-;-;-;-;-;-;-;-
1514177005221;-;-;9.193024;0.3210144;-0.46020508;-;-;-;-;-;-;-;-;-;-;-;-;-;-;-
1514177005241;-;-;9.201401;0.299469;-0.5918884;-;-;-;-;-;-;-;-;-;-;-;-;-;-;-
1514177005262;-;-;9.232529;0.30065918;-0.60624695;-;-;-;-;-;-;-;-;-;-;-;-;-;-;-
1514177005282;-;-;9.2313385;0.31622314;-0.5332184;-;-;-;-;-;-;-;-;-;-;-;-;-;-;-
1514177005302;-;-;9.183456;0.3617096;-0.535614;-;-;-;-;-;-;-;-;-;-;-;-;-;-;-
1514177005323;-;-;9.114014;0.48143005;-0.55836487;-;-;-;-;-;-;-;-;-;-;-;-;-;-;-
1514177005343;-;-;9.045776;0.57958984;-0.52005005;-;-;-;-;-;-;-;-;-;-;-;-;-;-;-
1514177005363;-;-;9.181061;0.63105774;-0.49731445;-;-;-;-;-;-;-;-;-;-;-;-;-;-;-
1514177005383;-;-;9.312744;0.55085754;-0.5128784;-;-;-;-;-;-;-;-;-;-;-;-;-;-;-
1514177005404;-;-;9.352234;0.3904419;-0.5416107;-;-;-;-;-;-;-;-;-;-;-;-;-;-;-
1514177005424;-;-;9.295975;0.23362732;-0.456604;-;-;-;-;-;-;-;-;-;-;-;-;-;-;-
1514177005444;-;-;9.149933;0.069625854;-0.417099;-;-;-;-;-;-;-;-;-;-;-;-;-;-;-
1514177005465;-;-;9.135559;-0.00340271;-0.32254028;-;-;-;-;-;-;-;-;-;-;-;-;-;-;-
1514177005485;-;-;9.233734;-0.071640015;-0.35604858;-;-;-;-;-;-;-;-;-;-;-;-;-;-;-
1514177005507;-;-;9.333084;0.014556885;-0.43984985;-;-;-;-;-;-;-;-;-;-;-;-;-;-;-
1514177005526;-;-;9.37619;0.14025879;-0.31056213;-;-;-;-;-;-;-;-;-;-;-;-;-;-;-
1514177005546;-;-;9.331894;0.24320984;-0.33570862;-;-;-;-;-;-;-;-;-;-;-;-;-;-;-
1514177005566;-;-;9.260071;0.46466064;-0.3440857;-;-;-;-;-;-;-;-;-;-;-;-;-;-;-
1514177005587;-;-;9.166687;0.5352936;-0.27824402;-;-;-;-;-;-;-;-;-;-;-;-;-;-;-
1514177005607;-;-;9.026627;0.52212524;-0.33210754;-;-;-;-;-;-;-;-;-;-;-;-;-;-;-
1514177005627;-;-;9.041;0.5341034;-0.39794922;-;-;-;-;-;-;-;-;-;-;-;-;-;-;-
1514177005648;-;-;9.094864;0.48860168;-0.39315796;-;-;-;-;-;-;-;-;-;-;-;-;-;-;-
1514177005668;-;-;9.0972595;0.3796692;-0.39915466;-;-;-;-;-;-;-;-;-;-;-;-;-;-;-
1514177005688;-;-;9.099655;0.1797638;-0.31295776;-;-;-;-;-;-;-;-;-;-;-;-;-;-;-
1514177005709;-;-;9.222961;0.036102295;-0.44104004;-;-;-;-;-;-;-;-;-;-;-;-;-;-;-
1514177005729;-;-;9.222961;-0.093185425;-0.5535736;-;-;-;-;-;-;-;-;-;-;-;-;-;-;-
1514177005749;-;-;9.23613;-0.31344604;-0.49371338;-;-;-;-;-;-;-;-;-;-;-;-;-;-;-
1514177005770;-;-;9.260071;-0.44033813;-0.33570862;-;-;-;-;-;-;-;-;-;-;-;-;-;-;-
1514177005789;-;-;9.325912;-0.41879272;-0.35604858;-;-;-;-;-;-;-;-;-;-;-;-;-;-;-
1514177005809;-;-;9.307953;-0.26914978;-0.47576904;-;-;-;-;-;-;-;-;-;-;-;-;-;-;-
1514177005830;-;-;9.287598;-0.13269043;-0.4745636;-;-;-;-;-;-;-;-;-;-;-;-;-;-;-
1514177005849;-;-;9.286407;-0.0440979;-0.39675903;-;-;-;-;-;-;-;-;-;-;-;-;-;-;-
1514177005869;-;-;9.226547;-0.02494812;-0.22198486;-;-;-;-;-;-;-;-;-;-;-;-;-;-;-
1514177005889;-;-;9.188232;-0.14346313;-0.15733337;-;-;-;-;-;-;-;-;-;-;-;-;-;-;-
1514177005910;-;-;9.178665;-0.12550354;-0.09269714;-;-;-;-;-;-;-;-;-;-;-;-;-;-;-
1514177005930;-;-;9.189438;-0.095581055;-0.11543274;-;-;-;-;-;-;-;-;-;-;-;-;-;-;-
1514177005950;-;-;9.181061;0.021743774;-0.14416504;-;-;-;-;-;-;-;-;-;-;-;-;-;-;-
1514177005971;-;-;9.142746;0.20610046;-0.19923401;-;-;-;-;-;-;-;-;-;-;-;-;-;-;-
1514177005991;-;-;9.070923;0.299469;-0.25190735;-;-;-;-;-;-;-;-;-;-;-;-;-;-;-
1514177006011;-;-;9.067337;0.4658661;-0.29141235;-;-;-;-;-;-;-;-;-;-;-;-;-;-;-
1514177006032;-;-;9.148727;0.4694519;-0.3476715;-;-;-;-;-;-;-;-;-;-;-;-;-;-;-
1514177006052;-;-;9.21936;0.5077667;-0.5679474;-;-;-;-;-;-;-;-;-;-;-;-;-;-;-
1514177006072;-;-;9.239716;0.48143005;-0.654129;-;-;-;-;-;-;-;-;-;-;-;-;-;-;-
1514177006092;-;-;9.242111;0.43234253;-0.77264404;-;-;-;-;-;-;-;-;-;-;-;-;-;-;-
1514177006113;-;-;9.227737;0.34735107;-0.90193176;-;-;-;-;-;-;-;-;-;-;-;-;-;-;-
1514177006133;-;-;9.248093;0.22164917;-1.0144653;-;-;-;-;-;-;-;-;-;-;-;-;-;-;-
1514177006154;-;-;9.340271;0.22883606;-1.0946655;-;-;-;-;-;-;-;-;-;-;-;-;-;-;-
1514177006174;-;-;9.346252;0.17736816;-1.1210022;-;-;-;-;-;-;-;-;-;-;-;-;-;-;-
1514177006194;-;-;9.200211;0.18095398;-1.0946655;-;-;-;-;-;-;-;-;-;-;-;-;-;-;-
1514177006215;-;-;9.0733185;0.23602295;-1.0431824;-;-;-;-;-;-;-;-;-;-;-;-;-;-;-
1514177006235;-;-;9.103241;0.3892517;-1.021637;-;-;-;-;-;-;-;-;-;-;-;-;-;-;-
1514177006255;-;-;9.203796;0.5053711;-1.1186066;-;-;-;-;-;-;-;-;-;-;-;-;-;-;-
1514177006276;-;-;9.136765;0.54367065;-1.148529;-;-;-;-;-;-;-;-;-;-;-;-;-;-;-
1514177006296;-;-;9.0182495;0.47543335;-1.0719147;-;-;-;-;-;-;-;-;-;-;-;-;-;-;-
1514177006316;-;-;9.027832;0.4359436;-0.9510193;-;-;-;-;-;-;-;-;-;-;-;-;-;-;-
1514177006337;-;-;9.133179;0.49578857;-0.92108154;-;-;-;-;-;-;-;-;-;-;-;-;-;-;-
1514177006356;-;-;9.300766;0.54248047;-0.92108154;-;-;-;-;-;-;-;-;-;-;-;-;-;-;-
1514177006376;-;-;9.321121;0.5771942;-0.80137634;-;-;-;-;-;-;-;-;-;-;-;-;-;-;-
1514177006396;-;-;9.272034;0.4119873;-0.6110382;-;-;-;-;-;-;-;-;-;-;-;-;-;-;-
1514177006417;-;-;9.252884;0.24081421;-0.7498932;-;-;-;-;-;-;-;-;-;-;-;-;-;-;-
1514177006437;-;-;9.108032;0.14743042;-0.8755951;-;-;-;-;-;-;-;-;-;-;-;-;-;-;-
1514177006457;-;-;9.048172;0.10194397;-0.93904114;-;-;-;-;-;-;-;-;-;-;-;-;-;-;-
1514177006477;-;-;9.12001;0.24440002;-0.6014557;-;-;-;-;-;-;-;-;-;-;-;-;-;-;-
1514177006498;-;-;9.166687;-0.14585876;-0.63616943;-;-;-;-;-;-;-;-;-;-;-;-;-;-;-
1514177006518;-;-;9.420471;0.1953125;-1.2850037;-;-;-;-;-;-;-;-;-;-;-;-;-;-;-
1514177006539;-;-;9.45639;-0.08720398;-0.9055176;-;-;-;-;-;-;-;-;-;-;-;-;-;-;-
1514177006559;-;-;9.184647;-0.14704895;-1.104248;-;-;-;-;-;-;-;-;-;-;-;-;-;-;-
1514177006579;-;-;9.136765;-0.33738708;-1.0659332;-;-;-;-;-;-;-;-;-;-;-;-;-;-;-
1514177006599;-;-;9.172684;-0.15065002;-1.0791016;-;-;-;-;-;-;-;-;-;-;-;-;-;-;-
1514177006620;-;-;9.194229;-0.083602905;-0.88157654;-;-;-;-;-;-;-;-;-;-;-;-;-;-;-
1514177006640;-;-;9.123596;-0.20451355;-0.9354553;-;-;-;-;-;-;-;-;-;-;-;-;-;-;-
1514177006660;-;-;9.196625;-0.1697998;-1.1186066;-;-;-;-;-;-;-;-;-;-;-;-;-;-;-
1514177006681;-;-;9.33429;0.04447937;-1.1629028;-;-;-;-;-;-;-;-;-;-;-;-;-;-;-
1514177006701;-;-;9.3103485;0.15342712;-1.1293793;-;-;-;-;-;-;-;-;-;-;-;-;-;-;-
1514177006721;-;-;9.23851;0.20489502;-1.0826874;-;-;-;-;-;-;-;-;-;-;-;-;-;-;-
1514177006742;-;-;9.149933;0.16778564;-0.9294586;-;-;-;-;-;-;-;-;-;-;-;-;-;-;-
1514177006762;-;-;9.189438;0.27671814;-0.9079132;-;-;-;-;-;-;-;-;-;-;-;-;-;-;-
1514177006782;-;-;9.1523285;0.59036255;-0.85165405;-;-;-;-;-;-;-;-;-;-;-;-;-;-;-
1514177006803;-;-;9.049377;0.7220459;-0.78700256;-;-;-;-;-;-;-;-;-;-;-;-;-;-;-
1514177006822;-;-;9.017059;0.63705444;-0.7570801;-;-;-;-;-;-;-;-;-;-;-;-;-;-;-
1514177006842;-;-;9.072113;0.48501587;-0.64575195;-;-;-;-;-;-;-;-;-;-;-;-;-;-;-
1514177006863;-;-;9.201401;0.37368774;-0.66371155;-;-;-;-;-;-;-;-;-;-;-;-;-;-;-
1514177006882;-;-;9.25647;0.39164734;-0.75349426;-;-;-;-;-;-;-;-;-;-;-;-;-;-;-
1514177006902;-;-;9.194229;0.34136963;-0.7163849;-;-;-;-;-;-;-;-;-;-;-;-;-;-;-
1514177006922;-;-;9.108032;0.20968628;-0.63497925;-;-;-;-;-;-;-;-;-;-;-;-;-;-;-
1514177006943;-;-;9.134369;0.13186646;-0.6122284;-;-;-;-;-;-;-;-;-;-;-;-;-;-;-
1514177006963;-;-;9.149933;0.19293213;-0.79060364;-;-;-;-;-;-;-;-;-;-;-;-;-;-;-
1514177006983;-;-;9.4096985;0.42277527;-0.6337738;-;-;-;-;-;-;-;-;-;-;-;-;-;-;-
1514177007004;-;-;9.003891;-0.19493103;-0.90312195;-;-;-;-;-;-;-;-;-;-;-;-;-;-;-
1514177007024;-;-;9.613205;0.29348755;-1.5854797;-;-;-;-;-;-;-;-;-;-;-;-;-;-;-
1514177007044;-;-;9.49231;0.11869812;-0.9581909;-;-;-;-;-;-;-;-;-;-;-;-;-;-;-
1514177007065;-;-;8.950012;0.17137146;-1.1892395;-;-;-;-;-;-;-;-;-;-;-;-;-;-;-
1514177007085;-;-;8.887772;0.1558075;-1.1509247;-;-;-;-;-;-;-;-;-;-;-;-;-;-;-
1514177007105;-;-;9.068527;0.5089569;-0.89234924;-;-;-;-;-;-;-;-;-;-;-;-;-;-;-
1514177007126;-;-;9.131973;0.62986755;-0.9115143;-;-;-;-;-;-;-;-;-;-;-;-;-;-;-
1514177007145;-;-;9.123596;0.5460663;-1.0336151;-;-;-;-;-;-;-;-;-;-;-;-;-;-;-
1514177007165;-;-;9.234924;0.5053711;-0.9629822;-;-;-;-;-;-;-;-;-;-;-;-;-;-;-
1514177007185;-;-;9.2313385;0.51493835;-0.81214905;-;-;-;-;-;-;-;-;-;-;-;-;-;-;-
1514177007206;-;-;9.178665;0.4694519;-0.8312988;-;-;-;-;-;-;-;-;-;-;-;-;-;-;-
1514177007226;-;-;9.109222;0.4862213;-0.87319946;-;-;-;-;-;-;-;-;-;-;-;-;-;-;-
