TimeStamp[ms];Prox[Cm];Lux[lux];AccX[m/s^2];AccY[m/s^2];AccZ[m/s^2];GyroX[rad/s];GyroY[rad/s];GyroZ[rad/s];MagnX[uT];MagnY[uT];MagnZ[uT];OrienYaw[degrees];OrienPitch[degrees];OrienRoll[degrees];Press[Pa];Temp[C°];Batt[%];Lat;Lng;Speed[m/s]
1514177348905;-;-;7.869034;-2.3784485;3.9331665;-;-;-;-;-;-;-;-;-;-;-;-;-;-;-
1514177348913;-;-;7.8594513;-2.4837952;3.9415436;-;-;-;-;-;-;-;-;-;-;-;-;-;-;-
1514177348933;-;-;8.028244;-2.5795593;3.8505554;-;-;-;-;-;-;-;-;-;-;-;-;-;-;-
1514177348953;-;-;8.016281;-2.427536;3.6530304;-;-;-;-;-;-;-;-;-;-;-;-;-;-;-
1514177348974;-;-;8.217392;-2.250351;3.777542;-;-;-;-;-;-;-;-;-;-;-;-;-;-;-
1514177348993;-;-;8.588486;-1.7511597;2.4583282;-;-;-;-;-;-;-;-;-;-;-;-;-;-;-
1514177349013;-;-;7.6499634;-2.3497162;2.9563293;-;-;-;-;-;-;-;-;-;-;-;-;-;-;-
1514177349034;-;-;8.906921;-2.8776398;3.0437164;-;-;-;-;-;-;-;-;-;-;-;-;-;-;-
1514177349054;-;-;8.82312;-2.1150818;1.8370361;-;-;-;-;-;-;-;-;-;-;-;-;-;-;-
1514177349073;-;-;8.56575;-2.281479;2.0956116;-;-;-;-;-;-;-;-;-;-;-;-;-;-;-
1514177349093;-;-;9.49231;-2.0983276;2.2464447;-;-;-;-;-;-;-;-;-;-;-;-;-;-;-
1514177349114;-;-;9.359421;-2.0911407;1.7568359;-;-;-;-;-;-;-;-;-;-;-;-;-;-;-
1514177349134;-;-;9.064941;-2.5412598;1.6371155;-;-;-;-;-;-;-;-;-;-;-;-;-;-;-
1514177349160;-;-;9.23732;-2.519699;1.6287384;-;-;-;-;-;-;-;-;-;-;-;-;-;-;-
1514177349174;-;-;9.151123;-2.4299164;1.6239471;-;-;-;-;-;-;-;-;-;-;-;-;-;-;-
1514177349194;-;-;9.143951;-2.377243;1.7568359;-;-;-;-;-;-;-;-;-;-;-;-;-;-;-
1514177349214;-;-;9.228943;-2.3796387;1.9172363;-;-;-;-;-;-;-;-;-;-;-;-;-;-;-
1514177349235;-;-;9.019455;-2.4371033;1.8968964;-;-;-;-;-;-;-;-;-;-;-;-;-;-;-
1514177349255;-;-;9.272034;-2.0025635;1.6502838;-;-;-;-;-;-;-;-;-;-;-;-;-;-;-
1514177349275;-;-;9.378571;-1.7930603;1.9735107;-;-;-;-;-;-;-;-;-;-;-;-;-;-;-
1514177349296;-;-;9.649124;-2.9375;3.4040375;-;-;-;-;-;-;-;-;-;-;-;-;-;-;-
1514177349316;-;-;7.9588165;-2.4598541;3.113144;-;-;-;-;-;-;-;-;-;-;-;-;-;-;-
1514177349336;-;-;8.496307;-1.7379913;1.6454926;-;-;-;-;-;-;-;-;-;-;-;-;-;-;-
1514177349357;-;-;7.8833923;-3.1062775;4.7603607;-;-;-;-;-;-;-;-;-;-;-;-;-;-;-
1514177349377;-;-;8.203018;-2.380844;3.6063538;-;-;-;-;-;-;-;-;-;-;-;-;-;-;-
1514177349397;-;-;7.708618;-2.3832397;3.152649;-;-;-;-;-;-;-;-;-;-;-;-;-;-;-
1514177349418;-;-;7.277664;-2.3341522;3.5429077;-;-;-;-;-;-;-;-;-;-;-;-;-;-;-
1514177349439;-;-;7.6080627;-2.597519;4.537689;-;-;-;-;-;-;-;-;-;-;-;-;-;-;-
1514177349460;-;-;7.9671936;-2.8357391;4.9542847;-;-;-;-;-;-;-;-;-;-;-;-;-;-;-
1514177349479;-;-;7.4320984;-2.7435608;4.474243;-;-;-;-;-;-;-;-;-;-;-;-;-;-;-
1514177349500;-;-;7.384201;-2.7543335;4.3162384;-;-;-;-;-;-;-;-;-;-;-;-;-;-;-
1514177349520;-;-;7.497925;-2.7531433;4.5736084;-;-;-;-;-;-;-;-;-;-;-;-;-;-;-
1514177349540;-;-;7.628418;-2.6860962;4.7016907;-;-;-;-;-;-;-;-;-;-;-;-;-;-;-
1514177349560;-;-;7.319565;-2.8680573;4.7830963;-;-;-;-;-;-;-;-;-;-;-;-;-;-;-
1514177349581;-;-;7.7050323;-2.731598;4.568817;-;-;-;-;-;-;-;-;-;-;-;-;-;-;-
1514177349601;-;-;7.732559;-2.2348022;3.6290894;-;-;-;-;-;-;-;-;-;-;-;-;-;-;-
1514177349621;-;-;7.4596252;-2.281479;3.8972473;-;-;-;-;-;-;-;-;-;-;-;-;-;-;-
1514177349642;-;-;7.9157257;-2.9746094;4.248001;-;-;-;-;-;-;-;-;-;-;-;-;-;-;-
1514177349661;-;-;8.3897705;-2.396408;3.1071625;-;-;-;-;-;-;-;-;-;-;-;-;-;-;-
1514177349681;-;-;7.3506927;-2.0540314;2.9012604;-;-;-;-;-;-;-;-;-;-;-;-;-;-;-
1514177349702;-;-;9.128387;-2.8333435;4.061249;-;-;-;-;-;-;-;-;-;-;-;-;-;-;-
1514177349722;-;-;8.322739;-2.1019135;1.9806824;-;-;-;-;-;-;-;-;-;-;-;-;-;-;-
1514177349742;-;-;9.266052;-2.8369446;2.7324677;-;-;-;-;-;-;-;-;-;-;-;-;-;-;-
1514177349762;-;-;9.039795;-2.044464;0.9859009;-;-;-;-;-;-;-;-;-;-;-;-;-;-;-
1514177349783;-;-;9.189438;-2.7064514;2.4906464;-;-;-;-;-;-;-;-;-;-;-;-;-;-;-
1514177349803;-;-;9.347458;-2.581955;1.607193;-;-;-;-;-;-;-;-;-;-;-;-;-;-;-
1514177349823;-;-;8.807556;-2.5005493;1.212143;-;-;-;-;-;-;-;-;-;-;-;-;-;-;-
1514177349843;-;-;8.369415;-2.6106873;0.58966064;-;-;-;-;-;-;-;-;-;-;-;-;-;-;-
1514177349864;-;-;8.854248;-2.6226501;0.70817566;-;-;-;-;-;-;-;-;-;-;-;-;-;-;-
1514177349883;-;-;9.5282135;-2.5005493;0.99546814;-;-;-;-;-;-;-;-;-;-;-;-;-;-;-
1514177349903;-;-;9.006287;-2.2862701;0.6710663;-;-;-;-;-;-;-;-;-;-;-;-;-;-;-
1514177349924;-;-;8.754883;-1.843338;0.6758423;-;-;-;-;-;-;-;-;-;-;-;-;-;-;-
1514177349944;-;-;8.049789;-1.5883636;0.17904663;-;-;-;-;-;-;-;-;-;-;-;-;-;-;-
1514177349964;-;-;8.766861;-1.9881897;0.034194946;-;-;-;-;-;-;-;-;-;-;-;-;-;-;-
1514177349984;-;-;9.210983;-2.0815735;0.12637329;-;-;-;-;-;-;-;-;-;-;-;-;-;-;-
1514177350005;-;-;9.105637;-2.1091003;-0.2854309;-;-;-;-;-;-;-;-;-;-;-;-;-;-;-
1514177350025;-;-;9.164291;-1.9486847;0.16827393;-;-;-;-;-;-;-;-;-;-;-;-;-;-;-
1514177350045;-;-;9.249298;-1.9965668;-0.13578796;-;-;-;-;-;-;-;-;-;-;-;-;-;-;-
1514177350066;-;-;8.960785;-2.3556976;-0.3476715;-;-;-;-;-;-;-;-;-;-;-;-;-;-;-
1514177350086;-;-;9.374985;-2.981781;-0.4817505;-;-;-;-;-;-;-;-;-;-;-;-;-;-;-
1514177350106;-;-;9.714966;-3.103897;-0.0340271;-;-;-;-;-;-;-;-;-;-;-;-;-;-;-
1514177350126;-;-;9.465973;-2.913559;-0.121414185;-;-;-;-;-;-;-;-;-;-;-;-;-;-;-
1514177350147;-;-;9.193024;-2.6657562;-0.14775085;-;-;-;-;-;-;-;-;-;-;-;-;-;-;-
1514177350167;-;-;9.201401;-2.613083;-0.21240234;-;-;-;-;-;-;-;-;-;-;-;-;-;-;-
1514177350187;-;-;9.072113;-2.637024;-0.45899963;-;-;-;-;-;-;-;-;-;-;-;-;-;-;-
1514177350208;-;-;8.955994;-2.432312;-0.44224548;-;-;-;-;-;-;-;-;-;-;-;-;-;-;-
1514177350229;-;-;8.799179;-1.9869995;-0.72476196;-;-;-;-;-;-;-;-;-;-;-;-;-;-;-
1514177350248;-;-;9.091278;-1.9822083;-0.45420837;-;-;-;-;-;-;-;-;-;-;-;-;-;-;-
1514177350268;-;-;8.872208;-1.7212372;-0.64933777;-;-;-;-;-;-;-;-;-;-;-;-;-;-;-
1514177350288;-;-;9.116409;-1.8696747;-0.47097778;-;-;-;-;-;-;-;-;-;-;-;-;-;-;-
1514177350309;-;-;9.438431;-1.8325653;-0.81333923;-;-;-;-;-;-;-;-;-;-;-;-;-;-;-
1514177350329;-;-;8.708206;-2.2766876;-0.26028442;-;-;-;-;-;-;-;-;-;-;-;-;-;-;-
1514177350349;-;-;9.184647;-2.4215393;-0.60624695;-;-;-;-;-;-;-;-;-;-;-;-;-;-;-
1514177350370;-;-;8.940445;-2.3832397;-0.7127838;-;-;-;-;-;-;-;-;-;-;-;-;-;-;-
1514177350389;-;-;8.849457;-2.313797;-0.575119;-;-;-;-;-;-;-;-;-;-;-;-;-;-;-
1514177350409;-;-;9.200211;-2.119873;-0.72236633;-;-;-;-;-;-;-;-;-;-;-;-;-;-;-
1514177350430;-;-;9.333084;-2.210846;-0.33929443;-;-;-;-;-;-;-;-;-;-;-;-;-;-;-
1514177350451;-;-;9.076904;-2.1689606;-0.47216797;-;-;-;-;-;-;-;-;-;-;-;-;-;-;-
1514177350471;-;-;8.791992;-1.6685638;-0.56674194;-;-;-;-;-;-;-;-;-;-;-;-;-;-;-
1514177350492;-;-;8.7608795;-1.822998;-0.18606567;-;-;-;-;-;-;-;-;-;-;-;-;-;-;-
1514177350512;-;-;8.997894;-1.6793365;-0.3440857;-;-;-;-;-;-;-;-;-;-;-;-;-;-;-
1514177350532;-;-;8.8051605;-1.9630585;-0.9174957;-;-;-;-;-;-;-;-;-;-;-;-;-;-;-
1514177350553;-;-;9.330688;-2.2575378;-0.79299927;-;-;-;-;-;-;-;-;-;-;-;-;-;-;-
1514177350573;-;-;9.506668;-2.0695953;-0.85284424;-;-;-;-;-;-;-;-;-;-;-;-;-;-;-
1514177350594;-;-;9.766434;-2.3473206;-0.49371338;-;-;-;-;-;-;-;-;-;-;-;-;-;-;-
1514177350614;-;-;9.459976;-3.0308685;-0.8612366;-;-;-;-;-;-;-;-;-;-;-;-;-;-;-
1514177350634;-;-;9.294785;-2.5089264;-1.3292999;-;-;-;-;-;-;-;-;-;-;-;-;-;-;-
1514177350654;-;-;8.849457;-2.6394196;-0.05079651;-;-;-;-;-;-;-;-;-;-;-;-;-;-;-
1514177350674;-;-;9.367798;-1.5404816;-1.2407074;-;-;-;-;-;-;-;-;-;-;-;-;-;-;-
1514177350695;-;-;10.093246;-2.174942;0.012649536;-;-;-;-;-;-;-;-;-;-;-;-;-;-;-
1514177350715;-;-;7.7301636;-1.5356903;-1.9924927;-;-;-;-;-;-;-;-;-;-;-;-;-;-;-
1514177350736;-;-;8.569336;0.82858276;-1.0072784;-;-;-;-;-;-;-;-;-;-;-;-;-;-;-
1514177350756;-;-;8.38858;0.7615509;-1.0970612;-;-;-;-;-;-;-;-;-;-;-;-;-;-;-
1514177350776;-;-;9.942413;0.7986603;-0.64456177;-;-;-;-;-;-;-;-;-;-;-;-;-;-;-
1514177350797;-;-;8.672287;0.7005005;-1.5447693;-;-;-;-;-;-;-;-;-;-;-;-;-;-;-
1514177350817;-;-;8.729752;-0.018966675;-1.7111664;-;-;-;-;-;-;-;-;-;-;-;-;-;-;-
1514177350837;-;-;8.7213745;-0.117126465;-1.6692657;-;-;-;-;-;-;-;-;-;-;-;-;-;-;-
1514177350858;-;-;8.90094;-1.0831909;-1.001297;-;-;-;-;-;-;-;-;-;-;-;-;-;-;-
1514177350877;-;-;8.50589;-1.170578;-0.73553467;-;-;-;-;-;-;-;-;-;-;-;-;-;-;-
1514177350897;-;-;9.233734;-1.4315338;-0.10586548;-;-;-;-;-;-;-;-;-;-;-;-;-;-;-
1514177350917;-;-;7.6810913;-1.0484619;-0.49971008;-;-;-;-;-;-;-;-;-;-;-;-;-;-;-
1514177350938;-;-;8.059372;-1.0628357;-1.1473389;-;-;-;-;-;-;-;-;-;-;-;-;-;-;-
1514177350958;-;-;8.182678;-0.8868561;-1.5998383;-;-;-;-;-;-;-;-;-;-;-;-;-;-;-
1514177350978;-;-;8.490326;-2.1533966;0.6171875;-;-;-;-;-;-;-;-;-;-;-;-;-;-;-
1514177350999;-;-;11.214935;-2.7387695;-1.2143707;-;-;-;-;-;-;-;-;-;-;-;-;-;-;-
1514177351019;-;-;10.949173;-2.1378326;-1.1712799;-;-;-;-;-;-;-;-;-;-;-;-;-;-;-
1514177351040;-;-;10.34584;-2.3497162;-0.14537048;-;-;-;-;-;-;-;-;-;-;-;-;-;-;-
1514177351060;-;-;9.239716;-2.0121307;-1.1317749;-;-;-;-;-;-;-;-;-;-;-;-;-;-;-
1514177351080;-;-;9.170288;-1.6996918;-0.6517334;-;-;-;-;-;-;-;-;-;-;-;-;-;-;-
1514177351100;-;-;8.903336;-1.6865234;-0.42668152;-;-;-;-;-;-;-;-;-;-;-;-;-;-;-
1514177351121;-;-;8.695038;-1.4530945;-0.55596924;-;-;-;-;-;-;-;-;-;-;-;-;-;-;-
1514177351141;-;-;8.455612;-0.8677063;-0.9115143;-;-;-;-;-;-;-;-;-;-;-;-;-;-;-
1514177351161;-;-;7.7696686;-0.96946716;-0.9725647;-;-;-;-;-;-;-;-;-;-;-;-;-;-;-
1514177351182;-;-;5.95607;-0.80545044;-0.05319214;-;-;-;-;-;-;-;-;-;-;-;-;-;-;-
1514177351201;-;-;9.341461;-2.20607;0.5441742;-;-;-;-;-;-;-;-;-;-;-;-;-;-;-
1514177351221;-;-;9.41449;-3.3026123;1.0158234;-;-;-;-;-;-;-;-;-;-;-;-;-;-;-
1514177351242;-;-;9.585678;-2.8333435;-1.100647;-;-;-;-;-;-;-;-;-;-;-;-;-;-;-
1514177351262;-;-;10.199783;-2.5077362;-1.1629028;-;-;-;-;-;-;-;-;-;-;-;-;-;-;-
1514177351282;-;-;12.1367035;-3.8963776;1.152298;-;-;-;-;-;-;-;-;-;-;-;-;-;-;-
1514177351302;-;-;9.862213;-1.1574097;-4.29451;-;-;-;-;-;-;-;-;-;-;-;-;-;-;-
1514177351323;-;-;6.2349854;-1.2567596;-3.2889557;-;-;-;-;-;-;-;-;-;-;-;-;-;-;-
1514177351342;-;-;9.090073;-1.5368805;0.38015747;-;-;-;-;-;-;-;-;-;-;-;-;-;-;-
1514177351362;-;-;9.00029;-1.4267578;0.062927246;-;-;-;-;-;-;-;-;-;-;-;-;-;-;-
1514177351383;-;-;7.9504395;-0.8497467;-1.5675201;-;-;-;-;-;-;-;-;-;-;-;-;-;-;-
1514177351403;-;-;9.033813;-0.8018646;-1.3544312;-;-;-;-;-;-;-;-;-;-;-;-;-;-;-
1514177351423;-;-;9.527023;-0.8533478;-1.2275391;-;-;-;-;-;-;-;-;-;-;-;-;-;-;-
1514177351444;-;-;9.552155;-0.7587738;-1.5519562;-;-;-;-;-;-;-;-;-;-;-;-;-;-;-
1514177351464;-;-;9.346252;-0.5636444;-1.729126;-;-;-;-;-;-;-;-;-;-;-;-;-;-;-
1514177351484;-;-;8.964386;-0.72525024;-1.8009491;-;-;-;-;-;-;-;-;-;-;-;-;-;-;-
1514177351504;-;-;8.2317505;-1.404007;-1.9170685;-;-;-;-;-;-;-;-;-;-;-;-;-;-;-
1514177351524;-;-;8.103668;-1.9893951;-2.1552887;-;-;-;-;-;-;-;-;-;-;-;-;-;-;-
1514177351544;-;-;8.631592;-2.0911407;-2.4174652;-;-;-;-;-;-;-;-;-;-;-;-;-;-;-
1514177351565;-;-;8.544205;-1.8481293;-2.9765015;-;-;-;-;-;-;-;-;-;-;-;-;-;-;-
1514177351585;-;-;8.507095;-1.4710388;-3.1860046;-;-;-;-;-;-;-;-;-;-;-;-;-;-;-
1514177351605;-;-;8.159927;-0.71447754;-3.7606049;-;-;-;-;-;-;-;-;-;-;-;-;-;-;-
1514177351627;-;-;7.873825;0.046875;-4.2969055;-;-;-;-;-;-;-;-;-;-;-;-;-;-;-
1514177351647;-;-;7.714615;0.6346588;-4.5662537;-;-;-;-;-;-;-;-;-;-;-;-;-;-;-
1514177351668;-;-;7.7888336;0.63105774;-3.903061;-;-;-;-;-;-;-;-;-;-;-;-;-;-;-
1514177351688;-;-;8.5633545;0.19172668;-2.907074;-;-;-;-;-;-;-;-;-;-;-;-;-;-;-
1514177351708;-;-;9.401321;-0.60554504;-2.8053284;-;-;-;-;-;-;-;-;-;-;-;-;-;-;-
1514177351728;-;-;10.42485;-1.4902039;-3.2793732;-;-;-;-;-;-;-;-;-;-;-;-;-;-;-
1514177351748;-;-;10.68222;-2.3066254;-3.654068;-;-;-;-;-;-;-;-;-;-;-;-;-;-;-
1514177351769;-;-;10.5278015;-2.581955;-3.5642853;-;-;-;-;-;-;-;-;-;-;-;-;-;-;-
1514177351789;-;-;9.831085;-2.0660095;-2.796936;-;-;-;-;-;-;-;-;-;-;-;-;-;-;-
1514177351810;-;-;9.015854;-1.3824615;-2.567093;-;-;-;-;-;-;-;-;-;-;-;-;-;-;-
1514177351830;-;-;8.321533;-0.704895;-2.5192108;-;-;-;-;-;-;-;-;-;-;-;-;-;-;-
1514177351850;-;-;8.015076;-0.25360107;-2.6449127;-;-;-;-;-;-;-;-;-;-;-;-;-;-;-
1514177351871;-;-;8.238937;-0.009384155;-2.79216;-;-;-;-;-;-;-;-;-;-;-;-;-;-;-
1514177351891;-;-;8.537018;0.18693542;-2.5802612;-;-;-;-;-;-;-;-;-;-;-;-;-;-;-
1514177351911;-;-;8.74292;0.37368774;-2.4066925;-;-;-;-;-;-;-;-;-;-;-;-;-;-;-
1514177351932;-;-;8.838684;0.05406189;-2.6832123;-;-;-;-;-;-;-;-;-;-;-;-;-;-;-
1514177351952;-;-;9.108032;-0.28471375;-3.1967773;-;-;-;-;-;-;-;-;-;-;-;-;-;-;-
1514177351972;-;-;8.786011;-0.21647644;-3.62294;-;-;-;-;-;-;-;-;-;-;-;-;-;-;-
1514177351992;-;-;8.314362;-0.052474976;-3.7031403;-;-;-;-;-;-;-;-;-;-;-;-;-;-;-
1514177352013;-;-;7.925293;0.13186646;-3.753418;-;-;-;-;-;-;-;-;-;-;-;-;-;-;-
1514177352033;-;-;7.803192;0.31263733;-3.85997;-;-;-;-;-;-;-;-;-;-;-;-;-;-;-
1514177352053;-;-;8.029449;0.46466064;-4.481262;-;-;-;-;-;-;-;-;-;-;-;-;-;-;-
1514177352074;-;-;8.499908;0.61190796;-3.875534;-;-;-;-;-;-;-;-;-;-;-;-;-;-;-
1514177352094;-;-;8.0905;0.49339294;-3.7989197;-;-;-;-;-;-;-;-;-;-;-;-;-;-;-
1514177352114;-;-;8.074936;-0.14346313;-4.028763;-;-;-;-;-;-;-;-;-;-;-;-;-;-;-
1514177352135;-;-;8.067749;-0.6701813;-4.1269226;-;-;-;-;-;-;-;-;-;-;-;-;-;-;-
1514177352155;-;-;7.952835;-0.6474457;-4.199951;-;-;-;-;-;-;-;-;-;-;-;-;-;-;-
1514177352175;-;-;8.264084;-0.44273376;-4.0586853;-;-;-;-;-;-;-;-;-;-;-;-;-;-;-
1514177352195;-;-;8.703415;-0.36013794;-4.057495;-;-;-;-;-;-;-;-;-;-;-;-;-;-;-
1514177352216;-;-;9.093674;-0.44631958;-4.100586;-;-;-;-;-;-;-;-;-;-;-;-;-;-;-
1514177352236;-;-;9.319916;-0.63905334;-3.954544;-;-;-;-;-;-;-;-;-;-;-;-;-;-;-
1514177352255;-;-;9.369003;-0.75398254;-3.6684265;-;-;-;-;-;-;-;-;-;-;-;-;-;-;-
1514177352275;-;-;9.015854;-0.9838257;-3.361969;-;-;-;-;-;-;-;-;-;-;-;-;-;-;-
1514177352296;-;-;8.5082855;-1.4004211;-2.8268738;-;-;-;-;-;-;-;-;-;-;-;-;-;-;-
1514177352316;-;-;8.016281;-1.8421478;-2.9274292;-;-;-;-;-;-;-;-;-;-;-;-;-;-;-
1514177352336;-;-;8.124023;-1.7535553;-3.5463257;-;-;-;-;-;-;-;-;-;-;-;-;-;-;-
1514177352356;-;-;8.351471;-1.052063;-4.147278;-;-;-;-;-;-;-;-;-;-;-;-;-;-;-
1514177352377;-;-;8.23056;-0.37330627;-4.5494995;-;-;-;-;-;-;-;-;-;-;-;-;-;-;-
1514177352397;-;-;8.139572;0.2013092;-4.737442;-;-;-;-;-;-;-;-;-;-;-;-;-;-;-
1514177352417;-;-;7.921707;0.30903625;-4.43338;-;-;-;-;-;-;-;-;-;-;-;-;-;-;-
1514177352437;-;-;7.4883575;-0.11352539;-4.199951;-;-;-;-;-;-;-;-;-;-;-;-;-;-;-
1514177352458;-;-;7.482376;-0.5648346;-4.0323486;-;-;-;-;-;-;-;-;-;-;-;-;-;-;-
1514177352478;-;-;7.569763;-0.93833923;-3.9413757;-;-;-;-;-;-;-;-;-;-;-;-;-;-;-
1514177352498;-;-;7.908539;-0.9431305;-4.1736145;-;-;-;-;-;-;-;-;-;-;-;-;-;-;-
1514177352518;-;-;7.9468384;-0.7623596;-4.330429;-;-;-;-;-;-;-;-;-;-;-;-;-;-;-
1514177352539;-;-;7.971985;-0.7503967;-4.500412;-;-;-;-;-;-;-;-;-;-;-;-;-;-;-
1514177352559;-;-;8.078522;-0.7384186;-4.8260345;-;-;-;-;-;-;-;-;-;-;-;-;-;-;-
1514177352579;-;-;8.000717;-0.636673;-4.8547516;-;-;-;-;-;-;-;-;-;-;-;-;-;-;-
1514177352600;-;-;7.7852325;-0.5241394;-4.974472;-;-;-;-;-;-;-;-;-;-;-;-;-;-;-
1514177352621;-;-;8.043808;-0.4547119;-5.0941772;-;-;-;-;-;-;-;-;-;-;-;-;-;-;-
1514177352641;-;-;7.9228973;-0.45111084;-4.9840393;-;-;-;-;-;-;-;-;-;-;-;-;-;-;-
1514177352661;-;-;8.177887;-0.48703003;-5.001999;-;-;-;-;-;-;-;-;-;-;-;-;-;-;-
1514177352682;-;-;7.969589;-0.7216644;-5.1384735;-;-;-;-;-;-;-;-;-;-;-;-;-;-;-
1514177352702;-;-;8.244919;-1.1574097;-5.1935425;-;-;-;-;-;-;-;-;-;-;-;-;-;-;-
1514177352722;-;-;8.167114;-1.4878082;-5.140869;-;-;-;-;-;-;-;-;-;-;-;-;-;-;-
1514177352742;-;-;8.418503;-1.7715149;-5.096573;-;-;-;-;-;-;-;-;-;-;-;-;-;-;-
1514177352763;-;-;8.375412;-1.8217926;-5.2521973;-;-;-;-;-;-;-;-;-;-;-;-;-;-;-
1514177352782;-;-;8.163513;-1.6589966;-5.398239;-;-;-;-;-;-;-;-;-;-;-;-;-;-;-
1514177352802;-;-;7.7493286;-1.4866028;-5.374298;-;-;-;-;-;-;-;-;-;-;-;-;-;-;-
1514177352822;-;-;7.43927;-1.5332947;-5.4042206;-;-;-;-;-;-;-;-;-;-;-;-;-;-;-
1514177352842;-;-;7.4177246;-1.7463837;-5.3443756;-;-;-;-;-;-;-;-;-;-;-;-;-;-;-
1514177352863;-;-;7.256119;-1.9127808;-5.367111;-;-;-;-;-;-;-;-;-;-;-;-;-;-;-
1514177352883;-;-;7.1998596;-1.8146057;-5.3802795;-;-;-;-;-;-;-;-;-;-;-;-;-;-;-
1514177352903;-;-;7.1603546;-1.6314545;-5.4509125;-;-;-;-;-;-;-;-;-;-;-;-;-;-;-
1514177352923;-;-;7.2501373;-1.3764801;-5.6723785;-;-;-;-;-;-;-;-;-;-;-;-;-;-;-
1514177352943;-;-;7.2046356;-1.186142;-5.726242;-;-;-;-;-;-;-;-;-;-;-;-;-;-;-
1514177352964;-;-;7.1292267;-1.1454315;-5.813629;-;-;-;-;-;-;-;-;-;-;-;-;-;-;-
1514177352985;-;-;7.4883575;-1.1107178;-5.6640015;-;-;-;-;-;-;-;-;-;-;-;-;-;-;-
1514177353005;-;-;7.552994;-1.3704834;-5.611328;-;-;-;-;-;-;-;-;-;-;-;-;-;-;-
1514177353025;-;-;7.6176453;-1.5680084;-5.623291;-;-;-;-;-;-;-;-;-;-;-;-;-;-;-
1514177353046;-;-;7.5865173;-1.5057678;-5.875885;-;-;-;-;-;-;-;-;-;-;-;-;-;-;-
1514177353065;-;-;7.3578644;-1.3345795;-6.1069183;-;-;-;-;-;-;-;-;-;-;-;-;-;-;-
1514177353085;-;-;6.9891663;-1.0891724;-6.1428375;-;-;-;-;-;-;-;-;-;-;-;-;-;-;-
1514177353106;-;-;6.5187073;-1.0149536;-6.053055;-;-;-;-;-;-;-;-;-;-;-;-;-;-;-
1514177353125;-;-;6.3139954;-1.1873322;-6.105728;-;-;-;-;-;-;-;-;-;-;-;-;-;-;-
1514177353145;-;-;6.415756;-1.5045624;-6.025528;-;-;-;-;-;-;-;-;-;-;-;-;-;-;-
1514177353166;-;-;6.546234;-1.5979309;-5.8148346;-;-;-;-;-;-;-;-;-;-;-;-;-;-;-
1514177353185;-;-;6.3894196;-1.4889984;-5.6328735;-;-;-;-;-;-;-;-;-;-;-;-;-;-;-
1514177353205;-;-;6.0661926;-1.2747192;-5.732239;-;-;-;-;-;-;-;-;-;-;-;-;-;-;-
1514177353226;-;-;6.0961304;-0.89045715;-5.769348;-;-;-;-;-;-;-;-;-;-;-;-;-;-;-
1514177353246;-;-;6.980789;-0.61990356;-5.472458;-;-;-;-;-;-;-;-;-;-;-;-;-;-;-
1514177353266;-;-;7.241745;-0.7120819;-5.942917;-;-;-;-;-;-;-;-;-;-;-;-;-;-;-
1514177353287;-;-;7.3423157;-0.7192688;-6.847931;-;-;-;-;-;-;-;-;-;-;-;-;-;-;-
1514177353307;-;-;8.320343;-0.5528717;-7.175934;-;-;-;-;-;-;-;-;-;-;-;-;-;-;-
1514177353327;-;-;9.893326;0.1558075;-7.179535;-;-;-;-;-;-;-;-;-;-;-;-;-;-;-
1514177353347;-;-;10.296753;1.2212372;-7.1663666;-;-;-;-;-;-;-;-;-;-;-;-;-;-;-
1514177353367;-;-;8.632782;1.5037537;-6.911377;-;-;-;-;-;-;-;-;-;-;-;-;-;-;-
1514177353388;-;-;7.384201;0.675354;-6.0626373;-;-;-;-;-;-;-;-;-;-;-;-;-;-;-
1514177353407;-;-;6.798828;-0.5133667;-5.017563;-;-;-;-;-;-;-;-;-;-;-;-;-;-;-
1514177353427;-;-;6.554611;-1.570404;-4.6452637;-;-;-;-;-;-;-;-;-;-;-;-;-;-;-
1514177353448;-;-;6.557007;-1.7787018;-4.53154;-;-;-;-;-;-;-;-;-;-;-;-;-;-;-
1514177353467;-;-;6.78685;-1.4195709;-4.6452637;-;-;-;-;-;-;-;-;-;-;-;-;-;-;-
1514177353487;-;-;7.1052856;-1.0939636;-4.6440735;-;-;-;-;-;-;-;-;-;-;-;-;-;-;-
1514177353507;-;-;7.4883575;-1.170578;-4.7973022;-;-;-;-;-;-;-;-;-;-;-;-;-;-;-
1514177353528;-;-;7.712219;-1.427948;-5.143265;-;-;-;-;-;-;-;-;-;-;-;-;-;-;-
1514177353548;-;-;7.7972107;-1.7739105;-5.4712677;-;-;-;-;-;-;-;-;-;-;-;-;-;-;-
1514177353568;-;-;7.6858826;-1.7703247;-5.5742188;-;-;-;-;-;-;-;-;-;-;-;-;-;-;-
1514177353589;-;-;7.4452667;-1.4866028;-5.91658;-;-;-;-;-;-;-;-;-;-;-;-;-;-;-
1514177353609;-;-;6.9556427;-0.76834106;-6.9137726;-;-;-;-;-;-;-;-;-;-;-;-;-;-;-
1514177353629;-;-;6.1080933;-0.09677124;-8.491547;-;-;-;-;-;-;-;-;-;-;-;-;-;-;-
1514177353649;-;-;6.880234;0.7723236;-8.270081;-;-;-;-;-;-;-;-;-;-;-;-;-;-;-
1514177353670;-;-;6.8407288;1.279892;-7.4393005;-;-;-;-;-;-;-;-;-;-;-;-;-;-;-
1514177353690;-;-;6.312805;0.87646484;-6.639633;-;-;-;-;-;-;-;-;-;-;-;-;-;-;-
1514177353710;-;-;6.340332;0.031311035;-6.124878;-;-;-;-;-;-;-;-;-;-;-;-;-;-;-
1514177353730;-;-;6.4492645;-1.2603607;-5.75737;-;-;-;-;-;-;-;-;-;-;-;-;-;-;-
1514177353751;-;-;6.58934;-2.6873016;-5.388672;-;-;-;-;-;-;-;-;-;-;-;-;-;-;-
1514177353771;-;-;7.0178986;-3.5133057;-5.3084564;-;-;-;-;-;-;-;-;-;-;-;-;-;-;-
1514177353792;-;-;7.566162;-3.2690887;-5.362335;-;-;-;-;-;-;-;-;-;-;-;-;-;-;-
1514177353812;-;-;7.9779663;-2.0384674;-5.709488;-;-;-;-;-;-;-;-;-;-;-;-;-;-;-
1514177353832;-;-;7.715805;-0.4918213;-6.2565613;-;-;-;-;-;-;-;-;-;-;-;-;-;-;-
1514177353853;-;-;7.394989;0.076812744;-6.598938;-;-;-;-;-;-;-;-;-;-;-;-;-;-;-
1514177353873;-;-;7.1411896;0.05645752;-6.907791;-;-;-;-;-;-;-;-;-;-;-;-;-;-;-
1514177353893;-;-;6.6587677;-0.05128479;-7.14003;-;-;-;-;-;-;-;-;-;-;-;-;-;-;-
1514177353913;-;-;6.1475983;-0.05607605;-7.031082;-;-;-;-;-;-;-;-;-;-;-;-;-;-;-
1514177353934;-;-;5.8567047;-0.11831665;-6.6683655;-;-;-;-;-;-;-;-;-;-;-;-;-;-;-
1514177353954;-;-;5.9668427;-0.36253357;-6.3247986;-;-;-;-;-;-;-;-;-;-;-;-;-;-;-
1514177353974;-;-;6.0877533;-0.7982788;-6.2230377;-;-;-;-;-;-;-;-;-;-;-;-;-;-;-
1514177353994;-;-;6.1595764;-1.1621857;-6.3571167;-;-;-;-;-;-;-;-;-;-;-;-;-;-;-
1514177354015;-;-;6.236191;-1.3585205;-6.571396;-;-;-;-;-;-;-;-;-;-;-;-;-;-;-
1514177354035;-;-;6.576172;-1.3824615;-6.74498;-;-;-;-;-;-;-;-;-;-;-;-;-;-;-
1514177354056;-;-;6.908966;-1.170578;-6.974823;-;-;-;-;-;-;-;-;-;-;-;-;-;-;-
1514177354075;-;-;7.216614;-0.97424316;-7.112488;-;-;-;-;-;-;-;-;-;-;-;-;-;-;-
1514177354095;-;-;7.3973694;-0.84495544;-7.0681915;-;-;-;-;-;-;-;-;-;-;-;-;-;-;-
1514177354116;-;-;7.3865967;-0.93115234;-6.9401093;-;-;-;-;-;-;-;-;-;-;-;-;-;-;-
1514177354136;-;-;7.1519775;-1.1143036;-6.760544;-;-;-;-;-;-;-;-;-;-;-;-;-;-;-
1514177354156;-;-;6.742569;-1.2830963;-6.385849;-;-;-;-;-;-;-;-;-;-;-;-;-;-;-
1514177354177;-;-;6.58934;-1.3393707;-6.1428375;-;-;-;-;-;-;-;-;-;-;-;-;-;-;-
1514177354197;-;-;6.506729;-1.2400055;-6.041092;-;-;-;-;-;-;-;-;-;-;-;-;-;-;-
1514177354217;-;-;6.467224;-1.1107178;-6.1703796;-;-;-;-;-;-;-;-;-;-;-;-;-;-;-
1514177354238;-;-;6.4325104;-0.9790344;-6.385849;-;-;-;-;-;-;-;-;-;-;-;-;-;-;-
1514177354257;-;-;6.4492645;-0.8425598;-6.5462646;-;-;-;-;-;-;-;-;-;-;-;-;-;-;-
1514177354278;-;-;6.4720154;-0.83299255;-6.584564;-;-;-;-;-;-;-;-;-;-;-;-;-;-;-
1514177354298;-;-;6.596512;-0.9323425;-6.6288605;-;-;-;-;-;-;-;-;-;-;-;-;-;-;-
1514177354319;-;-;6.588135;-1.1681824;-6.6599884;-;-;-;-;-;-;-;-;-;-;-;-;-;-;-
1514177354339;-;-;6.541443;-1.289093;-6.6360474;-;-;-;-;-;-;-;-;-;-;-;-;-;-;-
1514177354359;-;-;6.651581;-1.2926788;-6.7629395;-;-;-;-;-;-;-;-;-;-;-;-;-;-;-
1514177354380;-;-;6.814392;-1.2220459;-6.879059;-;-;-;-;-;-;-;-;-;-;-;-;-;-;-
1514177354400;-;-;6.929306;-1.1250763;-6.928131;-;-;-;-;-;-;-;-;-;-;-;-;-;-;-
1514177354420;-;-;7.0023346;-1.0065765;-6.926941;-;-;-;-;-;-;-;-;-;-;-;-;-;-;-
1514177354441;-;-;6.922119;-0.9084015;-6.7629395;-;-;-;-;-;-;-;-;-;-;-;-;-;-;-
1514177354461;-;-;6.7688904;-0.82221985;-6.674347;-;-;-;-;-;-;-;-;-;-;-;-;-;-;-
1514177354481;-;-;6.5677795;-0.8856659;-6.519928;-;-;-;-;-;-;-;-;-;-;-;-;-;-;-
1514177354501;-;-;6.5007477;-0.92396545;-6.345154;-;-;-;-;-;-;-;-;-;-;-;-;-;-;-
1514177354522;-;-;6.433716;-1.0963593;-6.34993;-;-;-;-;-;-;-;-;-;-;-;-;-;-;-
1514177354541;-;-;6.412155;-1.2639465;-6.3236084;-;-;-;-;-;-;-;-;-;-;-;-;-;-;-
1514177354561;-;-;6.455261;-1.3692932;-6.337967;-;-;-;-;-;-;-;-;-;-;-;-;-;-;-
1514177354581;-;-;6.5582123;-1.3465424;-6.365494;-;-;-;-;-;-;-;-;-;-;-;-;-;-;-
1514177354602;-;-;6.6623535;-1.3920441;-6.4540863;-;-;-;-;-;-;-;-;-;-;-;-;-;-;-
1514177354623;-;-;6.8048096;-1.2866974;-6.56662;-;-;-;-;-;-;-;-;-;-;-;-;-;-;-
1514177354642;-;-;6.742569;-1.278305;-6.560623;-;-;-;-;-;-;-;-;-;-;-;-;-;-;-
1514177354662;-;-;6.633621;-1.1813507;-6.6121063;-;-;-;-;-;-;-;-;-;-;-;-;-;-;-
1514177354683;-;-;6.561798;-1.2076874;-6.6037292;-;-;-;-;-;-;-;-;-;-;-;-;-;-;-
1514177354703;-;-;6.493561;-1.1214905;-6.5726013;-;-;-;-;-;-;-;-;-;-;-;-;-;-;-
1514177354723;-;-;6.5474396;-1.0341034;-6.560623;-;-;-;-;-;-;-;-;-;-;-;-;-;-;-
1514177354743;-;-;6.5989075;-1.0412903;-6.6408386;-;-;-;-;-;-;-;-;-;-;-;-;-;-;-
1514177354764;-;-;6.596512;-1.052063;-6.7066803;-;-;-;-;-;-;-;-;-;-;-;-;-;-;-
1514177354784;-;-;6.6072845;-1.0891724;-6.7270203;-;-;-;-;-;-;-;-;-;-;-;-;-;-;-
1514177354804;-;-;6.6611633;-1.1238861;-6.6911163;-;-;-;-;-;-;-;-;-;-;-;-;-;-;-
1514177354824;-;-;6.6695404;-1.0317078;-6.6958923;-;-;-;-;-;-;-;-;-;-;-;-;-;-;-
1514177354844;-;-;6.6611633;-0.9395294;-6.6528015;-;-;-;-;-;-;-;-;-;-;-;-;-;-;-
1514177354865;-;-;6.561798;-0.9395294;-6.615692;-;-;-;-;-;-;-;-;-;-;-;-;-;-;-
1514177354885;-;-;6.515106;-1.1358643;-6.66597;-;-;-;-;-;-;-;-;-;-;-;-;-;-;-
1514177354905;-;-;6.229004;-1.1993103;-6.511551;-;-;-;-;-;-;-;-;-;-;-;-;-;-;-
1514177354926;-;-;6.0530243;-1.2112732;-6.3415527;-;-;-;-;-;-;-;-;-;-;-;-;-;-;-
1514177354946;-;-;5.9381104;-1.1885223;-6.2625427;-;-;-;-;-;-;-;-;-;-;-;-;-;-;-
1514177354965;-;-;5.9297333;-1.1574097;-6.2529755;-;-;-;-;-;-;-;-;-;-;-;-;-;-;-
1514177354985;-;-;6.158371;-1.1107178;-6.334381;-;-;-;-;-;-;-;-;-;-;-;-;-;-;-
1514177355005;-;-;6.4444885;-1.0460815;-6.540283;-;-;-;-;-;-;-;-;-;-;-;-;-;-;-
1514177355026;-;-;6.6875;-1.0185394;-6.9089813;-;-;-;-;-;-;-;-;-;-;-;-;-;-;-
1514177355045;-;-;6.849106;-1.0400848;-7.278885;-;-;-;-;-;-;-;-;-;-;-;-;-;-;-
1514177355065;-;-;6.88501;-1.0843811;-7.6871033;-;-;-;-;-;-;-;-;-;-;-;-;-;-;-
1514177355086;-;-;6.8610687;-1.0556488;-7.8870087;-;-;-;-;-;-;-;-;-;-;-;-;-;-;-
1514177355106;-;-;6.7054443;-0.99938965;-7.8738403;-;-;-;-;-;-;-;-;-;-;-;-;-;-;-
1514177355126;-;-;6.4803925;-0.93115234;-7.630829;-;-;-;-;-;-;-;-;-;-;-;-;-;-;-
1514177355146;-;-;6.1847076;-0.9539032;-7.1974792;-;-;-;-;-;-;-;-;-;-;-;-;-;-;-
1514177355167;-;-;6.090149;-1.0376892;-6.9449005;-;-;-;-;-;-;-;-;-;-;-;-;-;-;-
1514177355187;-;-;6.074585;-1.1382446;-6.80484;-;-;-;-;-;-;-;-;-;-;-;-;-;-;-
1514177355208;-;-;6.070984;-1.234024;-6.7940674;-;-;-;-;-;-;-;-;-;-;-;-;-;-;-
1514177355228;-;-;6.102112;-1.2914734;-6.8455353;-;-;-;-;-;-;-;-;-;-;-;-;-;-;-
1514177355247;-;-;6.1284485;-1.313034;-6.879059;-;-;-;-;-;-;-;-;-;-;-;-;-;-;-
1514177355267;-;-;6.1475983;-1.289093;-6.966446;-;-;-;-;-;-;-;-;-;-;-;-;-;-;-
1514177355287;-;-;6.206253;-1.2435913;-6.954468;-;-;-;-;-;-;-;-;-;-;-;-;-;-;-
1514177355307;-;-;6.2230225;-1.1897278;-7.0011597;-;-;-;-;-;-;-;-;-;-;-;-;-;-;-
1514177355327;-;-;6.1763306;-1.2088776;-7.125656;-;-;-;-;-;-;-;-;-;-;-;-;-;-;-
1514177355347;-;-;6.1116943;-1.151413;-7.2369843;-;-;-;-;-;-;-;-;-;-;-;-;-;-;-
1514177355368;-;-;6.0338745;-1.0460815;-7.3758545;-;-;-;-;-;-;-;-;-;-;-;-;-;-;-
1514177355387;-;-;6.0290833;-0.95269775;-7.426132;-;-;-;-;-;-;-;-;-;-;-;-;-;-;-
1514177355407;-;-;6.0530243;-0.759964;-7.393814;-;-;-;-;-;-;-;-;-;-;-;-;-;-;-
1514177355428;-;-;6.038666;-0.6713867;-7.2657166;-;-;-;-;-;-;-;-;-;-;-;-;-;-;-
1514177355448;-;-;5.97641;-0.783905;-7.223816;-;-;-;-;-;-;-;-;-;-;-;-;-;-;-
1514177355468;-;-;5.9141693;-1.067627;-7.129257;-;-;-;-;-;-;-;-;-;-;-;-;-;-;-
1514177355488;-;-;5.8997955;-1.2747192;-6.9329224;-;-;-;-;-;-;-;-;-;-;-;-;-;-;-
1514177355509;-;-;6.1404266;-1.4064026;-6.916168;-;-;-;-;-;-;-;-;-;-;-;-;-;-;-
1514177355529;-;-;6.304428;-1.372879;-6.8383484;-;-;-;-;-;-;-;-;-;-;-;-;-;-;-
1514177355549;-;-;6.4456787;-1.1657867;-6.8227844;-;-;-;-;-;-;-;-;-;-;-;-;-;-;-
1514177355569;-;-;6.4803925;-1.1166992;-6.931732;-;-;-;-;-;-;-;-;-;-;-;-;-;-;-
1514177355590;-;-;6.4289246;-1.0652313;-6.966446;-;-;-;-;-;-;-;-;-;-;-;-;-;-;-
1514177355610;-;-;6.4875793;-1.1621857;-7.1220703;-;-;-;-;-;-;-;-;-;-;-;-;-;-;-
1514177355630;-;-;6.3115997;-1.0724182;-7.00235;-;-;-;-;-;-;-;-;-;-;-;-;-;-;-
1514177355651;-;-;6.4373016;-1.1214905;-6.7988434;-;-;-;-;-;-;-;-;-;-;-;-;-;-;-
1514177355671;-;-;6.5007477;-0.99220276;-6.7545624;-;-;-;-;-;-;-;-;-;-;-;-;-;-;-
1514177355691;-;-;6.402588;-0.8593292;-6.7521667;-;-;-;-;-;-;-;-;-;-;-;-;-;-;-
1514177355712;-;-;6.29126;-0.7408142;-6.6360474;-;-;-;-;-;-;-;-;-;-;-;-;-;-;-
1514177355731;-;-;6.201477;-0.80307007;-6.481613;-;-;-;-;-;-;-;-;-;-;-;-;-;-;-
1514177355751;-;-;6.075775;-1.0185394;-6.552246;-;-;-;-;-;-;-;-;-;-;-;-;-;-;-
1514177355771;-;-;5.9201508;-1.3142242;-6.736603;-;-;-;-;-;-;-;-;-;-;-;-;-;-;-
1514177355793;-;-;5.884247;-1.4339294;-6.863495;-;-;-;-;-;-;-;-;-;-;-;-;-;-;-
1514177355813;-;-;5.923752;-1.4064026;-6.950882;-;-;-;-;-;-;-;-;-;-;-;-;-;-;-
1514177355834;-;-;6.0661926;-1.4854126;-6.800049;-;-;-;-;-;-;-;-;-;-;-;-;-;-;-
1514177355854;-;-;6.2086487;-1.8301697;-6.7318115;-;-;-;-;-;-;-;-;-;-;-;-;-;-;-
1514177355875;-;-;6.3810425;-2.0695953;-7.0753784;-;-;-;-;-;-;-;-;-;-;-;-;-;-;-
1514177355894;-;-;6.5187073;-1.8349609;-7.4740143;-;-;-;-;-;-;-;-;-;-;-;-;-;-;-
1514177355914;-;-;6.455261;-1.3321838;-7.65477;-;-;-;-;-;-;-;-;-;-;-;-;-;-;-
1514177355934;-;-;6.328369;-0.8988342;-7.705063;-;-;-;-;-;-;-;-;-;-;-;-;-;-;-
1514177355955;-;-;6.304428;-0.5277252;-7.666748;-;-;-;-;-;-;-;-;-;-;-;-;-;-;-
1514177355974;-;-;6.3511047;-0.4044342;-7.596115;-;-;-;-;-;-;-;-;-;-;-;-;-;-;-
1514177355994;-;-;6.3343506;-0.621109;-7.448883;-;-;-;-;-;-;-;-;-;-;-;-;-;-;-
1514177356015;-;-;6.2948456;-0.94073486;-7.1986847;-;-;-;-;-;-;-;-;-;-;-;-;-;-;-
1514177356035;-;-;6.2541504;-1.2771149;-6.8347626;-;-;-;-;-;-;-;-;-;-;-;-;-;-;-
1514177356055;-;-;6.284073;-1.6721649;-6.5642242;-;-;-;-;-;-;-;-;-;-;-;-;-;-;-
1514177356076;-;-;6.2541504;-1.8636932;-6.480423;-;-;-;-;-;-;-;-;-;-;-;-;-;-;-
1514177356096;-;-;6.189499;-1.7427826;-6.4983826;-;-;-;-;-;-;-;-;-;-;-;-;-;-;-
1514177356116;-;-;6.142807;-1.4758301;-6.5857697;-;-;-;-;-;-;-;-;-;-;-;-;-;-;-
1514177356137;-;-;6.1128845;-1.2328186;-6.796463;-;-;-;-;-;-;-;-;-;-;-;-;-;-;-
1514177356157;-;-;6.075775;-1.1777496;-6.9245453;-;-;-;-;-;-;-;-;-;-;-;-;-;-;-
1514177356177;-;-;6.1284485;-1.1322632;-7.015518;-;-;-;-;-;-;-;-;-;-;-;-;-;-;-
1514177356198;-;-;6.209854;-1.2208557;-7.06221;-;-;-;-;-;-;-;-;-;-;-;-;-;-;-
1514177356219;-;-;6.37027;-1.3704834;-7.093338;-;-;-;-;-;-;-;-;-;-;-;-;-;-;-
1514177356238;-;-;6.4205475;-1.4470978;-7.0011597;-;-;-;-;-;-;-;-;-;-;-;-;-;-;-
1514177356258;-;-;6.462433;-1.4291534;-6.950882;-;-;-;-;-;-;-;-;-;-;-;-;-;-;-
1514177356278;-;-;6.477997;-1.3740845;-6.9460907;-;-;-;-;-;-;-;-;-;-;-;-;-;-;-
1514177356299;-;-;6.4792023;-1.285492;-6.978409;-;-;-;-;-;-;-;-;-;-;-;-;-;-;-
1514177356319;-;-;6.4720154;-1.2483826;-6.9640503;-;-;-;-;-;-;-;-;-;-;-;-;-;-;-
1514177356339;-;-;6.3906097;-1.2603607;-6.8850403;-;-;-;-;-;-;-;-;-;-;-;-;-;-;-
1514177356360;-;-;6.3211823;-1.2627563;-6.800049;-;-;-;-;-;-;-;-;-;-;-;-;-;-;-
1514177356380;-;-;6.2278137;-1.2507782;-6.742584;-;-;-;-;-;-;-;-;-;-;-;-;-;-;-
1514177356400;-;-;6.1835175;-1.2364197;-6.6647797;-;-;-;-;-;-;-;-;-;-;-;-;-;-;-
1514177356421;-;-;6.2038727;-1.2579651;-6.657593;-;-;-;-;-;-;-;-;-;-;-;-;-;-;-
1514177356441;-;-;6.245758;-1.2447968;-6.72583;-;-;-;-;-;-;-;-;-;-;-;-;-;-;-
1514177356461;-;-;6.299637;-1.3190155;-6.8275757;-;-;-;-;-;-;-;-;-;-;-;-;-;-;-
1514177356481;-;-;6.335541;-1.3142242;-6.8934174;-;-;-;-;-;-;-;-;-;-;-;-;-;-;-
1514177356502;-;-;6.35231;-1.3788757;-6.938904;-;-;-;-;-;-;-;-;-;-;-;-;-;-;-
1514177356522;-;-;6.3068237;-1.4219666;-6.895813;-;-;-;-;-;-;-;-;-;-;-;-;-;-;-
1514177356542;-;-;6.2589264;-1.4878082;-6.8730774;-;-;-;-;-;-;-;-;-;-;-;-;-;-;-
1514177356563;-;-;6.284073;-1.4746399;-6.821594;-;-;-;-;-;-;-;-;-;-;-;-;-;-;-
1514177356583;-;-;6.315201;-1.4686584;-6.80484;-;-;-;-;-;-;-;-;-;-;-;-;-;-;-
1514177356603;-;-;6.378647;-1.443512;-6.8275757;-;-;-;-;-;-;-;-;-;-;-;-;-;-;-
1514177356624;-;-;6.4217377;-1.3692932;-6.856308;-;-;-;-;-;-;-;-;-;-;-;-;-;-;-
1514177356643;-;-;6.434906;-1.3561249;-6.8982086;-;-;-;-;-;-;-;-;-;-;-;-;-;-;-
1514177356663;-;-;6.438492;-1.3070374;-6.9221497;-;-;-;-;-;-;-;-;-;-;-;-;-;-;-
1514177356683;-;-;6.3810425;-1.2878876;-6.926941;-;-;-;-;-;-;-;-;-;-;-;-;-;-;-
1514177356704;-;-;6.312805;-1.2364197;-6.923355;-;-;-;-;-;-;-;-;-;-;-;-;-;-;-
1514177356724;-;-;6.319992;-1.2411957;-6.9640503;-;-;-;-;-;-;-;-;-;-;-;-;-;-;-
1514177356744;-;-;6.331955;-1.190918;-6.9879913;-;-;-;-;-;-;-;-;-;-;-;-;-;-;-
1514177356764;-;-;6.2230225;-1.2160645;-6.923355;-;-;-;-;-;-;-;-;-;-;-;-;-;-;-
1514177356785;-;-;6.2481537;-1.309433;-6.88385;-;-;-;-;-;-;-;-;-;-;-;-;-;-;-
1514177356805;-;-;6.2733;-1.3704834;-6.8694763;-;-;-;-;-;-;-;-;-;-;-;-;-;-;-
1514177356825;-;-;6.288864;-1.3848572;-6.839554;-;-;-;-;-;-;-;-;-;-;-;-;-;-;-
1514177356846;-;-;6.3451233;-1.3393707;-6.677948;-;-;-;-;-;-;-;-;-;-;-;-;-;-;-
1514177356865;-;-;6.308014;-1.2280273;-6.670761;-;-;-;-;-;-;-;-;-;-;-;-;-;-;-
1514177356886;-;-;6.170349;-1.0700226;-7.0394745;-;-;-;-;-;-;-;-;-;-;-;-;-;-;-
1514177356907;-;-;6.1452026;-1.052063;-7.389023;-;-;-;-;-;-;-;-;-;-;-;-;-;-;-
1514177356927;-;-;6.2553406;-1.2196503;-7.2298126;-;-;-;-;-;-;-;-;-;-;-;-;-;-;-
1514177356947;-;-;6.37027;-1.3465424;-7.08136;-;-;-;-;-;-;-;-;-;-;-;-;-;-;-
1514177356968;-;-;6.378647;-1.3788757;-6.9844055;-;-;-;-;-;-;-;-;-;-;-;-;-;-;-
1514177356988;-;-;6.209854;-1.3920441;-6.8275757;-;-;-;-;-;-;-;-;-;-;-;-;-;-;-
1514177357008;-;-;6.1296387;-1.3944244;-6.7868805;-;-;-;-;-;-;-;-;-;-;-;-;-;-;-
1514177357029;-;-;6.149994;-1.3345795;-6.8191986;-;-;-;-;-;-;-;-;-;-;-;-;-;-;-
1514177357049;-;-;6.2661133;-1.3752747;-6.8970184;-;-;-;-;-;-;-;-;-;-;-;-;-;-;-
1514177357069;-;-;6.3822327;-1.4494934;-6.9449005;-;-;-;-;-;-;-;-;-;-;-;-;-;-;-
1514177357090;-;-;6.458847;-1.483017;-6.9257355;-;-;-;-;-;-;-;-;-;-;-;-;-;-;-
1514177357109;-;-;6.4169464;-1.4806213;-6.9532776;-;-;-;-;-;-;-;-;-;-;-;-;-;-;-
1514177357129;-;-;6.35231;-1.3944244;-6.9257355;-;-;-;-;-;-;-;-;-;-;-;-;-;-;-
1514177357149;-;-;6.2625275;-1.3393707;-6.959259;-;-;-;-;-;-;-;-;-;-;-;-;-;-;-
1514177357170;-;-;6.2397766;-1.3357697;-6.876663;-;-;-;-;-;-;-;-;-;-;-;-;-;-;-
1514177357189;-;-;6.2816772;-1.3812561;-6.8455353;-;-;-;-;-;-;-;-;-;-;-;-;-;-;-
1514177357209;-;-;6.3211823;-1.4111938;-6.895813;-;-;-;-;-;-;-;-;-;-;-;-;-;-;-
1514177357230;-;-;6.3738556;-1.4542847;-6.931732;-;-;-;-;-;-;-;-;-;-;-;-;-;-;-
1514177357250;-;-;6.4636383;-1.4650574;-6.9688416;-;-;-;-;-;-;-;-;-;-;-;-;-;-;-
1514177357270;-;-;6.4396973;-1.3968201;-6.9652405;-;-;-;-;-;-;-;-;-;-;-;-;-;-;-
1514177357291;-;-;6.4325104;-1.3453522;-6.871872;-;-;-;-;-;-;-;-;-;-;-;-;-;-;-
1514177357311;-;-;6.3295593;-1.3369751;-6.801239;-;-;-;-;-;-;-;-;-;-;-;-;-;-;-
1514177357331;-;-;6.2589264;-1.3405609;-6.6958923;-;-;-;-;-;-;-;-;-;-;-;-;-;-;-
1514177357351;-;-;6.308014;-1.3513336;-6.7270203;-;-;-;-;-;-;-;-;-;-;-;-;-;-;-
1514177357372;-;-;6.2637177;-1.3142242;-6.758148;-;-;-;-;-;-;-;-;-;-;-;-;-;-;-
1514177357392;-;-;6.2780914;-1.3034515;-6.796463;-;-;-;-;-;-;-;-;-;-;-;-;-;-;-
1514177357412;-;-;6.336746;-1.278305;-6.765335;-;-;-;-;-;-;-;-;-;-;-;-;-;-;-
1514177357432;-;-;6.4001923;-1.2759247;-6.880249;-;-;-;-;-;-;-;-;-;-;-;-;-;-;-
1514177357453;-;-;6.418152;-1.2962646;-6.8610992;-;-;-;-;-;-;-;-;-;-;-;-;-;-;-
1514177357473;-;-;6.414551;-1.2771149;-6.82518;-;-;-;-;-;-;-;-;-;-;-;-;-;-;-
1514177357493;-;-;6.3618774;-1.3238068;-6.8036346;-;-;-;-;-;-;-;-;-;-;-;-;-;-;-
1514177357513;-;-;6.245758;-1.4016113;-6.8587036;-;-;-;-;-;-;-;-;-;-;-;-;-;-;-
1514177357533;-;-;6.209854;-1.3992157;-6.8694763;-;-;-;-;-;-;-;-;-;-;-;-;-;-;-
1514177357554;-;-;6.2469635;-1.3465424;-6.785675;-;-;-;-;-;-;-;-;-;-;-;-;-;-;-
1514177357574;-;-;6.3211823;-1.2819061;-6.7545624;-;-;-;-;-;-;-;-;-;-;-;-;-;-;-
1514177357594;-;-;6.379837;-1.249588;-6.729416;-;-;-;-;-;-;-;-;-;-;-;-;-;-;-
1514177357615;-;-;6.473221;-1.2878876;-6.784485;-;-;-;-;-;-;-;-;-;-;-;-;-;-;-
1514177357635;-;-;6.5007477;-1.333374;-6.839554;-;-;-;-;-;-;-;-;-;-;-;-;-;-;-
1514177357655;-;-;6.525879;-1.3872528;-6.9532776;-;-;-;-;-;-;-;-;-;-;-;-;-;-;-
1514177357675;-;-;6.497162;-1.467453;-7.0047455;-;-;-;-;-;-;-;-;-;-;-;-;-;-;-
1514177357696;-;-;6.37027;-1.4411163;-6.997574;-;-;-;-;-;-;-;-;-;-;-;-;-;-;-
1514177357716;-;-;6.331955;-1.4291534;-6.9017944;-;-;-;-;-;-;-;-;-;-;-;-;-;-;-
1514177357739;-;-;6.275696;-1.3944244;-6.90419;-;-;-;-;-;-;-;-;-;-;-;-;-;-;-
1514177357757;-;-;6.2792816;-1.3836517;-6.9065857;-;-;-;-;-;-;-;-;-;-;-;-;-;-;-
1514177357777;-;-;6.299637;-1.3752747;-6.923355;-;-;-;-;-;-;-;-;-;-;-;-;-;-;-
1514177357797;-;-;6.330765;-1.3477478;-6.9305267;-;-;-;-;-;-;-;-;-;-;-;-;-;-;-
1514177357818;-;-;6.3211823;-1.3297882;-6.914963;-;-;-;-;-;-;-;-;-;-;-;-;-;-;-
1514177357838;-;-;6.316391;-1.2962646;-6.8610992;-;-;-;-;-;-;-;-;-;-;-;-;-;-;-
1514177357858;-;-;6.316391;-1.2232513;-6.8383484;-;-;-;-;-;-;-;-;-;-;-;-;-;-;-
1514177357878;-;-;6.3571014;-1.190918;-6.916168;-;-;-;-;-;-;-;-;-;-;-;-;-;-;-
1514177357899;-;-;6.378647;-1.230423;-6.899414;-;-;-;-;-;-;-;-;-;-;-;-;-;-;-
1514177357919;-;-;6.402588;-1.2196503;-6.952072;-;-;-;-;-;-;-;-;-;-;-;-;-;-;-
1514177357939;-;-;6.394211;-1.269928;-6.9053955;-;-;-;-;-;-;-;-;-;-;-;-;-;-;-
1514177357960;-;-;6.3666687;-1.3238068;-6.808426;-;-;-;-;-;-;-;-;-;-;-;-;-;-;-
1514177357980;-;-;6.2876587;-1.3513336;-6.7521667;-;-;-;-;-;-;-;-;-;-;-;-;-;-;-
1514177358000;-;-;6.2828674;-1.3585205;-6.753357;-;-;-;-;-;-;-;-;-;-;-;-;-;-;-
1514177358020;-;-;6.3020325;-1.3848572;-6.780899;-;-;-;-;-;-;-;-;-;-;-;-;-;-;-
1514177358041;-;-;6.3666687;-1.3429565;-6.801239;-;-;-;-;-;-;-;-;-;-;-;-;-;-;-
1514177358061;-;-;6.462433;-1.3285828;-6.82399;-;-;-;-;-;-;-;-;-;-;-;-;-;-;-
1514177358081;-;-;6.3966064;-1.2998657;-6.7725067;-;-;-;-;-;-;-;-;-;-;-;-;-;-;-
1514177358102;-;-;6.335541;-1.1933136;-6.7545624;-;-;-;-;-;-;-;-;-;-;-;-;-;-;-
1514177358122;-;-;6.383438;-1.1849365;-6.742584;-;-;-;-;-;-;-;-;-;-;-;-;-;-;-
1514177358142;-;-;6.3846283;-1.2064819;-6.8227844;-;-;-;-;-;-;-;-;-;-;-;-;-;-;-
1514177358163;-;-;6.3463287;-1.2196503;-6.8060303;-;-;-;-;-;-;-;-;-;-;-;-;-;-;-
1514177358183;-;-;6.37146;-1.2184601;-6.7389984;-;-;-;-;-;-;-;-;-;-;-;-;-;-;-
1514177358203;-;-;6.3582916;-1.2388;-6.789276;-;-;-;-;-;-;-;-;-;-;-;-;-;-;-
1514177358223;-;-;6.364273;-1.2447968;-6.8263855;-;-;-;-;-;-;-;-;-;-;-;-;-;-;-
1514177358244;-;-;6.37027;-1.3226013;-6.8730774;-;-;-;-;-;-;-;-;-;-;-;-;-;-;-
1514177358264;-;-;6.403778;-1.3058472;-6.8826447;-;-;-;-;-;-;-;-;-;-;-;-;-;-;-
1514177358284;-;-;6.4803925;-1.3381653;-6.870682;-;-;-;-;-;-;-;-;-;-;-;-;-;-;-
1514177358305;-;-;6.462433;-1.3321838;-6.840744;-;-;-;-;-;-;-;-;-;-;-;-;-;-;-
1514177358325;-;-;6.436096;-1.3585205;-6.828781;-;-;-;-;-;-;-;-;-;-;-;-;-;-;-
1514177358345;-;-;6.398987;-1.3848572;-6.753357;-;-;-;-;-;-;-;-;-;-;-;-;-;-;-
1514177358366;-;-;6.412155;-1.3405609;-6.800049;-;-;-;-;-;-;-;-;-;-;-;-;-;-;-
1514177358386;-;-;6.3906097;-1.3046417;-6.742584;-;-;-;-;-;-;-;-;-;-;-;-;-;-;-
1514177358406;-;-;6.3906097;-1.289093;-6.718643;-;-;-;-;-;-;-;-;-;-;-;-;-;-;-
1514177358427;-;-;6.395401;-1.2747192;-6.6958923;-;-;-;-;-;-;-;-;-;-;-;-;-;-;-
1514177358447;-;-;6.410965;-1.2459869;-6.7509613;-;-;-;-;-;-;-;-;-;-;-;-;-;-;-
1514177358467;-;-;6.419342;-1.2819061;-6.7545624;-;-;-;-;-;-;-;-;-;-;-;-;-;-;-
1514177358488;-;-;6.395401;-1.3226013;-6.7785034;-;-;-;-;-;-;-;-;-;-;-;-;-;-;-
1514177358508;-;-;6.395401;-1.2711334;-6.8180084;-;-;-;-;-;-;-;-;-;-;-;-;-;-;-
1514177358528;-;-;6.395401;-1.2687378;-6.82399;-;-;-;-;-;-;-;-;-;-;-;-;-;-;-
1514177358549;-;-;6.4253235;-1.2747192;-6.8431396;-;-;-;-;-;-;-;-;-;-;-;-;-;-;-
1514177358569;-;-;6.409775;-1.2878876;-6.839554;-;-;-;-;-;-;-;-;-;-;-;-;-;-;-
1514177358589;-;-;6.426529;-1.2902832;-6.760544;-;-;-;-;-;-;-;-;-;-;-;-;-;-;-
1514177358610;-;-;6.455261;-1.2687378;-6.741394;-;-;-;-;-;-;-;-;-;-;-;-;-;-;-
1514177358629;-;-;6.5007477;-1.230423;-6.7353973;-;-;-;-;-;-;-;-;-;-;-;-;-;-;-
1514177358649;-;-;6.537857;-1.2232513;-6.741394;-;-;-;-;-;-;-;-;-;-;-;-;-;-;-
1514177358670;-;-;6.541443;-1.2208557;-6.7940674;-;-;-;-;-;-;-;-;-;-;-;-;-;-;-
1514177358690;-;-;6.475601;-1.273529;-6.7916718;-;-;-;-;-;-;-;-;-;-;-;-;-;-;-
1514177358710;-;-;6.446884;-1.333374;-6.792862;-;-;-;-;-;-;-;-;-;-;-;-;-;-;-
1514177358731;-;-;6.470825;-1.3513336;-6.8335724;-;-;-;-;-;-;-;-;-;-;-;-;-;-;-
1514177358751;-;-;6.403778;-1.3477478;-6.8610992;-;-;-;-;-;-;-;-;-;-;-;-;-;-;-
1514177358771;-;-;6.315201;-1.3573151;-6.7629395;-;-;-;-;-;-;-;-;-;-;-;-;-;-;-
1514177358792;-;-;6.383438;-1.3980255;-6.721039;-;-;-;-;-;-;-;-;-;-;-;-;-;-;-
1514177358812;-;-;6.4636383;-1.4051971;-6.765335;-;-;-;-;-;-;-;-;-;-;-;-;-;-;-
1514177358832;-;-;6.4325104;-1.3549194;-6.784485;-;-;-;-;-;-;-;-;-;-;-;-;-;-;-
1514177358852;-;-;6.378647;-1.273529;-6.7353973;-;-;-;-;-;-;-;-;-;-;-;-;-;-;-
1514177358873;-;-;6.3295593;-1.2316284;-6.7234344;-;-;-;-;-;-;-;-;-;-;-;-;-;-;-
1514177358893;-;-;6.331955;-1.2807007;-6.777298;-;-;-;-;-;-;-;-;-;-;-;-;-;-;-
1514177358913;-;-;6.364273;-1.2483826;-6.780899;-;-;-;-;-;-;-;-;-;-;-;-;-;-;-
1514177358934;-;-;6.4049835;-1.1993103;-6.8036346;-;-;-;-;-;-;-;-;-;-;-;-;-;-;-
1514177358954;-;-;6.446884;-1.1394501;-6.7749023;-;-;-;-;-;-;-;-;-;-;-;-;-;-;-
1514177358974;-;-;6.4923706;-1.0736084;-6.7437897;-;-;-;-;-;-;-;-;-;-;-;-;-;-;-
1514177358994;-;-;6.5342712;-1.1633911;-6.6958923;-;-;-;-;-;-;-;-;-;-;-;-;-;-;-
1514177359015;-;-;6.457657;-1.2424011;-6.677948;-;-;-;-;-;-;-;-;-;-;-;-;-;-;-
1514177359035;-;-;6.412155;-1.2771149;-6.705475;-;-;-;-;-;-;-;-;-;-;-;-;-;-;-
1514177359055;-;-;6.3858185;-1.3214111;-6.8191986;-;-;-;-;-;-;-;-;-;-;-;-;-;-;-
1514177359076;-;-;6.45047;-1.3369751;-6.8120117;-;-;-;-;-;-;-;-;-;-;-;-;-;-;-
1514177359096;-;-;6.45047;-1.3465424;-6.816803;-;-;-;-;-;-;-;-;-;-;-;-;-;-;-
1514177359116;-;-;6.5630035;-1.3992157;-6.737793;-;-;-;-;-;-;-;-;-;-;-;-;-;-;-
1514177359137;-;-;6.5630035;-1.412384;-6.717453;-;-;-;-;-;-;-;-;-;-;-;-;-;-;-
1514177359157;-;-;6.533066;-1.4291534;-6.72583;-;-;-;-;-;-;-;-;-;-;-;-;-;-;-
1514177359177;-;-;6.438492;-1.4087982;-6.756958;-;-;-;-;-;-;-;-;-;-;-;-;-;-;-
1514177359197;-;-;6.3930054;-1.3585205;-6.74617;-;-;-;-;-;-;-;-;-;-;-;-;-;-;-
1514177359218;-;-;6.394211;-1.3369751;-6.753357;-;-;-;-;-;-;-;-;-;-;-;-;-;-;-
1514177359238;-;-;6.4205475;-1.3357697;-6.742584;-;-;-;-;-;-;-;-;-;-;-;-;-;-;-
1514177359259;-;-;6.3930054;-1.293869;-6.7593384;-;-;-;-;-;-;-;-;-;-;-;-;-;-;-
1514177359279;-;-;6.395401;-1.2807007;-6.718643;-;-;-;-;-;-;-;-;-;-;-;-;-;-;-
1514177359299;-;-;6.3930054;-1.2627563;-6.655197;-;-;-;-;-;-;-;-;-;-;-;-;-;-;-
1514177359320;-;-;6.402588;-1.1873322;-6.64682;-;-;-;-;-;-;-;-;-;-;-;-;-;-;-
1514177359340;-;-;6.422943;-1.1143036;-6.677948;-;-;-;-;-;-;-;-;-;-;-;-;-;-;-
1514177359360;-;-;6.477997;-1.115509;-6.677948;-;-;-;-;-;-;-;-;-;-;-;-;-;-;-
1514177359380;-;-;6.5402527;-1.1250763;-6.72583;-;-;-;-;-;-;-;-;-;-;-;-;-;-;-
1514177359401;-;-;6.6372223;-1.1478271;-6.832367;-;-;-;-;-;-;-;-;-;-;-;-;-;-;-
1514177359421;-;-;6.620453;-1.2016907;-6.8934174;-;-;-;-;-;-;-;-;-;-;-;-;-;-;-
1514177359441;-;-;6.5007477;-1.2567596;-6.7701263;-;-;-;-;-;-;-;-;-;-;-;-;-;-;-
1514177359462;-;-;6.4792023;-1.2950745;-6.710266;-;-;-;-;-;-;-;-;-;-;-;-;-;-;-
1514177359483;-;-;6.493561;-1.3860474;-6.742584;-;-;-;-;-;-;-;-;-;-;-;-;-;-;-
1514177359503;-;-;6.481598;-1.427948;-6.753357;-;-;-;-;-;-;-;-;-;-;-;-;-;-;-
1514177359523;-;-;6.4456787;-1.4243622;-6.679138;-;-;-;-;-;-;-;-;-;-;-;-;-;-;-
1514177359544;-;-;6.454056;-1.4051971;-6.634842;-;-;-;-;-;-;-;-;-;-;-;-;-;-;-
1514177359563;-;-;6.493561;-1.3405609;-6.6695557;-;-;-;-;-;-;-;-;-;-;-;-;-;-;-
1514177359584;-;-;6.474411;-1.3525391;-6.7234344;-;-;-;-;-;-;-;-;-;-;-;-;-;-;-
1514177359604;-;-;6.442093;-1.3321838;-6.7282257;-;-;-;-;-;-;-;-;-;-;-;-;-;-;-
1514177359624;-;-;6.4013824;-1.2962646;-6.705475;-;-;-;-;-;-;-;-;-;-;-;-;-;-;-
1514177359644;-;-;6.4217377;-1.2555695;-6.718643;-;-;-;-;-;-;-;-;-;-;-;-;-;-;-
1514177359665;-;-;6.412155;-1.2843018;-6.7090607;-;-;-;-;-;-;-;-;-;-;-;-;-;-;-
1514177359686;-;-;6.4061737;-1.2639465;-6.729416;-;-;-;-;-;-;-;-;-;-;-;-;-;-;-
1514177359706;-;-;6.4648285;-1.293869;-6.756958;-;-;-;-;-;-;-;-;-;-;-;-;-;-;-
1514177359725;-;-;6.4456787;-1.2866974;-6.837158;-;-;-;-;-;-;-;-;-;-;-;-;-;-;-
1514177359745;-;-;6.454056;-1.2914734;-6.815613;-;-;-;-;-;-;-;-;-;-;-;-;-;-;-
1514177359766;-;-;6.474411;-1.2914734;-6.782089;-;-;-;-;-;-;-;-;-;-;-;-;-;-;-
1514177359785;-;-;6.491165;-1.2926788;-6.7677307;-;-;-;-;-;-;-;-;-;-;-;-;-;-;-
1514177359805;-;-;6.497162;-1.3285828;-6.7785034;-;-;-;-;-;-;-;-;-;-;-;-;-;-;-
1514177359826;-;-;6.470825;-1.3716888;-6.760544;-;-;-;-;-;-;-;-;-;-;-;-;-;-;-
1514177359846;-;-;6.475601;-1.4087982;-6.758148;-;-;-;-;-;-;-;-;-;-;-;-;-;-;-
1514177359866;-;-;6.457657;-1.372879;-6.7521667;-;-;-;-;-;-;-;-;-;-;-;-;-;-;-
1514177359887;-;-;6.4373016;-1.4231567;-6.741394;-;-;-;-;-;-;-;-;-;-;-;-;-;-;-
1514177359906;-;-;6.434906;-1.4578705;-6.7437897;-;-;-;-;-;-;-;-;-;-;-;-;-;-;-
1514177359926;-;-;6.410965;-1.3920441;-6.681534;-;-;-;-;-;-;-;-;-;-;-;-;-;-;-
1514177359947;-;-;6.3822327;-1.4207611;-6.713852;-;-;-;-;-;-;-;-;-;-;-;-;-;-;-
1514177359967;-;-;6.3977966;-1.3657074;-6.6994934;-;-;-;-;-;-;-;-;-;-;-;-;-;-;-
1514177359987;-;-;6.4408875;-1.3680878;-6.7198486;-;-;-;-;-;-;-;-;-;-;-;-;-;-;-
1514177360009;-;-;6.458847;-1.3633118;-6.7485657;-;-;-;-;-;-;-;-;-;-;-;-;-;-;-
1514177360028;-;-;6.4528656;-1.3465424;-6.8072357;-;-;-;-;-;-;-;-;-;-;-;-;-;-;-
1514177360049;-;-;6.4133606;-1.3405609;-6.800049;-;-;-;-;-;-;-;-;-;-;-;-;-;-;-
1514177360068;-;-;6.458847;-1.3441467;-6.773712;-;-;-;-;-;-;-;-;-;-;-;-;-;-;-
1514177360088;-;-;6.491165;-1.3321838;-6.8072357;-;-;-;-;-;-;-;-;-;-;-;-;-;-;-
1514177360108;-;-;6.394211;-1.3573151;-6.7940674;-;-;-;-;-;-;-;-;-;-;-;-;-;-;-
1514177360129;-;-;6.3666687;-1.3860474;-6.689911;-;-;-;-;-;-;-;-;-;-;-;-;-;-;-
1514177360149;-;-;6.4851837;-1.3860474;-6.6911163;-;-;-;-;-;-;-;-;-;-;-;-;-;-;-
1514177360169;-;-;6.501938;-1.4459076;-6.8299713;-;-;-;-;-;-;-;-;-;-;-;-;-;-;-
1514177360190;-;-;6.475601;-1.4267578;-6.7749023;-;-;-;-;-;-;-;-;-;-;-;-;-;-;-
1514177360210;-;-;6.419342;-1.4111938;-6.6647797;-;-;-;-;-;-;-;-;-;-;-;-;-;-;-
1514177360230;-;-;6.414551;-1.3393707;-6.634842;-;-;-;-;-;-;-;-;-;-;-;-;-;-;-
1514177360251;-;-;6.4049835;-1.3214111;-6.736603;-;-;-;-;-;-;-;-;-;-;-;-;-;-;-
1514177360271;-;-;6.407379;-1.348938;-6.7796936;-;-;-;-;-;-;-;-;-;-;-;-;-;-;-
1514177360291;-;-;6.4720154;-1.3118286;-6.765335;-;-;-;-;-;-;-;-;-;-;-;-;-;-;-
1514177360312;-;-;6.491165;-1.3034515;-6.7521667;-;-;-;-;-;-;-;-;-;-;-;-;-;-;-
1514177360331;-;-;6.5127106;-1.3058472;-6.753357;-;-;-;-;-;-;-;-;-;-;-;-;-;-;-
1514177360351;-;-;6.5079346;-1.348938;-6.736603;-;-;-;-;-;-;-;-;-;-;-;-;-;-;-
1514177360372;-;-;6.473221;-1.3561249;-6.758148;-;-;-;-;-;-;-;-;-;-;-;-;-;-;-
1514177360392;-;-;6.4839935;-1.4327393;-6.742584;-;-;-;-;-;-;-;-;-;-;-;-;-;-;-
1514177360412;-;-;6.4013824;-1.4183655;-6.7557526;-;-;-;-;-;-;-;-;-;-;-;-;-;-;-
1514177360433;-;-;6.410965;-1.4111938;-6.7006836;-;-;-;-;-;-;-;-;-;-;-;-;-;-;-
1514177360453;-;-;6.4444885;-1.4028168;-6.6851196;-;-;-;-;-;-;-;-;-;-;-;-;-;-;-
1514177360473;-;-;6.4768066;-1.3848572;-6.6958923;-;-;-;-;-;-;-;-;-;-;-;-;-;-;-
1514177360494;-;-;6.481598;-1.404007;-6.6887207;-;-;-;-;-;-;-;-;-;-;-;-;-;-;-
1514177360514;-;-;6.4528656;-1.3788757;-6.710266;-;-;-;-;-;-;-;-;-;-;-;-;-;-;-
1514177360534;-;-;6.419342;-1.3956299;-6.761734;-;-;-;-;-;-;-;-;-;-;-;-;-;-;-
1514177360555;-;-;6.434906;-1.4291534;-6.737793;-;-;-;-;-;-;-;-;-;-;-;-;-;-;-
1514177360575;-;-;6.462433;-1.4219666;-6.765335;-;-;-;-;-;-;-;-;-;-;-;-;-;-;-
1514177360595;-;-;6.438492;-1.4099884;-6.74498;-;-;-;-;-;-;-;-;-;-;-;-;-;-;-
1514177360615;-;-;6.4444885;-1.3968201;-6.721039;-;-;-;-;-;-;-;-;-;-;-;-;-;-;-
1514177360635;-;-;6.4396973;-1.3980255;-6.7006836;-;-;-;-;-;-;-;-;-;-;-;-;-;-;-
1514177360656;-;-;6.457657;-1.3668976;-6.703079;-;-;-;-;-;-;-;-;-;-;-;-;-;-;-
1514177360676;-;-;6.457657;-1.3920441;-6.7306213;-;-;-;-;-;-;-;-;-;-;-;-;-;-;-
1514177360696;-;-;6.497162;-1.3800659;-6.7545624;-;-;-;-;-;-;-;-;-;-;-;-;-;-;-
1514177360717;-;-;6.4839935;-1.3836517;-6.785675;-;-;-;-;-;-;-;-;-;-;-;-;-;-;-
1514177360737;-;-;6.4875793;-1.3920441;-6.7114563;-;-;-;-;-;-;-;-;-;-;-;-;-;-;-
1514177360757;-;-;6.515106;-1.4303436;-6.74498;-;-;-;-;-;-;-;-;-;-;-;-;-;-;-
1514177360778;-;-;6.4289246;-1.4315338;-6.749771;-;-;-;-;-;-;-;-;-;-;-;-;-;-;-
1514177360798;-;-;6.367874;-1.4494934;-6.698288;-;-;-;-;-;-;-;-;-;-;-;-;-;-;-
1514177360818;-;-;6.4768066;-1.4267578;-6.677948;-;-;-;-;-;-;-;-;-;-;-;-;-;-;-
1514177360838;-;-;6.5163116;-1.4135895;-6.7557526;-;-;-;-;-;-;-;-;-;-;-;-;-;-;-
1514177360859;-;-;6.4636383;-1.4028168;-6.796463;-;-;-;-;-;-;-;-;-;-;-;-;-;-;-
1514177360879;-;-;6.4456787;-1.3525391;-6.6875153;-;-;-;-;-;-;-;-;-;-;-;-;-;-;-
1514177360899;-;-;6.4408875;-1.3453522;-6.655197;-;-;-;-;-;-;-;-;-;-;-;-;-;-;-
1514177360919;-;-;6.4133606;-1.3585205;-6.6683655;-;-;-;-;-;-;-;-;-;-;-;-;-;-;-
1514177360940;-;-;6.4325104;-1.3824615;-6.733017;-;-;-;-;-;-;-;-;-;-;-;-;-;-;-
1514177360960;-;-;6.457657;-1.3704834;-6.74498;-;-;-;-;-;-;-;-;-;-;-;-;-;-;-
1514177360981;-;-;6.442093;-1.3585205;-6.718643;-;-;-;-;-;-;-;-;-;-;-;-;-;-;-
1514177361001;-;-;6.4492645;-1.3381653;-6.7246246;-;-;-;-;-;-;-;-;-;-;-;-;-;-;-
1514177361022;-;-;6.436096;-1.3800659;-6.7198486;-;-;-;-;-;-;-;-;-;-;-;-;-;-;-
1514177361042;-;-;6.4456787;-1.3896484;-6.6803436;-;-;-;-;-;-;-;-;-;-;-;-;-;-;-
1514177361062;-;-;6.489975;-1.388443;-6.7389984;-;-;-;-;-;-;-;-;-;-;-;-;-;-;-
1514177361082;-;-;6.491165;-1.4195709;-6.7353973;-;-;-;-;-;-;-;-;-;-;-;-;-;-;-
1514177361103;-;-;6.5163116;-1.4554901;-6.737793;-;-;-;-;-;-;-;-;-;-;-;-;-;-;-
1514177361124;-;-;6.5163116;-1.4219666;-6.7306213;-;-;-;-;-;-;-;-;-;-;-;-;-;-;-
1514177361145;-;-;6.525879;-1.4231567;-6.701889;-;-;-;-;-;-;-;-;-;-;-;-;-;-;-
1514177361164;-;-;6.506729;-1.4064026;-6.6839294;-;-;-;-;-;-;-;-;-;-;-;-;-;-;-
1514177361184;-;-;6.4600525;-1.3992157;-6.6923065;-;-;-;-;-;-;-;-;-;-;-;-;-;-;-
1514177361204;-;-;6.473221;-1.4111938;-6.705475;-;-;-;-;-;-;-;-;-;-;-;-;-;-;-
1514177361224;-;-;6.491165;-1.4016113;-6.6994934;-;-;-;-;-;-;-;-;-;-;-;-;-;-;-
1514177361245;-;-;6.5031433;-1.4231567;-6.7318115;-;-;-;-;-;-;-;-;-;-;-;-;-;-;-
1514177361265;-;-;6.51033;-1.3764801;-6.7042847;-;-;-;-;-;-;-;-;-;-;-;-;-;-;-
1514177361286;-;-;6.475601;-1.3369751;-6.7090607;-;-;-;-;-;-;-;-;-;-;-;-;-;-;-
1514177361305;-;-;6.443283;-1.3764801;-6.7306213;-;-;-;-;-;-;-;-;-;-;-;-;-;-;-
1514177361326;-;-;6.403778;-1.3860474;-6.694702;-;-;-;-;-;-;-;-;-;-;-;-;-;-;-
1514177361346;-;-;6.412155;-1.4075928;-6.7006836;-;-;-;-;-;-;-;-;-;-;-;-;-;-;-
1514177361367;-;-;6.433716;-1.3716888;-6.7126617;-;-;-;-;-;-;-;-;-;-;-;-;-;-;-
1514177361387;-;-;6.4959564;-1.3944244;-6.737793;-;-;-;-;-;-;-;-;-;-;-;-;-;-;-
1514177361407;-;-;6.5187073;-1.3956299;-6.72583;-;-;-;-;-;-;-;-;-;-;-;-;-;-;-
1514177361427;-;-;6.497162;-1.4171753;-6.72583;-;-;-;-;-;-;-;-;-;-;-;-;-;-;-
1514177361447;-;-;6.5282745;-1.4207611;-6.7198486;-;-;-;-;-;-;-;-;-;-;-;-;-;-;-
1514177361468;-;-;6.486389;-1.3932343;-6.7270203;-;-;-;-;-;-;-;-;-;-;-;-;-;-;-
1514177361488;-;-;6.383438;-1.3513336;-6.7006836;-;-;-;-;-;-;-;-;-;-;-;-;-;-;-
1514177361508;-;-;6.454056;-1.3716888;-6.6599884;-;-;-;-;-;-;-;-;-;-;-;-;-;-;-
1514177361528;-;-;6.5318756;-1.427948;-6.756958;-;-;-;-;-;-;-;-;-;-;-;-;-;-;-
1514177361549;-;-;6.494766;-1.4255524;-6.7725067;-;-;-;-;-;-;-;-;-;-;-;-;-;-;-
1514177361569;-;-;6.4792023;-1.3932343;-6.6875153;-;-;-;-;-;-;-;-;-;-;-;-;-;-;-
1514177361589;-;-;6.486389;-1.348938;-6.6288605;-;-;-;-;-;-;-;-;-;-;-;-;-;-;-
1514177361611;-;-;6.4696198;-1.3657074;-6.674347;-;-;-;-;-;-;-;-;-;-;-;-;-;-;-
1514177361630;-;-;6.433716;-1.3896484;-6.7246246;-;-;-;-;-;-;-;-;-;-;-;-;-;-;-
1514177361650;-;-;6.4803925;-1.388443;-6.753357;-;-;-;-;-;-;-;-;-;-;-;-;-;-;-
1514177361671;-;-;6.5079346;-1.3764801;-6.722229;-;-;-;-;-;-;-;-;-;-;-;-;-;-;-
1514177361691;-;-;6.498352;-1.3716888;-6.7282257;-;-;-;-;-;-;-;-;-;-;-;-;-;-;-
1514177361711;-;-;6.5007477;-1.4004211;-6.674347;-;-;-;-;-;-;-;-;-;-;-;-;-;-;-
1514177361732;-;-;6.5007477;-1.4195709;-6.6671753;-;-;-;-;-;-;-;-;-;-;-;-;-;-;-
1514177361752;-;-;6.545044;-1.4028168;-6.7150574;-;-;-;-;-;-;-;-;-;-;-;-;-;-;-
1514177361772;-;-;6.5043335;-1.3752747;-6.701889;-;-;-;-;-;-;-;-;-;-;-;-;-;-;-
1514177361793;-;-;6.493561;-1.3285828;-6.736603;-;-;-;-;-;-;-;-;-;-;-;-;-;-;-
1514177361813;-;-;6.467224;-1.3740845;-6.6755524;-;-;-;-;-;-;-;-;-;-;-;-;-;-;-
1514177361833;-;-;6.45166;-1.364502;-6.657593;-;-;-;-;-;-;-;-;-;-;-;-;-;-;-
1514177361853;-;-;6.4768066;-1.3920441;-6.64682;-;-;-;-;-;-;-;-;-;-;-;-;-;-;-
1514177361874;-;-;6.4492645;-1.3525391;-6.6683655;-;-;-;-;-;-;-;-;-;-;-;-;-;-;-
1514177361894;-;-;6.4720154;-1.3764801;-6.6683655;-;-;-;-;-;-;-;-;-;-;-;-;-;-;-
1514177361914;-;-;6.489975;-1.4219666;-6.682724;-;-;-;-;-;-;-;-;-;-;-;-;-;-;-
1514177361935;-;-;6.533066;-1.4075928;-6.7114563;-;-;-;-;-;-;-;-;-;-;-;-;-;-;-
1514177361956;-;-;6.545044;-1.388443;-6.7162476;-;-;-;-;-;-;-;-;-;-;-;-;-;-;-
1514177361977;-;-;6.5163116;-1.3525391;-6.693512;-;-;-;-;-;-;-;-;-;-;-;-;-;-;-
1514177361996;-;-;6.5079346;-1.3633118;-6.705475;-;-;-;-;-;-;-;-;-;-;-;-;-;-;-
1514177362016;-;-;6.462433;-1.3477478;-6.705475;-;-;-;-;-;-;-;-;-;-;-;-;-;-;-
1514177362036;-;-;6.53067;-1.3944244;-6.674347;-;-;-;-;-;-;-;-;-;-;-;-;-;-;-
1514177362057;-;-;6.554611;-1.3752747;-6.7042847;-;-;-;-;-;-;-;-;-;-;-;-;-;-;-
1514177362077;-;-;6.5953217;-1.3788757;-6.717453;-;-;-;-;-;-;-;-;-;-;-;-;-;-;-
1514177362097;-;-;6.560608;-1.3896484;-6.703079;-;-;-;-;-;-;-;-;-;-;-;-;-;-;-
1514177362117;-;-;6.6072845;-1.4387207;-6.686325;-;-;-;-;-;-;-;-;-;-;-;-;-;-;-
1514177362138;-;-;6.6695404;-1.412384;-6.6958923;-;-;-;-;-;-;-;-;-;-;-;-;-;-;-
1514177362158;-;-;6.695877;-1.404007;-6.74617;-;-;-;-;-;-;-;-;-;-;-;-;-;-;-
1514177362178;-;-;6.584549;-1.3980255;-6.6647797;-;-;-;-;-;-;-;-;-;-;-;-;-;-;-
1514177362199;-;-;6.656372;-1.3944244;-6.6132965;-;-;-;-;-;-;-;-;-;-;-;-;-;-;-
1514177362219;-;-;6.620453;-1.3800659;-6.689911;-;-;-;-;-;-;-;-;-;-;-;-;-;-;-
1514177362239;-;-;6.5749664;-1.3501434;-6.6803436;-;-;-;-;-;-;-;-;-;-;-;-;-;-;-
1514177362259;-;-;6.4851837;-1.2902832;-6.619278;-;-;-;-;-;-;-;-;-;-;-;-;-;-;-
1514177362280;-;-;6.402588;-1.2926788;-6.5737915;-;-;-;-;-;-;-;-;-;-;-;-;-;-;-
1514177362300;-;-;6.3451233;-1.3309784;-6.58696;-;-;-;-;-;-;-;-;-;-;-;-;-;-;-
1514177362320;-;-;6.3259735;-1.293869;-6.5726013;-;-;-;-;-;-;-;-;-;-;-;-;-;-;-
1514177362341;-;-;6.3068237;-1.2974701;-6.602524;-;-;-;-;-;-;-;-;-;-;-;-;-;-;-
1514177362361;-;-;6.3666687;-1.2280273;-6.511551;-;-;-;-;-;-;-;-;-;-;-;-;-;-;-
1514177362381;-;-;6.43132;-1.2268372;-6.5857697;-;-;-;-;-;-;-;-;-;-;-;-;-;-;-
1514177362401;-;-;6.467224;-1.2388;-6.622879;-;-;-;-;-;-;-;-;-;-;-;-;-;-;-
1514177362422;-;-;6.489975;-1.2519684;-6.697098;-;-;-;-;-;-;-;-;-;-;-;-;-;-;-
1514177362442;-;-;6.4923706;-1.2328186;-6.80484;-;-;-;-;-;-;-;-;-;-;-;-;-;-;-
1514177362462;-;-;6.5187073;-1.2459869;-6.8120117;-;-;-;-;-;-;-;-;-;-;-;-;-;-;-
1514177362483;-;-;6.53067;-1.230423;-6.776108;-;-;-;-;-;-;-;-;-;-;-;-;-;-;-
1514177362503;-;-;6.5510254;-1.2459869;-6.7485657;-;-;-;-;-;-;-;-;-;-;-;-;-;-;-
1514177362524;-;-;6.5510254;-1.2878876;-6.7401886;-;-;-;-;-;-;-;-;-;-;-;-;-;-;-
1514177362544;-;-;6.588135;-1.3285828;-6.7114563;-;-;-;-;-;-;-;-;-;-;-;-;-;-;-
1514177362564;-;-;6.585739;-1.3453522;-6.681534;-;-;-;-;-;-;-;-;-;-;-;-;-;-;-
1514177362585;-;-;6.6108856;-1.404007;-6.6695557;-;-;-;-;-;-;-;-;-;-;-;-;-;-;-
1514177362605;-;-;6.632431;-1.4135895;-6.7234344;-;-;-;-;-;-;-;-;-;-;-;-;-;-;-
1514177362625;-;-;6.633621;-1.3896484;-6.6911163;-;-;-;-;-;-;-;-;-;-;-;-;-;-;-
1514177362646;-;-;6.6060944;-1.4051971;-6.6803436;-;-;-;-;-;-;-;-;-;-;-;-;-;-;-
1514177362666;-;-;6.521103;-1.4506989;-6.619278;-;-;-;-;-;-;-;-;-;-;-;-;-;-;-
1514177362686;-;-;6.5043335;-1.4530945;-6.6085052;-;-;-;-;-;-;-;-;-;-;-;-;-;-;-
1514177362707;-;-;6.5390472;-1.4219666;-6.559433;-;-;-;-;-;-;-;-;-;-;-;-;-;-;-
1514177362727;-;-;6.6180573;-1.4195709;-6.576187;-;-;-;-;-;-;-;-;-;-;-;-;-;-;-
1514177362747;-;-;6.6180573;-1.4028168;-6.5929413;-;-;-;-;-;-;-;-;-;-;-;-;-;-;-
1514177362767;-;-;6.561798;-1.3501434;-6.6168976;-;-;-;-;-;-;-;-;-;-;-;-;-;-;-
1514177362788;-;-;6.549835;-1.3369751;-6.631256;-;-;-;-;-;-;-;-;-;-;-;-;-;-;-
1514177362808;-;-;6.5749664;-1.3441467;-6.5726013;-;-;-;-;-;-;-;-;-;-;-;-;-;-;-
1514177362829;-;-;6.5833435;-1.3429565;-6.6432343;-;-;-;-;-;-;-;-;-;-;-;-;-;-;-
1514177362849;-;-;6.5426483;-1.3405609;-6.634842;-;-;-;-;-;-;-;-;-;-;-;-;-;-;-
1514177362870;-;-;6.546234;-1.324997;-6.528305;-;-;-;-;-;-;-;-;-;-;-;-;-;-;-
1514177362889;-;-;6.6503906;-1.3609161;-6.5726013;-;-;-;-;-;-;-;-;-;-;-;-;-;-;-
1514177362909;-;-;6.6467896;-1.4087982;-6.6599884;-;-;-;-;-;-;-;-;-;-;-;-;-;-;-
1514177362930;-;-;6.6419983;-1.4051971;-6.642029;-;-;-;-;-;-;-;-;-;-;-;-;-;-;-
1514177362949;-;-;6.624054;-1.3716888;-6.5498505;-;-;-;-;-;-;-;-;-;-;-;-;-;-;-
1514177362969;-;-;6.6024933;-1.3668976;-6.4995728;-;-;-;-;-;-;-;-;-;-;-;-;-;-;-
1514177362990;-;-;6.585739;-1.388443;-6.536682;-;-;-;-;-;-;-;-;-;-;-;-;-;-;-
1514177363010;-;-;6.6024933;-1.3680878;-6.6216736;-;-;-;-;-;-;-;-;-;-;-;-;-;-;-
1514177363029;-;-;6.5641937;-1.348938;-6.6611786;-;-;-;-;-;-;-;-;-;-;-;-;-;-;-
1514177363049;-;-;6.557007;-1.3154297;-6.6049194;-;-;-;-;-;-;-;-;-;-;-;-;-;-;-
1514177363070;-;-;6.5869446;-1.3381653;-6.6132965;-;-;-;-;-;-;-;-;-;-;-;-;-;-;-
1514177363090;-;-;6.5953217;-1.3285828;-6.5821686;-;-;-;-;-;-;-;-;-;-;-;-;-;-;-
1514177363110;-;-;6.5558167;-1.3393707;-6.58696;-;-;-;-;-;-;-;-;-;-;-;-;-;-;-
1514177363131;-;-;6.561798;-1.3046417;-6.5642242;-;-;-;-;-;-;-;-;-;-;-;-;-;-;-
1514177363151;-;-;6.5234985;-1.2316284;-6.5486603;-;-;-;-;-;-;-;-;-;-;-;-;-;-;-
1514177363171;-;-;6.6192627;-1.2328186;-6.5893555;-;-;-;-;-;-;-;-;-;-;-;-;-;-;-
1514177363192;-;-;6.664749;-1.2208557;-6.590561;-;-;-;-;-;-;-;-;-;-;-;-;-;-;-
1514177363213;-;-;6.6455994;-1.3513336;-6.686325;-;-;-;-;-;-;-;-;-;-;-;-;-;-;-
1514177363233;-;-;6.5833435;-1.4135895;-6.66597;-;-;-;-;-;-;-;-;-;-;-;-;-;-;-
1514177363253;-;-;6.537857;-1.451889;-6.6372375;-;-;-;-;-;-;-;-;-;-;-;-;-;-;-
1514177363273;-;-;6.5630035;-1.4506989;-6.6121063;-;-;-;-;-;-;-;-;-;-;-;-;-;-;-
1514177363294;-;-;6.5630035;-1.4506989;-6.610901;-;-;-;-;-;-;-;-;-;-;-;-;-;-;-
1514177363314;-;-;6.5869446;-1.3680878;-6.591751;-;-;-;-;-;-;-;-;-;-;-;-;-;-;-
1514177363335;-;-;6.572571;-1.3273926;-6.5929413;-;-;-;-;-;-;-;-;-;-;-;-;-;-;-
1514177363355;-;-;6.5438385;-1.2759247;-6.5534515;-;-;-;-;-;-;-;-;-;-;-;-;-;-;-
1514177363375;-;-;6.4995575;-1.2292328;-6.5773926;-;-;-;-;-;-;-;-;-;-;-;-;-;-;-
1514177363395;-;-;6.5270844;-1.2435913;-6.583374;-;-;-;-;-;-;-;-;-;-;-;-;-;-;-
1514177363416;-;-;6.604889;-1.289093;-6.6516113;-;-;-;-;-;-;-;-;-;-;-;-;-;-;-
1514177363436;-;-;6.6264496;-1.3345795;-6.670761;-;-;-;-;-;-;-;-;-;-;-;-;-;-;-
1514177363456;-;-;6.6024933;-1.3740845;-6.679138;-;-;-;-;-;-;-;-;-;-;-;-;-;-;-
1514177363477;-;-;6.572571;-1.4111938;-6.614502;-;-;-;-;-;-;-;-;-;-;-;-;-;-;-
1514177363497;-;-;6.5510254;-1.3525391;-6.6013336;-;-;-;-;-;-;-;-;-;-;-;-;-;-;-
1514177363517;-;-;6.624054;-1.364502;-6.600128;-;-;-;-;-;-;-;-;-;-;-;-;-;-;-
1514177363538;-;-;6.498352;-1.3465424;-6.639633;-;-;-;-;-;-;-;-;-;-;-;-;-;-;-
1514177363558;-;-;6.557007;-1.3716888;-6.5462646;-;-;-;-;-;-;-;-;-;-;-;-;-;-;-
1514177363578;-;-;6.6300354;-1.3668976;-6.662384;-;-;-;-;-;-;-;-;-;-;-;-;-;-;-
1514177363599;-;-;6.625244;-1.4483032;-6.74617;-;-;-;-;-;-;-;-;-;-;-;-;-;-;-
1514177363620;-;-;6.577362;-1.3824615;-6.657593;-;-;-;-;-;-;-;-;-;-;-;-;-;-;-
1514177363640;-;-;6.5641937;-1.3190155;-6.4588776;-;-;-;-;-;-;-;-;-;-;-;-;-;-;-
1514177363660;-;-;6.5641937;-1.2819061;-6.504364;-;-;-;-;-;-;-;-;-;-;-;-;-;-;-
1514177363681;-;-;6.565384;-1.3022614;-6.624069;-;-;-;-;-;-;-;-;-;-;-;-;-;-;-
1514177363701;-;-;6.616867;-1.3381653;-6.638443;-;-;-;-;-;-;-;-;-;-;-;-;-;-;-
1514177363721;-;-;6.6036987;-1.3657074;-6.717453;-;-;-;-;-;-;-;-;-;-;-;-;-;-;-
1514177363742;-;-;6.5977173;-1.3345795;-6.631256;-;-;-;-;-;-;-;-;-;-;-;-;-;-;-
1514177363762;-;-;6.5342712;-1.3597107;-6.6252747;-;-;-;-;-;-;-;-;-;-;-;-;-;-;-
1514177363782;-;-;6.454056;-1.3824615;-6.5091553;-;-;-;-;-;-;-;-;-;-;-;-;-;-;-
1514177363803;-;-;6.5031433;-1.3776703;-6.547455;-;-;-;-;-;-;-;-;-;-;-;-;-;-;-
1514177363823;-;-;6.60968;-1.3609161;-6.600128;-;-;-;-;-;-;-;-;-;-;-;-;-;-;-
1514177363843;-;-;6.6862946;-1.3609161;-6.6444244;-;-;-;-;-;-;-;-;-;-;-;-;-;-;-
1514177363863;-;-;6.663559;-1.348938;-6.6528015;-;-;-;-;-;-;-;-;-;-;-;-;-;-;-
1514177363884;-;-;6.60968;-1.3800659;-6.630066;-;-;-;-;-;-;-;-;-;-;-;-;-;-;-
1514177363904;-;-;6.592926;-1.3836517;-6.614502;-;-;-;-;-;-;-;-;-;-;-;-;-;-;-
1514177363924;-;-;6.505539;-1.3788757;-6.5941467;-;-;-;-;-;-;-;-;-;-;-;-;-;-;-
1514177363945;-;-;6.5115204;-1.3441467;-6.5726013;-;-;-;-;-;-;-;-;-;-;-;-;-;-;-
1514177363965;-;-;6.5426483;-1.3585205;-6.607315;-;-;-;-;-;-;-;-;-;-;-;-;-;-;-
1514177363986;-;-;6.5582123;-1.3381653;-6.650406;-;-;-;-;-;-;-;-;-;-;-;-;-;-;-
1514177364006;-;-;6.536667;-1.3501434;-6.579773;-;-;-;-;-;-;-;-;-;-;-;-;-;-;-
1514177364026;-;-;6.5594025;-1.3573151;-6.6288605;-;-;-;-;-;-;-;-;-;-;-;-;-;-;-
1514177364046;-;-;6.5007477;-1.3525391;-6.6121063;-;-;-;-;-;-;-;-;-;-;-;-;-;-;-
1514177364066;-;-;6.5187073;-1.3369751;-6.6276703;-;-;-;-;-;-;-;-;-;-;-;-;-;-;-
1514177364086;-;-;6.5737762;-1.3740845;-6.6132965;-;-;-;-;-;-;-;-;-;-;-;-;-;-;-
1514177364107;-;-;6.6072845;-1.3357697;-6.634842;-;-;-;-;-;-;-;-;-;-;-;-;-;-;-
1514177364127;-;-;6.60849;-1.3836517;-6.64682;-;-;-;-;-;-;-;-;-;-;-;-;-;-;-
1514177364148;-;-;6.60849;-1.3968201;-6.6671753;-;-;-;-;-;-;-;-;-;-;-;-;-;-;-
1514177364167;-;-;6.596512;-1.3752747;-6.657593;-;-;-;-;-;-;-;-;-;-;-;-;-;-;-
1514177364187;-;-;6.6312256;-1.3633118;-6.6276703;-;-;-;-;-;-;-;-;-;-;-;-;-;-;-
1514177364207;-;-;6.6072845;-1.3633118;-6.6324463;-;-;-;-;-;-;-;-;-;-;-;-;-;-;-
1514177364228;-;-;6.521103;-1.3657074;-6.600128;-;-;-;-;-;-;-;-;-;-;-;-;-;-;-
