TimeStamp[ms];Prox[Cm];Lux[lux];AccX[m/s^2];AccY[m/s^2];AccZ[m/s^2];GyroX[rad/s];GyroY[rad/s];GyroZ[rad/s];MagnX[uT];MagnY[uT];MagnZ[uT];OrienYaw[degrees];OrienPitch[degrees];OrienRoll[degrees];Press[Pa];Temp[C°];Batt[%];Lat;Lng;Speed[m/s]
1514177871552;-;-;8.82312;-2.087555;-0.58470154;-;-;-;-;-;-;-;-;-;-;-;-;-;-;-
1514177871552;-;-;8.774048;-2.1306458;-0.5894928;-;-;-;-;-;-;-;-;-;-;-;-;-;-;-
1514177871566;-;-;8.829102;-2.2288055;-0.7451172;-;-;-;-;-;-;-;-;-;-;-;-;-;-;-
1514177871586;-;-;9.0577545;-2.214447;-0.8145447;-;-;-;-;-;-;-;-;-;-;-;-;-;-;-
1514177871607;-;-;9.111618;-2.1342316;-0.79060364;-;-;-;-;-;-;-;-;-;-;-;-;-;-;-
1514177871627;-;-;9.225342;-2.0731812;-0.89115906;-;-;-;-;-;-;-;-;-;-;-;-;-;-;-
1514177871647;-;-;9.205002;-2.024109;-0.87319946;-;-;-;-;-;-;-;-;-;-;-;-;-;-;-
1514177871668;-;-;9.093674;-2.0217133;-0.882782;-;-;-;-;-;-;-;-;-;-;-;-;-;-;-
1514177871688;-;-;9.020645;-2.0109406;-0.88157654;-;-;-;-;-;-;-;-;-;-;-;-;-;-;-
1514177871708;-;-;9.07811;-2.0217133;-0.94862366;-;-;-;-;-;-;-;-;-;-;-;-;-;-;-
1514177871728;-;-;9.033813;-1.9187622;-0.86242676;-;-;-;-;-;-;-;-;-;-;-;-;-;-;-
1514177871749;-;-;9.092468;-1.8852386;-0.93785095;-;-;-;-;-;-;-;-;-;-;-;-;-;-;-
1514177871769;-;-;9.005081;-1.9510803;-1.0024872;-;-;-;-;-;-;-;-;-;-;-;-;-;-;-
1514177871803;-;-;9.050568;-2.0815735;-0.9438324;-;-;-;-;-;-;-;-;-;-;-;-;-;-;-
1514177871809;-;-;9.048172;-2.0695953;-0.95700073;-;-;-;-;-;-;-;-;-;-;-;-;-;-;-
1514177871830;-;-;8.995499;-2.0899506;-0.8384857;-;-;-;-;-;-;-;-;-;-;-;-;-;-;-
1514177871850;-;-;9.007477;-2.0468445;-0.77983093;-;-;-;-;-;-;-;-;-;-;-;-;-;-;-
1514177871870;-;-;9.037399;-2.0983276;-0.8504486;-;-;-;-;-;-;-;-;-;-;-;-;-;-;-
1514177871891;-;-;8.92128;-2.186905;-0.47576904;-;-;-;-;-;-;-;-;-;-;-;-;-;-;-
1514177871911;-;-;8.857834;-1.8948212;-1.440628;-;-;-;-;-;-;-;-;-;-;-;-;-;-;-
1514177871931;-;-;8.954803;-1.9881897;-0.654129;-;-;-;-;-;-;-;-;-;-;-;-;-;-;-
1514177871952;-;-;9.074509;-1.9319305;-0.86242676;-;-;-;-;-;-;-;-;-;-;-;-;-;-;-
1514177871972;-;-;9.264847;-1.9606628;-1.1305847;-;-;-;-;-;-;-;-;-;-;-;-;-;-;-
1514177871992;-;-;9.282806;-1.8134155;-1.3903503;-;-;-;-;-;-;-;-;-;-;-;-;-;-;-
1514177872013;-;-;8.9991;-1.874466;-0.9162903;-;-;-;-;-;-;-;-;-;-;-;-;-;-;-
1514177872032;-;-;9.09845;-1.9594574;-1.5208282;-;-;-;-;-;-;-;-;-;-;-;-;-;-;-
1514177872053;-;-;9.37619;-1.8002472;-1.2155762;-;-;-;-;-;-;-;-;-;-;-;-;-;-;-
1514177872073;-;-;9.385757;-1.8768616;-1.3855591;-;-;-;-;-;-;-;-;-;-;-;-;-;-;-
1514177872093;-;-;6.3331604;-1.3273926;-0.8504486;-;-;-;-;-;-;-;-;-;-;-;-;-;-;-
1514177872114;-;-;9.439636;-1.5213165;-1.4813232;-;-;-;-;-;-;-;-;-;-;-;-;-;-;-
1514177872134;-;-;9.224152;-2.0899506;-0.30937195;-;-;-;-;-;-;-;-;-;-;-;-;-;-;-
1514177872155;-;-;9.45639;-1.7212372;-1.1772614;-;-;-;-;-;-;-;-;-;-;-;-;-;-;-
1514177872175;-;-;8.548981;-1.4554901;-1.2395172;-;-;-;-;-;-;-;-;-;-;-;-;-;-;-
1514177872195;-;-;8.734543;-1.4183655;-1.2071991;-;-;-;-;-;-;-;-;-;-;-;-;-;-;-
1514177872216;-;-;9.592865;-1.5297089;-1.313736;-;-;-;-;-;-;-;-;-;-;-;-;-;-;-
1514177872236;-;-;10.964737;-2.2431793;-1.7554626;-;-;-;-;-;-;-;-;-;-;-;-;-;-;-
1514177872256;-;-;9.294785;-1.8253937;-1.7267303;-;-;-;-;-;-;-;-;-;-;-;-;-;-;-
1514177872277;-;-;9.115219;-1.9474945;-1.5136566;-;-;-;-;-;-;-;-;-;-;-;-;-;-;-
1514177872296;-;-;8.686661;-1.7822876;-1.452591;-;-;-;-;-;-;-;-;-;-;-;-;-;-;-
1514177872316;-;-;8.887772;-1.8098297;-1.4514008;-;-;-;-;-;-;-;-;-;-;-;-;-;-;-
1514177872337;-;-;8.601654;-1.8792572;-1.650116;-;-;-;-;-;-;-;-;-;-;-;-;-;-;-
1514177872357;-;-;8.837494;-1.9750214;-1.5399933;-;-;-;-;-;-;-;-;-;-;-;-;-;-;-
1514177872377;-;-;8.886566;-2.04924;-1.7482758;-;-;-;-;-;-;-;-;-;-;-;-;-;-;-
1514177872398;-;-;8.794388;-1.8876343;-1.792572;-;-;-;-;-;-;-;-;-;-;-;-;-;-;-
1514177872418;-;-;8.924881;-1.906784;-2.0475616;-;-;-;-;-;-;-;-;-;-;-;-;-;-;-
1514177872438;-;-;9.527023;-2.0468445;-2.1744537;-;-;-;-;-;-;-;-;-;-;-;-;-;-;-
1514177872458;-;-;9.14035;-2.0420685;-1.9649506;-;-;-;-;-;-;-;-;-;-;-;-;-;-;-
1514177872479;-;-;9.272034;-2.008545;-1.9170685;-;-;-;-;-;-;-;-;-;-;-;-;-;-;-
1514177872499;-;-;9.070923;-2.159378;-1.8787689;-;-;-;-;-;-;-;-;-;-;-;-;-;-;-
1514177872519;-;-;8.394562;-1.7368011;-1.8596191;-;-;-;-;-;-;-;-;-;-;-;-;-;-;-
1514177872539;-;-;9.519836;-1.4028168;-1.9972839;-;-;-;-;-;-;-;-;-;-;-;-;-;-;-
1514177872560;-;-;9.267242;-1.506958;-1.784195;-;-;-;-;-;-;-;-;-;-;-;-;-;-;-
1514177872580;-;-;8.618423;-1.7152557;-1.7063904;-;-;-;-;-;-;-;-;-;-;-;-;-;-;-
1514177872600;-;-;8.861435;-1.309433;-1.8560181;-;-;-;-;-;-;-;-;-;-;-;-;-;-;-
1514177872620;-;-;8.863831;-1.1981049;-1.7650452;-;-;-;-;-;-;-;-;-;-;-;-;-;-;-
1514177872641;-;-;8.402939;-1.2196503;-1.8452454;-;-;-;-;-;-;-;-;-;-;-;-;-;-;-
1514177872662;-;-;9.175064;-1.799057;-1.7877808;-;-;-;-;-;-;-;-;-;-;-;-;-;-;-
1514177872682;-;-;9.063736;-1.7092743;-1.7698364;-;-;-;-;-;-;-;-;-;-;-;-;-;-;-
1514177872702;-;-;9.054169;-1.6625824;-1.7614441;-;-;-;-;-;-;-;-;-;-;-;-;-;-;-
1514177872723;-;-;9.17627;-1.7427826;-1.7949677;-;-;-;-;-;-;-;-;-;-;-;-;-;-;-
1514177872743;-;-;9.226547;-1.8660889;-2.2486725;-;-;-;-;-;-;-;-;-;-;-;-;-;-;-
1514177872763;-;-;8.975159;-1.6697693;-1.5495605;-;-;-;-;-;-;-;-;-;-;-;-;-;-;-
1514177872784;-;-;8.984726;-1.4411163;-1.4681549;-;-;-;-;-;-;-;-;-;-;-;-;-;-;-
1514177872804;-;-;8.799179;-1.7954559;-1.7710266;-;-;-;-;-;-;-;-;-;-;-;-;-;-;-
1514177872824;-;-;9.470749;-1.9498901;-2.223526;-;-;-;-;-;-;-;-;-;-;-;-;-;-;-
1514177872845;-;-;9.617996;-2.103119;-2.2606354;-;-;-;-;-;-;-;-;-;-;-;-;-;-;-
1514177872865;-;-;8.334702;-2.0432587;-2.1804352;-;-;-;-;-;-;-;-;-;-;-;-;-;-;-
1514177872885;-;-;8.924881;-1.1274719;-2.3827515;-;-;-;-;-;-;-;-;-;-;-;-;-;-;-
1514177872905;-;-;9.471954;-1.0951538;-1.8823547;-;-;-;-;-;-;-;-;-;-;-;-;-;-;-
1514177872926;-;-;6.343933;-0.6031494;-1.7949677;-;-;-;-;-;-;-;-;-;-;-;-;-;-;-
1514177872946;-;-;9.172684;0.43473816;-2.1253662;-;-;-;-;-;-;-;-;-;-;-;-;-;-;-
1514177872966;-;-;9.081696;0.5257263;-2.3216858;-;-;-;-;-;-;-;-;-;-;-;-;-;-;-
1514177872986;-;-;8.441254;0.89682007;-2.4378052;-;-;-;-;-;-;-;-;-;-;-;-;-;-;-
1514177873007;-;-;9.254074;0.9087982;-3.1022034;-;-;-;-;-;-;-;-;-;-;-;-;-;-;-
1514177873027;-;-;8.770447;0.48980713;-2.2342987;-;-;-;-;-;-;-;-;-;-;-;-;-;-;-
1514177873047;-;-;10.989868;-0.26197815;-3.5008392;-;-;-;-;-;-;-;-;-;-;-;-;-;-;-
1514177873067;-;-;9.470749;-0.12071228;-2.8065186;-;-;-;-;-;-;-;-;-;-;-;-;-;-;-
1514177873088;-;-;8.88298;0.9794159;-2.4701385;-;-;-;-;-;-;-;-;-;-;-;-;-;-;-
1514177873108;-;-;8.07373;-0.090789795;-1.6788483;-;-;-;-;-;-;-;-;-;-;-;-;-;-;-
1514177873128;-;-;9.051773;-0.77911377;-2.4438019;-;-;-;-;-;-;-;-;-;-;-;-;-;-;-
1514177873149;-;-;8.358643;-0.84017944;-2.5323792;-;-;-;-;-;-;-;-;-;-;-;-;-;-;-
1514177873169;-;-;8.832703;-0.6079407;-4.4082336;-;-;-;-;-;-;-;-;-;-;-;-;-;-;-
1514177873189;-;-;10.353012;-0.6103363;-4.4237976;-;-;-;-;-;-;-;-;-;-;-;-;-;-;-
1514177873210;-;-;7.9983215;0.119903564;-4.994812;-;-;-;-;-;-;-;-;-;-;-;-;-;-;-
1514177873229;-;-;7.411743;0.99139404;-3.62294;-;-;-;-;-;-;-;-;-;-;-;-;-;-;-
1514177873249;-;-;6.561798;1.7479553;-3.0315704;-;-;-;-;-;-;-;-;-;-;-;-;-;-;-
1514177873269;-;-;7.1962585;1.7623291;-2.9034882;-;-;-;-;-;-;-;-;-;-;-;-;-;-;-
1514177873290;-;-;7.0765533;0.91596985;-2.2833862;-;-;-;-;-;-;-;-;-;-;-;-;-;-;-
1514177873310;-;-;8.959595;0.119903564;-1.9865112;-;-;-;-;-;-;-;-;-;-;-;-;-;-;-
1514177873330;-;-;11.454346;-0.4559021;-1.8332825;-;-;-;-;-;-;-;-;-;-;-;-;-;-;-
1514177873351;-;-;12.5125885;-1.155014;-1.9769287;-;-;-;-;-;-;-;-;-;-;-;-;-;-;-
1514177873371;-;-;13.652222;-1.783493;-2.115799;-;-;-;-;-;-;-;-;-;-;-;-;-;-;-
1514177873391;-;-;13.238037;-0.80307007;-2.7622223;-;-;-;-;-;-;-;-;-;-;-;-;-;-;-
1514177873412;-;-;10.619965;0.098358154;-3.0998077;-;-;-;-;-;-;-;-;-;-;-;-;-;-;-
1514177873432;-;-;8.064163;1.4606476;-2.436615;-;-;-;-;-;-;-;-;-;-;-;-;-;-;-
1514177873452;-;-;7.4440613;2.1729279;-1.571106;-;-;-;-;-;-;-;-;-;-;-;-;-;-;-
1514177873472;-;-;7.161545;2.019699;-0.8540497;-;-;-;-;-;-;-;-;-;-;-;-;-;-;-
1514177873493;-;-;7.055008;1.1230774;-0.6601105;-;-;-;-;-;-;-;-;-;-;-;-;-;-;-
1514177873513;-;-;7.643982;0.15222168;-0.8791809;-;-;-;-;-;-;-;-;-;-;-;-;-;-;-
1514177873533;-;-;8.780029;-0.41041565;-1.3963318;-;-;-;-;-;-;-;-;-;-;-;-;-;-;-
1514177873554;-;-;9.874176;-0.47865295;-2.076294;-;-;-;-;-;-;-;-;-;-;-;-;-;-;-
1514177873574;-;-;10.256058;0.02532959;-2.6951904;-;-;-;-;-;-;-;-;-;-;-;-;-;-;-
1514177873594;-;-;9.398926;1.1506042;-2.7478638;-;-;-;-;-;-;-;-;-;-;-;-;-;-;-
1514177873615;-;-;8.83989;1.9143524;-2.5431519;-;-;-;-;-;-;-;-;-;-;-;-;-;-;-
1514177873635;-;-;8.404144;2.2435608;-2.4425964;-;-;-;-;-;-;-;-;-;-;-;-;-;-;-
1514177873655;-;-;8.596878;2.0448456;-2.4078827;-;-;-;-;-;-;-;-;-;-;-;-;-;-;-
1514177873676;-;-;9.124786;1.7635193;-2.3001404;-;-;-;-;-;-;-;-;-;-;-;-;-;-;-
1514177873696;-;-;9.038605;1.4546661;-2.084671;-;-;-;-;-;-;-;-;-;-;-;-;-;-;-
1514177873716;-;-;8.691437;1.2559509;-1.6956024;-;-;-;-;-;-;-;-;-;-;-;-;-;-;-
1514177873737;-;-;8.373016;1.1170807;-1.3412628;-;-;-;-;-;-;-;-;-;-;-;-;-;-;-
1514177873757;-;-;8.520264;1.1984863;-1.2778168;-;-;-;-;-;-;-;-;-;-;-;-;-;-;-
1514177873777;-;-;8.607651;1.4187622;-1.8308868;-;-;-;-;-;-;-;-;-;-;-;-;-;-;-
1514177873798;-;-;9.286407;1.5276947;-2.8639832;-;-;-;-;-;-;-;-;-;-;-;-;-;-;-
1514177873819;-;-;10.337448;1.070404;-4.187973;-;-;-;-;-;-;-;-;-;-;-;-;-;-;-
1514177873838;-;-;11.396896;0.59036255;-3.8970795;-;-;-;-;-;-;-;-;-;-;-;-;-;-;-
1514177873859;-;-;8.993118;0.30426025;-3.231491;-;-;-;-;-;-;-;-;-;-;-;-;-;-;-
1514177873879;-;-;7.3303375;-0.3182373;-2.4114685;-;-;-;-;-;-;-;-;-;-;-;-;-;-;-
1514177873899;-;-;6.2864685;-1.293869;-2.1337433;-;-;-;-;-;-;-;-;-;-;-;-;-;-;-
1514177873920;-;-;7.1483765;-1.8217926;-1.8237;-;-;-;-;-;-;-;-;-;-;-;-;-;-;-
1514177873940;-;-;8.833893;-1.5045624;-1.8452454;-;-;-;-;-;-;-;-;-;-;-;-;-;-;-
1514177873960;-;-;9.894531;-0.41281128;-2.8544006;-;-;-;-;-;-;-;-;-;-;-;-;-;-;-
1514177873981;-;-;9.980713;0.67774963;-3.3428192;-;-;-;-;-;-;-;-;-;-;-;-;-;-;-
1514177874001;-;-;9.437241;1.1134949;-2.9920654;-;-;-;-;-;-;-;-;-;-;-;-;-;-;-
1514177874021;-;-;9.312744;0.89682007;-2.563507;-;-;-;-;-;-;-;-;-;-;-;-;-;-;-
1514177874042;-;-;9.21817;0.20370483;-2.302536;-;-;-;-;-;-;-;-;-;-;-;-;-;-;-
1514177874062;-;-;9.37738;-0.5145569;-2.1971893;-;-;-;-;-;-;-;-;-;-;-;-;-;-;-
1514177874082;-;-;8.970367;-0.30625916;-1.9529877;-;-;-;-;-;-;-;-;-;-;-;-;-;-;-
1514177874103;-;-;9.067337;-0.0105896;-2.1038208;-;-;-;-;-;-;-;-;-;-;-;-;-;-;-
1514177874123;-;-;9.088882;1.9836426E-4;-2.151703;-;-;-;-;-;-;-;-;-;-;-;-;-;-;-
1514177874143;-;-;8.849457;-0.3768921;-2.108612;-;-;-;-;-;-;-;-;-;-;-;-;-;-;-
1514177874164;-;-;8.587296;-0.77911377;-2.105011;-;-;-;-;-;-;-;-;-;-;-;-;-;-;-
1514177874184;-;-;8.5633545;-1.036499;-2.1744537;-;-;-;-;-;-;-;-;-;-;-;-;-;-;-
1514177874205;-;-;8.825516;-0.700119;-2.4461975;-;-;-;-;-;-;-;-;-;-;-;-;-;-;-
1514177874225;-;-;8.971558;-0.3397827;-2.436615;-;-;-;-;-;-;-;-;-;-;-;-;-;-;-
1514177874246;-;-;8.702209;-0.25360107;-2.4773102;-;-;-;-;-;-;-;-;-;-;-;-;-;-;-
1514177874266;-;-;8.714188;-0.700119;-2.562317;-;-;-;-;-;-;-;-;-;-;-;-;-;-;-
1514177874286;-;-;8.997894;-1.1131134;-2.2905731;-;-;-;-;-;-;-;-;-;-;-;-;-;-;-
1514177874306;-;-;9.185837;-1.0712128;-2.1804352;-;-;-;-;-;-;-;-;-;-;-;-;-;-;-
1514177874326;-;-;9.179855;-0.8090515;-2.2067719;-;-;-;-;-;-;-;-;-;-;-;-;-;-;-
1514177874347;-;-;9.122391;-0.63427734;-2.294159;-;-;-;-;-;-;-;-;-;-;-;-;-;-;-
1514177874367;-;-;9.06015;-0.4774475;-2.452179;-;-;-;-;-;-;-;-;-;-;-;-;-;-;-
1514177874387;-;-;9.056564;-0.40322876;-2.436615;-;-;-;-;-;-;-;-;-;-;-;-;-;-;-
1514177874407;-;-;9.062546;-0.21170044;-2.3408508;-;-;-;-;-;-;-;-;-;-;-;-;-;-;-
1514177874428;-;-;9.024231;-0.062057495;-2.2881775;-;-;-;-;-;-;-;-;-;-;-;-;-;-;-
1514177874448;-;-;9.122391;0.019348145;-2.4019012;-;-;-;-;-;-;-;-;-;-;-;-;-;-;-
1514177874469;-;-;9.102051;0.20848083;-2.3552094;-;-;-;-;-;-;-;-;-;-;-;-;-;-;-
1514177874489;-;-;9.106842;0.31503296;-2.223526;-;-;-;-;-;-;-;-;-;-;-;-;-;-;-
1514177874509;-;-;9.042191;0.31982422;-2.132553;-;-;-;-;-;-;-;-;-;-;-;-;-;-;-
1514177874529;-;-;9.011063;0.1043396;-2.0834656;-;-;-;-;-;-;-;-;-;-;-;-;-;-;-
1514177874549;-;-;9.032608;0.05406189;-2.13974;-;-;-;-;-;-;-;-;-;-;-;-;-;-;-
1514177874570;-;-;9.100845;0.08758545;-2.2462769;-;-;-;-;-;-;-;-;-;-;-;-;-;-;-
1514177874590;-;-;9.111618;0.27671814;-2.2522583;-;-;-;-;-;-;-;-;-;-;-;-;-;-;-
1514177874611;-;-;9.090073;0.43115234;-2.1852264;-;-;-;-;-;-;-;-;-;-;-;-;-;-;-
1514177874631;-;-;9.0972595;0.43473816;-2.3121185;-;-;-;-;-;-;-;-;-;-;-;-;-;-;-
1514177874651;-;-;8.813553;0.4467163;-2.6221619;-;-;-;-;-;-;-;-;-;-;-;-;-;-;-
1514177874672;-;-;8.319138;0.7627411;-2.9118652;-;-;-;-;-;-;-;-;-;-;-;-;-;-;-
1514177874692;-;-;8.009094;1.3313751;-2.7777863;-;-;-;-;-;-;-;-;-;-;-;-;-;-;-
1514177874712;-;-;8.623199;1.3493195;-2.5383606;-;-;-;-;-;-;-;-;-;-;-;-;-;-;-
1514177874732;-;-;9.402527;0.6717682;-2.4928741;-;-;-;-;-;-;-;-;-;-;-;-;-;-;-
1514177874753;-;-;9.613205;-0.066848755;-2.4318237;-;-;-;-;-;-;-;-;-;-;-;-;-;-;-
1514177874773;-;-;9.49231;-0.9479065;-1.4645691;-;-;-;-;-;-;-;-;-;-;-;-;-;-;-
1514177874793;-;-;9.550964;-1.3405609;-2.0523376;-;-;-;-;-;-;-;-;-;-;-;-;-;-;-
1514177874814;-;-;9.293579;-1.1190948;-2.6293488;-;-;-;-;-;-;-;-;-;-;-;-;-;-;-
1514177874833;-;-;8.58371;-0.08480835;-2.0595245;-;-;-;-;-;-;-;-;-;-;-;-;-;-;-
1514177874853;-;-;8.101273;0.38565063;-1.5232239;-;-;-;-;-;-;-;-;-;-;-;-;-;-;-
1514177874874;-;-;8.448425;0.18693542;-1.6010437;-;-;-;-;-;-;-;-;-;-;-;-;-;-;-
1514177874893;-;-;9.3103485;-0.28710938;-2.0667114;-;-;-;-;-;-;-;-;-;-;-;-;-;-;-
1514177874913;-;-;9.710175;-0.8533478;-2.2558594;-;-;-;-;-;-;-;-;-;-;-;-;-;-;-
1514177874933;-;-;9.645538;-0.97784424;-2.2366943;-;-;-;-;-;-;-;-;-;-;-;-;-;-;-
1514177874953;-;-;9.329498;-0.6426544;-2.0619202;-;-;-;-;-;-;-;-;-;-;-;-;-;-;-
1514177874974;-;-;9.005081;-0.3649292;-1.7817993;-;-;-;-;-;-;-;-;-;-;-;-;-;-;-
1514177874995;-;-;8.678268;-0.210495;-1.5914612;-;-;-;-;-;-;-;-;-;-;-;-;-;-;-
1514177875016;-;-;8.613632;-0.2212677;-1.6201935;-;-;-;-;-;-;-;-;-;-;-;-;-;-;-
1514177875036;-;-;8.871002;-0.36732483;-1.7973633;-;-;-;-;-;-;-;-;-;-;-;-;-;-;-
1514177875056;-;-;9.151123;-0.5935669;-1.9865112;-;-;-;-;-;-;-;-;-;-;-;-;-;-;-
1514177875076;-;-;9.148727;-0.59477234;-2.1253662;-;-;-;-;-;-;-;-;-;-;-;-;-;-;-
1514177875097;-;-;9.082901;-0.29548645;-2.2355042;-;-;-;-;-;-;-;-;-;-;-;-;-;-;-
1514177875117;-;-;9.068527;0.055252075;-2.2690277;-;-;-;-;-;-;-;-;-;-;-;-;-;-;-
1514177875137;-;-;8.983536;0.22883606;-2.2977448;-;-;-;-;-;-;-;-;-;-;-;-;-;-;-
1514177875158;-;-;8.910507;0.3317871;-2.3288727;-;-;-;-;-;-;-;-;-;-;-;-;-;-;-
1514177875178;-;-;8.953613;0.2922821;-2.2522583;-;-;-;-;-;-;-;-;-;-;-;-;-;-;-
1514177875198;-;-;9.009872;0.119903564;-2.2043762;-;-;-;-;-;-;-;-;-;-;-;-;-;-;-
1514177875218;-;-;9.038605;-0.12310791;-2.2163544;-;-;-;-;-;-;-;-;-;-;-;-;-;-;-
1514177875239;-;-;9.058945;-0.13508606;-2.2342987;-;-;-;-;-;-;-;-;-;-;-;-;-;-;-
1514177875259;-;-;9.048172;-0.030929565;-2.184021;-;-;-;-;-;-;-;-;-;-;-;-;-;-;-
1514177875280;-;-;9.080505;0.112716675;-2.13974;-;-;-;-;-;-;-;-;-;-;-;-;-;-;-
1514177875300;-;-;9.023041;0.14624023;-2.1529083;-;-;-;-;-;-;-;-;-;-;-;-;-;-;-
1514177875320;-;-;8.976349;0.074417114;-2.115799;-;-;-;-;-;-;-;-;-;-;-;-;-;-;-
1514177875341;-;-;8.996704;0.031311035;-2.1169891;-;-;-;-;-;-;-;-;-;-;-;-;-;-;-
1514177875360;-;-;9.081696;-0.0010070801;-2.1433258;-;-;-;-;-;-;-;-;-;-;-;-;-;-;-
1514177875380;-;-;9.12001;-0.08241272;-2.1145935;-;-;-;-;-;-;-;-;-;-;-;-;-;-;-
1514177875400;-;-;9.131973;-0.124313354;-1.9960785;-;-;-;-;-;-;-;-;-;-;-;-;-;-;-
1514177875421;-;-;9.090073;-0.17338562;-1.9805145;-;-;-;-;-;-;-;-;-;-;-;-;-;-;-
1514177875441;-;-;9.056564;-0.23324585;-1.9936829;-;-;-;-;-;-;-;-;-;-;-;-;-;-;-
1514177875461;-;-;9.025436;-0.24401855;-1.9374237;-;-;-;-;-;-;-;-;-;-;-;-;-;-;-
1514177875482;-;-;9.082901;-0.23085022;-1.9781189;-;-;-;-;-;-;-;-;-;-;-;-;-;-;-
1514177875502;-;-;9.091278;-0.21528625;-1.9434052;-;-;-;-;-;-;-;-;-;-;-;-;-;-;-
1514177875522;-;-;9.056564;-0.18655396;-1.9170685;-;-;-;-;-;-;-;-;-;-;-;-;-;-;-
1514177875543;-;-;9.031418;-0.19972229;-1.9613647;-;-;-;-;-;-;-;-;-;-;-;-;-;-;-
1514177875563;-;-;9.0182495;-0.13627625;-2.0236206;-;-;-;-;-;-;-;-;-;-;-;-;-;-;-
1514177875583;-;-;9.025436;-0.12669373;-2.076294;-;-;-;-;-;-;-;-;-;-;-;-;-;-;-
1514177875603;-;-;9.090073;-0.15423584;-2.1217804;-;-;-;-;-;-;-;-;-;-;-;-;-;-;-
1514177875624;-;-;9.104446;-0.13269043;-1.9793243;-;-;-;-;-;-;-;-;-;-;-;-;-;-;-
1514177875644;-;-;9.007477;-0.124313354;-1.9601746;-;-;-;-;-;-;-;-;-;-;-;-;-;-;-
1514177875665;-;-;8.923676;-0.09677124;-2.0116425;-;-;-;-;-;-;-;-;-;-;-;-;-;-;-
1514177875684;-;-;8.904526;-0.1302948;-2.0511475;-;-;-;-;-;-;-;-;-;-;-;-;-;-;-
1514177875705;-;-;9.003891;-0.2392273;-2.0643158;-;-;-;-;-;-;-;-;-;-;-;-;-;-;-
1514177875725;-;-;9.106842;-0.27514648;-2.0403748;-;-;-;-;-;-;-;-;-;-;-;-;-;-;-
1514177875745;-;-;9.064941;-0.22845459;-2.0355835;-;-;-;-;-;-;-;-;-;-;-;-;-;-;-
1514177875766;-;-;9.026627;-0.20211792;-1.9936829;-;-;-;-;-;-;-;-;-;-;-;-;-;-;-
1514177875785;-;-;9.013458;-0.19134521;-2.0667114;-;-;-;-;-;-;-;-;-;-;-;-;-;-;-
1514177875805;-;-;8.98233;-0.15782166;-2.0738983;-;-;-;-;-;-;-;-;-;-;-;-;-;-;-
1514177875825;-;-;9.012268;-0.121917725;-2.100235;-;-;-;-;-;-;-;-;-;-;-;-;-;-;-
1514177875845;-;-;9.046982;-0.10395813;-2.014038;-;-;-;-;-;-;-;-;-;-;-;-;-;-;-
1514177875866;-;-;9.081696;-0.102752686;-2.041565;-;-;-;-;-;-;-;-;-;-;-;-;-;-;-
1514177875886;-;-;9.105637;-0.13269043;-2.0379791;-;-;-;-;-;-;-;-;-;-;-;-;-;-;-
1514177875906;-;-;9.082901;-0.10874939;-2.045166;-;-;-;-;-;-;-;-;-;-;-;-;-;-;-
1514177875927;-;-;9.026627;-0.14346313;-2.0164337;-;-;-;-;-;-;-;-;-;-;-;-;-;-;-
1514177875947;-;-;9.024231;-0.16740417;-1.9865112;-;-;-;-;-;-;-;-;-;-;-;-;-;-;-
1514177875967;-;-;9.082901;-0.16261292;-1.9697418;-;-;-;-;-;-;-;-;-;-;-;-;-;-;-
1514177875987;-;-;9.06015;-0.13269043;-1.9912872;-;-;-;-;-;-;-;-;-;-;-;-;-;-;-
1514177876008;-;-;9.081696;-0.121917725;-1.9936829;-;-;-;-;-;-;-;-;-;-;-;-;-;-;-
1514177876028;-;-;9.075714;-0.12789917;-1.9972839;-;-;-;-;-;-;-;-;-;-;-;-;-;-;-
1514177876048;-;-;9.093674;-0.13986206;-2.0224152;-;-;-;-;-;-;-;-;-;-;-;-;-;-;-
1514177876068;-;-;9.0793;-0.1015625;-2.0008698;-;-;-;-;-;-;-;-;-;-;-;-;-;-;-
1514177876089;-;-;9.011063;-0.11352539;-1.9697418;-;-;-;-;-;-;-;-;-;-;-;-;-;-;-
1514177876109;-;-;9.066132;-0.13148499;-1.9350281;-;-;-;-;-;-;-;-;-;-;-;-;-;-;-
1514177876129;-;-;9.036209;-0.11352539;-2.0104523;-;-;-;-;-;-;-;-;-;-;-;-;-;-;-
1514177876150;-;-;9.017059;-0.13388062;-1.9936829;-;-;-;-;-;-;-;-;-;-;-;-;-;-;-
1514177876170;-;-;9.074509;-0.1769867;-1.9649506;-;-;-;-;-;-;-;-;-;-;-;-;-;-;-
1514177876190;-;-;9.111618;-0.15782166;-1.9134827;-;-;-;-;-;-;-;-;-;-;-;-;-;-;-
1514177876210;-;-;9.088882;-0.12789917;-1.8859406;-;-;-;-;-;-;-;-;-;-;-;-;-;-;-
1514177876231;-;-;9.0577545;-0.14225769;-1.9158783;-;-;-;-;-;-;-;-;-;-;-;-;-;-;-
1514177876250;-;-;9.046982;-0.20092773;-1.9685516;-;-;-;-;-;-;-;-;-;-;-;-;-;-;-
1514177876270;-;-;9.013458;-0.1985321;-1.9865112;-;-;-;-;-;-;-;-;-;-;-;-;-;-;-
1514177876290;-;-;9.085281;-0.19732666;-1.9637604;-;-;-;-;-;-;-;-;-;-;-;-;-;-;-
1514177876311;-;-;9.064941;-0.1769867;-2.0200195;-;-;-;-;-;-;-;-;-;-;-;-;-;-;-
1514177876331;-;-;9.044586;-0.19732666;-2.0343933;-;-;-;-;-;-;-;-;-;-;-;-;-;-;-
1514177876352;-;-;9.070923;-0.18894958;-2.029602;-;-;-;-;-;-;-;-;-;-;-;-;-;-;-
1514177876371;-;-;9.039795;-0.09677124;-1.9338379;-;-;-;-;-;-;-;-;-;-;-;-;-;-;-
1514177876391;-;-;8.983536;-0.04888916;-1.9757233;-;-;-;-;-;-;-;-;-;-;-;-;-;-;-
1514177876412;-;-;8.977554;-0.021362305;-2.0104523;-;-;-;-;-;-;-;-;-;-;-;-;-;-;-
1514177876431;-;-;9.007477;-0.050079346;-2.0978394;-;-;-;-;-;-;-;-;-;-;-;-;-;-;-
1514177876451;-;-;8.985931;-0.06324768;-2.1816254;-;-;-;-;-;-;-;-;-;-;-;-;-;-;-
1514177876471;-;-;9.009872;-0.07762146;-2.203186;-;-;-;-;-;-;-;-;-;-;-;-;-;-;-
1514177876491;-;-;9.037399;-0.02734375;-2.1193848;-;-;-;-;-;-;-;-;-;-;-;-;-;-;-
1514177876512;-;-;8.9991;-0.042907715;-2.1385345;-;-;-;-;-;-;-;-;-;-;-;-;-;-;-
1514177876531;-;-;9.021835;-0.03691101;-2.163681;-;-;-;-;-;-;-;-;-;-;-;-;-;-;-
1514177876551;-;-;9.037399;-0.042907715;-2.1804352;-;-;-;-;-;-;-;-;-;-;-;-;-;-;-
1514177876572;-;-;9.036209;-0.09197998;-2.1576843;-;-;-;-;-;-;-;-;-;-;-;-;-;-;-
1514177876592;-;-;9.002686;-0.102752686;-2.1768494;-;-;-;-;-;-;-;-;-;-;-;-;-;-;-
1514177876612;-;-;8.991913;-0.081207275;-2.2127533;-;-;-;-;-;-;-;-;-;-;-;-;-;-;-
1514177876632;-;-;9.021835;-0.08241272;-2.1900177;-;-;-;-;-;-;-;-;-;-;-;-;-;-;-
1514177876653;-;-;9.054169;-0.071640015;-2.1493073;-;-;-;-;-;-;-;-;-;-;-;-;-;-;-
1514177876673;-;-;9.048172;-0.12908936;-2.1660767;-;-;-;-;-;-;-;-;-;-;-;-;-;-;-
1514177876693;-;-;9.030228;-0.16619873;-2.1588898;-;-;-;-;-;-;-;-;-;-;-;-;-;-;-
1514177876713;-;-;9.032608;-0.17459106;-2.1373444;-;-;-;-;-;-;-;-;-;-;-;-;-;-;-
1514177876734;-;-;9.041;-0.18536377;-2.2355042;-;-;-;-;-;-;-;-;-;-;-;-;-;-;-
1514177876753;-;-;9.084091;-0.15423584;-2.2953491;-;-;-;-;-;-;-;-;-;-;-;-;-;-;-
1514177876773;-;-;9.07811;-0.100372314;-2.2833862;-;-;-;-;-;-;-;-;-;-;-;-;-;-;-
1514177876793;-;-;9.0793;-0.03213501;-2.1864166;-;-;-;-;-;-;-;-;-;-;-;-;-;-;-
1514177876814;-;-;9.062546;-0.04170227;-2.2127533;-;-;-;-;-;-;-;-;-;-;-;-;-;-;-
1514177876834;-;-;9.001495;-0.045303345;-2.3276825;-;-;-;-;-;-;-;-;-;-;-;-;-;-;-
1514177876854;-;-;9.014664;0.031311035;-2.412674;-;-;-;-;-;-;-;-;-;-;-;-;-;-;-
1514177876874;-;-;8.9991;0.045684814;-2.3935242;-;-;-;-;-;-;-;-;-;-;-;-;-;-;-
1514177876895;-;-;8.945221;0.04208374;-2.309723;-;-;-;-;-;-;-;-;-;-;-;-;-;-;-
1514177876915;-;-;8.934448;-0.05368042;-2.2606354;-;-;-;-;-;-;-;-;-;-;-;-;-;-;-
1514177876935;-;-;8.92009;-0.069244385;-2.23909;-;-;-;-;-;-;-;-;-;-;-;-;-;-;-
1514177876955;-;-;8.8602295;-0.076416016;-2.2905731;-;-;-;-;-;-;-;-;-;-;-;-;-;-;-
1514177876976;-;-;8.894943;-0.057266235;-2.3552094;-;-;-;-;-;-;-;-;-;-;-;-;-;-;-
1514177876996;-;-;8.934448;-0.03213501;-2.3647919;-;-;-;-;-;-;-;-;-;-;-;-;-;-;-
1514177877016;-;-;8.924881;-0.085998535;-2.3719635;-;-;-;-;-;-;-;-;-;-;-;-;-;-;-
1514177877037;-;-;9.003891;-0.13627625;-2.3193054;-;-;-;-;-;-;-;-;-;-;-;-;-;-;-
1514177877057;-;-;8.983536;-0.17098999;-2.3252869;-;-;-;-;-;-;-;-;-;-;-;-;-;-;-
1514177877077;-;-;9.00029;-0.17219543;-2.3408508;-;-;-;-;-;-;-;-;-;-;-;-;-;-;-
1514177877097;-;-;8.983536;-0.21528625;-2.3528137;-;-;-;-;-;-;-;-;-;-;-;-;-;-;-
1514177877118;-;-;8.989517;-0.22845459;-2.302536;-;-;-;-;-;-;-;-;-;-;-;-;-;-;-
1514177877138;-;-;8.976349;-0.23443604;-2.254654;-;-;-;-;-;-;-;-;-;-;-;-;-;-;-
1514177877158;-;-;8.984726;-0.2859192;-2.2091675;-;-;-;-;-;-;-;-;-;-;-;-;-;-;-
1514177877178;-;-;9.002686;-0.28352356;-2.2845764;-;-;-;-;-;-;-;-;-;-;-;-;-;-;-
1514177877198;-;-;8.993118;-0.20930481;-2.2929688;-;-;-;-;-;-;-;-;-;-;-;-;-;-;-
1514177877219;-;-;8.977554;-0.18296814;-2.263031;-;-;-;-;-;-;-;-;-;-;-;-;-;-;-
1514177877239;-;-;8.98233;-0.22247314;-2.266632;-;-;-;-;-;-;-;-;-;-;-;-;-;-;-
1514177877259;-;-;8.964386;-0.1985321;-2.2007904;-;-;-;-;-;-;-;-;-;-;-;-;-;-;-
1514177877280;-;-;8.955994;-0.21768188;-2.1540985;-;-;-;-;-;-;-;-;-;-;-;-;-;-;-
1514177877300;-;-;8.970367;-0.22007751;-2.191208;-;-;-;-;-;-;-;-;-;-;-;-;-;-;-
1514177877320;-;-;8.890167;-0.25598145;-2.2019806;-;-;-;-;-;-;-;-;-;-;-;-;-;-;-
1514177877340;-;-;8.977554;-0.28112793;-2.2283173;-;-;-;-;-;-;-;-;-;-;-;-;-;-;-
1514177877360;-;-;8.997894;-0.2787323;-2.163681;-;-;-;-;-;-;-;-;-;-;-;-;-;-;-
1514177877381;-;-;8.977554;-0.27035522;-2.115799;-;-;-;-;-;-;-;-;-;-;-;-;-;-;-
1514177877401;-;-;9.062546;-0.2320404;-2.1900177;-;-;-;-;-;-;-;-;-;-;-;-;-;-;-
1514177877421;-;-;9.076904;-0.20809937;-2.2366943;-;-;-;-;-;-;-;-;-;-;-;-;-;-;-
1514177877441;-;-;9.036209;-0.20211792;-2.2690277;-;-;-;-;-;-;-;-;-;-;-;-;-;-;-
1514177877462;-;-;9.054169;-0.15663147;-2.2989502;-;-;-;-;-;-;-;-;-;-;-;-;-;-;-
1514177877482;-;-;9.027832;-0.11831665;-2.2402954;-;-;-;-;-;-;-;-;-;-;-;-;-;-;-
1514177877502;-;-;8.967972;-0.054870605;-2.2678223;-;-;-;-;-;-;-;-;-;-;-;-;-;-;-
1514177877522;-;-;8.959595;0.04927063;-2.306137;-;-;-;-;-;-;-;-;-;-;-;-;-;-;-
1514177877543;-;-;8.910507;0.10673523;-2.3635864;-;-;-;-;-;-;-;-;-;-;-;-;-;-;-
1514177877563;-;-;8.868607;0.19891357;-2.4378052;-;-;-;-;-;-;-;-;-;-;-;-;-;-;-
1514177877584;-;-;8.891357;0.30784607;-2.4581604;-;-;-;-;-;-;-;-;-;-;-;-;-;-;-
1514177877604;-;-;8.908112;0.34376526;-2.491684;-;-;-;-;-;-;-;-;-;-;-;-;-;-;-
1514177877624;-;-;8.941635;0.35812378;-2.4713287;-;-;-;-;-;-;-;-;-;-;-;-;-;-;-
1514177877644;-;-;8.941635;0.29467773;-2.4461975;-;-;-;-;-;-;-;-;-;-;-;-;-;-;-
1514177877665;-;-;8.946426;0.2743225;-2.4593658;-;-;-;-;-;-;-;-;-;-;-;-;-;-;-
1514177877685;-;-;8.97995;0.2695465;-2.4425964;-;-;-;-;-;-;-;-;-;-;-;-;-;-;-
1514177877705;-;-;8.954803;0.19770813;-2.4641418;-;-;-;-;-;-;-;-;-;-;-;-;-;-;-
1514177877726;-;-;8.958389;0.12709045;-2.4342194;-;-;-;-;-;-;-;-;-;-;-;-;-;-;-
1514177877746;-;-;8.985931;0.10913086;-2.4593658;-;-;-;-;-;-;-;-;-;-;-;-;-;-;-
1514177877766;-;-;8.970367;0.093566895;-2.491684;-;-;-;-;-;-;-;-;-;-;-;-;-;-;-
1514177877787;-;-;8.966782;0.12109375;-2.4019012;-;-;-;-;-;-;-;-;-;-;-;-;-;-;-
1514177877807;-;-;8.9991;0.10673523;-2.3851318;-;-;-;-;-;-;-;-;-;-;-;-;-;-;-
1514177877827;-;-;9.017059;0.057647705;-2.3791504;-;-;-;-;-;-;-;-;-;-;-;-;-;-;-
1514177877848;-;-;8.972763;0.0037841797;-2.350418;-;-;-;-;-;-;-;-;-;-;-;-;-;-;-
1514177877868;-;-;8.960785;0.026535034;-2.2594452;-;-;-;-;-;-;-;-;-;-;-;-;-;-;-
1514177877888;-;-;8.944031;0.033706665;-2.3049316;-;-;-;-;-;-;-;-;-;-;-;-;-;-;-
1514177877909;-;-;8.890167;0.0181427;-2.3564148;-;-;-;-;-;-;-;-;-;-;-;-;-;-;-
1514177877929;-;-;8.951218;0.02772522;-2.3935242;-;-;-;-;-;-;-;-;-;-;-;-;-;-;-
1514177877949;-;-;8.966782;0.036102295;-2.381546;-;-;-;-;-;-;-;-;-;-;-;-;-;-;-
1514177877970;-;-;9.017059;0.045684814;-2.2498627;-;-;-;-;-;-;-;-;-;-;-;-;-;-;-
1514177877989;-;-;9.025436;0.03491211;-2.2618408;-;-;-;-;-;-;-;-;-;-;-;-;-;-;-
1514177878009;-;-;8.976349;-0.011779785;-2.2402954;-;-;-;-;-;-;-;-;-;-;-;-;-;-;-
1514177878029;-;-;8.983536;-0.05368042;-2.247467;-;-;-;-;-;-;-;-;-;-;-;-;-;-;-
1514177878052;-;-;8.97995;-0.09916687;-2.2522583;-;-;-;-;-;-;-;-;-;-;-;-;-;-;-
1514177878072;-;-;9.029022;-0.107543945;-2.2929688;-;-;-;-;-;-;-;-;-;-;-;-;-;-;-
1514177878093;-;-;9.035004;-0.18894958;-2.2211304;-;-;-;-;-;-;-;-;-;-;-;-;-;-;-
1514177878113;-;-;9.001495;-0.21768188;-2.2438812;-;-;-;-;-;-;-;-;-;-;-;-;-;-;-
1514177878133;-;-;8.965576;-0.21409607;-2.3181;-;-;-;-;-;-;-;-;-;-;-;-;-;-;-
1514177878153;-;-;8.977554;-0.20451355;-2.3755646;-;-;-;-;-;-;-;-;-;-;-;-;-;-;-
1514177878173;-;-;8.948822;-0.17936707;-2.2761993;-;-;-;-;-;-;-;-;-;-;-;-;-;-;-
1514177878194;-;-;9.0182495;-0.12789917;-2.282196;-;-;-;-;-;-;-;-;-;-;-;-;-;-;-
1514177878214;-;-;9.045776;-0.05368042;-2.2761993;-;-;-;-;-;-;-;-;-;-;-;-;-;-;-
1514177878234;-;-;9.003891;0.04208374;-2.263031;-;-;-;-;-;-;-;-;-;-;-;-;-;-;-
1514177878254;-;-;8.966782;0.026535034;-2.1624756;-;-;-;-;-;-;-;-;-;-;-;-;-;-;-
1514177878275;-;-;8.922485;0.010971069;-2.1062164;-;-;-;-;-;-;-;-;-;-;-;-;-;-;-
1514177878294;-;-;8.923676;-0.02734375;-2.2067719;-;-;-;-;-;-;-;-;-;-;-;-;-;-;-
1514177878314;-;-;8.98233;-0.11114502;-2.4593658;-;-;-;-;-;-;-;-;-;-;-;-;-;-;-
1514177878335;-;-;9.0793;-0.069244385;-2.39711;-;-;-;-;-;-;-;-;-;-;-;-;-;-;-
1514177878355;-;-;9.048172;0.03491211;-2.2019806;-;-;-;-;-;-;-;-;-;-;-;-;-;-;-
1514177878375;-;-;8.995499;0.1558075;-2.1121979;-;-;-;-;-;-;-;-;-;-;-;-;-;-;-
1514177878395;-;-;8.959595;0.15701294;-2.06073;-;-;-;-;-;-;-;-;-;-;-;-;-;-;-
1514177878416;-;-;8.976349;0.15461731;-2.128952;-;-;-;-;-;-;-;-;-;-;-;-;-;-;-
1514177878436;-;-;8.98233;0.06842041;-2.144516;-;-;-;-;-;-;-;-;-;-;-;-;-;-;-
1514177878456;-;-;9.007477;0.091171265;-2.168457;-;-;-;-;-;-;-;-;-;-;-;-;-;-;-
1514177878476;-;-;9.017059;0.124694824;-2.1277618;-;-;-;-;-;-;-;-;-;-;-;-;-;-;-
1514177878496;-;-;8.946426;0.18933105;-2.2594452;-;-;-;-;-;-;-;-;-;-;-;-;-;-;-
1514177878516;-;-;8.930862;0.17497253;-2.2450714;-;-;-;-;-;-;-;-;-;-;-;-;-;-;-
1514177878537;-;-;8.971558;0.115112305;-2.294159;-;-;-;-;-;-;-;-;-;-;-;-;-;-;-
1514177878557;-;-;8.955994;0.103149414;-2.2378998;-;-;-;-;-;-;-;-;-;-;-;-;-;-;-
1514177878577;-;-;8.996704;0.088775635;-2.3181;-;-;-;-;-;-;-;-;-;-;-;-;-;-;-
1514177878598;-;-;8.942825;0.124694824;-2.3145142;-;-;-;-;-;-;-;-;-;-;-;-;-;-;-
1514177878618;-;-;8.945221;0.11392212;-2.310913;-;-;-;-;-;-;-;-;-;-;-;-;-;-;-
1514177878639;-;-;8.975159;0.11869812;-2.294159;-;-;-;-;-;-;-;-;-;-;-;-;-;-;-
1514177878659;-;-;8.984726;0.074417114;-2.3073273;-;-;-;-;-;-;-;-;-;-;-;-;-;-;-
1514177878678;-;-;8.973953;0.019348145;-2.3588104;-;-;-;-;-;-;-;-;-;-;-;-;-;-;-
1514177878698;-;-;8.9787445;-0.0021972656;-2.365982;-;-;-;-;-;-;-;-;-;-;-;-;-;-;-
1514177878718;-;-;9.001495;0.052871704;-2.3073273;-;-;-;-;-;-;-;-;-;-;-;-;-;-;-
1514177878739;-;-;8.984726;0.03491211;-2.349228;-;-;-;-;-;-;-;-;-;-;-;-;-;-;-
1514177878760;-;-;8.989517;-0.030929565;-2.2989502;-;-;-;-;-;-;-;-;-;-;-;-;-;-;-
1514177878780;-;-;9.021835;-0.050079346;-2.2809906;-;-;-;-;-;-;-;-;-;-;-;-;-;-;-
1514177878800;-;-;9.012268;-0.074035645;-2.2366943;-;-;-;-;-;-;-;-;-;-;-;-;-;-;-
1514177878821;-;-;9.019455;-0.08720398;-2.2498627;-;-;-;-;-;-;-;-;-;-;-;-;-;-;-
1514177878841;-;-;9.014664;-0.095581055;-2.2618408;-;-;-;-;-;-;-;-;-;-;-;-;-;-;-
1514177878861;-;-;8.990723;-0.076416016;-2.2881775;-;-;-;-;-;-;-;-;-;-;-;-;-;-;-
1514177878882;-;-;8.976349;-0.12310791;-2.2738037;-;-;-;-;-;-;-;-;-;-;-;-;-;-;-
1514177878902;-;-;9.021835;-0.12310791;-2.270218;-;-;-;-;-;-;-;-;-;-;-;-;-;-;-
1514177878922;-;-;9.005081;-0.109939575;-2.2486725;-;-;-;-;-;-;-;-;-;-;-;-;-;-;-
1514177878943;-;-;8.990723;-0.124313354;-2.278595;-;-;-;-;-;-;-;-;-;-;-;-;-;-;-
1514177878962;-;-;8.995499;-0.12071228;-2.254654;-;-;-;-;-;-;-;-;-;-;-;-;-;-;-
1514177878982;-;-;9.006287;-0.10395813;-2.2462769;-;-;-;-;-;-;-;-;-;-;-;-;-;-;-
1514177879002;-;-;9.006287;-0.093185425;-2.2738037;-;-;-;-;-;-;-;-;-;-;-;-;-;-;-
1514177879023;-;-;9.005081;-0.081207275;-2.286972;-;-;-;-;-;-;-;-;-;-;-;-;-;-;-
1514177879043;-;-;8.964386;-0.117126465;-2.270218;-;-;-;-;-;-;-;-;-;-;-;-;-;-;-
1514177879063;-;-;8.984726;-0.1015625;-2.251068;-;-;-;-;-;-;-;-;-;-;-;-;-;-;-
1514177879084;-;-;9.026627;-0.069244385;-2.2378998;-;-;-;-;-;-;-;-;-;-;-;-;-;-;-
1514177879104;-;-;8.98233;-0.012969971;-2.342041;-;-;-;-;-;-;-;-;-;-;-;-;-;-;-
1514177879124;-;-;8.983536;-0.03453064;-2.282196;-;-;-;-;-;-;-;-;-;-;-;-;-;-;-
1514177879144;-;-;8.966782;-0.009384155;-2.294159;-;-;-;-;-;-;-;-;-;-;-;-;-;-;-
1514177879165;-;-;9.035004;0.008575439;-2.2331085;-;-;-;-;-;-;-;-;-;-;-;-;-;-;-
1514177879185;-;-;8.994308;-0.01776123;-2.227127;-;-;-;-;-;-;-;-;-;-;-;-;-;-;-
1514177879206;-;-;9.001495;-0.015365601;-2.242691;-;-;-;-;-;-;-;-;-;-;-;-;-;-;-
1514177879227;-;-;8.944031;-0.00579834;-2.2618408;-;-;-;-;-;-;-;-;-;-;-;-;-;-;-
1514177879248;-;-;8.936844;-0.06086731;-2.2857819;-;-;-;-;-;-;-;-;-;-;-;-;-;-;-
1514177879268;-;-;8.928467;-0.08958435;-2.2175446;-;-;-;-;-;-;-;-;-;-;-;-;-;-;-
1514177879288;-;-;8.990723;-0.047698975;-2.1971893;-;-;-;-;-;-;-;-;-;-;-;-;-;-;-
1514177879308;-;-;9.005081;-0.05128479;-2.278595;-;-;-;-;-;-;-;-;-;-;-;-;-;-;-
1514177879329;-;-;9.015854;-0.02255249;-2.3252869;-;-;-;-;-;-;-;-;-;-;-;-;-;-;-
1514177879349;-;-;8.996704;-0.045303345;-2.2798004;-;-;-;-;-;-;-;-;-;-;-;-;-;-;-
1514177879369;-;-;9.036209;-0.02973938;-2.2750092;-;-;-;-;-;-;-;-;-;-;-;-;-;-;-
1514177879390;-;-;9.052963;-0.05368042;-2.270218;-;-;-;-;-;-;-;-;-;-;-;-;-;-;-
1514177879410;-;-;9.035004;-0.08001709;-2.1888123;-;-;-;-;-;-;-;-;-;-;-;-;-;-;-
1514177879431;-;-;9.033813;-0.1302948;-2.1888123;-;-;-;-;-;-;-;-;-;-;-;-;-;-;-
1514177879451;-;-;9.035004;-0.17817688;-2.2738037;-;-;-;-;-;-;-;-;-;-;-;-;-;-;-
1514177879471;-;-;8.995499;-0.20211792;-2.242691;-;-;-;-;-;-;-;-;-;-;-;-;-;-;-
1514177879491;-;-;8.953613;-0.1530304;-2.2462769;-;-;-;-;-;-;-;-;-;-;-;-;-;-;-
1514177879512;-;-;8.929672;-0.107543945;-2.1768494;-;-;-;-;-;-;-;-;-;-;-;-;-;-;-
1514177879532;-;-;8.967972;-0.1530304;-2.2007904;-;-;-;-;-;-;-;-;-;-;-;-;-;-;-
1514177879552;-;-;8.995499;-0.109939575;-2.2175446;-;-;-;-;-;-;-;-;-;-;-;-;-;-;-
1514177879573;-;-;8.997894;-0.10395813;-2.2007904;-;-;-;-;-;-;-;-;-;-;-;-;-;-;-
1514177879593;-;-;8.955994;-0.08001709;-2.2247314;-;-;-;-;-;-;-;-;-;-;-;-;-;-;-
1514177879613;-;-;8.906921;-0.045303345;-2.278595;-;-;-;-;-;-;-;-;-;-;-;-;-;-;-
1514177879633;-;-;8.942825;-0.033325195;-2.2618408;-;-;-;-;-;-;-;-;-;-;-;-;-;-;-
1514177879654;-;-;8.929672;-0.08958435;-2.2366943;-;-;-;-;-;-;-;-;-;-;-;-;-;-;-
1514177879674;-;-;8.935654;-0.102752686;-2.1947937;-;-;-;-;-;-;-;-;-;-;-;-;-;-;-
1514177879695;-;-;8.954803;-0.107543945;-2.2378998;-;-;-;-;-;-;-;-;-;-;-;-;-;-;-
1514177879715;-;-;9.0182495;-0.078811646;-2.3240814;-;-;-;-;-;-;-;-;-;-;-;-;-;-;-
1514177879735;-;-;8.947617;0.013366699;-2.3444366;-;-;-;-;-;-;-;-;-;-;-;-;-;-;-
1514177879755;-;-;8.997894;0.014556885;-2.3480225;-;-;-;-;-;-;-;-;-;-;-;-;-;-;-
1514177879776;-;-;8.9787445;0.008575439;-2.3276825;-;-;-;-;-;-;-;-;-;-;-;-;-;-;-
1514177879796;-;-;8.957199;-0.083602905;-2.3204956;-;-;-;-;-;-;-;-;-;-;-;-;-;-;-
1514177879816;-;-;8.9392395;-0.0728302;-2.3252869;-;-;-;-;-;-;-;-;-;-;-;-;-;-;-
1514177879837;-;-;8.98114;-0.088394165;-2.3085175;-;-;-;-;-;-;-;-;-;-;-;-;-;-;-
1514177879856;-;-;9.012268;-0.047698975;-2.3252869;-;-;-;-;-;-;-;-;-;-;-;-;-;-;-
1514177879876;-;-;9.021835;-0.100372314;-2.2809906;-;-;-;-;-;-;-;-;-;-;-;-;-;-;-
1514177879897;-;-;9.020645;-0.08241272;-2.2366943;-;-;-;-;-;-;-;-;-;-;-;-;-;-;-
1514177879916;-;-;8.997894;-0.026138306;-2.2295227;-;-;-;-;-;-;-;-;-;-;-;-;-;-;-
1514177879936;-;-;9.025436;0.0025787354;-2.2582397;-;-;-;-;-;-;-;-;-;-;-;-;-;-;-
1514177879956;-;-;9.006287;0.069625854;-2.2582397;-;-;-;-;-;-;-;-;-;-;-;-;-;-;-
1514177879977;-;-;8.976349;0.019348145;-2.2355042;-;-;-;-;-;-;-;-;-;-;-;-;-;-;-
1514177879997;-;-;8.976349;0.028915405;-2.2594452;-;-;-;-;-;-;-;-;-;-;-;-;-;-;-
1514177880017;-;-;9.001495;-0.0010070801;-2.2678223;-;-;-;-;-;-;-;-;-;-;-;-;-;-;-
1514177880038;-;-;8.969162;0.038497925;-2.231903;-;-;-;-;-;-;-;-;-;-;-;-;-;-;-
1514177880057;-;-;8.975159;0.026535034;-2.306137;-;-;-;-;-;-;-;-;-;-;-;-;-;-;-
1514177880077;-;-;8.957199;0.06602478;-2.3121185;-;-;-;-;-;-;-;-;-;-;-;-;-;-;-
1514177880098;-;-;8.948822;0.04927063;-2.3240814;-;-;-;-;-;-;-;-;-;-;-;-;-;-;-
1514177880117;-;-;8.971558;0.067230225;-2.3588104;-;-;-;-;-;-;-;-;-;-;-;-;-;-;-
1514177880137;-;-;8.971558;0.038497925;-2.3216858;-;-;-;-;-;-;-;-;-;-;-;-;-;-;-
1514177880157;-;-;8.993118;-0.00340271;-2.3396454;-;-;-;-;-;-;-;-;-;-;-;-;-;-;-
1514177880177;-;-;8.997894;0.016952515;-2.3169098;-;-;-;-;-;-;-;-;-;-;-;-;-;-;-
1514177880198;-;-;8.964386;0.03012085;-2.3468323;-;-;-;-;-;-;-;-;-;-;-;-;-;-;-
1514177880218;-;-;8.897339;-0.0045928955;-2.306137;-;-;-;-;-;-;-;-;-;-;-;-;-;-;-
1514177880238;-;-;8.965576;0.04208374;-2.3193054;-;-;-;-;-;-;-;-;-;-;-;-;-;-;-
1514177880258;-;-;8.957199;0.016952515;-2.3121185;-;-;-;-;-;-;-;-;-;-;-;-;-;-;-
1514177880279;-;-;8.964386;-0.023742676;-2.3157043;-;-;-;-;-;-;-;-;-;-;-;-;-;-;-
1514177880299;-;-;9.002686;-0.016571045;-2.2582397;-;-;-;-;-;-;-;-;-;-;-;-;-;-;-
1514177880319;-;-;8.951218;0.021743774;-2.2761993;-;-;-;-;-;-;-;-;-;-;-;-;-;-;-
1514177880340;-;-;8.923676;0.03970337;-2.3671875;-;-;-;-;-;-;-;-;-;-;-;-;-;-;-
1514177880360;-;-;8.936844;0.06602478;-2.3851318;-;-;-;-;-;-;-;-;-;-;-;-;-;-;-
1514177880380;-;-;8.967972;0.110321045;-2.3073273;-;-;-;-;-;-;-;-;-;-;-;-;-;-;-
1514177880401;-;-;8.98114;0.038497925;-2.2678223;-;-;-;-;-;-;-;-;-;-;-;-;-;-;-
1514177880421;-;-;8.995499;0.014556885;-2.326477;-;-;-;-;-;-;-;-;-;-;-;-;-;-;-
1514177880441;-;-;8.970367;0.02772522;-2.3049316;-;-;-;-;-;-;-;-;-;-;-;-;-;-;-
1514177880462;-;-;8.951218;0.02293396;-2.306137;-;-;-;-;-;-;-;-;-;-;-;-;-;-;-
1514177880482;-;-;8.918884;-0.00819397;-2.3480225;-;-;-;-;-;-;-;-;-;-;-;-;-;-;-
1514177880502;-;-;8.969162;0.009765625;-2.3252869;-;-;-;-;-;-;-;-;-;-;-;-;-;-;-
1514177880522;-;-;8.987122;0.0181427;-2.2905731;-;-;-;-;-;-;-;-;-;-;-;-;-;-;-
1514177880544;-;-;8.993118;0.02772522;-2.2738037;-;-;-;-;-;-;-;-;-;-;-;-;-;-;-
1514177880563;-;-;8.960785;0.04927063;-2.3121185;-;-;-;-;-;-;-;-;-;-;-;-;-;-;-
1514177880583;-;-;8.952408;0.043289185;-2.3228912;-;-;-;-;-;-;-;-;-;-;-;-;-;-;-
1514177880603;-;-;8.953613;0.02053833;-2.3169098;-;-;-;-;-;-;-;-;-;-;-;-;-;-;-
1514177880624;-;-;8.963181;0.0013885498;-2.3408508;-;-;-;-;-;-;-;-;-;-;-;-;-;-;-
1514177880644;-;-;9.008667;0.04447937;-2.3037415;-;-;-;-;-;-;-;-;-;-;-;-;-;-;-
1514177880665;-;-;8.967972;0.013366699;-2.3564148;-;-;-;-;-;-;-;-;-;-;-;-;-;-;-
1514177880685;-;-;8.966782;-0.00340271;-2.3240814;-;-;-;-;-;-;-;-;-;-;-;-;-;-;-
1514177880706;-;-;9.031418;-0.033325195;-2.3372498;-;-;-;-;-;-;-;-;-;-;-;-;-;-;-
1514177880726;-;-;9.005081;-0.0021972656;-2.3228912;-;-;-;-;-;-;-;-;-;-;-;-;-;-;-
1514177880747;-;-;8.984726;0.088775635;-2.3276825;-;-;-;-;-;-;-;-;-;-;-;-;-;-;-
1514177880767;-;-;8.983536;0.1845398;-2.3085175;-;-;-;-;-;-;-;-;-;-;-;-;-;-;-
1514177880787;-;-;8.945221;0.20010376;-2.365982;-;-;-;-;-;-;-;-;-;-;-;-;-;-;-
1514177880808;-;-;8.916504;0.17855835;-2.3552094;-;-;-;-;-;-;-;-;-;-;-;-;-;-;-
1514177880828;-;-;8.950012;0.16778564;-2.3288727;-;-;-;-;-;-;-;-;-;-;-;-;-;-;-
1514177880849;-;-;8.908112;0.11152649;-2.3480225;-;-;-;-;-;-;-;-;-;-;-;-;-;-;-
1514177880869;-;-;8.955994;0.007369995;-2.3049316;-;-;-;-;-;-;-;-;-;-;-;-;-;-;-
1514177880889;-;-;8.946426;0.04447937;-2.2774048;-;-;-;-;-;-;-;-;-;-;-;-;-;-;-
1514177880909;-;-;8.966782;-0.0105896;-2.2355042;-;-;-;-;-;-;-;-;-;-;-;-;-;-;-
1514177880930;-;-;9.009872;0.0181427;-2.286972;-;-;-;-;-;-;-;-;-;-;-;-;-;-;-
1514177880951;-;-;8.969162;0.03012085;-2.3013458;-;-;-;-;-;-;-;-;-;-;-;-;-;-;-
1514177880970;-;-;8.977554;0.091171265;-2.3001404;-;-;-;-;-;-;-;-;-;-;-;-;-;-;-
1514177880990;-;-;8.990723;0.09954834;-2.2726135;-;-;-;-;-;-;-;-;-;-;-;-;-;-;-
1514177881010;-;-;8.997894;0.11631775;-2.1971893;-;-;-;-;-;-;-;-;-;-;-;-;-;-;-
1514177881030;-;-;9.025436;0.036102295;-2.2618408;-;-;-;-;-;-;-;-;-;-;-;-;-;-;-
1514177881051;-;-;8.969162;0.033706665;-2.286972;-;-;-;-;-;-;-;-;-;-;-;-;-;-;-
1514177881071;-;-;8.966782;0.019348145;-2.2606354;-;-;-;-;-;-;-;-;-;-;-;-;-;-;-
1514177881091;-;-;8.996704;-0.00340271;-2.2462769;-;-;-;-;-;-;-;-;-;-;-;-;-;-;-
1514177881112;-;-;9.014664;-0.042907715;-2.2582397;-;-;-;-;-;-;-;-;-;-;-;-;-;-;-
1514177881132;-;-;8.991913;0.026535034;-2.2067719;-;-;-;-;-;-;-;-;-;-;-;-;-;-;-
1514177881152;-;-;9.015854;0.074417114;-2.2642365;-;-;-;-;-;-;-;-;-;-;-;-;-;-;-
1514177881173;-;-;9.014664;0.12109375;-2.3348541;-;-;-;-;-;-;-;-;-;-;-;-;-;-;-
1514177881192;-;-;8.975159;0.119903564;-2.3540192;-;-;-;-;-;-;-;-;-;-;-;-;-;-;-
1514177881212;-;-;8.909317;0.06124878;-2.3276825;-;-;-;-;-;-;-;-;-;-;-;-;-;-;-
1514177881233;-;-;8.917694;0.02053833;-2.306137;-;-;-;-;-;-;-;-;-;-;-;-;-;-;-
1514177881252;-;-;8.964386;0.064834595;-2.2845764;-;-;-;-;-;-;-;-;-;-;-;-;-;-;-
1514177881272;-;-;8.9787445;0.09954834;-2.3013458;-;-;-;-;-;-;-;-;-;-;-;-;-;-;-
1514177881292;-;-;8.966782;0.15222168;-2.2917633;-;-;-;-;-;-;-;-;-;-;-;-;-;-;-
1514177881313;-;-;8.830307;0.15342712;-2.2438812;-;-;-;-;-;-;-;-;-;-;-;-;-;-;-
1514177881333;-;-;8.7812195;0.093566895;-2.1552887;-;-;-;-;-;-;-;-;-;-;-;-;-;-;-
1514177881353;-;-;8.950012;0.013366699;-2.2809906;-;-;-;-;-;-;-;-;-;-;-;-;-;-;-
1514177881374;-;-;9.115219;0.05166626;-2.500061;-;-;-;-;-;-;-;-;-;-;-;-;-;-;-
1514177881393;-;-;9.118805;0.18693542;-2.484497;-;-;-;-;-;-;-;-;-;-;-;-;-;-;-
1514177881413;-;-;8.983536;0.31263733;-2.4102783;-;-;-;-;-;-;-;-;-;-;-;-;-;-;-
1514177881433;-;-;8.881775;0.21087646;-2.333664;-;-;-;-;-;-;-;-;-;-;-;-;-;-;-
1514177881453;-;-;8.88298;0.11152649;-2.3240814;-;-;-;-;-;-;-;-;-;-;-;-;-;-;-
1514177881474;-;-;8.965576;-0.015365601;-2.3240814;-;-;-;-;-;-;-;-;-;-;-;-;-;-;-
1514177881494;-;-;9.050568;0.0013885498;-2.2295227;-;-;-;-;-;-;-;-;-;-;-;-;-;-;-
1514177881514;-;-;9.075714;0.016952515;-2.2438812;-;-;-;-;-;-;-;-;-;-;-;-;-;-;-
1514177881535;-;-;9.063736;0.04447937;-2.1947937;-;-;-;-;-;-;-;-;-;-;-;-;-;-;-
1514177881554;-;-;9.011063;0.05166626;-2.242691;-;-;-;-;-;-;-;-;-;-;-;-;-;-;-
1514177881574;-;-;8.959595;0.072021484;-2.2726135;-;-;-;-;-;-;-;-;-;-;-;-;-;-;-
1514177881595;-;-;9.015854;0.12828064;-2.2331085;-;-;-;-;-;-;-;-;-;-;-;-;-;-;-
1514177881614;-;-;9.013458;0.2132721;-2.230713;-;-;-;-;-;-;-;-;-;-;-;-;-;-;-
1514177881634;-;-;9.029022;0.21566772;-2.231903;-;-;-;-;-;-;-;-;-;-;-;-;-;-;-
1514177881655;-;-;9.038605;0.16419983;-2.2857819;-;-;-;-;-;-;-;-;-;-;-;-;-;-;-
1514177881674;-;-;8.98114;0.17736816;-2.2798004;-;-;-;-;-;-;-;-;-;-;-;-;-;-;-
1514177881694;-;-;8.958389;0.13786316;-2.231903;-;-;-;-;-;-;-;-;-;-;-;-;-;-;-
1514177881715;-;-;8.985931;0.100753784;-2.231903;-;-;-;-;-;-;-;-;-;-;-;-;-;-;-
1514177881734;-;-;9.003891;0.110321045;-2.2642365;-;-;-;-;-;-;-;-;-;-;-;-;-;-;-
1514177881754;-;-;8.9991;0.12828064;-2.251068;-;-;-;-;-;-;-;-;-;-;-;-;-;-;-
1514177881774;-;-;8.959595;0.23123169;-2.1959991;-;-;-;-;-;-;-;-;-;-;-;-;-;-;-
1514177881795;-;-;8.926071;0.24440002;-2.2019806;-;-;-;-;-;-;-;-;-;-;-;-;-;-;-
1514177881814;-;-;8.904526;0.19293213;-2.247467;-;-;-;-;-;-;-;-;-;-;-;-;-;-;-
1514177881834;-;-;8.944031;0.14863586;-2.286972;-;-;-;-;-;-;-;-;-;-;-;-;-;-;-
1514177881854;-;-;9.011063;0.11631775;-2.306137;-;-;-;-;-;-;-;-;-;-;-;-;-;-;-
1514177881875;-;-;8.976349;0.10913086;-2.2355042;-;-;-;-;-;-;-;-;-;-;-;-;-;-;-
1514177881895;-;-;8.957199;0.11152649;-2.254654;-;-;-;-;-;-;-;-;-;-;-;-;-;-;-
1514177881915;-;-;8.964386;0.10673523;-2.3480225;-;-;-;-;-;-;-;-;-;-;-;-;-;-;-
1514177881936;-;-;8.973953;0.12348938;-2.3181;-;-;-;-;-;-;-;-;-;-;-;-;-;-;-
1514177881956;-;-;8.993118;0.1438446;-2.306137;-;-;-;-;-;-;-;-;-;-;-;-;-;-;-
1514177881976;-;-;8.966782;0.14144897;-2.2965546;-;-;-;-;-;-;-;-;-;-;-;-;-;-;-
1514177881996;-;-;9.014664;0.10913086;-2.3037415;-;-;-;-;-;-;-;-;-;-;-;-;-;-;-
1514177882017;-;-;9.007477;0.08518982;-2.2989502;-;-;-;-;-;-;-;-;-;-;-;-;-;-;-
1514177882036;-;-;8.964386;0.088775635;-2.2642365;-;-;-;-;-;-;-;-;-;-;-;-;-;-;-
1514177882056;-;-;8.922485;0.08039856;-2.2761993;-;-;-;-;-;-;-;-;-;-;-;-;-;-;-
1514177882077;-;-;8.970367;0.08279419;-2.2522583;-;-;-;-;-;-;-;-;-;-;-;-;-;-;-
1514177882096;-;-;9.001495;0.06842041;-2.270218;-;-;-;-;-;-;-;-;-;-;-;-;-;-;-
1514177882116;-;-;8.950012;0.031311035;-2.2678223;-;-;-;-;-;-;-;-;-;-;-;-;-;-;-
1514177882136;-;-;8.9787445;0.014556885;-2.199585;-;-;-;-;-;-;-;-;-;-;-;-;-;-;-
1514177882157;-;-;8.98114;0.0013885498;-2.1493073;-;-;-;-;-;-;-;-;-;-;-;-;-;-;-
1514177882177;-;-;8.997894;0.008575439;-2.2067719;-;-;-;-;-;-;-;-;-;-;-;-;-;-;-
1514177882197;-;-;8.983536;-0.009384155;-2.2929688;-;-;-;-;-;-;-;-;-;-;-;-;-;-;-
1514177882217;-;-;8.960785;0.067230225;-2.2163544;-;-;-;-;-;-;-;-;-;-;-;-;-;-;-
1514177882238;-;-;8.948822;0.07800293;-2.1959991;-;-;-;-;-;-;-;-;-;-;-;-;-;-;-
1514177882258;-;-;8.948822;0.06602478;-2.2522583;-;-;-;-;-;-;-;-;-;-;-;-;-;-;-
1514177882279;-;-;8.965576;0.043289185;-2.2570496;-;-;-;-;-;-;-;-;-;-;-;-;-;-;-
1514177882299;-;-;8.958389;0.05645752;-2.2809906;-;-;-;-;-;-;-;-;-;-;-;-;-;-;-
1514177882320;-;-;8.954803;0.07081604;-2.2989502;-;-;-;-;-;-;-;-;-;-;-;-;-;-;-
1514177882339;-;-;8.987122;0.040893555;-2.263031;-;-;-;-;-;-;-;-;-;-;-;-;-;-;-
1514177882360;-;-;8.948822;0.07800293;-2.2402954;-;-;-;-;-;-;-;-;-;-;-;-;-;-;-
1514177882380;-;-;8.927277;0.11631775;-2.2798004;-;-;-;-;-;-;-;-;-;-;-;-;-;-;-
1514177882400;-;-;8.947617;0.12828064;-2.2977448;-;-;-;-;-;-;-;-;-;-;-;-;-;-;-
1514177882421;-;-;8.98114;0.12948608;-2.2881775;-;-;-;-;-;-;-;-;-;-;-;-;-;-;-
1514177882441;-;-;8.917694;0.12948608;-2.2582397;-;-;-;-;-;-;-;-;-;-;-;-;-;-;-
1514177882461;-;-;8.940445;0.119903564;-2.2618408;-;-;-;-;-;-;-;-;-;-;-;-;-;-;-
1514177882482;-;-;8.936844;0.10913086;-2.286972;-;-;-;-;-;-;-;-;-;-;-;-;-;-;-
1514177882502;-;-;8.965576;0.09475708;-2.3013458;-;-;-;-;-;-;-;-;-;-;-;-;-;-;-
1514177882522;-;-;8.988327;0.11631775;-2.302536;-;-;-;-;-;-;-;-;-;-;-;-;-;-;-
1514177882543;-;-;8.993118;0.1043396;-2.3001404;-;-;-;-;-;-;-;-;-;-;-;-;-;-;-
1514177882563;-;-;8.973953;0.1558075;-2.2965546;-;-;-;-;-;-;-;-;-;-;-;-;-;-;-
1514177882583;-;-;8.947617;0.13186646;-2.2929688;-;-;-;-;-;-;-;-;-;-;-;-;-;-;-
1514177882603;-;-;8.954803;0.12828064;-2.2905731;-;-;-;-;-;-;-;-;-;-;-;-;-;-;-
1514177882624;-;-;8.948822;0.17616272;-2.2582397;-;-;-;-;-;-;-;-;-;-;-;-;-;-;-
1514177882645;-;-;8.940445;0.16539001;-2.2355042;-;-;-;-;-;-;-;-;-;-;-;-;-;-;-
1514177882665;-;-;9.00029;0.14025879;-2.309723;-;-;-;-;-;-;-;-;-;-;-;-;-;-;-
1514177882685;-;-;9.002686;0.17018127;-2.2857819;-;-;-;-;-;-;-;-;-;-;-;-;-;-;-
1514177882705;-;-;8.940445;0.14144897;-2.2965546;-;-;-;-;-;-;-;-;-;-;-;-;-;-;-
1514177882726;-;-;8.96199;0.13905334;-2.2211304;-;-;-;-;-;-;-;-;-;-;-;-;-;-;-
1514177882746;-;-;9.013458;0.09715271;-2.2103577;-;-;-;-;-;-;-;-;-;-;-;-;-;-;-
1514177882766;-;-;9.002686;0.024139404;-2.2905731;-;-;-;-;-;-;-;-;-;-;-;-;-;-;-
1514177882787;-;-;9.029022;-0.0045928955;-2.3252869;-;-;-;-;-;-;-;-;-;-;-;-;-;-;-
1514177882807;-;-;9.011063;-0.05847168;-2.3444366;-;-;-;-;-;-;-;-;-;-;-;-;-;-;-
1514177882827;-;-;9.030228;-0.03453064;-2.0894623;-;-;-;-;-;-;-;-;-;-;-;-;-;-;-
1514177882847;-;-;9.049377;-0.069244385;-2.045166;-;-;-;-;-;-;-;-;-;-;-;-;-;-;-
1514177882868;-;-;9.015854;-0.23085022;-1.911087;-;-;-;-;-;-;-;-;-;-;-;-;-;-;-
1514177882887;-;-;9.006287;-0.21289063;-1.777008;-;-;-;-;-;-;-;-;-;-;-;-;-;-;-
1514177882907;-;-;8.96199;0.07321167;-2.0942383;-;-;-;-;-;-;-;-;-;-;-;-;-;-;-
1514177882928;-;-;8.953613;0.32699585;-2.4042969;-;-;-;-;-;-;-;-;-;-;-;-;-;-;-
1514177882948;-;-;8.908112;0.34495544;-2.468933;-;-;-;-;-;-;-;-;-;-;-;-;-;-;-
1514177882968;-;-;8.965576;0.30665588;-2.4246368;-;-;-;-;-;-;-;-;-;-;-;-;-;-;-
1514177882988;-;-;8.955994;0.31143188;-2.3468323;-;-;-;-;-;-;-;-;-;-;-;-;-;-;-
1514177883009;-;-;8.832703;0.43115234;-2.2738037;-;-;-;-;-;-;-;-;-;-;-;-;-;-;-
1514177883029;-;-;8.879379;0.536499;-2.1959991;-;-;-;-;-;-;-;-;-;-;-;-;-;-;-
1514177883049;-;-;9.019455;0.4945984;-2.1457214;-;-;-;-;-;-;-;-;-;-;-;-;-;-;-
1514177883069;-;-;9.122391;0.3461609;-2.2127533;-;-;-;-;-;-;-;-;-;-;-;-;-;-;-
1514177883090;-;-;9.159515;0.1510315;-2.2594452;-;-;-;-;-;-;-;-;-;-;-;-;-;-;-
1514177883110;-;-;9.125992;0.021743774;-2.1804352;-;-;-;-;-;-;-;-;-;-;-;-;-;-;-
1514177883130;-;-;9.130783;-0.03691101;-2.0511475;-;-;-;-;-;-;-;-;-;-;-;-;-;-;-
1514177883151;-;-;9.092468;-0.042907715;-2.0643158;-;-;-;-;-;-;-;-;-;-;-;-;-;-;-
1514177883171;-;-;8.966782;0.060043335;-2.0547333;-;-;-;-;-;-;-;-;-;-;-;-;-;-;-
1514177883191;-;-;8.953613;0.14263916;-1.9745331;-;-;-;-;-;-;-;-;-;-;-;-;-;-;-
1514177883212;-;-;8.970367;0.25038147;-2.0116425;-;-;-;-;-;-;-;-;-;-;-;-;-;-;-
1514177883232;-;-;8.989517;0.24440002;-2.012848;-;-;-;-;-;-;-;-;-;-;-;-;-;-;-
1514177883252;-;-;8.965576;0.22285461;-1.9877014;-;-;-;-;-;-;-;-;-;-;-;-;-;-;-
1514177883273;-;-;9.019455;0.2132721;-2.0272064;-;-;-;-;-;-;-;-;-;-;-;-;-;-;-
1514177883292;-;-;9.043396;0.19412231;-2.105011;-;-;-;-;-;-;-;-;-;-;-;-;-;-;-
1514177883312;-;-;9.064941;0.1330719;-2.0679016;-;-;-;-;-;-;-;-;-;-;-;-;-;-;-
1514177883332;-;-;9.058945;0.12109375;-2.065506;-;-;-;-;-;-;-;-;-;-;-;-;-;-;-
1514177883353;-;-;9.024231;0.12948608;-2.0511475;-;-;-;-;-;-;-;-;-;-;-;-;-;-;-
1514177883373;-;-;8.955994;0.10673523;-2.0475616;-;-;-;-;-;-;-;-;-;-;-;-;-;-;-
1514177883393;-;-;8.917694;-0.00579834;-2.0894623;-;-;-;-;-;-;-;-;-;-;-;-;-;-;-
1514177883413;-;-;8.9991;-0.062057495;-2.0391846;-;-;-;-;-;-;-;-;-;-;-;-;-;-;-
1514177883434;-;-;9.037399;-0.095581055;-2.029602;-;-;-;-;-;-;-;-;-;-;-;-;-;-;-
1514177883455;-;-;9.092468;-0.119522095;-2.0343933;-;-;-;-;-;-;-;-;-;-;-;-;-;-;-
1514177883474;-;-;9.074509;-0.109939575;-2.0882568;-;-;-;-;-;-;-;-;-;-;-;-;-;-;-
1514177883495;-;-;9.029022;-0.02255249;-2.1780396;-;-;-;-;-;-;-;-;-;-;-;-;-;-;-
1514177883515;-;-;8.98233;-0.011779785;-2.16008;-;-;-;-;-;-;-;-;-;-;-;-;-;-;-
1514177883535;-;-;9.015854;0.014556885;-2.115799;-;-;-;-;-;-;-;-;-;-;-;-;-;-;-
1514177883556;-;-;9.058945;-0.0045928955;-2.0858612;-;-;-;-;-;-;-;-;-;-;-;-;-;-;-
1514177883576;-;-;9.041;-0.02494812;-2.084671;-;-;-;-;-;-;-;-;-;-;-;-;-;-;-
1514177883596;-;-;8.967972;-0.038116455;-2.0822754;-;-;-;-;-;-;-;-;-;-;-;-;-;-;-
1514177883617;-;-;8.911713;-0.026138306;-2.115799;-;-;-;-;-;-;-;-;-;-;-;-;-;-;-
1514177883637;-;-;8.887772;-0.015365601;-2.0391846;-;-;-;-;-;-;-;-;-;-;-;-;-;-;-
1514177883657;-;-;8.885376;0.048080444;-2.0236206;-;-;-;-;-;-;-;-;-;-;-;-;-;-;-
1514177883677;-;-;8.892548;0.043289185;-2.0307922;-;-;-;-;-;-;-;-;-;-;-;-;-;-;-
1514177883697;-;-;8.934448;0.057647705;-2.076294;-;-;-;-;-;-;-;-;-;-;-;-;-;-;-
1514177883717;-;-;8.9991;-0.0010070801;-2.0870667;-;-;-;-;-;-;-;-;-;-;-;-;-;-;-
1514177883738;-;-;9.014664;0.0181427;-2.1277618;-;-;-;-;-;-;-;-;-;-;-;-;-;-;-
1514177883758;-;-;8.988327;0.09475708;-2.1169891;-;-;-;-;-;-;-;-;-;-;-;-;-;-;-
1514177883778;-;-;8.967972;0.1510315;-2.13974;-;-;-;-;-;-;-;-;-;-;-;-;-;-;-
1514177883799;-;-;8.989517;0.10194397;-2.128952;-;-;-;-;-;-;-;-;-;-;-;-;-;-;-
1514177883819;-;-;9.042191;0.06842041;-2.1744537;-;-;-;-;-;-;-;-;-;-;-;-;-;-;-
1514177883839;-;-;9.084091;-0.018966675;-2.1888123;-;-;-;-;-;-;-;-;-;-;-;-;-;-;-
1514177883860;-;-;9.085281;-0.0440979;-2.199585;-;-;-;-;-;-;-;-;-;-;-;-;-;-;-
1514177883879;-;-;9.052963;0.007369995;-2.1828308;-;-;-;-;-;-;-;-;-;-;-;-;-;-;-
1514177883899;-;-;9.025436;0.016952515;-2.179245;-;-;-;-;-;-;-;-;-;-;-;-;-;-;-
1514177883920;-;-;9.017059;0.05645752;-2.2378998;-;-;-;-;-;-;-;-;-;-;-;-;-;-;-
1514177883939;-;-;9.037399;0.09236145;-2.2247314;-;-;-;-;-;-;-;-;-;-;-;-;-;-;-
1514177883959;-;-;9.005081;0.2013092;-2.1732483;-;-;-;-;-;-;-;-;-;-;-;-;-;-;-
1514177883979;-;-;9.009872;0.28630066;-2.2678223;-;-;-;-;-;-;-;-;-;-;-;-;-;-;-
1514177884000;-;-;8.972763;0.29348755;-2.2917633;-;-;-;-;-;-;-;-;-;-;-;-;-;-;-
1514177884021;-;-;8.98114;0.299469;-2.2654266;-;-;-;-;-;-;-;-;-;-;-;-;-;-;-
1514177884040;-;-;8.952408;0.2922821;-2.231903;-;-;-;-;-;-;-;-;-;-;-;-;-;-;-
1514177884060;-;-;8.92009;0.23242188;-2.2750092;-;-;-;-;-;-;-;-;-;-;-;-;-;-;-
1514177884081;-;-;8.911713;0.21687317;-2.3432465;-;-;-;-;-;-;-;-;-;-;-;-;-;-;-
1514177884101;-;-;8.940445;0.24081421;-2.309723;-;-;-;-;-;-;-;-;-;-;-;-;-;-;-
1514177884120;-;-;9.017059;0.25637817;-2.2654266;-;-;-;-;-;-;-;-;-;-;-;-;-;-;-
1514177884140;-;-;9.024231;0.31861877;-2.1648712;-;-;-;-;-;-;-;-;-;-;-;-;-;-;-
1514177884160;-;-;9.058945;0.20249939;-2.0475616;-;-;-;-;-;-;-;-;-;-;-;-;-;-;-
1514177884181;-;-;9.054169;0.019348145;-2.1217804;-;-;-;-;-;-;-;-;-;-;-;-;-;-;-
1514177884201;-;-;9.024231;0.01574707;-2.215149;-;-;-;-;-;-;-;-;-;-;-;-;-;-;-
1514177884221;-;-;8.98114;0.1438446;-2.175644;-;-;-;-;-;-;-;-;-;-;-;-;-;-;-
1514177884242;-;-;8.970367;0.259964;-2.1038208;-;-;-;-;-;-;-;-;-;-;-;-;-;-;-
1514177884263;-;-;8.98233;0.32939148;-2.053543;-;-;-;-;-;-;-;-;-;-;-;-;-;-;-
1514177884282;-;-;9.043396;0.29109192;-2.0379791;-;-;-;-;-;-;-;-;-;-;-;-;-;-;-
1514177884303;-;-;9.086487;0.30903625;-2.132553;-;-;-;-;-;-;-;-;-;-;-;-;-;-;-
1514177884323;-;-;9.030228;0.24320984;-2.2163544;-;-;-;-;-;-;-;-;-;-;-;-;-;-;-
1514177884343;-;-;8.863831;0.27671814;-2.084671;-;-;-;-;-;-;-;-;-;-;-;-;-;-;-
1514177884363;-;-;8.911713;0.34735107;-2.0152283;-;-;-;-;-;-;-;-;-;-;-;-;-;-;-
1514177884384;-;-;9.056564;0.2515869;-1.8404541;-;-;-;-;-;-;-;-;-;-;-;-;-;-;-
1514177884404;-;-;9.088882;0.1438446;-1.9386139;-;-;-;-;-;-;-;-;-;-;-;-;-;-;-
1514177884424;-;-;9.068527;0.08518982;-2.179245;-;-;-;-;-;-;-;-;-;-;-;-;-;-;-
1514177884445;-;-;9.037399;0.05645752;-2.2211304;-;-;-;-;-;-;-;-;-;-;-;-;-;-;-
1514177884465;-;-;9.0182495;0.17018127;-2.1708527;-;-;-;-;-;-;-;-;-;-;-;-;-;-;-
1514177884485;-;-;9.021835;0.2240448;-2.0116425;-;-;-;-;-;-;-;-;-;-;-;-;-;-;-
1514177884506;-;-;8.9991;0.13786316;-1.9972839;-;-;-;-;-;-;-;-;-;-;-;-;-;-;-
1514177884526;-;-;8.9991;0.15940857;-2.021225;-;-;-;-;-;-;-;-;-;-;-;-;-;-;-
1514177884546;-;-;8.971558;0.13186646;-2.0391846;-;-;-;-;-;-;-;-;-;-;-;-;-;-;-
1514177884566;-;-;9.00029;0.1953125;-2.053543;-;-;-;-;-;-;-;-;-;-;-;-;-;-;-
1514177884586;-;-;9.024231;0.23242188;-2.0822754;-;-;-;-;-;-;-;-;-;-;-;-;-;-;-
1514177884607;-;-;9.00029;0.1725769;-2.0750885;-;-;-;-;-;-;-;-;-;-;-;-;-;-;-
1514177884627;-;-;9.013458;0.14743042;-2.0307922;-;-;-;-;-;-;-;-;-;-;-;-;-;-;-
1514177884648;-;-;9.046982;0.17736816;-2.0798798;-;-;-;-;-;-;-;-;-;-;-;-;-;-;-
1514177884668;-;-;9.015854;0.17616272;-2.0870667;-;-;-;-;-;-;-;-;-;-;-;-;-;-;-
1514177884688;-;-;8.990723;0.22764587;-2.093048;-;-;-;-;-;-;-;-;-;-;-;-;-;-;-
1514177884708;-;-;8.950012;0.20489502;-2.1181793;-;-;-;-;-;-;-;-;-;-;-;-;-;-;-
1514177884729;-;-;9.026627;0.17855835;-2.1313477;-;-;-;-;-;-;-;-;-;-;-;-;-;-;-
1514177884748;-;-;9.013458;0.14624023;-2.151703;-;-;-;-;-;-;-;-;-;-;-;-;-;-;-
1514177884768;-;-;9.014664;0.1797638;-2.105011;-;-;-;-;-;-;-;-;-;-;-;-;-;-;-
1514177884788;-;-;8.98114;0.20968628;-2.0702972;-;-;-;-;-;-;-;-;-;-;-;-;-;-;-
1514177884808;-;-;8.98233;0.2635498;-2.08107;-;-;-;-;-;-;-;-;-;-;-;-;-;-;-
1514177884828;-;-;8.960785;0.23960876;-2.120575;-;-;-;-;-;-;-;-;-;-;-;-;-;-;-
1514177884848;-;-;8.976349;0.24440002;-2.1744537;-;-;-;-;-;-;-;-;-;-;-;-;-;-;-
1514177884869;-;-;9.023041;0.2527771;-2.1229706;-;-;-;-;-;-;-;-;-;-;-;-;-;-;-
1514177884889;-;-;9.015854;0.20249939;-2.128952;-;-;-;-;-;-;-;-;-;-;-;-;-;-;-
1514177884909;-;-;9.009872;0.19293213;-2.1768494;-;-;-;-;-;-;-;-;-;-;-;-;-;-;-
1514177884930;-;-;8.984726;0.22285461;-2.108612;-;-;-;-;-;-;-;-;-;-;-;-;-;-;-
1514177884950;-;-;8.988327;0.23841858;-2.0942383;-;-;-;-;-;-;-;-;-;-;-;-;-;-;-
1514177884970;-;-;8.9991;0.21087646;-2.0667114;-;-;-;-;-;-;-;-;-;-;-;-;-;-;-
1514177884991;-;-;9.008667;0.19891357;-2.124176;-;-;-;-;-;-;-;-;-;-;-;-;-;-;-
1514177885011;-;-;9.007477;0.22045898;-2.0702972;-;-;-;-;-;-;-;-;-;-;-;-;-;-;-
1514177885031;-;-;8.985931;0.20370483;-2.0858612;-;-;-;-;-;-;-;-;-;-;-;-;-;-;-
1514177885052;-;-;8.993118;0.17736816;-2.0942383;-;-;-;-;-;-;-;-;-;-;-;-;-;-;-
1514177885072;-;-;9.009872;0.20010376;-2.0595245;-;-;-;-;-;-;-;-;-;-;-;-;-;-;-
1514177885092;-;-;8.972763;0.1905365;-2.0870667;-;-;-;-;-;-;-;-;-;-;-;-;-;-;-
1514177885112;-;-;8.983536;0.16299438;-2.120575;-;-;-;-;-;-;-;-;-;-;-;-;-;-;-
1514177885133;-;-;9.013458;0.1438446;-2.0990295;-;-;-;-;-;-;-;-;-;-;-;-;-;-;-
1514177885153;-;-;9.002686;0.16299438;-2.0954437;-;-;-;-;-;-;-;-;-;-;-;-;-;-;-
1514177885173;-;-;9.013458;0.1618042;-2.0870667;-;-;-;-;-;-;-;-;-;-;-;-;-;-;-
1514177885194;-;-;9.006287;0.1905365;-2.1457214;-;-;-;-;-;-;-;-;-;-;-;-;-;-;-
1514177885214;-;-;8.9787445;0.16897583;-2.1624756;-;-;-;-;-;-;-;-;-;-;-;-;-;-;-
1514177885234;-;-;9.013458;0.1797638;-2.1038208;-;-;-;-;-;-;-;-;-;-;-;-;-;-;-
1514177885254;-;-;9.021835;0.14624023;-2.100235;-;-;-;-;-;-;-;-;-;-;-;-;-;-;-
1514177885275;-;-;8.9991;0.17616272;-2.0355835;-;-;-;-;-;-;-;-;-;-;-;-;-;-;-
1514177885295;-;-;8.976349;0.14503479;-2.0978394;-;-;-;-;-;-;-;-;-;-;-;-;-;-;-
1514177885315;-;-;8.997894;0.19770813;-2.0918427;-;-;-;-;-;-;-;-;-;-;-;-;-;-;-
1514177885335;-;-;9.008667;0.19770813;-2.148117;-;-;-;-;-;-;-;-;-;-;-;-;-;-;-
1514177885356;-;-;9.027832;0.17376709;-2.1433258;-;-;-;-;-;-;-;-;-;-;-;-;-;-;-
1514177885376;-;-;9.023041;0.17376709;-2.115799;-;-;-;-;-;-;-;-;-;-;-;-;-;-;-
1514177885396;-;-;9.027832;0.14624023;-2.057129;-;-;-;-;-;-;-;-;-;-;-;-;-;-;-
1514177885416;-;-;8.9991;0.17616272;-2.1098022;-;-;-;-;-;-;-;-;-;-;-;-;-;-;-
1514177885437;-;-;9.006287;0.19412231;-2.1337433;-;-;-;-;-;-;-;-;-;-;-;-;-;-;-
1514177885457;-;-;9.007477;0.18693542;-2.1409302;-;-;-;-;-;-;-;-;-;-;-;-;-;-;-
1514177885477;-;-;9.005081;0.18574524;-2.0822754;-;-;-;-;-;-;-;-;-;-;-;-;-;-;-
1514177885498;-;-;8.983536;0.16659546;-2.0834656;-;-;-;-;-;-;-;-;-;-;-;-;-;-;-
1514177885518;-;-;9.017059;0.14025879;-2.1193848;-;-;-;-;-;-;-;-;-;-;-;-;-;-;-
1514177885538;-;-;9.009872;0.19651794;-2.1277618;-;-;-;-;-;-;-;-;-;-;-;-;-;-;-
1514177885558;-;-;8.957199;0.23721313;-2.0990295;-;-;-;-;-;-;-;-;-;-;-;-;-;-;-
1514177885579;-;-;8.966782;0.21208191;-2.1074066;-;-;-;-;-;-;-;-;-;-;-;-;-;-;-
1514177885599;-;-;8.995499;0.18095398;-2.1169891;-;-;-;-;-;-;-;-;-;-;-;-;-;-;-
1514177885619;-;-;9.021835;0.1845398;-2.1696625;-;-;-;-;-;-;-;-;-;-;-;-;-;-;-
1514177885640;-;-;9.014664;0.1725769;-2.191208;-;-;-;-;-;-;-;-;-;-;-;-;-;-;-
1514177885659;-;-;9.012268;0.18574524;-2.1505127;-;-;-;-;-;-;-;-;-;-;-;-;-;-;-
1514177885680;-;-;8.993118;0.2192688;-2.1660767;-;-;-;-;-;-;-;-;-;-;-;-;-;-;-
1514177885700;-;-;9.001495;0.16539001;-2.1337433;-;-;-;-;-;-;-;-;-;-;-;-;-;-;-
1514177885720;-;-;8.969162;0.19891357;-2.1349487;-;-;-;-;-;-;-;-;-;-;-;-;-;-;-
1514177885741;-;-;8.955994;0.18933105;-2.1098022;-;-;-;-;-;-;-;-;-;-;-;-;-;-;-
1514177885761;-;-;8.967972;0.17616272;-2.1612854;-;-;-;-;-;-;-;-;-;-;-;-;-;-;-
1514177885781;-;-;8.988327;0.14982605;-2.1564941;-;-;-;-;-;-;-;-;-;-;-;-;-;-;-
1514177885801;-;-;9.007477;0.09236145;-2.1181793;-;-;-;-;-;-;-;-;-;-;-;-;-;-;-
1514177885821;-;-;9.021835;0.112716675;-2.0894623;-;-;-;-;-;-;-;-;-;-;-;-;-;-;-
1514177885842;-;-;9.012268;0.103149414;-2.1433258;-;-;-;-;-;-;-;-;-;-;-;-;-;-;-
1514177885862;-;-;8.9787445;0.17855835;-2.2091675;-;-;-;-;-;-;-;-;-;-;-;-;-;-;-
1514177885882;-;-;9.013458;0.18095398;-2.1552887;-;-;-;-;-;-;-;-;-;-;-;-;-;-;-
1514177885903;-;-;8.989517;0.1953125;-2.084671;-;-;-;-;-;-;-;-;-;-;-;-;-;-;-
1514177885923;-;-;9.002686;0.16419983;-2.076294;-;-;-;-;-;-;-;-;-;-;-;-;-;-;-
1514177885943;-;-;8.96199;0.13186646;-2.1552887;-;-;-;-;-;-;-;-;-;-;-;-;-;-;-
1514177885964;-;-;8.950012;0.1558075;-2.2402954;-;-;-;-;-;-;-;-;-;-;-;-;-;-;-
1514177885984;-;-;8.989517;0.1043396;-2.203186;-;-;-;-;-;-;-;-;-;-;-;-;-;-;-
1514177886004;-;-;9.033813;0.09715271;-2.1421204;-;-;-;-;-;-;-;-;-;-;-;-;-;-;-
1514177886025;-;-;9.0182495;0.083984375;-2.1385345;-;-;-;-;-;-;-;-;-;-;-;-;-;-;-
1514177886044;-;-;8.996704;0.13067627;-2.1505127;-;-;-;-;-;-;-;-;-;-;-;-;-;-;-
1514177886064;-;-;8.994308;0.1905365;-2.2091675;-;-;-;-;-;-;-;-;-;-;-;-;-;-;-
1514177886084;-;-;8.946426;0.18574524;-2.2019806;-;-;-;-;-;-;-;-;-;-;-;-;-;-;-
1514177886105;-;-;8.957199;0.20729065;-2.2139587;-;-;-;-;-;-;-;-;-;-;-;-;-;-;-
1514177886125;-;-;8.988327;0.1953125;-2.2259216;-;-;-;-;-;-;-;-;-;-;-;-;-;-;-
1514177886145;-;-;9.006287;0.16419983;-2.163681;-;-;-;-;-;-;-;-;-;-;-;-;-;-;-
1514177886166;-;-;8.959595;0.16539001;-2.1744537;-;-;-;-;-;-;-;-;-;-;-;-;-;-;-
1514177886186;-;-;8.975159;0.18693542;-2.172058;-;-;-;-;-;-;-;-;-;-;-;-;-;-;-
1514177886205;-;-;8.973953;0.17376709;-2.168457;-;-;-;-;-;-;-;-;-;-;-;-;-;-;-
1514177886226;-;-;8.9787445;0.18334961;-2.1947937;-;-;-;-;-;-;-;-;-;-;-;-;-;-;-
1514177886246;-;-;8.960785;0.20010376;-2.1828308;-;-;-;-;-;-;-;-;-;-;-;-;-;-;-
1514177886267;-;-;8.954803;0.22525024;-2.2163544;-;-;-;-;-;-;-;-;-;-;-;-;-;-;-
1514177886287;-;-;8.97995;0.21208191;-2.2223358;-;-;-;-;-;-;-;-;-;-;-;-;-;-;-
1514177886307;-;-;8.976349;0.1953125;-2.2223358;-;-;-;-;-;-;-;-;-;-;-;-;-;-;-
1514177886327;-;-;8.963181;0.21806335;-2.231903;-;-;-;-;-;-;-;-;-;-;-;-;-;-;-
1514177886348;-;-;8.987122;0.18933105;-2.2355042;-;-;-;-;-;-;-;-;-;-;-;-;-;-;-
1514177886369;-;-;8.987122;0.2013092;-2.2187347;-;-;-;-;-;-;-;-;-;-;-;-;-;-;-
1514177886389;-;-;8.975159;0.16897583;-2.2211304;-;-;-;-;-;-;-;-;-;-;-;-;-;-;-
1514177886409;-;-;8.948822;0.22164917;-2.2043762;-;-;-;-;-;-;-;-;-;-;-;-;-;-;-
1514177886430;-;-;8.930862;0.16659546;-2.148117;-;-;-;-;-;-;-;-;-;-;-;-;-;-;-
1514177886450;-;-;9.007477;0.12709045;-2.1373444;-;-;-;-;-;-;-;-;-;-;-;-;-;-;-
1514177886471;-;-;8.989517;0.11631775;-2.1804352;-;-;-;-;-;-;-;-;-;-;-;-;-;-;-
1514177886491;-;-;9.00029;0.074417114;-2.2594452;-;-;-;-;-;-;-;-;-;-;-;-;-;-;-
1514177886511;-;-;9.026627;0.12948608;-2.2558594;-;-;-;-;-;-;-;-;-;-;-;-;-;-;-
1514177886532;-;-;9.0182495;0.18095398;-2.2007904;-;-;-;-;-;-;-;-;-;-;-;-;-;-;-
1514177886552;-;-;8.984726;0.19891357;-2.191208;-;-;-;-;-;-;-;-;-;-;-;-;-;-;-
1514177886572;-;-;8.936844;0.20848083;-2.1672668;-;-;-;-;-;-;-;-;-;-;-;-;-;-;-
1514177886592;-;-;8.929672;0.18334961;-2.1959991;-;-;-;-;-;-;-;-;-;-;-;-;-;-;-
1514177886612;-;-;8.952408;0.1797638;-2.230713;-;-;-;-;-;-;-;-;-;-;-;-;-;-;-
1514177886632;-;-;8.957199;0.2348175;-2.2259216;-;-;-;-;-;-;-;-;-;-;-;-;-;-;-
1514177886653;-;-;8.988327;0.31143188;-2.2091675;-;-;-;-;-;-;-;-;-;-;-;-;-;-;-
1514177886673;-;-;8.970367;0.42755127;-2.2139587;-;-;-;-;-;-;-;-;-;-;-;-;-;-;-
1514177886693;-;-;8.971558;0.512558;-2.2007904;-;-;-;-;-;-;-;-;-;-;-;-;-;-;-
1514177886713;-;-;8.957199;0.4909973;-2.3157043;-;-;-;-;-;-;-;-;-;-;-;-;-;-;-
1514177886733;-;-;8.987122;0.3712921;-2.302536;-;-;-;-;-;-;-;-;-;-;-;-;-;-;-
1514177886754;-;-;8.996704;0.28271484;-2.2857819;-;-;-;-;-;-;-;-;-;-;-;-;-;-;-
1514177886774;-;-;8.987122;0.18095398;-2.263031;-;-;-;-;-;-;-;-;-;-;-;-;-;-;-
1514177886794;-;-;8.948822;0.2013092;-2.2163544;-;-;-;-;-;-;-;-;-;-;-;-;-;-;-
