TimeStamp[ms];Prox[Cm];Lux[lux];AccX[m/s^2];AccY[m/s^2];AccZ[m/s^2];GyroX[rad/s];GyroY[rad/s];GyroZ[rad/s];MagnX[uT];MagnY[uT];MagnZ[uT];OrienYaw[degrees];OrienPitch[degrees];OrienRoll[degrees];Press[Pa];Temp[C°];Batt[%];Lat;Lng;Speed[m/s]
1514180634565;-;-;9.012268;0.103149414;1.7005615;-;-;-;-;-;-;-;-;-;-;-;-;-;-;-
1514180634585;-;-;8.96199;-0.17817688;1.820282;-;-;-;-;-;-;-;-;-;-;-;-;-;-;-
1514180634603;-;-;8.966782;-0.40682983;1.8059082;-;-;-;-;-;-;-;-;-;-;-;-;-;-;-
1514180634624;-;-;8.716583;-0.2775421;1.6718292;-;-;-;-;-;-;-;-;-;-;-;-;-;-;-
1514180634644;-;-;8.854248;-0.16859436;1.6047974;-;-;-;-;-;-;-;-;-;-;-;-;-;-;-
1514180634665;-;-;9.019455;0.06364441;1.5988159;-;-;-;-;-;-;-;-;-;-;-;-;-;-;-
1514180634686;-;-;9.129578;-0.0045928955;1.7185211;-;-;-;-;-;-;-;-;-;-;-;-;-;-;-
1514180634707;-;-;9.424072;-0.0105896;2.5684662;-;-;-;-;-;-;-;-;-;-;-;-;-;-;-
1514180634727;-;-;8.772842;0.32580566;1.018219;-;-;-;-;-;-;-;-;-;-;-;-;-;-;-
1514180634746;-;-;8.857834;0.45509338;1.7664032;-;-;-;-;-;-;-;-;-;-;-;-;-;-;-
1514180634766;-;-;9.07811;0.17736816;1.7316895;-;-;-;-;-;-;-;-;-;-;-;-;-;-;-
1514180634787;-;-;9.246902;0.043289185;1.6658478;-;-;-;-;-;-;-;-;-;-;-;-;-;-;-
1514180634808;-;-;9.242111;0.03251648;1.6957703;-;-;-;-;-;-;-;-;-;-;-;-;-;-;-
1514180634839;-;-;9.541382;0.13546753;1.7328949;-;-;-;-;-;-;-;-;-;-;-;-;-;-;-
1514180634848;-;-;9.355835;0.06602478;1.8142853;-;-;-;-;-;-;-;-;-;-;-;-;-;-;-
1514180634867;-;-;9.4096985;-0.047698975;1.6646576;-;-;-;-;-;-;-;-;-;-;-;-;-;-;-
1514180634888;-;-;9.43364;-0.119522095;2.0585022;-;-;-;-;-;-;-;-;-;-;-;-;-;-;-
1514180634908;-;-;8.753693;-0.24880981;1.2301025;-;-;-;-;-;-;-;-;-;-;-;-;-;-;-
1514180634929;-;-;8.963181;0.009765625;1.488678;-;-;-;-;-;-;-;-;-;-;-;-;-;-;-
1514180634949;-;-;8.861435;0.56044006;0.8482361;-;-;-;-;-;-;-;-;-;-;-;-;-;-;-
1514180634968;-;-;8.574127;1.2595367;1.4360046;-;-;-;-;-;-;-;-;-;-;-;-;-;-;-
1514180634989;-;-;8.084518;3.2778473;-1.8153229;-;-;-;-;-;-;-;-;-;-;-;-;-;-;-
1514180635009;-;-;6.280487;0.51135254;3.4399567;-;-;-;-;-;-;-;-;-;-;-;-;-;-;-
1514180635030;-;-;7.767273;0.14624023;0.80752563;-;-;-;-;-;-;-;-;-;-;-;-;-;-;-
1514180635050;-;-;8.972763;0.06842041;0.37657166;-;-;-;-;-;-;-;-;-;-;-;-;-;-;-
1514180635071;-;-;7.829529;0.33059692;-1.2323303;-;-;-;-;-;-;-;-;-;-;-;-;-;-;-
1514180635091;-;-;6.494766;1.3900299;-1.535202;-;-;-;-;-;-;-;-;-;-;-;-;-;-;-
1514180635111;-;-;7.2309723;1.5612183;-1.7111664;-;-;-;-;-;-;-;-;-;-;-;-;-;-;-
1514180635132;-;-;11.2556305;1.698883;-1.8045502;-;-;-;-;-;-;-;-;-;-;-;-;-;-;-
1514180635153;-;-;13.344574;1.4450989;-1.8787689;-;-;-;-;-;-;-;-;-;-;-;-;-;-;-
1514180635172;-;-;14.150223;1.1829224;-1.8404541;-;-;-;-;-;-;-;-;-;-;-;-;-;-;-
1514180635193;-;-;10.301544;-0.02255249;-2.610199;-;-;-;-;-;-;-;-;-;-;-;-;-;-;-
1514180635213;-;-;8.56694;-0.069244385;-2.8256683;-;-;-;-;-;-;-;-;-;-;-;-;-;-;-
1514180635233;-;-;8.322739;-0.011779785;-1.7949677;-;-;-;-;-;-;-;-;-;-;-;-;-;-;-
1514180635254;-;-;8.590881;0.6286621;-2.0726929;-;-;-;-;-;-;-;-;-;-;-;-;-;-;-
1514180635274;-;-;8.963181;0.89323425;-2.4533691;-;-;-;-;-;-;-;-;-;-;-;-;-;-;-
1514180635295;-;-;8.745316;0.8525238;-2.4593658;-;-;-;-;-;-;-;-;-;-;-;-;-;-;-
1514180635314;-;-;8.809952;0.793869;-2.5192108;-;-;-;-;-;-;-;-;-;-;-;-;-;-;-
1514180635335;-;-;8.691437;0.85731506;-2.0619202;-;-;-;-;-;-;-;-;-;-;-;-;-;-;-
1514180635356;-;-;8.651932;1.0895538;-1.6405487;-;-;-;-;-;-;-;-;-;-;-;-;-;-;-
1514180635375;-;-;8.571732;1.5887451;-1.5040741;-;-;-;-;-;-;-;-;-;-;-;-;-;-;-
1514180635396;-;-;9.910095;1.9754028;-1.9912872;-;-;-;-;-;-;-;-;-;-;-;-;-;-;-
1514180635416;-;-;9.178665;1.1637726;-1.7758179;-;-;-;-;-;-;-;-;-;-;-;-;-;-;-
1514180635437;-;-;9.360626;1.2870789;-1.0934601;-;-;-;-;-;-;-;-;-;-;-;-;-;-;-
1514180635457;-;-;9.640747;1.9550629;-1.3640137;-;-;-;-;-;-;-;-;-;-;-;-;-;-;-
1514180635478;-;-;9.574905;2.1765137;-1.5375977;-;-;-;-;-;-;-;-;-;-;-;-;-;-;-
1514180635499;-;-;8.377808;1.9071808;-1.8548279;-;-;-;-;-;-;-;-;-;-;-;-;-;-;-
1514180635519;-;-;8.261688;2.0101166;-1.5447693;-;-;-;-;-;-;-;-;-;-;-;-;-;-;-
1514180635539;-;-;8.0928955;1.7790833;-1.7411041;-;-;-;-;-;-;-;-;-;-;-;-;-;-;-
1514180635560;-;-;9.148727;1.916748;-1.511261;-;-;-;-;-;-;-;-;-;-;-;-;-;-;-
1514180635579;-;-;9.402527;2.0256805;-0.535614;-;-;-;-;-;-;-;-;-;-;-;-;-;-;-
1514180635600;-;-;6.640808;2.7223969;-0.5128784;-;-;-;-;-;-;-;-;-;-;-;-;-;-;-
1514180635619;-;-;9.379776;2.5033264;-0.88757324;-;-;-;-;-;-;-;-;-;-;-;-;-;-;-
1514180635639;-;-;10.696579;0.6957092;-1.8560181;-;-;-;-;-;-;-;-;-;-;-;-;-;-;-
1514180635660;-;-;10.087265;0.3138275;-1.5172424;-;-;-;-;-;-;-;-;-;-;-;-;-;-;-
1514180635681;-;-;9.364212;0.7723236;-0.66729736;-;-;-;-;-;-;-;-;-;-;-;-;-;-;-
1514180635701;-;-;8.924881;-0.16500854;0.07609558;-;-;-;-;-;-;-;-;-;-;-;-;-;-;-
1514180635722;-;-;9.046982;1.3888245;-1.9051056;-;-;-;-;-;-;-;-;-;-;-;-;-;-;-
1514180635742;-;-;9.242111;1.9682312;-1.4442139;-;-;-;-;-;-;-;-;-;-;-;-;-;-;-
1514180635762;-;-;9.1918335;1.8604889;-0.27703857;-;-;-;-;-;-;-;-;-;-;-;-;-;-;-
1514180635782;-;-;9.868195;2.1681366;-0.17289734;-;-;-;-;-;-;-;-;-;-;-;-;-;-;-
1514180635803;-;-;11.030579;0.76394653;-2.16008;-;-;-;-;-;-;-;-;-;-;-;-;-;-;-
1514180635823;-;-;11.419632;0.09715271;-3.8707428;-;-;-;-;-;-;-;-;-;-;-;-;-;-;-
1514180635844;-;-;10.155502;2.600296;-4.492035;-;-;-;-;-;-;-;-;-;-;-;-;-;-;-
1514180635865;-;-;9.861008;0.3677063;-2.8735504;-;-;-;-;-;-;-;-;-;-;-;-;-;-;-
1514180635885;-;-;10.647507;0.2695465;-6.389435;-;-;-;-;-;-;-;-;-;-;-;-;-;-;-
1514180635906;-;-;9.705383;-2.8141937;-4.899048;-;-;-;-;-;-;-;-;-;-;-;-;-;-;-
1514180635925;-;-;7.166336;-1.5416718;-4.472885;-;-;-;-;-;-;-;-;-;-;-;-;-;-;-
1514180635946;-;-;5.8016357;-1.3226013;-4.9181976;-;-;-;-;-;-;-;-;-;-;-;-;-;-;-
1514180635966;-;-;7.0214844;-1.5416718;-2.2247314;-;-;-;-;-;-;-;-;-;-;-;-;-;-;-
1514180635986;-;-;10.102829;-1.6949005;-1.1413574;-;-;-;-;-;-;-;-;-;-;-;-;-;-;-
1514180636007;-;-;11.892487;-0.38287354;-2.5922394;-;-;-;-;-;-;-;-;-;-;-;-;-;-;-
1514180636027;-;-;9.371399;0.09954834;-2.0715027;-;-;-;-;-;-;-;-;-;-;-;-;-;-;-
1514180636048;-;-;7.5350494;1.1326447;-3.369156;-;-;-;-;-;-;-;-;-;-;-;-;-;-;-
1514180636068;-;-;5.9105835;0.9889984;-3.9078522;-;-;-;-;-;-;-;-;-;-;-;-;-;-;-
1514180636089;-;-;6.513916;0.6286621;-2.6173706;-;-;-;-;-;-;-;-;-;-;-;-;-;-;-
1514180636109;-;-;5.4125824;1.1410217;-3.0351715;-;-;-;-;-;-;-;-;-;-;-;-;-;-;-
1514180636130;-;-;6.549835;1.1494141;-2.5108337;-;-;-;-;-;-;-;-;-;-;-;-;-;-;-
1514180636150;-;-;6.541443;1.3122101;-2.6054077;-;-;-;-;-;-;-;-;-;-;-;-;-;-;-
1514180636171;-;-;7.7517242;1.7862701;-1.5771027;-;-;-;-;-;-;-;-;-;-;-;-;-;-;-
1514180636192;-;-;7.1531677;1.0847626;-1.3975372;-;-;-;-;-;-;-;-;-;-;-;-;-;-;-
1514180636212;-;-;7.078949;0.89682007;-1.1581116;-;-;-;-;-;-;-;-;-;-;-;-;-;-;-
1514180636233;-;-;10.87854;-2.1629639;-2.500061;-;-;-;-;-;-;-;-;-;-;-;-;-;-;-
1514180636253;-;-;10.161484;-0.08241272;-2.4318237;-;-;-;-;-;-;-;-;-;-;-;-;-;-;-
1514180636273;-;-;9.510254;-0.66659546;-3.0459442;-;-;-;-;-;-;-;-;-;-;-;-;-;-;-
1514180636295;-;-;9.588074;-0.2033081;-1.9577789;-;-;-;-;-;-;-;-;-;-;-;-;-;-;-
1514180636315;-;-;8.886566;0.83695984;-0.9725647;-;-;-;-;-;-;-;-;-;-;-;-;-;-;-
1514180636335;-;-;10.008255;0.20370483;-0.75349426;-;-;-;-;-;-;-;-;-;-;-;-;-;-;-
1514180636356;-;-;9.790375;-0.08958435;-1.143753;-;-;-;-;-;-;-;-;-;-;-;-;-;-;-
1514180636375;-;-;10.381744;-1.0664215;-4.2214966;-;-;-;-;-;-;-;-;-;-;-;-;-;-;-
1514180636396;-;-;9.728134;-1.7260284;-0.18367004;-;-;-;-;-;-;-;-;-;-;-;-;-;-;-
1514180636416;-;-;7.6272125;-0.92396545;-1.9302368;-;-;-;-;-;-;-;-;-;-;-;-;-;-;-
1514180636436;-;-;10.026215;-2.080368;-4.5171814;-;-;-;-;-;-;-;-;-;-;-;-;-;-;-
1514180636457;-;-;8.466385;-2.0707855;-3.9952393;-;-;-;-;-;-;-;-;-;-;-;-;-;-;-
1514180636476;-;-;6.312805;-1.491394;-3.6420898;-;-;-;-;-;-;-;-;-;-;-;-;-;-;-
1514180636497;-;-;7.427307;0.02293396;-2.4557648;-;-;-;-;-;-;-;-;-;-;-;-;-;-;-
1514180636517;-;-;9.509064;1.9801941;-2.9058838;-;-;-;-;-;-;-;-;-;-;-;-;-;-;-
1514180636538;-;-;12.015793;2.2770844;-3.8982697;-;-;-;-;-;-;-;-;-;-;-;-;-;-;-
1514180636558;-;-;14.049667;0.65141296;-3.8851013;-;-;-;-;-;-;-;-;-;-;-;-;-;-;-
1514180636579;-;-;14.31662;-0.5923767;-2.757431;-;-;-;-;-;-;-;-;-;-;-;-;-;-;-
1514180636599;-;-;12.139099;0.9782257;-2.136139;-;-;-;-;-;-;-;-;-;-;-;-;-;-;-
1514180636620;-;-;9.254074;1.6521912;-2.1026306;-;-;-;-;-;-;-;-;-;-;-;-;-;-;-
1514180636641;-;-;6.7653046;1.2954559;-1.792572;-;-;-;-;-;-;-;-;-;-;-;-;-;-;-
1514180636661;-;-;3.8862762;0.09236145;-0.8384857;-;-;-;-;-;-;-;-;-;-;-;-;-;-;-
1514180636681;-;-;1.8404388;-1.3034515;0.41488647;-;-;-;-;-;-;-;-;-;-;-;-;-;-;-
1514180636702;-;-;2.4892578;-1.1226959;0.87815857;-;-;-;-;-;-;-;-;-;-;-;-;-;-;-
1514180636722;-;-;4.9145813;-0.18655396;0.36819458;-;-;-;-;-;-;-;-;-;-;-;-;-;-;-
1514180636743;-;-;6.2816772;0.24081421;-0.45062256;-;-;-;-;-;-;-;-;-;-;-;-;-;-;-
1514180636763;-;-;7.288437;-0.16021729;-0.66729736;-;-;-;-;-;-;-;-;-;-;-;-;-;-;-
1514180636783;-;-;7.873825;-0.4666748;-0.7415161;-;-;-;-;-;-;-;-;-;-;-;-;-;-;-
1514180636804;-;-;8.2114105;0.17018127;-0.69721985;-;-;-;-;-;-;-;-;-;-;-;-;-;-;-
1514180636824;-;-;8.082123;1.4019928;-0.5439911;-;-;-;-;-;-;-;-;-;-;-;-;-;-;-
1514180636845;-;-;8.101273;2.2830658;-1.0886841;-;-;-;-;-;-;-;-;-;-;-;-;-;-;-
1514180636866;-;-;8.643555;1.932312;-2.0236206;-;-;-;-;-;-;-;-;-;-;-;-;-;-;-
1514180636885;-;-;9.516251;0.8046417;-2.7694092;-;-;-;-;-;-;-;-;-;-;-;-;-;-;-
1514180636906;-;-;9.699402;0.85372925;-2.5168152;-;-;-;-;-;-;-;-;-;-;-;-;-;-;-
1514180636926;-;-;10.373367;1.1386414;-2.0032654;-;-;-;-;-;-;-;-;-;-;-;-;-;-;-
1514180636946;-;-;10.400894;1.2739105;-2.603012;-;-;-;-;-;-;-;-;-;-;-;-;-;-;-
1514180636967;-;-;8.624405;1.0883636;-3.666031;-;-;-;-;-;-;-;-;-;-;-;-;-;-;-
1514180636987;-;-;7.066971;-0.14225769;-4.097;-;-;-;-;-;-;-;-;-;-;-;-;-;-;-
1514180637007;-;-;5.186325;-1.8816528;-5.4257813;-;-;-;-;-;-;-;-;-;-;-;-;-;-;-
1514180637028;-;-;6.1320343;-2.8225708;-4.2801514;-;-;-;-;-;-;-;-;-;-;-;-;-;-;-
1514180637049;-;-;9.299576;-2.135437;-2.4330292;-;-;-;-;-;-;-;-;-;-;-;-;-;-;-
1514180637069;-;-;12.221695;-0.47625732;-2.8484192;-;-;-;-;-;-;-;-;-;-;-;-;-;-;-
1514180637090;-;-;16.082336;0.01574707;-3.915039;-;-;-;-;-;-;-;-;-;-;-;-;-;-;-
1514180637111;-;-;18.619003;-1.2507782;-2.6209717;-;-;-;-;-;-;-;-;-;-;-;-;-;-;-
1514180637131;-;-;18.393951;-1.0376892;-1.3699951;-;-;-;-;-;-;-;-;-;-;-;-;-;-;-
1514180637151;-;-;16.463028;0.13905334;-1.5782928;-;-;-;-;-;-;-;-;-;-;-;-;-;-;-
1514180637172;-;-;10.870163;0.6573944;-1.2550812;-;-;-;-;-;-;-;-;-;-;-;-;-;-;-
1514180637191;-;-;6.3427277;0.5376892;-0.9234772;-;-;-;-;-;-;-;-;-;-;-;-;-;-;-
1514180637212;-;-;2.85318;-0.17936707;-1.0659332;-;-;-;-;-;-;-;-;-;-;-;-;-;-;-
1514180637232;-;-;1.4741211;-0.8605194;-1.1293793;-;-;-;-;-;-;-;-;-;-;-;-;-;-;-
1514180637252;-;-;2.7717743;-0.2715454;-1.5758972;-;-;-;-;-;-;-;-;-;-;-;-;-;-;-
1514180637273;-;-;4.5123596;0.24320984;-1.2095795;-;-;-;-;-;-;-;-;-;-;-;-;-;-;-
1514180637292;-;-;6.138031;0.02532959;-0.803772;-;-;-;-;-;-;-;-;-;-;-;-;-;-;-
1514180637313;-;-;7.4835663;-0.3541565;-0.3476715;-;-;-;-;-;-;-;-;-;-;-;-;-;-;-
1514180637333;-;-;8.32991;-0.7216644;-0.94981384;-;-;-;-;-;-;-;-;-;-;-;-;-;-;-
1514180637354;-;-;8.352661;-0.96707153;-2.3121185;-;-;-;-;-;-;-;-;-;-;-;-;-;-;-
1514180637373;-;-;8.122818;-1.1166992;-2.6664581;-;-;-;-;-;-;-;-;-;-;-;-;-;-;-
1514180637394;-;-;9.210983;-1.0568542;-1.4980927;-;-;-;-;-;-;-;-;-;-;-;-;-;-;-
1514180637414;-;-;8.736938;-1.5153351;-0.34527588;-;-;-;-;-;-;-;-;-;-;-;-;-;-;-
1514180637435;-;-;7.2190094;-1.5344849;-0.55477905;-;-;-;-;-;-;-;-;-;-;-;-;-;-;-
1514180637454;-;-;6.5869446;-0.2799225;-0.89234924;-;-;-;-;-;-;-;-;-;-;-;-;-;-;-
1514180637475;-;-;7.062195;0.8585205;-3.5702667;-;-;-;-;-;-;-;-;-;-;-;-;-;-;-
1514180637494;-;-;9.902908;1.6222687;-7.4009857;-;-;-;-;-;-;-;-;-;-;-;-;-;-;-
1514180637514;-;-;12.113953;2.7283783;-7.120865;-;-;-;-;-;-;-;-;-;-;-;-;-;-;-
1514180637535;-;-;13.90123;4.267853;-3.322464;-;-;-;-;-;-;-;-;-;-;-;-;-;-;-
1514180637556;-;-;14.989395;4.3349;-0.37879944;-;-;-;-;-;-;-;-;-;-;-;-;-;-;-
1514180637575;-;-;14.954666;4.386368;-2.6078033;-;-;-;-;-;-;-;-;-;-;-;-;-;-;-
1514180637596;-;-;16.999329;2.8983765;-5.0869904;-;-;-;-;-;-;-;-;-;-;-;-;-;-;-
1514180637616;-;-;14.172974;0.52212524;-2.898697;-;-;-;-;-;-;-;-;-;-;-;-;-;-;-
1514180637637;-;-;9.993881;-0.01776123;-2.207962;-;-;-;-;-;-;-;-;-;-;-;-;-;-;-
1514180637657;-;-;7.1603546;-0.04888916;-1.9218597;-;-;-;-;-;-;-;-;-;-;-;-;-;-;-
1514180637677;-;-;5.85791;-0.11352539;-1.9481964;-;-;-;-;-;-;-;-;-;-;-;-;-;-;-
1514180637698;-;-;4.4285583;0.34735107;-1.6668854;-;-;-;-;-;-;-;-;-;-;-;-;-;-;-
1514180637718;-;-;3.498413;0.4874115;-0.4626007;-;-;-;-;-;-;-;-;-;-;-;-;-;-;-
1514180637739;-;-;3.9413452;-0.1530304;0.7069702;-;-;-;-;-;-;-;-;-;-;-;-;-;-;-
1514180637760;-;-;6.123657;-0.083602905;0.6926117;-;-;-;-;-;-;-;-;-;-;-;-;-;-;-
1514180637780;-;-;6.790451;0.34495544;-0.9641876;-;-;-;-;-;-;-;-;-;-;-;-;-;-;-
1514180637799;-;-;6.37146;0.89682007;-1.3113403;-;-;-;-;-;-;-;-;-;-;-;-;-;-;-
1514180637820;-;-;5.6855164;1.0392761;-0.63139343;-;-;-;-;-;-;-;-;-;-;-;-;-;-;-
1514180637841;-;-;6.886215;0.77830505;-0.7810211;-;-;-;-;-;-;-;-;-;-;-;-;-;-;-
1514180637860;-;-;8.015076;0.93273926;-2.5383606;-;-;-;-;-;-;-;-;-;-;-;-;-;-;-
1514180637881;-;-;9.082901;1.813797;-3.203949;-;-;-;-;-;-;-;-;-;-;-;-;-;-;-
1514180637901;-;-;8.659119;2.6541595;-1.3233032;-;-;-;-;-;-;-;-;-;-;-;-;-;-;-
1514180637922;-;-;8.158737;2.4446716;-2.2857819;-;-;-;-;-;-;-;-;-;-;-;-;-;-;-
1514180637942;-;-;7.549408;1.6282501;-3.590622;-;-;-;-;-;-;-;-;-;-;-;-;-;-;-
1514180637962;-;-;6.412155;0.9889984;-4.9720764;-;-;-;-;-;-;-;-;-;-;-;-;-;-;-
1514180637983;-;-;4.403427;0.2300415;-5.7202606;-;-;-;-;-;-;-;-;-;-;-;-;-;-;-
1514180638004;-;-;3.6600342;-0.77433777;-4.323242;-;-;-;-;-;-;-;-;-;-;-;-;-;-;-
1514180638024;-;-;9.863403;-0.16381836;-2.4090881;-;-;-;-;-;-;-;-;-;-;-;-;-;-;-
1514180638044;-;-;16.636597;1.2595367;-7.1867065;-;-;-;-;-;-;-;-;-;-;-;-;-;-;-
1514180638064;-;-;22.120514;1.4965668;-4.004822;-;-;-;-;-;-;-;-;-;-;-;-;-;-;-
1514180638085;-;-;19.704773;-2.9446716;-3.6396942;-;-;-;-;-;-;-;-;-;-;-;-;-;-;-
1514180638106;-;-;19.263046;-4.824127;-4.5064087;-;-;-;-;-;-;-;-;-;-;-;-;-;-;-
1514180638125;-;-;18.719559;-4.4781647;-1.5543518;-;-;-;-;-;-;-;-;-;-;-;-;-;-;-
1514180638146;-;-;10.166275;-1.3417511;0.7249298;-;-;-;-;-;-;-;-;-;-;-;-;-;-;-
1514180638167;-;-;5.253372;1.0237122;-0.46139526;-;-;-;-;-;-;-;-;-;-;-;-;-;-;-
1514180638187;-;-;2.3013153;2.2112427;-1.9888916;-;-;-;-;-;-;-;-;-;-;-;-;-;-;-
1514180638207;-;-;3.5271454;1.6019135;-1.950592;-;-;-;-;-;-;-;-;-;-;-;-;-;-;-
1514180638228;-;-;6.5402527;0.44192505;-1.2969818;-;-;-;-;-;-;-;-;-;-;-;-;-;-;-
1514180638247;-;-;7.2441406;-0.98143005;-1.337677;-;-;-;-;-;-;-;-;-;-;-;-;-;-;-
1514180638267;-;-;7.0286713;-2.0289001;-1.3855591;-;-;-;-;-;-;-;-;-;-;-;-;-;-;-
1514180638288;-;-;6.640808;-1.8960114;-1.2885895;-;-;-;-;-;-;-;-;-;-;-;-;-;-;-
1514180638309;-;-;5.837555;-1.2411957;-1.5040741;-;-;-;-;-;-;-;-;-;-;-;-;-;-;-
1514180638329;-;-;5.4281464;-1.1765594;-1.148529;-;-;-;-;-;-;-;-;-;-;-;-;-;-;-
1514180638350;-;-;7.0765533;-1.2711334;-0.4338684;-;-;-;-;-;-;-;-;-;-;-;-;-;-;-
1514180638369;-;-;9.293579;-1.249588;-0.7846222;-;-;-;-;-;-;-;-;-;-;-;-;-;-;-
1514180638389;-;-;8.6423645;-1.9187622;-1.377182;-;-;-;-;-;-;-;-;-;-;-;-;-;-;-
1514180638410;-;-;6.715027;-2.0731812;-1.9577789;-;-;-;-;-;-;-;-;-;-;-;-;-;-;-
1514180638431;-;-;5.85791;-0.9934082;-1.7063904;-;-;-;-;-;-;-;-;-;-;-;-;-;-;-
1514180638452;-;-;6.7090454;1.5983276;-2.8544006;-;-;-;-;-;-;-;-;-;-;-;-;-;-;-
1514180638472;-;-;8.903336;3.6848755;-6.4588776;-;-;-;-;-;-;-;-;-;-;-;-;-;-;-
1514180638492;-;-;10.991074;4.3408813;-6.947296;-;-;-;-;-;-;-;-;-;-;-;-;-;-;-
1514180638513;-;-;15.559204;3.197647;-2.539566;-;-;-;-;-;-;-;-;-;-;-;-;-;-;-
1514180638533;-;-;17.698425;2.8828125;-0.91389465;-;-;-;-;-;-;-;-;-;-;-;-;-;-;-
1514180638553;-;-;16.521683;2.2818604;-4.1748047;-;-;-;-;-;-;-;-;-;-;-;-;-;-;-
1514180638574;-;-;16.321762;3.328125;-4.9253845;-;-;-;-;-;-;-;-;-;-;-;-;-;-;-
1514180638594;-;-;13.588776;1.9993439;-3.2721863;-;-;-;-;-;-;-;-;-;-;-;-;-;-;-
1514180638615;-;-;9.798767;1.1541901;-2.2750092;-;-;-;-;-;-;-;-;-;-;-;-;-;-;-
1514180638635;-;-;8.912903;0.9854126;-2.057129;-;-;-;-;-;-;-;-;-;-;-;-;-;-;-
1514180638655;-;-;6.4564514;0.5664215;-1.8272858;-;-;-;-;-;-;-;-;-;-;-;-;-;-;-
1514180638676;-;-;3.76297;0.13186646;-1.4394226;-;-;-;-;-;-;-;-;-;-;-;-;-;-;-
1514180638697;-;-;2.9226074;-0.09916687;-0.94143677;-;-;-;-;-;-;-;-;-;-;-;-;-;-;-
1514180638716;-;-;3.8012848;0.05645752;-1.0491791;-;-;-;-;-;-;-;-;-;-;-;-;-;-;-
1514180638737;-;-;5.5789795;0.9854126;-0.9115143;-;-;-;-;-;-;-;-;-;-;-;-;-;-;-
1514180638757;-;-;6.0326843;1.600708;-1.1593018;-;-;-;-;-;-;-;-;-;-;-;-;-;-;-
1514180638777;-;-;5.8160095;0.7328186;-1.1772614;-;-;-;-;-;-;-;-;-;-;-;-;-;-;-
1514180638797;-;-;5.8806458;0.043289185;-1.5088654;-;-;-;-;-;-;-;-;-;-;-;-;-;-;-
1514180638818;-;-;6.4875793;0.03730774;-1.9565735;-;-;-;-;-;-;-;-;-;-;-;-;-;-;-
1514180638838;-;-;7.557785;0.74838257;-1.1676941;-;-;-;-;-;-;-;-;-;-;-;-;-;-;-
1514180638859;-;-;8.423294;1.635437;0.18144226;-;-;-;-;-;-;-;-;-;-;-;-;-;-;-
1514180638880;-;-;9.011063;2.4829865;-0.7235565;-;-;-;-;-;-;-;-;-;-;-;-;-;-;-
1514180638900;-;-;8.88298;2.3884125;-4.1101685;-;-;-;-;-;-;-;-;-;-;-;-;-;-;-
1514180638921;-;-;8.126404;0.8237915;-3.2602234;-;-;-;-;-;-;-;-;-;-;-;-;-;-;-
1514180638941;-;-;6.546234;0.38327026;-2.6616669;-;-;-;-;-;-;-;-;-;-;-;-;-;-;-
1514180638961;-;-;5.240204;-0.038116455;-4.6093597;-;-;-;-;-;-;-;-;-;-;-;-;-;-;-
1514180638982;-;-;4.865509;-1.0795898;-5.2498016;-;-;-;-;-;-;-;-;-;-;-;-;-;-;-
1514180639003;-;-;7.9264984;-1.2687378;-2.365982;-;-;-;-;-;-;-;-;-;-;-;-;-;-;-
1514180639022;-;-;12.1367035;-1.4494934;-2.7897644;-;-;-;-;-;-;-;-;-;-;-;-;-;-;-
1514180639042;-;-;16.617447;-0.3864746;-6.373886;-;-;-;-;-;-;-;-;-;-;-;-;-;-;-
1514180639063;-;-;24.825974;-1.2819061;-1.4059143;-;-;-;-;-;-;-;-;-;-;-;-;-;-;-
1514180639083;-;-;23.583374;-4.075943;-4.9050293;-;-;-;-;-;-;-;-;-;-;-;-;-;-;-
1514180639104;-;-;17.645752;-2.0947418;-2.4593658;-;-;-;-;-;-;-;-;-;-;-;-;-;-;-
1514180639124;-;-;10.588852;-0.7815094;-0.24472046;-;-;-;-;-;-;-;-;-;-;-;-;-;-;-
1514180639145;-;-;5.1887207;-0.34217834;-0.8025665;-;-;-;-;-;-;-;-;-;-;-;-;-;-;-
1514180639165;-;-;1.5220032;-0.030929565;-2.3157043;-;-;-;-;-;-;-;-;-;-;-;-;-;-;-
1514180639186;-;-;2.2857513;-0.22247314;-2.012848;-;-;-;-;-;-;-;-;-;-;-;-;-;-;-
1514180639206;-;-;5.8830414;-0.100372314;-2.962143;-;-;-;-;-;-;-;-;-;-;-;-;-;-;-
1514180639227;-;-;8.384979;1.4127655;-3.3919067;-;-;-;-;-;-;-;-;-;-;-;-;-;-;-
1514180639248;-;-;8.130005;1.6893005;-1.7063904;-;-;-;-;-;-;-;-;-;-;-;-;-;-;-
1514180639268;-;-;6.0099335;0.83695984;-1.2323303;-;-;-;-;-;-;-;-;-;-;-;-;-;-;-
1514180639289;-;-;4.4991913;-0.31344604;-1.2802124;-;-;-;-;-;-;-;-;-;-;-;-;-;-;-
1514180639308;-;-;5.1240845;-1.0496674;-1.768631;-;-;-;-;-;-;-;-;-;-;-;-;-;-;-
1514180639329;-;-;7.1088715;-0.41400146;-1.713562;-;-;-;-;-;-;-;-;-;-;-;-;-;-;-
1514180639349;-;-;8.906921;0.0025787354;-2.128952;-;-;-;-;-;-;-;-;-;-;-;-;-;-;-
1514180639368;-;-;10.110001;-0.07762146;-1.9697418;-;-;-;-;-;-;-;-;-;-;-;-;-;-;-
1514180639389;-;-;10.195007;-1.6446228;-1.3831635;-;-;-;-;-;-;-;-;-;-;-;-;-;-;-
1514180639410;-;-;8.817139;-2.9602356;-1.8763733;-;-;-;-;-;-;-;-;-;-;-;-;-;-;-
1514180639431;-;-;5.9548645;-0.77552795;-2.859192;-;-;-;-;-;-;-;-;-;-;-;-;-;-;-
1514180639450;-;-;4.9864197;1.3146057;-5.5814056;-;-;-;-;-;-;-;-;-;-;-;-;-;-;-
1514180639471;-;-;6.1667633;3.9973145;-5.9752502;-;-;-;-;-;-;-;-;-;-;-;-;-;-;-
1514180639491;-;-;8.225769;4.011673;-3.4625244;-;-;-;-;-;-;-;-;-;-;-;-;-;-;-
1514180639511;-;-;10.569687;3.4921417;-3.6420898;-;-;-;-;-;-;-;-;-;-;-;-;-;-;-
1514180639532;-;-;16.506119;0.5053711;-1.6273804;-;-;-;-;-;-;-;-;-;-;-;-;-;-;-
1514180639552;-;-;17.393173;0.59394836;-5.583786;-;-;-;-;-;-;-;-;-;-;-;-;-;-;-
1514180639573;-;-;19.966934;1.7958374;-6.3750763;-;-;-;-;-;-;-;-;-;-;-;-;-;-;-
1514180639594;-;-;15.808212;1.655777;-4.843979;-;-;-;-;-;-;-;-;-;-;-;-;-;-;-
1514180639614;-;-;8.595673;1.9023895;-1.9685516;-;-;-;-;-;-;-;-;-;-;-;-;-;-;-
1514180639634;-;-;4.0299377;1.7359924;-0.9546051;-;-;-;-;-;-;-;-;-;-;-;-;-;-;-
1514180639655;-;-;1.8643799;1.8545074;-1.531601;-;-;-;-;-;-;-;-;-;-;-;-;-;-;-
1514180639675;-;-;2.67482;1.8760529;-1.1892395;-;-;-;-;-;-;-;-;-;-;-;-;-;-;-
1514180639696;-;-;4.41539;1.082367;-1.3029633;-;-;-;-;-;-;-;-;-;-;-;-;-;-;-
1514180639715;-;-;6.173935;-0.5899811;-1.0360107;-;-;-;-;-;-;-;-;-;-;-;-;-;-;-
1514180639736;-;-;8.016281;-1.4387207;0.51423645;-;-;-;-;-;-;-;-;-;-;-;-;-;-;-
1514180639756;-;-;8.527435;0.064834595;-0.93185425;-;-;-;-;-;-;-;-;-;-;-;-;-;-;-
1514180639777;-;-;8.432861;0.85372925;-2.9812927;-;-;-;-;-;-;-;-;-;-;-;-;-;-;-
1514180639797;-;-;7.9181213;0.23123169;-2.7418823;-;-;-;-;-;-;-;-;-;-;-;-;-;-;-
1514180639818;-;-;7.708618;-0.21289063;-1.4071045;-;-;-;-;-;-;-;-;-;-;-;-;-;-;-
1514180639839;-;-;8.82193;0.32460022;-1.9302368;-;-;-;-;-;-;-;-;-;-;-;-;-;-;-
1514180639859;-;-;9.507858;1.5252991;-3.9126434;-;-;-;-;-;-;-;-;-;-;-;-;-;-;-
1514180639879;-;-;8.320343;2.3836212;-2.5144196;-;-;-;-;-;-;-;-;-;-;-;-;-;-;-
1514180639900;-;-;5.941696;2.5548096;-1.5806885;-;-;-;-;-;-;-;-;-;-;-;-;-;-;-
1514180639921;-;-;4.7565765;1.8604889;-4.092209;-;-;-;-;-;-;-;-;-;-;-;-;-;-;-
1514180639941;-;-;4.117325;0.040893555;-5.765747;-;-;-;-;-;-;-;-;-;-;-;-;-;-;-
1514180639961;-;-;4.624893;-0.5672302;-5.048691;-;-;-;-;-;-;-;-;-;-;-;-;-;-;-
1514180639982;-;-;8.728546;-0.7120819;-2.484497;-;-;-;-;-;-;-;-;-;-;-;-;-;-;-
1514180640002;-;-;13.3984375;-1.483017;-5.784912;-;-;-;-;-;-;-;-;-;-;-;-;-;-;-
1514180640023;-;-;19.823288;1.2200317;-2.3683777;-;-;-;-;-;-;-;-;-;-;-;-;-;-;-
1514180640042;-;-;21.387894;-0.8892517;-2.4019012;-;-;-;-;-;-;-;-;-;-;-;-;-;-;-
1514180640063;-;-;19.67723;-4.740326;-4.665619;-;-;-;-;-;-;-;-;-;-;-;-;-;-;-
1514180640082;-;-;15.875244;-2.2324066;-2.3300781;-;-;-;-;-;-;-;-;-;-;-;-;-;-;-
1514180640102;-;-;11.247253;-0.41999817;-1.4549866;-;-;-;-;-;-;-;-;-;-;-;-;-;-;-
1514180640123;-;-;7.4009705;0.16897583;-1.9051056;-;-;-;-;-;-;-;-;-;-;-;-;-;-;-
1514180640143;-;-;4.541092;0.122299194;-2.179245;-;-;-;-;-;-;-;-;-;-;-;-;-;-;-
1514180640164;-;-;3.7713623;-0.14346313;-1.432251;-;-;-;-;-;-;-;-;-;-;-;-;-;-;-
1514180640185;-;-;5.95607;-0.12310791;-1.0527649;-;-;-;-;-;-;-;-;-;-;-;-;-;-;-
1514180640204;-;-;7.075363;0.2515869;-1.5531616;-;-;-;-;-;-;-;-;-;-;-;-;-;-;-
1514180640225;-;-;6.778473;-0.09197998;-1.5172424;-;-;-;-;-;-;-;-;-;-;-;-;-;-;-
1514180640246;-;-;5.8758545;-1.091568;-1.392746;-;-;-;-;-;-;-;-;-;-;-;-;-;-;-
1514180640265;-;-;4.7338257;-1.641037;-0.9749603;-;-;-;-;-;-;-;-;-;-;-;-;-;-;-
1514180640286;-;-;5.082184;-1.9678345;-0.5463867;-;-;-;-;-;-;-;-;-;-;-;-;-;-;-
1514180640307;-;-;6.7329865;-1.724823;-1.1150208;-;-;-;-;-;-;-;-;-;-;-;-;-;-;-
1514180640327;-;-;8.5047;-1.1322632;-0.6517334;-;-;-;-;-;-;-;-;-;-;-;-;-;-;-
1514180640347;-;-;10.313507;-1.7954559;-0.79060364;-;-;-;-;-;-;-;-;-;-;-;-;-;-;-
1514180640368;-;-;8.4292755;-3.313385;-1.1221924;-;-;-;-;-;-;-;-;-;-;-;-;-;-;-
1514180640388;-;-;6.0685883;-3.337326;-1.5435791;-;-;-;-;-;-;-;-;-;-;-;-;-;-;-
1514180640409;-;-;4.2968903;-1.0317078;-2.9501648;-;-;-;-;-;-;-;-;-;-;-;-;-;-;-
1514180640429;-;-;4.4453278;1.556427;-4.5423126;-;-;-;-;-;-;-;-;-;-;-;-;-;-;-
1514180640450;-;-;8.867416;3.956604;-5.464081;-;-;-;-;-;-;-;-;-;-;-;-;-;-;-
1514180640469;-;-;13.668991;7.4246063;-5.18396;-;-;-;-;-;-;-;-;-;-;-;-;-;-;-
1514180640490;-;-;18.78659;7.755005;-4.180786;-;-;-;-;-;-;-;-;-;-;-;-;-;-;-
1514180640509;-;-;17.923477;3.510086;-4.226288;-;-;-;-;-;-;-;-;-;-;-;-;-;-;-
1514180640530;-;-;14.326202;-1.4818115;-3.2338867;-;-;-;-;-;-;-;-;-;-;-;-;-;-;-
1514180640549;-;-;12.738846;-3.01651;-2.551529;-;-;-;-;-;-;-;-;-;-;-;-;-;-;-
1514180640570;-;-;13.922775;-1.3453522;-2.0272064;-;-;-;-;-;-;-;-;-;-;-;-;-;-;-
1514180640590;-;-;13.224869;0.5161438;-3.2638092;-;-;-;-;-;-;-;-;-;-;-;-;-;-;-
1514180640611;-;-;8.466385;1.4498749;-1.7434998;-;-;-;-;-;-;-;-;-;-;-;-;-;-;-
1514180640631;-;-;4.0502777;0.9794159;-2.0068512;-;-;-;-;-;-;-;-;-;-;-;-;-;-;-
1514180640652;-;-;2.8627625;0.2300415;-2.0547333;-;-;-;-;-;-;-;-;-;-;-;-;-;-;-
1514180640672;-;-;4.111328;-0.26437378;-0.46618652;-;-;-;-;-;-;-;-;-;-;-;-;-;-;-
1514180640692;-;-;6.4528656;-0.045303345;1.12117;-;-;-;-;-;-;-;-;-;-;-;-;-;-;-
1514180640712;-;-;5.4520874;0.37727356;-0.8061676;-;-;-;-;-;-;-;-;-;-;-;-;-;-;-
1514180640733;-;-;4.204712;0.8381653;-0.8396759;-;-;-;-;-;-;-;-;-;-;-;-;-;-;-
1514180640753;-;-;4.307663;1.5145264;-1.0563507;-;-;-;-;-;-;-;-;-;-;-;-;-;-;-
1514180640773;-;-;5.715454;2.1465912;-1.3652039;-;-;-;-;-;-;-;-;-;-;-;-;-;-;-
1514180640794;-;-;7.1687317;2.2746887;-0.8289032;-;-;-;-;-;-;-;-;-;-;-;-;-;-;-
1514180640814;-;-;8.896149;1.7072601;-1.4597778;-;-;-;-;-;-;-;-;-;-;-;-;-;-;-
1514180640835;-;-;9.327103;0.68852234;-4.6249084;-;-;-;-;-;-;-;-;-;-;-;-;-;-;-
1514180640855;-;-;9.372589;2.4638214;-1.634552;-;-;-;-;-;-;-;-;-;-;-;-;-;-;-
1514180640876;-;-;10.62236;3.3820038;2.6390991;-;-;-;-;-;-;-;-;-;-;-;-;-;-;-
1514180640896;-;-;11.801514;1.5061493;1.5461426;-;-;-;-;-;-;-;-;-;-;-;-;-;-;-
1514180640917;-;-;9.33429;0.10913086;-4.888275;-;-;-;-;-;-;-;-;-;-;-;-;-;-;-
1514180640937;-;-;7.2704773;-2.5233002;-8.89856;-;-;-;-;-;-;-;-;-;-;-;-;-;-;-
1514180640958;-;-;8.582504;-5.31015;-8.187485;-;-;-;-;-;-;-;-;-;-;-;-;-;-;-
1514180640978;-;-;16.182892;-6.012848;-6.583374;-;-;-;-;-;-;-;-;-;-;-;-;-;-;-
1514180640999;-;-;22.015167;-1.4339294;-10.398529;-;-;-;-;-;-;-;-;-;-;-;-;-;-;-
1514180641020;-;-;21.640488;2.991745;-7.3219757;-;-;-;-;-;-;-;-;-;-;-;-;-;-;-
1514180641040;-;-;14.647018;3.884781;-5.6316833;-;-;-;-;-;-;-;-;-;-;-;-;-;-;-
1514180641060;-;-;11.724899;0.89323425;-3.0902252;-;-;-;-;-;-;-;-;-;-;-;-;-;-;-
1514180641081;-;-;8.50589;-1.2878876;-1.5723114;-;-;-;-;-;-;-;-;-;-;-;-;-;-;-
1514180641101;-;-;6.70665;-2.1294556;-0.9941101;-;-;-;-;-;-;-;-;-;-;-;-;-;-;-
1514180641121;-;-;5.7765045;-2.356903;-1.3113403;-;-;-;-;-;-;-;-;-;-;-;-;-;-;-
1514180641141;-;-;5.759735;-1.8648987;-2.5766754;-;-;-;-;-;-;-;-;-;-;-;-;-;-;-
1514180641161;-;-;5.513138;-0.67855835;-2.1505127;-;-;-;-;-;-;-;-;-;-;-;-;-;-;-
1514180641181;-;-;4.9708557;0.019348145;-1.6405487;-;-;-;-;-;-;-;-;-;-;-;-;-;-;-
1514180641202;-;-;4.41539;-0.15542603;-1.4729462;-;-;-;-;-;-;-;-;-;-;-;-;-;-;-
1514180641223;-;-;6.497162;-0.8497467;-1.322113;-;-;-;-;-;-;-;-;-;-;-;-;-;-;-
1514180641244;-;-;8.1874695;-0.6989136;-0.37879944;-;-;-;-;-;-;-;-;-;-;-;-;-;-;-
1514180641264;-;-;8.359848;-1.1621857;-0.32731628;-;-;-;-;-;-;-;-;-;-;-;-;-;-;-
1514180641286;-;-;7.949234;-2.6944885;-1.2562714;-;-;-;-;-;-;-;-;-;-;-;-;-;-;-
1514180641306;-;-;8.077332;-3.8221588;-2.1971893;-;-;-;-;-;-;-;-;-;-;-;-;-;-;-
1514180641326;-;-;9.73172;-3.1026917;-2.6221619;-;-;-;-;-;-;-;-;-;-;-;-;-;-;-
1514180641346;-;-;12.039734;-1.5213165;0.8829498;-;-;-;-;-;-;-;-;-;-;-;-;-;-;-
1514180641367;-;-;13.009384;-0.6941223;0.84584045;-;-;-;-;-;-;-;-;-;-;-;-;-;-;-
1514180641387;-;-;12.935165;-1.6051178;-6.366699;-;-;-;-;-;-;-;-;-;-;-;-;-;-;-
1514180641408;-;-;13.46907;-1.2424011;-11.5824585;-;-;-;-;-;-;-;-;-;-;-;-;-;-;-
1514180641429;-;-;12.544907;1.3014374;-7.23938;-;-;-;-;-;-;-;-;-;-;-;-;-;-;-
1514180641449;-;-;8.64476;2.3800354;-6.291275;-;-;-;-;-;-;-;-;-;-;-;-;-;-;-
1514180641470;-;-;5.234207;1.2128601;-6.1177063;-;-;-;-;-;-;-;-;-;-;-;-;-;-;-
1514180641490;-;-;6.497162;-0.5564575;-3.6636505;-;-;-;-;-;-;-;-;-;-;-;-;-;-;-
1514180641511;-;-;10.045364;-1.5584412;-3.8539886;-;-;-;-;-;-;-;-;-;-;-;-;-;-;-
1514180641532;-;-;12.966293;-2.4538574;-4.211914;-;-;-;-;-;-;-;-;-;-;-;-;-;-;-
1514180641552;-;-;12.969879;-2.087555;-3.6875916;-;-;-;-;-;-;-;-;-;-;-;-;-;-;-
1514180641573;-;-;11.563293;-0.7276459;-3.942566;-;-;-;-;-;-;-;-;-;-;-;-;-;-;-
1514180641593;-;-;8.983536;-0.047698975;-3.9317932;-;-;-;-;-;-;-;-;-;-;-;-;-;-;-
1514180641613;-;-;5.787277;-0.13508606;-4.125717;-;-;-;-;-;-;-;-;-;-;-;-;-;-;-
1514180641634;-;-;2.6843872;-0.4056244;-4.436966;-;-;-;-;-;-;-;-;-;-;-;-;-;-;-
1514180641654;-;-;2.3468018;-0.21289063;-4.132904;-;-;-;-;-;-;-;-;-;-;-;-;-;-;-
1514180641675;-;-;6.233795;1.121872;-3.6193542;-;-;-;-;-;-;-;-;-;-;-;-;-;-;-
1514180641696;-;-;9.594055;2.394394;-4.1664276;-;-;-;-;-;-;-;-;-;-;-;-;-;-;-
1514180641716;-;-;9.264847;2.1669464;-4.0874176;-;-;-;-;-;-;-;-;-;-;-;-;-;-;-
1514180641735;-;-;6.649185;1.7635193;-3.4134521;-;-;-;-;-;-;-;-;-;-;-;-;-;-;-
1514180641756;-;-;5.5430603;1.6414185;-2.00206;-;-;-;-;-;-;-;-;-;-;-;-;-;-;-
1514180641776;-;-;5.9824066;0.8908386;-2.0667114;-;-;-;-;-;-;-;-;-;-;-;-;-;-;-
1514180641795;-;-;7.150772;0.112716675;-2.697586;-;-;-;-;-;-;-;-;-;-;-;-;-;-;-
1514180641815;-;-;7.7960052;1.3098145;-4.0072174;-;-;-;-;-;-;-;-;-;-;-;-;-;-;-
1514180641836;-;-;8.659119;3.7339478;-3.8336334;-;-;-;-;-;-;-;-;-;-;-;-;-;-;-
1514180641856;-;-;8.970367;4.733536;-3.966507;-;-;-;-;-;-;-;-;-;-;-;-;-;-;-
1514180641877;-;-;9.546173;3.9781647;-1.98172;-;-;-;-;-;-;-;-;-;-;-;-;-;-;-
1514180641897;-;-;10.5720825;1.3493195;-1.1940308;-;-;-;-;-;-;-;-;-;-;-;-;-;-;-
1514180641918;-;-;11.809891;0.38087463;-3.8791199;-;-;-;-;-;-;-;-;-;-;-;-;-;-;-
1514180641938;-;-;12.040924;-1.9271393;-5.9644775;-;-;-;-;-;-;-;-;-;-;-;-;-;-;-
1514180641958;-;-;13.80545;-5.3077545;-5.171997;-;-;-;-;-;-;-;-;-;-;-;-;-;-;-
1514180641979;-;-;10.259644;-4.432678;-4.575836;-;-;-;-;-;-;-;-;-;-;-;-;-;-;-
1514180642000;-;-;7.6942596;-3.996933;-4.994812;-;-;-;-;-;-;-;-;-;-;-;-;-;-;-
1514180642020;-;-;5.4197693;-2.0121307;-5.1025543;-;-;-;-;-;-;-;-;-;-;-;-;-;-;-
1514180642040;-;-;6.565384;0.45269775;-5.046295;-;-;-;-;-;-;-;-;-;-;-;-;-;-;-
1514180642061;-;-;8.813553;1.9921722;-4.7422333;-;-;-;-;-;-;-;-;-;-;-;-;-;-;-
1514180642081;-;-;11.444778;2.0388489;-4.8583527;-;-;-;-;-;-;-;-;-;-;-;-;-;-;-
1514180642102;-;-;11.618347;1.1529999;-4.563858;-;-;-;-;-;-;-;-;-;-;-;-;-;-;-
1514180642123;-;-;10.270416;0.09236145;-3.8444061;-;-;-;-;-;-;-;-;-;-;-;-;-;-;-
1514180642143;-;-;8.200638;-1.443512;-2.7634277;-;-;-;-;-;-;-;-;-;-;-;-;-;-;-
1514180642164;-;-;6.3379364;-2.558014;-2.1816254;-;-;-;-;-;-;-;-;-;-;-;-;-;-;-
1514180642184;-;-;4.612915;-2.5652008;-1.5639343;-;-;-;-;-;-;-;-;-;-;-;-;-;-;-
1514180642205;-;-;3.229065;-1.6589966;-1.8643951;-;-;-;-;-;-;-;-;-;-;-;-;-;-;-
1514180642226;-;-;4.3423767;-0.21409607;-2.2618408;-;-;-;-;-;-;-;-;-;-;-;-;-;-;-
1514180642246;-;-;5.8555145;1.0189209;-2.5646973;-;-;-;-;-;-;-;-;-;-;-;-;-;-;-
1514180642267;-;-;7.3339233;1.6378326;-1.9374237;-;-;-;-;-;-;-;-;-;-;-;-;-;-;-
1514180642287;-;-;8.01149;1.8628845;-1.4861145;-;-;-;-;-;-;-;-;-;-;-;-;-;-;-
1514180642308;-;-;8.635178;1.3050385;-2.0272064;-;-;-;-;-;-;-;-;-;-;-;-;-;-;-
1514180642328;-;-;10.317108;0.124694824;-2.570694;-;-;-;-;-;-;-;-;-;-;-;-;-;-;-
1514180642350;-;-;12.803482;-0.7120819;-2.4821014;-;-;-;-;-;-;-;-;-;-;-;-;-;-;-
1514180642371;-;-;12.979462;-0.83299255;-2.4078827;-;-;-;-;-;-;-;-;-;-;-;-;-;-;-
1514180642390;-;-;11.483078;-1.5632172;-0.70680237;-;-;-;-;-;-;-;-;-;-;-;-;-;-;-
1514180642410;-;-;10.252457;-2.54245;-0.17170715;-;-;-;-;-;-;-;-;-;-;-;-;-;-;-
1514180642431;-;-;10.394913;-2.1126862;-2.1888123;-;-;-;-;-;-;-;-;-;-;-;-;-;-;-
1514180642451;-;-;10.961151;-0.97184753;-7.0753784;-;-;-;-;-;-;-;-;-;-;-;-;-;-;-
1514180642471;-;-;9.925659;-0.5827942;-6.4229584;-;-;-;-;-;-;-;-;-;-;-;-;-;-;-
1514180642492;-;-;6.838333;0.25038147;-7.1579742;-;-;-;-;-;-;-;-;-;-;-;-;-;-;-
1514180642512;-;-;4.6392517;2.4997406;-5.4437256;-;-;-;-;-;-;-;-;-;-;-;-;-;-;-
1514180642533;-;-;5.853119;2.8038025;-3.1213531;-;-;-;-;-;-;-;-;-;-;-;-;-;-;-
1514180642553;-;-;8.345474;0.19651794;-4.148468;-;-;-;-;-;-;-;-;-;-;-;-;-;-;-
1514180642574;-;-;13.667786;-3.3109894;-4.519577;-;-;-;-;-;-;-;-;-;-;-;-;-;-;-
1514180642593;-;-;16.032059;-3.2942352;-3.764206;-;-;-;-;-;-;-;-;-;-;-;-;-;-;-
1514180642613;-;-;13.524139;0.3174286;-3.472107;-;-;-;-;-;-;-;-;-;-;-;-;-;-;-
1514180642634;-;-;11.053314;0.92674255;-3.0507202;-;-;-;-;-;-;-;-;-;-;-;-;-;-;-
1514180642654;-;-;7.161545;1.0356903;-2.3911285;-;-;-;-;-;-;-;-;-;-;-;-;-;-;-
1514180642675;-;-;3.184784;0.769928;-1.9362335;-;-;-;-;-;-;-;-;-;-;-;-;-;-;-
1514180642695;-;-;1.1149902;0.86808777;-1.6560974;-;-;-;-;-;-;-;-;-;-;-;-;-;-;-
1514180642715;-;-;2.0427399;0.97702026;-1.8739777;-;-;-;-;-;-;-;-;-;-;-;-;-;-;-
1514180642736;-;-;5.2461853;0.79985046;-1.6130066;-;-;-;-;-;-;-;-;-;-;-;-;-;-;-
1514180642757;-;-;7.5003204;0.3677063;-0.31414795;-;-;-;-;-;-;-;-;-;-;-;-;-;-;-
1514180642777;-;-;7.238159;-0.1769867;-0.04121399;-;-;-;-;-;-;-;-;-;-;-;-;-;-;-
1514180642798;-;-;6.7449493;-0.9275665;-0.3835907;-;-;-;-;-;-;-;-;-;-;-;-;-;-;-
1514180642817;-;-;6.755722;-1.0628357;-0.9941101;-;-;-;-;-;-;-;-;-;-;-;-;-;-;-
1514180642839;-;-;7.4297028;-0.24641418;-1.6321564;-;-;-;-;-;-;-;-;-;-;-;-;-;-;-
1514180642859;-;-;6.9317017;1.288269;-1.4430237;-;-;-;-;-;-;-;-;-;-;-;-;-;-;-
1514180642879;-;-;6.0925293;2.7774658;-0.41351318;-;-;-;-;-;-;-;-;-;-;-;-;-;-;-
1514180642900;-;-;6.9340973;3.4358673;-0.73553467;-;-;-;-;-;-;-;-;-;-;-;-;-;-;-
1514180642920;-;-;9.084091;3.0803375;-2.586258;-;-;-;-;-;-;-;-;-;-;-;-;-;-;-
1514180642941;-;-;9.886154;2.102295;-4.4226074;-;-;-;-;-;-;-;-;-;-;-;-;-;-;-
1514180642961;-;-;8.393356;1.2296143;-3.3679657;-;-;-;-;-;-;-;-;-;-;-;-;-;-;-
1514180642982;-;-;7.0574036;0.41079712;-4.761383;-;-;-;-;-;-;-;-;-;-;-;-;-;-;-
1514180643001;-;-;6.0937347;-0.8066559;-6.1416473;-;-;-;-;-;-;-;-;-;-;-;-;-;-;-
1514180643024;-;-;9.141556;-2.5628052;-5.204315;-;-;-;-;-;-;-;-;-;-;-;-;-;-;-
1514180643042;-;-;15.453857;-4.408737;-6.281708;-;-;-;-;-;-;-;-;-;-;-;-;-;-;-
1514180643063;-;-;18.551956;-2.763916;-5.6208954;-;-;-;-;-;-;-;-;-;-;-;-;-;-;-
1514180643083;-;-;18.186844;2.3896027;-2.1265717;-;-;-;-;-;-;-;-;-;-;-;-;-;-;-
1514180643102;-;-;14.512939;2.433899;-2.6137848;-;-;-;-;-;-;-;-;-;-;-;-;-;-;-
1514180643123;-;-;10.9192505;-1.3285828;-2.646103;-;-;-;-;-;-;-;-;-;-;-;-;-;-;-
1514180643142;-;-;9.172684;-3.0308685;-1.492096;-;-;-;-;-;-;-;-;-;-;-;-;-;-;-
1514180643163;-;-;7.4057617;-2.7603302;-2.4066925;-;-;-;-;-;-;-;-;-;-;-;-;-;-;-
1514180643183;-;-;6.220627;-1.6494141;-2.3767548;-;-;-;-;-;-;-;-;-;-;-;-;-;-;-
1514180643203;-;-;5.631653;0.046875;-1.4645691;-;-;-;-;-;-;-;-;-;-;-;-;-;-;-
1514180643224;-;-;6.810791;1.2679291;-1.0228424;-;-;-;-;-;-;-;-;-;-;-;-;-;-;-
1514180643245;-;-;8.272461;1.9921722;-1.3795776;-;-;-;-;-;-;-;-;-;-;-;-;-;-;-
1514180643265;-;-;7.909729;1.4091797;-1.5986481;-;-;-;-;-;-;-;-;-;-;-;-;-;-;-
1514180643286;-;-;6.4803925;0.33299255;-1.4142914;-;-;-;-;-;-;-;-;-;-;-;-;-;-;-
1514180643306;-;-;5.853119;-0.5851898;-1.4502106;-;-;-;-;-;-;-;-;-;-;-;-;-;-;-
1514180643326;-;-;5.8878326;-0.3002777;-1.8189087;-;-;-;-;-;-;-;-;-;-;-;-;-;-;-
1514180643347;-;-;6.0614166;-0.16619873;-2.3803558;-;-;-;-;-;-;-;-;-;-;-;-;-;-;-
1514180643368;-;-;8.580109;-0.08241272;-1.8739777;-;-;-;-;-;-;-;-;-;-;-;-;-;-;-
1514180643387;-;-;10.615189;-0.6067352;-1.1688843;-;-;-;-;-;-;-;-;-;-;-;-;-;-;-
1514180643408;-;-;10.336258;-2.7148285;-1.6992035;-;-;-;-;-;-;-;-;-;-;-;-;-;-;-
1514180643429;-;-;6.0183105;-3.7407532;-3.915039;-;-;-;-;-;-;-;-;-;-;-;-;-;-;-
1514180643449;-;-;4.240616;-0.799469;-4.705124;-;-;-;-;-;-;-;-;-;-;-;-;-;-;-
1514180643469;-;-;5.4844055;3.501709;-2.151703;-;-;-;-;-;-;-;-;-;-;-;-;-;-;-
1514180643490;-;-;9.420471;6.3651733;-2.8328552;-;-;-;-;-;-;-;-;-;-;-;-;-;-;-
1514180643510;-;-;14.308243;5.213562;-7.0430603;-;-;-;-;-;-;-;-;-;-;-;-;-;-;-
1514180643530;-;-;17.630188;0.7076721;-1.5256195;-;-;-;-;-;-;-;-;-;-;-;-;-;-;-
1514180643550;-;-;16.287048;0.5305023;-3.7306824;-;-;-;-;-;-;-;-;-;-;-;-;-;-;-
1514180643571;-;-;14.861298;0.8010559;-5.307266;-;-;-;-;-;-;-;-;-;-;-;-;-;-;-
1514180643591;-;-;10.933609;0.71006775;-2.8376465;-;-;-;-;-;-;-;-;-;-;-;-;-;-;-
1514180643611;-;-;7.2238007;1.2930603;-0.6325836;-;-;-;-;-;-;-;-;-;-;-;-;-;-;-
1514180643632;-;-;4.090988;2.2746887;-0.0029144287;-;-;-;-;-;-;-;-;-;-;-;-;-;-;-
1514180643653;-;-;3.2266693;3.0324554;-0.496109;-;-;-;-;-;-;-;-;-;-;-;-;-;-;-
1514180643673;-;-;4.774521;2.5356445;-0.16931152;-;-;-;-;-;-;-;-;-;-;-;-;-;-;-
1514180643693;-;-;6.4612427;1.4989624;-1.3520355;-;-;-;-;-;-;-;-;-;-;-;-;-;-;-
1514180643714;-;-;8.559753;-0.21528625;-2.7023773;-;-;-;-;-;-;-;-;-;-;-;-;-;-;-
1514180643734;-;-;8.024658;-1.2411957;-1.2945862;-;-;-;-;-;-;-;-;-;-;-;-;-;-;-
1514180643755;-;-;6.412155;-1.902008;-0.60983276;-;-;-;-;-;-;-;-;-;-;-;-;-;-;-
1514180643775;-;-;6.5426483;-1.1885223;-0.5858917;-;-;-;-;-;-;-;-;-;-;-;-;-;-;-
1514180643796;-;-;7.928894;0.040893555;-1.2718353;-;-;-;-;-;-;-;-;-;-;-;-;-;-;-
1514180643816;-;-;9.129578;1.2224274;-1.6010437;-;-;-;-;-;-;-;-;-;-;-;-;-;-;-
1514180643837;-;-;9.445618;2.9247131;-2.2582397;-;-;-;-;-;-;-;-;-;-;-;-;-;-;-
1514180643857;-;-;7.8007965;3.1485596;-4.132904;-;-;-;-;-;-;-;-;-;-;-;-;-;-;-
1514180643878;-;-;3.7881165;1.8425293;-6.899414;-;-;-;-;-;-;-;-;-;-;-;-;-;-;-
1514180643898;-;-;1.228714;-0.48703003;-5.4712677;-;-;-;-;-;-;-;-;-;-;-;-;-;-;-
1514180643919;-;-;3.773758;-2.4251404;-3.3966827;-;-;-;-;-;-;-;-;-;-;-;-;-;-;-
1514180643939;-;-;11.098816;-3.028473;-3.3404236;-;-;-;-;-;-;-;-;-;-;-;-;-;-;-
1514180643960;-;-;18.520844;-0.60194397;-4.010803;-;-;-;-;-;-;-;-;-;-;-;-;-;-;-
1514180643980;-;-;23.215866;1.9598389;-4.967285;-;-;-;-;-;-;-;-;-;-;-;-;-;-;-
1514180644000;-;-;20.382324;-1.7391968;-3.409851;-;-;-;-;-;-;-;-;-;-;-;-;-;-;-
1514180644020;-;-;14.6949005;-3.1661377;-1.3484497;-;-;-;-;-;-;-;-;-;-;-;-;-;-;-
1514180644041;-;-;9.73172;-3.0727692;1.0613098;-;-;-;-;-;-;-;-;-;-;-;-;-;-;-
1514180644062;-;-;6.335541;-2.5951233;0.7859802;-;-;-;-;-;-;-;-;-;-;-;-;-;-;-
1514180644082;-;-;4.857132;-1.3836517;-0.8312988;-;-;-;-;-;-;-;-;-;-;-;-;-;-;-
1514180644103;-;-;4.781708;0.72084045;-1.2335358;-;-;-;-;-;-;-;-;-;-;-;-;-;-;-
1514180644122;-;-;5.711853;1.4941711;-1.5735016;-;-;-;-;-;-;-;-;-;-;-;-;-;-;-
1514180644142;-;-;7.9935303;1.6126862;-1.9194641;-;-;-;-;-;-;-;-;-;-;-;-;-;-;-
1514180644163;-;-;10.14473;0.89682007;-2.6233673;-;-;-;-;-;-;-;-;-;-;-;-;-;-;-
1514180644183;-;-;10.566101;-0.5600586;-3.4122467;-;-;-;-;-;-;-;-;-;-;-;-;-;-;-
1514180644204;-;-;9.087677;-1.4183655;-2.685608;-;-;-;-;-;-;-;-;-;-;-;-;-;-;-
1514180644224;-;-;8.209015;-0.9048157;-1.1868439;-;-;-;-;-;-;-;-;-;-;-;-;-;-;-
1514180644243;-;-;8.370621;-0.38287354;-1.2335358;-;-;-;-;-;-;-;-;-;-;-;-;-;-;-
1514180644264;-;-;8.678268;-0.8473511;-3.0064392;-;-;-;-;-;-;-;-;-;-;-;-;-;-;-
1514180644284;-;-;7.861847;-1.4818115;-4.045517;-;-;-;-;-;-;-;-;-;-;-;-;-;-;-
1514180644306;-;-;6.888611;-0.29908752;-2.9166565;-;-;-;-;-;-;-;-;-;-;-;-;-;-;-
1514180644327;-;-;5.981201;0.10194397;-1.5687103;-;-;-;-;-;-;-;-;-;-;-;-;-;-;-
1514180644347;-;-;4.8786774;0.6609955;-3.017212;-;-;-;-;-;-;-;-;-;-;-;-;-;-;-
1514180644369;-;-;5.059433;2.4087524;-3.9329834;-;-;-;-;-;-;-;-;-;-;-;-;-;-;-
1514180644389;-;-;7.317169;3.8584442;-3.6492767;-;-;-;-;-;-;-;-;-;-;-;-;-;-;-
1514180644409;-;-;10.520615;4.9741516;-5.551468;-;-;-;-;-;-;-;-;-;-;-;-;-;-;-
1514180644430;-;-;16.858063;0.68014526;-4.5459137;-;-;-;-;-;-;-;-;-;-;-;-;-;-;-
1514180644449;-;-;16.328949;-2.724411;-2.3839417;-;-;-;-;-;-;-;-;-;-;-;-;-;-;-
1514180644470;-;-;13.832993;-2.2395782;-3.4505615;-;-;-;-;-;-;-;-;-;-;-;-;-;-;-
1514180644491;-;-;11.325058;1.9909668;-6.3726807;-;-;-;-;-;-;-;-;-;-;-;-;-;-;-
1514180644511;-;-;9.565323;5.193222;-4.635681;-;-;-;-;-;-;-;-;-;-;-;-;-;-;-
1514180644531;-;-;10.428436;4.4330597;-3.3919067;-;-;-;-;-;-;-;-;-;-;-;-;-;-;-
1514180644552;-;-;9.245697;2.7236023;-1.9075012;-;-;-;-;-;-;-;-;-;-;-;-;-;-;-
1514180644572;-;-;6.2266083;0.7124634;-0.07952881;-;-;-;-;-;-;-;-;-;-;-;-;-;-;-
1514180644593;-;-;3.9856415;-1.6925049;0.77760315;-;-;-;-;-;-;-;-;-;-;-;-;-;-;-
1514180644614;-;-;2.904663;-2.3628845;1.4264374;-;-;-;-;-;-;-;-;-;-;-;-;-;-;-
1514180644633;-;-;4.3579407;-0.9550934;0.50346375;-;-;-;-;-;-;-;-;-;-;-;-;-;-;-
1514180644655;-;-;6.8838196;1.5336761;-0.7199707;-;-;-;-;-;-;-;-;-;-;-;-;-;-;-
1514180644674;-;-;6.6419983;1.3385468;-1.432251;-;-;-;-;-;-;-;-;-;-;-;-;-;-;-
1514180644695;-;-;6.319992;0.23841858;-1.2562714;-;-;-;-;-;-;-;-;-;-;-;-;-;-;-
1514180644715;-;-;7.2429504;0.5257263;-1.7327118;-;-;-;-;-;-;-;-;-;-;-;-;-;-;-
1514180644736;-;-;8.947617;2.4829865;-2.444992;-;-;-;-;-;-;-;-;-;-;-;-;-;-;-
1514180644756;-;-;9.385757;4.2271576;-2.5754852;-;-;-;-;-;-;-;-;-;-;-;-;-;-;-
1514180644777;-;-;7.7253876;4.2044067;-4.68956;-;-;-;-;-;-;-;-;-;-;-;-;-;-;-
1514180644797;-;-;6.1871033;1.4103699;-7.9013824;-;-;-;-;-;-;-;-;-;-;-;-;-;-;-
1514180644818;-;-;7.2668915;-2.5292816;-7.151993;-;-;-;-;-;-;-;-;-;-;-;-;-;-;-
1514180644838;-;-;9.816711;-4.4733734;-5.046295;-;-;-;-;-;-;-;-;-;-;-;-;-;-;-
1514180644860;-;-;14.472244;-3.1050873;-1.3640137;-;-;-;-;-;-;-;-;-;-;-;-;-;-;-
1514180644880;-;-;17.803772;0.21687317;-2.9633331;-;-;-;-;-;-;-;-;-;-;-;-;-;-;-
1514180644900;-;-;17.669693;1.8054199;-2.306137;-;-;-;-;-;-;-;-;-;-;-;-;-;-;-
1514180644920;-;-;16.82454;-1.7882843;-1.3831635;-;-;-;-;-;-;-;-;-;-;-;-;-;-;-
1514180644941;-;-;14.125076;-3.0787506;-1.234726;-;-;-;-;-;-;-;-;-;-;-;-;-;-;-
1514180644961;-;-;11.167053;-1.7787018;-1.0336151;-;-;-;-;-;-;-;-;-;-;-;-;-;-;-
1514180644982;-;-;8.225769;-0.6246948;-0.6888428;-;-;-;-;-;-;-;-;-;-;-;-;-;-;-
1514180645002;-;-;5.473633;-0.066848755;-2.0343933;-;-;-;-;-;-;-;-;-;-;-;-;-;-;-
1514180645023;-;-;3.782135;0.54248047;-3.1728363;-;-;-;-;-;-;-;-;-;-;-;-;-;-;-
1514180645043;-;-;4.196335;1.4798126;-1.313736;-;-;-;-;-;-;-;-;-;-;-;-;-;-;-
1514180645064;-;-;6.4792023;2.023285;-0.7056122;-;-;-;-;-;-;-;-;-;-;-;-;-;-;-
1514180645083;-;-;8.990723;1.4019928;-1.5579376;-;-;-;-;-;-;-;-;-;-;-;-;-;-;-
1514180645103;-;-;8.334702;0.052871704;-3.6815948;-;-;-;-;-;-;-;-;-;-;-;-;-;-;-
1514180645124;-;-;5.7333984;-0.97784424;-2.3216858;-;-;-;-;-;-;-;-;-;-;-;-;-;-;-
1514180645144;-;-;4.1867523;-1.4506989;-1.832077;-;-;-;-;-;-;-;-;-;-;-;-;-;-;-
1514180645165;-;-;4.748184;-1.0831909;-1.1605072;-;-;-;-;-;-;-;-;-;-;-;-;-;-;-
1514180645186;-;-;8.019867;-1.2819061;-0.6505432;-;-;-;-;-;-;-;-;-;-;-;-;-;-;-
1514180645206;-;-;9.067337;-3.2379608;-0.7056122;-;-;-;-;-;-;-;-;-;-;-;-;-;-;-
1514180645226;-;-;8.835098;-3.6114655;-0.9976959;-;-;-;-;-;-;-;-;-;-;-;-;-;-;-
1514180645247;-;-;8.214996;-1.6063232;-1.4310455;-;-;-;-;-;-;-;-;-;-;-;-;-;-;-
1514180645267;-;-;7.9863434;0.77830505;-2.527588;-;-;-;-;-;-;-;-;-;-;-;-;-;-;-
1514180645288;-;-;9.118805;2.9821625;-4.9876404;-;-;-;-;-;-;-;-;-;-;-;-;-;-;-
1514180645308;-;-;10.088455;4.0535736;-6.365494;-;-;-;-;-;-;-;-;-;-;-;-;-;-;-
1514180645329;-;-;13.337387;4.4282684;-6.041092;-;-;-;-;-;-;-;-;-;-;-;-;-;-;-
1514180645348;-;-;15.935104;2.79422;-0.8564453;-;-;-;-;-;-;-;-;-;-;-;-;-;-;-
1514180645368;-;-;14.49498;2.3105927;-3.8767242;-;-;-;-;-;-;-;-;-;-;-;-;-;-;-
1514180645389;-;-;15.689697;2.0280762;-7.659561;-;-;-;-;-;-;-;-;-;-;-;-;-;-;-
1514180645409;-;-;16.129028;2.71521;-4.3902893;-;-;-;-;-;-;-;-;-;-;-;-;-;-;-
1514180645430;-;-;11.997833;2.5643768;-3.405075;-;-;-;-;-;-;-;-;-;-;-;-;-;-;-
1514180645450;-;-;8.127609;2.3213654;-2.7322998;-;-;-;-;-;-;-;-;-;-;-;-;-;-;-
1514180645471;-;-;5.5861664;1.6581726;-2.1672668;-;-;-;-;-;-;-;-;-;-;-;-;-;-;-
1514180645491;-;-;4.308853;1.0847626;-2.0224152;-;-;-;-;-;-;-;-;-;-;-;-;-;-;-
1514180645511;-;-;3.5151825;0.24679565;-1.243103;-;-;-;-;-;-;-;-;-;-;-;-;-;-;-
1514180645532;-;-;3.5786285;-0.6522217;-0.05796814;-;-;-;-;-;-;-;-;-;-;-;-;-;-;-
1514180645552;-;-;3.9353638;-1.2807007;0.3095398;-;-;-;-;-;-;-;-;-;-;-;-;-;-;-
1514180645573;-;-;5.502365;-1.2795105;0.4579773;-;-;-;-;-;-;-;-;-;-;-;-;-;-;-
1514180645594;-;-;6.8323517;-0.5049896;-1.155716;-;-;-;-;-;-;-;-;-;-;-;-;-;-;-
1514180645614;-;-;7.9181213;-0.3876648;-2.184021;-;-;-;-;-;-;-;-;-;-;-;-;-;-;-
1514180645634;-;-;8.693832;-0.05607605;-2.804123;-;-;-;-;-;-;-;-;-;-;-;-;-;-;-
1514180645655;-;-;8.380188;0.40600586;-2.4773102;-;-;-;-;-;-;-;-;-;-;-;-;-;-;-
1514180645675;-;-;7.5122986;1.3397522;-0.9845276;-;-;-;-;-;-;-;-;-;-;-;-;-;-;-
1514180645696;-;-;6.9951477;2.3932037;-0.22317505;-;-;-;-;-;-;-;-;-;-;-;-;-;-;-
1514180645716;-;-;8.122818;3.0288544;-1.8895416;-;-;-;-;-;-;-;-;-;-;-;-;-;-;-
1514180645737;-;-;8.334702;2.9139404;-3.1847992;-;-;-;-;-;-;-;-;-;-;-;-;-;-;-
1514180645756;-;-;6.6779175;2.0711823;-3.393097;-;-;-;-;-;-;-;-;-;-;-;-;-;-;-
1514180645776;-;-;5.6939087;2.0771637;-4.7506104;-;-;-;-;-;-;-;-;-;-;-;-;-;-;-
1514180645797;-;-;5.9189606;0.9758301;-6.5139465;-;-;-;-;-;-;-;-;-;-;-;-;-;-;-
1514180645817;-;-;8.871002;0.23721313;-4.045517;-;-;-;-;-;-;-;-;-;-;-;-;-;-;-
1514180645838;-;-;11.796722;-1.2232513;-3.9365845;-;-;-;-;-;-;-;-;-;-;-;-;-;-;-
1514180645859;-;-;15.965027;-2.1557922;-4.4704895;-;-;-;-;-;-;-;-;-;-;-;-;-;-;-
1514180645879;-;-;19.504852;-1.8720703;-2.8448334;-;-;-;-;-;-;-;-;-;-;-;-;-;-;-
1514180645899;-;-;21.150864;-4.151352;-3.4218292;-;-;-;-;-;-;-;-;-;-;-;-;-;-;-
1514180645920;-;-;18.360428;-0.86531067;-3.6528625;-;-;-;-;-;-;-;-;-;-;-;-;-;-;-
1514180645940;-;-;13.445129;0.8716736;-0.9546051;-;-;-;-;-;-;-;-;-;-;-;-;-;-;-
1514180645961;-;-;9.707779;0.65141296;-1.1724701;-;-;-;-;-;-;-;-;-;-;-;-;-;-;-
1514180645982;-;-;6.1296387;-1.1226959;-1.8500366;-;-;-;-;-;-;-;-;-;-;-;-;-;-;-
1514180646002;-;-;4.0694427;-1.8876343;-1.7087708;-;-;-;-;-;-;-;-;-;-;-;-;-;-;-
1514180646022;-;-;4.6177063;-1.3034515;-1.4370422;-;-;-;-;-;-;-;-;-;-;-;-;-;-;-
1514180646042;-;-;5.8171997;0.512558;-1.9960785;-;-;-;-;-;-;-;-;-;-;-;-;-;-;-
1514180646063;-;-;6.260132;1.5779724;-2.0726929;-;-;-;-;-;-;-;-;-;-;-;-;-;-;-
1514180646082;-;-;5.723831;0.7627411;-2.223526;-;-;-;-;-;-;-;-;-;-;-;-;-;-;-
1514180646102;-;-;5.102539;-0.43914795;-2.5168152;-;-;-;-;-;-;-;-;-;-;-;-;-;-;-
1514180646123;-;-;4.597351;-1.3692932;-2.768219;-;-;-;-;-;-;-;-;-;-;-;-;-;-;-
1514180646144;-;-;4.5937653;-1.724823;-2.2606354;-;-;-;-;-;-;-;-;-;-;-;-;-;-;-
1514180646163;-;-;5.3623047;-0.8976288;-0.3764038;-;-;-;-;-;-;-;-;-;-;-;-;-;-;-
1514180646184;-;-;8.035431;-0.8760834;0.49987793;-;-;-;-;-;-;-;-;-;-;-;-;-;-;-
1514180646204;-;-;9.744888;-2.1366272;0.37298584;-;-;-;-;-;-;-;-;-;-;-;-;-;-;-
1514180646224;-;-;8.704605;-3.6820831;-1.3556366;-;-;-;-;-;-;-;-;-;-;-;-;-;-;-
1514180646245;-;-;6.795227;-3.713211;-3.1488953;-;-;-;-;-;-;-;-;-;-;-;-;-;-;-
1514180646265;-;-;5.3503265;-1.0879669;-4.8272247;-;-;-;-;-;-;-;-;-;-;-;-;-;-;-
1514180646286;-;-;6.8706512;2.1837006;-5.224655;-;-;-;-;-;-;-;-;-;-;-;-;-;-;-
1514180646307;-;-;10.171051;4.678467;-4.128113;-;-;-;-;-;-;-;-;-;-;-;-;-;-;-
1514180646328;-;-;15.252747;5.0771027;-6.630066;-;-;-;-;-;-;-;-;-;-;-;-;-;-;-
1514180646347;-;-;20.174026;2.2914429;-3.5331573;-;-;-;-;-;-;-;-;-;-;-;-;-;-;-
1514180646368;-;-;17.283035;0.8513336;-4.7973022;-;-;-;-;-;-;-;-;-;-;-;-;-;-;-
1514180646388;-;-;15.243179;0.28988647;-3.9605255;-;-;-;-;-;-;-;-;-;-;-;-;-;-;-
1514180646409;-;-;11.888901;-0.035720825;-2.562317;-;-;-;-;-;-;-;-;-;-;-;-;-;-;-
1514180646429;-;-;8.84227;0.26115417;-2.069107;-;-;-;-;-;-;-;-;-;-;-;-;-;-;-
1514180646450;-;-;7.0921173;0.6957092;-2.017624;-;-;-;-;-;-;-;-;-;-;-;-;-;-;-
1514180646469;-;-;5.2425995;1.6019135;-2.625763;-;-;-;-;-;-;-;-;-;-;-;-;-;-;-
1514180646490;-;-;3.26857;2.165741;-1.8177185;-;-;-;-;-;-;-;-;-;-;-;-;-;-;-
1514180646510;-;-;3.3882904;1.6366272;-0.13220215;-;-;-;-;-;-;-;-;-;-;-;-;-;-;-
1514180646530;-;-;6.4289246;0.833374;0.13116455;-;-;-;-;-;-;-;-;-;-;-;-;-;-;-
1514180646551;-;-;9.617996;0.848938;-0.7056122;-;-;-;-;-;-;-;-;-;-;-;-;-;-;-
1514180646571;-;-;10.608002;1.8844299;-1.7985535;-;-;-;-;-;-;-;-;-;-;-;-;-;-;-
1514180646592;-;-;9.33429;3.000122;-2.0008698;-;-;-;-;-;-;-;-;-;-;-;-;-;-;-
1514180646612;-;-;7.8869934;2.308197;-0.59547424;-;-;-;-;-;-;-;-;-;-;-;-;-;-;-
1514180646633;-;-;8.722565;0.49339294;-0.31176758;-;-;-;-;-;-;-;-;-;-;-;-;-;-;-
1514180646653;-;-;9.947205;0.21208191;-0.8564453;-;-;-;-;-;-;-;-;-;-;-;-;-;-;-
1514180646673;-;-;8.612427;1.2715149;-0.67448425;-;-;-;-;-;-;-;-;-;-;-;-;-;-;-
1514180646694;-;-;6.454056;2.5009308;-0.48893738;-;-;-;-;-;-;-;-;-;-;-;-;-;-;-
1514180646713;-;-;4.790085;3.1509552;-0.98931885;-;-;-;-;-;-;-;-;-;-;-;-;-;-;-
1514180646733;-;-;3.4684906;2.1130676;-1.3280945;-;-;-;-;-;-;-;-;-;-;-;-;-;-;-
1514180646754;-;-;2.1313324;0.21447754;-0.17529297;-;-;-;-;-;-;-;-;-;-;-;-;-;-;-
1514180646774;-;-;1.228714;-1.4614716;-1.6692657;-;-;-;-;-;-;-;-;-;-;-;-;-;-;-
1514180646794;-;-;7.9827576;-3.601883;-2.508438;-;-;-;-;-;-;-;-;-;-;-;-;-;-;-
1514180646815;-;-;17.022064;-6.467743;-9.391769;-;-;-;-;-;-;-;-;-;-;-;-;-;-;-
1514180646835;-;-;25.353882;-1.4566803;-7.6799164;-;-;-;-;-;-;-;-;-;-;-;-;-;-;-
1514180646856;-;-;29.020615;0.5927582;-7.817581;-;-;-;-;-;-;-;-;-;-;-;-;-;-;-
1514180646877;-;-;24.228607;-1.0628357;-4.76857;-;-;-;-;-;-;-;-;-;-;-;-;-;-;-
1514180646897;-;-;17.648148;-0.4774475;-3.8683472;-;-;-;-;-;-;-;-;-;-;-;-;-;-;-
1514180646918;-;-;7.971985;1.5205078;-0.8169403;-;-;-;-;-;-;-;-;-;-;-;-;-;-;-
1514180646938;-;-;5.0941467;1.3684845;-1.1545258;-;-;-;-;-;-;-;-;-;-;-;-;-;-;-
1514180646957;-;-;3.9700775;0.26834106;-1.9517822;-;-;-;-;-;-;-;-;-;-;-;-;-;-;-
1514180646977;-;-;5.2461853;-0.61750793;-2.0248108;-;-;-;-;-;-;-;-;-;-;-;-;-;-;-
1514180646998;-;-;5.6376343;-0.5169525;-1.9242554;-;-;-;-;-;-;-;-;-;-;-;-;-;-;-
1514180647017;-;-;5.1994934;-0.37091064;-1.5567474;-;-;-;-;-;-;-;-;-;-;-;-;-;-;-
1514180647038;-;-;4.4441223;-1.4734344;-0.34887695;-;-;-;-;-;-;-;-;-;-;-;-;-;-;-
1514180647057;-;-;4.0047913;-2.5161133;-0.5392151;-;-;-;-;-;-;-;-;-;-;-;-;-;-;-
1514180647078;-;-;5.237808;-2.3197937;-0.81933594;-;-;-;-;-;-;-;-;-;-;-;-;-;-;-
1514180647099;-;-;6.5677795;-1.2424011;-0.9581909;-;-;-;-;-;-;-;-;-;-;-;-;-;-;-
1514180647119;-;-;8.358643;-0.5361023;-0.8791809;-;-;-;-;-;-;-;-;-;-;-;-;-;-;-
1514180647139;-;-;10.569687;-0.8066559;-2.1265717;-;-;-;-;-;-;-;-;-;-;-;-;-;-;-
1514180647160;-;-;12.0816345;-0.99220276;-1.5687103;-;-;-;-;-;-;-;-;-;-;-;-;-;-;-
1514180647180;-;-;13.404434;-1.4327393;0.7967529;-;-;-;-;-;-;-;-;-;-;-;-;-;-;-
1514180647201;-;-;12.667007;-3.1062775;-0.15014648;-;-;-;-;-;-;-;-;-;-;-;-;-;-;-
1514180647222;-;-;10.554138;-3.586319;-7.2345886;-;-;-;-;-;-;-;-;-;-;-;-;-;-;-
1514180647242;-;-;10.115997;1.4103699;-8.352692;-;-;-;-;-;-;-;-;-;-;-;-;-;-;-
1514180647262;-;-;8.936844;4.114624;-7.4476776;-;-;-;-;-;-;-;-;-;-;-;-;-;-;-
1514180647282;-;-;7.6236267;3.3305206;-5.290497;-;-;-;-;-;-;-;-;-;-;-;-;-;-;-
1514180647303;-;-;9.438431;-0.21647644;-4.3507843;-;-;-;-;-;-;-;-;-;-;-;-;-;-;-
1514180647323;-;-;11.836227;-2.9757996;-5.175583;-;-;-;-;-;-;-;-;-;-;-;-;-;-;-
1514180647344;-;-;14.072403;-4.712799;-5.8423615;-;-;-;-;-;-;-;-;-;-;-;-;-;-;-
1514180647365;-;-;13.853348;-3.854477;-4.301697;-;-;-;-;-;-;-;-;-;-;-;-;-;-;-
1514180647385;-;-;11.156265;-0.8485565;-3.6564636;-;-;-;-;-;-;-;-;-;-;-;-;-;-;-
1514180647406;-;-;7.3303375;-0.22964478;-4.19635;-;-;-;-;-;-;-;-;-;-;-;-;-;-;-
1514180647426;-;-;2.8735352;0.1043396;-4.155655;-;-;-;-;-;-;-;-;-;-;-;-;-;-;-
1514180647446;-;-;1.0455627;0.038497925;-4.0598907;-;-;-;-;-;-;-;-;-;-;-;-;-;-;-
1514180647467;-;-;2.916626;-0.090789795;-4.3831024;-;-;-;-;-;-;-;-;-;-;-;-;-;-;-
1514180647488;-;-;6.922119;0.6107178;-4.35318;-;-;-;-;-;-;-;-;-;-;-;-;-;-;-
1514180647507;-;-;10.675034;1.5097351;-4.9170074;-;-;-;-;-;-;-;-;-;-;-;-;-;-;-
1514180647528;-;-;9.815521;2.7295837;-4.8739166;-;-;-;-;-;-;-;-;-;-;-;-;-;-;-
1514180647548;-;-;7.4284973;2.6290283;-4.420212;-;-;-;-;-;-;-;-;-;-;-;-;-;-;-
1514180647568;-;-;6.182312;2.287857;-3.5367432;-;-;-;-;-;-;-;-;-;-;-;-;-;-;-
1514180647589;-;-;6.158371;2.0364532;-3.089035;-;-;-;-;-;-;-;-;-;-;-;-;-;-;-
1514180647609;-;-;7.011902;1.2068634;-2.4569702;-;-;-;-;-;-;-;-;-;-;-;-;-;-;-
1514180647630;-;-;7.6667175;1.1589813;-2.365982;-;-;-;-;-;-;-;-;-;-;-;-;-;-;-
1514180647651;-;-;8.675873;2.6577606;-2.606598;-;-;-;-;-;-;-;-;-;-;-;-;-;-;-
1514180647671;-;-;9.601242;3.5747375;-2.302536;-;-;-;-;-;-;-;-;-;-;-;-;-;-;-
1514180647690;-;-;8.98114;3.2323608;-3.3943024;-;-;-;-;-;-;-;-;-;-;-;-;-;-;-
1514180647710;-;-;8.414917;2.1011047;-2.1576843;-;-;-;-;-;-;-;-;-;-;-;-;-;-;-
1514180647731;-;-;8.5849;0.5520477;0.6950073;-;-;-;-;-;-;-;-;-;-;-;-;-;-;-
1514180647750;-;-;9.932831;-0.32661438;-0.79299927;-;-;-;-;-;-;-;-;-;-;-;-;-;-;-
1514180647771;-;-;11.477097;0.02293396;-4.8691254;-;-;-;-;-;-;-;-;-;-;-;-;-;-;-
1514180647790;-;-;12.12114;-0.9874115;-7.551819;-;-;-;-;-;-;-;-;-;-;-;-;-;-;-
1514180647811;-;-;12.699341;-1.9355164;-6.5582275;-;-;-;-;-;-;-;-;-;-;-;-;-;-;-
1514180647831;-;-;8.703415;-0.92996216;-6.4600677;-;-;-;-;-;-;-;-;-;-;-;-;-;-;-
1514180647852;-;-;6.391815;-1.7451782;-5.9752502;-;-;-;-;-;-;-;-;-;-;-;-;-;-;-
1514180647872;-;-;4.721863;-2.5244904;-4.705124;-;-;-;-;-;-;-;-;-;-;-;-;-;-;-
1514180647892;-;-;6.2349854;-1.6769409;-4.2801514;-;-;-;-;-;-;-;-;-;-;-;-;-;-;-
1514180647913;-;-;9.951996;0.32939148;-5.583786;-;-;-;-;-;-;-;-;-;-;-;-;-;-;-
1514180647933;-;-;12.385696;1.3553162;-6.1859283;-;-;-;-;-;-;-;-;-;-;-;-;-;-;-
1514180647954;-;-;12.681381;1.9921722;-5.6999054;-;-;-;-;-;-;-;-;-;-;-;-;-;-;-
1514180647974;-;-;10.573288;1.6677551;-4.7901154;-;-;-;-;-;-;-;-;-;-;-;-;-;-;-
1514180647995;-;-;8.636368;-0.03453064;-3.5463257;-;-;-;-;-;-;-;-;-;-;-;-;-;-;-
1514180648014;-;-;7.485962;-1.819397;-2.5216064;-;-;-;-;-;-;-;-;-;-;-;-;-;-;-
1514180648035;-;-;6.074585;-2.4107666;-2.309723;-;-;-;-;-;-;-;-;-;-;-;-;-;-;-
1514180648054;-;-;4.80925;-2.0312958;-2.0403748;-;-;-;-;-;-;-;-;-;-;-;-;-;-;-
1514180648075;-;-;5.2521667;-0.47146606;-2.1505127;-;-;-;-;-;-;-;-;-;-;-;-;-;-;-
1514180648095;-;-;6.261322;0.7627411;-2.5252075;-;-;-;-;-;-;-;-;-;-;-;-;-;-;-
1514180648116;-;-;6.6587677;1.070404;-2.6233673;-;-;-;-;-;-;-;-;-;-;-;-;-;-;-
1514180648136;-;-;6.225418;0.9207611;-1.8201141;-;-;-;-;-;-;-;-;-;-;-;-;-;-;-
1514180648157;-;-;7.0298615;0.4981842;-1.4418182;-;-;-;-;-;-;-;-;-;-;-;-;-;-;-
1514180648176;-;-;8.954803;0.6729584;-1.650116;-;-;-;-;-;-;-;-;-;-;-;-;-;-;-
1514180648197;-;-;11.179016;0.77711487;-2.191208;-;-;-;-;-;-;-;-;-;-;-;-;-;-;-
1514180648217;-;-;11.894882;-1.700882;-4.3483887;-;-;-;-;-;-;-;-;-;-;-;-;-;-;-
1514180648237;-;-;11.302322;-3.9274902;-0.48054504;-;-;-;-;-;-;-;-;-;-;-;-;-;-;-
1514180648258;-;-;11.84581;-3.7802582;0.7249298;-;-;-;-;-;-;-;-;-;-;-;-;-;-;-
1514180648278;-;-;11.969101;-2.5173187;-1.9805145;-;-;-;-;-;-;-;-;-;-;-;-;-;-;-
1514180648299;-;-;10.596024;0.122299194;-6.5893555;-;-;-;-;-;-;-;-;-;-;-;-;-;-;-
1514180648319;-;-;8.711792;0.8621063;-5.5897827;-;-;-;-;-;-;-;-;-;-;-;-;-;-;-
1514180648340;-;-;6.9903564;0.9494934;-6.0626373;-;-;-;-;-;-;-;-;-;-;-;-;-;-;-
1514180648360;-;-;3.8324127;1.9131622;-6.263748;-;-;-;-;-;-;-;-;-;-;-;-;-;-;-
1514180648381;-;-;4.233444;2.5440369;-4.998413;-;-;-;-;-;-;-;-;-;-;-;-;-;-;-
1514180648402;-;-;6.8874054;1.5911407;-3.95932;-;-;-;-;-;-;-;-;-;-;-;-;-;-;-
1514180648423;-;-;11.965515;-0.63427734;-5.065445;-;-;-;-;-;-;-;-;-;-;-;-;-;-;-
1514180648442;-;-;17.34169;-2.3197937;-4.2693787;-;-;-;-;-;-;-;-;-;-;-;-;-;-;-
1514180648463;-;-;15.0265045;0.888443;-4.073044;-;-;-;-;-;-;-;-;-;-;-;-;-;-;-
1514180648483;-;-;11.54892;2.4231262;-3.183609;-;-;-;-;-;-;-;-;-;-;-;-;-;-;-
1514180648503;-;-;7.944458;1.9358978;-2.63414;-;-;-;-;-;-;-;-;-;-;-;-;-;-;-
1514180648524;-;-;4.252594;0.47424316;-1.4358368;-;-;-;-;-;-;-;-;-;-;-;-;-;-;-
1514180648544;-;-;1.9433899;-1.2579651;-0.69602966;-;-;-;-;-;-;-;-;-;-;-;-;-;-;-
1514180648564;-;-;2.015213;-1.5273132;-0.946228;-;-;-;-;-;-;-;-;-;-;-;-;-;-;-
1514180648584;-;-;5.3216095;0.046875;-1.3867645;-;-;-;-;-;-;-;-;-;-;-;-;-;-;-
1514180648605;-;-;7.0921173;1.5396576;-2.263031;-;-;-;-;-;-;-;-;-;-;-;-;-;-;-
1514180648625;-;-;7.963608;1.6078949;-1.9565735;-;-;-;-;-;-;-;-;-;-;-;-;-;-;-
1514180648646;-;-;7.9312897;0.6071167;-1.3963318;-;-;-;-;-;-;-;-;-;-;-;-;-;-;-
1514180648666;-;-;6.9029694;-0.107543945;-1.3496399;-;-;-;-;-;-;-;-;-;-;-;-;-;-;-
1514180648686;-;-;5.813614;-0.43554688;-0.57632446;-;-;-;-;-;-;-;-;-;-;-;-;-;-;-
1514180648707;-;-;5.7142487;0.2240448;-0.491333;-;-;-;-;-;-;-;-;-;-;-;-;-;-;-
1514180648727;-;-;5.93692;1.422348;-1.0898743;-;-;-;-;-;-;-;-;-;-;-;-;-;-;-
1514180648747;-;-;6.7102356;2.0137177;-2.1229706;-;-;-;-;-;-;-;-;-;-;-;-;-;-;-
1514180648768;-;-;8.16951;2.9773865;-3.4361877;-;-;-;-;-;-;-;-;-;-;-;-;-;-;-
1514180648788;-;-;8.837494;3.2850342;-3.8312378;-;-;-;-;-;-;-;-;-;-;-;-;-;-;-
1514180648808;-;-;8.996704;2.725998;-3.5008392;-;-;-;-;-;-;-;-;-;-;-;-;-;-;-
1514180648829;-;-;9.142746;0.9614563;-2.7909546;-;-;-;-;-;-;-;-;-;-;-;-;-;-;-
1514180648849;-;-;8.570541;-0.581604;-2.9980621;-;-;-;-;-;-;-;-;-;-;-;-;-;-;-
1514180648870;-;-;7.648773;-0.7910919;-4.053894;-;-;-;-;-;-;-;-;-;-;-;-;-;-;-
1514180648890;-;-;5.8327637;-0.3541565;-3.7474365;-;-;-;-;-;-;-;-;-;-;-;-;-;-;-
1514180648911;-;-;4.2418213;-1.9893951;-3.6432953;-;-;-;-;-;-;-;-;-;-;-;-;-;-;-
1514180648931;-;-;6.536667;-3.5695648;-4.809265;-;-;-;-;-;-;-;-;-;-;-;-;-;-;-
1514180648951;-;-;12.418015;-4.116638;-4.9170074;-;-;-;-;-;-;-;-;-;-;-;-;-;-;-
1514180648972;-;-;15.516113;-0.3649292;-4.1197357;-;-;-;-;-;-;-;-;-;-;-;-;-;-;-
1514180648992;-;-;18.045593;3.7016296;-3.1393127;-;-;-;-;-;-;-;-;-;-;-;-;-;-;-
1514180649013;-;-;17.844482;0.76034546;-4.129318;-;-;-;-;-;-;-;-;-;-;-;-;-;-;-
1514180649032;-;-;14.196915;-2.3736572;-3.3978882;-;-;-;-;-;-;-;-;-;-;-;-;-;-;-
1514180649052;-;-;9.579697;-2.85849;-0.89834595;-;-;-;-;-;-;-;-;-;-;-;-;-;-;-
1514180649074;-;-;4.0442963;-2.6394196;0.26045227;-;-;-;-;-;-;-;-;-;-;-;-;-;-;-
1514180649093;-;-;2.2055511;-1.7176514;0.8482361;-;-;-;-;-;-;-;-;-;-;-;-;-;-;-
1514180649114;-;-;4.4453278;-1.1741638;-0.28182983;-;-;-;-;-;-;-;-;-;-;-;-;-;-;-
1514180649133;-;-;9.612015;-0.34457397;-3.0136108;-;-;-;-;-;-;-;-;-;-;-;-;-;-;-
1514180649153;-;-;11.309494;0.3677063;-3.630127;-;-;-;-;-;-;-;-;-;-;-;-;-;-;-
1514180649174;-;-;10.655884;1.0967407;-1.8703918;-;-;-;-;-;-;-;-;-;-;-;-;-;-;-
1514180649193;-;-;10.159088;1.5635986;-0.8205261;-;-;-;-;-;-;-;-;-;-;-;-;-;-;-
1514180649215;-;-;8.449631;1.3864288;-1.1545258;-;-;-;-;-;-;-;-;-;-;-;-;-;-;-
1514180649234;-;-;6.0961304;1.1266632;-3.0986176;-;-;-;-;-;-;-;-;-;-;-;-;-;-;-
1514180649255;-;-;5.090561;-0.078811646;-4.381897;-;-;-;-;-;-;-;-;-;-;-;-;-;-;-
1514180649275;-;-;4.3854675;-1.6242676;-2.3683777;-;-;-;-;-;-;-;-;-;-;-;-;-;-;-
1514180649295;-;-;3.2314606;-1.4770355;-2.0643158;-;-;-;-;-;-;-;-;-;-;-;-;-;-;-
1514180649316;-;-;4.739807;1.5839539;-5.373108;-;-;-;-;-;-;-;-;-;-;-;-;-;-;-
1514180649336;-;-;7.5793304;5.1058197;-6.6911163;-;-;-;-;-;-;-;-;-;-;-;-;-;-;-
1514180649357;-;-;11.672226;5.771408;-6.5654144;-;-;-;-;-;-;-;-;-;-;-;-;-;-;-
1514180649376;-;-;17.444641;2.129837;-2.5970306;-;-;-;-;-;-;-;-;-;-;-;-;-;-;-
1514180649397;-;-;19.999252;-0.39964294;-5.9728546;-;-;-;-;-;-;-;-;-;-;-;-;-;-;-
1514180649416;-;-;19.470139;0.02772522;-6.5929413;-;-;-;-;-;-;-;-;-;-;-;-;-;-;-
1514180649437;-;-;13.206909;1.0656128;-2.8783417;-;-;-;-;-;-;-;-;-;-;-;-;-;-;-
1514180649457;-;-;6.161972;1.8401337;0.6255646;-;-;-;-;-;-;-;-;-;-;-;-;-;-;-
1514180649477;-;-;3.1524506;1.8161926;0.10003662;-;-;-;-;-;-;-;-;-;-;-;-;-;-;-
1514180649498;-;-;3.6504517;1.8700562;-0.64216614;-;-;-;-;-;-;-;-;-;-;-;-;-;-;-
1514180649518;-;-;6.359482;1.5193176;-0.28901672;-;-;-;-;-;-;-;-;-;-;-;-;-;-;-
1514180649538;-;-;7.655945;0.80345154;-0.23036194;-;-;-;-;-;-;-;-;-;-;-;-;-;-;-
1514180649559;-;-;8.175491;0.47184753;-0.6038513;-;-;-;-;-;-;-;-;-;-;-;-;-;-;-
1514180649578;-;-;7.766083;-0.12550354;-0.66490173;-;-;-;-;-;-;-;-;-;-;-;-;-;-;-
1514180649599;-;-;7.2788696;-0.85453796;-0.81573486;-;-;-;-;-;-;-;-;-;-;-;-;-;-;-
1514180649620;-;-;7.36026;-0.6426544;-1.353241;-;-;-;-;-;-;-;-;-;-;-;-;-;-;-
1514180649640;-;-;7.573349;0.6178894;-1.3508453;-;-;-;-;-;-;-;-;-;-;-;-;-;-;-
1514180649660;-;-;7.9109344;2.165741;-2.4964752;-;-;-;-;-;-;-;-;-;-;-;-;-;-;-
1514180649681;-;-;7.217804;3.2539063;-3.9329834;-;-;-;-;-;-;-;-;-;-;-;-;-;-;-
1514180649702;-;-;4.8391724;2.4219208;-4.872711;-;-;-;-;-;-;-;-;-;-;-;-;-;-;-
1514180649722;-;-;2.3707428;0.754364;-4.753006;-;-;-;-;-;-;-;-;-;-;-;-;-;-;-
1514180649743;-;-;0.7115631;-1.0448761;-3.0746765;-;-;-;-;-;-;-;-;-;-;-;-;-;-;-
1514180649762;-;-;2.6233368;-3.5300598;-1.3592224;-;-;-;-;-;-;-;-;-;-;-;-;-;-;-
1514180649783;-;-;11.830246;-2.6346283;-6.1823425;-;-;-;-;-;-;-;-;-;-;-;-;-;-;-
1514180649803;-;-;19.051147;-0.10874939;-6.9855957;-;-;-;-;-;-;-;-;-;-;-;-;-;-;-
1514180649824;-;-;23.613297;2.193283;-5.4341583;-;-;-;-;-;-;-;-;-;-;-;-;-;-;-
1514180649844;-;-;23.057846;0.41079712;-1.6489258;-;-;-;-;-;-;-;-;-;-;-;-;-;-;-
1514180649864;-;-;15.847717;-1.8421478;-1.1976166;-;-;-;-;-;-;-;-;-;-;-;-;-;-;-
1514180649885;-;-;9.697006;-4.123825;0.004272461;-;-;-;-;-;-;-;-;-;-;-;-;-;-;-
1514180649905;-;-;5.0965424;-4.1022797;0.4902954;-;-;-;-;-;-;-;-;-;-;-;-;-;-;-
1514180649926;-;-;2.8340302;-1.9259491;0.255661;-;-;-;-;-;-;-;-;-;-;-;-;-;-;-
1514180649946;-;-;2.69516;0.35572815;-0.50927734;-;-;-;-;-;-;-;-;-;-;-;-;-;-;-
1514180649967;-;-;7.2668915;1.6545868;-2.488083;-;-;-;-;-;-;-;-;-;-;-;-;-;-;-
