TimeStamp[ms];Prox[Cm];Lux[lux];AccX[m/s^2];AccY[m/s^2];AccZ[m/s^2];GyroX[rad/s];GyroY[rad/s];GyroZ[rad/s];MagnX[uT];MagnY[uT];MagnZ[uT];OrienYaw[degrees];OrienPitch[degrees];OrienRoll[degrees];Press[Pa];Temp[C°];Batt[%];Lat;Lng;Speed[m/s]
1514180680840;-;-;8.923676;-1.1334686;3.1502533;-;-;-;-;-;-;-;-;-;-;-;-;-;-;-
1514180680874;-;-;8.394562;-0.97184753;3.6039581;-;-;-;-;-;-;-;-;-;-;-;-;-;-;-
1514180680877;-;-;8.382584;-1.0412903;3.5644531;-;-;-;-;-;-;-;-;-;-;-;-;-;-;-
1514180680898;-;-;8.50589;-1.0939636;3.3609467;-;-;-;-;-;-;-;-;-;-;-;-;-;-;-
1514180680918;-;-;8.677078;-1.2124786;3.3848877;-;-;-;-;-;-;-;-;-;-;-;-;-;-;-
1514180680938;-;-;8.8003845;-1.0927582;3.2532043;-;-;-;-;-;-;-;-;-;-;-;-;-;-;-
1514180680960;-;-;8.708206;-0.9359436;3.3453827;-;-;-;-;-;-;-;-;-;-;-;-;-;-;-
1514180680981;-;-;8.647156;-0.7671509;3.420807;-;-;-;-;-;-;-;-;-;-;-;-;-;-;-
1514180681001;-;-;8.836288;-0.73483276;3.3238373;-;-;-;-;-;-;-;-;-;-;-;-;-;-;-
1514180681022;-;-;8.886566;-0.71806335;3.0173798;-;-;-;-;-;-;-;-;-;-;-;-;-;-;-
1514180681042;-;-;8.7656555;-0.74320984;3.1622314;-;-;-;-;-;-;-;-;-;-;-;-;-;-;-
1514180681062;-;-;8.788406;-0.84017944;3.2292633;-;-;-;-;-;-;-;-;-;-;-;-;-;-;-
1514180681083;-;-;8.788406;-0.93115234;3.0640564;-;-;-;-;-;-;-;-;-;-;-;-;-;-;-
1514180681111;-;-;8.649536;-1.0496674;2.5971985;-;-;-;-;-;-;-;-;-;-;-;-;-;-;-
1514180681123;-;-;8.560959;-1.0137482;2.4032593;-;-;-;-;-;-;-;-;-;-;-;-;-;-;-
1514180681143;-;-;8.203018;-1.1729736;2.7181091;-;-;-;-;-;-;-;-;-;-;-;-;-;-;-
1514180681164;-;-;9.086487;-0.6222992;2.580429;-;-;-;-;-;-;-;-;-;-;-;-;-;-;-
1514180681184;-;-;8.650742;-0.799469;2.4308014;-;-;-;-;-;-;-;-;-;-;-;-;-;-;-
1514180681205;-;-;8.1527405;-0.9503021;1.8968964;-;-;-;-;-;-;-;-;-;-;-;-;-;-;-
1514180681224;-;-;7.8965607;-0.95150757;1.1403198;-;-;-;-;-;-;-;-;-;-;-;-;-;-;-
1514180681244;-;-;6.319992;1.5456543;-0.377594;-;-;-;-;-;-;-;-;-;-;-;-;-;-;-
1514180681265;-;-;7.355484;0.29826355;-0.09030151;-;-;-;-;-;-;-;-;-;-;-;-;-;-;-
1514180681284;-;-;9.461182;0.49339294;0.31910706;-;-;-;-;-;-;-;-;-;-;-;-;-;-;-
1514180681304;-;-;11.004242;1.358902;-0.026855469;-;-;-;-;-;-;-;-;-;-;-;-;-;-;-
1514180681325;-;-;10.391327;1.5193176;-1.2718353;-;-;-;-;-;-;-;-;-;-;-;-;-;-;-
1514180681346;-;-;8.953613;1.5851593;-1.1916351;-;-;-;-;-;-;-;-;-;-;-;-;-;-;-
1514180681366;-;-;10.399704;1.9598389;0.51423645;-;-;-;-;-;-;-;-;-;-;-;-;-;-;-
1514180681387;-;-;10.610397;2.035263;0.24249268;-;-;-;-;-;-;-;-;-;-;-;-;-;-;-
1514180681407;-;-;10.321899;1.6545868;0.41966248;-;-;-;-;-;-;-;-;-;-;-;-;-;-;-
1514180681427;-;-;8.914108;0.8154144;0.5884552;-;-;-;-;-;-;-;-;-;-;-;-;-;-;-
1514180681447;-;-;7.9947357;0.0049743652;0.642334;-;-;-;-;-;-;-;-;-;-;-;-;-;-;-
1514180681468;-;-;7.502716;0.28630066;1.3713684;-;-;-;-;-;-;-;-;-;-;-;-;-;-;-
1514180681487;-;-;8.193451;0.39762878;1.4671326;-;-;-;-;-;-;-;-;-;-;-;-;-;-;-
1514180681508;-;-;9.406113;1.279892;-0.44943237;-;-;-;-;-;-;-;-;-;-;-;-;-;-;-
1514180681531;-;-;9.650314;1.4678345;-0.39915466;-;-;-;-;-;-;-;-;-;-;-;-;-;-;-
1514180681551;-;-;8.64476;1.3804474;-1.2179718;-;-;-;-;-;-;-;-;-;-;-;-;-;-;-
1514180681572;-;-;9.135559;1.3397522;-0.55836487;-;-;-;-;-;-;-;-;-;-;-;-;-;-;-
1514180681593;-;-;10.057327;1.0141296;0.35502625;-;-;-;-;-;-;-;-;-;-;-;-;-;-;-
1514180681613;-;-;10.238098;0.67655945;0.95118713;-;-;-;-;-;-;-;-;-;-;-;-;-;-;-
1514180681633;-;-;9.230133;0.6945038;1.1654663;-;-;-;-;-;-;-;-;-;-;-;-;-;-;-
1514180681653;-;-;9.070923;1.0452576;1.3055267;-;-;-;-;-;-;-;-;-;-;-;-;-;-;-
1514180681674;-;-;9.133179;1.1182861;0.2915802;-;-;-;-;-;-;-;-;-;-;-;-;-;-;-
1514180681694;-;-;9.443222;0.3174286;0.05215454;-;-;-;-;-;-;-;-;-;-;-;-;-;-;-
1514180681715;-;-;9.4887085;0.091171265;-0.04600525;-;-;-;-;-;-;-;-;-;-;-;-;-;-;-
1514180681735;-;-;8.24971;0.56521606;-0.7977905;-;-;-;-;-;-;-;-;-;-;-;-;-;-;-
1514180681756;-;-;7.5386353;2.1082916;-0.32373047;-;-;-;-;-;-;-;-;-;-;-;-;-;-;-
1514180681776;-;-;8.985931;1.3780518;-0.5021057;-;-;-;-;-;-;-;-;-;-;-;-;-;-;-
1514180681796;-;-;10.85939;0.40960693;-0.5607605;-;-;-;-;-;-;-;-;-;-;-;-;-;-;-
1514180681817;-;-;11.812286;-0.090789795;-1.653717;-;-;-;-;-;-;-;-;-;-;-;-;-;-;-
1514180681837;-;-;11.064102;-0.47265625;-3.5307617;-;-;-;-;-;-;-;-;-;-;-;-;-;-;-
1514180681858;-;-;10.665466;-0.636673;-4.5339355;-;-;-;-;-;-;-;-;-;-;-;-;-;-;-
1514180681879;-;-;11.05571;-0.88087463;-3.5247803;-;-;-;-;-;-;-;-;-;-;-;-;-;-;-
1514180681899;-;-;9.5737;-2.2671204;-3.3045197;-;-;-;-;-;-;-;-;-;-;-;-;-;-;-
1514180681919;-;-;9.210983;-2.5795593;-5.017563;-;-;-;-;-;-;-;-;-;-;-;-;-;-;-
1514180681940;-;-;8.574127;-3.1230469;-4.4549255;-;-;-;-;-;-;-;-;-;-;-;-;-;-;-
1514180681960;-;-;7.5625763;-2.6023102;-2.4785156;-;-;-;-;-;-;-;-;-;-;-;-;-;-;-
1514180681981;-;-;8.544205;-2.471817;-2.0978394;-;-;-;-;-;-;-;-;-;-;-;-;-;-;-
1514180682002;-;-;9.081696;-1.8577118;-2.6604767;-;-;-;-;-;-;-;-;-;-;-;-;-;-;-
1514180682022;-;-;9.108032;-1.2807007;-3.025589;-;-;-;-;-;-;-;-;-;-;-;-;-;-;-
1514180682043;-;-;8.740524;-0.463089;-2.8244781;-;-;-;-;-;-;-;-;-;-;-;-;-;-;-
1514180682063;-;-;8.764465;-0.7096863;-2.349228;-;-;-;-;-;-;-;-;-;-;-;-;-;-;-
1514180682084;-;-;9.419281;-1.186142;-1.9541779;-;-;-;-;-;-;-;-;-;-;-;-;-;-;-
1514180682104;-;-;9.23613;-2.025299;-2.4222565;-;-;-;-;-;-;-;-;-;-;-;-;-;-;-
1514180682124;-;-;8.632782;-2.301834;-1.1269836;-;-;-;-;-;-;-;-;-;-;-;-;-;-;-
1514180682144;-;-;6.1080933;-0.67736816;-2.184021;-;-;-;-;-;-;-;-;-;-;-;-;-;-;-
1514180682165;-;-;7.3626556;-2.0372772;-3.0279846;-;-;-;-;-;-;-;-;-;-;-;-;-;-;-
1514180682185;-;-;5.422165;-1.0484619;-1.5926514;-;-;-;-;-;-;-;-;-;-;-;-;-;-;-
1514180682206;-;-;7.51828;-0.54089355;-1.9374237;-;-;-;-;-;-;-;-;-;-;-;-;-;-;-
1514180682226;-;-;9.221756;-0.51815796;-1.2658539;-;-;-;-;-;-;-;-;-;-;-;-;-;-;-
1514180682247;-;-;9.0733185;-0.03691101;-1.3628082;-;-;-;-;-;-;-;-;-;-;-;-;-;-;-
1514180682267;-;-;9.141556;0.23362732;-1.1114197;-;-;-;-;-;-;-;-;-;-;-;-;-;-;-
1514180682288;-;-;9.072113;0.14982605;-1.0048828;-;-;-;-;-;-;-;-;-;-;-;-;-;-;-
1514180682308;-;-;9.039795;0.35572815;-1.48732;-;-;-;-;-;-;-;-;-;-;-;-;-;-;-
1514180682328;-;-;9.29718;0.6023407;-1.9589691;-;-;-;-;-;-;-;-;-;-;-;-;-;-;-
1514180682349;-;-;9.075714;-0.97065735;-1.6034393;-;-;-;-;-;-;-;-;-;-;-;-;-;-;-
1514180682370;-;-;10.432022;-2.5951233;0.50346375;-;-;-;-;-;-;-;-;-;-;-;-;-;-;-
1514180682390;-;-;12.12114;-2.629837;1.294754;-;-;-;-;-;-;-;-;-;-;-;-;-;-;-
1514180682410;-;-;13.82222;-2.2826843;-0.496109;-;-;-;-;-;-;-;-;-;-;-;-;-;-;-
1514180682431;-;-;11.53096;-2.4143677;-6.9760284;-;-;-;-;-;-;-;-;-;-;-;-;-;-;-
1514180682451;-;-;8.774048;-2.4778137;-7.349518;-;-;-;-;-;-;-;-;-;-;-;-;-;-;-
1514180682471;-;-;7.142395;-1.4758301;-7.033478;-;-;-;-;-;-;-;-;-;-;-;-;-;-;-
1514180682492;-;-;6.515106;0.56163025;-4.857147;-;-;-;-;-;-;-;-;-;-;-;-;-;-;-
1514180682512;-;-;7.2740784;2.5332642;-2.7562408;-;-;-;-;-;-;-;-;-;-;-;-;-;-;-
1514180682533;-;-;8.905716;1.640213;-4.1616364;-;-;-;-;-;-;-;-;-;-;-;-;-;-;-
1514180682553;-;-;12.652649;-1.5117493;-5.9812317;-;-;-;-;-;-;-;-;-;-;-;-;-;-;-
1514180682574;-;-;16.299011;-2.0276947;-4.1221313;-;-;-;-;-;-;-;-;-;-;-;-;-;-;-
1514180682594;-;-;13.598358;1.1027222;-2.5527344;-;-;-;-;-;-;-;-;-;-;-;-;-;-;-
1514180682614;-;-;8.885376;2.1597595;-2.4138641;-;-;-;-;-;-;-;-;-;-;-;-;-;-;-
1514180682635;-;-;6.0769806;1.3708649;-1.6010437;-;-;-;-;-;-;-;-;-;-;-;-;-;-;-
1514180682655;-;-;3.418213;0.086380005;-1.0838928;-;-;-;-;-;-;-;-;-;-;-;-;-;-;-
1514180682676;-;-;1.8308563;-0.8964386;-0.03642273;-;-;-;-;-;-;-;-;-;-;-;-;-;-;-
1514180682696;-;-;2.9692993;-0.29908752;0.36340332;-;-;-;-;-;-;-;-;-;-;-;-;-;-;-
1514180682717;-;-;6.7844543;0.9470978;0.21376038;-;-;-;-;-;-;-;-;-;-;-;-;-;-;-
1514180682737;-;-;8.015076;1.2523651;-0.90312195;-;-;-;-;-;-;-;-;-;-;-;-;-;-;-
1514180682758;-;-;8.298798;0.5281067;-1.3879547;-;-;-;-;-;-;-;-;-;-;-;-;-;-;-
1514180682778;-;-;7.0142975;-0.14346313;-0.7391205;-;-;-;-;-;-;-;-;-;-;-;-;-;-;-
1514180682799;-;-;5.9776154;-0.8353882;-0.006500244;-;-;-;-;-;-;-;-;-;-;-;-;-;-;-
1514180682819;-;-;5.3862457;-1.076004;0.09526062;-;-;-;-;-;-;-;-;-;-;-;-;-;-;-
1514180682840;-;-;5.0366974;-0.97784424;-0.669693;-;-;-;-;-;-;-;-;-;-;-;-;-;-;-
1514180682860;-;-;5.231827;-0.3697052;0.05215454;-;-;-;-;-;-;-;-;-;-;-;-;-;-;-
1514180682881;-;-;6.807205;0.9614563;0.22692871;-;-;-;-;-;-;-;-;-;-;-;-;-;-;-
1514180682902;-;-;8.616028;2.5835419;-0.6266022;-;-;-;-;-;-;-;-;-;-;-;-;-;-;-
1514180682921;-;-;10.58046;3.572342;-3.1979675;-;-;-;-;-;-;-;-;-;-;-;-;-;-;-
1514180682941;-;-;10.848618;2.9091492;-3.95932;-;-;-;-;-;-;-;-;-;-;-;-;-;-;-
1514180682962;-;-;10.452377;1.5911407;-2.3384552;-;-;-;-;-;-;-;-;-;-;-;-;-;-;-
1514180682982;-;-;7.969589;1.1482086;-2.3480225;-;-;-;-;-;-;-;-;-;-;-;-;-;-;-
1514180683002;-;-;6.288864;-0.33259583;-4.251419;-;-;-;-;-;-;-;-;-;-;-;-;-;-;-
1514180683023;-;-;7.611664;-2.772293;-5.3994446;-;-;-;-;-;-;-;-;-;-;-;-;-;-;-
1514180683044;-;-;11.3526;-4.6242065;-6.5726013;-;-;-;-;-;-;-;-;-;-;-;-;-;-;-
1514180683064;-;-;16.476181;-4.7942047;-4.1508636;-;-;-;-;-;-;-;-;-;-;-;-;-;-;-
1514180683085;-;-;19.576675;-1.1430359;-1.6441345;-;-;-;-;-;-;-;-;-;-;-;-;-;-;-
1514180683105;-;-;15.601105;0.833374;-2.4545746;-;-;-;-;-;-;-;-;-;-;-;-;-;-;-
1514180683125;-;-;13.603149;-1.3992157;-1.6417389;-;-;-;-;-;-;-;-;-;-;-;-;-;-;-
1514180683146;-;-;13.455902;-3.021286;-1.064743;-;-;-;-;-;-;-;-;-;-;-;-;-;-;-
1514180683167;-;-;8.440048;-2.9949493;0.49508667;-;-;-;-;-;-;-;-;-;-;-;-;-;-;-
1514180683187;-;-;4.8439636;-2.396408;-0.3297119;-;-;-;-;-;-;-;-;-;-;-;-;-;-;-
1514180683208;-;-;2.2318878;-1.617096;-1.7626495;-;-;-;-;-;-;-;-;-;-;-;-;-;-;-
1514180683228;-;-;0.48292542;-0.3254242;-0.867218;-;-;-;-;-;-;-;-;-;-;-;-;-;-;-
1514180683249;-;-;3.773758;1.2344055;0.9499817;-;-;-;-;-;-;-;-;-;-;-;-;-;-;-
1514180683269;-;-;6.1033173;1.3648834;-0.8169403;-;-;-;-;-;-;-;-;-;-;-;-;-;-;-
1514180683289;-;-;6.7413635;0.21447754;-2.3013458;-;-;-;-;-;-;-;-;-;-;-;-;-;-;-
1514180683310;-;-;7.3506927;-0.7623596;-2.0882568;-;-;-;-;-;-;-;-;-;-;-;-;-;-;-
1514180683331;-;-;7.6631317;-0.58039856;-0.7846222;-;-;-;-;-;-;-;-;-;-;-;-;-;-;-
1514180683351;-;-;9.725739;0.019348145;1.0218048;-;-;-;-;-;-;-;-;-;-;-;-;-;-;-
1514180683372;-;-;11.994247;0.0181427;0.7823944;-;-;-;-;-;-;-;-;-;-;-;-;-;-;-
1514180683392;-;-;10.010651;-1.6206818;-2.065506;-;-;-;-;-;-;-;-;-;-;-;-;-;-;-
1514180683412;-;-;7.8833923;-3.5791473;-4.9457397;-;-;-;-;-;-;-;-;-;-;-;-;-;-;-
1514180683433;-;-;6.0973206;-2.7232056;-5.0367126;-;-;-;-;-;-;-;-;-;-;-;-;-;-;-
1514180683454;-;-;5.838745;2.0256805;-3.0782623;-;-;-;-;-;-;-;-;-;-;-;-;-;-;-
1514180683474;-;-;7.8331146;4.726349;-1.9685516;-;-;-;-;-;-;-;-;-;-;-;-;-;-;-
1514180683493;-;-;10.272812;4.545578;-4.6081543;-;-;-;-;-;-;-;-;-;-;-;-;-;-;-
1514180683513;-;-;15.374863;1.7850647;-3.5786438;-;-;-;-;-;-;-;-;-;-;-;-;-;-;-
1514180683534;-;-;17.688858;0.25756836;-2.8328552;-;-;-;-;-;-;-;-;-;-;-;-;-;-;-
1514180683555;-;-;19.36;0.062438965;-6.8575134;-;-;-;-;-;-;-;-;-;-;-;-;-;-;-
1514180683574;-;-;14.53569;1.5300903;-3.8503876;-;-;-;-;-;-;-;-;-;-;-;-;-;-;-
1514180683595;-;-;8.480759;2.6110687;-0.69721985;-;-;-;-;-;-;-;-;-;-;-;-;-;-;-
1514180683616;-;-;2.212738;2.5631866;0.4974823;-;-;-;-;-;-;-;-;-;-;-;-;-;-;-
1514180683636;-;-;-0.36343384;1.6809235;1.8633728;-;-;-;-;-;-;-;-;-;-;-;-;-;-;-
1514180683656;-;-;0.61221313;-0.066848755;1.9687195;-;-;-;-;-;-;-;-;-;-;-;-;-;-;-
1514180683676;-;-;5.327591;-0.95269775;0.56451416;-;-;-;-;-;-;-;-;-;-;-;-;-;-;-
1514180683697;-;-;9.094864;-1.1442413;-0.8612366;-;-;-;-;-;-;-;-;-;-;-;-;-;-;-
1514180683718;-;-;11.536957;-1.2651367;-2.115799;-;-;-;-;-;-;-;-;-;-;-;-;-;-;-
1514180683738;-;-;12.807068;-0.5899811;-3.033966;-;-;-;-;-;-;-;-;-;-;-;-;-;-;-
1514180683759;-;-;11.867355;1.0057526;-2.282196;-;-;-;-;-;-;-;-;-;-;-;-;-;-;-
1514180683779;-;-;9.63475;2.976181;-2.1349487;-;-;-;-;-;-;-;-;-;-;-;-;-;-;-
1514180683799;-;-;6.284073;2.8049927;-3.401474;-;-;-;-;-;-;-;-;-;-;-;-;-;-;-
1514180683819;-;-;3.6887512;1.1338501;-4.9325714;-;-;-;-;-;-;-;-;-;-;-;-;-;-;-
1514180683839;-;-;1.5064392;0.9207611;-4.646469;-;-;-;-;-;-;-;-;-;-;-;-;-;-;-
1514180683860;-;-;0.8659973;0.6825409;-3.433792;-;-;-;-;-;-;-;-;-;-;-;-;-;-;-
1514180683879;-;-;6.331955;0.18933105;-4.9720764;-;-;-;-;-;-;-;-;-;-;-;-;-;-;-
1514180683900;-;-;13.036911;-0.56604004;-9.267273;-;-;-;-;-;-;-;-;-;-;-;-;-;-;-
1514180683921;-;-;20.269806;-1.2663422;-5.540695;-;-;-;-;-;-;-;-;-;-;-;-;-;-;-
1514180683941;-;-;23.103333;-1.6278687;-0.8744049;-;-;-;-;-;-;-;-;-;-;-;-;-;-;-
1514180683961;-;-;17.3824;-3.2140198;0.93322754;-;-;-;-;-;-;-;-;-;-;-;-;-;-;-
1514180683981;-;-;12.962692;-4.760681;-2.4114685;-;-;-;-;-;-;-;-;-;-;-;-;-;-;-
1514180684001;-;-;7.6978455;-4.961792;0.25805664;-;-;-;-;-;-;-;-;-;-;-;-;-;-;-
1514180684022;-;-;5.244995;-3.534851;-0.33210754;-;-;-;-;-;-;-;-;-;-;-;-;-;-;-
1514180684042;-;-;2.9848633;-0.35295105;-1.9996796;-;-;-;-;-;-;-;-;-;-;-;-;-;-;-
1514180684063;-;-;2.8591614;2.8804169;-1.5543518;-;-;-;-;-;-;-;-;-;-;-;-;-;-;-
1514180684083;-;-;8.345474;5.435028;-2.5323792;-;-;-;-;-;-;-;-;-;-;-;-;-;-;-
1514180684104;-;-;10.95636;5.0974426;-3.3823242;-;-;-;-;-;-;-;-;-;-;-;-;-;-;-
1514180684124;-;-;10.76123;1.8616791;-4.03833;-;-;-;-;-;-;-;-;-;-;-;-;-;-;-
1514180684144;-;-;9.566528;-1.8134155;-4.45253;-;-;-;-;-;-;-;-;-;-;-;-;-;-;-
1514180684165;-;-;7.264496;-3.2619019;-4.1029816;-;-;-;-;-;-;-;-;-;-;-;-;-;-;-
1514180684185;-;-;5.4053955;-2.906372;-2.5682983;-;-;-;-;-;-;-;-;-;-;-;-;-;-;-
1514180684206;-;-;3.2302704;-2.2479706;-2.1074066;-;-;-;-;-;-;-;-;-;-;-;-;-;-;-
1514180684225;-;-;1.8500061;-2.6430054;-1.871582;-;-;-;-;-;-;-;-;-;-;-;-;-;-;-
1514180684246;-;-;2.303711;-1.0604401;-1.6405487;-;-;-;-;-;-;-;-;-;-;-;-;-;-;-
1514180684266;-;-;7.0980988;2.2567291;-1.2071991;-;-;-;-;-;-;-;-;-;-;-;-;-;-;-
1514180684287;-;-;11.005432;5.5008698;-5.774124;-;-;-;-;-;-;-;-;-;-;-;-;-;-;-
1514180684307;-;-;17.833694;1.5695953;-5.515564;-;-;-;-;-;-;-;-;-;-;-;-;-;-;-
1514180684328;-;-;20.941376;-0.98501587;-4.175995;-;-;-;-;-;-;-;-;-;-;-;-;-;-;-
1514180684348;-;-;21.35318;0.6466217;-6.923355;-;-;-;-;-;-;-;-;-;-;-;-;-;-;-
1514180684369;-;-;12.228882;2.3800354;-3.8934937;-;-;-;-;-;-;-;-;-;-;-;-;-;-;-
1514180684389;-;-;9.013458;2.5224762;-0.8384857;-;-;-;-;-;-;-;-;-;-;-;-;-;-;-
1514180684409;-;-;2.3408203;1.5755768;1.7723846;-;-;-;-;-;-;-;-;-;-;-;-;-;-;-
1514180684430;-;-;1.5567169;0.40960693;1.0900421;-;-;-;-;-;-;-;-;-;-;-;-;-;-;-
1514180684449;-;-;5.4808197;-0.41400146;0.6495056;-;-;-;-;-;-;-;-;-;-;-;-;-;-;-
1514180684470;-;-;9.761642;-0.8533478;-1.4897003;-;-;-;-;-;-;-;-;-;-;-;-;-;-;-
1514180684490;-;-;11.204163;-0.9467163;-2.2295227;-;-;-;-;-;-;-;-;-;-;-;-;-;-;-
1514180684511;-;-;11.182602;-1.3932343;-0.67807007;-;-;-;-;-;-;-;-;-;-;-;-;-;-;-
1514180684532;-;-;8.8051605;-0.20570374;-0.89953613;-;-;-;-;-;-;-;-;-;-;-;-;-;-;-
1514180684551;-;-;7.1962585;1.616272;-3.590622;-;-;-;-;-;-;-;-;-;-;-;-;-;-;-
1514180684572;-;-;5.1276703;1.7635193;-4.9768677;-;-;-;-;-;-;-;-;-;-;-;-;-;-;-
1514180684592;-;-;3.019577;1.6761322;-3.1452942;-;-;-;-;-;-;-;-;-;-;-;-;-;-;-
1514180684613;-;-;1.331665;2.0831451;-2.5036469;-;-;-;-;-;-;-;-;-;-;-;-;-;-;-
1514180684634;-;-;0.86239624;2.6924744;-4.1819916;-;-;-;-;-;-;-;-;-;-;-;-;-;-;-
1514180684654;-;-;3.067459;1.0380707;-4.7398376;-;-;-;-;-;-;-;-;-;-;-;-;-;-;-
1514180684675;-;-;8.533432;-1.4147797;-6.382263;-;-;-;-;-;-;-;-;-;-;-;-;-;-;-
1514180684695;-;-;16.299011;-2.9315033;-5.853134;-;-;-;-;-;-;-;-;-;-;-;-;-;-;-
1514180684715;-;-;21.308884;-2.4766083;-4.9613037;-;-;-;-;-;-;-;-;-;-;-;-;-;-;-
1514180684736;-;-;23.652802;-1.4997711;-2.898697;-;-;-;-;-;-;-;-;-;-;-;-;-;-;-
1514180684757;-;-;19.83046;-0.5720215;-1.9984741;-;-;-;-;-;-;-;-;-;-;-;-;-;-;-
1514180684776;-;-;15.156982;-0.3972473;-2.1121979;-;-;-;-;-;-;-;-;-;-;-;-;-;-;-
1514180684797;-;-;9.385757;-1.2675323;-1.069519;-;-;-;-;-;-;-;-;-;-;-;-;-;-;-
1514180684818;-;-;3.845581;-1.4219666;-0.30218506;-;-;-;-;-;-;-;-;-;-;-;-;-;-;-
1514180684837;-;-;0.86839294;-1.3154297;-1.5136566;-;-;-;-;-;-;-;-;-;-;-;-;-;-;-
1514180684858;-;-;1.6165771;-0.6725769;-1.104248;-;-;-;-;-;-;-;-;-;-;-;-;-;-;-
1514180684879;-;-;7.1292267;0.74957275;-1.1473389;-;-;-;-;-;-;-;-;-;-;-;-;-;-;-
1514180684899;-;-;9.2756195;2.1753235;-2.4988708;-;-;-;-;-;-;-;-;-;-;-;-;-;-;-
1514180684919;-;-;9.461182;1.6605682;-2.527588;-;-;-;-;-;-;-;-;-;-;-;-;-;-;-
1514180684940;-;-;8.222183;-0.03691101;-2.630539;-;-;-;-;-;-;-;-;-;-;-;-;-;-;-
1514180684961;-;-;8.181473;-1.4889984;-1.1581116;-;-;-;-;-;-;-;-;-;-;-;-;-;-;-
1514180684981;-;-;10.063324;-2.329361;-1.9625702;-;-;-;-;-;-;-;-;-;-;-;-;-;-;-
1514180685001;-;-;8.474762;-2.119873;-4.1341095;-;-;-;-;-;-;-;-;-;-;-;-;-;-;-
1514180685022;-;-;5.337158;-2.0791779;-4.050308;-;-;-;-;-;-;-;-;-;-;-;-;-;-;-
1514180685041;-;-;2.4401855;-2.0348816;-3.5954132;-;-;-;-;-;-;-;-;-;-;-;-;-;-;-
1514180685061;-;-;0.8492279;-0.33499146;-2.9848938;-;-;-;-;-;-;-;-;-;-;-;-;-;-;-
1514180685082;-;-;6.4013824;2.411148;-0.38238525;-;-;-;-;-;-;-;-;-;-;-;-;-;-;-
1514180685103;-;-;11.709335;4.559952;-7.4752045;-;-;-;-;-;-;-;-;-;-;-;-;-;-;-
1514180685123;-;-;19.055939;2.9690094;-6.9891815;-;-;-;-;-;-;-;-;-;-;-;-;-;-;-
1514180685143;-;-;20.792938;0.49220276;-3.5714722;-;-;-;-;-;-;-;-;-;-;-;-;-;-;-
1514180685163;-;-;19.887924;1.6521912;-6.662384;-;-;-;-;-;-;-;-;-;-;-;-;-;-;-
1514180685184;-;-;15.71843;1.6964874;-5.1731873;-;-;-;-;-;-;-;-;-;-;-;-;-;-;-
1514180685205;-;-;11.107193;1.4905853;-3.915039;-;-;-;-;-;-;-;-;-;-;-;-;-;-;-
1514180685225;-;-;5.7609406;2.12146;-0.08909607;-;-;-;-;-;-;-;-;-;-;-;-;-;-;-
1514180685245;-;-;0.6900177;1.6881104;1.1319427;-;-;-;-;-;-;-;-;-;-;-;-;-;-;-
1514180685266;-;-;1.4980621;0.009765625;-0.2902069;-;-;-;-;-;-;-;-;-;-;-;-;-;-;-
1514180685286;-;-;5.5753937;-0.68455505;-1.3568268;-;-;-;-;-;-;-;-;-;-;-;-;-;-;-
1514180685307;-;-;9.400131;-0.3972473;-1.6800537;-;-;-;-;-;-;-;-;-;-;-;-;-;-;-
1514180685327;-;-;10.28598;-0.44033813;-0.9043274;-;-;-;-;-;-;-;-;-;-;-;-;-;-;-
1514180685348;-;-;8.996704;-0.51216125;-0.922287;-;-;-;-;-;-;-;-;-;-;-;-;-;-;-
1514180685369;-;-;6.956848;0.73521423;-2.3707733;-;-;-;-;-;-;-;-;-;-;-;-;-;-;-
1514180685389;-;-;5.5789795;1.2200317;-3.4637299;-;-;-;-;-;-;-;-;-;-;-;-;-;-;-
1514180685409;-;-;4.3268127;1.798233;-2.4892883;-;-;-;-;-;-;-;-;-;-;-;-;-;-;-
1514180685430;-;-;5.5143433;3.1066742;-0.59547424;-;-;-;-;-;-;-;-;-;-;-;-;-;-;-
1514180685450;-;-;5.9776154;5.1034393;-1.030014;-;-;-;-;-;-;-;-;-;-;-;-;-;-;-
1514180685471;-;-;4.9086;4.9705505;-6.057846;-;-;-;-;-;-;-;-;-;-;-;-;-;-;-
1514180685491;-;-;4.0442963;0.5676117;-9.841873;-;-;-;-;-;-;-;-;-;-;-;-;-;-;-
1514180685512;-;-;7.6260223;-5.8608093;-6.361908;-;-;-;-;-;-;-;-;-;-;-;-;-;-;-
1514180685532;-;-;12.823837;-5.17128;-4.5255585;-;-;-;-;-;-;-;-;-;-;-;-;-;-;-
1514180685553;-;-;19.127762;-2.1964874;-4.282547;-;-;-;-;-;-;-;-;-;-;-;-;-;-;-
1514180685572;-;-;22.271347;-2.1497955;-6.2326202;-;-;-;-;-;-;-;-;-;-;-;-;-;-;-
1514180685593;-;-;21.885895;-4.7738495;-3.6325226;-;-;-;-;-;-;-;-;-;-;-;-;-;-;-
1514180685613;-;-;16.941864;-1.8122253;-5.092987;-;-;-;-;-;-;-;-;-;-;-;-;-;-;-
1514180685634;-;-;9.491104;0.28390503;-1.377182;-;-;-;-;-;-;-;-;-;-;-;-;-;-;-
1514180685655;-;-;2.9585266;0.7244415;-0.5320282;-;-;-;-;-;-;-;-;-;-;-;-;-;-;-
1514180685675;-;-;0.84324646;0.16778564;-1.6166077;-;-;-;-;-;-;-;-;-;-;-;-;-;-;-
1514180685695;-;-;2.142105;-0.09677124;-1.2383118;-;-;-;-;-;-;-;-;-;-;-;-;-;-;-
1514180685716;-;-;7.67749;0.052871704;-1.7171631;-;-;-;-;-;-;-;-;-;-;-;-;-;-;-
1514180685736;-;-;10.953964;0.34854126;-3.6265259;-;-;-;-;-;-;-;-;-;-;-;-;-;-;-
1514180685757;-;-;9.876572;-0.11831665;-2.5646973;-;-;-;-;-;-;-;-;-;-;-;-;-;-;-
1514180685777;-;-;6.7964325;-1.175354;-0.40872192;-;-;-;-;-;-;-;-;-;-;-;-;-;-;-
1514180685798;-;-;5.332382;-1.8565063;-0.54878235;-;-;-;-;-;-;-;-;-;-;-;-;-;-;-
1514180685818;-;-;4.7972717;-1.8816528;-1.4944916;-;-;-;-;-;-;-;-;-;-;-;-;-;-;-
1514180685839;-;-;5.703476;-1.5895538;-0.8073578;-;-;-;-;-;-;-;-;-;-;-;-;-;-;-
1514180685859;-;-;6.9233246;-2.4945679;-0.36083984;-;-;-;-;-;-;-;-;-;-;-;-;-;-;-
1514180685880;-;-;5.742981;-3.8185577;-2.4390106;-;-;-;-;-;-;-;-;-;-;-;-;-;-;-
1514180685900;-;-;4.721863;-3.139801;-6.8850403;-;-;-;-;-;-;-;-;-;-;-;-;-;-;-
1514180685920;-;-;6.388214;2.6852875;-4.2729645;-;-;-;-;-;-;-;-;-;-;-;-;-;-;-
1514180685942;-;-;10.208176;7.735855;-5.540695;-;-;-;-;-;-;-;-;-;-;-;-;-;-;-
1514180685962;-;-;18.60463;8.042313;-6.855118;-;-;-;-;-;-;-;-;-;-;-;-;-;-;-
1514180685983;-;-;18.317337;1.2284241;-4.677582;-;-;-;-;-;-;-;-;-;-;-;-;-;-;-
1514180686003;-;-;14.420761;-2.0731812;-4.975662;-;-;-;-;-;-;-;-;-;-;-;-;-;-;-
1514180686023;-;-;12.175003;-1.2028961;-3.1488953;-;-;-;-;-;-;-;-;-;-;-;-;-;-;-
1514180686044;-;-;11.739258;0.22285461;-1.1365662;-;-;-;-;-;-;-;-;-;-;-;-;-;-;-
1514180686064;-;-;10.847427;1.1685638;-2.163681;-;-;-;-;-;-;-;-;-;-;-;-;-;-;-
1514180686085;-;-;8.334702;2.06279;-0.90312195;-;-;-;-;-;-;-;-;-;-;-;-;-;-;-
1514180686106;-;-;5.4137726;2.2627106;-1.1760712;-;-;-;-;-;-;-;-;-;-;-;-;-;-;-
1514180686125;-;-;3.837204;0.9303436;0.04736328;-;-;-;-;-;-;-;-;-;-;-;-;-;-;-
1514180686146;-;-;4.067047;-1.0712128;0.46276855;-;-;-;-;-;-;-;-;-;-;-;-;-;-;-
1514180686166;-;-;7.7169952;-1.4255524;0.3322754;-;-;-;-;-;-;-;-;-;-;-;-;-;-;-
1514180686186;-;-;8.1479645;0.040893555;-2.2438812;-;-;-;-;-;-;-;-;-;-;-;-;-;-;-
1514180686207;-;-;6.078171;0.99858093;-2.934616;-;-;-;-;-;-;-;-;-;-;-;-;-;-;-
1514180686227;-;-;4.106552;0.5819855;0.053359985;-;-;-;-;-;-;-;-;-;-;-;-;-;-;-
1514180686248;-;-;5.3108215;0.43234253;1.8897095;-;-;-;-;-;-;-;-;-;-;-;-;-;-;-
1514180686268;-;-;9.566528;1.1637726;0.18862915;-;-;-;-;-;-;-;-;-;-;-;-;-;-;-
1514180686289;-;-;11.09642;2.5967102;-2.4330292;-;-;-;-;-;-;-;-;-;-;-;-;-;-;-
1514180686308;-;-;9.63356;2.1860962;-1.0683289;-;-;-;-;-;-;-;-;-;-;-;-;-;-;-
1514180686329;-;-;8.908112;-0.14465332;-0.34648132;-;-;-;-;-;-;-;-;-;-;-;-;-;-;-
1514180686348;-;-;7.5601807;-0.15542603;-2.8268738;-;-;-;-;-;-;-;-;-;-;-;-;-;-;-
1514180686368;-;-;7.046631;-0.51934814;-6.8335724;-;-;-;-;-;-;-;-;-;-;-;-;-;-;-
1514180686389;-;-;10.257248;-1.2232513;-10.913284;-;-;-;-;-;-;-;-;-;-;-;-;-;-;-
1514180686409;-;-;14.827774;-3.9442596;-7.884613;-;-;-;-;-;-;-;-;-;-;-;-;-;-;-
1514180686430;-;-;21.483658;-3.2056427;-8.857864;-;-;-;-;-;-;-;-;-;-;-;-;-;-;-
1514180686450;-;-;22.527527;-1.6972961;-10.193832;-;-;-;-;-;-;-;-;-;-;-;-;-;-;-
1514180686471;-;-;21.557877;1.9358978;-7.310013;-;-;-;-;-;-;-;-;-;-;-;-;-;-;-
1514180686493;-;-;12.87291;2.0256805;-4.03714;-;-;-;-;-;-;-;-;-;-;-;-;-;-;-
1514180686512;-;-;6.3738556;0.7591553;-1.5196381;-;-;-;-;-;-;-;-;-;-;-;-;-;-;-
1514180686533;-;-;4.149643;-0.60194397;-1.990097;-;-;-;-;-;-;-;-;-;-;-;-;-;-;-
1514180686553;-;-;3.739029;-1.5823822;-1.2012024;-;-;-;-;-;-;-;-;-;-;-;-;-;-;-
1514180686573;-;-;4.0335236;-1.0616302;-1.4298553;-;-;-;-;-;-;-;-;-;-;-;-;-;-;-
1514180686593;-;-;3.9617004;-0.03453064;-1.361618;-;-;-;-;-;-;-;-;-;-;-;-;-;-;-
1514180686614;-;-;3.6456604;-0.41281128;-0.87319946;-;-;-;-;-;-;-;-;-;-;-;-;-;-;-
1514180686634;-;-;4.213089;-1.759552;0.13356018;-;-;-;-;-;-;-;-;-;-;-;-;-;-;-
1514180686655;-;-;5.6017303;-1.9857941;0.49508667;-;-;-;-;-;-;-;-;-;-;-;-;-;-;-
1514180686676;-;-;7.292038;-1.7212372;0.3322754;-;-;-;-;-;-;-;-;-;-;-;-;-;-;-
1514180686696;-;-;8.238937;-2.1689606;-0.29978943;-;-;-;-;-;-;-;-;-;-;-;-;-;-;-
1514180686717;-;-;9.051773;-3.4295044;-2.3468323;-;-;-;-;-;-;-;-;-;-;-;-;-;-;-
1514180686737;-;-;11.058105;-3.3959808;-2.9453888;-;-;-;-;-;-;-;-;-;-;-;-;-;-;-
1514180686758;-;-;13.324219;-1.9091797;-0.01727295;-;-;-;-;-;-;-;-;-;-;-;-;-;-;-
1514180686779;-;-;14.800247;-0.39006042;1.7221069;-;-;-;-;-;-;-;-;-;-;-;-;-;-;-
1514180686799;-;-;13.993408;-0.6582184;-3.0040436;-;-;-;-;-;-;-;-;-;-;-;-;-;-;-
1514180686819;-;-;10.088455;-1.278305;-12.524582;-;-;-;-;-;-;-;-;-;-;-;-;-;-;-
1514180686840;-;-;9.657501;0.62628174;-7.3171997;-;-;-;-;-;-;-;-;-;-;-;-;-;-;-
1514180686860;-;-;6.7617188;2.8684387;-6.334381;-;-;-;-;-;-;-;-;-;-;-;-;-;-;-
1514180686881;-;-;5.1839294;3.134201;-6.3116302;-;-;-;-;-;-;-;-;-;-;-;-;-;-;-
1514180686901;-;-;7.1914673;0.34495544;-3.970108;-;-;-;-;-;-;-;-;-;-;-;-;-;-;-
1514180686921;-;-;12.297104;-2.863266;-5.168396;-;-;-;-;-;-;-;-;-;-;-;-;-;-;-
1514180686943;-;-;16.770676;-5.432251;-5.3407745;-;-;-;-;-;-;-;-;-;-;-;-;-;-;-
1514180686962;-;-;15.815384;-4.527237;-4.6632233;-;-;-;-;-;-;-;-;-;-;-;-;-;-;-
1514180686983;-;-;10.6271515;-1.5428772;-4.4908447;-;-;-;-;-;-;-;-;-;-;-;-;-;-;-
1514180687003;-;-;5.965637;-0.44631958;-4.11734;-;-;-;-;-;-;-;-;-;-;-;-;-;-;-
1514180687024;-;-;1.8536072;0.3497467;-4.9600983;-;-;-;-;-;-;-;-;-;-;-;-;-;-;-
1514180687044;-;-;0.27104187;0.8273926;-4.857147;-;-;-;-;-;-;-;-;-;-;-;-;-;-;-
1514180687065;-;-;2.6053772;1.492981;-4.4669037;-;-;-;-;-;-;-;-;-;-;-;-;-;-;-
1514180687084;-;-;5.675949;1.9730072;-3.156067;-;-;-;-;-;-;-;-;-;-;-;-;-;-;-
1514180687105;-;-;9.434845;2.232788;-3.8432007;-;-;-;-;-;-;-;-;-;-;-;-;-;-;-
1514180687125;-;-;8.546585;3.2814484;-4.445343;-;-;-;-;-;-;-;-;-;-;-;-;-;-;-
1514180687146;-;-;6.814392;3.723175;-4.1927643;-;-;-;-;-;-;-;-;-;-;-;-;-;-;-
1514180687165;-;-;6.099716;3.2323608;-3.3739471;-;-;-;-;-;-;-;-;-;-;-;-;-;-;-
1514180687186;-;-;6.304428;1.5193176;-2.115799;-;-;-;-;-;-;-;-;-;-;-;-;-;-;-
1514180687206;-;-;7.2201996;0.6717682;-2.2726135;-;-;-;-;-;-;-;-;-;-;-;-;-;-;-
1514180687226;-;-;8.801575;2.2579193;-3.1788177;-;-;-;-;-;-;-;-;-;-;-;-;-;-;-
1514180687247;-;-;9.821503;3.6453705;-4.840393;-;-;-;-;-;-;-;-;-;-;-;-;-;-;-
1514180687266;-;-;10.732498;3.7363434;-1.6441345;-;-;-;-;-;-;-;-;-;-;-;-;-;-;-
1514180687287;-;-;11.297531;1.4570618;-0.5571594;-;-;-;-;-;-;-;-;-;-;-;-;-;-;-
1514180687306;-;-;12.175003;-0.30148315;-6.9796143;-;-;-;-;-;-;-;-;-;-;-;-;-;-;-
1514180687327;-;-;12.968689;-4.02446;-7.362686;-;-;-;-;-;-;-;-;-;-;-;-;-;-;-
1514180687347;-;-;11.043747;-6.448593;-3.338028;-;-;-;-;-;-;-;-;-;-;-;-;-;-;-
1514180687368;-;-;7.997116;-6.6688538;-5.5179596;-;-;-;-;-;-;-;-;-;-;-;-;-;-;-
1514180687388;-;-;7.216614;-4.9558105;-7.402191;-;-;-;-;-;-;-;-;-;-;-;-;-;-;-
1514180687410;-;-;7.9660034;-0.50738525;-6.6851196;-;-;-;-;-;-;-;-;-;-;-;-;-;-;-
1514180687429;-;-;9.940018;2.8289337;-5.867508;-;-;-;-;-;-;-;-;-;-;-;-;-;-;-
1514180687448;-;-;10.333862;3.3891907;-6.0554504;-;-;-;-;-;-;-;-;-;-;-;-;-;-;-
1514180687469;-;-;10.34584;2.370453;-5.7035065;-;-;-;-;-;-;-;-;-;-;-;-;-;-;-
1514180687489;-;-;9.279221;1.114685;-4.2765656;-;-;-;-;-;-;-;-;-;-;-;-;-;-;-
1514180687509;-;-;7.7337646;-0.15184021;-3.1452942;-;-;-;-;-;-;-;-;-;-;-;-;-;-;-
1514180687529;-;-;5.5358887;-1.451889;-2.4485931;-;-;-;-;-;-;-;-;-;-;-;-;-;-;-
1514180687550;-;-;3.3092804;-2.0193176;-1.9158783;-;-;-;-;-;-;-;-;-;-;-;-;-;-;-
1514180687570;-;-;2.2833557;-1.8062286;-1.8943329;-;-;-;-;-;-;-;-;-;-;-;-;-;-;-
1514180687591;-;-;4.014374;-0.42118835;-1.9601746;-;-;-;-;-;-;-;-;-;-;-;-;-;-;-
1514180687611;-;-;5.944092;1.2451782;-2.4857025;-;-;-;-;-;-;-;-;-;-;-;-;-;-;-
1514180687632;-;-;7.4608154;2.3022156;-2.1026306;-;-;-;-;-;-;-;-;-;-;-;-;-;-;-
1514180687652;-;-;8.491531;2.3932037;-1.3759766;-;-;-;-;-;-;-;-;-;-;-;-;-;-;-
1514180687673;-;-;9.657501;1.9730072;-1.2490845;-;-;-;-;-;-;-;-;-;-;-;-;-;-;-
1514180687693;-;-;11.463928;0.43473816;-1.7889862;-;-;-;-;-;-;-;-;-;-;-;-;-;-;-
1514180687714;-;-;13.089584;-1.6051178;-2.4904785;-;-;-;-;-;-;-;-;-;-;-;-;-;-;-
1514180687735;-;-;11.886505;-4.017273;-2.8029327;-;-;-;-;-;-;-;-;-;-;-;-;-;-;-
1514180687756;-;-;10.084869;-5.0144653;0.21496582;-;-;-;-;-;-;-;-;-;-;-;-;-;-;-
1514180687775;-;-;9.977127;-4.7594757;-2.124176;-;-;-;-;-;-;-;-;-;-;-;-;-;-;-
1514180687796;-;-;10.794754;-3.534851;-8.20784;-;-;-;-;-;-;-;-;-;-;-;-;-;-;-
1514180687817;-;-;9.506668;-0.46069336;-10.163895;-;-;-;-;-;-;-;-;-;-;-;-;-;-;-
1514180687837;-;-;7.4297028;3.4921417;-7.591324;-;-;-;-;-;-;-;-;-;-;-;-;-;-;-
1514180687858;-;-;5.866287;6.1844177;-5.9920044;-;-;-;-;-;-;-;-;-;-;-;-;-;-;-
1514180687877;-;-;6.462433;5.2063904;-4.028763;-;-;-;-;-;-;-;-;-;-;-;-;-;-;-
1514180687898;-;-;8.695038;0.6729584;-5.800461;-;-;-;-;-;-;-;-;-;-;-;-;-;-;-
1514180687917;-;-;13.217682;-3.8125763;-4.445343;-;-;-;-;-;-;-;-;-;-;-;-;-;-;-
1514180687938;-;-;13.9036255;-3.1326141;-4.129318;-;-;-;-;-;-;-;-;-;-;-;-;-;-;-
1514180687958;-;-;10.791153;0.51135254;-3.6971588;-;-;-;-;-;-;-;-;-;-;-;-;-;-;-
1514180687979;-;-;8.213791;2.3465118;-3.0782623;-;-;-;-;-;-;-;-;-;-;-;-;-;-;-
1514180687999;-;-;4.608124;3.264679;-1.9098969;-;-;-;-;-;-;-;-;-;-;-;-;-;-;-
1514180688020;-;-;2.1193542;2.433899;-1.1389618;-;-;-;-;-;-;-;-;-;-;-;-;-;-;-
1514180688040;-;-;1.8404388;0.91477966;-1.1892395;-;-;-;-;-;-;-;-;-;-;-;-;-;-;-
1514180688061;-;-;4.3064575;-0.581604;-1.2263489;-;-;-;-;-;-;-;-;-;-;-;-;-;-;-
1514180688081;-;-;6.118866;-0.5037842;-1.3867645;-;-;-;-;-;-;-;-;-;-;-;-;-;-;-
1514180688102;-;-;6.245758;-0.057266235;-0.9438324;-;-;-;-;-;-;-;-;-;-;-;-;-;-;-
1514180688121;-;-;6.704254;0.19770813;-0.4817505;-;-;-;-;-;-;-;-;-;-;-;-;-;-;-
1514180688142;-;-;7.3052063;0.26235962;-1.3999176;-;-;-;-;-;-;-;-;-;-;-;-;-;-;-
1514180688161;-;-;7.7577057;-0.09916687;-2.867569;-;-;-;-;-;-;-;-;-;-;-;-;-;-;-
1514180688182;-;-;8.235352;-0.43675232;-2.0798798;-;-;-;-;-;-;-;-;-;-;-;-;-;-;-
1514180688202;-;-;8.200638;0.13186646;-0.456604;-;-;-;-;-;-;-;-;-;-;-;-;-;-;-
1514180688223;-;-;8.126404;1.303833;-1.0084686;-;-;-;-;-;-;-;-;-;-;-;-;-;-;-
1514180688243;-;-;8.64476;1.8712616;-3.1871948;-;-;-;-;-;-;-;-;-;-;-;-;-;-;-
1514180688264;-;-;9.222961;2.275879;-4.753006;-;-;-;-;-;-;-;-;-;-;-;-;-;-;-
1514180688284;-;-;9.49469;2.2136383;-5.4497223;-;-;-;-;-;-;-;-;-;-;-;-;-;-;-
1514180688305;-;-;9.105637;0.7986603;-4.362747;-;-;-;-;-;-;-;-;-;-;-;-;-;-;-
1514180688325;-;-;5.8591003;0.27552795;-5.1588287;-;-;-;-;-;-;-;-;-;-;-;-;-;-;-
1514180688346;-;-;3.047104;-0.75756836;-3.5547028;-;-;-;-;-;-;-;-;-;-;-;-;-;-;-
1514180688366;-;-;2.916626;-3.0955048;-3.685196;-;-;-;-;-;-;-;-;-;-;-;-;-;-;-
1514180688386;-;-;7.7253876;-3.1266327;-6.545059;-;-;-;-;-;-;-;-;-;-;-;-;-;-;-
1514180688407;-;-;14.898407;-2.372467;-12.550919;-;-;-;-;-;-;-;-;-;-;-;-;-;-;-
1514180688426;-;-;22.624496;0.19770813;-3.6875916;-;-;-;-;-;-;-;-;-;-;-;-;-;-;-
1514180688446;-;-;22.019958;3.3460846;-4.2777557;-;-;-;-;-;-;-;-;-;-;-;-;-;-;-
1514180688467;-;-;15.981781;0.6035309;-2.4773102;-;-;-;-;-;-;-;-;-;-;-;-;-;-;-
1514180688487;-;-;9.88974;-1.8445435;-1.3712006;-;-;-;-;-;-;-;-;-;-;-;-;-;-;-
1514180688507;-;-;3.8084717;-2.921936;0.21257019;-;-;-;-;-;-;-;-;-;-;-;-;-;-;-
1514180688527;-;-;-0.47476196;-2.1857147;0.74887085;-;-;-;-;-;-;-;-;-;-;-;-;-;-;-
1514180688548;-;-;-1.4887085;-1.1418457;0.05455017;-;-;-;-;-;-;-;-;-;-;-;-;-;-;-
1514180688568;-;-;4.269348;-0.41041565;-2.5934296;-;-;-;-;-;-;-;-;-;-;-;-;-;-;-
1514180688589;-;-;10.54216;1.868866;-3.1105804;-;-;-;-;-;-;-;-;-;-;-;-;-;-;-
1514180688610;-;-;13.26915;3.055191;-3.5295715;-;-;-;-;-;-;-;-;-;-;-;-;-;-;-
1514180688629;-;-;11.829041;2.3608704;-3.899475;-;-;-;-;-;-;-;-;-;-;-;-;-;-;-
1514180688650;-;-;9.914871;0.5532532;-2.8771515;-;-;-;-;-;-;-;-;-;-;-;-;-;-;-
1514180688670;-;-;7.506317;-1.1047363;-4.175995;-;-;-;-;-;-;-;-;-;-;-;-;-;-;-
1514180688690;-;-;7.1471863;-2.0265045;-4.3052826;-;-;-;-;-;-;-;-;-;-;-;-;-;-;-
1514180688711;-;-;5.0690155;-2.7603302;-2.6329346;-;-;-;-;-;-;-;-;-;-;-;-;-;-;-
1514180688731;-;-;1.5435486;-2.5077362;-4.413025;-;-;-;-;-;-;-;-;-;-;-;-;-;-;-
1514180688751;-;-;2.1241455;-0.59716797;-3.7546234;-;-;-;-;-;-;-;-;-;-;-;-;-;-;-
1514180688772;-;-;6.481598;2.4386902;-2.55513;-;-;-;-;-;-;-;-;-;-;-;-;-;-;-
1514180688791;-;-;10.908478;4.7526855;-4.4142303;-;-;-;-;-;-;-;-;-;-;-;-;-;-;-
1514180688812;-;-;16.96939;3.2970123;-3.9282074;-;-;-;-;-;-;-;-;-;-;-;-;-;-;-
1514180688832;-;-;16.933487;1.0057526;-4.6763916;-;-;-;-;-;-;-;-;-;-;-;-;-;-;-
1514180688852;-;-;17.188461;-0.61990356;-6.7796936;-;-;-;-;-;-;-;-;-;-;-;-;-;-;-
1514180688872;-;-;10.914459;0.87527466;-3.4026794;-;-;-;-;-;-;-;-;-;-;-;-;-;-;-
1514180688893;-;-;6.992752;2.0161133;-1.0707245;-;-;-;-;-;-;-;-;-;-;-;-;-;-;-
1514180688913;-;-;3.4649048;2.5272675;0.77041626;-;-;-;-;-;-;-;-;-;-;-;-;-;-;-
1514180688934;-;-;3.4373627;1.9837952;1.1726379;-;-;-;-;-;-;-;-;-;-;-;-;-;-;-
1514180688953;-;-;5.592148;2.0687866;-0.20521545;-;-;-;-;-;-;-;-;-;-;-;-;-;-;-
1514180688974;-;-;8.577713;1.3373566;-2.096634;-;-;-;-;-;-;-;-;-;-;-;-;-;-;-
1514180688993;-;-;10.554138;-0.6115265;-1.9924927;-;-;-;-;-;-;-;-;-;-;-;-;-;-;-
1514180689014;-;-;11.641098;-2.071991;-0.7199707;-;-;-;-;-;-;-;-;-;-;-;-;-;-;-
1514180689033;-;-;12.93158;-1.3273926;-1.8045502;-;-;-;-;-;-;-;-;-;-;-;-;-;-;-
1514180689054;-;-;11.5872345;1.3337555;-4.9972076;-;-;-;-;-;-;-;-;-;-;-;-;-;-;-
1514180689074;-;-;7.830719;1.0871582;-5.400635;-;-;-;-;-;-;-;-;-;-;-;-;-;-;-
1514180689095;-;-;3.1117554;-0.026138306;-3.6804047;-;-;-;-;-;-;-;-;-;-;-;-;-;-;-
1514180689115;-;-;-0.6866455;0.13665771;-1.7973633;-;-;-;-;-;-;-;-;-;-;-;-;-;-;-
1514180689136;-;-;-1.4252625;-0.48942566;-1.550766;-;-;-;-;-;-;-;-;-;-;-;-;-;-;-
1514180689155;-;-;1.496872;-1.8206024;-4.7518005;-;-;-;-;-;-;-;-;-;-;-;-;-;-;-
1514180689176;-;-;9.29837;-1.3465424;-6.3439484;-;-;-;-;-;-;-;-;-;-;-;-;-;-;-
1514180689197;-;-;16.129028;-0.030929565;-9.176285;-;-;-;-;-;-;-;-;-;-;-;-;-;-;-
1514180689217;-;-;25.748932;1.5360718;-1.4705505;-;-;-;-;-;-;-;-;-;-;-;-;-;-;-
1514180689237;-;-;20.351212;1.185318;-3.7043457;-;-;-;-;-;-;-;-;-;-;-;-;-;-;-
1514180689258;-;-;14.354919;-0.117126465;-2.254654;-;-;-;-;-;-;-;-;-;-;-;-;-;-;-
1514180689279;-;-;8.210205;-1.8601074;-1.5304108;-;-;-;-;-;-;-;-;-;-;-;-;-;-;-
1514180689299;-;-;3.6408691;-2.550827;0.25686646;-;-;-;-;-;-;-;-;-;-;-;-;-;-;-
1514180689320;-;-;2.0403442;-2.4215393;0.22453308;-;-;-;-;-;-;-;-;-;-;-;-;-;-;-
1514180689340;-;-;4.9935913;-1.9654541;-0.93904114;-;-;-;-;-;-;-;-;-;-;-;-;-;-;-
1514180689360;-;-;10.651093;1.6126862;-1.9218597;-;-;-;-;-;-;-;-;-;-;-;-;-;-;-
1514180689381;-;-;12.398865;2.7918243;-3.6528625;-;-;-;-;-;-;-;-;-;-;-;-;-;-;-
1514180689401;-;-;10.124374;1.3313751;-3.8898926;-;-;-;-;-;-;-;-;-;-;-;-;-;-;-
1514180689421;-;-;7.20105;-0.54689026;-2.7406769;-;-;-;-;-;-;-;-;-;-;-;-;-;-;-
1514180689442;-;-;4.666794;-1.5081482;-3.0243835;-;-;-;-;-;-;-;-;-;-;-;-;-;-;-
1514180689462;-;-;3.833603;-1.3034515;-3.5523071;-;-;-;-;-;-;-;-;-;-;-;-;-;-;-
1514180689482;-;-;2.9226074;-1.1526184;-3.1967773;-;-;-;-;-;-;-;-;-;-;-;-;-;-;-
1514180689503;-;-;0.79655457;-1.4159851;-0.81933594;-;-;-;-;-;-;-;-;-;-;-;-;-;-;-
1514180689523;-;-;1.3352509;-0.45231628;-1.7434998;-;-;-;-;-;-;-;-;-;-;-;-;-;-;-
1514180689543;-;-;6.4851837;1.8233795;-2.2438812;-;-;-;-;-;-;-;-;-;-;-;-;-;-;-
1514180689564;-;-;12.561676;3.4083405;-5.777725;-;-;-;-;-;-;-;-;-;-;-;-;-;-;-
1514180689584;-;-;19.048752;1.303833;-3.2925415;-;-;-;-;-;-;-;-;-;-;-;-;-;-;-
1514180689605;-;-;20.942566;-0.7563782;-7.690689;-;-;-;-;-;-;-;-;-;-;-;-;-;-;-
1514180689625;-;-;23.622879;0.105529785;-6.3080444;-;-;-;-;-;-;-;-;-;-;-;-;-;-;-
1514180689645;-;-;14.996567;1.6701508;-1.1688843;-;-;-;-;-;-;-;-;-;-;-;-;-;-;-
1514180689665;-;-;8.791992;3.44664;-0.9546051;-;-;-;-;-;-;-;-;-;-;-;-;-;-;-
1514180689686;-;-;2.382721;3.494522;-1.3436584;-;-;-;-;-;-;-;-;-;-;-;-;-;-;-
1514180689706;-;-;0.53678894;1.9107666;-0.45780945;-;-;-;-;-;-;-;-;-;-;-;-;-;-;-
1514180689727;-;-;4.6584015;-0.18415833;0.28799438;-;-;-;-;-;-;-;-;-;-;-;-;-;-;-
1514180689748;-;-;11.580048;-1.3860474;-0.48414612;-;-;-;-;-;-;-;-;-;-;-;-;-;-;-
1514180689768;-;-;11.891296;-2.392807;-1.4861145;-;-;-;-;-;-;-;-;-;-;-;-;-;-;-
1514180689789;-;-;9.428848;-1.9474945;-1.697998;-;-;-;-;-;-;-;-;-;-;-;-;-;-;-
1514180689809;-;-;6.2505493;-0.069244385;-2.5419617;-;-;-;-;-;-;-;-;-;-;-;-;-;-;-
1514180689829;-;-;5.0809784;0.9028015;-2.898697;-;-;-;-;-;-;-;-;-;-;-;-;-;-;-
1514180689851;-;-;5.2425995;0.8716736;-2.6377258;-;-;-;-;-;-;-;-;-;-;-;-;-;-;-
1514180689871;-;-;5.04747;1.4606476;-2.6796265;-;-;-;-;-;-;-;-;-;-;-;-;-;-;-
1514180689892;-;-;3.0076141;2.9378815;-5.583786;-;-;-;-;-;-;-;-;-;-;-;-;-;-;-
1514180689912;-;-;1.991272;2.1465912;-4.6368866;-;-;-;-;-;-;-;-;-;-;-;-;-;-;-
1514180689932;-;-;4.769745;-1.5488586;-4.1628265;-;-;-;-;-;-;-;-;-;-;-;-;-;-;-
1514180689952;-;-;10.712143;-3.1062775;-8.292831;-;-;-;-;-;-;-;-;-;-;-;-;-;-;-
1514180689973;-;-;17.961792;-2.4371033;-3.3871155;-;-;-;-;-;-;-;-;-;-;-;-;-;-;-
1514180689993;-;-;20.686386;-0.93833923;-6.821594;-;-;-;-;-;-;-;-;-;-;-;-;-;-;-
1514180690015;-;-;20.727097;-0.76116943;-3.2410736;-;-;-;-;-;-;-;-;-;-;-;-;-;-;-
1514180690034;-;-;14.420761;0.92555237;-2.1373444;-;-;-;-;-;-;-;-;-;-;-;-;-;-;-
1514180690054;-;-;9.6862335;0.47903442;-0.7606659;-;-;-;-;-;-;-;-;-;-;-;-;-;-;-
1514180690075;-;-;5.695099;-0.05607605;-1.5806885;-;-;-;-;-;-;-;-;-;-;-;-;-;-;-
1514180690094;-;-;3.5283508;-0.083602905;-0.22557068;-;-;-;-;-;-;-;-;-;-;-;-;-;-;-
1514180690115;-;-;4.244217;-0.65940857;0.32987976;-;-;-;-;-;-;-;-;-;-;-;-;-;-;-
1514180690134;-;-;7.4991302;-1.6398315;-1.5136566;-;-;-;-;-;-;-;-;-;-;-;-;-;-;-
1514180690154;-;-;9.996277;-0.18536377;-3.7905426;-;-;-;-;-;-;-;-;-;-;-;-;-;-;-
1514180690175;-;-;9.331894;1.6126862;-3.1057892;-;-;-;-;-;-;-;-;-;-;-;-;-;-;-
1514180690195;-;-;7.9588165;1.125473;-1.447815;-;-;-;-;-;-;-;-;-;-;-;-;-;-;-
1514180690216;-;-;7.02269;-0.18296814;-0.07234192;-;-;-;-;-;-;-;-;-;-;-;-;-;-;-
1514180690236;-;-;5.608902;-1.333374;-2.7275085;-;-;-;-;-;-;-;-;-;-;-;-;-;-;-
1514180690257;-;-;5.765732;-1.1538086;-4.2969055;-;-;-;-;-;-;-;-;-;-;-;-;-;-;-
1514180690277;-;-;5.134857;-1.6625824;-3.930603;-;-;-;-;-;-;-;-;-;-;-;-;-;-;-
1514180690298;-;-;4.3100586;-2.5244904;-2.6389313;-;-;-;-;-;-;-;-;-;-;-;-;-;-;-
1514180690318;-;-;2.7657928;-1.5141449;-1.5136566;-;-;-;-;-;-;-;-;-;-;-;-;-;-;-
1514180690338;-;-;2.3228607;1.1158905;-3.3583832;-;-;-;-;-;-;-;-;-;-;-;-;-;-;-
1514180690359;-;-;4.6416473;3.4562225;-4.799698;-;-;-;-;-;-;-;-;-;-;-;-;-;-;-
1514180690379;-;-;11.526184;4.528824;-7.3435364;-;-;-;-;-;-;-;-;-;-;-;-;-;-;-
1514180690399;-;-;20.928207;2.4171448;-3.5295715;-;-;-;-;-;-;-;-;-;-;-;-;-;-;-
1514180690420;-;-;19.98729;-2.7567291;-1.6812439;-;-;-;-;-;-;-;-;-;-;-;-;-;-;-
1514180690440;-;-;16.677307;-3.5408325;-7.8535004;-;-;-;-;-;-;-;-;-;-;-;-;-;-;-
1514180690460;-;-;15.129456;0.8022461;-5.0271454;-;-;-;-;-;-;-;-;-;-;-;-;-;-;-
1514180690481;-;-;11.062897;3.3903809;-1.6560974;-;-;-;-;-;-;-;-;-;-;-;-;-;-;-
1514180690501;-;-;5.829178;4.698807;0.5118408;-;-;-;-;-;-;-;-;-;-;-;-;-;-;-
1514180690521;-;-;4.244217;2.881607;0.3777771;-;-;-;-;-;-;-;-;-;-;-;-;-;-;-
1514180690542;-;-;5.2198486;-0.093185425;-0.12980652;-;-;-;-;-;-;-;-;-;-;-;-;-;-;-
1514180690563;-;-;6.664749;-2.1809235;-0.76187134;-;-;-;-;-;-;-;-;-;-;-;-;-;-;-
1514180690583;-;-;8.405334;-2.894394;-0.827713;-;-;-;-;-;-;-;-;-;-;-;-;-;-;-
1514180690604;-;-;12.586807;-2.5220947;-1.1629028;-;-;-;-;-;-;-;-;-;-;-;-;-;-;-
1514180690624;-;-;12.51738;-1.6182861;-3.5535126;-;-;-;-;-;-;-;-;-;-;-;-;-;-;-
1514180690645;-;-;6.849106;0.1953125;-4.559067;-;-;-;-;-;-;-;-;-;-;-;-;-;-;-
1514180690665;-;-;3.3487854;0.9614563;-3.9557343;-;-;-;-;-;-;-;-;-;-;-;-;-;-;-
1514180690685;-;-;1.9349976;1.030899;-3.935379;-;-;-;-;-;-;-;-;-;-;-;-;-;-;-
1514180690706;-;-;-0.05697632;2.248352;-2.7993317;-;-;-;-;-;-;-;-;-;-;-;-;-;-;-
1514180690727;-;-;-2.3984985;3.7255707;-1.4346466;-;-;-;-;-;-;-;-;-;-;-;-;-;-;-
1514180690747;-;-;-1.4551849;0.8010559;-1.4537964;-;-;-;-;-;-;-;-;-;-;-;-;-;-;-
1514180690768;-;-;8.007904;-3.5288544;-9.631195;-;-;-;-;-;-;-;-;-;-;-;-;-;-;-
1514180690788;-;-;16.9263;-0.95269775;-10.51944;-;-;-;-;-;-;-;-;-;-;-;-;-;-;-
1514180690809;-;-;30.028564;0.09236145;-0.99650574;-;-;-;-;-;-;-;-;-;-;-;-;-;-;-
1514180690828;-;-;30.564865;-1.8146057;-1.8883362;-;-;-;-;-;-;-;-;-;-;-;-;-;-;-
1514180690849;-;-;17.962982;-3.225998;-4.7158966;-;-;-;-;-;-;-;-;-;-;-;-;-;-;-
1514180690869;-;-;9.67186;-3.2319794;-2.2342987;-;-;-;-;-;-;-;-;-;-;-;-;-;-;-
1514180690890;-;-;2.93219;-2.6035004;0.3993225;-;-;-;-;-;-;-;-;-;-;-;-;-;-;-
1514180690910;-;-;0.8600006;-1.5057678;0.3933258;-;-;-;-;-;-;-;-;-;-;-;-;-;-;-
1514180690931;-;-;3.4529266;-1.194519;-0.98213196;-;-;-;-;-;-;-;-;-;-;-;-;-;-;-
1514180690951;-;-;10.22493;0.42755127;-3.1608582;-;-;-;-;-;-;-;-;-;-;-;-;-;-;-
1514180690972;-;-;13.6642;2.813385;-2.63414;-;-;-;-;-;-;-;-;-;-;-;-;-;-;-
1514180690992;-;-;10.613983;1.8963928;-2.6293488;-;-;-;-;-;-;-;-;-;-;-;-;-;-;-
1514180691012;-;-;5.612503;-0.84017944;-1.2610626;-;-;-;-;-;-;-;-;-;-;-;-;-;-;-
1514180691032;-;-;2.6963654;-2.2707062;-2.1732483;-;-;-;-;-;-;-;-;-;-;-;-;-;-;-
1514180691053;-;-;2.6472778;-2.1186829;-4.778137;-;-;-;-;-;-;-;-;-;-;-;-;-;-;-
1514180691072;-;-;1.857193;-2.5855408;-5.176773;-;-;-;-;-;-;-;-;-;-;-;-;-;-;-
1514180691093;-;-;0.6098175;-3.8736267;-3.8001099;-;-;-;-;-;-;-;-;-;-;-;-;-;-;-
1514180691113;-;-;4.924164;-1.661377;-3.3488007;-;-;-;-;-;-;-;-;-;-;-;-;-;-;-
1514180691133;-;-;10.518219;3.0839233;-7.0251007;-;-;-;-;-;-;-;-;-;-;-;-;-;-;-
1514180691154;-;-;18.692017;6.05513;-4.013199;-;-;-;-;-;-;-;-;-;-;-;-;-;-;-
1514180691174;-;-;22.375504;4.8293;-3.62294;-;-;-;-;-;-;-;-;-;-;-;-;-;-;-
1514180691194;-;-;18.838074;2.6290283;-9.17749;-;-;-;-;-;-;-;-;-;-;-;-;-;-;-
1514180691215;-;-;13.976639;1.5851593;-2.5204163;-;-;-;-;-;-;-;-;-;-;-;-;-;-;-
1514180691235;-;-;9.067337;1.0045624;-0.9641876;-;-;-;-;-;-;-;-;-;-;-;-;-;-;-
1514180691255;-;-;5.8411407;1.085968;-1.1221924;-;-;-;-;-;-;-;-;-;-;-;-;-;-;-
1514180691275;-;-;5.1959076;0.100753784;-0.49850464;-;-;-;-;-;-;-;-;-;-;-;-;-;-;-
1514180691296;-;-;4.4201813;-1.3764801;-0.0053100586;-;-;-;-;-;-;-;-;-;-;-;-;-;-;-
1514180691316;-;-;4.2178802;-1.9355164;0.24249268;-;-;-;-;-;-;-;-;-;-;-;-;-;-;-
1514180691337;-;-;7.7541046;-0.36611938;-1.0802917;-;-;-;-;-;-;-;-;-;-;-;-;-;-;-
1514180691358;-;-;10.203384;1.114685;-3.1022034;-;-;-;-;-;-;-;-;-;-;-;-;-;-;-
1514180691377;-;-;9.304352;1.6497955;-3.1907806;-;-;-;-;-;-;-;-;-;-;-;-;-;-;-
1514180691397;-;-;7.087326;0.63345337;-0.4745636;-;-;-;-;-;-;-;-;-;-;-;-;-;-;-
1514180691418;-;-;5.197098;-0.49301147;1.4348145;-;-;-;-;-;-;-;-;-;-;-;-;-;-;-
1514180691437;-;-;6.379837;-0.13748169;-0.5619507;-;-;-;-;-;-;-;-;-;-;-;-;-;-;-
1514180691458;-;-;8.479553;1.0165253;-3.7031403;-;-;-;-;-;-;-;-;-;-;-;-;-;-;-
1514180691478;-;-;7.8247375;1.532486;-3.1943817;-;-;-;-;-;-;-;-;-;-;-;-;-;-;-
1514180691499;-;-;4.948105;1.8497162;-0.5404053;-;-;-;-;-;-;-;-;-;-;-;-;-;-;-
1514180691519;-;-;3.7246704;1.4738159;-1.6848297;-;-;-;-;-;-;-;-;-;-;-;-;-;-;-
1514180691540;-;-;3.656433;-1.3166199;-8.416138;-;-;-;-;-;-;-;-;-;-;-;-;-;-;-
1514180691560;-;-;8.392166;-3.1996613;-10.259674;-;-;-;-;-;-;-;-;-;-;-;-;-;-;-
1514180691581;-;-;15.068405;-3.305008;-5.83638;-;-;-;-;-;-;-;-;-;-;-;-;-;-;-
1514180691601;-;-;23.341568;-2.771103;-9.031448;-;-;-;-;-;-;-;-;-;-;-;-;-;-;-
1514180691622;-;-;29.01941;-3.6916656;-7.8079987;-;-;-;-;-;-;-;-;-;-;-;-;-;-;-
1514180691642;-;-;25.092926;-1.2483826;-9.712601;-;-;-;-;-;-;-;-;-;-;-;-;-;-;-
1514180691663;-;-;15.762711;0.44192505;-3.6971588;-;-;-;-;-;-;-;-;-;-;-;-;-;-;-
1514180691683;-;-;6.5474396;1.2104645;-0.7187805;-;-;-;-;-;-;-;-;-;-;-;-;-;-;-
1514180691703;-;-;2.7322693;0.9638519;-1.9481964;-;-;-;-;-;-;-;-;-;-;-;-;-;-;-
1514180691723;-;-;1.5627136;-0.33738708;-1.9075012;-;-;-;-;-;-;-;-;-;-;-;-;-;-;-
1514180691744;-;-;3.1596375;-2.2252197;-1.6788483;-;-;-;-;-;-;-;-;-;-;-;-;-;-;-
1514180691764;-;-;7.169922;-2.1258545;-1.7817993;-;-;-;-;-;-;-;-;-;-;-;-;-;-;-
1514180691785;-;-;6.8766327;-1.107132;-2.5144196;-;-;-;-;-;-;-;-;-;-;-;-;-;-;-
1514180691806;-;-;4.035919;-1.2040863;-0.8289032;-;-;-;-;-;-;-;-;-;-;-;-;-;-;-
1514180691826;-;-;2.7322693;-0.8772888;-0.44224548;-;-;-;-;-;-;-;-;-;-;-;-;-;-;-
1514180691846;-;-;4.3268127;-0.85572815;-1.3795776;-;-;-;-;-;-;-;-;-;-;-;-;-;-;-
1514180691867;-;-;6.778473;-0.9371338;-2.0080566;-;-;-;-;-;-;-;-;-;-;-;-;-;-;-
1514180691888;-;-;9.728134;-0.80426025;-2.507248;-;-;-;-;-;-;-;-;-;-;-;-;-;-;-
1514180691910;-;-;12.469498;-0.16619873;-1.8643951;-;-;-;-;-;-;-;-;-;-;-;-;-;-;-
1514180691928;-;-;12.757996;-0.63905334;0.99427795;-;-;-;-;-;-;-;-;-;-;-;-;-;-;-
1514180691949;-;-;12.451538;-3.1386108;-1.7638397;-;-;-;-;-;-;-;-;-;-;-;-;-;-;-
1514180691969;-;-;13.587585;-6.211563;-8.70105;-;-;-;-;-;-;-;-;-;-;-;-;-;-;-
1514180691990;-;-;13.563644;-2.8919983;-8.820755;-;-;-;-;-;-;-;-;-;-;-;-;-;-;-
1514180692009;-;-;9.817917;2.4614258;-6.3966217;-;-;-;-;-;-;-;-;-;-;-;-;-;-;-
1514180692030;-;-;8.015076;5.4888916;-6.0363007;-;-;-;-;-;-;-;-;-;-;-;-;-;-;-
1514180692050;-;-;7.822342;3.565155;-5.5861816;-;-;-;-;-;-;-;-;-;-;-;-;-;-;-
1514180692069;-;-;10.003464;-0.3984375;-5.3994446;-;-;-;-;-;-;-;-;-;-;-;-;-;-;-
1514180692090;-;-;12.239655;-3.728775;-4.638077;-;-;-;-;-;-;-;-;-;-;-;-;-;-;-
1514180692110;-;-;13.120712;-4.4111176;-3.7953186;-;-;-;-;-;-;-;-;-;-;-;-;-;-;-
1514180692131;-;-;11.751236;-2.261139;-3.393097;-;-;-;-;-;-;-;-;-;-;-;-;-;-;-
1514180692151;-;-;8.590881;-1.3633118;-3.9042664;-;-;-;-;-;-;-;-;-;-;-;-;-;-;-
1514180692171;-;-;5.0211334;-0.68814087;-3.9569397;-;-;-;-;-;-;-;-;-;-;-;-;-;-;-
1514180692193;-;-;1.8272705;0.12109375;-3.757019;-;-;-;-;-;-;-;-;-;-;-;-;-;-;-
1514180692213;-;-;1.7039642;0.40242004;-3.824051;-;-;-;-;-;-;-;-;-;-;-;-;-;-;-
1514180692233;-;-;5.12648;0.967453;-3.2973328;-;-;-;-;-;-;-;-;-;-;-;-;-;-;-
1514180692253;-;-;9.096069;1.3421478;-4.0598907;-;-;-;-;-;-;-;-;-;-;-;-;-;-;-
1514180692274;-;-;9.668274;2.0951233;-3.796524;-;-;-;-;-;-;-;-;-;-;-;-;-;-;-
1514180692293;-;-;7.5877075;2.2950287;-3.0040436;-;-;-;-;-;-;-;-;-;-;-;-;-;-;-
1514180692314;-;-;6.549835;1.9706268;-2.1253662;-;-;-;-;-;-;-;-;-;-;-;-;-;-;-
1514180692334;-;-;6.45047;0.92674255;-1.595047;-;-;-;-;-;-;-;-;-;-;-;-;-;-;-
1514180692355;-;-;7.2716827;-0.6246948;-1.9278412;-;-;-;-;-;-;-;-;-;-;-;-;-;-;-
1514180692376;-;-;8.835098;0.036102295;-3.662445;-;-;-;-;-;-;-;-;-;-;-;-;-;-;-
1514180692396;-;-;8.582504;2.7870483;-5.4497223;-;-;-;-;-;-;-;-;-;-;-;-;-;-;-
1514180692416;-;-;8.3107605;4.8903503;-3.0148163;-;-;-;-;-;-;-;-;-;-;-;-;-;-;-
1514180692437;-;-;8.653137;4.1948395;-2.0523376;-;-;-;-;-;-;-;-;-;-;-;-;-;-;-
1514180692457;-;-;12.146271;2.6733246;-7.2980347;-;-;-;-;-;-;-;-;-;-;-;-;-;-;-
1514180692478;-;-;14.6158905;-0.87249756;-9.073349;-;-;-;-;-;-;-;-;-;-;-;-;-;-;-
1514180692499;-;-;14.724823;-5.4933014;-4.982849;-;-;-;-;-;-;-;-;-;-;-;-;-;-;-
1514180692519;-;-;12.056488;-8.138901;-4.4501343;-;-;-;-;-;-;-;-;-;-;-;-;-;-;-
1514180692539;-;-;9.200211;-5.90271;-5.9501038;-;-;-;-;-;-;-;-;-;-;-;-;-;-;-
1514180692560;-;-;7.3734283;-1.7846832;-6.630066;-;-;-;-;-;-;-;-;-;-;-;-;-;-;-
1514180692581;-;-;6.5594025;1.2547607;-5.406616;-;-;-;-;-;-;-;-;-;-;-;-;-;-;-
1514180692600;-;-;5.363495;2.371643;-4.337616;-;-;-;-;-;-;-;-;-;-;-;-;-;-;-
1514180692621;-;-;6.146408;0.9566803;-3.5942078;-;-;-;-;-;-;-;-;-;-;-;-;-;-;-
1514180692642;-;-;8.938049;-0.9167938;-4.1269226;-;-;-;-;-;-;-;-;-;-;-;-;-;-;-
1514180692663;-;-;7.712219;-2.0612183;-3.7043457;-;-;-;-;-;-;-;-;-;-;-;-;-;-;-
1514180692683;-;-;6.1452026;-2.4179535;-3.0746765;-;-;-;-;-;-;-;-;-;-;-;-;-;-;-
1514180692704;-;-;3.9652863;-2.2000732;-2.4198608;-;-;-;-;-;-;-;-;-;-;-;-;-;-;-
1514180692724;-;-;3.3368073;-1.0855713;-2.1193848;-;-;-;-;-;-;-;-;-;-;-;-;-;-;-
1514180692745;-;-;5.015152;0.44551086;-1.7255402;-;-;-;-;-;-;-;-;-;-;-;-;-;-;-
1514180692765;-;-;8.284424;1.0105438;-1.8141174;-;-;-;-;-;-;-;-;-;-;-;-;-;-;-
1514180692786;-;-;10.434418;0.8609009;-1.2383118;-;-;-;-;-;-;-;-;-;-;-;-;-;-;-
1514180692806;-;-;10.839035;0.3617096;-0.333313;-;-;-;-;-;-;-;-;-;-;-;-;-;-;-
1514180692826;-;-;11.474701;-0.09437561;-1.1904297;-;-;-;-;-;-;-;-;-;-;-;-;-;-;-
1514180692846;-;-;11.911636;0.12588501;-2.6078033;-;-;-;-;-;-;-;-;-;-;-;-;-;-;-
1514180692867;-;-;10.434418;0.9506836;-3.3296509;-;-;-;-;-;-;-;-;-;-;-;-;-;-;-
1514180692887;-;-;8.062958;0.4407196;-0.7020111;-;-;-;-;-;-;-;-;-;-;-;-;-;-;-
1514180692908;-;-;7.0023346;-2.1893005;-0.26028442;-;-;-;-;-;-;-;-;-;-;-;-;-;-;-
1514180692928;-;-;9.936432;-5.0060883;-10.078903;-;-;-;-;-;-;-;-;-;-;-;-;-;-;-
1514180692950;-;-;11.723694;-3.8760223;-10.227341;-;-;-;-;-;-;-;-;-;-;-;-;-;-;-
1514180692969;-;-;9.130783;1.0392761;-7.211853;-;-;-;-;-;-;-;-;-;-;-;-;-;-;-
1514180692990;-;-;8.699814;4.9789276;-4.2454376;-;-;-;-;-;-;-;-;-;-;-;-;-;-;-
1514180693010;-;-;10.789963;3.1030731;-2.9010925;-;-;-;-;-;-;-;-;-;-;-;-;-;-;-
1514180693031;-;-;13.659409;-3.321762;-5.9931946;-;-;-;-;-;-;-;-;-;-;-;-;-;-;-
1514180693051;-;-;14.39563;-5.0635376;-5.049881;-;-;-;-;-;-;-;-;-;-;-;-;-;-;-
1514180693072;-;-;11.127548;-0.9790344;-3.2015686;-;-;-;-;-;-;-;-;-;-;-;-;-;-;-
1514180693093;-;-;7.6068726;2.0220947;-3.1081848;-;-;-;-;-;-;-;-;-;-;-;-;-;-;-
1514180693112;-;-;4.003601;2.7223969;-2.570694;-;-;-;-;-;-;-;-;-;-;-;-;-;-;-
1514180693133;-;-;1.197586;1.4678345;-1.9613647;-;-;-;-;-;-;-;-;-;-;-;-;-;-;-
1514180693154;-;-;1.505249;0.15940857;-1.7710266;-;-;-;-;-;-;-;-;-;-;-;-;-;-;-
1514180693173;-;-;4.4369507;0.2886963;-1.6441345;-;-;-;-;-;-;-;-;-;-;-;-;-;-;-
1514180693193;-;-;7.374634;0.80703735;-1.5172424;-;-;-;-;-;-;-;-;-;-;-;-;-;-;-
1514180693214;-;-;11.346619;1.8030243;-1.8284912;-;-;-;-;-;-;-;-;-;-;-;-;-;-;-
1514180693234;-;-;11.414841;2.2172241;-2.6532898;-;-;-;-;-;-;-;-;-;-;-;-;-;-;-
1514180693255;-;-;9.9831085;2.303421;-2.175644;-;-;-;-;-;-;-;-;-;-;-;-;-;-;-
1514180693276;-;-;8.34787;1.2272186;-1.7422943;-;-;-;-;-;-;-;-;-;-;-;-;-;-;-
1514180693296;-;-;8.774048;-1.2711334;-2.0726929;-;-;-;-;-;-;-;-;-;-;-;-;-;-;-
1514180693317;-;-;7.778061;-0.79707336;-3.1788177;-;-;-;-;-;-;-;-;-;-;-;-;-;-;-
1514180693337;-;-;7.5003204;3.304184;-1.2754211;-;-;-;-;-;-;-;-;-;-;-;-;-;-;-
1514180693356;-;-;9.116409;3.620224;-2.962143;-;-;-;-;-;-;-;-;-;-;-;-;-;-;-
1514180693376;-;-;11.001846;2.0771637;-8.596893;-;-;-;-;-;-;-;-;-;-;-;-;-;-;-
1514180693397;-;-;10.418854;-0.040512085;-11.291565;-;-;-;-;-;-;-;-;-;-;-;-;-;-;-
1514180693417;-;-;10.475128;-3.1888885;-1.6321564;-;-;-;-;-;-;-;-;-;-;-;-;-;-;-
1514180693438;-;-;8.98114;-5.8895416;-2.468933;-;-;-;-;-;-;-;-;-;-;-;-;-;-;-
1514180693460;-;-;8.290421;-6.630554;-6.863495;-;-;-;-;-;-;-;-;-;-;-;-;-;-;-
1514180693479;-;-;9.443222;-0.61990356;-5.5538635;-;-;-;-;-;-;-;-;-;-;-;-;-;-;-
1514180693499;-;-;10.464355;4.059555;-4.2298737;-;-;-;-;-;-;-;-;-;-;-;-;-;-;-
1514180693520;-;-;8.966782;5.3189087;-4.8379974;-;-;-;-;-;-;-;-;-;-;-;-;-;-;-
1514180693539;-;-;7.9312897;3.3891907;-3.9234161;-;-;-;-;-;-;-;-;-;-;-;-;-;-;-
1514180693560;-;-;7.2896423;1.8054199;-3.38591;-;-;-;-;-;-;-;-;-;-;-;-;-;-;-
1514180693581;-;-;5.754959;0.4299469;-2.2929688;-;-;-;-;-;-;-;-;-;-;-;-;-;-;-
1514180693600;-;-;4.1484375;-0.44631958;-1.0491791;-;-;-;-;-;-;-;-;-;-;-;-;-;-;-
1514180693621;-;-;2.7394562;-0.8174286;-0.2399292;-;-;-;-;-;-;-;-;-;-;-;-;-;-;-
1514180693640;-;-;3.0494995;-1.1059265;-0.44943237;-;-;-;-;-;-;-;-;-;-;-;-;-;-;-
1514180693661;-;-;5.5322876;-0.5744171;-0.93785095;-;-;-;-;-;-;-;-;-;-;-;-;-;-;-
1514180693681;-;-;7.4129333;0.71606445;-2.55513;-;-;-;-;-;-;-;-;-;-;-;-;-;-;-
1514180693701;-;-;8.552582;1.2236328;-2.7418823;-;-;-;-;-;-;-;-;-;-;-;-;-;-;-
1514180693721;-;-;8.552582;1.2691193;-1.8679962;-;-;-;-;-;-;-;-;-;-;-;-;-;-;-
1514180693742;-;-;9.227737;0.07081604;-0.5631561;-;-;-;-;-;-;-;-;-;-;-;-;-;-;-
1514180693762;-;-;10.973114;-1.4614716;-1.2119751;-;-;-;-;-;-;-;-;-;-;-;-;-;-;-
1514180693782;-;-;13.24881;-2.6705475;-2.9633331;-;-;-;-;-;-;-;-;-;-;-;-;-;-;-
1514180693802;-;-;13.345764;-2.8489075;-4.6608276;-;-;-;-;-;-;-;-;-;-;-;-;-;-;-
1514180693823;-;-;10.742081;-1.0771942;-4.4788666;-;-;-;-;-;-;-;-;-;-;-;-;-;-;-
1514180693843;-;-;7.3063965;1.3852386;-3.871933;-;-;-;-;-;-;-;-;-;-;-;-;-;-;-
1514180693864;-;-;3.6779785;2.5559998;-3.4577484;-;-;-;-;-;-;-;-;-;-;-;-;-;-;-
1514180693883;-;-;0.0388031;2.8840027;-2.1936035;-;-;-;-;-;-;-;-;-;-;-;-;-;-;-
1514180693904;-;-;-1.206192;3.4598083;-1.614212;-;-;-;-;-;-;-;-;-;-;-;-;-;-;-
1514180693924;-;-;2.4605255;3.0719452;-2.4509735;-;-;-;-;-;-;-;-;-;-;-;-;-;-;-
1514180693943;-;-;7.1603546;3.793808;-6.855118;-;-;-;-;-;-;-;-;-;-;-;-;-;-;-
1514180693964;-;-;14.408798;1.6258545;-3.5583038;-;-;-;-;-;-;-;-;-;-;-;-;-;-;-
1514180693983;-;-;17.096283;-4.053192;-1.8991089;-;-;-;-;-;-;-;-;-;-;-;-;-;-;-
1514180694004;-;-;16.200851;-3.8113708;-4.974472;-;-;-;-;-;-;-;-;-;-;-;-;-;-;-
1514180694024;-;-;14.757156;0.8692932;-3.8168793;-;-;-;-;-;-;-;-;-;-;-;-;-;-;-
1514180694045;-;-;12.134308;3.2742615;-1.9829102;-;-;-;-;-;-;-;-;-;-;-;-;-;-;-
1514180694064;-;-;7.7445374;4.146942;0.13954163;-;-;-;-;-;-;-;-;-;-;-;-;-;-;-
1514180694085;-;-;3.7953033;3.5759277;0.46754456;-;-;-;-;-;-;-;-;-;-;-;-;-;-;-
1514180694104;-;-;4.1448517;0.8740692;-0.57032776;-;-;-;-;-;-;-;-;-;-;-;-;-;-;-
1514180694125;-;-;7.356674;-0.98861694;-0.6720886;-;-;-;-;-;-;-;-;-;-;-;-;-;-;-
1514180694145;-;-;9.793976;-1.1203003;-0.9725647;-;-;-;-;-;-;-;-;-;-;-;-;-;-;-
1514180694165;-;-;12.356964;-0.368515;-2.1265717;-;-;-;-;-;-;-;-;-;-;-;-;-;-;-
1514180694186;-;-;12.379715;0.91238403;-4.0407257;-;-;-;-;-;-;-;-;-;-;-;-;-;-;-
1514180694206;-;-;9.844254;2.0448456;-4.5734406;-;-;-;-;-;-;-;-;-;-;-;-;-;-;-
1514180694226;-;-;5.0845795;1.303833;-4.1436768;-;-;-;-;-;-;-;-;-;-;-;-;-;-;-
1514180694246;-;-;0.7091675;0.4945984;-2.2163544;-;-;-;-;-;-;-;-;-;-;-;-;-;-;-
1514180694267;-;-;-1.5808868;0.62628174;0.80992126;-;-;-;-;-;-;-;-;-;-;-;-;-;-;-
1514180694288;-;-;-1.5078583;-0.9036255;-0.035232544;-;-;-;-;-;-;-;-;-;-;-;-;-;-;-
1514180694307;-;-;5.569397;-2.3497162;-5.294098;-;-;-;-;-;-;-;-;-;-;-;-;-;-;-
1514180694327;-;-;13.628281;-3.0703735;-10.861816;-;-;-;-;-;-;-;-;-;-;-;-;-;-;-
1514180694348;-;-;22.71907;1.8185883;-5.0427094;-;-;-;-;-;-;-;-;-;-;-;-;-;-;-
1514180694368;-;-;26.947235;2.5559998;-2.9980621;-;-;-;-;-;-;-;-;-;-;-;-;-;-;-
1514180694389;-;-;20.689987;-1.3932343;-3.2279053;-;-;-;-;-;-;-;-;-;-;-;-;-;-;-
1514180694409;-;-;13.331406;-4.7307434;-0.8612366;-;-;-;-;-;-;-;-;-;-;-;-;-;-;-
1514180694429;-;-;7.478775;-4.8731995;-0.2686615;-;-;-;-;-;-;-;-;-;-;-;-;-;-;-
1514180694450;-;-;2.2677917;-2.5723724;-0.6337738;-;-;-;-;-;-;-;-;-;-;-;-;-;-;-
1514180694470;-;-;-1.2181549;-0.83418274;-0.35604858;-;-;-;-;-;-;-;-;-;-;-;-;-;-;-
1514180694491;-;-;2.1959686;0.14503479;-1.6944122;-;-;-;-;-;-;-;-;-;-;-;-;-;-;-
1514180694511;-;-;10.837845;2.3979797;-2.8891144;-;-;-;-;-;-;-;-;-;-;-;-;-;-;-
1514180694532;-;-;15.093536;4.4689636;-2.7993317;-;-;-;-;-;-;-;-;-;-;-;-;-;-;-
1514180694552;-;-;10.736084;2.0436401;-3.8216553;-;-;-;-;-;-;-;-;-;-;-;-;-;-;-
1514180694572;-;-;7.6822815;-0.47865295;-3.4697113;-;-;-;-;-;-;-;-;-;-;-;-;-;-;-
1514180694593;-;-;4.790085;-1.0149536;-3.5451355;-;-;-;-;-;-;-;-;-;-;-;-;-;-;-
1514180694613;-;-;3.6313019;-0.8186188;-4.2693787;-;-;-;-;-;-;-;-;-;-;-;-;-;-;-
1514180694634;-;-;2.0487366;-0.7958832;-3.8575745;-;-;-;-;-;-;-;-;-;-;-;-;-;-;-
1514180694654;-;-;0.23631287;-1.412384;-1.069519;-;-;-;-;-;-;-;-;-;-;-;-;-;-;-
1514180694675;-;-;1.1269684;0.299469;-1.7027893;-;-;-;-;-;-;-;-;-;-;-;-;-;-;-
1514180694695;-;-;6.7090454;4.616211;-2.7933502;-;-;-;-;-;-;-;-;-;-;-;-;-;-;-
1514180694716;-;-;14.856506;3.5436096;-9.251709;-;-;-;-;-;-;-;-;-;-;-;-;-;-;-
1514180694736;-;-;25.477188;-0.23324585;-5.602951;-;-;-;-;-;-;-;-;-;-;-;-;-;-;-
1514180694757;-;-;26.827515;1.3948212;-8.175522;-;-;-;-;-;-;-;-;-;-;-;-;-;-;-
1514180694776;-;-;19.33606;1.8114014;-4.8212433;-;-;-;-;-;-;-;-;-;-;-;-;-;-;-
1514180694797;-;-;9.420471;3.2790527;-0.9749603;-;-;-;-;-;-;-;-;-;-;-;-;-;-;-
1514180694817;-;-;1.1425171;3.884781;0.44360352;-;-;-;-;-;-;-;-;-;-;-;-;-;-;-
1514180694838;-;-;-2.1447144;1.8042297;0.08088684;-;-;-;-;-;-;-;-;-;-;-;-;-;-;-
1514180694858;-;-;2.5838318;1.0931396;0.64112854;-;-;-;-;-;-;-;-;-;-;-;-;-;-;-
1514180694879;-;-;7.9983215;1.1996918;-0.49491882;-;-;-;-;-;-;-;-;-;-;-;-;-;-;-
1514180694900;-;-;10.926422;-0.18655396;0.060531616;-;-;-;-;-;-;-;-;-;-;-;-;-;-;-
1514180694920;-;-;10.221344;-1.5033722;0.24249268;-;-;-;-;-;-;-;-;-;-;-;-;-;-;-
1514180694941;-;-;9.574905;-1.9953766;-2.1672668;-;-;-;-;-;-;-;-;-;-;-;-;-;-;-
1514180694961;-;-;8.273651;-0.4439392;-4.2933197;-;-;-;-;-;-;-;-;-;-;-;-;-;-;-
1514180694981;-;-;7.659546;0.65859985;-2.2618408;-;-;-;-;-;-;-;-;-;-;-;-;-;-;-
1514180695002;-;-;7.5685577;1.4678345;-1.1186066;-;-;-;-;-;-;-;-;-;-;-;-;-;-;-
1514180695022;-;-;6.919739;2.9701996;-5.582596;-;-;-;-;-;-;-;-;-;-;-;-;-;-;-
1514180695043;-;-;3.9748688;2.9247131;-9.096085;-;-;-;-;-;-;-;-;-;-;-;-;-;-;-
1514180695063;-;-;4.0263367;-1.9690399;-3.4002838;-;-;-;-;-;-;-;-;-;-;-;-;-;-;-
1514180695084;-;-;6.9700165;-5.38916;-0.23036194;-;-;-;-;-;-;-;-;-;-;-;-;-;-;-
1514180695103;-;-;14.672165;-6.582672;-4.8703156;-;-;-;-;-;-;-;-;-;-;-;-;-;-;-
1514180695123;-;-;21.47528;-1.9391174;-8.260513;-;-;-;-;-;-;-;-;-;-;-;-;-;-;-
1514180695144;-;-;21.678787;3.4957275;-5.069046;-;-;-;-;-;-;-;-;-;-;-;-;-;-;-
1514180695163;-;-;14.340561;1.9095612;-2.9046783;-;-;-;-;-;-;-;-;-;-;-;-;-;-;-
1514180695183;-;-;8.462799;0.43115234;-2.1564941;-;-;-;-;-;-;-;-;-;-;-;-;-;-;-
1514180695204;-;-;4.438141;-0.121917725;-1.155716;-;-;-;-;-;-;-;-;-;-;-;-;-;-;-
1514180695225;-;-;2.161255;-0.2966919;-0.19204712;-;-;-;-;-;-;-;-;-;-;-;-;-;-;-
1514180695245;-;-;2.7478333;-1.1801453;-0.52604675;-;-;-;-;-;-;-;-;-;-;-;-;-;-;-
1514180695266;-;-;7.0095215;-1.3585205;-0.6230011;-;-;-;-;-;-;-;-;-;-;-;-;-;-;-
1514180695286;-;-;9.37619;-0.9981842;-1.6249847;-;-;-;-;-;-;-;-;-;-;-;-;-;-;-
1514180695306;-;-;8.689041;0.23721313;-3.0615082;-;-;-;-;-;-;-;-;-;-;-;-;-;-;-
1514180695327;-;-;8.156342;0.37608337;-4.283737;-;-;-;-;-;-;-;-;-;-;-;-;-;-;-
1514180695348;-;-;9.406113;-0.066848755;-4.8463745;-;-;-;-;-;-;-;-;-;-;-;-;-;-;-
1514180695368;-;-;8.614822;-0.8581238;-3.820465;-;-;-;-;-;-;-;-;-;-;-;-;-;-;-
1514180695389;-;-;5.5706024;-1.8301697;-2.2594452;-;-;-;-;-;-;-;-;-;-;-;-;-;-;-
1514180695408;-;-;2.5970001;-1.9510803;-1.9625702;-;-;-;-;-;-;-;-;-;-;-;-;-;-;-
1514180695429;-;-;1.9709167;-0.44752502;-1.4298553;-;-;-;-;-;-;-;-;-;-;-;-;-;-;-
1514180695449;-;-;3.8671265;3.0276642;-2.5060425;-;-;-;-;-;-;-;-;-;-;-;-;-;-;-
1514180695470;-;-;7.640381;6.0455475;-5.6292877;-;-;-;-;-;-;-;-;-;-;-;-;-;-;-
1514180695491;-;-;15.164169;3.4322815;-8.610062;-;-;-;-;-;-;-;-;-;-;-;-;-;-;-
1514180695510;-;-;20.449371;-2.6657562;0.050964355;-;-;-;-;-;-;-;-;-;-;-;-;-;-;-
1514180695531;-;-;16.873627;-2.4574585;-7.8546906;-;-;-;-;-;-;-;-;-;-;-;-;-;-;-
1514180695551;-;-;17.89714;1.1134949;-7.326767;-;-;-;-;-;-;-;-;-;-;-;-;-;-;-
1514180695571;-;-;13.945511;1.0129395;-1.3783722;-;-;-;-;-;-;-;-;-;-;-;-;-;-;-
1514180695592;-;-;6.771286;3.0970917;2.8306274;-;-;-;-;-;-;-;-;-;-;-;-;-;-;-
1514180695613;-;-;1.8739471;3.6944427;0.96195984;-;-;-;-;-;-;-;-;-;-;-;-;-;-;-
1514180695633;-;-;2.8448029;1.916748;-1.5782928;-;-;-;-;-;-;-;-;-;-;-;-;-;-;-
1514180695654;-;-;7.0178986;-0.112335205;-1.634552;-;-;-;-;-;-;-;-;-;-;-;-;-;-;-
1514180695674;-;-;9.737701;-1.7212372;0.060531616;-;-;-;-;-;-;-;-;-;-;-;-;-;-;-
1514180695694;-;-;11.936783;-2.025299;1.1139832;-;-;-;-;-;-;-;-;-;-;-;-;-;-;-
1514180695715;-;-;10.4535675;-0.80784607;-2.1229706;-;-;-;-;-;-;-;-;-;-;-;-;-;-;-
1514180695735;-;-;8.273651;1.3014374;-5.0115814;-;-;-;-;-;-;-;-;-;-;-;-;-;-;-
1514180695756;-;-;6.1523895;2.0915222;-6.34993;-;-;-;-;-;-;-;-;-;-;-;-;-;-;-
1514180695776;-;-;3.7797394;1.4295349;-4.3124695;-;-;-;-;-;-;-;-;-;-;-;-;-;-;-
1514180695797;-;-;0.9653473;1.580368;-1.3939362;-;-;-;-;-;-;-;-;-;-;-;-;-;-;-
1514180695817;-;-;0.32730103;2.7475433;-2.1971893;-;-;-;-;-;-;-;-;-;-;-;-;-;-;-
1514180695837;-;-;1.2981415;0.7424011;-3.9126434;-;-;-;-;-;-;-;-;-;-;-;-;-;-;-
1514180695858;-;-;5.3623047;-1.9510803;-5.5730133;-;-;-;-;-;-;-;-;-;-;-;-;-;-;-
1514180695879;-;-;12.622726;-3.0967102;-7.539856;-;-;-;-;-;-;-;-;-;-;-;-;-;-;-
1514180695900;-;-;22.540695;-3.8856049;-5.7465973;-;-;-;-;-;-;-;-;-;-;-;-;-;-;-
1514180695920;-;-;29.075668;-1.1538086;-8.673508;-;-;-;-;-;-;-;-;-;-;-;-;-;-;-
1514180695940;-;-;20.990463;0.39523315;-6.5259094;-;-;-;-;-;-;-;-;-;-;-;-;-;-;-
1514180695961;-;-;13.64624;-0.2212677;-2.242691;-;-;-;-;-;-;-;-;-;-;-;-;-;-;-
1514180695983;-;-;5.648407;-0.85453796;-0.3249359;-;-;-;-;-;-;-;-;-;-;-;-;-;-;-
1514180696004;-;-;-0.31674194;-0.5732269;-1.4633789;-;-;-;-;-;-;-;-;-;-;-;-;-;-;-
1514180696024;-;-;-0.6794586;-0.43554688;-0.85165405;-;-;-;-;-;-;-;-;-;-;-;-;-;-;-
1514180696045;-;-;6.719818;0.045684814;-0.535614;-;-;-;-;-;-;-;-;-;-;-;-;-;-;-
1514180696065;-;-;11.303513;1.1589813;-2.484497;-;-;-;-;-;-;-;-;-;-;-;-;-;-;-
1514180696086;-;-;10.866577;1.7323914;-1.9470062;-;-;-;-;-;-;-;-;-;-;-;-;-;-;-
1514180696107;-;-;8.927277;0.83935547;-1.9051056;-;-;-;-;-;-;-;-;-;-;-;-;-;-;-
1514180696126;-;-;6.477997;-0.92277527;-2.649704;-;-;-;-;-;-;-;-;-;-;-;-;-;-;-
1514180696146;-;-;5.335968;-1.3788757;-2.6987762;-;-;-;-;-;-;-;-;-;-;-;-;-;-;-
1514180696166;-;-;5.537079;-1.6745453;-3.6001892;-;-;-;-;-;-;-;-;-;-;-;-;-;-;-
1514180696187;-;-;5.6436157;-2.0528412;-2.5802612;-;-;-;-;-;-;-;-;-;-;-;-;-;-;-
1514180696207;-;-;3.2075195;-1.9833984;-1.3292999;-;-;-;-;-;-;-;-;-;-;-;-;-;-;-
1514180696228;-;-;1.623764;-1.546463;-2.491684;-;-;-;-;-;-;-;-;-;-;-;-;-;-;-
1514180696247;-;-;2.6843872;1.3445435;-2.728714;-;-;-;-;-;-;-;-;-;-;-;-;-;-;-
