TimeStamp[ms];Prox[Cm];Lux[lux];AccX[m/s^2];AccY[m/s^2];AccZ[m/s^2];GyroX[rad/s];GyroY[rad/s];GyroZ[rad/s];MagnX[uT];MagnY[uT];MagnZ[uT];OrienYaw[degrees];OrienPitch[degrees];OrienRoll[degrees];Press[Pa];Temp[C°];Batt[%];Lat;Lng;Speed[m/s]
1514180746832;-;-;8.680664;-1.8732758;1.5664978;-;-;-;-;-;-;-;-;-;-;-;-;-;-;-
1514180746834;-;-;8.680664;-1.8732758;1.5664978;-;-;-;-;-;-;-;-;-;-;-;-;-;-;-
1514180746854;-;-;8.165909;-1.8026428;1.8513947;-;-;-;-;-;-;-;-;-;-;-;-;-;-;-
1514180746874;-;-;8.546585;-1.8325653;2.1075745;-;-;-;-;-;-;-;-;-;-;-;-;-;-;-
1514180746895;-;-;9.3546295;-1.4506989;0.5441742;-;-;-;-;-;-;-;-;-;-;-;-;-;-;-
1514180746914;-;-;8.4843445;-1.7080688;2.1434937;-;-;-;-;-;-;-;-;-;-;-;-;-;-;-
1514180746935;-;-;8.0533905;-1.8086243;2.5552979;-;-;-;-;-;-;-;-;-;-;-;-;-;-;-
1514180746955;-;-;8.083313;-1.5129395;-0.4338684;-;-;-;-;-;-;-;-;-;-;-;-;-;-;-
1514180746976;-;-;8.88298;-1.9391174;1.6945801;-;-;-;-;-;-;-;-;-;-;-;-;-;-;-
1514180746996;-;-;9.329498;-1.1801453;1.3067169;-;-;-;-;-;-;-;-;-;-;-;-;-;-;-
1514180747016;-;-;9.273239;-0.8701019;0.81710815;-;-;-;-;-;-;-;-;-;-;-;-;-;-;-
1514180747037;-;-;9.752075;-0.98143005;0.39572144;-;-;-;-;-;-;-;-;-;-;-;-;-;-;-
1514180747056;-;-;10.823471;-1.1849365;0.5489502;-;-;-;-;-;-;-;-;-;-;-;-;-;-;-
1514180747080;-;-;10.094437;-1.3381653;0.4699402;-;-;-;-;-;-;-;-;-;-;-;-;-;-;-
1514180747097;-;-;9.544968;-1.6039276;0.36698914;-;-;-;-;-;-;-;-;-;-;-;-;-;-;-
1514180747117;-;-;9.644333;-2.724411;-1.729126;-;-;-;-;-;-;-;-;-;-;-;-;-;-;-
1514180747137;-;-;8.727356;-2.2335968;2.754013;-;-;-;-;-;-;-;-;-;-;-;-;-;-;-
1514180747157;-;-;8.343079;-1.1059265;1.5808563;-;-;-;-;-;-;-;-;-;-;-;-;-;-;-
1514180747178;-;-;8.625595;-1.427948;1.1427155;-;-;-;-;-;-;-;-;-;-;-;-;-;-;-
1514180747198;-;-;9.329498;-1.9438934;0.74887085;-;-;-;-;-;-;-;-;-;-;-;-;-;-;-
1514180747218;-;-;8.791992;-2.0779724;0.6375427;-;-;-;-;-;-;-;-;-;-;-;-;-;-;-
1514180747239;-;-;8.955994;-1.9833984;0.5298004;-;-;-;-;-;-;-;-;-;-;-;-;-;-;-
1514180747259;-;-;8.777634;-1.7224426;0.21855164;-;-;-;-;-;-;-;-;-;-;-;-;-;-;-
1514180747279;-;-;8.766861;-1.9283447;-0.27226257;-;-;-;-;-;-;-;-;-;-;-;-;-;-;-
1514180747300;-;-;9.153519;-1.6338501;-0.13578796;-;-;-;-;-;-;-;-;-;-;-;-;-;-;-
1514180747320;-;-;9.239716;-1.5285034;0.05215454;-;-;-;-;-;-;-;-;-;-;-;-;-;-;-
1514180747341;-;-;8.996704;-1.249588;0.106033325;-;-;-;-;-;-;-;-;-;-;-;-;-;-;-
1514180747361;-;-;9.548569;-1.2040863;-0.511673;-;-;-;-;-;-;-;-;-;-;-;-;-;-;-
1514180747381;-;-;9.175064;-0.7503967;-0.05796814;-;-;-;-;-;-;-;-;-;-;-;-;-;-;-
1514180747400;-;-;9.55455;-1.1681824;0.74528503;-;-;-;-;-;-;-;-;-;-;-;-;-;-;-
1514180747420;-;-;8.022263;-0.84495544;-0.16452026;-;-;-;-;-;-;-;-;-;-;-;-;-;-;-
1514180747441;-;-;9.301956;-1.3740845;0.44960022;-;-;-;-;-;-;-;-;-;-;-;-;-;-;-
1514180747461;-;-;9.811935;-0.9945984;0.12757874;-;-;-;-;-;-;-;-;-;-;-;-;-;-;-
1514180747482;-;-;7.031067;-0.24760437;-1.7901764;-;-;-;-;-;-;-;-;-;-;-;-;-;-;-
1514180747501;-;-;10.34584;-0.61990356;-0.8576355;-;-;-;-;-;-;-;-;-;-;-;-;-;-;-
1514180747522;-;-;9.653915;-1.1957092;-0.12620544;-;-;-;-;-;-;-;-;-;-;-;-;-;-;-
1514180747542;-;-;8.994308;-0.58639526;0.6638794;-;-;-;-;-;-;-;-;-;-;-;-;-;-;-
1514180747563;-;-;9.586868;-1.2076874;-1.0503693;-;-;-;-;-;-;-;-;-;-;-;-;-;-;-
1514180747583;-;-;9.481522;-0.55766296;-0.3261261;-;-;-;-;-;-;-;-;-;-;-;-;-;-;-
1514180747603;-;-;10.466736;-0.45829773;0.08807373;-;-;-;-;-;-;-;-;-;-;-;-;-;-;-
1514180747624;-;-;8.623199;-1.8481293;0.7069702;-;-;-;-;-;-;-;-;-;-;-;-;-;-;-
1514180747645;-;-;8.712982;-0.3984375;-0.630188;-;-;-;-;-;-;-;-;-;-;-;-;-;-;-
1514180747664;-;-;8.831497;-1.4171753;-0.41111755;-;-;-;-;-;-;-;-;-;-;-;-;-;-;-
1514180747684;-;-;10.327881;-0.8461609;-2.4066925;-;-;-;-;-;-;-;-;-;-;-;-;-;-;-
1514180747705;-;-;9.584473;-0.9167938;-0.7582855;-;-;-;-;-;-;-;-;-;-;-;-;-;-;-
1514180747725;-;-;9.942413;-0.9191742;-3.298523;-;-;-;-;-;-;-;-;-;-;-;-;-;-;-
1514180747746;-;-;7.2824554;-1.1490326;1.9256134;-;-;-;-;-;-;-;-;-;-;-;-;-;-;-
1514180747766;-;-;6.2385864;5.7690277;1.5736694;-;-;-;-;-;-;-;-;-;-;-;-;-;-;-
1514180747786;-;-;6.7174225;3.4155273;-1.6082153;-;-;-;-;-;-;-;-;-;-;-;-;-;-;-
1514180747806;-;-;8.622009;2.675705;-1.3304901;-;-;-;-;-;-;-;-;-;-;-;-;-;-;-
1514180747827;-;-;8.873398;1.6462097;-1.5771027;-;-;-;-;-;-;-;-;-;-;-;-;-;-;-
1514180747848;-;-;9.227737;0.809433;-2.2522583;-;-;-;-;-;-;-;-;-;-;-;-;-;-;-
1514180747867;-;-;9.172684;1.0763855;-2.2606354;-;-;-;-;-;-;-;-;-;-;-;-;-;-;-
1514180747887;-;-;8.542999;0.4479065;-1.1521301;-;-;-;-;-;-;-;-;-;-;-;-;-;-;-
1514180747908;-;-;8.141968;-0.12310791;-1.6620941;-;-;-;-;-;-;-;-;-;-;-;-;-;-;-
1514180747928;-;-;11.473511;-2.7339935;-1.440628;-;-;-;-;-;-;-;-;-;-;-;-;-;-;-
1514180747948;-;-;12.368942;-4.807358;-0.56555176;-;-;-;-;-;-;-;-;-;-;-;-;-;-;-
1514180747969;-;-;11.354996;-4.290222;0.96435547;-;-;-;-;-;-;-;-;-;-;-;-;-;-;-
1514180747989;-;-;10.098038;-3.1673431;0.87576294;-;-;-;-;-;-;-;-;-;-;-;-;-;-;-
1514180748009;-;-;9.374985;-2.8919983;1.0385742;-;-;-;-;-;-;-;-;-;-;-;-;-;-;-
1514180748030;-;-;8.887772;-2.487381;0.5441742;-;-;-;-;-;-;-;-;-;-;-;-;-;-;-
1514180748049;-;-;7.8127747;-0.6103363;-1.5064697;-;-;-;-;-;-;-;-;-;-;-;-;-;-;-
1514180748070;-;-;7.541031;1.1110992;-0.47935486;-;-;-;-;-;-;-;-;-;-;-;-;-;-;-
1514180748091;-;-;7.5518036;2.7906342;-1.0826874;-;-;-;-;-;-;-;-;-;-;-;-;-;-;-
1514180748111;-;-;8.98114;3.2167969;-1.6477203;-;-;-;-;-;-;-;-;-;-;-;-;-;-;-
1514180748131;-;-;9.281616;2.1118774;-1.3508453;-;-;-;-;-;-;-;-;-;-;-;-;-;-;-
1514180748152;-;-;10.015442;1.1781464;-1.7123718;-;-;-;-;-;-;-;-;-;-;-;-;-;-;-
1514180748172;-;-;10.240494;0.18334961;-1.7003937;-;-;-;-;-;-;-;-;-;-;-;-;-;-;-
1514180748193;-;-;10.22612;-0.49780273;-1.3472595;-;-;-;-;-;-;-;-;-;-;-;-;-;-;-
1514180748214;-;-;10.246475;-0.73243713;-1.5866699;-;-;-;-;-;-;-;-;-;-;-;-;-;-;-
1514180748234;-;-;9.638351;0.024139404;-0.9366455;-;-;-;-;-;-;-;-;-;-;-;-;-;-;-
1514180748254;-;-;9.014664;0.39881897;-0.99650574;-;-;-;-;-;-;-;-;-;-;-;-;-;-;-
1514180748275;-;-;8.756088;0.54008484;-0.5858917;-;-;-;-;-;-;-;-;-;-;-;-;-;-;-
1514180748295;-;-;8.490326;0.714859;-0.39196777;-;-;-;-;-;-;-;-;-;-;-;-;-;-;-
1514180748316;-;-;8.110855;0.5185394;-0.43147278;-;-;-;-;-;-;-;-;-;-;-;-;-;-;-
1514180748336;-;-;8.477158;-0.05368042;-0.34887695;-;-;-;-;-;-;-;-;-;-;-;-;-;-;-
1514180748356;-;-;8.836288;-0.7336273;-0.8253174;-;-;-;-;-;-;-;-;-;-;-;-;-;-;-
1514180748377;-;-;9.353439;-0.9862213;-0.72595215;-;-;-;-;-;-;-;-;-;-;-;-;-;-;-
1514180748397;-;-;9.722153;-0.89045715;-0.82173157;-;-;-;-;-;-;-;-;-;-;-;-;-;-;-
1514180748418;-;-;9.583282;-0.8497467;-0.94262695;-;-;-;-;-;-;-;-;-;-;-;-;-;-;-
1514180748438;-;-;9.700592;-0.2607727;-0.9294586;-;-;-;-;-;-;-;-;-;-;-;-;-;-;-
1514180748458;-;-;9.519836;0.47065735;-0.93904114;-;-;-;-;-;-;-;-;-;-;-;-;-;-;-
1514180748479;-;-;9.415695;1.2439728;-1.0767059;-;-;-;-;-;-;-;-;-;-;-;-;-;-;-
1514180748500;-;-;9.027832;1.6222687;-0.9797363;-;-;-;-;-;-;-;-;-;-;-;-;-;-;-
1514180748519;-;-;8.4292755;1.7826691;-0.48893738;-;-;-;-;-;-;-;-;-;-;-;-;-;-;-
1514180748539;-;-;8.040222;1.3768616;0.046173096;-;-;-;-;-;-;-;-;-;-;-;-;-;-;-
1514180748559;-;-;7.8163605;0.63705444;0.32510376;-;-;-;-;-;-;-;-;-;-;-;-;-;-;-
1514180748580;-;-;7.7696686;-0.076416016;0.24609375;-;-;-;-;-;-;-;-;-;-;-;-;-;-;-
1514180748600;-;-;8.107254;-0.5037842;-0.15733337;-;-;-;-;-;-;-;-;-;-;-;-;-;-;-
1514180748620;-;-;8.292801;-0.70610046;-0.80496216;-;-;-;-;-;-;-;-;-;-;-;-;-;-;-
1514180748641;-;-;8.923676;-0.45948792;-1.4142914;-;-;-;-;-;-;-;-;-;-;-;-;-;-;-
1514180748661;-;-;9.422867;0.25398254;-1.6249847;-;-;-;-;-;-;-;-;-;-;-;-;-;-;-
1514180748682;-;-;9.546173;0.7651367;-1.8536224;-;-;-;-;-;-;-;-;-;-;-;-;-;-;-
1514180748702;-;-;9.761642;1.1745453;-1.697998;-;-;-;-;-;-;-;-;-;-;-;-;-;-;-
1514180748722;-;-;10.072891;1.406784;-1.3017578;-;-;-;-;-;-;-;-;-;-;-;-;-;-;-
1514180748742;-;-;10.228516;1.3361511;-1.6632843;-;-;-;-;-;-;-;-;-;-;-;-;-;-;-
1514180748763;-;-;11.153885;1.7575378;-2.9022827;-;-;-;-;-;-;-;-;-;-;-;-;-;-;-
1514180748783;-;-;13.176971;2.8301392;-2.8244781;-;-;-;-;-;-;-;-;-;-;-;-;-;-;-
1514180748804;-;-;15.85968;2.9019623;-3.5762482;-;-;-;-;-;-;-;-;-;-;-;-;-;-;-
1514180748824;-;-;18.44542;1.8030243;-5.029541;-;-;-;-;-;-;-;-;-;-;-;-;-;-;-
1514180748844;-;-;15.7543335;0.9638519;-4.7326508;-;-;-;-;-;-;-;-;-;-;-;-;-;-;-
1514180748865;-;-;10.528992;1.303833;-3.9401703;-;-;-;-;-;-;-;-;-;-;-;-;-;-;-
1514180748884;-;-;5.723831;1.264328;-3.847992;-;-;-;-;-;-;-;-;-;-;-;-;-;-;-
1514180748904;-;-;3.145279;0.59994507;-3.440979;-;-;-;-;-;-;-;-;-;-;-;-;-;-;-
1514180748924;-;-;2.1516724;-0.7120819;-3.3883057;-;-;-;-;-;-;-;-;-;-;-;-;-;-;-
1514180748945;-;-;4.5674286;-2.7136383;-4.7470245;-;-;-;-;-;-;-;-;-;-;-;-;-;-;-
1514180748965;-;-;9.312744;-3.6437836;-4.7158966;-;-;-;-;-;-;-;-;-;-;-;-;-;-;-
1514180748986;-;-;10.556519;-2.933899;-5.3874664;-;-;-;-;-;-;-;-;-;-;-;-;-;-;-
1514180749006;-;-;10.092056;-1.5656128;-5.3407745;-;-;-;-;-;-;-;-;-;-;-;-;-;-;-
1514180749026;-;-;10.203384;-0.5241394;-3.803711;-;-;-;-;-;-;-;-;-;-;-;-;-;-;-
1514180749047;-;-;9.603638;-0.17219543;-3.0435486;-;-;-;-;-;-;-;-;-;-;-;-;-;-;-
1514180749067;-;-;8.538208;-0.41400146;-2.4617462;-;-;-;-;-;-;-;-;-;-;-;-;-;-;-
1514180749088;-;-;7.5039215;-0.9862213;-2.1732483;-;-;-;-;-;-;-;-;-;-;-;-;-;-;-
1514180749108;-;-;5.8746643;-1.3309784;-1.8811646;-;-;-;-;-;-;-;-;-;-;-;-;-;-;-
1514180749128;-;-;4.9828186;-1.8517303;-1.5100555;-;-;-;-;-;-;-;-;-;-;-;-;-;-;-
1514180749149;-;-;4.853531;-2.2024689;-1.4621735;-;-;-;-;-;-;-;-;-;-;-;-;-;-;-
1514180749169;-;-;5.628067;-2.5101318;-1.4130859;-;-;-;-;-;-;-;-;-;-;-;-;-;-;-
1514180749189;-;-;6.387024;-3.2247925;-1.3712006;-;-;-;-;-;-;-;-;-;-;-;-;-;-;-
1514180749209;-;-;7.2657013;-3.4019623;-1.9134827;-;-;-;-;-;-;-;-;-;-;-;-;-;-;-
1514180749231;-;-;8.8051605;-3.0895233;-2.5718842;-;-;-;-;-;-;-;-;-;-;-;-;-;-;-
1514180749251;-;-;10.2357025;-2.7746887;-3.381134;-;-;-;-;-;-;-;-;-;-;-;-;-;-;-
1514180749271;-;-;11.038956;-2.9674225;-4.136505;-;-;-;-;-;-;-;-;-;-;-;-;-;-;-
1514180749291;-;-;11.307114;-3.1505737;-4.2178955;-;-;-;-;-;-;-;-;-;-;-;-;-;-;-
1514180749311;-;-;12.013397;-3.0559998;-4.3842926;-;-;-;-;-;-;-;-;-;-;-;-;-;-;-
1514180749332;-;-;11.724899;-3.2942352;-5.4976044;-;-;-;-;-;-;-;-;-;-;-;-;-;-;-
1514180749352;-;-;10.014236;-4.475769;-8.240158;-;-;-;-;-;-;-;-;-;-;-;-;-;-;-
1514180749372;-;-;8.715378;-5.526825;-7.804413;-;-;-;-;-;-;-;-;-;-;-;-;-;-;-
1514180749393;-;-;9.805939;-5.470566;-6.1105194;-;-;-;-;-;-;-;-;-;-;-;-;-;-;-
1514180749412;-;-;12.5520935;-3.360077;-5.0869904;-;-;-;-;-;-;-;-;-;-;-;-;-;-;-
1514180749432;-;-;11.53096;-1.7104645;-6.7725067;-;-;-;-;-;-;-;-;-;-;-;-;-;-;-
1514180749453;-;-;6.6970673;-1.3836517;-7.3399353;-;-;-;-;-;-;-;-;-;-;-;-;-;-;-
1514180749473;-;-;6.1918945;-2.1067047;-3.4134521;-;-;-;-;-;-;-;-;-;-;-;-;-;-;-
1514180749493;-;-;5.5789795;-2.1497955;-1.8464508;-;-;-;-;-;-;-;-;-;-;-;-;-;-;-
1514180749513;-;-;5.600525;-1.2400055;-1.1389618;-;-;-;-;-;-;-;-;-;-;-;-;-;-;-
1514180749534;-;-;6.343933;-0.53970337;-2.151703;-;-;-;-;-;-;-;-;-;-;-;-;-;-;-
1514180749554;-;-;6.9736023;-0.1817627;-3.9186249;-;-;-;-;-;-;-;-;-;-;-;-;-;-;-
1514180749575;-;-;6.8682556;-0.26316833;-5.089386;-;-;-;-;-;-;-;-;-;-;-;-;-;-;-
1514180749595;-;-;6.7329865;-0.17098999;-5.029541;-;-;-;-;-;-;-;-;-;-;-;-;-;-;-
1514180749615;-;-;6.3187866;0.7651367;-4.125717;-;-;-;-;-;-;-;-;-;-;-;-;-;-;-
1514180749636;-;-;6.205063;1.4331207;-3.6289215;-;-;-;-;-;-;-;-;-;-;-;-;-;-;-
1514180749656;-;-;6.2744904;1.2667236;-3.317688;-;-;-;-;-;-;-;-;-;-;-;-;-;-;-
1514180749676;-;-;6.0566254;0.9387207;-3.2913513;-;-;-;-;-;-;-;-;-;-;-;-;-;-;-
1514180749696;-;-;5.6017303;0.6442261;-2.2355042;-;-;-;-;-;-;-;-;-;-;-;-;-;-;-
1514180749717;-;-;6.735382;-0.13986206;-1.0360107;-;-;-;-;-;-;-;-;-;-;-;-;-;-;-
1514180749738;-;-;8.544205;-0.45829773;-1.4047089;-;-;-;-;-;-;-;-;-;-;-;-;-;-;-
1514180749758;-;-;8.639969;1.4582672;-2.2355042;-;-;-;-;-;-;-;-;-;-;-;-;-;-;-
1514180749778;-;-;11.546524;1.0177307;-2.6676483;-;-;-;-;-;-;-;-;-;-;-;-;-;-;-
1514180749798;-;-;13.103958;-0.581604;-4.100586;-;-;-;-;-;-;-;-;-;-;-;-;-;-;-
1514180749819;-;-;13.378098;-0.9539032;-5.001999;-;-;-;-;-;-;-;-;-;-;-;-;-;-;-
1514180749839;-;-;11.870941;-0.17817688;-4.2155;-;-;-;-;-;-;-;-;-;-;-;-;-;-;-
1514180749860;-;-;8.110855;0.9183655;-9.941238;-;-;-;-;-;-;-;-;-;-;-;-;-;-;-
1514180749879;-;-;5.7561493;2.205246;-10.546967;-;-;-;-;-;-;-;-;-;-;-;-;-;-;-
1514180749900;-;-;8.887772;3.156952;-3.472107;-;-;-;-;-;-;-;-;-;-;-;-;-;-;-
1514180749920;-;-;12.115143;2.5188904;-7.515915;-;-;-;-;-;-;-;-;-;-;-;-;-;-;-
1514180749940;-;-;9.555756;0.19293213;-8.594498;-;-;-;-;-;-;-;-;-;-;-;-;-;-;-
1514180749961;-;-;5.1444244;-0.2320404;-6.1979065;-;-;-;-;-;-;-;-;-;-;-;-;-;-;-
1514180749981;-;-;5.3694916;-2.1294556;-1.5531616;-;-;-;-;-;-;-;-;-;-;-;-;-;-;-
1514180750001;-;-;6.220627;-3.1781158;-0.5834961;-;-;-;-;-;-;-;-;-;-;-;-;-;-;-
1514180750022;-;-;6.7138367;-1.1609955;-2.8974915;-;-;-;-;-;-;-;-;-;-;-;-;-;-;-
1514180750043;-;-;6.146408;-1.0568542;-3.4302063;-;-;-;-;-;-;-;-;-;-;-;-;-;-;-
1514180750063;-;-;5.783676;-0.85453796;-2.97052;-;-;-;-;-;-;-;-;-;-;-;-;-;-;-
1514180750083;-;-;5.2425995;-0.838974;-3.0220032;-;-;-;-;-;-;-;-;-;-;-;-;-;-;-
1514180750104;-;-;4.5602417;-1.9438934;-3.2027588;-;-;-;-;-;-;-;-;-;-;-;-;-;-;-
1514180750124;-;-;5.2461853;-3.3085938;-3.9641113;-;-;-;-;-;-;-;-;-;-;-;-;-;-;-
1514180750144;-;-;6.4612427;-4.364441;-2.938202;-;-;-;-;-;-;-;-;-;-;-;-;-;-;-
1514180750165;-;-;7.669113;-4.092697;-3.535553;-;-;-;-;-;-;-;-;-;-;-;-;-;-;-
1514180750186;-;-;9.067337;-4.119034;-5.041504;-;-;-;-;-;-;-;-;-;-;-;-;-;-;-
1514180750206;-;-;11.86496;-4.523651;-6.6037292;-;-;-;-;-;-;-;-;-;-;-;-;-;-;-
1514180750227;-;-;14.952286;-3.3756256;-5.551468;-;-;-;-;-;-;-;-;-;-;-;-;-;-;-
1514180750247;-;-;15.250351;-2.614273;-4.9804535;-;-;-;-;-;-;-;-;-;-;-;-;-;-;-
1514180750267;-;-;15.468231;-1.6027222;-5.2689514;-;-;-;-;-;-;-;-;-;-;-;-;-;-;-
1514180750288;-;-;11.471115;0.010971069;-8.308395;-;-;-;-;-;-;-;-;-;-;-;-;-;-;-
1514180750309;-;-;5.5598297;-0.6929321;-11.923645;-;-;-;-;-;-;-;-;-;-;-;-;-;-;-
1514180750329;-;-;4.189148;-1.7427826;-10.901321;-;-;-;-;-;-;-;-;-;-;-;-;-;-;-
1514180750350;-;-;5.765732;-4.787018;-1.6956024;-;-;-;-;-;-;-;-;-;-;-;-;-;-;-
1514180750370;-;-;8.533432;-3.3409119;-1.8512268;-;-;-;-;-;-;-;-;-;-;-;-;-;-;-
1514180750390;-;-;7.8331146;-2.653778;-5.1947327;-;-;-;-;-;-;-;-;-;-;-;-;-;-;-
1514180750411;-;-;7.198654;-2.3257751;-6.9065857;-;-;-;-;-;-;-;-;-;-;-;-;-;-;-
1514180750431;-;-;5.916565;-1.7511597;-5.918976;-;-;-;-;-;-;-;-;-;-;-;-;-;-;-
1514180750451;-;-;3.8096619;-0.01776123;-2.546753;-;-;-;-;-;-;-;-;-;-;-;-;-;-;-
1514180750472;-;-;3.6839752;0.78549194;-0.7965851;-;-;-;-;-;-;-;-;-;-;-;-;-;-;-
1514180750492;-;-;4.8595276;0.49339294;-3.3033142;-;-;-;-;-;-;-;-;-;-;-;-;-;-;-
1514180750512;-;-;5.600525;0.7411957;-5.2031097;-;-;-;-;-;-;-;-;-;-;-;-;-;-;-
1514180750532;-;-;6.0458527;1.655777;-4.888275;-;-;-;-;-;-;-;-;-;-;-;-;-;-;-
1514180750552;-;-;6.020706;1.9466705;-4.266983;-;-;-;-;-;-;-;-;-;-;-;-;-;-;-
1514180750573;-;-;5.430542;1.1637726;-4.508789;-;-;-;-;-;-;-;-;-;-;-;-;-;-;-
1514180750593;-;-;7.0142975;0.4945984;-4.3555603;-;-;-;-;-;-;-;-;-;-;-;-;-;-;-
1514180750614;-;-;10.220139;1.1123047;-4.0191803;-;-;-;-;-;-;-;-;-;-;-;-;-;-;-
1514180750634;-;-;10.533783;2.387207;-5.2031097;-;-;-;-;-;-;-;-;-;-;-;-;-;-;-
1514180750654;-;-;11.03656;3.18927;-4.896652;-;-;-;-;-;-;-;-;-;-;-;-;-;-;-
1514180750675;-;-;12.572449;1.027298;-3.5882263;-;-;-;-;-;-;-;-;-;-;-;-;-;-;-
1514180750695;-;-;11.376541;0.8213959;-4.189163;-;-;-;-;-;-;-;-;-;-;-;-;-;-;-
1514180750715;-;-;10.417664;-0.5612488;-7.642807;-;-;-;-;-;-;-;-;-;-;-;-;-;-;-
1514180750736;-;-;8.400543;0.82499695;-10.2656555;-;-;-;-;-;-;-;-;-;-;-;-;-;-;-
1514180750756;-;-;7.119644;1.2571411;-5.7358246;-;-;-;-;-;-;-;-;-;-;-;-;-;-;-
1514180750777;-;-;9.945999;-1.1741638;-6.8299713;-;-;-;-;-;-;-;-;-;-;-;-;-;-;-
1514180750797;-;-;7.9121246;-1.3860474;-9.735336;-;-;-;-;-;-;-;-;-;-;-;-;-;-;-
1514180750817;-;-;5.5310974;-0.04170227;-8.89856;-;-;-;-;-;-;-;-;-;-;-;-;-;-;-
1514180750838;-;-;4.979233;0.34136963;-6.358322;-;-;-;-;-;-;-;-;-;-;-;-;-;-;-
1514180750857;-;-;5.4257507;-1.4231567;-1.4154816;-;-;-;-;-;-;-;-;-;-;-;-;-;-;-
1514180750878;-;-;6.297241;-3.5827332;-0.46858215;-;-;-;-;-;-;-;-;-;-;-;-;-;-;-
1514180750898;-;-;6.376251;-3.8963776;-2.8352509;-;-;-;-;-;-;-;-;-;-;-;-;-;-;-
1514180750919;-;-;6.324768;-3.7802582;-4.4070435;-;-;-;-;-;-;-;-;-;-;-;-;-;-;-
1514180750938;-;-;5.3491364;-3.2834625;-4.594986;-;-;-;-;-;-;-;-;-;-;-;-;-;-;-
1514180750958;-;-;4.5794067;-2.186905;-4.03714;-;-;-;-;-;-;-;-;-;-;-;-;-;-;-
1514180750979;-;-;4.7685394;-0.957489;-3.1381226;-;-;-;-;-;-;-;-;-;-;-;-;-;-;-
1514180750999;-;-;5.4401093;-1.091568;-3.9724884;-;-;-;-;-;-;-;-;-;-;-;-;-;-;-
1514180751019;-;-;5.775299;-1.5895538;-4.8188477;-;-;-;-;-;-;-;-;-;-;-;-;-;-;-
1514180751040;-;-;7.7840424;-2.392807;-4.3950653;-;-;-;-;-;-;-;-;-;-;-;-;-;-;-
1514180751061;-;-;9.754471;-2.9554443;-3.9497528;-;-;-;-;-;-;-;-;-;-;-;-;-;-;-
1514180751081;-;-;10.725311;-3.282257;-3.1237488;-;-;-;-;-;-;-;-;-;-;-;-;-;-;-
1514180751101;-;-;11.74884;-4.202835;-3.484085;-;-;-;-;-;-;-;-;-;-;-;-;-;-;-
1514180751122;-;-;13.84137;-4.59787;-4.4932404;-;-;-;-;-;-;-;-;-;-;-;-;-;-;-
1514180751142;-;-;14.759552;-2.7124329;-6.224243;-;-;-;-;-;-;-;-;-;-;-;-;-;-;-
1514180751162;-;-;10.79834;-2.1342316;-7.780472;-;-;-;-;-;-;-;-;-;-;-;-;-;-;-
1514180751183;-;-;6.8048096;-2.447876;-11.192215;-;-;-;-;-;-;-;-;-;-;-;-;-;-;-
1514180751202;-;-;5.5837708;-3.3433075;-10.074112;-;-;-;-;-;-;-;-;-;-;-;-;-;-;-
1514180751222;-;-;8.383789;-3.1326141;-1.1365662;-;-;-;-;-;-;-;-;-;-;-;-;-;-;-
1514180751243;-;-;8.942825;-1.9905853;-2.6245575;-;-;-;-;-;-;-;-;-;-;-;-;-;-;-
1514180751263;-;-;6.015915;-2.7256012;-9.202621;-;-;-;-;-;-;-;-;-;-;-;-;-;-;-
1514180751284;-;-;6.6575623;-2.2096558;-6.449295;-;-;-;-;-;-;-;-;-;-;-;-;-;-;-
1514180751304;-;-;6.639618;-0.8880615;-2.768219;-;-;-;-;-;-;-;-;-;-;-;-;-;-;-
1514180751324;-;-;4.778122;0.13426208;-1.2000122;-;-;-;-;-;-;-;-;-;-;-;-;-;-;-
1514180751345;-;-;3.8503723;0.378479;-1.2359161;-;-;-;-;-;-;-;-;-;-;-;-;-;-;-
1514180751365;-;-;4.9349365;1.121872;-3.2207184;-;-;-;-;-;-;-;-;-;-;-;-;-;-;-
1514180751386;-;-;6.1404266;1.1877136;-5.2809296;-;-;-;-;-;-;-;-;-;-;-;-;-;-;-
1514180751406;-;-;5.7645264;0.79626465;-5.3838806;-;-;-;-;-;-;-;-;-;-;-;-;-;-;-
1514180751427;-;-;4.5399017;1.1936951;-4.717087;-;-;-;-;-;-;-;-;-;-;-;-;-;-;-
1514180751447;-;-;5.0773926;2.0496216;-3.0938263;-;-;-;-;-;-;-;-;-;-;-;-;-;-;-
1514180751467;-;-;7.43808;1.753952;-3.326065;-;-;-;-;-;-;-;-;-;-;-;-;-;-;-
1514180751487;-;-;9.386963;0.99858093;-4.4082336;-;-;-;-;-;-;-;-;-;-;-;-;-;-;-
1514180751508;-;-;9.419281;0.6861267;-3.970108;-;-;-;-;-;-;-;-;-;-;-;-;-;-;-
1514180751527;-;-;9.993881;0.46826172;-3.3476105;-;-;-;-;-;-;-;-;-;-;-;-;-;-;-
1514180751547;-;-;10.220139;1.5947266;-1.9733429;-;-;-;-;-;-;-;-;-;-;-;-;-;-;-
1514180751568;-;-;12.560471;2.0292816;-2.673645;-;-;-;-;-;-;-;-;-;-;-;-;-;-;-
1514180751588;-;-;13.332596;1.4810028;-5.127701;-;-;-;-;-;-;-;-;-;-;-;-;-;-;-
1514180751609;-;-;11.655457;1.5983276;-5.5347137;-;-;-;-;-;-;-;-;-;-;-;-;-;-;-
1514180751629;-;-;10.615189;0.7112732;-9.674286;-;-;-;-;-;-;-;-;-;-;-;-;-;-;-
1514180751649;-;-;10.118393;0.9854126;-8.219803;-;-;-;-;-;-;-;-;-;-;-;-;-;-;-
1514180751669;-;-;9.181061;0.33299255;-6.0542603;-;-;-;-;-;-;-;-;-;-;-;-;-;-;-
1514180751690;-;-;8.766861;0.08518982;-6.179947;-;-;-;-;-;-;-;-;-;-;-;-;-;-;-
1514180751710;-;-;7.110077;1.0440674;-5.508377;-;-;-;-;-;-;-;-;-;-;-;-;-;-;-
1514180751730;-;-;4.600952;1.0883636;-5.75618;-;-;-;-;-;-;-;-;-;-;-;-;-;-;-
1514180751751;-;-;3.9569092;-0.5444946;-3.9497528;-;-;-;-;-;-;-;-;-;-;-;-;-;-;-
1514180751771;-;-;4.3818817;-2.080368;-2.2366943;-;-;-;-;-;-;-;-;-;-;-;-;-;-;-
1514180751791;-;-;5.902191;-0.9862213;-3.409851;-;-;-;-;-;-;-;-;-;-;-;-;-;-;-
1514180751812;-;-;6.2002716;-0.3002777;-2.4749146;-;-;-;-;-;-;-;-;-;-;-;-;-;-;-
1514180751832;-;-;6.594116;-0.73243713;-2.342041;-;-;-;-;-;-;-;-;-;-;-;-;-;-;-
1514180751852;-;-;6.229004;-1.5428772;-2.8184967;-;-;-;-;-;-;-;-;-;-;-;-;-;-;-
1514180751873;-;-;5.4353333;-2.652588;-3.4397888;-;-;-;-;-;-;-;-;-;-;-;-;-;-;-
1514180751894;-;-;4.9301453;-3.51091;-3.7761688;-;-;-;-;-;-;-;-;-;-;-;-;-;-;-
1514180751914;-;-;4.869095;-3.8137665;-3.310501;-;-;-;-;-;-;-;-;-;-;-;-;-;-;-
1514180751934;-;-;6.8957977;-2.913559;-2.8735504;-;-;-;-;-;-;-;-;-;-;-;-;-;-;-
1514180751955;-;-;8.298798;-2.0348816;-3.606186;-;-;-;-;-;-;-;-;-;-;-;-;-;-;-
1514180751974;-;-;10.162674;-2.3988037;-4.2645874;-;-;-;-;-;-;-;-;-;-;-;-;-;-;-
1514180751995;-;-;11.672226;-3.0895233;-4.812866;-;-;-;-;-;-;-;-;-;-;-;-;-;-;-
1514180752015;-;-;11.811081;-2.7926483;-4.29451;-;-;-;-;-;-;-;-;-;-;-;-;-;-;-
1514180752036;-;-;10.949173;-4.099884;-4.6871643;-;-;-;-;-;-;-;-;-;-;-;-;-;-;-
1514180752056;-;-;13.537308;-4.068756;-4.049103;-;-;-;-;-;-;-;-;-;-;-;-;-;-;-
1514180752076;-;-;14.419571;-2.1342316;-5.156433;-;-;-;-;-;-;-;-;-;-;-;-;-;-;-
1514180752097;-;-;10.815094;-0.8748932;-8.14798;-;-;-;-;-;-;-;-;-;-;-;-;-;-;-
1514180752117;-;-;5.528702;-1.9235535;-15.042084;-;-;-;-;-;-;-;-;-;-;-;-;-;-;-
1514180752137;-;-;6.4923706;-2.9710083;-5.5179596;-;-;-;-;-;-;-;-;-;-;-;-;-;-;-
1514180752158;-;-;8.736938;-0.7695465;-0.5643463;-;-;-;-;-;-;-;-;-;-;-;-;-;-;-
1514180752179;-;-;7.8127747;-0.083602905;-6.124878;-;-;-;-;-;-;-;-;-;-;-;-;-;-;-
1514180752199;-;-;8.294006;-1.3369751;-7.362686;-;-;-;-;-;-;-;-;-;-;-;-;-;-;-
1514180752219;-;-;8.374207;-2.2024689;-6.145233;-;-;-;-;-;-;-;-;-;-;-;-;-;-;-
1514180752239;-;-;7.351883;-3.0967102;-2.515625;-;-;-;-;-;-;-;-;-;-;-;-;-;-;-
1514180752259;-;-;4.6931305;-2.0360718;-2.4006958;-;-;-;-;-;-;-;-;-;-;-;-;-;-;-
1514180752280;-;-;4.244217;-0.3864746;-3.1273346;-;-;-;-;-;-;-;-;-;-;-;-;-;-;-
1514180752300;-;-;5.158798;1.1685638;-4.298111;-;-;-;-;-;-;-;-;-;-;-;-;-;-;-
1514180752321;-;-;5.901001;1.8401337;-5.2893066;-;-;-;-;-;-;-;-;-;-;-;-;-;-;-
1514180752341;-;-;5.588562;1.8389435;-5.6256866;-;-;-;-;-;-;-;-;-;-;-;-;-;-;-
1514180752362;-;-;5.3539276;2.1070862;-5.017563;-;-;-;-;-;-;-;-;-;-;-;-;-;-;-
1514180752382;-;-;5.9632416;1.7934418;-3.998825;-;-;-;-;-;-;-;-;-;-;-;-;-;-;-
1514180752403;-;-;6.102112;0.34376526;-3.70195;-;-;-;-;-;-;-;-;-;-;-;-;-;-;-
1514180752423;-;-;5.8507233;-0.46907043;-3.5870209;-;-;-;-;-;-;-;-;-;-;-;-;-;-;-
1514180752443;-;-;6.1799316;-0.13148499;-3.0674896;-;-;-;-;-;-;-;-;-;-;-;-;-;-;-
1514180752464;-;-;7.0849304;0.52931213;-2.4342194;-;-;-;-;-;-;-;-;-;-;-;-;-;-;-
1514180752485;-;-;8.007904;1.413971;-2.531189;-;-;-;-;-;-;-;-;-;-;-;-;-;-;-
1514180752504;-;-;10.04776;1.9861755;-2.9010925;-;-;-;-;-;-;-;-;-;-;-;-;-;-;-
1514180752525;-;-;13.985016;1.6438141;-3.4613342;-;-;-;-;-;-;-;-;-;-;-;-;-;-;-
1514180752545;-;-;15.313797;2.3608704;-3.2638092;-;-;-;-;-;-;-;-;-;-;-;-;-;-;-
1514180752566;-;-;13.777924;2.7295837;-2.4928741;-;-;-;-;-;-;-;-;-;-;-;-;-;-;-
1514180752585;-;-;10.331467;1.2858734;-5.7681427;-;-;-;-;-;-;-;-;-;-;-;-;-;-;-
1514180752605;-;-;6.7162323;0.74598694;-9.577316;-;-;-;-;-;-;-;-;-;-;-;-;-;-;-
1514180752626;-;-;4.7493896;2.87323;-5.0953827;-;-;-;-;-;-;-;-;-;-;-;-;-;-;-
1514180752645;-;-;7.233368;3.5005188;-5.887863;-;-;-;-;-;-;-;-;-;-;-;-;-;-;-
1514180752666;-;-;8.593277;4.899933;-8.11087;-;-;-;-;-;-;-;-;-;-;-;-;-;-;-
1514180752686;-;-;7.3494873;3.690857;-7.6212616;-;-;-;-;-;-;-;-;-;-;-;-;-;-;-
1514180752707;-;-;8.790802;-0.9431305;-7.946869;-;-;-;-;-;-;-;-;-;-;-;-;-;-;-
1514180752727;-;-;8.080917;-2.8955994;-3.8096924;-;-;-;-;-;-;-;-;-;-;-;-;-;-;-
1514180752748;-;-;7.2704773;-2.044464;-3.2877502;-;-;-;-;-;-;-;-;-;-;-;-;-;-;-
1514180752768;-;-;6.754532;0.71606445;-4.8583527;-;-;-;-;-;-;-;-;-;-;-;-;-;-;-
1514180752789;-;-;5.9632416;2.3489075;-4.3316193;-;-;-;-;-;-;-;-;-;-;-;-;-;-;-
1514180752808;-;-;4.41539;1.7359924;-3.5966034;-;-;-;-;-;-;-;-;-;-;-;-;-;-;-
1514180752828;-;-;3.58461;-0.16859436;-3.4673157;-;-;-;-;-;-;-;-;-;-;-;-;-;-;-
1514180752848;-;-;4.027542;-3.0715637;-4.404648;-;-;-;-;-;-;-;-;-;-;-;-;-;-;-
1514180752869;-;-;6.0135345;-4.573929;-4.5064087;-;-;-;-;-;-;-;-;-;-;-;-;-;-;-
1514180752889;-;-;8.141968;-3.7718658;-4.7973022;-;-;-;-;-;-;-;-;-;-;-;-;-;-;-
1514180752909;-;-;7.7337646;-1.8050385;-4.776947;-;-;-;-;-;-;-;-;-;-;-;-;-;-;-
1514180752931;-;-;7.605667;-0.6330719;-4.0000305;-;-;-;-;-;-;-;-;-;-;-;-;-;-;-
1514180752949;-;-;6.8371277;-0.28471375;-3.2554321;-;-;-;-;-;-;-;-;-;-;-;-;-;-;-
1514180752970;-;-;6.438492;-0.6701813;-3.0375519;-;-;-;-;-;-;-;-;-;-;-;-;-;-;-
1514180752989;-;-;6.427719;-1.1442413;-2.47612;-;-;-;-;-;-;-;-;-;-;-;-;-;-;-
1514180753010;-;-;6.62764;-1.3920441;-1.5387878;-;-;-;-;-;-;-;-;-;-;-;-;-;-;-
1514180753029;-;-;7.2034454;-1.7822876;-1.282608;-;-;-;-;-;-;-;-;-;-;-;-;-;-;-
1514180753049;-;-;8.034241;-1.9295349;-1.4585876;-;-;-;-;-;-;-;-;-;-;-;-;-;-;-
1514180753070;-;-;9.124786;-2.0671997;-1.4573822;-;-;-;-;-;-;-;-;-;-;-;-;-;-;-
1514180753091;-;-;10.44519;-2.245575;-1.5579376;-;-;-;-;-;-;-;-;-;-;-;-;-;-;-
1514180753111;-;-;11.320282;-1.6769409;-2.0978394;-;-;-;-;-;-;-;-;-;-;-;-;-;-;-
1514180753131;-;-;10.733688;-0.65582275;-2.6628723;-;-;-;-;-;-;-;-;-;-;-;-;-;-;-
1514180753152;-;-;8.203018;-0.1015625;-4.8451843;-;-;-;-;-;-;-;-;-;-;-;-;-;-;-
1514180753172;-;-;6.651581;-1.1585999;-6.626465;-;-;-;-;-;-;-;-;-;-;-;-;-;-;-
1514180753193;-;-;7.949234;0.17616272;-10.495499;-;-;-;-;-;-;-;-;-;-;-;-;-;-;-
1514180753213;-;-;10.063324;0.65141296;-7.132843;-;-;-;-;-;-;-;-;-;-;-;-;-;-;-
1514180753233;-;-;12.752014;0.17137146;-6.9053955;-;-;-;-;-;-;-;-;-;-;-;-;-;-;-
1514180753254;-;-;13.001007;0.32580566;-7.381836;-;-;-;-;-;-;-;-;-;-;-;-;-;-;-
1514180753274;-;-;11.703354;-0.124313354;-6.7749023;-;-;-;-;-;-;-;-;-;-;-;-;-;-;-
1514180753295;-;-;9.649124;-1.7846832;-5.2055054;-;-;-;-;-;-;-;-;-;-;-;-;-;-;-
1514180753315;-;-;8.353867;-2.1079102;-3.8863068;-;-;-;-;-;-;-;-;-;-;-;-;-;-;-
1514180753336;-;-;7.9983215;-1.2771149;-3.666031;-;-;-;-;-;-;-;-;-;-;-;-;-;-;-
1514180753356;-;-;6.304428;0.22045898;-4.5530853;-;-;-;-;-;-;-;-;-;-;-;-;-;-;-
1514180753375;-;-;3.9772644;1.5743866;-3.3823242;-;-;-;-;-;-;-;-;-;-;-;-;-;-;-
1514180753396;-;-;2.9860535;2.1430054;-1.6369476;-;-;-;-;-;-;-;-;-;-;-;-;-;-;-
1514180753415;-;-;4.453705;1.8197784;-1.6692657;-;-;-;-;-;-;-;-;-;-;-;-;-;-;-
1514180753436;-;-;6.0805664;0.9075928;-2.1864166;-;-;-;-;-;-;-;-;-;-;-;-;-;-;-
1514180753456;-;-;6.6815033;-0.107543945;-1.9637604;-;-;-;-;-;-;-;-;-;-;-;-;-;-;-
1514180753477;-;-;6.873047;-0.42956543;-1.4621735;-;-;-;-;-;-;-;-;-;-;-;-;-;-;-
1514180753498;-;-;6.9460754;-0.13986206;-1.5100555;-;-;-;-;-;-;-;-;-;-;-;-;-;-;-
1514180753518;-;-;7.011902;0.03251648;-1.6549072;-;-;-;-;-;-;-;-;-;-;-;-;-;-;-
1514180753539;-;-;6.656372;0.009765625;-0.93904114;-;-;-;-;-;-;-;-;-;-;-;-;-;-;-
1514180753559;-;-;5.917755;0.026535034;-0.43984985;-;-;-;-;-;-;-;-;-;-;-;-;-;-;-
1514180753580;-;-;6.038666;0.2850952;0.25326538;-;-;-;-;-;-;-;-;-;-;-;-;-;-;-
1514180753600;-;-;7.9420624;-0.26316833;0.11920166;-;-;-;-;-;-;-;-;-;-;-;-;-;-;-
1514180753621;-;-;13.077621;-1.696106;-1.0814972;-;-;-;-;-;-;-;-;-;-;-;-;-;-;-
1514180753640;-;-;17.236343;-1.7128601;-2.0559387;-;-;-;-;-;-;-;-;-;-;-;-;-;-;-
1514180753661;-;-;16.867645;-0.7527771;-3.4529572;-;-;-;-;-;-;-;-;-;-;-;-;-;-;-
1514180753680;-;-;10.033386;1.6366272;-11.053345;-;-;-;-;-;-;-;-;-;-;-;-;-;-;-
1514180753701;-;-;3.639679;5.348831;-14.711685;-;-;-;-;-;-;-;-;-;-;-;-;-;-;-
1514180753721;-;-;0.116607666;6.228714;-9.03743;-;-;-;-;-;-;-;-;-;-;-;-;-;-;-
1514180753742;-;-;7.9348755;3.7351532;-4.8020782;-;-;-;-;-;-;-;-;-;-;-;-;-;-;-
1514180753762;-;-;17.213608;-2.8884125;-8.420929;-;-;-;-;-;-;-;-;-;-;-;-;-;-;-
1514180753783;-;-;12.884888;-2.0624084;-14.637466;-;-;-;-;-;-;-;-;-;-;-;-;-;-;-
1514180753803;-;-;13.737228;1.7874603;-7.678726;-;-;-;-;-;-;-;-;-;-;-;-;-;-;-
1514180753823;-;-;12.607162;1.7910614;-7.606888;-;-;-;-;-;-;-;-;-;-;-;-;-;-;-
1514180753845;-;-;11.772781;-0.37928772;-6.967636;-;-;-;-;-;-;-;-;-;-;-;-;-;-;-
1514180753865;-;-;9.2313385;-4.139389;-7.7433624;-;-;-;-;-;-;-;-;-;-;-;-;-;-;-
1514180753885;-;-;3.718689;-7.353592;-6.3367615;-;-;-;-;-;-;-;-;-;-;-;-;-;-;-
1514180753906;-;-;1.6153717;-7.5762634;-2.7299042;-;-;-;-;-;-;-;-;-;-;-;-;-;-;-
1514180753926;-;-;1.6752319;-6.2402954;-0.11663818;-;-;-;-;-;-;-;-;-;-;-;-;-;-;-
1514180753947;-;-;5.426941;-4.522461;-2.1110077;-;-;-;-;-;-;-;-;-;-;-;-;-;-;-
1514180753967;-;-;8.7608795;-3.8245392;-2.2402954;-;-;-;-;-;-;-;-;-;-;-;-;-;-;-
1514180753987;-;-;9.680252;-3.4654083;-1.5842743;-;-;-;-;-;-;-;-;-;-;-;-;-;-;-
1514180754008;-;-;8.814743;-4.1848755;-2.1457214;-;-;-;-;-;-;-;-;-;-;-;-;-;-;-
1514180754027;-;-;6.604889;-4.435074;-2.2342987;-;-;-;-;-;-;-;-;-;-;-;-;-;-;-
1514180754047;-;-;4.4489136;-3.2475433;-1.5675201;-;-;-;-;-;-;-;-;-;-;-;-;-;-;-
1514180754068;-;-;3.9174042;-1.9008026;-0.9833374;-;-;-;-;-;-;-;-;-;-;-;-;-;-;-
1514180754090;-;-;6.8790283;-1.6470184;-2.0595245;-;-;-;-;-;-;-;-;-;-;-;-;-;-;-
1514180754109;-;-;10.04895;-2.6071014;-3.2398682;-;-;-;-;-;-;-;-;-;-;-;-;-;-;-
1514180754131;-;-;14.417175;-4.6206207;-3.792923;-;-;-;-;-;-;-;-;-;-;-;-;-;-;-
1514180754149;-;-;18.732727;-5.162903;-3.729477;-;-;-;-;-;-;-;-;-;-;-;-;-;-;-
1514180754169;-;-;21.314865;-4.18367;-4.6680145;-;-;-;-;-;-;-;-;-;-;-;-;-;-;-
1514180754190;-;-;16.87004;-2.056427;-7.215439;-;-;-;-;-;-;-;-;-;-;-;-;-;-;-
1514180754210;-;-;12.208527;-2.324585;-14.706894;-;-;-;-;-;-;-;-;-;-;-;-;-;-;-
1514180754231;-;-;7.7960052;-4.3405;-7.8630676;-;-;-;-;-;-;-;-;-;-;-;-;-;-;-
1514180754251;-;-;2.1277313;-4.016083;-5.171997;-;-;-;-;-;-;-;-;-;-;-;-;-;-;-
1514180754272;-;-;2.2462463;-3.9921417;-11.692596;-;-;-;-;-;-;-;-;-;-;-;-;-;-;-
1514180754292;-;-;7.0741577;-2.5807648;-9.814346;-;-;-;-;-;-;-;-;-;-;-;-;-;-;-
1514180754312;-;-;8.5082855;-1.577591;-8.657944;-;-;-;-;-;-;-;-;-;-;-;-;-;-;-
1514180754333;-;-;9.0182495;-1.7667236;-6.291275;-;-;-;-;-;-;-;-;-;-;-;-;-;-;-
1514180754353;-;-;8.140778;-1.0257263;-4.219101;-;-;-;-;-;-;-;-;-;-;-;-;-;-;-
1514180754374;-;-;7.652359;-0.7623596;-3.6373138;-;-;-;-;-;-;-;-;-;-;-;-;-;-;-
1514180754393;-;-;6.2002716;-1.3752747;-4.11734;-;-;-;-;-;-;-;-;-;-;-;-;-;-;-
1514180754413;-;-;4.2035065;-1.4734344;-3.998825;-;-;-;-;-;-;-;-;-;-;-;-;-;-;-
1514180754434;-;-;3.3499756;-0.66659546;-2.8148956;-;-;-;-;-;-;-;-;-;-;-;-;-;-;-
1514180754454;-;-;3.9928284;0.49220276;-1.7602539;-;-;-;-;-;-;-;-;-;-;-;-;-;-;-
1514180754475;-;-;6.991562;0.2922821;-1.9888916;-;-;-;-;-;-;-;-;-;-;-;-;-;-;-
1514180754494;-;-;7.5709534;-0.5169525;-4.9014435;-;-;-;-;-;-;-;-;-;-;-;-;-;-;-
1514180754515;-;-;6.8431244;1.2296143;-5.6963196;-;-;-;-;-;-;-;-;-;-;-;-;-;-;-
1514180754534;-;-;7.9109344;3.6645203;-6.0123596;-;-;-;-;-;-;-;-;-;-;-;-;-;-;-
1514180754554;-;-;9.513855;4.249893;-5.685547;-;-;-;-;-;-;-;-;-;-;-;-;-;-;-
1514180754575;-;-;10.530182;2.8205566;-5.0235443;-;-;-;-;-;-;-;-;-;-;-;-;-;-;-
1514180754595;-;-;11.285553;1.9347076;-3.768982;-;-;-;-;-;-;-;-;-;-;-;-;-;-;-
1514180754616;-;-;9.321121;1.2954559;-2.9932709;-;-;-;-;-;-;-;-;-;-;-;-;-;-;-
1514180754636;-;-;6.0937347;0.24320984;-10.094467;-;-;-;-;-;-;-;-;-;-;-;-;-;-;-
1514180754657;-;-;4.8798676;0.5233307;-9.515076;-;-;-;-;-;-;-;-;-;-;-;-;-;-;-
1514180754676;-;-;5.6986847;1.5791626;-5.2653656;-;-;-;-;-;-;-;-;-;-;-;-;-;-;-
1514180754696;-;-;8.967972;1.6078949;-9.007507;-;-;-;-;-;-;-;-;-;-;-;-;-;-;-
1514180754717;-;-;8.164719;0.043289185;-7.381836;-;-;-;-;-;-;-;-;-;-;-;-;-;-;-
1514180754738;-;-;3.7282562;-0.8485565;-7.9109497;-;-;-;-;-;-;-;-;-;-;-;-;-;-;-
1514180754758;-;-;4.569824;-0.19493103;-6.7832947;-;-;-;-;-;-;-;-;-;-;-;-;-;-;-
1514180754779;-;-;5.5442657;0.9387207;-2.603012;-;-;-;-;-;-;-;-;-;-;-;-;-;-;-
1514180754799;-;-;6.020706;0.56044006;-2.5850525;-;-;-;-;-;-;-;-;-;-;-;-;-;-;-
1514180754819;-;-;6.7413635;-1.7368011;-2.0224152;-;-;-;-;-;-;-;-;-;-;-;-;-;-;-
1514180754840;-;-;6.60849;-3.5240784;-2.697586;-;-;-;-;-;-;-;-;-;-;-;-;-;-;-
1514180754859;-;-;5.6112976;-4.9474335;-3.1871948;-;-;-;-;-;-;-;-;-;-;-;-;-;-;-
1514180754881;-;-;5.2282257;-4.803772;-3.7797546;-;-;-;-;-;-;-;-;-;-;-;-;-;-;-
1514180754901;-;-;5.0845795;-3.443863;-4.1065674;-;-;-;-;-;-;-;-;-;-;-;-;-;-;-
1514180754921;-;-;6.0566254;-1.764328;-3.9569397;-;-;-;-;-;-;-;-;-;-;-;-;-;-;-
1514180754941;-;-;8.6423645;-1.0161438;-4.839203;-;-;-;-;-;-;-;-;-;-;-;-;-;-;-
1514180754962;-;-;10.77919;-2.265915;-5.51915;-;-;-;-;-;-;-;-;-;-;-;-;-;-;-
1514180754982;-;-;12.705322;-2.3461304;-4.0646667;-;-;-;-;-;-;-;-;-;-;-;-;-;-;-
1514180755003;-;-;12.858551;-1.9043884;-4.4309845;-;-;-;-;-;-;-;-;-;-;-;-;-;-;-
1514180755023;-;-;13.312256;-1.8373566;-5.049881;-;-;-;-;-;-;-;-;-;-;-;-;-;-;-
1514180755044;-;-;12.133102;-1.2651367;-7.215439;-;-;-;-;-;-;-;-;-;-;-;-;-;-;-
1514180755064;-;-;8.193451;-2.6286469;-11.504654;-;-;-;-;-;-;-;-;-;-;-;-;-;-;-
1514180755084;-;-;7.2992096;-6.0427704;-10.484726;-;-;-;-;-;-;-;-;-;-;-;-;-;-;-
1514180755105;-;-;8.711792;-4.611038;-2.831665;-;-;-;-;-;-;-;-;-;-;-;-;-;-;-
1514180755125;-;-;6.833542;-0.8820648;-6.0398865;-;-;-;-;-;-;-;-;-;-;-;-;-;-;-
1514180755145;-;-;5.6819305;0.2922821;-7.1831207;-;-;-;-;-;-;-;-;-;-;-;-;-;-;-
1514180755166;-;-;6.158371;0.6466217;-5.6436462;-;-;-;-;-;-;-;-;-;-;-;-;-;-;-
1514180755186;-;-;5.6196747;0.1510315;-4.6440735;-;-;-;-;-;-;-;-;-;-;-;-;-;-;-
1514180755206;-;-;4.189148;-0.7276459;-2.764618;-;-;-;-;-;-;-;-;-;-;-;-;-;-;-
1514180755227;-;-;4.2023163;-0.7515869;-2.306137;-;-;-;-;-;-;-;-;-;-;-;-;-;-;-
1514180755248;-;-;5.7298126;-0.5540619;-3.0830536;-;-;-;-;-;-;-;-;-;-;-;-;-;-;-
1514180755268;-;-;7.8917847;-0.62709045;-4.441757;-;-;-;-;-;-;-;-;-;-;-;-;-;-;-
1514180755289;-;-;6.2589264;0.10913086;-5.3359985;-;-;-;-;-;-;-;-;-;-;-;-;-;-;-
1514180755309;-;-;5.7369995;1.7060547;-4.6763916;-;-;-;-;-;-;-;-;-;-;-;-;-;-;-
1514180755330;-;-;6.9352875;2.5105133;-4.753006;-;-;-;-;-;-;-;-;-;-;-;-;-;-;-
1514180755351;-;-;7.5709534;1.7754974;-5.5502777;-;-;-;-;-;-;-;-;-;-;-;-;-;-;-
1514180755371;-;-;9.710175;1.4714355;-5.4628906;-;-;-;-;-;-;-;-;-;-;-;-;-;-;-
1514180755392;-;-;12.726868;2.2902527;-4.3507843;-;-;-;-;-;-;-;-;-;-;-;-;-;-;-
1514180755412;-;-;12.2157135;2.9247131;-4.575836;-;-;-;-;-;-;-;-;-;-;-;-;-;-;-
1514180755432;-;-;10.827072;1.9909668;-3.5882263;-;-;-;-;-;-;-;-;-;-;-;-;-;-;-
1514180755453;-;-;7.5242615;0.18693542;-3.4349976;-;-;-;-;-;-;-;-;-;-;-;-;-;-;-
1514180755473;-;-;5.6986847;-0.67497253;-10.34346;-;-;-;-;-;-;-;-;-;-;-;-;-;-;-
1514180755492;-;-;4.8247986;0.33299255;-10.151932;-;-;-;-;-;-;-;-;-;-;-;-;-;-;-
1514180755513;-;-;7.7996063;1.7886658;-4.832016;-;-;-;-;-;-;-;-;-;-;-;-;-;-;-
1514180755533;-;-;12.072052;2.7559204;-7.639221;-;-;-;-;-;-;-;-;-;-;-;-;-;-;-
1514180755553;-;-;7.897766;1.0285034;-6.910187;-;-;-;-;-;-;-;-;-;-;-;-;-;-;-
1514180755574;-;-;5.782486;-0.41400146;-6.145233;-;-;-;-;-;-;-;-;-;-;-;-;-;-;-
1514180755595;-;-;5.176758;-0.64505005;-4.2454376;-;-;-;-;-;-;-;-;-;-;-;-;-;-;-
1514180755615;-;-;4.7601624;-1.8696747;-0.7115936;-;-;-;-;-;-;-;-;-;-;-;-;-;-;-
1514180755636;-;-;5.024719;-2.4227448;-1.2131805;-;-;-;-;-;-;-;-;-;-;-;-;-;-;-
1514180755656;-;-;4.7912903;-2.6597595;-1.4633789;-;-;-;-;-;-;-;-;-;-;-;-;-;-;-
1514180755677;-;-;5.830368;-2.5209045;-2.057129;-;-;-;-;-;-;-;-;-;-;-;-;-;-;-
1514180755697;-;-;5.9931793;-2.7375793;-3.6169586;-;-;-;-;-;-;-;-;-;-;-;-;-;-;-
1514180755717;-;-;5.9105835;-2.676529;-4.615341;-;-;-;-;-;-;-;-;-;-;-;-;-;-;-
1514180755738;-;-;6.8311462;-2.320984;-4.9050293;-;-;-;-;-;-;-;-;-;-;-;-;-;-;-
1514180755758;-;-;8.7656555;-1.2424011;-5.132492;-;-;-;-;-;-;-;-;-;-;-;-;-;-;-
1514180755779;-;-;9.130783;-1.6338501;-6.421768;-;-;-;-;-;-;-;-;-;-;-;-;-;-;-
1514180755798;-;-;10.120773;-4.472183;-8.368256;-;-;-;-;-;-;-;-;-;-;-;-;-;-;-
1514180755818;-;-;12.564056;-5.0635376;-6.147629;-;-;-;-;-;-;-;-;-;-;-;-;-;-;-
1514180755839;-;-;15.276688;-2.6334229;-3.8934937;-;-;-;-;-;-;-;-;-;-;-;-;-;-;-
1514180755859;-;-;15.291061;-1.5727997;-2.8974915;-;-;-;-;-;-;-;-;-;-;-;-;-;-;-
1514180755879;-;-;13.175781;-0.17817688;-5.070236;-;-;-;-;-;-;-;-;-;-;-;-;-;-;-
1514180755900;-;-;7.9995117;-1.5105438;-9.287628;-;-;-;-;-;-;-;-;-;-;-;-;-;-;-
1514180755919;-;-;3.7929077;-4.1705017;-13.582825;-;-;-;-;-;-;-;-;-;-;-;-;-;-;-
1514180755939;-;-;4.2035065;-7.215927;-6.5570374;-;-;-;-;-;-;-;-;-;-;-;-;-;-;-
1514180755960;-;-;7.7409363;-3.0931244;-1.531601;-;-;-;-;-;-;-;-;-;-;-;-;-;-;-
1514180755981;-;-;7.9743805;0.103149414;-6.5965424;-;-;-;-;-;-;-;-;-;-;-;-;-;-;-
1514180756000;-;-;7.166336;1.0452576;-5.883072;-;-;-;-;-;-;-;-;-;-;-;-;-;-;-
1514180756021;-;-;7.1376038;0.074417114;-5.544281;-;-;-;-;-;-;-;-;-;-;-;-;-;-;-
1514180756041;-;-;3.8479767;-0.3649292;-4.5135803;-;-;-;-;-;-;-;-;-;-;-;-;-;-;-
1514180756062;-;-;2.1828003;0.5233307;-1.98172;-;-;-;-;-;-;-;-;-;-;-;-;-;-;-
1514180756082;-;-;3.138092;0.6741638;-1.9877014;-;-;-;-;-;-;-;-;-;-;-;-;-;-;-
1514180756102;-;-;6.961624;0.47782898;-3.93898;-;-;-;-;-;-;-;-;-;-;-;-;-;-;-
1514180756123;-;-;7.1016846;0.8668976;-5.307266;-;-;-;-;-;-;-;-;-;-;-;-;-;-;-
1514180756142;-;-;6.438492;1.2320099;-4.8188477;-;-;-;-;-;-;-;-;-;-;-;-;-;-;-
1514180756163;-;-;5.8076324;1.9215393;-4.7027283;-;-;-;-;-;-;-;-;-;-;-;-;-;-;-
1514180756183;-;-;6.497162;2.706833;-4.899048;-;-;-;-;-;-;-;-;-;-;-;-;-;-;-
1514180756203;-;-;8.971558;2.2303925;-4.712311;-;-;-;-;-;-;-;-;-;-;-;-;-;-;-
1514180756224;-;-;12.854965;2.469818;-5.9094086;-;-;-;-;-;-;-;-;-;-;-;-;-;-;-
1514180756245;-;-;12.749619;4.0463867;-6.6037292;-;-;-;-;-;-;-;-;-;-;-;-;-;-;-
1514180756266;-;-;13.589981;2.624237;-3.144104;-;-;-;-;-;-;-;-;-;-;-;-;-;-;-
1514180756285;-;-;11.006638;0.6573944;-1.4190826;-;-;-;-;-;-;-;-;-;-;-;-;-;-;-
1514180756306;-;-;8.954803;-0.71687317;-6.1979065;-;-;-;-;-;-;-;-;-;-;-;-;-;-;-
1514180756325;-;-;4.5027924;-0.48223877;-12.324661;-;-;-;-;-;-;-;-;-;-;-;-;-;-;-
1514180756345;-;-;2.837616;1.2966461;-7.6176605;-;-;-;-;-;-;-;-;-;-;-;-;-;-;-
1514180756365;-;-;8.3502655;2.2555237;-5.4341583;-;-;-;-;-;-;-;-;-;-;-;-;-;-;-
1514180756386;-;-;11.100006;1.3936157;-6.8575134;-;-;-;-;-;-;-;-;-;-;-;-;-;-;-
1514180756407;-;-;5.1719666;-0.2607727;-8.775269;-;-;-;-;-;-;-;-;-;-;-;-;-;-;-
1514180756427;-;-;5.371887;-1.1166992;-6.828781;-;-;-;-;-;-;-;-;-;-;-;-;-;-;-
1514180756447;-;-;4.7122803;-1.6326599;-1.4897003;-;-;-;-;-;-;-;-;-;-;-;-;-;-;-
1514180756468;-;-;4.849945;-2.8896027;-1.0994568;-;-;-;-;-;-;-;-;-;-;-;-;-;-;-
1514180756488;-;-;5.478424;-3.3397217;-2.6640625;-;-;-;-;-;-;-;-;-;-;-;-;-;-;-
1514180756509;-;-;6.1930847;-3.3301392;-2.5742798;-;-;-;-;-;-;-;-;-;-;-;-;-;-;-
1514180756529;-;-;6.3223724;-2.5556183;-1.6369476;-;-;-;-;-;-;-;-;-;-;-;-;-;-;-
1514180756550;-;-;5.5670013;-2.253952;-2.350418;-;-;-;-;-;-;-;-;-;-;-;-;-;-;-
1514180756569;-;-;4.5195465;-2.4502716;-4.1113586;-;-;-;-;-;-;-;-;-;-;-;-;-;-;-
1514180756589;-;-;5.2114716;-3.1170654;-3.7761688;-;-;-;-;-;-;-;-;-;-;-;-;-;-;-
1514180756610;-;-;7.238159;-2.4993591;-3.0076294;-;-;-;-;-;-;-;-;-;-;-;-;-;-;-
1514180756630;-;-;11.21254;-2.7519379;-3.7510376;-;-;-;-;-;-;-;-;-;-;-;-;-;-;-
1514180756650;-;-;11.972702;-5.243103;-4.8368073;-;-;-;-;-;-;-;-;-;-;-;-;-;-;-
1514180756671;-;-;13.860519;-5.3089447;-4.5028076;-;-;-;-;-;-;-;-;-;-;-;-;-;-;-
1514180756692;-;-;13.733627;-1.3956299;-5.219879;-;-;-;-;-;-;-;-;-;-;-;-;-;-;-
1514180756712;-;-;12.0971985;0.8118286;-4.899048;-;-;-;-;-;-;-;-;-;-;-;-;-;-;-
1514180756733;-;-;10.653488;0.4287567;-6.3870544;-;-;-;-;-;-;-;-;-;-;-;-;-;-;-
1514180756753;-;-;7.9576263;-1.4614716;-10.494293;-;-;-;-;-;-;-;-;-;-;-;-;-;-;-
1514180756773;-;-;6.5677795;-5.763855;-12.785553;-;-;-;-;-;-;-;-;-;-;-;-;-;-;-
1514180756794;-;-;10.119583;-8.184387;-4.2167053;-;-;-;-;-;-;-;-;-;-;-;-;-;-;-
1514180756815;-;-;10.873764;-2.7279968;-3.6875916;-;-;-;-;-;-;-;-;-;-;-;-;-;-;-
1514180756835;-;-;6.6372223;-0.41879272;-10.277618;-;-;-;-;-;-;-;-;-;-;-;-;-;-;-
1514180756856;-;-;7.576935;1.1410217;-6.9724274;-;-;-;-;-;-;-;-;-;-;-;-;-;-;-
1514180756875;-;-;7.6380005;1.9550629;-4.7637787;-;-;-;-;-;-;-;-;-;-;-;-;-;-;-
1514180756895;-;-;5.9859924;0.95547485;-0.7283478;-;-;-;-;-;-;-;-;-;-;-;-;-;-;-
1514180756916;-;-;4.0610504;-0.47865295;-1.1581116;-;-;-;-;-;-;-;-;-;-;-;-;-;-;-
1514180756936;-;-;3.8910675;-1.5715942;-2.1193848;-;-;-;-;-;-;-;-;-;-;-;-;-;-;-
1514180756956;-;-;4.5710144;-2.2180328;-3.6600494;-;-;-;-;-;-;-;-;-;-;-;-;-;-;-
1514180756977;-;-;4.8918457;-2.341339;-4.4980164;-;-;-;-;-;-;-;-;-;-;-;-;-;-;-
1514180756997;-;-;4.533905;-0.8880615;-4.029953;-;-;-;-;-;-;-;-;-;-;-;-;-;-;-
1514180757018;-;-;4.126892;1.9550629;-3.4158478;-;-;-;-;-;-;-;-;-;-;-;-;-;-;-
1514180757038;-;-;5.4808197;3.778244;-3.0914307;-;-;-;-;-;-;-;-;-;-;-;-;-;-;-
1514180757059;-;-;7.849884;2.4255219;-4.385498;-;-;-;-;-;-;-;-;-;-;-;-;-;-;-
1514180757078;-;-;8.84227;1.1805267;-6.0087585;-;-;-;-;-;-;-;-;-;-;-;-;-;-;-
1514180757099;-;-;9.717361;1.1553955;-5.0187683;-;-;-;-;-;-;-;-;-;-;-;-;-;-;-
1514180757118;-;-;11.29155;1.5133209;-4.627304;-;-;-;-;-;-;-;-;-;-;-;-;-;-;-
1514180757138;-;-;10.804321;3.220398;-3.3847198;-;-;-;-;-;-;-;-;-;-;-;-;-;-;-
1514180757159;-;-;12.335419;2.9031677;-2.8328552;-;-;-;-;-;-;-;-;-;-;-;-;-;-;-
1514180757179;-;-;13.270355;1.9466705;-3.527176;-;-;-;-;-;-;-;-;-;-;-;-;-;-;-
1514180757200;-;-;11.020996;1.4857941;-3.7761688;-;-;-;-;-;-;-;-;-;-;-;-;-;-;-
1514180757219;-;-;8.599258;1.3648834;-7.3842316;-;-;-;-;-;-;-;-;-;-;-;-;-;-;-
1514180757240;-;-;6.324768;2.6996613;-9.376205;-;-;-;-;-;-;-;-;-;-;-;-;-;-;-
1514180757260;-;-;10.438019;4.0691376;-4.9337616;-;-;-;-;-;-;-;-;-;-;-;-;-;-;-
1514180757280;-;-;12.350983;2.8205566;-8.389801;-;-;-;-;-;-;-;-;-;-;-;-;-;-;-
1514180757301;-;-;8.66391;-0.46427917;-7.888214;-;-;-;-;-;-;-;-;-;-;-;-;-;-;-
1514180757322;-;-;6.901779;-1.5249176;-5.674774;-;-;-;-;-;-;-;-;-;-;-;-;-;-;-
1514180757342;-;-;5.5622253;-3.0320587;-3.757019;-;-;-;-;-;-;-;-;-;-;-;-;-;-;-
1514180757362;-;-;5.2845;-4.0041046;-1.1808624;-;-;-;-;-;-;-;-;-;-;-;-;-;-;-
1514180757382;-;-;6.446884;-1.6123047;-3.231491;-;-;-;-;-;-;-;-;-;-;-;-;-;-;-
1514180757402;-;-;4.9265594;-0.7372284;-3.8348236;-;-;-;-;-;-;-;-;-;-;-;-;-;-;-
1514180757423;-;-;3.8982544;-0.9215698;-2.4952698;-;-;-;-;-;-;-;-;-;-;-;-;-;-;-
1514180757443;-;-;3.0926056;-1.4722443;-2.4378052;-;-;-;-;-;-;-;-;-;-;-;-;-;-;-
1514180757464;-;-;2.4736938;-2.0432587;-2.860382;-;-;-;-;-;-;-;-;-;-;-;-;-;-;-
1514180757484;-;-;3.5546875;-2.451477;-2.2989502;-;-;-;-;-;-;-;-;-;-;-;-;-;-;-
1514180757505;-;-;4.944519;-2.6274414;-2.3863373;-;-;-;-;-;-;-;-;-;-;-;-;-;-;-
1514180757525;-;-;6.752136;-2.5005493;-2.6401215;-;-;-;-;-;-;-;-;-;-;-;-;-;-;-
1514180757546;-;-;8.58371;-2.5340729;-3.7606049;-;-;-;-;-;-;-;-;-;-;-;-;-;-;-
1514180757566;-;-;9.847839;-2.7100372;-4.0634766;-;-;-;-;-;-;-;-;-;-;-;-;-;-;-
1514180757586;-;-;9.289993;-2.7687073;-3.317688;-;-;-;-;-;-;-;-;-;-;-;-;-;-;-
1514180757607;-;-;8.2114105;-2.4622498;-2.5048523;-;-;-;-;-;-;-;-;-;-;-;-;-;-;-
1514180757627;-;-;7.6966553;-3.0105133;-1.1210022;-;-;-;-;-;-;-;-;-;-;-;-;-;-;-
1514180757648;-;-;7.7972107;-4.413513;-1.4250641;-;-;-;-;-;-;-;-;-;-;-;-;-;-;-
1514180757667;-;-;8.947617;-5.518448;-2.6712494;-;-;-;-;-;-;-;-;-;-;-;-;-;-;-
1514180757688;-;-;12.889679;-4.3225403;-3.4529572;-;-;-;-;-;-;-;-;-;-;-;-;-;-;-
1514180757707;-;-;15.240784;-2.942276;-3.159668;-;-;-;-;-;-;-;-;-;-;-;-;-;-;-
1514180757727;-;-;15.110291;-2.977005;-3.3116913;-;-;-;-;-;-;-;-;-;-;-;-;-;-;-
1514180757748;-;-;13.696518;-2.1929016;-3.1022034;-;-;-;-;-;-;-;-;-;-;-;-;-;-;-
1514180757768;-;-;11.939178;-1.2759247;-3.140503;-;-;-;-;-;-;-;-;-;-;-;-;-;-;-
1514180757789;-;-;9.446808;-2.1557922;-11.071304;-;-;-;-;-;-;-;-;-;-;-;-;-;-;-
1514180757809;-;-;9.673065;-2.4646454;-1.9146729;-;-;-;-;-;-;-;-;-;-;-;-;-;-;-
1514180757830;-;-;7.93367;-2.3580933;-0.31414795;-;-;-;-;-;-;-;-;-;-;-;-;-;-;-
1514180757850;-;-;6.0697937;-4.4961243;-5.800461;-;-;-;-;-;-;-;-;-;-;-;-;-;-;-
1514180757871;-;-;6.1033173;-6.4785156;-10.842651;-;-;-;-;-;-;-;-;-;-;-;-;-;-;-
1514180757891;-;-;7.67749;-5.6034393;-8.432892;-;-;-;-;-;-;-;-;-;-;-;-;-;-;-
1514180757912;-;-;8.894943;-3.5121002;-6.3487396;-;-;-;-;-;-;-;-;-;-;-;-;-;-;-
1514180757931;-;-;9.035004;-1.2866974;-4.8822937;-;-;-;-;-;-;-;-;-;-;-;-;-;-;-
1514180757952;-;-;8.32753;2.4530487;-3.057907;-;-;-;-;-;-;-;-;-;-;-;-;-;-;-
1514180757972;-;-;7.9707794;4.0009003;-3.0938263;-;-;-;-;-;-;-;-;-;-;-;-;-;-;-
1514180757992;-;-;5.6651764;2.8169708;-5.6412506;-;-;-;-;-;-;-;-;-;-;-;-;-;-;-
1514180758011;-;-;4.1400604;0.18214417;-4.475281;-;-;-;-;-;-;-;-;-;-;-;-;-;-;-
1514180758032;-;-;3.3691254;-0.9874115;-3.4302063;-;-;-;-;-;-;-;-;-;-;-;-;-;-;-
1514180758052;-;-;4.7170715;-0.62350464;-3.950943;-;-;-;-;-;-;-;-;-;-;-;-;-;-;-
1514180758072;-;-;6.29126;0.14503479;-4.2334595;-;-;-;-;-;-;-;-;-;-;-;-;-;-;-
1514180758093;-;-;6.999939;0.38087463;-4.314865;-;-;-;-;-;-;-;-;-;-;-;-;-;-;-
1514180758113;-;-;6.9424744;-0.37091064;-3.630127;-;-;-;-;-;-;-;-;-;-;-;-;-;-;-
1514180758134;-;-;7.0059204;-0.6546173;-2.8340454;-;-;-;-;-;-;-;-;-;-;-;-;-;-;-
1514180758154;-;-;6.6527863;0.13426208;-2.2055817;-;-;-;-;-;-;-;-;-;-;-;-;-;-;-
1514180758175;-;-;5.926132;1.1398315;-1.2071991;-;-;-;-;-;-;-;-;-;-;-;-;-;-;-
1514180758195;-;-;6.3738556;0.69810486;-0.54878235;-;-;-;-;-;-;-;-;-;-;-;-;-;-;-
1514180758216;-;-;7.078949;-0.8748932;-0.8396759;-;-;-;-;-;-;-;-;-;-;-;-;-;-;-
1514180758236;-;-;8.240128;-2.1402283;-1.0539703;-;-;-;-;-;-;-;-;-;-;-;-;-;-;-
1514180758255;-;-;10.203384;-1.4770355;-1.064743;-;-;-;-;-;-;-;-;-;-;-;-;-;-;-
1514180758275;-;-;11.132324;0.5676117;-1.4118958;-;-;-;-;-;-;-;-;-;-;-;-;-;-;-
1514180758296;-;-;10.435623;2.196869;-1.8045502;-;-;-;-;-;-;-;-;-;-;-;-;-;-;-
1514180758316;-;-;8.7812195;2.8756256;-1.5651245;-;-;-;-;-;-;-;-;-;-;-;-;-;-;-
1514180758337;-;-;8.4843445;3.2898254;-1.6632843;-;-;-;-;-;-;-;-;-;-;-;-;-;-;-
1514180758357;-;-;9.444412;3.8201447;-8.44606;-;-;-;-;-;-;-;-;-;-;-;-;-;-;-
1514180758378;-;-;8.678268;4.138565;-12.402481;-;-;-;-;-;-;-;-;-;-;-;-;-;-;-
1514180758397;-;-;11.110779;2.560791;-4.665619;-;-;-;-;-;-;-;-;-;-;-;-;-;-;-
1514180758417;-;-;11.122757;-0.05847168;-5.555069;-;-;-;-;-;-;-;-;-;-;-;-;-;-;-
1514180758437;-;-;7.5434265;-3.2750702;-7.3375397;-;-;-;-;-;-;-;-;-;-;-;-;-;-;-
1514180758458;-;-;6.407379;-5.4023285;-9.160736;-;-;-;-;-;-;-;-;-;-;-;-;-;-;-
1514180758478;-;-;7.7732697;-3.4187317;-5.7118835;-;-;-;-;-;-;-;-;-;-;-;-;-;-;-
1514180758499;-;-;9.227737;2.347702;-4.0706635;-;-;-;-;-;-;-;-;-;-;-;-;-;-;-
1514180758519;-;-;10.907272;2.9067535;-5.6999054;-;-;-;-;-;-;-;-;-;-;-;-;-;-;-
1514180758539;-;-;10.517014;1.8868256;-6.4361267;-;-;-;-;-;-;-;-;-;-;-;-;-;-;-
1514180758560;-;-;7.8127747;-0.07043457;-5.9836273;-;-;-;-;-;-;-;-;-;-;-;-;-;-;-
1514180758580;-;-;5.0606384;-2.1845245;-5.140869;-;-;-;-;-;-;-;-;-;-;-;-;-;-;-
1514180758601;-;-;3.818039;-4.59787;-3.6325226;-;-;-;-;-;-;-;-;-;-;-;-;-;-;-
1514180758621;-;-;3.9018402;-5.791382;-3.0399475;-;-;-;-;-;-;-;-;-;-;-;-;-;-;-
1514180758642;-;-;4.724243;-4.9330597;-4.120941;-;-;-;-;-;-;-;-;-;-;-;-;-;-;-
1514180758661;-;-;7.9228973;-2.6789246;-3.3092957;-;-;-;-;-;-;-;-;-;-;-;-;-;-;-
1514180758681;-;-;8.355057;-2.2635193;-2.3767548;-;-;-;-;-;-;-;-;-;-;-;-;-;-;-
1514180758702;-;-;8.210205;-2.7196198;-2.2462769;-;-;-;-;-;-;-;-;-;-;-;-;-;-;-
1514180758722;-;-;8.10965;-2.5376587;-2.3432465;-;-;-;-;-;-;-;-;-;-;-;-;-;-;-
1514180758742;-;-;8.8051605;-2.1976929;-2.3324738;-;-;-;-;-;-;-;-;-;-;-;-;-;-;-
1514180758763;-;-;9.706589;-2.6789246;-3.7210999;-;-;-;-;-;-;-;-;-;-;-;-;-;-;-
1514180758784;-;-;11.060501;-2.795044;-4.322052;-;-;-;-;-;-;-;-;-;-;-;-;-;-;-
1514180758805;-;-;11.249649;-1.3980255;-4.2921143;-;-;-;-;-;-;-;-;-;-;-;-;-;-;-
1514180758825;-;-;9.41449;-1.5584412;-5.096573;-;-;-;-;-;-;-;-;-;-;-;-;-;-;-
1514180758845;-;-;7.9181213;0.13186646;-11.789566;-;-;-;-;-;-;-;-;-;-;-;-;-;-;-
1514180758866;-;-;6.948456;3.5783234;-12.609573;-;-;-;-;-;-;-;-;-;-;-;-;-;-;-
1514180758887;-;-;10.240494;3.4909363;-6.112915;-;-;-;-;-;-;-;-;-;-;-;-;-;-;-
1514180758907;-;-;11.416046;-0.4547119;-6.8467407;-;-;-;-;-;-;-;-;-;-;-;-;-;-;-
1514180758927;-;-;11.0186;-3.8125763;-7.14122;-;-;-;-;-;-;-;-;-;-;-;-;-;-;-
1514180758948;-;-;11.435196;-5.6429443;-3.2925415;-;-;-;-;-;-;-;-;-;-;-;-;-;-;-
1514180758968;-;-;10.812698;-2.3317566;-3.661255;-;-;-;-;-;-;-;-;-;-;-;-;-;-;-
1514180758988;-;-;11.067688;0.78907776;-3.2051544;-;-;-;-;-;-;-;-;-;-;-;-;-;-;-
1514180759009;-;-;8.144363;2.481781;-3.504425;-;-;-;-;-;-;-;-;-;-;-;-;-;-;-
1514180759030;-;-;3.1333008;2.9941406;-1.9290466;-;-;-;-;-;-;-;-;-;-;-;-;-;-;-
1514180759050;-;-;0.36799622;2.1992645;-0.9797363;-;-;-;-;-;-;-;-;-;-;-;-;-;-;-
1514180759069;-;-;1.3603973;0.65141296;-0.47816467;-;-;-;-;-;-;-;-;-;-;-;-;-;-;-
1514180759090;-;-;4.88945;-0.5600586;-0.66729736;-;-;-;-;-;-;-;-;-;-;-;-;-;-;-
1514180759110;-;-;10.113602;-1.4351349;-0.7175751;-;-;-;-;-;-;-;-;-;-;-;-;-;-;-
1514180759130;-;-;13.210495;-0.94073486;-1.4178772;-;-;-;-;-;-;-;-;-;-;-;-;-;-;-
1514180759151;-;-;15.058823;1.5600128;-1.729126;-;-;-;-;-;-;-;-;-;-;-;-;-;-;-
1514180759171;-;-;13.199722;5.091461;-3.191986;-;-;-;-;-;-;-;-;-;-;-;-;-;-;-
1514180759191;-;-;11.863754;6.1640625;-2.7873688;-;-;-;-;-;-;-;-;-;-;-;-;-;-;-
1514180759212;-;-;11.78595;4.1792755;0.26524353;-;-;-;-;-;-;-;-;-;-;-;-;-;-;-
1514180759233;-;-;7.827133;1.279892;-4.457321;-;-;-;-;-;-;-;-;-;-;-;-;-;-;-
1514180759253;-;-;7.3303375;2.7319794;-11.046158;-;-;-;-;-;-;-;-;-;-;-;-;-;-;-
1514180759273;-;-;7.8331146;5.6493073;-7.4512634;-;-;-;-;-;-;-;-;-;-;-;-;-;-;-
1514180759293;-;-;8.769257;4.734726;-9.105667;-;-;-;-;-;-;-;-;-;-;-;-;-;-;-
1514180759314;-;-;9.360626;1.1793365;-10.189041;-;-;-;-;-;-;-;-;-;-;-;-;-;-;-
1514180759335;-;-;5.8567047;-0.17098999;-10.335083;-;-;-;-;-;-;-;-;-;-;-;-;-;-;-
1514180759355;-;-;7.295624;-1.2076874;-8.796814;-;-;-;-;-;-;-;-;-;-;-;-;-;-;-
1514180759375;-;-;8.010284;-1.9654541;-4.6608276;-;-;-;-;-;-;-;-;-;-;-;-;-;-;-
1514180759396;-;-;8.550186;-1.7810974;-2.8544006;-;-;-;-;-;-;-;-;-;-;-;-;-;-;-
1514180759415;-;-;7.8726196;0.016952515;-3.1668396;-;-;-;-;-;-;-;-;-;-;-;-;-;-;-
1514180759436;-;-;6.196686;1.1601868;-3.7127228;-;-;-;-;-;-;-;-;-;-;-;-;-;-;-
1514180759456;-;-;5.5981293;0.3964386;-3.183609;-;-;-;-;-;-;-;-;-;-;-;-;-;-;-
1514180759476;-;-;5.233017;-1.6577911;-2.4701385;-;-;-;-;-;-;-;-;-;-;-;-;-;-;-
1514180759497;-;-;5.2150574;-3.6330109;-2.484497;-;-;-;-;-;-;-;-;-;-;-;-;-;-;-
1514180759518;-;-;6.640808;-4.5655518;-2.7406769;-;-;-;-;-;-;-;-;-;-;-;-;-;-;-
1514180759538;-;-;8.469971;-3.5599823;-3.3883057;-;-;-;-;-;-;-;-;-;-;-;-;-;-;-
1514180759558;-;-;10.471527;-1.2819061;-4.11615;-;-;-;-;-;-;-;-;-;-;-;-;-;-;-
1514180759578;-;-;10.0298;-0.7779236;-5.2689514;-;-;-;-;-;-;-;-;-;-;-;-;-;-;-
1514180759599;-;-;7.8127747;-1.2998657;-4.654846;-;-;-;-;-;-;-;-;-;-;-;-;-;-;-
1514180759620;-;-;8.055786;-2.2132416;-3.5547028;-;-;-;-;-;-;-;-;-;-;-;-;-;-;-
1514180759640;-;-;9.251678;-2.2647247;-4.1855774;-;-;-;-;-;-;-;-;-;-;-;-;-;-;-
1514180759661;-;-;10.436813;-1.7954559;-5.9836273;-;-;-;-;-;-;-;-;-;-;-;-;-;-;-
1514180759681;-;-;12.271973;-0.43554688;-5.1229095;-;-;-;-;-;-;-;-;-;-;-;-;-;-;-
1514180759701;-;-;11.66983;-0.028533936;-6.662384;-;-;-;-;-;-;-;-;-;-;-;-;-;-;-
1514180759722;-;-;8.507095;-1.8182068;-11.876953;-;-;-;-;-;-;-;-;-;-;-;-;-;-;-
1514180759741;-;-;8.130005;-4.281845;-13.028564;-;-;-;-;-;-;-;-;-;-;-;-;-;-;-
1514180759761;-;-;9.234924;-4.10466;-2.3600006;-;-;-;-;-;-;-;-;-;-;-;-;-;-;-
1514180759782;-;-;7.0142975;-1.3836517;-2.7981415;-;-;-;-;-;-;-;-;-;-;-;-;-;-;-
1514180759803;-;-;6.229004;-1.9510803;-7.87265;-;-;-;-;-;-;-;-;-;-;-;-;-;-;-
1514180759824;-;-;5.8076324;-1.8301697;-5.971649;-;-;-;-;-;-;-;-;-;-;-;-;-;-;-
1514180759844;-;-;5.04747;-1.4051971;-3.080658;-;-;-;-;-;-;-;-;-;-;-;-;-;-;-
1514180759864;-;-;4.3735046;-1.5392761;-1.9529877;-;-;-;-;-;-;-;-;-;-;-;-;-;-;-
1514180759885;-;-;4.075424;-1.028122;-3.041153;-;-;-;-;-;-;-;-;-;-;-;-;-;-;-
1514180759906;-;-;5.4401093;-0.5337219;-3.3069;-;-;-;-;-;-;-;-;-;-;-;-;-;-;-
1514180759926;-;-;7.3339233;-0.18057251;-4.5339355;-;-;-;-;-;-;-;-;-;-;-;-;-;-;-
1514180759946;-;-;7.2190094;0.09236145;-5.3000793;-;-;-;-;-;-;-;-;-;-;-;-;-;-;-
1514180759966;-;-;6.3774414;1.9921722;-4.824829;-;-;-;-;-;-;-;-;-;-;-;-;-;-;-
1514180759987;-;-;6.229004;3.2167969;-4.053894;-;-;-;-;-;-;-;-;-;-;-;-;-;-;-
1514180760008;-;-;7.145981;2.9103394;-4.5303497;-;-;-;-;-;-;-;-;-;-;-;-;-;-;-
1514180760029;-;-;8.582504;1.3936157;-5.623291;-;-;-;-;-;-;-;-;-;-;-;-;-;-;-
1514180760049;-;-;9.216965;0.8800659;-4.978058;-;-;-;-;-;-;-;-;-;-;-;-;-;-;-
1514180760069;-;-;10.315903;1.3026428;-3.630127;-;-;-;-;-;-;-;-;-;-;-;-;-;-;-
1514180760089;-;-;9.711365;3.0970917;-2.9262238;-;-;-;-;-;-;-;-;-;-;-;-;-;-;-
1514180760110;-;-;10.370972;3.5675507;-2.6927948;-;-;-;-;-;-;-;-;-;-;-;-;-;-;-
1514180760129;-;-;11.0772705;2.749939;-2.7670135;-;-;-;-;-;-;-;-;-;-;-;-;-;-;-
1514180760149;-;-;8.599258;0.85372925;-2.9010925;-;-;-;-;-;-;-;-;-;-;-;-;-;-;-
1514180760170;-;-;6.4768066;0.3282013;-11.941589;-;-;-;-;-;-;-;-;-;-;-;-;-;-;-
1514180760190;-;-;6.4396973;1.0871582;-9.076935;-;-;-;-;-;-;-;-;-;-;-;-;-;-;-
1514180760211;-;-;10.06691;1.4869843;-7.3004303;-;-;-;-;-;-;-;-;-;-;-;-;-;-;-
1514180760231;-;-;10.829468;0.03251648;-7.007141;-;-;-;-;-;-;-;-;-;-;-;-;-;-;-
1514180760251;-;-;6.60849;-0.16381836;-7.069397;-;-;-;-;-;-;-;-;-;-;-;-;-;-;-
1514180760272;-;-;4.676361;-0.3972473;-7.1663666;-;-;-;-;-;-;-;-;-;-;-;-;-;-;-
1514180760291;-;-;3.8036804;-0.9359436;-4.994812;-;-;-;-;-;-;-;-;-;-;-;-;-;-;-
1514180760312;-;-;5.3455505;-1.7954559;-2.5120392;-;-;-;-;-;-;-;-;-;-;-;-;-;-;-
1514180760332;-;-;6.905365;-1.1298676;-2.9094696;-;-;-;-;-;-;-;-;-;-;-;-;-;-;-
1514180760353;-;-;6.8407288;-1.5416718;-3.361969;-;-;-;-;-;-;-;-;-;-;-;-;-;-;-
1514180760373;-;-;7.509903;-2.1809235;-2.5874481;-;-;-;-;-;-;-;-;-;-;-;-;-;-;-
1514180760393;-;-;6.1607666;-3.2152252;-3.1309357;-;-;-;-;-;-;-;-;-;-;-;-;-;-;-
1514180760414;-;-;5.185135;-3.9801636;-3.4948578;-;-;-;-;-;-;-;-;-;-;-;-;-;-;-
1514180760434;-;-;6.099716;-2.9518585;-3.6217499;-;-;-;-;-;-;-;-;-;-;-;-;-;-;-
1514180760455;-;-;8.036621;-0.98501587;-3.4266205;-;-;-;-;-;-;-;-;-;-;-;-;-;-;-
1514180760475;-;-;10.36618;0.46228027;-3.6804047;-;-;-;-;-;-;-;-;-;-;-;-;-;-;-
1514180760496;-;-;9.4096985;-1.6937103;-4.9553223;-;-;-;-;-;-;-;-;-;-;-;-;-;-;-
1514180760516;-;-;8.945221;-4.5356293;-5.148041;-;-;-;-;-;-;-;-;-;-;-;-;-;-;-
1514180760537;-;-;10.2512665;-4.168106;-3.2494507;-;-;-;-;-;-;-;-;-;-;-;-;-;-;-
1514180760557;-;-;12.955521;-3.0272827;-2.6999817;-;-;-;-;-;-;-;-;-;-;-;-;-;-;-
1514180760578;-;-;13.876083;-2.9087677;-5.3611298;-;-;-;-;-;-;-;-;-;-;-;-;-;-;-
1514180760597;-;-;12.396469;-2.803421;-10.641541;-;-;-;-;-;-;-;-;-;-;-;-;-;-;-
1514180760618;-;-;10.446396;-3.416336;-15.291077;-;-;-;-;-;-;-;-;-;-;-;-;-;-;-
1514180760638;-;-;10.87854;-3.9155273;-5.6651917;-;-;-;-;-;-;-;-;-;-;-;-;-;-;-
1514180760659;-;-;8.394562;-1.0736084;-4.081436;-;-;-;-;-;-;-;-;-;-;-;-;-;-;-
1514180760680;-;-;6.123657;0.100753784;-9.510284;-;-;-;-;-;-;-;-;-;-;-;-;-;-;-
1514180760700;-;-;5.916565;0.41558838;-6.9532776;-;-;-;-;-;-;-;-;-;-;-;-;-;-;-
1514180760720;-;-;5.152817;0.58917236;-4.4309845;-;-;-;-;-;-;-;-;-;-;-;-;-;-;-
1514180760741;-;-;3.8778992;-0.80784607;-2.1588898;-;-;-;-;-;-;-;-;-;-;-;-;-;-;-
1514180760761;-;-;1.7398834;-2.1916962;-1.3723907;-;-;-;-;-;-;-;-;-;-;-;-;-;-;-
1514180760782;-;-;2.727478;-2.5460358;-1.0084686;-;-;-;-;-;-;-;-;-;-;-;-;-;-;-
1514180760802;-;-;5.7381897;-2.0360718;-2.2223358;-;-;-;-;-;-;-;-;-;-;-;-;-;-;-
1514180760822;-;-;7.3770294;-0.3074646;-4.246628;-;-;-;-;-;-;-;-;-;-;-;-;-;-;-
1514180760843;-;-;5.7010803;1.406784;-4.895462;-;-;-;-;-;-;-;-;-;-;-;-;-;-;-
1514180760862;-;-;4.2501984;3.3424988;-4.19635;-;-;-;-;-;-;-;-;-;-;-;-;-;-;-
1514180760882;-;-;6.1847076;3.8991547;-3.341629;-;-;-;-;-;-;-;-;-;-;-;-;-;-;-
1514180760903;-;-;8.796783;2.6565552;-5.429367;-;-;-;-;-;-;-;-;-;-;-;-;-;-;-
1514180760923;-;-;9.914871;1.0201263;-7.105301;-;-;-;-;-;-;-;-;-;-;-;-;-;-;-
1514180760944;-;-;11.68898;0.7040863;-6.765335;-;-;-;-;-;-;-;-;-;-;-;-;-;-;-
1514180760964;-;-;13.046494;4.0655518;-5.349167;-;-;-;-;-;-;-;-;-;-;-;-;-;-;-
1514180760985;-;-;13.667786;4.904709;-2.855606;-;-;-;-;-;-;-;-;-;-;-;-;-;-;-
1514180761005;-;-;10.619965;3.1114502;-2.3767548;-;-;-;-;-;-;-;-;-;-;-;-;-;-;-
1514180761025;-;-;7.088516;0.5053711;-8.520279;-;-;-;-;-;-;-;-;-;-;-;-;-;-;-
1514180761046;-;-;4.043106;-0.6582184;-10.4392395;-;-;-;-;-;-;-;-;-;-;-;-;-;-;-
1514180761066;-;-;3.9664917;-2.3365479;-2.9142609;-;-;-;-;-;-;-;-;-;-;-;-;-;-;-
1514180761086;-;-;12.406052;-2.6801147;-5.874695;-;-;-;-;-;-;-;-;-;-;-;-;-;-;-
1514180761107;-;-;8.253296;-1.8110199;-6.290085;-;-;-;-;-;-;-;-;-;-;-;-;-;-;-
1514180761127;-;-;5.589752;-0.39964294;-5.8411713;-;-;-;-;-;-;-;-;-;-;-;-;-;-;-
1514180761147;-;-;4.0526733;0.299469;-4.8152466;-;-;-;-;-;-;-;-;-;-;-;-;-;-;-
1514180761168;-;-;4.4453278;-1.4315338;-1.7746124;-;-;-;-;-;-;-;-;-;-;-;-;-;-;-
1514180761188;-;-;6.675522;-1.570404;-2.9298248;-;-;-;-;-;-;-;-;-;-;-;-;-;-;-
1514180761209;-;-;6.8682556;-0.48104858;-2.8220825;-;-;-;-;-;-;-;-;-;-;-;-;-;-;-
1514180761229;-;-;6.886215;-0.71687317;-2.4019012;-;-;-;-;-;-;-;-;-;-;-;-;-;-;-
1514180761250;-;-;6.7186127;-1.4985809;-3.1620636;-;-;-;-;-;-;-;-;-;-;-;-;-;-;-
1514180761269;-;-;5.4006042;-2.4945679;-4.6692047;-;-;-;-;-;-;-;-;-;-;-;-;-;-;-
1514180761290;-;-;5.256958;-3.4725952;-4.1460724;-;-;-;-;-;-;-;-;-;-;-;-;-;-;-
1514180761310;-;-;5.823181;-2.866867;-3.1452942;-;-;-;-;-;-;-;-;-;-;-;-;-;-;-
1514180761330;-;-;7.487152;-1.8361664;-3.1309357;-;-;-;-;-;-;-;-;-;-;-;-;-;-;-
1514180761351;-;-;10.100433;-1.4650574;-4.2131195;-;-;-;-;-;-;-;-;-;-;-;-;-;-;-
1514180761371;-;-;10.471527;-3.2631073;-6.1500244;-;-;-;-;-;-;-;-;-;-;-;-;-;-;-
1514180761393;-;-;11.709335;-4.8648224;-6.325989;-;-;-;-;-;-;-;-;-;-;-;-;-;-;-
1514180761412;-;-;14.153809;-2.6549835;-2.883133;-;-;-;-;-;-;-;-;-;-;-;-;-;-;-
1514180761435;-;-;14.925949;-1.7846832;-2.1660767;-;-;-;-;-;-;-;-;-;-;-;-;-;-;-
1514180761456;-;-;14.091568;-0.878479;-4.033554;-;-;-;-;-;-;-;-;-;-;-;-;-;-;-
1514180761476;-;-;10.10881;-1.2064819;-9.073349;-;-;-;-;-;-;-;-;-;-;-;-;-;-;-
1514180761496;-;-;5.9033966;-4.633789;-14.243622;-;-;-;-;-;-;-;-;-;-;-;-;-;-;-
1514180761516;-;-;6.3068237;-6.2678223;-2.029602;-;-;-;-;-;-;-;-;-;-;-;-;-;-;-
1514180761537;-;-;8.850662;-1.9762268;-1.2814178;-;-;-;-;-;-;-;-;-;-;-;-;-;-;-
1514180761558;-;-;7.968399;-0.16021729;-9.460007;-;-;-;-;-;-;-;-;-;-;-;-;-;-;-
1514180761578;-;-;6.299637;1.5193176;-7.8666687;-;-;-;-;-;-;-;-;-;-;-;-;-;-;-
1514180761599;-;-;6.604889;1.9251251;-4.4633026;-;-;-;-;-;-;-;-;-;-;-;-;-;-;-
1514180761619;-;-;4.9193726;0.22045898;-1.0503693;-;-;-;-;-;-;-;-;-;-;-;-;-;-;-
1514180761640;-;-;2.5742493;-2.0827637;-1.6716614;-;-;-;-;-;-;-;-;-;-;-;-;-;-;-
1514180761660;-;-;4.1005554;-2.3988037;-2.1983948;-;-;-;-;-;-;-;-;-;-;-;-;-;-;-
1514180761680;-;-;5.537079;-1.6039276;-3.54393;-;-;-;-;-;-;-;-;-;-;-;-;-;-;-
1514180761700;-;-;6.454056;-0.069244385;-3.8815155;-;-;-;-;-;-;-;-;-;-;-;-;-;-;-
1514180761721;-;-;5.672348;2.04245;-3.8827057;-;-;-;-;-;-;-;-;-;-;-;-;-;-;-
1514180761741;-;-;4.9253693;3.5112915;-3.9617157;-;-;-;-;-;-;-;-;-;-;-;-;-;-;-
1514180761762;-;-;7.0526123;2.61586;-4.717087;-;-;-;-;-;-;-;-;-;-;-;-;-;-;-
1514180761782;-;-;9.13916;1.2978516;-5.725052;-;-;-;-;-;-;-;-;-;-;-;-;-;-;-
1514180761802;-;-;11.630325;0.6442261;-6.7066803;-;-;-;-;-;-;-;-;-;-;-;-;-;-;-
1514180761823;-;-;12.863342;1.7635193;-5.654419;-;-;-;-;-;-;-;-;-;-;-;-;-;-;-
1514180761843;-;-;13.260773;2.6278229;-4.2023315;-;-;-;-;-;-;-;-;-;-;-;-;-;-;-
1514180761864;-;-;12.328232;1.7731018;-2.8963013;-;-;-;-;-;-;-;-;-;-;-;-;-;-;-
1514180761885;-;-;10.053741;2.395584;-0.9115143;-;-;-;-;-;-;-;-;-;-;-;-;-;-;-
1514180761906;-;-;7.846283;1.8054199;-4.1748047;-;-;-;-;-;-;-;-;-;-;-;-;-;-;-
1514180761925;-;-;3.7833252;1.703659;-11.298752;-;-;-;-;-;-;-;-;-;-;-;-;-;-;-
1514180761946;-;-;3.5522919;1.4199524;-7.8930054;-;-;-;-;-;-;-;-;-;-;-;-;-;-;-
1514180761966;-;-;11.169434;1.714447;-7.4859924;-;-;-;-;-;-;-;-;-;-;-;-;-;-;-
1514180761987;-;-;14.329788;0.3461609;-6.96286;-;-;-;-;-;-;-;-;-;-;-;-;-;-;-
1514180762007;-;-;6.616867;-1.6494141;-8.871033;-;-;-;-;-;-;-;-;-;-;-;-;-;-;-
1514180762028;-;-;5.660385;-0.98861694;-6.521118;-;-;-;-;-;-;-;-;-;-;-;-;-;-;-
1514180762048;-;-;3.806076;-1.3441467;-1.1054382;-;-;-;-;-;-;-;-;-;-;-;-;-;-;-
1514180762069;-;-;4.9493103;-2.9375;-0.63616943;-;-;-;-;-;-;-;-;-;-;-;-;-;-;-
1514180762088;-;-;4.985214;-2.1294556;-3.6528625;-;-;-;-;-;-;-;-;-;-;-;-;-;-;-
1514180762108;-;-;4.679962;-1.3118286;-3.1476898;-;-;-;-;-;-;-;-;-;-;-;-;-;-;-
1514180762129;-;-;5.912964;-0.8485565;-2.0978394;-;-;-;-;-;-;-;-;-;-;-;-;-;-;-
1514180762150;-;-;6.1691437;-1.3549194;-2.271408;-;-;-;-;-;-;-;-;-;-;-;-;-;-;-
1514180762170;-;-;4.9086;-3.0536194;-3.5762482;-;-;-;-;-;-;-;-;-;-;-;-;-;-;-
1514180762191;-;-;4.5746155;-4.75708;-3.9018707;-;-;-;-;-;-;-;-;-;-;-;-;-;-;-
1514180762211;-;-;6.5127106;-3.5875244;-2.5359802;-;-;-;-;-;-;-;-;-;-;-;-;-;-;-
