TimeStamp[ms];Prox[Cm];Lux[lux];AccX[m/s^2];AccY[m/s^2];AccZ[m/s^2];GyroX[rad/s];GyroY[rad/s];GyroZ[rad/s];MagnX[uT];MagnY[uT];MagnZ[uT];OrienYaw[degrees];OrienPitch[degrees];OrienRoll[degrees];Press[Pa];Temp[C°];Batt[%];Lat;Lng;Speed[m/s]
1514180786759;-;-;8.777634;-1.0233307;2.934784;-;-;-;-;-;-;-;-;-;-;-;-;-;-;-
1514180786787;-;-;8.292801;-0.9766388;2.879715;-;-;-;-;-;-;-;-;-;-;-;-;-;-;-
1514180786801;-;-;8.285629;-0.94192505;2.9682922;-;-;-;-;-;-;-;-;-;-;-;-;-;-;-
1514180786820;-;-;8.637573;-0.8485565;3.1083527;-;-;-;-;-;-;-;-;-;-;-;-;-;-;-
1514180786840;-;-;8.791992;-1.0005798;2.994629;-;-;-;-;-;-;-;-;-;-;-;-;-;-;-
1514180786861;-;-;9.067337;-0.70729065;3.0915985;-;-;-;-;-;-;-;-;-;-;-;-;-;-;-
1514180786881;-;-;9.188232;-0.704895;3.2268677;-;-;-;-;-;-;-;-;-;-;-;-;-;-;-
1514180786902;-;-;8.96199;-0.68814087;2.3039093;-;-;-;-;-;-;-;-;-;-;-;-;-;-;-
1514180786923;-;-;8.83989;-0.6115265;2.2416534;-;-;-;-;-;-;-;-;-;-;-;-;-;-;-
1514180786943;-;-;8.884171;-0.73483276;2.2225037;-;-;-;-;-;-;-;-;-;-;-;-;-;-;-
1514180786964;-;-;8.789597;-0.58639526;1.4719238;-;-;-;-;-;-;-;-;-;-;-;-;-;-;-
1514180786985;-;-;8.52504;-0.79348755;1.7436676;-;-;-;-;-;-;-;-;-;-;-;-;-;-;-
1514180787004;-;-;8.495117;-0.8018646;1.4814911;-;-;-;-;-;-;-;-;-;-;-;-;-;-;-
1514180787035;-;-;8.750107;-1.3980255;1.1977844;-;-;-;-;-;-;-;-;-;-;-;-;-;-;-
1514180787045;-;-;9.133179;-1.2639465;0.27841187;-;-;-;-;-;-;-;-;-;-;-;-;-;-;-
1514180787067;-;-;8.9787445;-0.69651794;-0.551178;-;-;-;-;-;-;-;-;-;-;-;-;-;-;-
1514180787086;-;-;10.095642;-0.20809937;1.1223602;-;-;-;-;-;-;-;-;-;-;-;-;-;-;-
1514180787106;-;-;9.008667;0.3509369;-0.10346985;-;-;-;-;-;-;-;-;-;-;-;-;-;-;-
1514180787126;-;-;7.700241;2.8959808;-1.234726;-;-;-;-;-;-;-;-;-;-;-;-;-;-;-
1514180787147;-;-;12.251617;-0.61990356;-1.516037;-;-;-;-;-;-;-;-;-;-;-;-;-;-;-
1514180787167;-;-;8.569336;-0.7587738;-0.4230957;-;-;-;-;-;-;-;-;-;-;-;-;-;-;-
1514180787187;-;-;8.588486;-0.6833496;-1.7327118;-;-;-;-;-;-;-;-;-;-;-;-;-;-;-
1514180787208;-;-;9.319916;-0.56243896;-1.0838928;-;-;-;-;-;-;-;-;-;-;-;-;-;-;-
1514180787228;-;-;8.936844;0.25517273;-2.1421204;-;-;-;-;-;-;-;-;-;-;-;-;-;-;-
1514180787249;-;-;8.90094;0.7136688;-1.6848297;-;-;-;-;-;-;-;-;-;-;-;-;-;-;-
1514180787269;-;-;8.856644;0.9937897;-1.3280945;-;-;-;-;-;-;-;-;-;-;-;-;-;-;-
1514180787290;-;-;9.322311;0.66578674;-1.9362335;-;-;-;-;-;-;-;-;-;-;-;-;-;-;-
1514180787311;-;-;8.443649;0.33776855;-1.9709473;-;-;-;-;-;-;-;-;-;-;-;-;-;-;-
1514180787331;-;-;9.313934;0.086380005;-1.8488312;-;-;-;-;-;-;-;-;-;-;-;-;-;-;-
1514180787351;-;-;9.923264;0.54367065;-0.8791809;-;-;-;-;-;-;-;-;-;-;-;-;-;-;-
1514180787371;-;-;10.071701;0.72683716;-1.0826874;-;-;-;-;-;-;-;-;-;-;-;-;-;-;-
1514180787391;-;-;9.193024;-0.059661865;-1.1856384;-;-;-;-;-;-;-;-;-;-;-;-;-;-;-
1514180787411;-;-;8.632782;0.33537292;-1.2203674;-;-;-;-;-;-;-;-;-;-;-;-;-;-;-
1514180787432;-;-;9.681442;0.6238861;-1.3963318;-;-;-;-;-;-;-;-;-;-;-;-;-;-;-
1514180787452;-;-;9.294785;0.3461609;-1.2790222;-;-;-;-;-;-;-;-;-;-;-;-;-;-;-
1514180787473;-;-;8.813553;0.48382568;-1.100647;-;-;-;-;-;-;-;-;-;-;-;-;-;-;-
1514180787493;-;-;8.60405;0.7878876;-1.1138153;-;-;-;-;-;-;-;-;-;-;-;-;-;-;-
1514180787514;-;-;7.802002;0.45388794;-0.53082275;-;-;-;-;-;-;-;-;-;-;-;-;-;-;-
1514180787535;-;-;9.183456;-0.4846344;-1.2287445;-;-;-;-;-;-;-;-;-;-;-;-;-;-;-
1514180787555;-;-;8.819534;0.13426208;-1.8033447;-;-;-;-;-;-;-;-;-;-;-;-;-;-;-
1514180787576;-;-;9.195419;-0.37928772;-2.9058838;-;-;-;-;-;-;-;-;-;-;-;-;-;-;-
1514180787595;-;-;9.082901;-0.8138428;-3.0483398;-;-;-;-;-;-;-;-;-;-;-;-;-;-;-
1514180787616;-;-;9.427658;-0.73483276;-4.184387;-;-;-;-;-;-;-;-;-;-;-;-;-;-;-
1514180787637;-;-;9.953186;-0.40203857;-3.7833557;-;-;-;-;-;-;-;-;-;-;-;-;-;-;-
1514180787657;-;-;10.104019;0.14743042;-2.9633331;-;-;-;-;-;-;-;-;-;-;-;-;-;-;-
1514180787677;-;-;9.612015;-0.7300415;-1.337677;-;-;-;-;-;-;-;-;-;-;-;-;-;-;-
1514180787698;-;-;8.954803;-1.8960114;-1.1976166;-;-;-;-;-;-;-;-;-;-;-;-;-;-;-
1514180787718;-;-;8.24971;-2.5400543;-1.5842743;-;-;-;-;-;-;-;-;-;-;-;-;-;-;-
1514180787739;-;-;8.128799;-2.6908875;-1.0264282;-;-;-;-;-;-;-;-;-;-;-;-;-;-;-
1514180787759;-;-;9.00029;-3.249939;-1.4837189;-;-;-;-;-;-;-;-;-;-;-;-;-;-;-
1514180787780;-;-;9.324707;-3.455841;-0.8935547;-;-;-;-;-;-;-;-;-;-;-;-;-;-;-
1514180787799;-;-;9.134369;-3.1625519;-0.30337524;-;-;-;-;-;-;-;-;-;-;-;-;-;-;-
1514180787820;-;-;8.6651;-3.1745148;-0.33929443;-;-;-;-;-;-;-;-;-;-;-;-;-;-;-
1514180787841;-;-;8.254501;-2.7507477;-0.67807007;-;-;-;-;-;-;-;-;-;-;-;-;-;-;-
1514180787861;-;-;8.399353;-2.2826843;-1.8907318;-;-;-;-;-;-;-;-;-;-;-;-;-;-;-
1514180787882;-;-;8.861435;-2.1629639;-1.7267303;-;-;-;-;-;-;-;-;-;-;-;-;-;-;-
1514180787902;-;-;8.547791;-0.95150757;-1.966156;-;-;-;-;-;-;-;-;-;-;-;-;-;-;-
1514180787923;-;-;11.752426;-2.269516;-3.44458;-;-;-;-;-;-;-;-;-;-;-;-;-;-;-
1514180787943;-;-;8.68306;-2.7208252;-2.6796265;-;-;-;-;-;-;-;-;-;-;-;-;-;-;-
1514180787963;-;-;8.6423645;-0.7024994;-2.860382;-;-;-;-;-;-;-;-;-;-;-;-;-;-;-
1514180787984;-;-;8.680664;-1.111908;-2.5778656;-;-;-;-;-;-;-;-;-;-;-;-;-;-;-
1514180788004;-;-;9.14035;-1.4662628;-0.7786255;-;-;-;-;-;-;-;-;-;-;-;-;-;-;-
1514180788024;-;-;9.600037;-2.4371033;-1.9541779;-;-;-;-;-;-;-;-;-;-;-;-;-;-;-
1514180788045;-;-;8.627991;-2.293457;-0.79418945;-;-;-;-;-;-;-;-;-;-;-;-;-;-;-
1514180788064;-;-;9.321121;-2.4778137;-0.70321655;-;-;-;-;-;-;-;-;-;-;-;-;-;-;-
1514180788085;-;-;10.596024;-2.479004;-0.8576355;-;-;-;-;-;-;-;-;-;-;-;-;-;-;-
1514180788105;-;-;12.48027;-2.9542542;-1.3759766;-;-;-;-;-;-;-;-;-;-;-;-;-;-;-
1514180788125;-;-;14.351334;-3.538437;-0.511673;-;-;-;-;-;-;-;-;-;-;-;-;-;-;-
1514180788146;-;-;15.326965;-2.4371033;-2.9633331;-;-;-;-;-;-;-;-;-;-;-;-;-;-;-
1514180788168;-;-;13.364929;-4.016083;-7.112488;-;-;-;-;-;-;-;-;-;-;-;-;-;-;-
1514180788187;-;-;12.644272;-2.3497162;-4.266983;-;-;-;-;-;-;-;-;-;-;-;-;-;-;-
1514180788206;-;-;11.8050995;-1.5273132;-3.6959686;-;-;-;-;-;-;-;-;-;-;-;-;-;-;-
1514180788226;-;-;7.039444;-2.7902527;-7.79364;-;-;-;-;-;-;-;-;-;-;-;-;-;-;-
1514180788247;-;-;4.8367767;-4.5763245;-10.863007;-;-;-;-;-;-;-;-;-;-;-;-;-;-;-
1514180788267;-;-;7.1172485;-6.79216;-10.672668;-;-;-;-;-;-;-;-;-;-;-;-;-;-;-
1514180788288;-;-;11.736862;-4.3752136;-3.3763428;-;-;-;-;-;-;-;-;-;-;-;-;-;-;-
1514180788308;-;-;9.796371;-3.5252686;-1.5375977;-;-;-;-;-;-;-;-;-;-;-;-;-;-;-
1514180788328;-;-;5.7046814;-1.8996124;-4.1580505;-;-;-;-;-;-;-;-;-;-;-;-;-;-;-
1514180788349;-;-;5.134857;0.85491943;-1.5148468;-;-;-;-;-;-;-;-;-;-;-;-;-;-;-
1514180788369;-;-;6.778473;0.2348175;-3.0064392;-;-;-;-;-;-;-;-;-;-;-;-;-;-;-
1514180788390;-;-;7.9552307;-1.1657867;-2.9968567;-;-;-;-;-;-;-;-;-;-;-;-;-;-;-
1514180788410;-;-;7.561386;-1.2579651;-2.6628723;-;-;-;-;-;-;-;-;-;-;-;-;-;-;-
1514180788431;-;-;5.960861;-0.13986206;-2.9298248;-;-;-;-;-;-;-;-;-;-;-;-;-;-;-
1514180788451;-;-;5.161194;1.2236328;-2.345642;-;-;-;-;-;-;-;-;-;-;-;-;-;-;-
1514180788472;-;-;5.161194;2.0209045;-2.2570496;-;-;-;-;-;-;-;-;-;-;-;-;-;-;-
1514180788492;-;-;6.141617;1.5097351;-2.1074066;-;-;-;-;-;-;-;-;-;-;-;-;-;-;-
1514180788512;-;-;7.415329;-0.10395813;-2.9166565;-;-;-;-;-;-;-;-;-;-;-;-;-;-;-
1514180788533;-;-;8.455612;-0.11592102;-3.0207977;-;-;-;-;-;-;-;-;-;-;-;-;-;-;-
1514180788553;-;-;8.975159;0.9315338;-2.843628;-;-;-;-;-;-;-;-;-;-;-;-;-;-;-
1514180788574;-;-;8.854248;1.3624878;-2.2642365;-;-;-;-;-;-;-;-;-;-;-;-;-;-;-
1514180788594;-;-;9.530609;0.9638519;-1.9972839;-;-;-;-;-;-;-;-;-;-;-;-;-;-;-
1514180788615;-;-;10.246475;1.2128601;-2.302536;-;-;-;-;-;-;-;-;-;-;-;-;-;-;-
1514180788636;-;-;10.52301;1.7060547;-3.314087;-;-;-;-;-;-;-;-;-;-;-;-;-;-;-
1514180788655;-;-;10.027405;1.5839539;-3.8491974;-;-;-;-;-;-;-;-;-;-;-;-;-;-;-
1514180788676;-;-;9.781998;0.8740692;-4.6847687;-;-;-;-;-;-;-;-;-;-;-;-;-;-;-
1514180788696;-;-;8.97995;1.0847626;-8.742935;-;-;-;-;-;-;-;-;-;-;-;-;-;-;-
1514180788717;-;-;10.930023;1.9790039;-5.32283;-;-;-;-;-;-;-;-;-;-;-;-;-;-;-
1514180788737;-;-;11.583633;1.1434174;-7.900177;-;-;-;-;-;-;-;-;-;-;-;-;-;-;-
1514180788758;-;-;7.928894;-0.047698975;-6.8419495;-;-;-;-;-;-;-;-;-;-;-;-;-;-;-
1514180788778;-;-;5.944092;-0.13867188;-4.4692993;-;-;-;-;-;-;-;-;-;-;-;-;-;-;-
1514180788800;-;-;4.6775665;-1.5273132;-3.4613342;-;-;-;-;-;-;-;-;-;-;-;-;-;-;-
1514180788820;-;-;5.210266;-2.5460358;-4.6524506;-;-;-;-;-;-;-;-;-;-;-;-;-;-;-
1514180788841;-;-;7.003525;-1.9726257;-5.452118;-;-;-;-;-;-;-;-;-;-;-;-;-;-;-
1514180788860;-;-;7.719391;0.65141296;-3.607376;-;-;-;-;-;-;-;-;-;-;-;-;-;-;-
1514180788881;-;-;7.145981;0.9303436;-1.950592;-;-;-;-;-;-;-;-;-;-;-;-;-;-;-
1514180788901;-;-;7.7960052;-0.38287354;-3.6001892;-;-;-;-;-;-;-;-;-;-;-;-;-;-;-
1514180788921;-;-;7.7493286;-2.186905;-4.5339355;-;-;-;-;-;-;-;-;-;-;-;-;-;-;-
1514180788942;-;-;7.343506;-3.9298859;-4.301697;-;-;-;-;-;-;-;-;-;-;-;-;-;-;-
1514180788962;-;-;8.273651;-3.8915863;-3.5104065;-;-;-;-;-;-;-;-;-;-;-;-;-;-;-
1514180788983;-;-;9.023041;-2.9901733;-3.1943817;-;-;-;-;-;-;-;-;-;-;-;-;-;-;-
1514180789003;-;-;8.599258;-1.8050385;-3.0938263;-;-;-;-;-;-;-;-;-;-;-;-;-;-;-
1514180789023;-;-;7.6870728;-0.5169525;-3.3248596;-;-;-;-;-;-;-;-;-;-;-;-;-;-;-
1514180789044;-;-;7.059799;-0.720459;-3.4637299;-;-;-;-;-;-;-;-;-;-;-;-;-;-;-
1514180789063;-;-;8.24971;-2.1174774;-2.4186554;-;-;-;-;-;-;-;-;-;-;-;-;-;-;-
1514180789084;-;-;10.806717;-2.2371826;-2.294159;-;-;-;-;-;-;-;-;-;-;-;-;-;-;-
1514180789104;-;-;13.338593;-2.2084656;-3.2063446;-;-;-;-;-;-;-;-;-;-;-;-;-;-;-
1514180789124;-;-;14.6147;-2.2874756;-4.809265;-;-;-;-;-;-;-;-;-;-;-;-;-;-;-
1514180789145;-;-;14.455475;-2.0037537;-8.121643;-;-;-;-;-;-;-;-;-;-;-;-;-;-;-
1514180789165;-;-;11.1766205;-2.949463;-11.94519;-;-;-;-;-;-;-;-;-;-;-;-;-;-;-
1514180789186;-;-;9.151123;-3.9622192;-10.088486;-;-;-;-;-;-;-;-;-;-;-;-;-;-;-
1514180789206;-;-;5.4640503;-4.7750397;-5.230652;-;-;-;-;-;-;-;-;-;-;-;-;-;-;-
1514180789228;-;-;5.110916;-3.613861;-4.112549;-;-;-;-;-;-;-;-;-;-;-;-;-;-;-
1514180789247;-;-;5.4042053;-1.427948;-7.0634155;-;-;-;-;-;-;-;-;-;-;-;-;-;-;-
1514180789267;-;-;5.5143433;-0.040512085;-7.6368256;-;-;-;-;-;-;-;-;-;-;-;-;-;-;-
1514180789288;-;-;5.30484;0.7579498;-4.2095184;-;-;-;-;-;-;-;-;-;-;-;-;-;-;-
1514180789308;-;-;4.5111694;0.66578674;-2.254654;-;-;-;-;-;-;-;-;-;-;-;-;-;-;-
1514180789329;-;-;4.4944;-0.39964294;-1.6225891;-;-;-;-;-;-;-;-;-;-;-;-;-;-;-
1514180789348;-;-;5.746567;-0.9658661;-2.3169098;-;-;-;-;-;-;-;-;-;-;-;-;-;-;-
1514180789369;-;-;6.86586;-0.7982788;-3.9868622;-;-;-;-;-;-;-;-;-;-;-;-;-;-;-
1514180789390;-;-;7.1926727;-0.21409607;-4.835602;-;-;-;-;-;-;-;-;-;-;-;-;-;-;-
1514180789409;-;-;6.146408;0.8788605;-5.0450897;-;-;-;-;-;-;-;-;-;-;-;-;-;-;-
1514180789430;-;-;5.6388397;2.8229523;-4.4357758;-;-;-;-;-;-;-;-;-;-;-;-;-;-;-
1514180789450;-;-;6.987961;3.1796875;-4.654846;-;-;-;-;-;-;-;-;-;-;-;-;-;-;-
1514180789471;-;-;8.873398;2.2160187;-5.0247498;-;-;-;-;-;-;-;-;-;-;-;-;-;-;-
1514180789491;-;-;9.568924;1.185318;-4.658432;-;-;-;-;-;-;-;-;-;-;-;-;-;-;-
1514180789512;-;-;10.612793;0.8226013;-4.0084076;-;-;-;-;-;-;-;-;-;-;-;-;-;-;-
1514180789532;-;-;10.584061;1.5145264;-3.2805634;-;-;-;-;-;-;-;-;-;-;-;-;-;-;-
1514180789552;-;-;11.392105;0.82499695;-2.3791504;-;-;-;-;-;-;-;-;-;-;-;-;-;-;-
1514180789572;-;-;11.207748;0.10913086;-2.3875275;-;-;-;-;-;-;-;-;-;-;-;-;-;-;-
1514180789592;-;-;10.240494;-0.31584167;-3.5535126;-;-;-;-;-;-;-;-;-;-;-;-;-;-;-
1514180789613;-;-;6.2984314;0.39404297;-11.070099;-;-;-;-;-;-;-;-;-;-;-;-;-;-;-
1514180789633;-;-;3.7007294;1.829361;-9.701813;-;-;-;-;-;-;-;-;-;-;-;-;-;-;-
1514180789653;-;-;6.4217377;2.8277435;-4.349579;-;-;-;-;-;-;-;-;-;-;-;-;-;-;-
1514180789674;-;-;14.092758;1.185318;-5.013977;-;-;-;-;-;-;-;-;-;-;-;-;-;-;-
1514180789694;-;-;8.448425;-0.46427917;-7.694275;-;-;-;-;-;-;-;-;-;-;-;-;-;-;-
1514180789714;-;-;3.8719177;0.39881897;-5.6316833;-;-;-;-;-;-;-;-;-;-;-;-;-;-;-
1514180789734;-;-;3.6109467;-0.6977234;-0.68525696;-;-;-;-;-;-;-;-;-;-;-;-;-;-;-
1514180789755;-;-;4.8714905;-3.0069275;0.5166321;-;-;-;-;-;-;-;-;-;-;-;-;-;-;-
1514180789775;-;-;6.178726;-3.0931244;-3.0926208;-;-;-;-;-;-;-;-;-;-;-;-;-;-;-
1514180789795;-;-;6.968811;-3.0811462;-3.1620636;-;-;-;-;-;-;-;-;-;-;-;-;-;-;-
1514180789816;-;-;7.9983215;-2.353302;-3.2805634;-;-;-;-;-;-;-;-;-;-;-;-;-;-;-
1514180789837;-;-;7.4368744;-1.6721649;-3.8970795;-;-;-;-;-;-;-;-;-;-;-;-;-;-;-
1514180789856;-;-;6.6791077;-1.5452728;-3.7342682;-;-;-;-;-;-;-;-;-;-;-;-;-;-;-
1514180789877;-;-;5.916565;-2.214447;-3.5164032;-;-;-;-;-;-;-;-;-;-;-;-;-;-;-
1514180789897;-;-;6.446884;-2.5340729;-2.7586365;-;-;-;-;-;-;-;-;-;-;-;-;-;-;-
1514180789917;-;-;9.067337;-2.6980743;-2.6233673;-;-;-;-;-;-;-;-;-;-;-;-;-;-;-
1514180789938;-;-;11.516602;-2.3030243;-3.3787384;-;-;-;-;-;-;-;-;-;-;-;-;-;-;-
1514180789958;-;-;12.185776;-2.5101318;-4.0670624;-;-;-;-;-;-;-;-;-;-;-;-;-;-;-
1514180789978;-;-;12.245636;-3.491745;-3.0603027;-;-;-;-;-;-;-;-;-;-;-;-;-;-;-
1514180789999;-;-;13.501389;-4.171707;-3.0136108;-;-;-;-;-;-;-;-;-;-;-;-;-;-;-
1514180790019;-;-;14.429153;-3.3181763;-3.3164825;-;-;-;-;-;-;-;-;-;-;-;-;-;-;-
1514180790040;-;-;12.649063;-1.372879;-6.3726807;-;-;-;-;-;-;-;-;-;-;-;-;-;-;-
1514180790060;-;-;7.055008;-1.427948;-13.088425;-;-;-;-;-;-;-;-;-;-;-;-;-;-;-
1514180790080;-;-;4.33519;-2.9913635;-12.324661;-;-;-;-;-;-;-;-;-;-;-;-;-;-;-
1514180790101;-;-;5.663971;-4.292618;-1.2478943;-;-;-;-;-;-;-;-;-;-;-;-;-;-;-
1514180790122;-;-;12.061279;-1.4973755;3.1023712;-;-;-;-;-;-;-;-;-;-;-;-;-;-;-
1514180790141;-;-;9.992691;-0.30148315;-9.123627;-;-;-;-;-;-;-;-;-;-;-;-;-;-;-
1514180790163;-;-;7.0059204;1.4977722;-6.4744415;-;-;-;-;-;-;-;-;-;-;-;-;-;-;-
1514180790183;-;-;6.747345;1.7659149;-2.4964752;-;-;-;-;-;-;-;-;-;-;-;-;-;-;-
1514180790203;-;-;3.8108673;-0.54808044;-1.3699951;-;-;-;-;-;-;-;-;-;-;-;-;-;-;-
1514180790224;-;-;3.4840546;-2.309021;-1.5328064;-;-;-;-;-;-;-;-;-;-;-;-;-;-;-
1514180790243;-;-;5.607712;-2.8046112;-3.420639;-;-;-;-;-;-;-;-;-;-;-;-;-;-;-
1514180790264;-;-;7.3770294;-2.2647247;-4.914612;-;-;-;-;-;-;-;-;-;-;-;-;-;-;-
1514180790284;-;-;6.92572;-0.42237854;-4.4237976;-;-;-;-;-;-;-;-;-;-;-;-;-;-;-
1514180790305;-;-;5.2186584;2.2256012;-3.6169586;-;-;-;-;-;-;-;-;-;-;-;-;-;-;-
1514180790324;-;-;5.9548645;3.8799896;-3.7582092;-;-;-;-;-;-;-;-;-;-;-;-;-;-;-
1514180790344;-;-;7.961212;3.134201;-4.4860535;-;-;-;-;-;-;-;-;-;-;-;-;-;-;-
1514180790365;-;-;9.516251;0.5843811;-5.092987;-;-;-;-;-;-;-;-;-;-;-;-;-;-;-
1514180790384;-;-;10.556519;-0.11831665;-5.049881;-;-;-;-;-;-;-;-;-;-;-;-;-;-;-
1514180790404;-;-;10.294357;1.2296143;-4.5052032;-;-;-;-;-;-;-;-;-;-;-;-;-;-;-
1514180790424;-;-;11.095215;1.7323914;-3.4469604;-;-;-;-;-;-;-;-;-;-;-;-;-;-;-
1514180790445;-;-;12.305496;0.81781006;-2.9537659;-;-;-;-;-;-;-;-;-;-;-;-;-;-;-
1514180790466;-;-;10.70018;0.19651794;-3.1213531;-;-;-;-;-;-;-;-;-;-;-;-;-;-;-
1514180790487;-;-;7.2477417;-0.55166626;-7.3722687;-;-;-;-;-;-;-;-;-;-;-;-;-;-;-
1514180790507;-;-;6.078171;0.14025879;-9.821533;-;-;-;-;-;-;-;-;-;-;-;-;-;-;-
1514180790527;-;-;7.3973694;0.50416565;-4.681183;-;-;-;-;-;-;-;-;-;-;-;-;-;-;-
1514180790547;-;-;13.026138;-0.15542603;-7.3878174;-;-;-;-;-;-;-;-;-;-;-;-;-;-;-
1514180790568;-;-;8.730942;-0.15663147;-8.079742;-;-;-;-;-;-;-;-;-;-;-;-;-;-;-
1514180790588;-;-;5.1001434;1.2320099;-7.5494385;-;-;-;-;-;-;-;-;-;-;-;-;-;-;-
1514180790609;-;-;4.165207;1.837738;-4.7350464;-;-;-;-;-;-;-;-;-;-;-;-;-;-;-
1514180790629;-;-;3.8144531;0.8417511;-2.4665375;-;-;-;-;-;-;-;-;-;-;-;-;-;-;-
1514180790650;-;-;4.604538;-0.9766388;-2.0667114;-;-;-;-;-;-;-;-;-;-;-;-;-;-;-
1514180790670;-;-;6.153595;-2.435913;-2.6844177;-;-;-;-;-;-;-;-;-;-;-;-;-;-;-
1514180790691;-;-;7.240555;-3.5360413;-3.4278107;-;-;-;-;-;-;-;-;-;-;-;-;-;-;-
1514180790711;-;-;7.8163605;-4.0651703;-3.5343628;-;-;-;-;-;-;-;-;-;-;-;-;-;-;-
1514180790732;-;-;7.059799;-3.8041992;-4.148468;-;-;-;-;-;-;-;-;-;-;-;-;-;-;-
1514180790752;-;-;6.157181;-3.225998;-4.3447876;-;-;-;-;-;-;-;-;-;-;-;-;-;-;-
1514180790772;-;-;5.825577;-2.550827;-3.120163;-;-;-;-;-;-;-;-;-;-;-;-;-;-;-
1514180790792;-;-;6.7138367;-2.1234589;-2.6365356;-;-;-;-;-;-;-;-;-;-;-;-;-;-;-
1514180790813;-;-;8.381393;-2.2862701;-3.8946838;-;-;-;-;-;-;-;-;-;-;-;-;-;-;-
1514180790833;-;-;9.783203;-2.598709;-4.617737;-;-;-;-;-;-;-;-;-;-;-;-;-;-;-
1514180790854;-;-;10.615189;-2.6286469;-4.389084;-;-;-;-;-;-;-;-;-;-;-;-;-;-;-
1514180790874;-;-;11.45195;-3.8903809;-4.1269226;-;-;-;-;-;-;-;-;-;-;-;-;-;-;-
1514180790894;-;-;13.457108;-4.2602844;-4.2059326;-;-;-;-;-;-;-;-;-;-;-;-;-;-;-
1514180790915;-;-;14.217255;-2.5256958;-5.2174835;-;-;-;-;-;-;-;-;-;-;-;-;-;-;-
1514180790935;-;-;12.109161;0.31263733;-6.8024445;-;-;-;-;-;-;-;-;-;-;-;-;-;-;-
1514180790956;-;-;7.803192;0.11869812;-12.690979;-;-;-;-;-;-;-;-;-;-;-;-;-;-;-
1514180790976;-;-;4.7374115;-3.103897;-10.14595;-;-;-;-;-;-;-;-;-;-;-;-;-;-;-
1514180790996;-;-;7.2716827;-4.472183;-0.843277;-;-;-;-;-;-;-;-;-;-;-;-;-;-;-
1514180791017;-;-;9.88855;-2.5400543;-4.3950653;-;-;-;-;-;-;-;-;-;-;-;-;-;-;-
1514180791036;-;-;8.740524;-0.3972473;-10.718155;-;-;-;-;-;-;-;-;-;-;-;-;-;-;-
1514180791056;-;-;7.4991302;1.7910614;-7.021515;-;-;-;-;-;-;-;-;-;-;-;-;-;-;-
1514180791077;-;-;6.6707306;2.1406097;-4.228668;-;-;-;-;-;-;-;-;-;-;-;-;-;-;-
1514180791097;-;-;4.2154846;0.100753784;-1.4729462;-;-;-;-;-;-;-;-;-;-;-;-;-;-;-
1514180791117;-;-;3.4912415;-1.2124786;-2.076294;-;-;-;-;-;-;-;-;-;-;-;-;-;-;-
1514180791138;-;-;4.5207367;-2.009735;-3.4457703;-;-;-;-;-;-;-;-;-;-;-;-;-;-;-
1514180791158;-;-;5.8076324;-1.4267578;-4.5267487;-;-;-;-;-;-;-;-;-;-;-;-;-;-;-
1514180791178;-;-;5.87706;-0.38526917;-4.19516;-;-;-;-;-;-;-;-;-;-;-;-;-;-;-
1514180791199;-;-;4.6236877;1.2954559;-4.222687;-;-;-;-;-;-;-;-;-;-;-;-;-;-;-
1514180791220;-;-;5.4365234;2.7930298;-4.307678;-;-;-;-;-;-;-;-;-;-;-;-;-;-;-
1514180791240;-;-;8.396957;2.4087524;-4.6045685;-;-;-;-;-;-;-;-;-;-;-;-;-;-;-
1514180791260;-;-;9.627579;0.19651794;-6.425354;-;-;-;-;-;-;-;-;-;-;-;-;-;-;-
1514180791280;-;-;9.511459;-0.1015625;-5.385071;-;-;-;-;-;-;-;-;-;-;-;-;-;-;-
1514180791301;-;-;9.295975;0.22883606;-4.298111;-;-;-;-;-;-;-;-;-;-;-;-;-;-;-
1514180791320;-;-;8.7417145;2.4123535;-3.116562;-;-;-;-;-;-;-;-;-;-;-;-;-;-;-
1514180791340;-;-;10.036987;2.117859;-2.3528137;-;-;-;-;-;-;-;-;-;-;-;-;-;-;-
1514180791361;-;-;11.204163;1.0488586;-2.5371704;-;-;-;-;-;-;-;-;-;-;-;-;-;-;-
1514180791382;-;-;10.04776;-0.25;-1.447815;-;-;-;-;-;-;-;-;-;-;-;-;-;-;-
1514180791401;-;-;8.371811;-1.131073;-4.808075;-;-;-;-;-;-;-;-;-;-;-;-;-;-;-
1514180791422;-;-;5.0283203;-0.80067444;-12.333054;-;-;-;-;-;-;-;-;-;-;-;-;-;-;-
1514180791443;-;-;7.0933075;0.7591553;-7.6296387;-;-;-;-;-;-;-;-;-;-;-;-;-;-;-
1514180791463;-;-;17.077133;1.532486;-7.802017;-;-;-;-;-;-;-;-;-;-;-;-;-;-;-
1514180791483;-;-;10.58046;-0.4666748;-9.4001465;-;-;-;-;-;-;-;-;-;-;-;-;-;-;-
1514180791503;-;-;6.5713806;0.299469;-7.523102;-;-;-;-;-;-;-;-;-;-;-;-;-;-;-
1514180791524;-;-;5.660385;0.13546753;-3.1249542;-;-;-;-;-;-;-;-;-;-;-;-;-;-;-
1514180791544;-;-;4.948105;0.44192505;-0.412323;-;-;-;-;-;-;-;-;-;-;-;-;-;-;-
1514180791565;-;-;4.8547363;0.40960693;-1.1317749;-;-;-;-;-;-;-;-;-;-;-;-;-;-;-
1514180791585;-;-;4.2190704;0.18095398;-4.5339355;-;-;-;-;-;-;-;-;-;-;-;-;-;-;-
1514180791605;-;-;3.782135;-0.5540619;-4.03714;-;-;-;-;-;-;-;-;-;-;-;-;-;-;-
1514180791626;-;-;4.860718;-1.2902832;-3.4912567;-;-;-;-;-;-;-;-;-;-;-;-;-;-;-
1514180791646;-;-;5.916565;-2.6705475;-3.638504;-;-;-;-;-;-;-;-;-;-;-;-;-;-;-
1514180791667;-;-;6.409775;-4.000519;-3.7187042;-;-;-;-;-;-;-;-;-;-;-;-;-;-;-
1514180791687;-;-;6.5869446;-4.73674;-3.2638092;-;-;-;-;-;-;-;-;-;-;-;-;-;-;-
1514180791708;-;-;7.9109344;-4.443451;-2.8544006;-;-;-;-;-;-;-;-;-;-;-;-;-;-;-
1514180791728;-;-;9.294785;-2.5963135;-3.6504822;-;-;-;-;-;-;-;-;-;-;-;-;-;-;-
1514180791748;-;-;9.626373;-1.5093536;-3.729477;-;-;-;-;-;-;-;-;-;-;-;-;-;-;-
1514180791769;-;-;8.243729;-0.92037964;-3.6504822;-;-;-;-;-;-;-;-;-;-;-;-;-;-;-
1514180791789;-;-;6.0578156;-0.54927063;-2.97052;-;-;-;-;-;-;-;-;-;-;-;-;-;-;-
1514180791810;-;-;4.9385376;-1.2627563;-2.105011;-;-;-;-;-;-;-;-;-;-;-;-;-;-;-
1514180791830;-;-;5.300049;-2.977005;-2.3911285;-;-;-;-;-;-;-;-;-;-;-;-;-;-;-
1514180791851;-;-;7.7732697;-3.8856049;-3.1895905;-;-;-;-;-;-;-;-;-;-;-;-;-;-;-
1514180791871;-;-;10.256058;-3.546814;-3.906662;-;-;-;-;-;-;-;-;-;-;-;-;-;-;-
1514180791891;-;-;12.49942;-3.360077;-3.5630798;-;-;-;-;-;-;-;-;-;-;-;-;-;-;-
1514180791912;-;-;14.912781;-3.5001373;-3.3212738;-;-;-;-;-;-;-;-;-;-;-;-;-;-;-
1514180791932;-;-;15.312607;-2.9243317;-3.3057098;-;-;-;-;-;-;-;-;-;-;-;-;-;-;-
1514180791952;-;-;13.670181;-2.2132416;-3.2961273;-;-;-;-;-;-;-;-;-;-;-;-;-;-;-
1514180791973;-;-;9.189438;-2.5436401;-10.002289;-;-;-;-;-;-;-;-;-;-;-;-;-;-;-
1514180791993;-;-;6.9065704;-4.7750397;-7.9899597;-;-;-;-;-;-;-;-;-;-;-;-;-;-;-
1514180792013;-;-;7.556595;-3.0069275;-0.10107422;-;-;-;-;-;-;-;-;-;-;-;-;-;-;-
1514180792034;-;-;7.142395;-2.573578;-4.2334595;-;-;-;-;-;-;-;-;-;-;-;-;-;-;-
1514180792054;-;-;6.3331604;-2.897995;-9.395355;-;-;-;-;-;-;-;-;-;-;-;-;-;-;-
1514180792075;-;-;6.1918945;-2.6094818;-9.562958;-;-;-;-;-;-;-;-;-;-;-;-;-;-;-
1514180792096;-;-;8.571732;-1.9810028;-7.2333984;-;-;-;-;-;-;-;-;-;-;-;-;-;-;-
1514180792116;-;-;9.597641;-1.3740845;-4.575836;-;-;-;-;-;-;-;-;-;-;-;-;-;-;-
1514180792136;-;-;8.74292;-0.26914978;-4.380707;-;-;-;-;-;-;-;-;-;-;-;-;-;-;-
1514180792157;-;-;8.226959;0.52931213;-3.7977142;-;-;-;-;-;-;-;-;-;-;-;-;-;-;-
1514180792178;-;-;7.2106323;0.5664215;-4.772156;-;-;-;-;-;-;-;-;-;-;-;-;-;-;-
1514180792197;-;-;5.7765045;0.45628357;-4.575836;-;-;-;-;-;-;-;-;-;-;-;-;-;-;-
1514180792218;-;-;3.865921;0.8597107;-4.3483887;-;-;-;-;-;-;-;-;-;-;-;-;-;-;-
1514180792238;-;-;3.3284302;1.1422272;-4.481262;-;-;-;-;-;-;-;-;-;-;-;-;-;-;-
1514180792259;-;-;4.2478027;1.161377;-4.991226;-;-;-;-;-;-;-;-;-;-;-;-;-;-;-
1514180792279;-;-;6.060211;0.7830963;-5.061859;-;-;-;-;-;-;-;-;-;-;-;-;-;-;-
1514180792300;-;-;7.2034454;0.062438965;-4.6644135;-;-;-;-;-;-;-;-;-;-;-;-;-;-;-
1514180792320;-;-;7.588913;-0.68933105;-4.298111;-;-;-;-;-;-;-;-;-;-;-;-;-;-;-
1514180792341;-;-;7.2046356;-0.5337219;-3.9952393;-;-;-;-;-;-;-;-;-;-;-;-;-;-;-
1514180792362;-;-;6.9736023;-0.19134521;-3.5654755;-;-;-;-;-;-;-;-;-;-;-;-;-;-;-
1514180792383;-;-;7.0681763;-0.08720398;-2.6401215;-;-;-;-;-;-;-;-;-;-;-;-;-;-;-
1514180792403;-;-;7.0490265;0.03251648;-2.5048523;-;-;-;-;-;-;-;-;-;-;-;-;-;-;-
1514180792423;-;-;7.2393646;0.1905365;-2.2881775;-;-;-;-;-;-;-;-;-;-;-;-;-;-;-
1514180792444;-;-;7.93367;0.3605194;-2.6137848;-;-;-;-;-;-;-;-;-;-;-;-;-;-;-
1514180792465;-;-;8.771652;0.6633911;-2.6844177;-;-;-;-;-;-;-;-;-;-;-;-;-;-;-
1514180792485;-;-;9.547363;0.8309784;-2.5287933;-;-;-;-;-;-;-;-;-;-;-;-;-;-;-
1514180792506;-;-;10.211761;1.1553955;-2.4497833;-;-;-;-;-;-;-;-;-;-;-;-;-;-;-
1514180792526;-;-;9.0733185;1.382843;-2.6173706;-;-;-;-;-;-;-;-;-;-;-;-;-;-;-
1514180792546;-;-;8.280838;1.2427826;-2.2223358;-;-;-;-;-;-;-;-;-;-;-;-;-;-;-
1514180792566;-;-;7.9863434;0.9195709;-2.5371704;-;-;-;-;-;-;-;-;-;-;-;-;-;-;-
1514180792587;-;-;8.332306;1.3241882;-6.8622894;-;-;-;-;-;-;-;-;-;-;-;-;-;-;-
1514180792607;-;-;9.552155;2.6613464;-11.068909;-;-;-;-;-;-;-;-;-;-;-;-;-;-;-
1514180792628;-;-;10.449982;3.3580627;-8.650772;-;-;-;-;-;-;-;-;-;-;-;-;-;-;-
1514180792647;-;-;9.109222;1.6940918;-5.6711884;-;-;-;-;-;-;-;-;-;-;-;-;-;-;-
1514180792667;-;-;7.5242615;-1.175354;-6.266144;-;-;-;-;-;-;-;-;-;-;-;-;-;-;-
1514180792688;-;-;7.12204;-3.3277435;-8.862656;-;-;-;-;-;-;-;-;-;-;-;-;-;-;-
1514180792708;-;-;8.163513;-1.8948212;-7.196289;-;-;-;-;-;-;-;-;-;-;-;-;-;-;-
1514180792728;-;-;9.574905;0.86450195;-5.594574;-;-;-;-;-;-;-;-;-;-;-;-;-;-;-
1514180792749;-;-;9.292389;2.177719;-5.479645;-;-;-;-;-;-;-;-;-;-;-;-;-;-;-
1514180792769;-;-;8.955994;1.5121307;-5.91539;-;-;-;-;-;-;-;-;-;-;-;-;-;-;-
1514180792790;-;-;7.7816467;-0.47027588;-6.097351;-;-;-;-;-;-;-;-;-;-;-;-;-;-;-
1514180792810;-;-;6.7928467;-3.6820831;-4.5111847;-;-;-;-;-;-;-;-;-;-;-;-;-;-;-
1514180792830;-;-;6.1116943;-5.5136566;-3.1907806;-;-;-;-;-;-;-;-;-;-;-;-;-;-;-
1514180792851;-;-;5.098938;-5.4190826;-2.820877;-;-;-;-;-;-;-;-;-;-;-;-;-;-;-
1514180792872;-;-;5.2677307;-3.7515259;-3.0938263;-;-;-;-;-;-;-;-;-;-;-;-;-;-;-
1514180792891;-;-;6.616867;-1.7368011;-2.2055817;-;-;-;-;-;-;-;-;-;-;-;-;-;-;-
1514180792911;-;-;7.5625763;-1.2998657;-1.6704712;-;-;-;-;-;-;-;-;-;-;-;-;-;-;-
1514180792932;-;-;8.07254;-1.4028168;-1.9888916;-;-;-;-;-;-;-;-;-;-;-;-;-;-;-
1514180792952;-;-;8.212601;-1.230423;-1.7398987;-;-;-;-;-;-;-;-;-;-;-;-;-;-;-
1514180792973;-;-;8.435257;-1.5201263;-2.8101044;-;-;-;-;-;-;-;-;-;-;-;-;-;-;-
1514180792993;-;-;9.329498;-2.1294556;-3.4122467;-;-;-;-;-;-;-;-;-;-;-;-;-;-;-
1514180793013;-;-;9.325912;-2.2335968;-4.282547;-;-;-;-;-;-;-;-;-;-;-;-;-;-;-
1514180793034;-;-;9.091278;-3.1026917;-3.6361084;-;-;-;-;-;-;-;-;-;-;-;-;-;-;-
1514180793054;-;-;10.406891;-3.1972656;-3.4745026;-;-;-;-;-;-;-;-;-;-;-;-;-;-;-
1514180793075;-;-;11.120361;-1.6374359;-10.610413;-;-;-;-;-;-;-;-;-;-;-;-;-;-;-
1514180793094;-;-;10.665466;2.6529694;-14.84935;-;-;-;-;-;-;-;-;-;-;-;-;-;-;-
1514180793115;-;-;11.404068;4.638962;-9.169113;-;-;-;-;-;-;-;-;-;-;-;-;-;-;-
1514180793135;-;-;9.155914;2.7642975;-4.7266693;-;-;-;-;-;-;-;-;-;-;-;-;-;-;-
1514180793155;-;-;7.684677;1.1338501;-5.515564;-;-;-;-;-;-;-;-;-;-;-;-;-;-;-
1514180793176;-;-;6.76651;-1.3848572;-5.453308;-;-;-;-;-;-;-;-;-;-;-;-;-;-;-
1514180793196;-;-;7.952835;-2.8919983;-3.6744232;-;-;-;-;-;-;-;-;-;-;-;-;-;-;-
1514180793217;-;-;10.185425;-2.1282501;-3.606186;-;-;-;-;-;-;-;-;-;-;-;-;-;-;-
1514180793238;-;-;8.863831;0.7232361;-3.5726624;-;-;-;-;-;-;-;-;-;-;-;-;-;-;-
1514180793258;-;-;7.3028107;2.137024;-2.7418823;-;-;-;-;-;-;-;-;-;-;-;-;-;-;-
1514180793278;-;-;6.1918945;2.0484314;-2.3085175;-;-;-;-;-;-;-;-;-;-;-;-;-;-;-
1514180793299;-;-;5.607712;1.540863;-2.021225;-;-;-;-;-;-;-;-;-;-;-;-;-;-;-
1514180793319;-;-;4.569824;0.77471924;-1.4669647;-;-;-;-;-;-;-;-;-;-;-;-;-;-;-
1514180793339;-;-;3.7306519;0.5628357;-1.0922699;-;-;-;-;-;-;-;-;-;-;-;-;-;-;-
1514180793360;-;-;4.8990326;0.53289795;-1.3544312;-;-;-;-;-;-;-;-;-;-;-;-;-;-;-
1514180793381;-;-;7.574539;0.42636108;-1.4645691;-;-;-;-;-;-;-;-;-;-;-;-;-;-;-
1514180793401;-;-;10.003464;0.4694519;-1.6560974;-;-;-;-;-;-;-;-;-;-;-;-;-;-;-
1514180793422;-;-;10.867767;1.5911407;-1.3544312;-;-;-;-;-;-;-;-;-;-;-;-;-;-;-
1514180793442;-;-;10.846222;2.1358185;-2.3743591;-;-;-;-;-;-;-;-;-;-;-;-;-;-;-
1514180793462;-;-;10.816299;2.023285;-3.488861;-;-;-;-;-;-;-;-;-;-;-;-;-;-;-
1514180793483;-;-;11.679413;1.837738;-2.7239227;-;-;-;-;-;-;-;-;-;-;-;-;-;-;-
1514180793502;-;-;12.190567;1.7754974;-2.1780396;-;-;-;-;-;-;-;-;-;-;-;-;-;-;-
1514180793523;-;-;11.62793;2.4326935;-2.3540192;-;-;-;-;-;-;-;-;-;-;-;-;-;-;-
1514180793543;-;-;11.580048;4.6569214;-3.2159271;-;-;-;-;-;-;-;-;-;-;-;-;-;-;-
1514180793563;-;-;11.655457;5.964142;-9.582108;-;-;-;-;-;-;-;-;-;-;-;-;-;-;-
1514180793584;-;-;12.833405;6.6776276;-7.290863;-;-;-;-;-;-;-;-;-;-;-;-;-;-;-
1514180793604;-;-;9.408508;2.9630127;-7.9253235;-;-;-;-;-;-;-;-;-;-;-;-;-;-;-
1514180793624;-;-;6.8754425;1.9598389;-7.251358;-;-;-;-;-;-;-;-;-;-;-;-;-;-;-
1514180793645;-;-;6.541443;2.153778;-7.9325104;-;-;-;-;-;-;-;-;-;-;-;-;-;-;-
1514180793665;-;-;5.8088226;0.47903442;-9.49353;-;-;-;-;-;-;-;-;-;-;-;-;-;-;-
1514180793686;-;-;5.3383636;-1.7176514;-7.7122345;-;-;-;-;-;-;-;-;-;-;-;-;-;-;-
1514180793706;-;-;6.181122;-1.8206024;-5.3048706;-;-;-;-;-;-;-;-;-;-;-;-;-;-;-
1514180793726;-;-;7.4835663;-1.0412903;-3.3296509;-;-;-;-;-;-;-;-;-;-;-;-;-;-;-
1514180793747;-;-;7.1962585;0.48980713;-4.7194824;-;-;-;-;-;-;-;-;-;-;-;-;-;-;-
1514180793767;-;-;7.047821;1.0560303;-4.8224335;-;-;-;-;-;-;-;-;-;-;-;-;-;-;-
1514180793787;-;-;6.829956;0.4945984;-3.733078;-;-;-;-;-;-;-;-;-;-;-;-;-;-;-
1514180793808;-;-;5.8124084;-1.1538086;-3.5654755;-;-;-;-;-;-;-;-;-;-;-;-;-;-;-
1514180793828;-;-;4.817627;-2.8524933;-3.8946838;-;-;-;-;-;-;-;-;-;-;-;-;-;-;-
1514180793849;-;-;4.73024;-4.0424194;-3.8288422;-;-;-;-;-;-;-;-;-;-;-;-;-;-;-
1514180793869;-;-;6.446884;-3.9263;-3.5762482;-;-;-;-;-;-;-;-;-;-;-;-;-;-;-
1514180793890;-;-;7.9384613;-2.9829865;-3.8468018;-;-;-;-;-;-;-;-;-;-;-;-;-;-;-
1514180793911;-;-;8.793198;-2.0779724;-4.1544495;-;-;-;-;-;-;-;-;-;-;-;-;-;-;-
1514180793931;-;-;8.740524;-1.6039276;-4.730255;-;-;-;-;-;-;-;-;-;-;-;-;-;-;-
1514180793952;-;-;8.788406;-1.254364;-4.8846893;-;-;-;-;-;-;-;-;-;-;-;-;-;-;-
1514180793972;-;-;8.751297;-1.3309784;-4.1149445;-;-;-;-;-;-;-;-;-;-;-;-;-;-;-
1514180793993;-;-;9.023041;-1.3513336;-3.93898;-;-;-;-;-;-;-;-;-;-;-;-;-;-;-
1514180794013;-;-;9.175064;-2.1055145;-4.4070435;-;-;-;-;-;-;-;-;-;-;-;-;-;-;-
1514180794033;-;-;9.743698;-3.0955048;-4.938553;-;-;-;-;-;-;-;-;-;-;-;-;-;-;-
1514180794054;-;-;9.748489;-3.2511292;-5.0127716;-;-;-;-;-;-;-;-;-;-;-;-;-;-;-
1514180794074;-;-;9.766434;-2.439499;-5.400635;-;-;-;-;-;-;-;-;-;-;-;-;-;-;-
1514180794094;-;-;9.957977;-1.5201263;-6.002777;-;-;-;-;-;-;-;-;-;-;-;-;-;-;-
1514180794115;-;-;8.028244;-0.21887207;-11.630356;-;-;-;-;-;-;-;-;-;-;-;-;-;-;-
1514180794135;-;-;5.9464874;-2.2120514;-15.2743225;-;-;-;-;-;-;-;-;-;-;-;-;-;-;-
1514180794156;-;-;9.373795;-3.7551117;-6.1392517;-;-;-;-;-;-;-;-;-;-;-;-;-;-;-
1514180794176;-;-;13.103958;-2.475418;-2.7071533;-;-;-;-;-;-;-;-;-;-;-;-;-;-;-
1514180794197;-;-;9.962769;-1.3154297;-10.090881;-;-;-;-;-;-;-;-;-;-;-;-;-;-;-
1514180794217;-;-;6.019516;-0.58758545;-9.966385;-;-;-;-;-;-;-;-;-;-;-;-;-;-;-
1514180794238;-;-;4.945709;-0.17936707;-4.5111847;-;-;-;-;-;-;-;-;-;-;-;-;-;-;-
1514180794258;-;-;3.6911469;-2.0779724;-1.3436584;-;-;-;-;-;-;-;-;-;-;-;-;-;-;-
1514180794279;-;-;3.8958588;-2.9231262;-1.3101501;-;-;-;-;-;-;-;-;-;-;-;-;-;-;-
1514180794299;-;-;4.5027924;-2.5759735;-2.6999817;-;-;-;-;-;-;-;-;-;-;-;-;-;-;-
1514180794319;-;-;5.9117737;-1.6386414;-3.6420898;-;-;-;-;-;-;-;-;-;-;-;-;-;-;-
1514180794340;-;-;7.4009705;-0.31584167;-3.6504822;-;-;-;-;-;-;-;-;-;-;-;-;-;-;-
1514180794360;-;-;6.948456;1.2703094;-3.796524;-;-;-;-;-;-;-;-;-;-;-;-;-;-;-
1514180794380;-;-;6.1475983;3.3221436;-4.4237976;-;-;-;-;-;-;-;-;-;-;-;-;-;-;-
1514180794401;-;-;5.3024445;4.142166;-4.677582;-;-;-;-;-;-;-;-;-;-;-;-;-;-;-
1514180794421;-;-;5.971634;2.7810516;-5.1300964;-;-;-;-;-;-;-;-;-;-;-;-;-;-;-
1514180794442;-;-;7.722992;0.872879;-5.567032;-;-;-;-;-;-;-;-;-;-;-;-;-;-;-
1514180794463;-;-;9.758057;0.7531738;-5.3707123;-;-;-;-;-;-;-;-;-;-;-;-;-;-;-
1514180794483;-;-;9.578491;2.2890472;-4.3435974;-;-;-;-;-;-;-;-;-;-;-;-;-;-;-
1514180794503;-;-;8.503494;3.9003448;-3.3164825;-;-;-;-;-;-;-;-;-;-;-;-;-;-;-
1514180794524;-;-;8.370621;4.308563;-3.1788177;-;-;-;-;-;-;-;-;-;-;-;-;-;-;-
1514180794544;-;-;10.531387;3.8464813;-2.7849731;-;-;-;-;-;-;-;-;-;-;-;-;-;-;-
1514180794565;-;-;11.244858;2.9390717;-2.895111;-;-;-;-;-;-;-;-;-;-;-;-;-;-;-
1514180794585;-;-;10.282394;1.9658356;-1.9446106;-;-;-;-;-;-;-;-;-;-;-;-;-;-;-
1514180794605;-;-;7.937271;0.5245209;-0.90193176;-;-;-;-;-;-;-;-;-;-;-;-;-;-;-
1514180794626;-;-;8.887772;0.33059692;-8.36705;-;-;-;-;-;-;-;-;-;-;-;-;-;-;-
1514180794646;-;-;9.0733185;0.8273926;-8.297623;-;-;-;-;-;-;-;-;-;-;-;-;-;-;-
1514180794667;-;-;11.736862;2.3692474;-11.228119;-;-;-;-;-;-;-;-;-;-;-;-;-;-;-
1514180794686;-;-;6.987961;1.9969635;-6.4109955;-;-;-;-;-;-;-;-;-;-;-;-;-;-;-
1514180794706;-;-;5.5622253;1.161377;-5.990814;-;-;-;-;-;-;-;-;-;-;-;-;-;-;-
1514180794727;-;-;5.4401093;-0.7300415;-5.59935;-;-;-;-;-;-;-;-;-;-;-;-;-;-;-
1514180794748;-;-;5.6112976;-2.637024;-5.2019196;-;-;-;-;-;-;-;-;-;-;-;-;-;-;-
1514180794768;-;-;6.6216583;-3.3337402;-3.5223846;-;-;-;-;-;-;-;-;-;-;-;-;-;-;-
1514180794788;-;-;7.6703186;-1.8134155;-2.915451;-;-;-;-;-;-;-;-;-;-;-;-;-;-;-
1514180794807;-;-;6.594116;-0.66300964;-2.859192;-;-;-;-;-;-;-;-;-;-;-;-;-;-;-
1514180794827;-;-;5.8004456;-0.29190063;-3.9126434;-;-;-;-;-;-;-;-;-;-;-;-;-;-;-
1514180794848;-;-;5.502365;-1.6985016;-3.559494;-;-;-;-;-;-;-;-;-;-;-;-;-;-;-
1514180794867;-;-;5.2282257;-2.8022156;-3.2255096;-;-;-;-;-;-;-;-;-;-;-;-;-;-;-
1514180794887;-;-;5.1432343;-3.6066742;-3.1656494;-;-;-;-;-;-;-;-;-;-;-;-;-;-;-
1514180794908;-;-;6.7844543;-2.5711823;-3.3392334;-;-;-;-;-;-;-;-;-;-;-;-;-;-;-
1514180794927;-;-;7.916916;-1.3788757;-3.820465;-;-;-;-;-;-;-;-;-;-;-;-;-;-;-
1514180794947;-;-;8.918884;0.02293396;-5.049881;-;-;-;-;-;-;-;-;-;-;-;-;-;-;-
1514180794968;-;-;9.82869;0.5233307;-5.51915;-;-;-;-;-;-;-;-;-;-;-;-;-;-;-
1514180794988;-;-;8.997894;-0.24641418;-4.378311;-;-;-;-;-;-;-;-;-;-;-;-;-;-;-
1514180795010;-;-;7.3626556;-3.0488281;-4.776947;-;-;-;-;-;-;-;-;-;-;-;-;-;-;-
1514180795030;-;-;10.291962;-5.318527;-3.0279846;-;-;-;-;-;-;-;-;-;-;-;-;-;-;-
1514180795050;-;-;12.3390045;-5.0862885;-4.222687;-;-;-;-;-;-;-;-;-;-;-;-;-;-;-
1514180795070;-;-;13.740814;-3.021286;-5.856735;-;-;-;-;-;-;-;-;-;-;-;-;-;-;-
1514180795091;-;-;13.166199;-2.380844;-10.149536;-;-;-;-;-;-;-;-;-;-;-;-;-;-;-
1514180795110;-;-;12.431183;-3.8832092;-12.750839;-;-;-;-;-;-;-;-;-;-;-;-;-;-;-
1514180795131;-;-;9.4887085;-4.6002655;-11.226929;-;-;-;-;-;-;-;-;-;-;-;-;-;-;-
1514180795151;-;-;8.307175;-4.237549;-7.045456;-;-;-;-;-;-;-;-;-;-;-;-;-;-;-
1514180795172;-;-;9.019455;-1.4243622;-3.7977142;-;-;-;-;-;-;-;-;-;-;-;-;-;-;-
1514180795192;-;-;7.9540253;0.6035309;-5.26416;-;-;-;-;-;-;-;-;-;-;-;-;-;-;-
1514180795212;-;-;5.64003;0.20968628;-4.930176;-;-;-;-;-;-;-;-;-;-;-;-;-;-;-
1514180795232;-;-;3.8838806;-1.6829376;-4.3400116;-;-;-;-;-;-;-;-;-;-;-;-;-;-;-
1514180795252;-;-;3.4481354;-2.3066254;-4.140091;-;-;-;-;-;-;-;-;-;-;-;-;-;-;-
1514180795273;-;-;6.161972;-1.2005005;-2.1409302;-;-;-;-;-;-;-;-;-;-;-;-;-;-;-
1514180795293;-;-;10.172256;-0.23085022;-2.2582397;-;-;-;-;-;-;-;-;-;-;-;-;-;-;-
1514180795314;-;-;9.208588;1.125473;-4.606964;-;-;-;-;-;-;-;-;-;-;-;-;-;-;-
1514180795334;-;-;6.0482483;3.079132;-5.18277;-;-;-;-;-;-;-;-;-;-;-;-;-;-;-
1514180795355;-;-;3.4038544;4.1553345;-4.1855774;-;-;-;-;-;-;-;-;-;-;-;-;-;-;-
1514180795375;-;-;1.7829742;2.002945;-2.8939056;-;-;-;-;-;-;-;-;-;-;-;-;-;-;-
1514180795396;-;-;3.1488647;-0.6330719;-1.9685516;-;-;-;-;-;-;-;-;-;-;-;-;-;-;-
1514180795416;-;-;5.5203247;-1.0149536;-1.9972839;-;-;-;-;-;-;-;-;-;-;-;-;-;-;-
1514180795437;-;-;7.2273865;0.110321045;-2.286972;-;-;-;-;-;-;-;-;-;-;-;-;-;-;-
1514180795457;-;-;7.9145203;2.1250458;-2.5659027;-;-;-;-;-;-;-;-;-;-;-;-;-;-;-
1514180795479;-;-;8.987122;4.2355347;-4.9636993;-;-;-;-;-;-;-;-;-;-;-;-;-;-;-
1514180795497;-;-;10.661865;4.3456726;-6.3810577;-;-;-;-;-;-;-;-;-;-;-;-;-;-;-
1514180795518;-;-;12.846573;1.8556976;-5.231842;-;-;-;-;-;-;-;-;-;-;-;-;-;-;-
1514180795538;-;-;12.282745;1.406784;-4.3747253;-;-;-;-;-;-;-;-;-;-;-;-;-;-;-
1514180795558;-;-;9.6862335;1.7922516;-2.1301575;-;-;-;-;-;-;-;-;-;-;-;-;-;-;-
1514180795578;-;-;7.604477;0.99139404;-5.8471527;-;-;-;-;-;-;-;-;-;-;-;-;-;-;-
1514180795599;-;-;4.003601;2.3584747;-11.229324;-;-;-;-;-;-;-;-;-;-;-;-;-;-;-
1514180795619;-;-;6.5354614;2.3991852;-8.218613;-;-;-;-;-;-;-;-;-;-;-;-;-;-;-
1514180795640;-;-;13.748001;0.91477966;-7.287262;-;-;-;-;-;-;-;-;-;-;-;-;-;-;-
1514180795660;-;-;7.0298615;-0.8712921;-8.417328;-;-;-;-;-;-;-;-;-;-;-;-;-;-;-
1514180795681;-;-;6.8000183;-0.15782166;-8.596893;-;-;-;-;-;-;-;-;-;-;-;-;-;-;-
1514180795700;-;-;4.142456;-1.2807007;-5.0845947;-;-;-;-;-;-;-;-;-;-;-;-;-;-;-
1514180795721;-;-;4.379486;-4.2638855;-2.084671;-;-;-;-;-;-;-;-;-;-;-;-;-;-;-
1514180795741;-;-;6.8455048;-4.590683;-1.9458008;-;-;-;-;-;-;-;-;-;-;-;-;-;-;-
1514180795762;-;-;7.3052063;-1.7140503;-4.8427887;-;-;-;-;-;-;-;-;-;-;-;-;-;-;-
1514180795782;-;-;6.5342712;0.098358154;-4.936157;-;-;-;-;-;-;-;-;-;-;-;-;-;-;-
1514180795803;-;-;6.850296;1.1338501;-4.760193;-;-;-;-;-;-;-;-;-;-;-;-;-;-;-
1514180795823;-;-;6.6982727;0.036102295;-4.634491;-;-;-;-;-;-;-;-;-;-;-;-;-;-;-
1514180795843;-;-;6.173935;-1.8146057;-4.2478333;-;-;-;-;-;-;-;-;-;-;-;-;-;-;-
1514180795864;-;-;5.7405853;-3.0380554;-3.4242249;-;-;-;-;-;-;-;-;-;-;-;-;-;-;-
1514180795884;-;-;6.692276;-3.040451;-2.6748352;-;-;-;-;-;-;-;-;-;-;-;-;-;-;-
1514180795904;-;-;8.314362;-2.1881104;-4.1388855;-;-;-;-;-;-;-;-;-;-;-;-;-;-;-
1514180795925;-;-;9.540192;-1.9738312;-5.1073456;-;-;-;-;-;-;-;-;-;-;-;-;-;-;-
1514180795945;-;-;7.869034;-4.238739;-6.808426;-;-;-;-;-;-;-;-;-;-;-;-;-;-;-
1514180795965;-;-;10.689407;-3.7551117;-4.7398376;-;-;-;-;-;-;-;-;-;-;-;-;-;-;-
1514180795986;-;-;12.576035;-3.0488281;-3.6217499;-;-;-;-;-;-;-;-;-;-;-;-;-;-;-
1514180796006;-;-;13.642654;-2.435913;-3.46492;-;-;-;-;-;-;-;-;-;-;-;-;-;-;-
1514180796026;-;-;14.596741;-1.3812561;-3.6911774;-;-;-;-;-;-;-;-;-;-;-;-;-;-;-
1514180796047;-;-;11.92601;-0.368515;-6.248184;-;-;-;-;-;-;-;-;-;-;-;-;-;-;-
1514180796067;-;-;7.766083;-1.8313751;-11.704575;-;-;-;-;-;-;-;-;-;-;-;-;-;-;-
1514180796087;-;-;4.5985565;-5.3640137;-9.892166;-;-;-;-;-;-;-;-;-;-;-;-;-;-;-
1514180796108;-;-;5.9788055;-4.9510193;-2.65448;-;-;-;-;-;-;-;-;-;-;-;-;-;-;-
1514180796128;-;-;10.314713;-1.8074341;-4.189163;-;-;-;-;-;-;-;-;-;-;-;-;-;-;-
1514180796148;-;-;6.7018585;-1.3992157;-12.779572;-;-;-;-;-;-;-;-;-;-;-;-;-;-;-
1514180796168;-;-;6.0733795;0.31503296;-8.571762;-;-;-;-;-;-;-;-;-;-;-;-;-;-;-
1514180796188;-;-;6.03508;2.2387695;-3.5714722;-;-;-;-;-;-;-;-;-;-;-;-;-;-;-
1514180796208;-;-;4.135269;1.8317566;-1.1293793;-;-;-;-;-;-;-;-;-;-;-;-;-;-;-
1514180796228;-;-;2.303711;0.20489502;-3.0842438;-;-;-;-;-;-;-;-;-;-;-;-;-;-;-
1514180796248;-;-;3.7462158;-0.9359436;-3.824051;-;-;-;-;-;-;-;-;-;-;-;-;-;-;-
1514180796268;-;-;6.1368256;-2.0995178;-3.4828796;-;-;-;-;-;-;-;-;-;-;-;-;-;-;-
1514180796288;-;-;7.2238007;-2.6166687;-2.8651733;-;-;-;-;-;-;-;-;-;-;-;-;-;-;-
1514180796309;-;-;6.284073;-0.98143005;-2.7993317;-;-;-;-;-;-;-;-;-;-;-;-;-;-;-
1514180796329;-;-;5.6017303;1.1601868;-3.54393;-;-;-;-;-;-;-;-;-;-;-;-;-;-;-
1514180796349;-;-;7.0693665;3.1461792;-5.0522766;-;-;-;-;-;-;-;-;-;-;-;-;-;-;-
1514180796370;-;-;6.7449493;4.1433563;-6.0326996;-;-;-;-;-;-;-;-;-;-;-;-;-;-;-
1514180796389;-;-;7.928894;2.7966156;-5.693924;-;-;-;-;-;-;-;-;-;-;-;-;-;-;-
1514180796409;-;-;9.328293;1.7156372;-5.0522766;-;-;-;-;-;-;-;-;-;-;-;-;-;-;-
1514180796430;-;-;10.356613;1.4522705;-4.538727;-;-;-;-;-;-;-;-;-;-;-;-;-;-;-
1514180796452;-;-;12.283936;1.3349609;-4.409439;-;-;-;-;-;-;-;-;-;-;-;-;-;-;-
1514180796471;-;-;13.564835;1.070404;-4.4716797;-;-;-;-;-;-;-;-;-;-;-;-;-;-;-
1514180796491;-;-;11.735672;1.5659943;-3.871933;-;-;-;-;-;-;-;-;-;-;-;-;-;-;-
1514180796512;-;-;8.542999;0.16778564;-7.14122;-;-;-;-;-;-;-;-;-;-;-;-;-;-;-
1514180796532;-;-;5.485611;1.5121307;-10.108841;-;-;-;-;-;-;-;-;-;-;-;-;-;-;-
1514180796553;-;-;3.3763123;3.4801636;-7.6380157;-;-;-;-;-;-;-;-;-;-;-;-;-;-;-
1514180796573;-;-;10.692993;3.0348358;-5.781311;-;-;-;-;-;-;-;-;-;-;-;-;-;-;-
1514180796594;-;-;8.400543;-0.016571045;-9.021866;-;-;-;-;-;-;-;-;-;-;-;-;-;-;-
1514180796614;-;-;6.4648285;-0.124313354;-11.340652;-;-;-;-;-;-;-;-;-;-;-;-;-;-;-
1514180796634;-;-;4.7290344;-0.52293396;-6.892227;-;-;-;-;-;-;-;-;-;-;-;-;-;-;-
1514180796655;-;-;4.7086945;-2.535263;-2.2618408;-;-;-;-;-;-;-;-;-;-;-;-;-;-;-
1514180796675;-;-;7.5314484;-4.1094513;-1.1054382;-;-;-;-;-;-;-;-;-;-;-;-;-;-;-
1514180796695;-;-;7.672714;-2.8932037;-4.381897;-;-;-;-;-;-;-;-;-;-;-;-;-;-;-
1514180796715;-;-;5.394623;-1.6937103;-4.753006;-;-;-;-;-;-;-;-;-;-;-;-;-;-;-
1514180796736;-;-;4.4489136;-1.4231567;-3.0112305;-;-;-;-;-;-;-;-;-;-;-;-;-;-;-
1514180796756;-;-;4.245407;-1.530899;-2.6281433;-;-;-;-;-;-;-;-;-;-;-;-;-;-;-
1514180796777;-;-;4.0107727;-1.7559509;-3.3715515;-;-;-;-;-;-;-;-;-;-;-;-;-;-;-
1514180796798;-;-;4.0335236;-1.7296143;-3.5463257;-;-;-;-;-;-;-;-;-;-;-;-;-;-;-
1514180796818;-;-;4.9505005;-1.3764801;-3.2255096;-;-;-;-;-;-;-;-;-;-;-;-;-;-;-
1514180796839;-;-;7.0095215;-1.2471924;-3.3763428;-;-;-;-;-;-;-;-;-;-;-;-;-;-;-
1514180796859;-;-;8.848267;-1.6314545;-4.1592407;-;-;-;-;-;-;-;-;-;-;-;-;-;-;-
1514180796880;-;-;9.267242;-3.455841;-6.947296;-;-;-;-;-;-;-;-;-;-;-;-;-;-;-
1514180796900;-;-;9.090073;-4.6146393;-6.3571167;-;-;-;-;-;-;-;-;-;-;-;-;-;-;-
1514180796921;-;-;10.436813;-4.3309174;-4.460907;-;-;-;-;-;-;-;-;-;-;-;-;-;-;-
1514180796941;-;-;11.5525055;-5.198822;-3.903061;-;-;-;-;-;-;-;-;-;-;-;-;-;-;-
1514180796962;-;-;12.0026245;-5.9242554;-4.931366;-;-;-;-;-;-;-;-;-;-;-;-;-;-;-
1514180796983;-;-;13.157822;-4.693634;-4.6919556;-;-;-;-;-;-;-;-;-;-;-;-;-;-;-
1514180797002;-;-;13.143463;-2.5891418;-5.5179596;-;-;-;-;-;-;-;-;-;-;-;-;-;-;-
1514180797022;-;-;9.722153;-1.775116;-10.116013;-;-;-;-;-;-;-;-;-;-;-;-;-;-;-
1514180797043;-;-;7.4261017;-2.8596802;-11.5429535;-;-;-;-;-;-;-;-;-;-;-;-;-;-;-
1514180797064;-;-;10.38295;-4.1178284;2.6809845;-;-;-;-;-;-;-;-;-;-;-;-;-;-;-
1514180797083;-;-;10.63913;-2.2491608;-3.6373138;-;-;-;-;-;-;-;-;-;-;-;-;-;-;-
1514180797104;-;-;7.9001617;-0.8701019;-13.823441;-;-;-;-;-;-;-;-;-;-;-;-;-;-;-
1514180797123;-;-;4.6177063;0.54008484;-12.066101;-;-;-;-;-;-;-;-;-;-;-;-;-;-;-
1514180797143;-;-;6.4049835;2.0125122;-6.639633;-;-;-;-;-;-;-;-;-;-;-;-;-;-;-
1514180797164;-;-;8.48793;0.7591553;-2.9286194;-;-;-;-;-;-;-;-;-;-;-;-;-;-;-
1514180797185;-;-;7.264496;0.40600586;-4.4297943;-;-;-;-;-;-;-;-;-;-;-;-;-;-;-
1514180797205;-;-;6.577362;-0.22845459;-3.0327759;-;-;-;-;-;-;-;-;-;-;-;-;-;-;-
1514180797226;-;-;5.684326;-2.2754974;-3.9234161;-;-;-;-;-;-;-;-;-;-;-;-;-;-;-
1514180797246;-;-;4.7410126;-3.1565704;-5.00679;-;-;-;-;-;-;-;-;-;-;-;-;-;-;-
1514180797266;-;-;3.6887512;-1.4554901;-3.863556;-;-;-;-;-;-;-;-;-;-;-;-;-;-;-
1514180797286;-;-;2.8029022;1.5695953;-2.962143;-;-;-;-;-;-;-;-;-;-;-;-;-;-;-
1514180797307;-;-;2.6628418;3.1952515;-3.2769775;-;-;-;-;-;-;-;-;-;-;-;-;-;-;-
1514180797328;-;-;3.395462;2.8014069;-3.041153;-;-;-;-;-;-;-;-;-;-;-;-;-;-;-
1514180797348;-;-;5.7058716;1.3469238;-3.9377747;-;-;-;-;-;-;-;-;-;-;-;-;-;-;-
1514180797368;-;-;7.916916;0.32580566;-4.476471;-;-;-;-;-;-;-;-;-;-;-;-;-;-;-
1514180797389;-;-;7.253723;0.119903564;-4.1700134;-;-;-;-;-;-;-;-;-;-;-;-;-;-;-
1514180797409;-;-;6.6815033;0.8237915;-3.5690765;-;-;-;-;-;-;-;-;-;-;-;-;-;-;-
1514180797430;-;-;7.8438873;1.7335968;-3.1177673;-;-;-;-;-;-;-;-;-;-;-;-;-;-;-
1514180797450;-;-;9.213379;1.9861755;-2.8304596;-;-;-;-;-;-;-;-;-;-;-;-;-;-;-
1514180797471;-;-;10.199783;1.537262;-2.682022;-;-;-;-;-;-;-;-;-;-;-;-;-;-;-
1514180797491;-;-;10.616379;1.7671051;-2.646103;-;-;-;-;-;-;-;-;-;-;-;-;-;-;-
1514180797512;-;-;11.869751;2.5619812;-2.5012512;-;-;-;-;-;-;-;-;-;-;-;-;-;-;-
1514180797532;-;-;13.476257;2.7415466;-2.7011719;-;-;-;-;-;-;-;-;-;-;-;-;-;-;-
1514180797553;-;-;12.705322;2.5344543;-3.2877502;-;-;-;-;-;-;-;-;-;-;-;-;-;-;-
1514180797573;-;-;10.776794;2.4985352;-8.30719;-;-;-;-;-;-;-;-;-;-;-;-;-;-;-
1514180797594;-;-;11.375336;3.778244;-3.6121674;-;-;-;-;-;-;-;-;-;-;-;-;-;-;-
1514180797613;-;-;13.17099;3.362854;-2.907074;-;-;-;-;-;-;-;-;-;-;-;-;-;-;-
1514180797633;-;-;10.550537;2.4315033;-7.14003;-;-;-;-;-;-;-;-;-;-;-;-;-;-;-
1514180797654;-;-;5.426941;2.6110687;-8.280853;-;-;-;-;-;-;-;-;-;-;-;-;-;-;-
1514180797674;-;-;4.486023;1.6294403;-5.7633514;-;-;-;-;-;-;-;-;-;-;-;-;-;-;-
1514180797695;-;-;6.8239594;-0.720459;-4.890671;-;-;-;-;-;-;-;-;-;-;-;-;-;-;-
1514180797715;-;-;7.9157257;-1.7475739;-4.0802307;-;-;-;-;-;-;-;-;-;-;-;-;-;-;-
1514180797735;-;-;9.406113;-1.1346588;-4.6488495;-;-;-;-;-;-;-;-;-;-;-;-;-;-;-
1514180797756;-;-;9.63356;0.24081421;-4.03833;-;-;-;-;-;-;-;-;-;-;-;-;-;-;-
1514180797776;-;-;8.046204;2.2567291;-3.559494;-;-;-;-;-;-;-;-;-;-;-;-;-;-;-
1514180797796;-;-;6.2086487;1.8497162;-3.6121674;-;-;-;-;-;-;-;-;-;-;-;-;-;-;-
1514180797817;-;-;4.7050934;-0.5756073;-3.0794525;-;-;-;-;-;-;-;-;-;-;-;-;-;-;-
1514180797837;-;-;3.964096;-2.6657562;-2.4402008;-;-;-;-;-;-;-;-;-;-;-;-;-;-;-
1514180797858;-;-;4.023941;-3.9717865;-1.9458008;-;-;-;-;-;-;-;-;-;-;-;-;-;-;-
1514180797878;-;-;6.249359;-4.211212;-2.3707733;-;-;-;-;-;-;-;-;-;-;-;-;-;-;-
1514180797899;-;-;8.483139;-3.100296;-3.6576538;-;-;-;-;-;-;-;-;-;-;-;-;-;-;-
1514180797919;-;-;7.976776;-1.8636932;-3.645691;-;-;-;-;-;-;-;-;-;-;-;-;-;-;-
1514180797939;-;-;5.781296;-1.230423;-2.9956665;-;-;-;-;-;-;-;-;-;-;-;-;-;-;-
1514180797960;-;-;4.656021;-1.1023407;-2.7622223;-;-;-;-;-;-;-;-;-;-;-;-;-;-;-
1514180797980;-;-;5.8195953;-1.3836517;-2.4629517;-;-;-;-;-;-;-;-;-;-;-;-;-;-;-
1514180798001;-;-;7.228592;-2.1019135;-2.115799;-;-;-;-;-;-;-;-;-;-;-;-;-;-;-
1514180798021;-;-;7.3387146;-2.4778137;-2.0583344;-;-;-;-;-;-;-;-;-;-;-;-;-;-;-
1514180798042;-;-;7.295624;-3.0536194;-1.9386139;-;-;-;-;-;-;-;-;-;-;-;-;-;-;-
1514180798062;-;-;7.837906;-3.1840973;-2.3444366;-;-;-;-;-;-;-;-;-;-;-;-;-;-;-
1514180798082;-;-;8.916504;-2.377243;-2.8220825;-;-;-;-;-;-;-;-;-;-;-;-;-;-;-
1514180798103;-;-;9.9783325;-1.0197449;-3.2937317;-;-;-;-;-;-;-;-;-;-;-;-;-;-;-
1514180798123;-;-;10.283585;-0.08001709;-3.1345215;-;-;-;-;-;-;-;-;-;-;-;-;-;-;-
1514180798143;-;-;9.622787;-0.071640015;-2.7346954;-;-;-;-;-;-;-;-;-;-;-;-;-;-;-
1514180798164;-;-;8.848267;-0.30506897;-2.2175446;-;-;-;-;-;-;-;-;-;-;-;-;-;-;-
1514180798185;-;-;8.094086;-0.8317871;-2.5263977;-;-;-;-;-;-;-;-;-;-;-;-;-;-;-
1514180798205;-;-;7.0262756;-3.079956;-5.092987;-;-;-;-;-;-;-;-;-;-;-;-;-;-;-
1514180798225;-;-;7.5913086;-3.5180817;-1.9865112;-;-;-;-;-;-;-;-;-;-;-;-;-;-;-
1514180798246;-;-;11.393295;-1.6829376;-2.3372498;-;-;-;-;-;-;-;-;-;-;-;-;-;-;-
1514180798266;-;-;11.732071;1.1051178;-10.671478;-;-;-;-;-;-;-;-;-;-;-;-;-;-;-
1514180798287;-;-;11.763199;2.06279;-12.413254;-;-;-;-;-;-;-;-;-;-;-;-;-;-;-
1514180798307;-;-;12.966293;0.20729065;-6.426544;-;-;-;-;-;-;-;-;-;-;-;-;-;-;-
1514180798328;-;-;9.444412;0.02772522;-5.0474854;-;-;-;-;-;-;-;-;-;-;-;-;-;-;-
1514180798348;-;-;6.893402;0.6442261;-5.819626;-;-;-;-;-;-;-;-;-;-;-;-;-;-;-
1514180798369;-;-;6.331955;0.42755127;-6.136856;-;-;-;-;-;-;-;-;-;-;-;-;-;-;-
1514180798389;-;-;6.956848;-0.5744171;-4.8810883;-;-;-;-;-;-;-;-;-;-;-;-;-;-;-
1514180798410;-;-;7.6463776;-0.49899292;-4.6871643;-;-;-;-;-;-;-;-;-;-;-;-;-;-;-
1514180798430;-;-;7.545822;0.06842041;-4.3316193;-;-;-;-;-;-;-;-;-;-;-;-;-;-;-
1514180798450;-;-;8.759674;0.25875854;-3.8396149;-;-;-;-;-;-;-;-;-;-;-;-;-;-;-
1514180798470;-;-;9.360626;0.536499;-3.6983643;-;-;-;-;-;-;-;-;-;-;-;-;-;-;-
1514180798491;-;-;9.002686;0.47543335;-3.04953;-;-;-;-;-;-;-;-;-;-;-;-;-;-;-
1514180798510;-;-;7.7421417;0.29109192;-2.6293488;-;-;-;-;-;-;-;-;-;-;-;-;-;-;-
1514180798530;-;-;6.117676;0.31263733;-2.1816254;-;-;-;-;-;-;-;-;-;-;-;-;-;-;-
1514180798551;-;-;4.845154;0.6023407;-1.6920166;-;-;-;-;-;-;-;-;-;-;-;-;-;-;-
1514180798570;-;-;4.642853;1.0835724;-1.8596191;-;-;-;-;-;-;-;-;-;-;-;-;-;-;-
1514180798591;-;-;5.209076;1.4247437;-2.3276825;-;-;-;-;-;-;-;-;-;-;-;-;-;-;-
1514180798611;-;-;6.791641;1.3469238;-2.144516;-;-;-;-;-;-;-;-;-;-;-;-;-;-;-
1514180798632;-;-;8.32753;1.0955353;-1.4861145;-;-;-;-;-;-;-;-;-;-;-;-;-;-;-
1514180798652;-;-;9.0793;0.9028015;-1.219162;-;-;-;-;-;-;-;-;-;-;-;-;-;-;-
1514180798672;-;-;9.796371;0.3964386;-1.5244293;-;-;-;-;-;-;-;-;-;-;-;-;-;-;-
1514180798693;-;-;10.829468;0.031311035;-1.234726;-;-;-;-;-;-;-;-;-;-;-;-;-;-;-
1514180798713;-;-;12.8046875;-0.32182312;-1.3448639;-;-;-;-;-;-;-;-;-;-;-;-;-;-;-
1514180798733;-;-;13.2751465;0.30186462;-1.313736;-;-;-;-;-;-;-;-;-;-;-;-;-;-;-
1514180798754;-;-;10.947983;2.1046906;-2.4461975;-;-;-;-;-;-;-;-;-;-;-;-;-;-;-
1514180798774;-;-;9.39653;3.2335663;-7.2776947;-;-;-;-;-;-;-;-;-;-;-;-;-;-;-
1514180798794;-;-;7.2860413;3.6106415;-10.374588;-;-;-;-;-;-;-;-;-;-;-;-;-;-;-
1514180798815;-;-;5.5837708;1.4989624;-7.962433;-;-;-;-;-;-;-;-;-;-;-;-;-;-;-
1514180798835;-;-;6.05542;-2.2407837;-6.9963684;-;-;-;-;-;-;-;-;-;-;-;-;-;-;-
1514180798855;-;-;8.906921;-4.0903015;-8.107285;-;-;-;-;-;-;-;-;-;-;-;-;-;-;-
1514180798876;-;-;7.964798;-2.024109;-9.382187;-;-;-;-;-;-;-;-;-;-;-;-;-;-;-
1514180798896;-;-;10.342239;1.8712616;-5.91658;-;-;-;-;-;-;-;-;-;-;-;-;-;-;-
1514180798918;-;-;12.0576935;3.2706757;-4.0407257;-;-;-;-;-;-;-;-;-;-;-;-;-;-;-
1514180798937;-;-;12.760391;1.6677551;-6.3164215;-;-;-;-;-;-;-;-;-;-;-;-;-;-;-
1514180798958;-;-;10.392517;-1.0436859;-6.2409973;-;-;-;-;-;-;-;-;-;-;-;-;-;-;-
1514180798978;-;-;7.071762;-2.9351044;-5.7525787;-;-;-;-;-;-;-;-;-;-;-;-;-;-;-
1514180798998;-;-;4.6703796;-5.550766;-3.338028;-;-;-;-;-;-;-;-;-;-;-;-;-;-;-
1514180799019;-;-;2.8867035;-6.5455627;-2.2127533;-;-;-;-;-;-;-;-;-;-;-;-;-;-;-
1514180799038;-;-;3.7294617;-5.875183;-3.0064392;-;-;-;-;-;-;-;-;-;-;-;-;-;-;-
1514180799059;-;-;6.9029694;-4.5176697;-2.879547;-;-;-;-;-;-;-;-;-;-;-;-;-;-;-
1514180799079;-;-;8.316742;-4.156143;-1.8069458;-;-;-;-;-;-;-;-;-;-;-;-;-;-;-
1514180799100;-;-;8.156342;-4.120224;-1.7303314;-;-;-;-;-;-;-;-;-;-;-;-;-;-;-
1514180799120;-;-;7.51709;-3.8257446;-2.215149;-;-;-;-;-;-;-;-;-;-;-;-;-;-;-
1514180799141;-;-;6.8239594;-3.4091492;-2.1098022;-;-;-;-;-;-;-;-;-;-;-;-;-;-;-
1514180799161;-;-;6.249359;-3.5049133;-1.1772614;-;-;-;-;-;-;-;-;-;-;-;-;-;-;-
1514180799182;-;-;6.5989075;-3.981369;-1.1629028;-;-;-;-;-;-;-;-;-;-;-;-;-;-;-
1514180799202;-;-;8.677078;-4.285431;-2.2019806;-;-;-;-;-;-;-;-;-;-;-;-;-;-;-
1514180799223;-;-;11.58963;-4.6230164;-2.7107544;-;-;-;-;-;-;-;-;-;-;-;-;-;-;-
1514180799243;-;-;14.945099;-4.7115936;-2.6556854;-;-;-;-;-;-;-;-;-;-;-;-;-;-;-
1514180799263;-;-;14.747574;-3.7934265;-2.5371704;-;-;-;-;-;-;-;-;-;-;-;-;-;-;-
1514180799284;-;-;13.2117;-3.7958221;-1.8584137;-;-;-;-;-;-;-;-;-;-;-;-;-;-;-
1514180799303;-;-;12.324646;-4.5930786;-1.7458801;-;-;-;-;-;-;-;-;-;-;-;-;-;-;-
1514180799323;-;-;11.2556305;-3.893982;-1.8679962;-;-;-;-;-;-;-;-;-;-;-;-;-;-;-
1514180799344;-;-;8.58609;-4.389572;-8.468811;-;-;-;-;-;-;-;-;-;-;-;-;-;-;-
1514180799364;-;-;6.206253;-4.6984253;-10.926453;-;-;-;-;-;-;-;-;-;-;-;-;-;-;-
1514180799385;-;-;5.5993347;-2.6633606;-3.0938263;-;-;-;-;-;-;-;-;-;-;-;-;-;-;-
1514180799404;-;-;5.734604;-2.3437347;-5.4042206;-;-;-;-;-;-;-;-;-;-;-;-;-;-;-
1514180799425;-;-;6.275696;-3.2906342;-11.400513;-;-;-;-;-;-;-;-;-;-;-;-;-;-;-
1514180799446;-;-;8.625595;-1.4064026;-11.929626;-;-;-;-;-;-;-;-;-;-;-;-;-;-;-
1514180799466;-;-;9.971146;1.971817;-7.694275;-;-;-;-;-;-;-;-;-;-;-;-;-;-;-
1514180799486;-;-;8.024658;2.263916;-6.815613;-;-;-;-;-;-;-;-;-;-;-;-;-;-;-
1514180799507;-;-;6.999939;0.9195709;-6.3559265;-;-;-;-;-;-;-;-;-;-;-;-;-;-;-
1514180799526;-;-;6.92572;-0.38407898;-6.1584015;-;-;-;-;-;-;-;-;-;-;-;-;-;-;-
1514180799546;-;-;5.959656;-0.8174286;-5.2091064;-;-;-;-;-;-;-;-;-;-;-;-;-;-;-
1514180799567;-;-;5.995575;-0.8928528;-4.622528;-;-;-;-;-;-;-;-;-;-;-;-;-;-;-
1514180799587;-;-;6.0542297;-0.3936615;-4.140091;-;-;-;-;-;-;-;-;-;-;-;-;-;-;-
1514180799608;-;-;5.917755;0.3461609;-3.6205444;-;-;-;-;-;-;-;-;-;-;-;-;-;-;-
1514180799627;-;-;5.8758545;-0.047698975;-3.017212;-;-;-;-;-;-;-;-;-;-;-;-;-;-;-
1514180799647;-;-;6.7102356;-1.0436859;-2.4402008;-;-;-;-;-;-;-;-;-;-;-;-;-;-;-
1514180799668;-;-;7.714615;-1.530899;-3.3009186;-;-;-;-;-;-;-;-;-;-;-;-;-;-;-
1514180799688;-;-;6.6467896;-1.1238861;-3.5331573;-;-;-;-;-;-;-;-;-;-;-;-;-;-;-
1514180799709;-;-;7.1447906;-0.210495;-3.1057892;-;-;-;-;-;-;-;-;-;-;-;-;-;-;-
1514180799729;-;-;8.532227;1.209259;-3.0088348;-;-;-;-;-;-;-;-;-;-;-;-;-;-;-
1514180799750;-;-;10.197388;3.4047394;-5.148041;-;-;-;-;-;-;-;-;-;-;-;-;-;-;-
1514180799770;-;-;11.811081;4.4989014;-5.741806;-;-;-;-;-;-;-;-;-;-;-;-;-;-;-
1514180799790;-;-;13.303879;3.6405792;-6.108124;-;-;-;-;-;-;-;-;-;-;-;-;-;-;-
1514180799810;-;-;13.1698;2.5236816;-4.7027283;-;-;-;-;-;-;-;-;-;-;-;-;-;-;-
1514180799830;-;-;10.536179;1.9933624;-4.132904;-;-;-;-;-;-;-;-;-;-;-;-;-;-;-
1514180799851;-;-;5.9943695;2.5823364;-9.492325;-;-;-;-;-;-;-;-;-;-;-;-;-;-;-
1514180799870;-;-;4.196335;3.5903015;-8.076157;-;-;-;-;-;-;-;-;-;-;-;-;-;-;-
1514180799891;-;-;6.601303;3.2084198;-6.416977;-;-;-;-;-;-;-;-;-;-;-;-;-;-;-
1514180799912;-;-;7.497925;0.1797638;-6.3403625;-;-;-;-;-;-;-;-;-;-;-;-;-;-;-
1514180799933;-;-;5.5670013;-1.1478271;-6.6168976;-;-;-;-;-;-;-;-;-;-;-;-;-;-;-
1514180799952;-;-;6.217041;-1.7344055;-7.259735;-;-;-;-;-;-;-;-;-;-;-;-;-;-;-
1514180799973;-;-;6.015915;-1.491394;-5.4544983;-;-;-;-;-;-;-;-;-;-;-;-;-;-;-
1514180799993;-;-;7.011902;-1.8349609;-3.2805634;-;-;-;-;-;-;-;-;-;-;-;-;-;-;-
1514180800014;-;-;8.021072;-0.7384186;-2.2845764;-;-;-;-;-;-;-;-;-;-;-;-;-;-;-
1514180800034;-;-;6.6611633;-0.2571869;-2.2187347;-;-;-;-;-;-;-;-;-;-;-;-;-;-;-
1514180800055;-;-;5.983597;-0.5672302;-2.8532104;-;-;-;-;-;-;-;-;-;-;-;-;-;-;-
1514180800075;-;-;4.6967163;-1.8792572;-3.0938263;-;-;-;-;-;-;-;-;-;-;-;-;-;-;-
1514180800096;-;-;4.1244965;-2.8872223;-3.6636505;-;-;-;-;-;-;-;-;-;-;-;-;-;-;-
1514180800116;-;-;4.865509;-3.139801;-4.53154;-;-;-;-;-;-;-;-;-;-;-;-;-;-;-
1514180800137;-;-;6.455261;-2.535263;-3.7043457;-;-;-;-;-;-;-;-;-;-;-;-;-;-;-
1514180800158;-;-;8.547791;-1.7415924;-3.511612;-;-;-;-;-;-;-;-;-;-;-;-;-;-;-
1514180800177;-;-;9.752075;-1.3788757;-4.2777557;-;-;-;-;-;-;-;-;-;-;-;-;-;-;-
1514180800197;-;-;9.963959;-1.3573151;-4.2813416;-;-;-;-;-;-;-;-;-;-;-;-;-;-;-
1514180800218;-;-;8.582504;-2.9710083;-4.6404724;-;-;-;-;-;-;-;-;-;-;-;-;-;-;-
1514180800238;-;-;9.71257;-4.0256653;-4.083832;-;-;-;-;-;-;-;-;-;-;-;-;-;-;-
1514180800258;-;-;11.447174;-3.8999634;-3.784546;-;-;-;-;-;-;-;-;-;-;-;-;-;-;-
1514180800279;-;-;12.887283;-3.4510498;-3.8156738;-;-;-;-;-;-;-;-;-;-;-;-;-;-;-
1514180800300;-;-;13.810242;-2.3185883;-4.685974;-;-;-;-;-;-;-;-;-;-;-;-;-;-;-
1514180800320;-;-;10.46315;-1.5715942;-8.52626;-;-;-;-;-;-;-;-;-;-;-;-;-;-;-
1514180800340;-;-;8.174301;-4.321335;-13.12793;-;-;-;-;-;-;-;-;-;-;-;-;-;-;-
1514180800360;-;-;10.87735;-5.1329803;-1.737503;-;-;-;-;-;-;-;-;-;-;-;-;-;-;-
1514180800381;-;-;11.850586;-1.2220459;-3.9174347;-;-;-;-;-;-;-;-;-;-;-;-;-;-;-
1514180800401;-;-;6.37146;-0.26197815;-11.893707;-;-;-;-;-;-;-;-;-;-;-;-;-;-;-
1514180800421;-;-;5.170761;-0.023742676;-9.541412;-;-;-;-;-;-;-;-;-;-;-;-;-;-;-
1514180800442;-;-;6.4528656;0.8022461;-3.5403442;-;-;-;-;-;-;-;-;-;-;-;-;-;-;-
1514180800462;-;-;5.4125824;0.52212524;-1.1150208;-;-;-;-;-;-;-;-;-;-;-;-;-;-;-
1514180800483;-;-;3.569046;0.007369995;-1.3879547;-;-;-;-;-;-;-;-;-;-;-;-;-;-;-
1514180800503;-;-;4.3208313;-1.0161438;-2.4509735;-;-;-;-;-;-;-;-;-;-;-;-;-;-;-
1514180800523;-;-;4.688339;-2.040863;-3.8611603;-;-;-;-;-;-;-;-;-;-;-;-;-;-;-
1514180800544;-;-;5.055847;-1.7499695;-3.7737732;-;-;-;-;-;-;-;-;-;-;-;-;-;-;-
1514180800564;-;-;4.588974;0.59036255;-3.3452148;-;-;-;-;-;-;-;-;-;-;-;-;-;-;-
1514180800585;-;-;3.9772644;2.8935852;-4.377121;-;-;-;-;-;-;-;-;-;-;-;-;-;-;-
1514180800605;-;-;5.6747437;3.7399292;-4.009598;-;-;-;-;-;-;-;-;-;-;-;-;-;-;-
1514180800626;-;-;9.465973;2.2806702;-5.010376;-;-;-;-;-;-;-;-;-;-;-;-;-;-;-
1514180800646;-;-;10.788757;0.5951538;-6.104538;-;-;-;-;-;-;-;-;-;-;-;-;-;-;-
1514180800667;-;-;9.878967;0.05406189;-5.6161194;-;-;-;-;-;-;-;-;-;-;-;-;-;-;-
1514180800687;-;-;10.270416;1.082367;-4.4345703;-;-;-;-;-;-;-;-;-;-;-;-;-;-;-
1514180800708;-;-;11.46991;3.055191;-2.8639832;-;-;-;-;-;-;-;-;-;-;-;-;-;-;-
1514180800727;-;-;12.392883;3.1138458;-1.9841156;-;-;-;-;-;-;-;-;-;-;-;-;-;-;-
1514180800748;-;-;11.988251;2.608673;-0.3368988;-;-;-;-;-;-;-;-;-;-;-;-;-;-;-
1514180800768;-;-;9.9040985;1.8054199;-4.234665;-;-;-;-;-;-;-;-;-;-;-;-;-;-;-
1514180800789;-;-;8.297592;2.1501923;-10.610413;-;-;-;-;-;-;-;-;-;-;-;-;-;-;-
1514180800809;-;-;7.9396667;1.1003265;-7.078964;-;-;-;-;-;-;-;-;-;-;-;-;-;-;-
1514180800830;-;-;10.454773;0.33776855;-7.907364;-;-;-;-;-;-;-;-;-;-;-;-;-;-;-
1514180800851;-;-;6.5797577;-1.7188416;-5.377884;-;-;-;-;-;-;-;-;-;-;-;-;-;-;-
1514180800870;-;-;6.4492645;-1.0221252;-6.3882446;-;-;-;-;-;-;-;-;-;-;-;-;-;-;-
1514180800891;-;-;5.4688416;-0.75756836;-6.2230377;-;-;-;-;-;-;-;-;-;-;-;-;-;-;-
1514180800911;-;-;5.0414886;-1.0795898;-3.3152924;-;-;-;-;-;-;-;-;-;-;-;-;-;-;-
1514180800932;-;-;5.9297333;-0.4918213;-2.8472137;-;-;-;-;-;-;-;-;-;-;-;-;-;-;-
1514180800952;-;-;5.316818;-0.28112793;-2.175644;-;-;-;-;-;-;-;-;-;-;-;-;-;-;-
1514180800972;-;-;5.0175323;-0.82221985;-2.1277618;-;-;-;-;-;-;-;-;-;-;-;-;-;-;-
1514180800994;-;-;5.0211334;-2.3580933;-2.2378998;-;-;-;-;-;-;-;-;-;-;-;-;-;-;-
1514180801014;-;-;4.6236877;-4.012497;-3.448166;-;-;-;-;-;-;-;-;-;-;-;-;-;-;-
1514180801035;-;-;5.2868805;-4.65773;-4.2562103;-;-;-;-;-;-;-;-;-;-;-;-;-;-;-
1514180801055;-;-;6.76651;-3.1852875;-4.1616364;-;-;-;-;-;-;-;-;-;-;-;-;-;-;-
1514180801075;-;-;8.289215;-1.5644226;-5.0403137;-;-;-;-;-;-;-;-;-;-;-;-;-;-;-
1514180801096;-;-;9.700592;-0.4152069;-5.860321;-;-;-;-;-;-;-;-;-;-;-;-;-;-;-
1514180801117;-;-;9.311539;-1.1789551;-6.547455;-;-;-;-;-;-;-;-;-;-;-;-;-;-;-
1514180801137;-;-;7.8786163;-3.4618225;-7.5542145;-;-;-;-;-;-;-;-;-;-;-;-;-;-;-
1514180801158;-;-;9.841858;-3.305008;-3.2638092;-;-;-;-;-;-;-;-;-;-;-;-;-;-;-
1514180801178;-;-;13.40802;-3.455841;-2.781372;-;-;-;-;-;-;-;-;-;-;-;-;-;-;-
1514180801198;-;-;13.996994;-4.5966797;-5.1935425;-;-;-;-;-;-;-;-;-;-;-;-;-;-;-
1514180801218;-;-;13.050079;-3.9298859;-7.390213;-;-;-;-;-;-;-;-;-;-;-;-;-;-;-
1514180801239;-;-;8.967972;-3.7479248;-13.11116;-;-;-;-;-;-;-;-;-;-;-;-;-;-;-
1514180801260;-;-;6.323578;-4.795395;-17.928299;-;-;-;-;-;-;-;-;-;-;-;-;-;-;-
1514180801280;-;-;5.9824066;-5.5136566;-4.061081;-;-;-;-;-;-;-;-;-;-;-;-;-;-;-
1514180801300;-;-;10.197388;-0.22845459;-2.9812927;-;-;-;-;-;-;-;-;-;-;-;-;-;-;-
1514180801321;-;-;6.5438385;1.674942;-10.687027;-;-;-;-;-;-;-;-;-;-;-;-;-;-;-
1514180801341;-;-;4.8762817;2.347702;-8.400574;-;-;-;-;-;-;-;-;-;-;-;-;-;-;-
1514180801362;-;-;4.0742188;3.1030731;-2.9274292;-;-;-;-;-;-;-;-;-;-;-;-;-;-;-
1514180801382;-;-;2.3288574;1.0201263;-1.1856384;-;-;-;-;-;-;-;-;-;-;-;-;-;-;-
1514180801403;-;-;2.0583038;-1.8445435;-3.1884003;-;-;-;-;-;-;-;-;-;-;-;-;-;-;-
1514180801423;-;-;3.9329681;-2.5220947;-4.6452637;-;-;-;-;-;-;-;-;-;-;-;-;-;-;-
1514180801443;-;-;6.170349;-1.506958;-4.7709656;-;-;-;-;-;-;-;-;-;-;-;-;-;-;-
1514180801464;-;-;7.130417;-0.13508606;-4.6045685;-;-;-;-;-;-;-;-;-;-;-;-;-;-;-
1514180801485;-;-;5.6855164;1.813797;-4.864334;-;-;-;-;-;-;-;-;-;-;-;-;-;-;-
1514180801505;-;-;4.88945;3.3843994;-4.554291;-;-;-;-;-;-;-;-;-;-;-;-;-;-;-
1514180801526;-;-;6.6791077;2.6230469;-4.9636993;-;-;-;-;-;-;-;-;-;-;-;-;-;-;-
1514180801547;-;-;8.377808;0.52212524;-5.6651917;-;-;-;-;-;-;-;-;-;-;-;-;-;-;-
1514180801567;-;-;10.026215;0.675354;-5.077423;-;-;-;-;-;-;-;-;-;-;-;-;-;-;-
1514180801587;-;-;11.957138;1.5288849;-5.3719025;-;-;-;-;-;-;-;-;-;-;-;-;-;-;-
1514180801610;-;-;12.779541;1.3002472;-3.5942078;-;-;-;-;-;-;-;-;-;-;-;-;-;-;-
1514180801628;-;-;13.72406;0.26834106;-1.9853058;-;-;-;-;-;-;-;-;-;-;-;-;-;-;-
1514180801648;-;-;11.398087;1.1134949;-1.2454987;-;-;-;-;-;-;-;-;-;-;-;-;-;-;-
1514180801668;-;-;8.649536;0.7687378;-6.0746;-;-;-;-;-;-;-;-;-;-;-;-;-;-;-
1514180801689;-;-;5.6591797;1.9442902;-11.001877;-;-;-;-;-;-;-;-;-;-;-;-;-;-;-
1514180801709;-;-;5.221039;1.9945679;-7.100525;-;-;-;-;-;-;-;-;-;-;-;-;-;-;-
1514180801730;-;-;13.498993;0.6286621;-8.718994;-;-;-;-;-;-;-;-;-;-;-;-;-;-;-
1514180801750;-;-;5.6903076;-1.1382446;-8.423309;-;-;-;-;-;-;-;-;-;-;-;-;-;-;-
1514180801771;-;-;4.924164;-1.067627;-6.5534515;-;-;-;-;-;-;-;-;-;-;-;-;-;-;-
1514180801791;-;-;3.8084717;-0.2272644;-3.8216553;-;-;-;-;-;-;-;-;-;-;-;-;-;-;-
1514180801812;-;-;4.2478027;-2.28508;-2.3839417;-;-;-;-;-;-;-;-;-;-;-;-;-;-;-
1514180801832;-;-;6.007538;-1.617096;-4.29451;-;-;-;-;-;-;-;-;-;-;-;-;-;-;-
1514180801853;-;-;6.2302094;-1.0484619;-3.2087402;-;-;-;-;-;-;-;-;-;-;-;-;-;-;-
1514180801873;-;-;6.632431;-1.249588;-2.7981415;-;-;-;-;-;-;-;-;-;-;-;-;-;-;-
1514180801894;-;-;6.673126;-2.2024689;-3.393097;-;-;-;-;-;-;-;-;-;-;-;-;-;-;-
1514180801913;-;-;5.097748;-3.2631073;-3.8934937;-;-;-;-;-;-;-;-;-;-;-;-;-;-;-
1514180801934;-;-;4.2825165;-3.8245392;-3.5714722;-;-;-;-;-;-;-;-;-;-;-;-;-;-;-
1514180801954;-;-;5.844742;-2.9039764;-3.0483398;-;-;-;-;-;-;-;-;-;-;-;-;-;-;-
1514180801974;-;-;7.396179;-1.8301697;-2.9142609;-;-;-;-;-;-;-;-;-;-;-;-;-;-;-
1514180801995;-;-;10.101624;-0.3074646;-4.172409;-;-;-;-;-;-;-;-;-;-;-;-;-;-;-
1514180802014;-;-;10.32428;-1.0556488;-5.0163727;-;-;-;-;-;-;-;-;-;-;-;-;-;-;-
1514180802034;-;-;8.908112;-3.0188904;-5.702301;-;-;-;-;-;-;-;-;-;-;-;-;-;-;-
1514180802055;-;-;11.578842;-3.108673;-2.5263977;-;-;-;-;-;-;-;-;-;-;-;-;-;-;-
1514180802075;-;-;12.702927;-3.5001373;-2.1134033;-;-;-;-;-;-;-;-;-;-;-;-;-;-;-
1514180802096;-;-;12.115143;-2.550827;-3.7426453;-;-;-;-;-;-;-;-;-;-;-;-;-;-;-
1514180802116;-;-;12.303101;-1.2364197;-3.8922882;-;-;-;-;-;-;-;-;-;-;-;-;-;-;-
1514180802137;-;-;9.220566;-0.973053;-6.571396;-;-;-;-;-;-;-;-;-;-;-;-;-;-;-
1514180802157;-;-;5.885437;-3.2307892;-14.025742;-;-;-;-;-;-;-;-;-;-;-;-;-;-;-
1514180802177;-;-;4.6177063;-7.4110565;-8.7956085;-;-;-;-;-;-;-;-;-;-;-;-;-;-;-
1514180802198;-;-;11.376541;-5.3795776;0.7117615;-;-;-;-;-;-;-;-;-;-;-;-;-;-;-
