TimeStamp[ms];Prox[Cm];Lux[lux];AccX[m/s^2];AccY[m/s^2];AccZ[m/s^2];GyroX[rad/s];GyroY[rad/s];GyroZ[rad/s];MagnX[uT];MagnY[uT];MagnZ[uT];OrienYaw[degrees];OrienPitch[degrees];OrienRoll[degrees];Press[Pa];Temp[C°];Batt[%];Lat;Lng;Speed[m/s]
1514191266212;-;-;7.18309;-1.3417511;5.3565063;-;-;-;-;-;-;-;-;-;-;-;-;-;-;-
1514191266216;-;-;7.18309;-1.3417511;5.3565063;-;-;-;-;-;-;-;-;-;-;-;-;-;-;-
1514191266236;-;-;7.372238;-1.3764801;5.3289795;-;-;-;-;-;-;-;-;-;-;-;-;-;-;-
1514191266256;-;-;7.374634;-1.4159851;5.173355;-;-;-;-;-;-;-;-;-;-;-;-;-;-;-
1514191266277;-;-;7.35907;-1.278305;5.6929016;-;-;-;-;-;-;-;-;-;-;-;-;-;-;-
1514191266297;-;-;7.5877075;-1.4806213;5.386444;-;-;-;-;-;-;-;-;-;-;-;-;-;-;-
1514191266317;-;-;7.6966553;-1.4686584;5.3217926;-;-;-;-;-;-;-;-;-;-;-;-;-;-;-
1514191266338;-;-;7.8522797;-1.3393707;5.358902;-;-;-;-;-;-;-;-;-;-;-;-;-;-;-
1514191266358;-;-;7.7457275;-1.2926788;5.058441;-;-;-;-;-;-;-;-;-;-;-;-;-;-;-
1514191266378;-;-;7.7457275;-1.1442413;4.9854126;-;-;-;-;-;-;-;-;-;-;-;-;-;-;-
1514191266399;-;-;7.664322;-0.9646759;4.864502;-;-;-;-;-;-;-;-;-;-;-;-;-;-;-
1514191266419;-;-;7.9145203;-0.83657837;4.9626617;-;-;-;-;-;-;-;-;-;-;-;-;-;-;-
1514191266439;-;-;7.9552307;-0.8198242;4.79747;-;-;-;-;-;-;-;-;-;-;-;-;-;-;-
1514191266467;-;-;8.085709;-0.8641205;4.6693726;-;-;-;-;-;-;-;-;-;-;-;-;-;-;-
1514191266480;-;-;8.023453;-0.8772888;4.5460815;-;-;-;-;-;-;-;-;-;-;-;-;-;-;-
1514191266501;-;-;7.91333;-1.0341034;4.157013;-;-;-;-;-;-;-;-;-;-;-;-;-;-;-
1514191266521;-;-;8.064163;-0.8305969;4.823807;-;-;-;-;-;-;-;-;-;-;-;-;-;-;-
1514191266541;-;-;8.045013;-0.9874115;5.4546814;-;-;-;-;-;-;-;-;-;-;-;-;-;-;-
1514191266561;-;-;7.5553894;-1.443512;4.6358643;-;-;-;-;-;-;-;-;-;-;-;-;-;-;-
1514191266582;-;-;8.096481;-1.8313751;4.2384186;-;-;-;-;-;-;-;-;-;-;-;-;-;-;-
1514191266601;-;-;8.529831;-1.3118286;5.698883;-;-;-;-;-;-;-;-;-;-;-;-;-;-;-
1514191266621;-;-;7.659546;-1.5105438;4.8142242;-;-;-;-;-;-;-;-;-;-;-;-;-;-;-
1514191266641;-;-;8.005508;-1.6446228;4.599945;-;-;-;-;-;-;-;-;-;-;-;-;-;-;-
1514191266662;-;-;7.925293;-1.570404;4.3365784;-;-;-;-;-;-;-;-;-;-;-;-;-;-;-
1514191266682;-;-;7.6822815;-1.4734344;4.3054504;-;-;-;-;-;-;-;-;-;-;-;-;-;-;-
1514191266703;-;-;7.916916;-1.4171753;5.0009766;-;-;-;-;-;-;-;-;-;-;-;-;-;-;-
1514191266723;-;-;7.9073334;-0.9431305;6.2543335;-;-;-;-;-;-;-;-;-;-;-;-;-;-;-
1514191266743;-;-;8.516663;-1.0999451;4.256378;-;-;-;-;-;-;-;-;-;-;-;-;-;-;-
1514191266763;-;-;8.703415;-0.7815094;4.698105;-;-;-;-;-;-;-;-;-;-;-;-;-;-;-
1514191266783;-;-;8.331116;-1.5368805;5.406784;-;-;-;-;-;-;-;-;-;-;-;-;-;-;-
1514191266804;-;-;7.8762207;-1.0352936;1.0289917;-;-;-;-;-;-;-;-;-;-;-;-;-;-;-
1514191266824;-;-;7.8546753;-1.2507782;2.18898;-;-;-;-;-;-;-;-;-;-;-;-;-;-;-
1514191266844;-;-;3.0411224;-0.51216125;2.1674347;-;-;-;-;-;-;-;-;-;-;-;-;-;-;-
1514191266865;-;-;7.944458;-0.14585876;3.0808258;-;-;-;-;-;-;-;-;-;-;-;-;-;-;-
1514191266885;-;-;11.437592;-0.61990356;3.6458588;-;-;-;-;-;-;-;-;-;-;-;-;-;-;-
1514191266905;-;-;9.027832;-1.2866974;2.3865051;-;-;-;-;-;-;-;-;-;-;-;-;-;-;-
1514191266925;-;-;8.246124;-1.3393707;3.037735;-;-;-;-;-;-;-;-;-;-;-;-;-;-;-
1514191266946;-;-;8.357452;-1.0065765;3.3310242;-;-;-;-;-;-;-;-;-;-;-;-;-;-;-
1514191266966;-;-;7.8965607;-1.1873322;2.5672607;-;-;-;-;-;-;-;-;-;-;-;-;-;-;-
1514191266986;-;-;8.076126;-1.0233307;1.8095093;-;-;-;-;-;-;-;-;-;-;-;-;-;-;-
1514191267007;-;-;8.945221;-1.5596313;1.8681641;-;-;-;-;-;-;-;-;-;-;-;-;-;-;-
1514191267027;-;-;8.772842;-0.83299255;0.563324;-;-;-;-;-;-;-;-;-;-;-;-;-;-;-
1514191267047;-;-;11.03656;-1.0975494;3.461502;-;-;-;-;-;-;-;-;-;-;-;-;-;-;-
1514191267068;-;-;10.009445;-1.1059265;2.7623901;-;-;-;-;-;-;-;-;-;-;-;-;-;-;-
1514191267088;-;-;9.996277;-1.2843018;2.5708618;-;-;-;-;-;-;-;-;-;-;-;-;-;-;-
1514191267108;-;-;10.217743;-1.5763855;1.6047974;-;-;-;-;-;-;-;-;-;-;-;-;-;-;-
1514191267129;-;-;9.175064;-1.0077667;2.6127625;-;-;-;-;-;-;-;-;-;-;-;-;-;-;-
1514191267149;-;-;9.066132;-1.1729736;2.2057495;-;-;-;-;-;-;-;-;-;-;-;-;-;-;-
1514191267169;-;-;8.916504;-1.234024;1.5748749;-;-;-;-;-;-;-;-;-;-;-;-;-;-;-
1514191267190;-;-;8.050995;-1.0963593;2.2799683;-;-;-;-;-;-;-;-;-;-;-;-;-;-;-
1514191267209;-;-;8.374207;-1.2292328;2.4822693;-;-;-;-;-;-;-;-;-;-;-;-;-;-;-
1514191267229;-;-;8.801575;-1.4602661;2.52417;-;-;-;-;-;-;-;-;-;-;-;-;-;-;-
1514191267250;-;-;9.17627;-1.012558;4.371292;-;-;-;-;-;-;-;-;-;-;-;-;-;-;-
1514191267270;-;-;9.440826;-1.0077667;1.5605011;-;-;-;-;-;-;-;-;-;-;-;-;-;-;-
1514191267290;-;-;9.170288;-0.6821594;1.5473328;-;-;-;-;-;-;-;-;-;-;-;-;-;-;-
1514191267310;-;-;10.397308;-2.3150024;2.5445251;-;-;-;-;-;-;-;-;-;-;-;-;-;-;-
1514191267331;-;-;10.336258;-1.155014;2.2919312;-;-;-;-;-;-;-;-;-;-;-;-;-;-;-
1514191267350;-;-;10.042969;0.103149414;1.5628967;-;-;-;-;-;-;-;-;-;-;-;-;-;-;-
1514191267370;-;-;7.3339233;-0.94073486;1.176239;-;-;-;-;-;-;-;-;-;-;-;-;-;-;-
1514191267391;-;-;6.8754425;-2.1497955;0.2640381;-;-;-;-;-;-;-;-;-;-;-;-;-;-;-
1514191267411;-;-;7.8199463;-2.5101318;1.4455872;-;-;-;-;-;-;-;-;-;-;-;-;-;-;-
1514191267431;-;-;8.770447;-2.104309;3.01857;-;-;-;-;-;-;-;-;-;-;-;-;-;-;-
1514191267452;-;-;9.195419;-1.0879669;3.061676;-;-;-;-;-;-;-;-;-;-;-;-;-;-;-
1514191267472;-;-;8.376602;-0.5133667;1.9052734;-;-;-;-;-;-;-;-;-;-;-;-;-;-;-
1514191267492;-;-;7.4261017;-0.9622803;3.4483337;-;-;-;-;-;-;-;-;-;-;-;-;-;-;-
1514191267513;-;-;8.630386;-1.2507782;-0.3045807;-;-;-;-;-;-;-;-;-;-;-;-;-;-;-
1514191267533;-;-;8.511871;-0.91200256;-0.10346985;-;-;-;-;-;-;-;-;-;-;-;-;-;-;-
1514191267553;-;-;8.624405;-0.67736816;-0.20402527;-;-;-;-;-;-;-;-;-;-;-;-;-;-;-
1514191267574;-;-;7.8558655;-0.7084961;-1.7518768;-;-;-;-;-;-;-;-;-;-;-;-;-;-;-
1514191267594;-;-;7.4991302;-1.0161438;-2.0726929;-;-;-;-;-;-;-;-;-;-;-;-;-;-;-
1514191267614;-;-;6.822769;-0.4547119;-4.74942;-;-;-;-;-;-;-;-;-;-;-;-;-;-;-
1514191267634;-;-;5.549057;-0.7982788;-3.238678;-;-;-;-;-;-;-;-;-;-;-;-;-;-;-
1514191267655;-;-;4.6308746;-0.2212677;-2.2857819;-;-;-;-;-;-;-;-;-;-;-;-;-;-;-
1514191267675;-;-;4.8319855;0.02772522;-1.8572235;-;-;-;-;-;-;-;-;-;-;-;-;-;-;-
1514191267695;-;-;4.8942413;0.27552795;-1.480133;-;-;-;-;-;-;-;-;-;-;-;-;-;-;-
1514191267716;-;-;5.0762024;0.024139404;-1.5339966;-;-;-;-;-;-;-;-;-;-;-;-;-;-;-
1514191267736;-;-;4.984024;-0.85095215;-1.8129272;-;-;-;-;-;-;-;-;-;-;-;-;-;-;-
1514191267756;-;-;6.5953217;-0.97424316;-2.100235;-;-;-;-;-;-;-;-;-;-;-;-;-;-;-
1514191267777;-;-;8.18985;-1.3800659;-2.8663788;-;-;-;-;-;-;-;-;-;-;-;-;-;-;-
1514191267797;-;-;7.5290527;-1.6434326;-3.2530365;-;-;-;-;-;-;-;-;-;-;-;-;-;-;-
1514191267817;-;-;8.104858;-1.5081482;-4.044327;-;-;-;-;-;-;-;-;-;-;-;-;-;-;-
1514191267838;-;-;8.988327;-0.6402588;-3.693573;-;-;-;-;-;-;-;-;-;-;-;-;-;-;-
1514191267858;-;-;9.346252;-0.13508606;-3.4673157;-;-;-;-;-;-;-;-;-;-;-;-;-;-;-
1514191267878;-;-;9.847839;-0.78630066;-3.4529572;-;-;-;-;-;-;-;-;-;-;-;-;-;-;-
1514191267899;-;-;8.775238;-1.451889;-3.8025055;-;-;-;-;-;-;-;-;-;-;-;-;-;-;-
1514191267918;-;-;6.2900543;-1.6889191;-3.3344421;-;-;-;-;-;-;-;-;-;-;-;-;-;-;-
1514191267938;-;-;6.427719;-1.9367218;-5.2486115;-;-;-;-;-;-;-;-;-;-;-;-;-;-;-
1514191267959;-;-;8.362244;-1.5273132;-4.0251617;-;-;-;-;-;-;-;-;-;-;-;-;-;-;-
1514191267979;-;-;9.440826;-1.5153351;-4.7973022;-;-;-;-;-;-;-;-;-;-;-;-;-;-;-
1514191267999;-;-;9.21817;-1.3070374;-5.4736633;-;-;-;-;-;-;-;-;-;-;-;-;-;-;-
1514191268020;-;-;9.00029;-1.0233307;-5.444931;-;-;-;-;-;-;-;-;-;-;-;-;-;-;-
1514191268039;-;-;9.483917;-0.8856659;-5.666397;-;-;-;-;-;-;-;-;-;-;-;-;-;-;-
1514191268059;-;-;9.193024;-0.6797638;-6.681534;-;-;-;-;-;-;-;-;-;-;-;-;-;-;-
1514191268080;-;-;9.676651;-0.63067627;-7.333954;-;-;-;-;-;-;-;-;-;-;-;-;-;-;-
1514191268100;-;-;9.674255;-0.79348755;-7.242981;-;-;-;-;-;-;-;-;-;-;-;-;-;-;-
1514191268120;-;-;9.673065;-1.0161438;-6.760544;-;-;-;-;-;-;-;-;-;-;-;-;-;-;-
1514191268141;-;-;8.936844;-1.4099884;-6.6839294;-;-;-;-;-;-;-;-;-;-;-;-;-;-;-
1514191268160;-;-;8.070145;-1.3633118;-6.90419;-;-;-;-;-;-;-;-;-;-;-;-;-;-;-
1514191268180;-;-;8.077332;-0.88446045;-6.8120117;-;-;-;-;-;-;-;-;-;-;-;-;-;-;-
1514191268200;-;-;8.58371;-0.3972473;-6.8431396;-;-;-;-;-;-;-;-;-;-;-;-;-;-;-
1514191268221;-;-;8.191055;-0.3577423;-5.9931946;-;-;-;-;-;-;-;-;-;-;-;-;-;-;-
1514191268240;-;-;8.611237;-0.39604187;-4.832016;-;-;-;-;-;-;-;-;-;-;-;-;-;-;-
1514191268260;-;-;9.556946;-0.43077087;-3.978485;-;-;-;-;-;-;-;-;-;-;-;-;-;-;-
1514191268281;-;-;11.21254;-0.0728302;-4.426193;-;-;-;-;-;-;-;-;-;-;-;-;-;-;-
1514191268301;-;-;13.917984;1.9836426E-4;-5.6340637;-;-;-;-;-;-;-;-;-;-;-;-;-;-;-
1514191268321;-;-;15.161774;-0.090789795;-9.075729;-;-;-;-;-;-;-;-;-;-;-;-;-;-;-
1514191268342;-;-;14.836166;-0.8880615;-9.863434;-;-;-;-;-;-;-;-;-;-;-;-;-;-;-
1514191268362;-;-;13.678558;-1.4854126;-6.057846;-;-;-;-;-;-;-;-;-;-;-;-;-;-;-
1514191268382;-;-;11.68898;-1.1969147;-3.496048;-;-;-;-;-;-;-;-;-;-;-;-;-;-;-
1514191268403;-;-;8.279633;-0.6582184;-2.0750885;-;-;-;-;-;-;-;-;-;-;-;-;-;-;-
1514191268422;-;-;6.932907;-1.1179047;-0.496109;-;-;-;-;-;-;-;-;-;-;-;-;-;-;-
1514191268442;-;-;5.3623047;-1.4363251;2.0441284;-;-;-;-;-;-;-;-;-;-;-;-;-;-;-
1514191268463;-;-;2.4593353;-1.0257263;3.1622314;-;-;-;-;-;-;-;-;-;-;-;-;-;-;-
1514191268482;-;-;2.7550201;-0.59954834;2.3015137;-;-;-;-;-;-;-;-;-;-;-;-;-;-;-
1514191268503;-;-;5.418564;-0.25837708;-0.80137634;-;-;-;-;-;-;-;-;-;-;-;-;-;-;-
1514191268522;-;-;8.8602295;0.06602478;-2.8639832;-;-;-;-;-;-;-;-;-;-;-;-;-;-;-
1514191268542;-;-;13.531326;0.5664215;-4.773361;-;-;-;-;-;-;-;-;-;-;-;-;-;-;-
1514191268563;-;-;14.295074;0.7591553;-5.646042;-;-;-;-;-;-;-;-;-;-;-;-;-;-;-
1514191268582;-;-;12.584412;-0.03453064;-3.899475;-;-;-;-;-;-;-;-;-;-;-;-;-;-;-
1514191268602;-;-;11.102402;-0.6869507;-1.5830841;-;-;-;-;-;-;-;-;-;-;-;-;-;-;-
1514191268622;-;-;8.824326;-0.54689026;-0.44104004;-;-;-;-;-;-;-;-;-;-;-;-;-;-;-
1514191268643;-;-;6.9664154;-0.08001709;0.47233582;-;-;-;-;-;-;-;-;-;-;-;-;-;-;-
1514191268663;-;-;6.141617;0.5592346;1.4384003;-;-;-;-;-;-;-;-;-;-;-;-;-;-;-
1514191268683;-;-;5.394623;0.5472717;2.0249786;-;-;-;-;-;-;-;-;-;-;-;-;-;-;-
1514191268704;-;-;7.506317;0.021743774;0.3825531;-;-;-;-;-;-;-;-;-;-;-;-;-;-;-
1514191268724;-;-;9.565323;-0.20570374;-1.1425476;-;-;-;-;-;-;-;-;-;-;-;-;-;-;-
1514191268745;-;-;11.1371155;-0.32901;-2.4318237;-;-;-;-;-;-;-;-;-;-;-;-;-;-;-
1514191268765;-;-;11.103607;-0.15184021;-2.3001404;-;-;-;-;-;-;-;-;-;-;-;-;-;-;-
1514191268785;-;-;9.896927;0.11869812;-1.4202728;-;-;-;-;-;-;-;-;-;-;-;-;-;-;-
1514191268805;-;-;9.497086;0.03491211;-0.45899963;-;-;-;-;-;-;-;-;-;-;-;-;-;-;-
1514191268826;-;-;8.806366;-0.121917725;0.06652832;-;-;-;-;-;-;-;-;-;-;-;-;-;-;-
1514191268846;-;-;8.210205;0.074417114;0.3203125;-;-;-;-;-;-;-;-;-;-;-;-;-;-;-
1514191268866;-;-;8.273651;0.15940857;-0.1884613;-;-;-;-;-;-;-;-;-;-;-;-;-;-;-
1514191268887;-;-;8.661514;0.1953125;-0.73194885;-;-;-;-;-;-;-;-;-;-;-;-;-;-;-
1514191268907;-;-;9.151123;-0.030929565;-0.8767853;-;-;-;-;-;-;-;-;-;-;-;-;-;-;-
1514191268927;-;-;9.55336;-0.13269043;-0.99890137;-;-;-;-;-;-;-;-;-;-;-;-;-;-;-
1514191268948;-;-;9.695816;-0.0010070801;-1.2969818;-;-;-;-;-;-;-;-;-;-;-;-;-;-;-
1514191268968;-;-;9.734116;-0.03213501;-1.4346466;-;-;-;-;-;-;-;-;-;-;-;-;-;-;-
1514191268988;-;-;9.357025;-0.07522583;-1.3472595;-;-;-;-;-;-;-;-;-;-;-;-;-;-;-
1514191269008;-;-;9.020645;-0.13508606;-1.3496399;-;-;-;-;-;-;-;-;-;-;-;-;-;-;-
1514191269029;-;-;8.874603;-0.078811646;-1.4537964;-;-;-;-;-;-;-;-;-;-;-;-;-;-;-
1514191269048;-;-;8.977554;-0.01776123;-1.6130066;-;-;-;-;-;-;-;-;-;-;-;-;-;-;-
1514191269068;-;-;9.055359;0.1558075;-2.0188293;-;-;-;-;-;-;-;-;-;-;-;-;-;-;-
1514191269089;-;-;9.378571;0.09236145;-2.2378998;-;-;-;-;-;-;-;-;-;-;-;-;-;-;-
1514191269108;-;-;9.603638;-0.09197998;-2.203186;-;-;-;-;-;-;-;-;-;-;-;-;-;-;-
1514191269128;-;-;9.384567;-0.13986206;-2.5204163;-;-;-;-;-;-;-;-;-;-;-;-;-;-;-
1514191269149;-;-;8.975159;-0.11114502;-2.4509735;-;-;-;-;-;-;-;-;-;-;-;-;-;-;-
1514191269168;-;-;9.148727;0.1618042;-2.242691;-;-;-;-;-;-;-;-;-;-;-;-;-;-;-
1514191269188;-;-;9.102051;0.45628357;-2.5347748;-;-;-;-;-;-;-;-;-;-;-;-;-;-;-
1514191269209;-;-;8.778824;0.09475708;-2.603012;-;-;-;-;-;-;-;-;-;-;-;-;-;-;-
1514191269229;-;-;8.930862;-0.08720398;-2.594635;-;-;-;-;-;-;-;-;-;-;-;-;-;-;-
1514191269249;-;-;9.054169;-0.46427917;-2.1337433;-;-;-;-;-;-;-;-;-;-;-;-;-;-;-
1514191269269;-;-;9.037399;-0.5145569;-2.63414;-;-;-;-;-;-;-;-;-;-;-;-;-;-;-
1514191269290;-;-;9.131973;-0.2320404;-2.4653473;-;-;-;-;-;-;-;-;-;-;-;-;-;-;-
1514191269310;-;-;8.651932;-0.119522095;-3.0531158;-;-;-;-;-;-;-;-;-;-;-;-;-;-;-
1514191269330;-;-;9.438431;-0.21768188;-2.6401215;-;-;-;-;-;-;-;-;-;-;-;-;-;-;-
1514191269351;-;-;9.149933;-0.090789795;-2.7107544;-;-;-;-;-;-;-;-;-;-;-;-;-;-;-
1514191269371;-;-;9.263657;-0.12071228;-3.0483398;-;-;-;-;-;-;-;-;-;-;-;-;-;-;-
1514191269391;-;-;9.390549;-0.13748169;-2.8148956;-;-;-;-;-;-;-;-;-;-;-;-;-;-;-
1514191269412;-;-;9.468353;-0.121917725;-2.522812;-;-;-;-;-;-;-;-;-;-;-;-;-;-;-
1514191269432;-;-;8.996704;-0.3002777;-2.728714;-;-;-;-;-;-;-;-;-;-;-;-;-;-;-
1514191269452;-;-;8.733337;-0.27514648;-2.5934296;-;-;-;-;-;-;-;-;-;-;-;-;-;-;-
1514191269472;-;-;8.592087;-0.19613647;-2.2127533;-;-;-;-;-;-;-;-;-;-;-;-;-;-;-
1514191269492;-;-;8.698624;-0.059661865;-2.203186;-;-;-;-;-;-;-;-;-;-;-;-;-;-;-
1514191269512;-;-;8.836288;-0.17578125;-2.3193054;-;-;-;-;-;-;-;-;-;-;-;-;-;-;-
1514191269533;-;-;8.911713;-0.36132813;-2.6532898;-;-;-;-;-;-;-;-;-;-;-;-;-;-;-
1514191269553;-;-;9.252884;-0.47027588;-3.0076294;-;-;-;-;-;-;-;-;-;-;-;-;-;-;-
1514191269573;-;-;9.3151245;-0.70370483;-3.183609;-;-;-;-;-;-;-;-;-;-;-;-;-;-;-
1514191269594;-;-;9.355835;-0.92396545;-2.895111;-;-;-;-;-;-;-;-;-;-;-;-;-;-;-
1514191269614;-;-;9.428848;-1.1885223;-2.2486725;-;-;-;-;-;-;-;-;-;-;-;-;-;-;-
1514191269634;-;-;9.4887085;-0.79707336;-2.2893677;-;-;-;-;-;-;-;-;-;-;-;-;-;-;-
1514191269655;-;-;8.489136;-0.17578125;-2.630539;-;-;-;-;-;-;-;-;-;-;-;-;-;-;-
1514191269675;-;-;8.303574;-0.44992065;-2.594635;-;-;-;-;-;-;-;-;-;-;-;-;-;-;-
1514191269695;-;-;8.259293;-1.2843018;-1.8907318;-;-;-;-;-;-;-;-;-;-;-;-;-;-;-
1514191269716;-;-;8.574127;-1.8409424;-1.452591;-;-;-;-;-;-;-;-;-;-;-;-;-;-;-
1514191269736;-;-;8.404144;-1.1669769;-1.3256989;-;-;-;-;-;-;-;-;-;-;-;-;-;-;-
1514191269756;-;-;8.458008;0.19770813;-1.3041534;-;-;-;-;-;-;-;-;-;-;-;-;-;-;-
1514191269776;-;-;8.8003845;0.9925842;-1.2945862;-;-;-;-;-;-;-;-;-;-;-;-;-;-;-
1514191269797;-;-;9.291183;0.42515564;-0.93904114;-;-;-;-;-;-;-;-;-;-;-;-;-;-;-
1514191269817;-;-;10.655884;-0.77433777;-0.15493774;-;-;-;-;-;-;-;-;-;-;-;-;-;-;-
1514191269837;-;-;10.386536;-1.1418457;0.16827393;-;-;-;-;-;-;-;-;-;-;-;-;-;-;-
1514191269858;-;-;9.173874;-0.8353882;-0.7953949;-;-;-;-;-;-;-;-;-;-;-;-;-;-;-
1514191269877;-;-;8.1719055;-0.042907715;-1.3688049;-;-;-;-;-;-;-;-;-;-;-;-;-;-;-
1514191269897;-;-;9.351044;1.5205078;-0.2004242;-;-;-;-;-;-;-;-;-;-;-;-;-;-;-
1514191269917;-;-;10.588852;1.0189209;-1.0360107;-;-;-;-;-;-;-;-;-;-;-;-;-;-;-
1514191269938;-;-;9.436035;0.32939148;-1.7937775;-;-;-;-;-;-;-;-;-;-;-;-;-;-;-
1514191269957;-;-;8.135986;-0.368515;-1.7506714;-;-;-;-;-;-;-;-;-;-;-;-;-;-;-
1514191269977;-;-;7.4332886;-0.8102417;-1.006073;-;-;-;-;-;-;-;-;-;-;-;-;-;-;-
1514191269997;-;-;8.174301;-1.4387207;-0.104660034;-;-;-;-;-;-;-;-;-;-;-;-;-;-;-
1514191270018;-;-;8.976349;-1.4303436;-0.099868774;-;-;-;-;-;-;-;-;-;-;-;-;-;-;-
1514191270038;-;-;9.06015;-1.3238068;-1.2454987;-;-;-;-;-;-;-;-;-;-;-;-;-;-;-
1514191270058;-;-;9.0972595;-1.700882;-1.4310455;-;-;-;-;-;-;-;-;-;-;-;-;-;-;-
1514191270079;-;-;9.717361;-1.1801453;-1.2502899;-;-;-;-;-;-;-;-;-;-;-;-;-;-;-
1514191270099;-;-;9.936432;-0.08958435;-0.4745636;-;-;-;-;-;-;-;-;-;-;-;-;-;-;-
1514191270119;-;-;10.475128;0.07321167;-0.7738342;-;-;-;-;-;-;-;-;-;-;-;-;-;-;-
1514191270140;-;-;10.274002;0.21806335;-0.35604858;-;-;-;-;-;-;-;-;-;-;-;-;-;-;-
1514191270160;-;-;9.702988;0.3497467;-1.0204468;-;-;-;-;-;-;-;-;-;-;-;-;-;-;-
1514191270180;-;-;8.8997345;0.66218567;-1.0970612;-;-;-;-;-;-;-;-;-;-;-;-;-;-;-
1514191270201;-;-;8.359848;0.93392944;-0.5787201;-;-;-;-;-;-;-;-;-;-;-;-;-;-;-
1514191270221;-;-;8.560959;0.82858276;0.03779602;-;-;-;-;-;-;-;-;-;-;-;-;-;-;-
1514191270241;-;-;9.266052;0.11869812;0.3095398;-;-;-;-;-;-;-;-;-;-;-;-;-;-;-
1514191270262;-;-;9.71257;-0.28471375;-0.4350586;-;-;-;-;-;-;-;-;-;-;-;-;-;-;-
1514191270282;-;-;9.65152;0.18693542;-0.5930786;-;-;-;-;-;-;-;-;-;-;-;-;-;-;-
1514191270302;-;-;9.802353;0.5700073;-0.17170715;-;-;-;-;-;-;-;-;-;-;-;-;-;-;-
1514191270322;-;-;9.664688;0.64782715;0.065322876;-;-;-;-;-;-;-;-;-;-;-;-;-;-;-
1514191270343;-;-;9.371399;0.88723755;0.038986206;-;-;-;-;-;-;-;-;-;-;-;-;-;-;-
1514191270363;-;-;9.374985;0.9483032;-0.04600525;-;-;-;-;-;-;-;-;-;-;-;-;-;-;-
1514191270384;-;-;9.43364;1.0440674;-0.047195435;-;-;-;-;-;-;-;-;-;-;-;-;-;-;-
1514191270404;-;-;9.322311;0.8226013;0.37657166;-;-;-;-;-;-;-;-;-;-;-;-;-;-;-
1514191270424;-;-;9.213379;0.44551086;0.4005127;-;-;-;-;-;-;-;-;-;-;-;-;-;-;-
1514191270444;-;-;9.041;0.3892517;0.41726685;-;-;-;-;-;-;-;-;-;-;-;-;-;-;-
1514191270465;-;-;9.388153;0.8896332;0.57888794;-;-;-;-;-;-;-;-;-;-;-;-;-;-;-
1514191270485;-;-;9.538986;0.68852234;0.93322754;-;-;-;-;-;-;-;-;-;-;-;-;-;-;-
1514191270505;-;-;9.564133;0.06364441;0.8123169;-;-;-;-;-;-;-;-;-;-;-;-;-;-;-
1514191270526;-;-;8.970367;-0.114730835;0.9116821;-;-;-;-;-;-;-;-;-;-;-;-;-;-;-
1514191270546;-;-;9.172684;-0.31225586;0.9715271;-;-;-;-;-;-;-;-;-;-;-;-;-;-;-
1514191270566;-;-;8.548981;0.30065918;1.1499023;-;-;-;-;-;-;-;-;-;-;-;-;-;-;-
1514191270587;-;-;8.177887;0.64183044;1.512619;-;-;-;-;-;-;-;-;-;-;-;-;-;-;-
1514191270607;-;-;7.9145203;0.85491943;1.5748749;-;-;-;-;-;-;-;-;-;-;-;-;-;-;-
1514191270627;-;-;8.801575;1.2679291;1.801117;-;-;-;-;-;-;-;-;-;-;-;-;-;-;-
1514191270648;-;-;9.129578;1.2990417;1.7999268;-;-;-;-;-;-;-;-;-;-;-;-;-;-;-
1514191270668;-;-;9.615601;1.1877136;1.7125397;-;-;-;-;-;-;-;-;-;-;-;-;-;-;-
1514191270688;-;-;9.774811;1.2391968;2.0525208;-;-;-;-;-;-;-;-;-;-;-;-;-;-;-
1514191270709;-;-;9.221756;1.3289795;1.9950562;-;-;-;-;-;-;-;-;-;-;-;-;-;-;-
1514191270730;-;-;8.492722;1.2703094;1.6263428;-;-;-;-;-;-;-;-;-;-;-;-;-;-;-
1514191270750;-;-;8.493927;1.2691193;1.8513947;-;-;-;-;-;-;-;-;-;-;-;-;-;-;-
1514191270770;-;-;8.548981;1.4989624;2.5576935;-;-;-;-;-;-;-;-;-;-;-;-;-;-;-
1514191270790;-;-;7.9839478;1.8257751;2.6055756;-;-;-;-;-;-;-;-;-;-;-;-;-;-;-
1514191270810;-;-;8.345474;1.7671051;2.1267395;-;-;-;-;-;-;-;-;-;-;-;-;-;-;-
1514191270831;-;-;8.735733;1.5983276;2.1315155;-;-;-;-;-;-;-;-;-;-;-;-;-;-;-
1514191270851;-;-;8.479553;1.5863495;2.3589783;-;-;-;-;-;-;-;-;-;-;-;-;-;-;-
1514191270871;-;-;8.848267;1.4283295;2.484665;-;-;-;-;-;-;-;-;-;-;-;-;-;-;-
1514191270892;-;-;8.562149;1.4163666;2.4738922;-;-;-;-;-;-;-;-;-;-;-;-;-;-;-
1514191270912;-;-;8.38858;1.7695007;2.4475555;-;-;-;-;-;-;-;-;-;-;-;-;-;-;-
1514191270932;-;-;8.368225;2.0807495;2.6738129;-;-;-;-;-;-;-;-;-;-;-;-;-;-;-
1514191270952;-;-;8.292801;2.078354;2.7839355;-;-;-;-;-;-;-;-;-;-;-;-;-;-;-
1514191270973;-;-;8.593277;1.3840332;2.560089;-;-;-;-;-;-;-;-;-;-;-;-;-;-;-
1514191270993;-;-;8.832703;0.7615509;2.4403687;-;-;-;-;-;-;-;-;-;-;-;-;-;-;-
1514191271013;-;-;8.747711;0.39404297;2.6055756;-;-;-;-;-;-;-;-;-;-;-;-;-;-;-
1514191271034;-;-;8.411316;0.49699402;3.0293427;-;-;-;-;-;-;-;-;-;-;-;-;-;-;-
1514191271053;-;-;8.438858;0.6238861;3.1897583;-;-;-;-;-;-;-;-;-;-;-;-;-;-;-
1514191271073;-;-;8.613632;0.75556946;3.153839;-;-;-;-;-;-;-;-;-;-;-;-;-;-;-
1514191271094;-;-;8.8051605;0.7136688;2.9575195;-;-;-;-;-;-;-;-;-;-;-;-;-;-;-
1514191271114;-;-;8.638763;0.93273926;3.034134;-;-;-;-;-;-;-;-;-;-;-;-;-;-;-
1514191271134;-;-;8.355057;1.3229828;3.386078;-;-;-;-;-;-;-;-;-;-;-;-;-;-;-
1514191271154;-;-;8.23056;1.4822083;3.6434631;-;-;-;-;-;-;-;-;-;-;-;-;-;-;-
1514191271175;-;-;8.431671;1.4570618;3.7212677;-;-;-;-;-;-;-;-;-;-;-;-;-;-;-
1514191271195;-;-;8.745316;1.382843;3.5596619;-;-;-;-;-;-;-;-;-;-;-;-;-;-;-
1514191271215;-;-;8.993118;1.4893799;3.2975006;-;-;-;-;-;-;-;-;-;-;-;-;-;-;-
1514191271236;-;-;9.149933;1.714447;2.9108276;-;-;-;-;-;-;-;-;-;-;-;-;-;-;-
1514191271256;-;-;9.145142;1.619873;2.7683868;-;-;-;-;-;-;-;-;-;-;-;-;-;-;-
1514191271276;-;-;9.094864;1.3349609;2.7348633;-;-;-;-;-;-;-;-;-;-;-;-;-;-;-
1514191271297;-;-;8.903336;1.070404;2.9012604;-;-;-;-;-;-;-;-;-;-;-;-;-;-;-
1514191271317;-;-;8.729752;0.95547485;2.8940735;-;-;-;-;-;-;-;-;-;-;-;-;-;-;-
1514191271337;-;-;8.690247;0.7878876;2.7121124;-;-;-;-;-;-;-;-;-;-;-;-;-;-;-
1514191271358;-;-;8.824326;0.6466217;2.496643;-;-;-;-;-;-;-;-;-;-;-;-;-;-;-
1514191271378;-;-;9.09845;0.30903625;2.6546478;-;-;-;-;-;-;-;-;-;-;-;-;-;-;-
1514191271398;-;-;9.284012;-0.050079346;2.6953583;-;-;-;-;-;-;-;-;-;-;-;-;-;-;-
1514191271419;-;-;9.13916;-0.24401855;2.7875366;-;-;-;-;-;-;-;-;-;-;-;-;-;-;-
1514191271439;-;-;8.888962;-0.26914978;2.7791595;-;-;-;-;-;-;-;-;-;-;-;-;-;-;-
1514191271459;-;-;8.735733;-0.39126587;2.4044647;-;-;-;-;-;-;-;-;-;-;-;-;-;-;-
1514191271479;-;-;8.965576;-0.6222992;2.706131;-;-;-;-;-;-;-;-;-;-;-;-;-;-;-
1514191271500;-;-;9.042191;-0.9263611;3.327423;-;-;-;-;-;-;-;-;-;-;-;-;-;-;-
1514191271520;-;-;9.027832;-0.8353882;3.82901;-;-;-;-;-;-;-;-;-;-;-;-;-;-;-
1514191271540;-;-;8.659119;-0.32302856;3.4638977;-;-;-;-;-;-;-;-;-;-;-;-;-;-;-
1514191271561;-;-;8.608841;-0.03213501;3.4327698;-;-;-;-;-;-;-;-;-;-;-;-;-;-;-
1514191271581;-;-;8.492722;0.10673523;3.5261383;-;-;-;-;-;-;-;-;-;-;-;-;-;-;-
1514191271601;-;-;8.096481;0.20610046;3.4579163;-;-;-;-;-;-;-;-;-;-;-;-;-;-;-
1514191271621;-;-;8.321533;0.07800293;3.8744965;-;-;-;-;-;-;-;-;-;-;-;-;-;-;-
1514191271642;-;-;8.216187;-0.112335205;4.002594;-;-;-;-;-;-;-;-;-;-;-;-;-;-;-
1514191271662;-;-;8.199432;-0.018966675;3.8792877;-;-;-;-;-;-;-;-;-;-;-;-;-;-;-
1514191271682;-;-;8.82312;0.10194397;4.0768127;-;-;-;-;-;-;-;-;-;-;-;-;-;-;-
1514191271703;-;-;8.165909;0.29109192;4.274338;-;-;-;-;-;-;-;-;-;-;-;-;-;-;-
1514191271723;-;-;8.027054;0.59155273;4.319824;-;-;-;-;-;-;-;-;-;-;-;-;-;-;-
1514191271743;-;-;8.5238495;0.714859;4.2886963;-;-;-;-;-;-;-;-;-;-;-;-;-;-;-
1514191271763;-;-;7.971985;0.46347046;4.4000244;-;-;-;-;-;-;-;-;-;-;-;-;-;-;-
1514191271784;-;-;7.805588;0.4467163;4.749588;-;-;-;-;-;-;-;-;-;-;-;-;-;-;-
1514191271805;-;-;7.924103;0.47543335;4.5628357;-;-;-;-;-;-;-;-;-;-;-;-;-;-;-
1514191271825;-;-;8.083313;0.30065918;4.239624;-;-;-;-;-;-;-;-;-;-;-;-;-;-;-
1514191271845;-;-;7.6104584;0.26115417;4.2132874;-;-;-;-;-;-;-;-;-;-;-;-;-;-;-
1514191271865;-;-;7.446457;0.44432068;4.440735;-;-;-;-;-;-;-;-;-;-;-;-;-;-;-
1514191271886;-;-;7.415329;0.6717682;4.832184;-;-;-;-;-;-;-;-;-;-;-;-;-;-;-
1514191271906;-;-;7.9025574;0.69091797;5.062027;-;-;-;-;-;-;-;-;-;-;-;-;-;-;-
1514191271926;-;-;7.9935303;0.5532532;4.8752747;-;-;-;-;-;-;-;-;-;-;-;-;-;-;-
1514191271947;-;-;7.7265778;0.5819855;4.57959;-;-;-;-;-;-;-;-;-;-;-;-;-;-;-
1514191271967;-;-;8.483139;0.26115417;4.689728;-;-;-;-;-;-;-;-;-;-;-;-;-;-;-
1514191271987;-;-;7.9743805;0.24798584;4.833374;-;-;-;-;-;-;-;-;-;-;-;-;-;-;-
1514191272008;-;-;7.8163605;0.27792358;4.994995;-;-;-;-;-;-;-;-;-;-;-;-;-;-;-
1514191272028;-;-;7.7205963;0.29826355;5.0644226;-;-;-;-;-;-;-;-;-;-;-;-;-;-;-
1514191272048;-;-;7.7577057;0.3317871;5.1673737;-;-;-;-;-;-;-;-;-;-;-;-;-;-;-
1514191272069;-;-;7.8965607;0.2635498;5.1829376;-;-;-;-;-;-;-;-;-;-;-;-;-;-;-
1514191272089;-;-;7.921707;0.22883606;5.1518097;-;-;-;-;-;-;-;-;-;-;-;-;-;-;-
1514191272109;-;-;7.9396667;0.19770813;5.047653;-;-;-;-;-;-;-;-;-;-;-;-;-;-;-
1514191272130;-;-;7.9827576;0.2850952;5.0285034;-;-;-;-;-;-;-;-;-;-;-;-;-;-;-
1514191272150;-;-;8.004303;0.44192505;5.0524445;-;-;-;-;-;-;-;-;-;-;-;-;-;-;-
1514191272170;-;-;8.037827;0.457489;4.943512;-;-;-;-;-;-;-;-;-;-;-;-;-;-;-
1514191272190;-;-;7.884598;0.43354797;4.7759247;-;-;-;-;-;-;-;-;-;-;-;-;-;-;-
1514191272211;-;-;7.7182007;0.6250763;4.7471924;-;-;-;-;-;-;-;-;-;-;-;-;-;-;-
1514191272231;-;-;7.703827;0.88365173;4.845352;-;-;-;-;-;-;-;-;-;-;-;-;-;-;-
1514191272251;-;-;7.944458;1.0201263;4.6813507;-;-;-;-;-;-;-;-;-;-;-;-;-;-;-
1514191272271;-;-;8.205414;1.0560303;4.385666;-;-;-;-;-;-;-;-;-;-;-;-;-;-;-
1514191272292;-;-;7.948044;1.0332947;4.109131;-;-;-;-;-;-;-;-;-;-;-;-;-;-;-
1514191272312;-;-;7.7337646;1.0572357;3.6757813;-;-;-;-;-;-;-;-;-;-;-;-;-;-;-
1514191272332;-;-;7.7996063;0.9111786;4.2216644;-;-;-;-;-;-;-;-;-;-;-;-;-;-;-
1514191272352;-;-;8.277252;0.88604736;4.833374;-;-;-;-;-;-;-;-;-;-;-;-;-;-;-
1514191272375;-;-;8.739319;0.9183655;4.6765594;-;-;-;-;-;-;-;-;-;-;-;-;-;-;-
1514191272396;-;-;8.418503;0.9363251;4.030121;-;-;-;-;-;-;-;-;-;-;-;-;-;-;-
1514191272416;-;-;7.9264984;0.8716736;3.9666748;-;-;-;-;-;-;-;-;-;-;-;-;-;-;-
1514191272436;-;-;7.901352;0.64183044;4.148636;-;-;-;-;-;-;-;-;-;-;-;-;-;-;-
1514191272456;-;-;7.8570557;0.46705627;4.196518;-;-;-;-;-;-;-;-;-;-;-;-;-;-;-
1514191272476;-;-;7.9588165;0.37487793;4.074417;-;-;-;-;-;-;-;-;-;-;-;-;-;-;-
1514191272497;-;-;8.326324;0.6789551;4.631073;-;-;-;-;-;-;-;-;-;-;-;-;-;-;-
1514191272517;-;-;7.9791718;0.51493835;4.8022614;-;-;-;-;-;-;-;-;-;-;-;-;-;-;-
1514191272537;-;-;8.247314;0.49938965;5.003372;-;-;-;-;-;-;-;-;-;-;-;-;-;-;-
1514191272558;-;-;8.48674;0.19293213;4.8465424;-;-;-;-;-;-;-;-;-;-;-;-;-;-;-
1514191272579;-;-;8.657928;-0.36013794;4.725647;-;-;-;-;-;-;-;-;-;-;-;-;-;-;-
1514191272600;-;-;8.590881;-0.51815796;4.6203003;-;-;-;-;-;-;-;-;-;-;-;-;-;-;-
1514191272620;-;-;8.400543;-0.33259583;4.912384;-;-;-;-;-;-;-;-;-;-;-;-;-;-;-
1514191272641;-;-;8.18866;-0.4343567;4.9459076;-;-;-;-;-;-;-;-;-;-;-;-;-;-;-
1514191272660;-;-;7.9839478;-0.5935669;4.857315;-;-;-;-;-;-;-;-;-;-;-;-;-;-;-
1514191272680;-;-;8.009094;-0.8665161;4.9566803;-;-;-;-;-;-;-;-;-;-;-;-;-;-;-
1514191272700;-;-;8.390976;-0.94192505;4.437134;-;-;-;-;-;-;-;-;-;-;-;-;-;-;-
1514191272721;-;-;8.672287;-0.6031494;3.9726563;-;-;-;-;-;-;-;-;-;-;-;-;-;-;-
1514191272740;-;-;8.690247;-0.22366333;3.6099396;-;-;-;-;-;-;-;-;-;-;-;-;-;-;-
1514191272760;-;-;8.369415;-0.02015686;3.7691498;-;-;-;-;-;-;-;-;-;-;-;-;-;-;-
1514191272780;-;-;8.392166;0.019348145;4.1318817;-;-;-;-;-;-;-;-;-;-;-;-;-;-;-
1514191272801;-;-;8.286819;-0.23564148;4.0875854;-;-;-;-;-;-;-;-;-;-;-;-;-;-;-
1514191272820;-;-;8.006699;-0.70729065;3.7128906;-;-;-;-;-;-;-;-;-;-;-;-;-;-;-
1514191272840;-;-;8.412521;-0.98023987;3.6889496;-;-;-;-;-;-;-;-;-;-;-;-;-;-;-
1514191272861;-;-;8.541809;-0.98861694;4.1546173;-;-;-;-;-;-;-;-;-;-;-;-;-;-;-
1514191272881;-;-;8.122818;-0.71447754;4.516144;-;-;-;-;-;-;-;-;-;-;-;-;-;-;-
1514191272902;-;-;7.8474884;-0.40682983;4.686142;-;-;-;-;-;-;-;-;-;-;-;-;-;-;-
1514191272921;-;-;8.34668;-0.26197815;4.790283;-;-;-;-;-;-;-;-;-;-;-;-;-;-;-
1514191272944;-;-;8.588486;-0.56604004;5.029709;-;-;-;-;-;-;-;-;-;-;-;-;-;-;-
1514191272962;-;-;8.191055;-0.8425598;4.8345795;-;-;-;-;-;-;-;-;-;-;-;-;-;-;-
1514191272982;-;-;8.103668;-0.7228546;4.392853;-;-;-;-;-;-;-;-;-;-;-;-;-;-;-
1514191273003;-;-;8.128799;-0.40203857;4.2851105;-;-;-;-;-;-;-;-;-;-;-;-;-;-;-
1514191273023;-;-;7.794815;-0.1410675;4.6250763;-;-;-;-;-;-;-;-;-;-;-;-;-;-;-
1514191273043;-;-;7.1675262;0.072021484;4.987808;-;-;-;-;-;-;-;-;-;-;-;-;-;-;-
1514191273063;-;-;6.9005737;0.1845398;5.21286;-;-;-;-;-;-;-;-;-;-;-;-;-;-;-
1514191273083;-;-;7.6236267;0.019348145;5.2655334;-;-;-;-;-;-;-;-;-;-;-;-;-;-;-
1514191273104;-;-;8.033035;-0.2212677;4.991394;-;-;-;-;-;-;-;-;-;-;-;-;-;-;-
1514191273124;-;-;7.9420624;-0.035720825;4.769928;-;-;-;-;-;-;-;-;-;-;-;-;-;-;-
1514191273144;-;-;7.442871;0.16299438;4.942322;-;-;-;-;-;-;-;-;-;-;-;-;-;-;-
1514191273164;-;-;7.0729675;0.09475708;5.2224426;-;-;-;-;-;-;-;-;-;-;-;-;-;-;-
1514191273184;-;-;7.1687317;0.117507935;5.402008;-;-;-;-;-;-;-;-;-;-;-;-;-;-;-
1514191273205;-;-;7.8331146;0.22883606;5.4151764;-;-;-;-;-;-;-;-;-;-;-;-;-;-;-
1514191273225;-;-;8.635178;0.32460022;5.149414;-;-;-;-;-;-;-;-;-;-;-;-;-;-;-
1514191273245;-;-;8.529831;0.15940857;4.924362;-;-;-;-;-;-;-;-;-;-;-;-;-;-;-
1514191273265;-;-;7.8367157;-0.040512085;5.0285034;-;-;-;-;-;-;-;-;-;-;-;-;-;-;-
1514191273286;-;-;7.541031;-0.040512085;5.2020874;-;-;-;-;-;-;-;-;-;-;-;-;-;-;-
1514191273306;-;-;7.4811707;0.115112305;5.2691193;-;-;-;-;-;-;-;-;-;-;-;-;-;-;-
1514191273326;-;-;7.292038;0.25038147;5.1853333;-;-;-;-;-;-;-;-;-;-;-;-;-;-;-
1514191273347;-;-;7.2477417;0.38206482;5.0991364;-;-;-;-;-;-;-;-;-;-;-;-;-;-;-
1514191273367;-;-;7.511093;0.4909973;5.3134155;-;-;-;-;-;-;-;-;-;-;-;-;-;-;-
1514191273387;-;-;7.8750153;0.33418274;5.7994385;-;-;-;-;-;-;-;-;-;-;-;-;-;-;-
1514191273407;-;-;7.8594513;-0.08001709;5.5863495;-;-;-;-;-;-;-;-;-;-;-;-;-;-;-
1514191273428;-;-;7.7361603;-0.30148315;5.149414;-;-;-;-;-;-;-;-;-;-;-;-;-;-;-
1514191273448;-;-;7.787628;-0.41999817;5.1350555;-;-;-;-;-;-;-;-;-;-;-;-;-;-;-
1514191273468;-;-;7.9109344;-0.17817688;5.302643;-;-;-;-;-;-;-;-;-;-;-;-;-;-;-
1514191273490;-;-;7.973175;0.17376709;5.1350555;-;-;-;-;-;-;-;-;-;-;-;-;-;-;-
1514191273510;-;-;7.8570557;0.25756836;4.81662;-;-;-;-;-;-;-;-;-;-;-;-;-;-;-
1514191273530;-;-;7.806778;0.3569336;4.7232513;-;-;-;-;-;-;-;-;-;-;-;-;-;-;-
1514191273550;-;-;7.921707;0.4586792;4.7843018;-;-;-;-;-;-;-;-;-;-;-;-;-;-;-
1514191273570;-;-;8.023453;0.55085754;4.8262024;-;-;-;-;-;-;-;-;-;-;-;-;-;-;-
1514191273591;-;-;8.010284;0.5855713;4.8836517;-;-;-;-;-;-;-;-;-;-;-;-;-;-;-
1514191273611;-;-;7.9025574;0.5352936;4.9459076;-;-;-;-;-;-;-;-;-;-;-;-;-;-;-
1514191273631;-;-;7.779251;0.31263733;5.039276;-;-;-;-;-;-;-;-;-;-;-;-;-;-;-
1514191273651;-;-;7.727768;0.095962524;5.102722;-;-;-;-;-;-;-;-;-;-;-;-;-;-;-
1514191273671;-;-;7.7361603;-0.02015686;5.216446;-;-;-;-;-;-;-;-;-;-;-;-;-;-;-
1514191273692;-;-;7.719391;-0.08958435;5.2978516;-;-;-;-;-;-;-;-;-;-;-;-;-;-;-
1514191273712;-;-;7.732559;-0.17219543;5.3541107;-;-;-;-;-;-;-;-;-;-;-;-;-;-;-
1514191273732;-;-;7.7840424;-0.119522095;5.3253937;-;-;-;-;-;-;-;-;-;-;-;-;-;-;-
1514191273753;-;-;7.7373505;-0.062057495;5.235611;-;-;-;-;-;-;-;-;-;-;-;-;-;-;-
1514191273772;-;-;7.6547546;0.036102295;5.235611;-;-;-;-;-;-;-;-;-;-;-;-;-;-;-
1514191273792;-;-;7.609268;0.04208374;5.2774963;-;-;-;-;-;-;-;-;-;-;-;-;-;-;-
1514191273813;-;-;7.648773;-0.028533936;5.278702;-;-;-;-;-;-;-;-;-;-;-;-;-;-;-
1514191273833;-;-;7.6906586;-0.03930664;5.2930603;-;-;-;-;-;-;-;-;-;-;-;-;-;-;-
1514191273852;-;-;7.7457275;-0.012969971;5.271515;-;-;-;-;-;-;-;-;-;-;-;-;-;-;-
1514191273872;-;-;7.6583405;0.0037841797;5.260742;-;-;-;-;-;-;-;-;-;-;-;-;-;-;-
1514191273893;-;-;7.611664;0.013366699;5.3134155;-;-;-;-;-;-;-;-;-;-;-;-;-;-;-
1514191273913;-;-;7.573349;0.083984375;5.4319305;-;-;-;-;-;-;-;-;-;-;-;-;-;-;-
1514191273934;-;-;7.5961;0.093566895;5.39003;-;-;-;-;-;-;-;-;-;-;-;-;-;-;-
1514191273954;-;-;7.6463776;0.17137146;5.3601074;-;-;-;-;-;-;-;-;-;-;-;-;-;-;-
1514191273974;-;-;7.6786957;0.14025879;5.355316;-;-;-;-;-;-;-;-;-;-;-;-;-;-;-
1514191273994;-;-;7.700241;0.19293213;5.366089;-;-;-;-;-;-;-;-;-;-;-;-;-;-;-
1514191274015;-;-;7.6032715;0.117507935;5.5456543;-;-;-;-;-;-;-;-;-;-;-;-;-;-;-
1514191274035;-;-;7.5865173;0.2192688;5.619873;-;-;-;-;-;-;-;-;-;-;-;-;-;-;-
1514191274056;-;-;7.6224365;0.27792358;5.4666443;-;-;-;-;-;-;-;-;-;-;-;-;-;-;-
1514191274076;-;-;7.605667;0.3174286;5.2703247;-;-;-;-;-;-;-;-;-;-;-;-;-;-;-
1514191274096;-;-;7.5865173;0.26235962;5.2344055;-;-;-;-;-;-;-;-;-;-;-;-;-;-;-
1514191274116;-;-;7.648773;0.11152649;5.357712;-;-;-;-;-;-;-;-;-;-;-;-;-;-;-
1514191274137;-;-;7.6571503;-0.021362305;5.295456;-;-;-;-;-;-;-;-;-;-;-;-;-;-;-
1514191274157;-;-;7.671509;-0.16261292;5.0440674;-;-;-;-;-;-;-;-;-;-;-;-;-;-;-
1514191274177;-;-;7.949234;-0.28831482;5.0368805;-;-;-;-;-;-;-;-;-;-;-;-;-;-;-
1514191274198;-;-;8.138382;-0.24281311;5.160187;-;-;-;-;-;-;-;-;-;-;-;-;-;-;-
1514191274217;-;-;7.739746;-0.0440979;5.121887;-;-;-;-;-;-;-;-;-;-;-;-;-;-;-
1514191274237;-;-;7.398575;-0.02494812;5.2248383;-;-;-;-;-;-;-;-;-;-;-;-;-;-;-
1514191274258;-;-;7.940857;-0.105148315;5.2858887;-;-;-;-;-;-;-;-;-;-;-;-;-;-;-
1514191274278;-;-;7.7852325;-0.04170227;5.245178;-;-;-;-;-;-;-;-;-;-;-;-;-;-;-
1514191274299;-;-;7.882202;-0.069244385;5.1829376;-;-;-;-;-;-;-;-;-;-;-;-;-;-;-
1514191274319;-;-;7.93367;-0.09677124;5.0716095;-;-;-;-;-;-;-;-;-;-;-;-;-;-;-
1514191274339;-;-;7.8881836;-0.11114502;5.0165405;-;-;-;-;-;-;-;-;-;-;-;-;-;-;-
1514191274359;-;-;7.870224;-0.12071228;4.979431;-;-;-;-;-;-;-;-;-;-;-;-;-;-;-
1514191274380;-;-;7.8714294;-0.14944458;4.9698486;-;-;-;-;-;-;-;-;-;-;-;-;-;-;-
1514191274400;-;-;7.8163605;-0.09197998;5.0716095;-;-;-;-;-;-;-;-;-;-;-;-;-;-;-
1514191274421;-;-;7.724182;-0.00819397;5.1506042;-;-;-;-;-;-;-;-;-;-;-;-;-;-;-
1514191274441;-;-;7.699051;0.019348145;5.085968;-;-;-;-;-;-;-;-;-;-;-;-;-;-;-
1514191274461;-;-;7.841507;0.021743774;4.998581;-;-;-;-;-;-;-;-;-;-;-;-;-;-;-
1514191274482;-;-;7.9660034;0.03491211;4.984207;-;-;-;-;-;-;-;-;-;-;-;-;-;-;-
1514191274502;-;-;7.8355103;0.072021484;5.014145;-;-;-;-;-;-;-;-;-;-;-;-;-;-;-
1514191274523;-;-;7.7217865;0.20610046;5.188919;-;-;-;-;-;-;-;-;-;-;-;-;-;-;-
1514191274542;-;-;7.67511;0.23721313;5.2332153;-;-;-;-;-;-;-;-;-;-;-;-;-;-;-
1514191274562;-;-;7.7493286;0.13905334;5.284683;-;-;-;-;-;-;-;-;-;-;-;-;-;-;-
1514191274583;-;-;7.8355103;0.08279419;5.1901093;-;-;-;-;-;-;-;-;-;-;-;-;-;-;-
1514191274602;-;-;7.9228973;-0.015365601;4.9937897;-;-;-;-;-;-;-;-;-;-;-;-;-;-;-
1514191274622;-;-;7.8091736;0.057647705;5.045273;-;-;-;-;-;-;-;-;-;-;-;-;-;-;-
1514191274643;-;-;7.707428;0.06364441;5.1362457;-;-;-;-;-;-;-;-;-;-;-;-;-;-;-
1514191274663;-;-;7.858261;0.016952515;4.939926;-;-;-;-;-;-;-;-;-;-;-;-;-;-;-
1514191274683;-;-;7.8750153;-0.050079346;4.801056;-;-;-;-;-;-;-;-;-;-;-;-;-;-;-
1514191274704;-;-;7.7936096;-0.09197998;4.9686584;-;-;-;-;-;-;-;-;-;-;-;-;-;-;-
1514191274723;-;-;7.8127747;-0.12310791;5.010544;-;-;-;-;-;-;-;-;-;-;-;-;-;-;-
1514191274743;-;-;7.890579;-0.13627625;5.058441;-;-;-;-;-;-;-;-;-;-;-;-;-;-;-
1514191274764;-;-;7.906143;-0.071640015;5.0129395;-;-;-;-;-;-;-;-;-;-;-;-;-;-;-
1514191274784;-;-;7.763687;-0.05128479;5.0093536;-;-;-;-;-;-;-;-;-;-;-;-;-;-;-
1514191274805;-;-;7.7768555;0.02053833;5.0009766;-;-;-;-;-;-;-;-;-;-;-;-;-;-;-
1514191274825;-;-;7.822342;0.016952515;4.927948;-;-;-;-;-;-;-;-;-;-;-;-;-;-;-
1514191274844;-;-;7.8283386;0.03012085;4.9650574;-;-;-;-;-;-;-;-;-;-;-;-;-;-;-
1514191274864;-;-;7.8522797;0.038497925;5.0249176;-;-;-;-;-;-;-;-;-;-;-;-;-;-;-
1514191274884;-;-;7.837906;0.028915405;5.05365;-;-;-;-;-;-;-;-;-;-;-;-;-;-;-
1514191274905;-;-;7.8486786;0.021743774;5.0727997;-;-;-;-;-;-;-;-;-;-;-;-;-;-;-
1514191274925;-;-;7.35907;0.22525024;4.97583;-;-;-;-;-;-;-;-;-;-;-;-;-;-;-
1514191274945;-;-;8.203018;-0.00579834;5.085968;-;-;-;-;-;-;-;-;-;-;-;-;-;-;-
1514191274966;-;-;7.7996063;0.11631775;5.1278687;-;-;-;-;-;-;-;-;-;-;-;-;-;-;-
1514191274986;-;-;7.748123;0.1558075;5.192505;-;-;-;-;-;-;-;-;-;-;-;-;-;-;-
1514191275007;-;-;7.802002;0.119903564;5.0727997;-;-;-;-;-;-;-;-;-;-;-;-;-;-;-
1514191275027;-;-;7.772064;0.14025879;5.0967407;-;-;-;-;-;-;-;-;-;-;-;-;-;-;-
1514191275047;-;-;7.6763;0.20489502;5.07399;-;-;-;-;-;-;-;-;-;-;-;-;-;-;-
1514191275067;-;-;7.908539;0.11869812;5.2224426;-;-;-;-;-;-;-;-;-;-;-;-;-;-;-
1514191275087;-;-;7.7816467;0.15342712;5.199692;-;-;-;-;-;-;-;-;-;-;-;-;-;-;-
1514191275108;-;-;7.7732697;0.14025879;5.1829376;-;-;-;-;-;-;-;-;-;-;-;-;-;-;-
1514191275128;-;-;7.7541046;0.13546753;5.118286;-;-;-;-;-;-;-;-;-;-;-;-;-;-;-
1514191275149;-;-;7.700241;0.15820313;5.1278687;-;-;-;-;-;-;-;-;-;-;-;-;-;-;-
1514191275168;-;-;7.703827;0.13786316;5.2942657;-;-;-;-;-;-;-;-;-;-;-;-;-;-;-
1514191275188;-;-;7.5194855;0.26235962;5.2308197;-;-;-;-;-;-;-;-;-;-;-;-;-;-;-
1514191275209;-;-;8.01149;0.013366699;5.2667236;-;-;-;-;-;-;-;-;-;-;-;-;-;-;-
1514191275229;-;-;7.7493286;0.15940857;5.362503;-;-;-;-;-;-;-;-;-;-;-;-;-;-;-
1514191275249;-;-;7.7169952;0.14503479;5.2882843;-;-;-;-;-;-;-;-;-;-;-;-;-;-;-
1514191275269;-;-;7.640381;0.1330719;5.0763855;-;-;-;-;-;-;-;-;-;-;-;-;-;-;-
1514191275290;-;-;7.6343994;0.23123169;5.1158905;-;-;-;-;-;-;-;-;-;-;-;-;-;-;-
1514191275310;-;-;7.6619415;0.1905365;5.235611;-;-;-;-;-;-;-;-;-;-;-;-;-;-;-
1514191275330;-;-;7.6870728;0.17137146;5.3457336;-;-;-;-;-;-;-;-;-;-;-;-;-;-;-
1514191275351;-;-;7.6978455;0.124694824;5.3122253;-;-;-;-;-;-;-;-;-;-;-;-;-;-;-
1514191275371;-;-;7.7182007;0.122299194;5.362503;-;-;-;-;-;-;-;-;-;-;-;-;-;-;-
1514191275391;-;-;7.632004;0.1797638;5.2822876;-;-;-;-;-;-;-;-;-;-;-;-;-;-;-
1514191275411;-;-;7.6619415;0.14743042;5.283493;-;-;-;-;-;-;-;-;-;-;-;-;-;-;-
1514191275432;-;-;7.6906586;0.115112305;5.2894745;-;-;-;-;-;-;-;-;-;-;-;-;-;-;-
1514191275452;-;-;7.6858826;0.11631775;5.271515;-;-;-;-;-;-;-;-;-;-;-;-;-;-;-
1514191275472;-;-;7.6260223;0.12948608;5.3122253;-;-;-;-;-;-;-;-;-;-;-;-;-;-;-
1514191275493;-;-;7.672714;0.122299194;5.318207;-;-;-;-;-;-;-;-;-;-;-;-;-;-;-
1514191275513;-;-;7.6822815;0.13905334;5.319397;-;-;-;-;-;-;-;-;-;-;-;-;-;-;-
1514191275533;-;-;7.6786957;0.14025879;5.3122253;-;-;-;-;-;-;-;-;-;-;-;-;-;-;-
1514191275553;-;-;7.660736;0.19770813;5.283493;-;-;-;-;-;-;-;-;-;-;-;-;-;-;-
1514191275574;-;-;7.6942596;0.16897583;5.3050385;-;-;-;-;-;-;-;-;-;-;-;-;-;-;-
1514191275594;-;-;7.6655273;0.124694824;5.2906647;-;-;-;-;-;-;-;-;-;-;-;-;-;-;-
1514191275614;-;-;7.6703186;0.12948608;5.300247;-;-;-;-;-;-;-;-;-;-;-;-;-;-;-
1514191275635;-;-;7.652359;0.15701294;5.2894745;-;-;-;-;-;-;-;-;-;-;-;-;-;-;-
1514191275655;-;-;7.69545;0.14863586;5.302643;-;-;-;-;-;-;-;-;-;-;-;-;-;-;-
1514191275676;-;-;7.6978455;0.1510315;5.2810974;-;-;-;-;-;-;-;-;-;-;-;-;-;-;-
1514191275696;-;-;7.7301636;0.12588501;5.275116;-;-;-;-;-;-;-;-;-;-;-;-;-;-;-
1514191275716;-;-;7.6906586;0.14982605;5.2380066;-;-;-;-;-;-;-;-;-;-;-;-;-;-;-
1514191275737;-;-;7.679886;0.17855835;5.2499695;-;-;-;-;-;-;-;-;-;-;-;-;-;-;-
1514191275756;-;-;7.699051;0.16897583;5.3541107;-;-;-;-;-;-;-;-;-;-;-;-;-;-;-
1514191275777;-;-;7.7565002;0.18693542;5.2260284;-;-;-;-;-;-;-;-;-;-;-;-;-;-;-
1514191275796;-;-;7.6739044;0.14863586;5.2176514;-;-;-;-;-;-;-;-;-;-;-;-;-;-;-
1514191275816;-;-;7.633209;0.15701294;5.3541107;-;-;-;-;-;-;-;-;-;-;-;-;-;-;-
1514191275837;-;-;7.7565002;0.1905365;5.3134155;-;-;-;-;-;-;-;-;-;-;-;-;-;-;-
1514191275857;-;-;7.699051;0.20489502;5.1877136;-;-;-;-;-;-;-;-;-;-;-;-;-;-;-
1514191275877;-;-;7.633209;0.18095398;5.1985016;-;-;-;-;-;-;-;-;-;-;-;-;-;-;-
1514191275898;-;-;7.6308136;0.18693542;5.263138;-;-;-;-;-;-;-;-;-;-;-;-;-;-;-
1514191275918;-;-;7.7169952;0.12348938;5.302643;-;-;-;-;-;-;-;-;-;-;-;-;-;-;-
1514191275937;-;-;7.7014465;0.12348938;5.3648987;-;-;-;-;-;-;-;-;-;-;-;-;-;-;-
1514191275957;-;-;7.6739044;0.1845398;5.346939;-;-;-;-;-;-;-;-;-;-;-;-;-;-;-
1514191275977;-;-;7.671509;0.18693542;5.3337708;-;-;-;-;-;-;-;-;-;-;-;-;-;-;-
1514191275998;-;-;7.6906586;0.18334961;5.29187;-;-;-;-;-;-;-;-;-;-;-;-;-;-;-
1514191276017;-;-;7.845093;0.093566895;5.2260284;-;-;-;-;-;-;-;-;-;-;-;-;-;-;-
1514191276037;-;-;7.6499634;0.1510315;5.276306;-;-;-;-;-;-;-;-;-;-;-;-;-;-;-
1514191276058;-;-;7.628418;0.16299438;5.314621;-;-;-;-;-;-;-;-;-;-;-;-;-;-;-
1514191276077;-;-;7.632004;0.13665771;5.338562;-;-;-;-;-;-;-;-;-;-;-;-;-;-;-
1514191276097;-;-;7.7265778;0.1618042;5.3217926;-;-;-;-;-;-;-;-;-;-;-;-;-;-;-
1514191276118;-;-;7.6858826;0.16419983;5.284683;-;-;-;-;-;-;-;-;-;-;-;-;-;-;-
1514191276137;-;-;7.652359;0.17376709;5.3050385;-;-;-;-;-;-;-;-;-;-;-;-;-;-;-
1514191276157;-;-;7.6631317;0.17018127;5.3050385;-;-;-;-;-;-;-;-;-;-;-;-;-;-;-
1514191276178;-;-;7.6619415;0.14144897;5.342148;-;-;-;-;-;-;-;-;-;-;-;-;-;-;-
1514191276198;-;-;7.6619415;0.11392212;5.3289795;-;-;-;-;-;-;-;-;-;-;-;-;-;-;-
1514191276218;-;-;7.671509;0.18095398;5.295456;-;-;-;-;-;-;-;-;-;-;-;-;-;-;-
1514191276238;-;-;7.653549;0.15820313;5.299057;-;-;-;-;-;-;-;-;-;-;-;-;-;-;-
1514191276259;-;-;7.6427765;0.1510315;5.338562;-;-;-;-;-;-;-;-;-;-;-;-;-;-;-
1514191276279;-;-;7.6619415;0.1797638;5.2930603;-;-;-;-;-;-;-;-;-;-;-;-;-;-;-
1514191276300;-;-;7.6547546;0.14982605;5.307434;-;-;-;-;-;-;-;-;-;-;-;-;-;-;-
1514191276320;-;-;7.6511536;0.14624023;5.318207;-;-;-;-;-;-;-;-;-;-;-;-;-;-;-
1514191276340;-;-;7.6763;0.15701294;5.3289795;-;-;-;-;-;-;-;-;-;-;-;-;-;-;-
1514191276360;-;-;7.6391907;0.18214417;5.3170013;-;-;-;-;-;-;-;-;-;-;-;-;-;-;-
1514191276381;-;-;7.648773;0.15342712;5.3517303;-;-;-;-;-;-;-;-;-;-;-;-;-;-;-
1514191276401;-;-;7.7457275;0.15461731;5.300247;-;-;-;-;-;-;-;-;-;-;-;-;-;-;-
1514191276421;-;-;7.645172;0.15342712;5.2882843;-;-;-;-;-;-;-;-;-;-;-;-;-;-;-
1514191276441;-;-;7.6020813;0.16539001;5.3936157;-;-;-;-;-;-;-;-;-;-;-;-;-;-;-
1514191276462;-;-;7.738556;0.16539001;5.3804474;-;-;-;-;-;-;-;-;-;-;-;-;-;-;-
1514191276482;-;-;7.7205963;0.18933105;5.2427826;-;-;-;-;-;-;-;-;-;-;-;-;-;-;-
1514191276502;-;-;7.636795;0.17376709;5.1985016;-;-;-;-;-;-;-;-;-;-;-;-;-;-;-
1514191276523;-;-;7.620041;0.10913086;5.283493;-;-;-;-;-;-;-;-;-;-;-;-;-;-;-
1514191276543;-;-;7.708618;0.10913086;5.2427826;-;-;-;-;-;-;-;-;-;-;-;-;-;-;-
1514191276563;-;-;7.691864;0.12709045;5.3098297;-;-;-;-;-;-;-;-;-;-;-;-;-;-;-
1514191276584;-;-;7.6667175;0.16299438;5.3517303;-;-;-;-;-;-;-;-;-;-;-;-;-;-;-
1514191276604;-;-;7.660736;0.21447754;5.326584;-;-;-;-;-;-;-;-;-;-;-;-;-;-;-
1514191276624;-;-;7.6858826;0.1558075;5.2906647;-;-;-;-;-;-;-;-;-;-;-;-;-;-;-
1514191276645;-;-;7.691864;0.16539001;5.3217926;-;-;-;-;-;-;-;-;-;-;-;-;-;-;-
1514191276665;-;-;7.6822815;0.1558075;5.29187;-;-;-;-;-;-;-;-;-;-;-;-;-;-;-
1514191276685;-;-;7.640381;0.16299438;5.2655334;-;-;-;-;-;-;-;-;-;-;-;-;-;-;-
1514191276705;-;-;7.6810913;0.16419983;5.3481293;-;-;-;-;-;-;-;-;-;-;-;-;-;-;-
1514191276725;-;-;7.6822815;0.17855835;5.3062286;-;-;-;-;-;-;-;-;-;-;-;-;-;-;-
1514191276746;-;-;7.659546;0.21087646;5.3050385;-;-;-;-;-;-;-;-;-;-;-;-;-;-;-
1514191276766;-;-;7.6188354;0.17616272;5.2942657;-;-;-;-;-;-;-;-;-;-;-;-;-;-;-
1514191276786;-;-;7.652359;0.13905334;5.3014526;-;-;-;-;-;-;-;-;-;-;-;-;-;-;-
1514191276807;-;-;7.659546;0.13186646;5.350525;-;-;-;-;-;-;-;-;-;-;-;-;-;-;-
1514191276827;-;-;7.6499634;0.1438446;5.3732758;-;-;-;-;-;-;-;-;-;-;-;-;-;-;-
1514191276847;-;-;7.648773;0.13665771;5.3206024;-;-;-;-;-;-;-;-;-;-;-;-;-;-;-
1514191276867;-;-;7.6870728;0.18814087;5.374466;-;-;-;-;-;-;-;-;-;-;-;-;-;-;-
1514191276888;-;-;7.6966553;0.17616272;5.37088;-;-;-;-;-;-;-;-;-;-;-;-;-;-;-
1514191276908;-;-;7.6583405;0.15222168;5.382843;-;-;-;-;-;-;-;-;-;-;-;-;-;-;-
1514191276929;-;-;7.667923;0.16659546;5.3325653;-;-;-;-;-;-;-;-;-;-;-;-;-;-;-
1514191276949;-;-;7.746933;0.18334961;5.331375;-;-;-;-;-;-;-;-;-;-;-;-;-;-;-
1514191276970;-;-;7.6571503;0.1953125;5.279892;-;-;-;-;-;-;-;-;-;-;-;-;-;-;-
1514191276990;-;-;7.6415863;0.2192688;5.239197;-;-;-;-;-;-;-;-;-;-;-;-;-;-;-
1514191277009;-;-;7.6703186;0.19891357;5.2882843;-;-;-;-;-;-;-;-;-;-;-;-;-;-;-
1514191277029;-;-;7.660736;0.16897583;5.3122253;-;-;-;-;-;-;-;-;-;-;-;-;-;-;-
1514191277049;-;-;7.6739044;0.13426208;5.3337708;-;-;-;-;-;-;-;-;-;-;-;-;-;-;-
1514191277070;-;-;7.714615;0.12109375;5.3840485;-;-;-;-;-;-;-;-;-;-;-;-;-;-;-
1514191277090;-;-;7.6966553;0.12348938;5.3217926;-;-;-;-;-;-;-;-;-;-;-;-;-;-;-
1514191277110;-;-;7.611664;0.112716675;5.319397;-;-;-;-;-;-;-;-;-;-;-;-;-;-;-
1514191277130;-;-;7.628418;0.14624023;5.430725;-;-;-;-;-;-;-;-;-;-;-;-;-;-;-
1514191277151;-;-;7.6810913;0.16897583;5.334961;-;-;-;-;-;-;-;-;-;-;-;-;-;-;-
1514191277171;-;-;7.5961;0.16299438;5.1853333;-;-;-;-;-;-;-;-;-;-;-;-;-;-;-
1514191277191;-;-;7.635605;0.093566895;5.245178;-;-;-;-;-;-;-;-;-;-;-;-;-;-;-
1514191277212;-;-;7.6619415;0.081588745;5.378067;-;-;-;-;-;-;-;-;-;-;-;-;-;-;-
1514191277232;-;-;7.660736;0.105529785;5.3888397;-;-;-;-;-;-;-;-;-;-;-;-;-;-;-
1514191277253;-;-;7.6104584;0.1438446;5.3936157;-;-;-;-;-;-;-;-;-;-;-;-;-;-;-
1514191277273;-;-;7.6080627;0.17855835;5.4151764;-;-;-;-;-;-;-;-;-;-;-;-;-;-;-
1514191277293;-;-;7.664322;0.15461731;5.350525;-;-;-;-;-;-;-;-;-;-;-;-;-;-;-
1514191277314;-;-;7.6511536;0.1797638;5.295456;-;-;-;-;-;-;-;-;-;-;-;-;-;-;-
1514191277334;-;-;7.6763;0.14503479;5.299057;-;-;-;-;-;-;-;-;-;-;-;-;-;-;-
1514191277355;-;-;7.6380005;0.16299438;5.327774;-;-;-;-;-;-;-;-;-;-;-;-;-;-;-
1514191277375;-;-;7.612854;0.19651794;5.3541107;-;-;-;-;-;-;-;-;-;-;-;-;-;-;-
1514191277394;-;-;7.691864;0.14263916;5.2942657;-;-;-;-;-;-;-;-;-;-;-;-;-;-;-
1514191277414;-;-;7.6966553;0.2300415;5.2774963;-;-;-;-;-;-;-;-;-;-;-;-;-;-;-
1514191277434;-;-;7.635605;0.24559021;5.279892;-;-;-;-;-;-;-;-;-;-;-;-;-;-;-
1514191277455;-;-;7.669113;0.23721313;5.271515;-;-;-;-;-;-;-;-;-;-;-;-;-;-;-
1514191277475;-;-;7.6906586;0.22644043;5.2248383;-;-;-;-;-;-;-;-;-;-;-;-;-;-;-
1514191277496;-;-;7.708618;0.1845398;5.204483;-;-;-;-;-;-;-;-;-;-;-;-;-;-;-
1514191277516;-;-;7.67511;0.21447754;5.208069;-;-;-;-;-;-;-;-;-;-;-;-;-;-;-
1514191277536;-;-;7.688278;0.23721313;5.2427826;-;-;-;-;-;-;-;-;-;-;-;-;-;-;-
1514191277557;-;-;7.7014465;0.19412231;5.196106;-;-;-;-;-;-;-;-;-;-;-;-;-;-;-
1514191277577;-;-;7.700241;0.20610046;5.1781464;-;-;-;-;-;-;-;-;-;-;-;-;-;-;-
1514191277597;-;-;7.7050323;0.21208191;5.2415924;-;-;-;-;-;-;-;-;-;-;-;-;-;-;-
1514191277618;-;-;7.7062225;0.21447754;5.259552;-;-;-;-;-;-;-;-;-;-;-;-;-;-;-
1514191277638;-;-;7.7014465;0.2132721;5.2535553;-;-;-;-;-;-;-;-;-;-;-;-;-;-;-
1514191277658;-;-;7.6786957;0.20249939;5.2248383;-;-;-;-;-;-;-;-;-;-;-;-;-;-;-
1514191277679;-;-;7.7050323;0.20729065;5.200882;-;-;-;-;-;-;-;-;-;-;-;-;-;-;-
1514191277699;-;-;7.672714;0.20010376;5.2930603;-;-;-;-;-;-;-;-;-;-;-;-;-;-;-
1514191277719;-;-;7.7134094;0.16659546;5.346939;-;-;-;-;-;-;-;-;-;-;-;-;-;-;-
1514191277739;-;-;7.714615;0.15461731;5.239197;-;-;-;-;-;-;-;-;-;-;-;-;-;-;-
1514191277760;-;-;7.8079834;0.14144897;5.2655334;-;-;-;-;-;-;-;-;-;-;-;-;-;-;-
1514191277780;-;-;7.6415863;0.14624023;5.3696747;-;-;-;-;-;-;-;-;-;-;-;-;-;-;-
1514191277800;-;-;7.7493286;0.16659546;5.278702;-;-;-;-;-;-;-;-;-;-;-;-;-;-;-
1514191277820;-;-;7.6511536;0.1845398;5.144623;-;-;-;-;-;-;-;-;-;-;-;-;-;-;-
1514191277841;-;-;7.6068726;0.17497253;5.2463837;-;-;-;-;-;-;-;-;-;-;-;-;-;-;-
1514191277861;-;-;7.6619415;0.12828064;5.3541107;-;-;-;-;-;-;-;-;-;-;-;-;-;-;-
1514191277881;-;-;7.664322;0.16659546;5.357712;-;-;-;-;-;-;-;-;-;-;-;-;-;-;-
1514191277901;-;-;7.7565002;0.07800293;5.4235535;-;-;-;-;-;-;-;-;-;-;-;-;-;-;-
1514191277922;-;-;7.561386;0.17376709;5.4091797;-;-;-;-;-;-;-;-;-;-;-;-;-;-;-
1514191277942;-;-;7.5841217;0.18933105;5.430725;-;-;-;-;-;-;-;-;-;-;-;-;-;-;-
1514191277962;-;-;7.6619415;0.19891357;5.3924255;-;-;-;-;-;-;-;-;-;-;-;-;-;-;-
1514191277983;-;-;7.6427765;0.18933105;5.3684845;-;-;-;-;-;-;-;-;-;-;-;-;-;-;-
1514191278003;-;-;7.5984955;0.18095398;5.3361664;-;-;-;-;-;-;-;-;-;-;-;-;-;-;-
1514191278023;-;-;7.629608;0.1510315;5.4091797;-;-;-;-;-;-;-;-;-;-;-;-;-;-;-
1514191278044;-;-;7.659546;0.1953125;5.4438934;-;-;-;-;-;-;-;-;-;-;-;-;-;-;-
1514191278064;-;-;7.6188354;0.22764587;5.374466;-;-;-;-;-;-;-;-;-;-;-;-;-;-;-
1514191278084;-;-;7.588913;0.2527771;5.318207;-;-;-;-;-;-;-;-;-;-;-;-;-;-;-
1514191278104;-;-;7.5757446;0.2348175;5.3601074;-;-;-;-;-;-;-;-;-;-;-;-;-;-;-
1514191278125;-;-;7.611664;0.20968628;5.413971;-;-;-;-;-;-;-;-;-;-;-;-;-;-;-
1514191278145;-;-;7.635605;0.17616272;5.367279;-;-;-;-;-;-;-;-;-;-;-;-;-;-;-
1514191278165;-;-;7.61644;0.2013092;5.3912354;-;-;-;-;-;-;-;-;-;-;-;-;-;-;-
1514191278186;-;-;7.5961;0.21208191;5.3684845;-;-;-;-;-;-;-;-;-;-;-;-;-;-;-
1514191278206;-;-;7.59729;0.1953125;5.394821;-;-;-;-;-;-;-;-;-;-;-;-;-;-;-
1514191278226;-;-;7.609268;0.24440002;5.397217;-;-;-;-;-;-;-;-;-;-;-;-;-;-;-
1514191278246;-;-;7.609268;0.20729065;5.3840485;-;-;-;-;-;-;-;-;-;-;-;-;-;-;-
1514191278267;-;-;7.609268;0.1905365;5.3684845;-;-;-;-;-;-;-;-;-;-;-;-;-;-;-
1514191278287;-;-;7.5913086;0.17736816;5.3565063;-;-;-;-;-;-;-;-;-;-;-;-;-;-;-
1514191278307;-;-;7.6343994;0.16299438;5.4235535;-;-;-;-;-;-;-;-;-;-;-;-;-;-;-
1514191278328;-;-;7.612854;0.19172668;5.4043884;-;-;-;-;-;-;-;-;-;-;-;-;-;-;-
1514191278348;-;-;7.604477;0.1905365;5.3720703;-;-;-;-;-;-;-;-;-;-;-;-;-;-;-
1514191278368;-;-;7.620041;0.20610046;5.3804474;-;-;-;-;-;-;-;-;-;-;-;-;-;-;-
1514191278389;-;-;7.6655273;0.20370483;5.425949;-;-;-;-;-;-;-;-;-;-;-;-;-;-;-
1514191278409;-;-;7.6822815;0.14263916;5.334961;-;-;-;-;-;-;-;-;-;-;-;-;-;-;-
1514191278429;-;-;7.5518036;0.1845398;5.402008;-;-;-;-;-;-;-;-;-;-;-;-;-;-;-
1514191278450;-;-;7.61644;0.17855835;5.4319305;-;-;-;-;-;-;-;-;-;-;-;-;-;-;-
1514191278470;-;-;7.691864;0.22045898;5.410385;-;-;-;-;-;-;-;-;-;-;-;-;-;-;-
1514191278490;-;-;7.6152496;0.24320984;5.2499695;-;-;-;-;-;-;-;-;-;-;-;-;-;-;-
1514191278510;-;-;7.564972;0.16539001;5.279892;-;-;-;-;-;-;-;-;-;-;-;-;-;-;-
1514191278531;-;-;7.6224365;0.117507935;5.3840485;-;-;-;-;-;-;-;-;-;-;-;-;-;-;-
1514191278551;-;-;7.645172;0.13067627;5.3804474;-;-;-;-;-;-;-;-;-;-;-;-;-;-;-
1514191278571;-;-;7.6308136;0.17376709;5.4678497;-;-;-;-;-;-;-;-;-;-;-;-;-;-;-
1514191278592;-;-;7.621231;0.19412231;5.429535;-;-;-;-;-;-;-;-;-;-;-;-;-;-;-
1514191278612;-;-;7.628418;0.2635498;5.381653;-;-;-;-;-;-;-;-;-;-;-;-;-;-;-
1514191278632;-;-;7.4919434;0.19293213;5.3888397;-;-;-;-;-;-;-;-;-;-;-;-;-;-;-
1514191278653;-;-;7.849884;0.1510315;5.322998;-;-;-;-;-;-;-;-;-;-;-;-;-;-;-
1514191278673;-;-;7.592499;0.16299438;5.350525;-;-;-;-;-;-;-;-;-;-;-;-;-;-;-
1514191278693;-;-;7.5996857;0.15820313;5.3888397;-;-;-;-;-;-;-;-;-;-;-;-;-;-;-
1514191278714;-;-;7.660736;0.16299438;5.4008026;-;-;-;-;-;-;-;-;-;-;-;-;-;-;-
1514191278734;-;-;7.6619415;0.2192688;5.3493347;-;-;-;-;-;-;-;-;-;-;-;-;-;-;-
1514191278754;-;-;7.6080627;0.20249939;5.3756714;-;-;-;-;-;-;-;-;-;-;-;-;-;-;-
1514191278775;-;-;7.5996857;0.20729065;5.382843;-;-;-;-;-;-;-;-;-;-;-;-;-;-;-
1514191278795;-;-;7.6152496;0.17736816;5.4091797;-;-;-;-;-;-;-;-;-;-;-;-;-;-;-
1514191278815;-;-;7.6020813;0.16897583;5.4043884;-;-;-;-;-;-;-;-;-;-;-;-;-;-;-
1514191278836;-;-;7.6224365;0.16059875;5.4163666;-;-;-;-;-;-;-;-;-;-;-;-;-;-;-
1514191278856;-;-;7.6415863;0.20370483;5.405594;-;-;-;-;-;-;-;-;-;-;-;-;-;-;-
1514191278876;-;-;7.609268;0.24679565;5.39003;-;-;-;-;-;-;-;-;-;-;-;-;-;-;-
1514191278896;-;-;7.5781403;0.1953125;5.413971;-;-;-;-;-;-;-;-;-;-;-;-;-;-;-
1514191278917;-;-;7.5757446;0.17497253;5.4115753;-;-;-;-;-;-;-;-;-;-;-;-;-;-;-
1514191278937;-;-;7.6236267;0.19412231;5.3768616;-;-;-;-;-;-;-;-;-;-;-;-;-;-;-
1514191278957;-;-;7.6152496;0.1558075;5.413971;-;-;-;-;-;-;-;-;-;-;-;-;-;-;-
1514191278978;-;-;7.590103;0.21447754;5.382843;-;-;-;-;-;-;-;-;-;-;-;-;-;-;-
1514191278998;-;-;7.5984955;0.21208191;5.422348;-;-;-;-;-;-;-;-;-;-;-;-;-;-;-
1514191279018;-;-;7.6080627;0.16539001;5.429535;-;-;-;-;-;-;-;-;-;-;-;-;-;-;-
1514191279038;-;-;7.6032715;0.20489502;5.3852386;-;-;-;-;-;-;-;-;-;-;-;-;-;-;-
1514191279059;-;-;7.5948944;0.2132721;5.3457336;-;-;-;-;-;-;-;-;-;-;-;-;-;-;-
1514191279078;-;-;7.6020813;0.1953125;5.422348;-;-;-;-;-;-;-;-;-;-;-;-;-;-;-
1514191279098;-;-;7.7050323;0.16419983;5.374466;-;-;-;-;-;-;-;-;-;-;-;-;-;-;-
1514191279119;-;-;7.620041;0.15940857;5.350525;-;-;-;-;-;-;-;-;-;-;-;-;-;-;-
1514191279139;-;-;7.552994;0.20010376;5.4905853;-;-;-;-;-;-;-;-;-;-;-;-;-;-;-
1514191279159;-;-;7.6571503;0.2192688;5.4953766;-;-;-;-;-;-;-;-;-;-;-;-;-;-;-
1514191279180;-;-;7.6475677;0.2013092;5.315811;-;-;-;-;-;-;-;-;-;-;-;-;-;-;-
1514191279200;-;-;7.59729;0.18095398;5.2248383;-;-;-;-;-;-;-;-;-;-;-;-;-;-;-
1514191279221;-;-;7.556595;0.1510315;5.3373566;-;-;-;-;-;-;-;-;-;-;-;-;-;-;-
1514191279240;-;-;7.6475677;0.12588501;5.381653;-;-;-;-;-;-;-;-;-;-;-;-;-;-;-
1514191279261;-;-;7.581726;0.16659546;5.445099;-;-;-;-;-;-;-;-;-;-;-;-;-;-;-
1514191279281;-;-;7.609268;0.18693542;5.485794;-;-;-;-;-;-;-;-;-;-;-;-;-;-;-
1514191279301;-;-;7.5709534;0.19412231;5.452286;-;-;-;-;-;-;-;-;-;-;-;-;-;-;-
1514191279321;-;-;7.61644;0.22045898;5.39003;-;-;-;-;-;-;-;-;-;-;-;-;-;-;-
1514191279342;-;-;7.6176453;0.1725769;5.363693;-;-;-;-;-;-;-;-;-;-;-;-;-;-;-
1514191279362;-;-;7.605667;0.17616272;5.3445435;-;-;-;-;-;-;-;-;-;-;-;-;-;-;-
1514191279382;-;-;7.5122986;0.17736816;5.397217;-;-;-;-;-;-;-;-;-;-;-;-;-;-;-
1514191279402;-;-;7.5961;0.117507935;5.445099;-;-;-;-;-;-;-;-;-;-;-;-;-;-;-
1514191279423;-;-;7.624832;0.17855835;5.46904;-;-;-;-;-;-;-;-;-;-;-;-;-;-;-
1514191279443;-;-;7.6260223;0.21566772;5.4199524;-;-;-;-;-;-;-;-;-;-;-;-;-;-;-
1514191279464;-;-;7.576935;0.17018127;5.425949;-;-;-;-;-;-;-;-;-;-;-;-;-;-;-
1514191279484;-;-;7.61644;0.18574524;5.4008026;-;-;-;-;-;-;-;-;-;-;-;-;-;-;-
1514191279504;-;-;7.6415863;0.18334961;5.436722;-;-;-;-;-;-;-;-;-;-;-;-;-;-;-
1514191279525;-;-;7.593704;0.1438446;5.425949;-;-;-;-;-;-;-;-;-;-;-;-;-;-;-
1514191279545;-;-;7.557785;0.19293213;5.4115753;-;-;-;-;-;-;-;-;-;-;-;-;-;-;-
1514191279565;-;-;7.590103;0.17497253;5.378067;-;-;-;-;-;-;-;-;-;-;-;-;-;-;-
1514191279585;-;-;7.5913086;0.17497253;5.429535;-;-;-;-;-;-;-;-;-;-;-;-;-;-;-
1514191279606;-;-;7.581726;0.21447754;5.4031982;-;-;-;-;-;-;-;-;-;-;-;-;-;-;-
1514191279626;-;-;7.609268;0.1618042;5.4031982;-;-;-;-;-;-;-;-;-;-;-;-;-;-;-
1514191279646;-;-;7.621231;0.1725769;5.374466;-;-;-;-;-;-;-;-;-;-;-;-;-;-;-
1514191279667;-;-;7.6032715;0.1845398;5.410385;-;-;-;-;-;-;-;-;-;-;-;-;-;-;-
1514191279687;-;-;7.604477;0.18693542;5.4091797;-;-;-;-;-;-;-;-;-;-;-;-;-;-;-
1514191279707;-;-;7.5996857;0.21447754;5.4079895;-;-;-;-;-;-;-;-;-;-;-;-;-;-;-
1514191279727;-;-;7.5984955;0.20729065;5.3912354;-;-;-;-;-;-;-;-;-;-;-;-;-;-;-
1514191279748;-;-;7.620041;0.18933105;5.4115753;-;-;-;-;-;-;-;-;-;-;-;-;-;-;-
1514191279768;-;-;7.6080627;0.1618042;5.381653;-;-;-;-;-;-;-;-;-;-;-;-;-;-;-
1514191279788;-;-;7.6188354;0.19172668;5.3768616;-;-;-;-;-;-;-;-;-;-;-;-;-;-;-
1514191279809;-;-;7.5961;0.21208191;5.402008;-;-;-;-;-;-;-;-;-;-;-;-;-;-;-
1514191279829;-;-;7.6822815;0.18095398;5.437912;-;-;-;-;-;-;-;-;-;-;-;-;-;-;-
1514191279849;-;-;7.6739044;0.2013092;5.3014526;-;-;-;-;-;-;-;-;-;-;-;-;-;-;-
1514191279870;-;-;7.581726;0.22764587;5.3924255;-;-;-;-;-;-;-;-;-;-;-;-;-;-;-
1514191279890;-;-;7.620041;0.21687317;5.4091797;-;-;-;-;-;-;-;-;-;-;-;-;-;-;-
1514191279910;-;-;7.6906586;0.18214417;5.2966614;-;-;-;-;-;-;-;-;-;-;-;-;-;-;-
1514191279931;-;-;7.5996857;0.15940857;5.1757507;-;-;-;-;-;-;-;-;-;-;-;-;-;-;-
1514191279951;-;-;7.6176453;0.15461731;5.3684845;-;-;-;-;-;-;-;-;-;-;-;-;-;-;-
1514191279971;-;-;7.640381;0.15701294;5.4163666;-;-;-;-;-;-;-;-;-;-;-;-;-;-;-
1514191279992;-;-;7.6343994;0.17616272;5.437912;-;-;-;-;-;-;-;-;-;-;-;-;-;-;-
1514191280012;-;-;7.5948944;0.25038147;5.4199524;-;-;-;-;-;-;-;-;-;-;-;-;-;-;-
1514191280032;-;-;7.605667;0.24440002;5.324188;-;-;-;-;-;-;-;-;-;-;-;-;-;-;-
1514191280052;-;-;7.671509;0.18214417;5.2703247;-;-;-;-;-;-;-;-;-;-;-;-;-;-;-
1514191280072;-;-;7.667923;0.12348938;5.2882843;-;-;-;-;-;-;-;-;-;-;-;-;-;-;-
1514191280093;-;-;7.6391907;0.16778564;5.31102;-;-;-;-;-;-;-;-;-;-;-;-;-;-;-
1514191280113;-;-;7.593704;0.14624023;5.3720703;-;-;-;-;-;-;-;-;-;-;-;-;-;-;-
1514191280133;-;-;7.633209;0.16299438;5.39003;-;-;-;-;-;-;-;-;-;-;-;-;-;-;-
1514191280154;-;-;7.653549;0.17855835;5.366089;-;-;-;-;-;-;-;-;-;-;-;-;-;-;-
1514191280174;-;-;7.628418;0.18574524;5.386444;-;-;-;-;-;-;-;-;-;-;-;-;-;-;-
1514191280194;-;-;7.628418;0.15222168;5.3457336;-;-;-;-;-;-;-;-;-;-;-;-;-;-;-
1514191280214;-;-;7.6272125;0.13067627;5.378067;-;-;-;-;-;-;-;-;-;-;-;-;-;-;-
1514191280235;-;-;7.6224365;0.1438446;5.343338;-;-;-;-;-;-;-;-;-;-;-;-;-;-;-
1514191280255;-;-;7.611664;0.18214417;5.39003;-;-;-;-;-;-;-;-;-;-;-;-;-;-;-
1514191280275;-;-;7.6032715;0.17736816;5.446289;-;-;-;-;-;-;-;-;-;-;-;-;-;-;-
1514191280296;-;-;7.614044;0.23602295;5.3876343;-;-;-;-;-;-;-;-;-;-;-;-;-;-;-
1514191280316;-;-;7.6224365;0.19770813;5.4247437;-;-;-;-;-;-;-;-;-;-;-;-;-;-;-
1514191280336;-;-;7.6068726;0.17497253;5.381653;-;-;-;-;-;-;-;-;-;-;-;-;-;-;-
1514191280357;-;-;7.614044;0.1725769;5.398407;-;-;-;-;-;-;-;-;-;-;-;-;-;-;-
1514191280377;-;-;7.61644;0.18693542;5.362503;-;-;-;-;-;-;-;-;-;-;-;-;-;-;-
1514191280397;-;-;7.614044;0.20489502;5.3912354;-;-;-;-;-;-;-;-;-;-;-;-;-;-;-
1514191280418;-;-;7.600876;0.18933105;5.3804474;-;-;-;-;-;-;-;-;-;-;-;-;-;-;-
1514191280438;-;-;7.6152496;0.20848083;5.363693;-;-;-;-;-;-;-;-;-;-;-;-;-;-;-
1514191280458;-;-;7.628418;0.19770813;5.4438934;-;-;-;-;-;-;-;-;-;-;-;-;-;-;-
1514191280479;-;-;7.6080627;0.17736816;5.434326;-;-;-;-;-;-;-;-;-;-;-;-;-;-;-
1514191280498;-;-;7.5829315;0.20610046;5.4091797;-;-;-;-;-;-;-;-;-;-;-;-;-;-;-
1514191280518;-;-;7.580536;0.20729065;5.4678497;-;-;-;-;-;-;-;-;-;-;-;-;-;-;-
1514191280539;-;-;7.6583405;0.20610046;5.4271393;-;-;-;-;-;-;-;-;-;-;-;-;-;-;-
1514191280558;-;-;7.6068726;0.19412231;5.3445435;-;-;-;-;-;-;-;-;-;-;-;-;-;-;-
1514191280578;-;-;7.554199;0.24320984;5.508545;-;-;-;-;-;-;-;-;-;-;-;-;-;-;-
1514191280598;-;-;7.6308136;0.24081421;5.4642487;-;-;-;-;-;-;-;-;-;-;-;-;-;-;-
1514191280619;-;-;7.5158844;0.23602295;5.3756714;-;-;-;-;-;-;-;-;-;-;-;-;-;-;-
1514191280639;-;-;7.5314484;0.19412231;5.338562;-;-;-;-;-;-;-;-;-;-;-;-;-;-;-
1514191280659;-;-;7.541031;0.18814087;5.331375;-;-;-;-;-;-;-;-;-;-;-;-;-;-;-
1514191280680;-;-;7.5039215;0.16897583;5.3457336;-;-;-;-;-;-;-;-;-;-;-;-;-;-;-
1514191280700;-;-;7.379425;0.18214417;5.477417;-;-;-;-;-;-;-;-;-;-;-;-;-;-;-
1514191280721;-;-;7.811569;0.12588501;5.477417;-;-;-;-;-;-;-;-;-;-;-;-;-;-;-
1514191280741;-;-;7.585327;0.22883606;5.417557;-;-;-;-;-;-;-;-;-;-;-;-;-;-;-
1514191280761;-;-;7.554199;0.19770813;5.4630585;-;-;-;-;-;-;-;-;-;-;-;-;-;-;-
1514191280781;-;-;7.590103;0.16659546;5.398407;-;-;-;-;-;-;-;-;-;-;-;-;-;-;-
1514191280802;-;-;7.593704;0.16419983;5.422348;-;-;-;-;-;-;-;-;-;-;-;-;-;-;-
1514191280822;-;-;7.590103;0.16778564;5.4271393;-;-;-;-;-;-;-;-;-;-;-;-;-;-;-
1514191280842;-;-;7.573349;0.17736816;5.4678497;-;-;-;-;-;-;-;-;-;-;-;-;-;-;-
1514191280863;-;-;7.590103;0.16419983;5.4474945;-;-;-;-;-;-;-;-;-;-;-;-;-;-;-
1514191280883;-;-;7.5386353;0.18693542;5.4438934;-;-;-;-;-;-;-;-;-;-;-;-;-;-;-
1514191280903;-;-;7.5625763;0.18933105;5.425949;-;-;-;-;-;-;-;-;-;-;-;-;-;-;-
1514191280923;-;-;7.5829315;0.20729065;5.430725;-;-;-;-;-;-;-;-;-;-;-;-;-;-;-
1514191280943;-;-;7.604477;0.16299438;5.4486847;-;-;-;-;-;-;-;-;-;-;-;-;-;-;-
1514191280964;-;-;7.59729;0.17855835;5.461853;-;-;-;-;-;-;-;-;-;-;-;-;-;-;-
1514191280984;-;-;7.561386;0.19770813;5.4391174;-;-;-;-;-;-;-;-;-;-;-;-;-;-;-
1514191281003;-;-;7.574539;0.20489502;5.4391174;-;-;-;-;-;-;-;-;-;-;-;-;-;-;-
1514191281023;-;-;7.585327;0.17018127;5.3924255;-;-;-;-;-;-;-;-;-;-;-;-;-;-;-
1514191281043;-;-;7.5793304;0.16059875;5.4427032;-;-;-;-;-;-;-;-;-;-;-;-;-;-;-
1514191281063;-;-;7.592499;0.18095398;5.4235535;-;-;-;-;-;-;-;-;-;-;-;-;-;-;-
1514191281084;-;-;7.59729;0.16539001;5.418762;-;-;-;-;-;-;-;-;-;-;-;-;-;-;-
1514191281104;-;-;7.573349;0.21687317;5.402008;-;-;-;-;-;-;-;-;-;-;-;-;-;-;-
1514191281124;-;-;7.576935;0.19770813;5.461853;-;-;-;-;-;-;-;-;-;-;-;-;-;-;-
1514191281145;-;-;7.5841217;0.17376709;5.4331207;-;-;-;-;-;-;-;-;-;-;-;-;-;-;-
1514191281165;-;-;7.5865173;0.16778564;5.412781;-;-;-;-;-;-;-;-;-;-;-;-;-;-;-
1514191281185;-;-;7.592499;0.15222168;5.421158;-;-;-;-;-;-;-;-;-;-;-;-;-;-;-
1514191281205;-;-;7.5470123;0.1953125;5.4247437;-;-;-;-;-;-;-;-;-;-;-;-;-;-;-
1514191281226;-;-;7.572159;0.17855835;5.47023;-;-;-;-;-;-;-;-;-;-;-;-;-;-;-
1514191281246;-;-;7.612854;0.20489502;5.492981;-;-;-;-;-;-;-;-;-;-;-;-;-;-;-
1514191281266;-;-;7.672714;0.1438446;5.382843;-;-;-;-;-;-;-;-;-;-;-;-;-;-;-
1514191281287;-;-;7.5553894;0.14743042;5.4043884;-;-;-;-;-;-;-;-;-;-;-;-;-;-;-
1514191281307;-;-;7.5913086;0.20370483;5.501358;-;-;-;-;-;-;-;-;-;-;-;-;-;-;-
1514191281327;-;-;7.6427765;0.1953125;5.4247437;-;-;-;-;-;-;-;-;-;-;-;-;-;-;-
1514191281347;-;-;7.590103;0.20249939;5.2810974;-;-;-;-;-;-;-;-;-;-;-;-;-;-;-
1514191281368;-;-;7.552994;0.19891357;5.350525;-;-;-;-;-;-;-;-;-;-;-;-;-;-;-
1514191281388;-;-;7.5194855;0.117507935;5.4091797;-;-;-;-;-;-;-;-;-;-;-;-;-;-;-
1514191281409;-;-;7.6236267;0.11869812;5.4427032;-;-;-;-;-;-;-;-;-;-;-;-;-;-;-
1514191281429;-;-;7.620041;0.21208191;5.489395;-;-;-;-;-;-;-;-;-;-;-;-;-;-;-
1514191281449;-;-;7.605667;0.19172668;5.4726257;-;-;-;-;-;-;-;-;-;-;-;-;-;-;-
1514191281469;-;-;7.566162;0.2300415;5.4642487;-;-;-;-;-;-;-;-;-;-;-;-;-;-;-
1514191281490;-;-;7.605667;0.16419983;5.4031982;-;-;-;-;-;-;-;-;-;-;-;-;-;-;-
1514191281509;-;-;7.5793304;0.18334961;5.446289;-;-;-;-;-;-;-;-;-;-;-;-;-;-;-
1514191281529;-;-;7.572159;0.16897583;5.4510803;-;-;-;-;-;-;-;-;-;-;-;-;-;-;-
1514191281549;-;-;7.5553894;0.18334961;5.4355164;-;-;-;-;-;-;-;-;-;-;-;-;-;-;-
1514191281570;-;-;7.6188354;0.17137146;5.452286;-;-;-;-;-;-;-;-;-;-;-;-;-;-;-
1514191281590;-;-;7.5841217;0.21806335;5.4486847;-;-;-;-;-;-;-;-;-;-;-;-;-;-;-
1514191281610;-;-;7.5685577;0.22045898;5.430725;-;-;-;-;-;-;-;-;-;-;-;-;-;-;-
1514191281631;-;-;7.5434265;0.16299438;5.44989;-;-;-;-;-;-;-;-;-;-;-;-;-;-;-
1514191281651;-;-;7.5865173;0.18933105;5.476227;-;-;-;-;-;-;-;-;-;-;-;-;-;-;-
