TimeStamp[ms];Prox[Cm];Lux[lux];AccX[m/s^2];AccY[m/s^2];AccZ[m/s^2];GyroX[rad/s];GyroY[rad/s];GyroZ[rad/s];MagnX[uT];MagnY[uT];MagnZ[uT];OrienYaw[degrees];OrienPitch[degrees];OrienRoll[degrees];Press[Pa];Temp[C°];Batt[%];Lat;Lng;Speed[m/s]
1514190992743;-;-;8.896149;-2.1737366;1.4348145;-;-;-;-;-;-;-;-;-;-;-;-;-;-;-
1514190992745;-;-;8.896149;-2.1737366;1.4348145;-;-;-;-;-;-;-;-;-;-;-;-;-;-;-
1514190992761;-;-;8.44603;-1.902008;2.0166016;-;-;-;-;-;-;-;-;-;-;-;-;-;-;-
1514190992782;-;-;9.093674;-2.0851593;2.3912964;-;-;-;-;-;-;-;-;-;-;-;-;-;-;-
1514190992802;-;-;9.075714;-1.922348;1.6155701;-;-;-;-;-;-;-;-;-;-;-;-;-;-;-
1514190992822;-;-;8.438858;-2.20607;1.923233;-;-;-;-;-;-;-;-;-;-;-;-;-;-;-
1514190992843;-;-;9.363022;-2.0360718;1.6945801;-;-;-;-;-;-;-;-;-;-;-;-;-;-;-
1514190992867;-;-;8.729752;-2.0348816;1.2229156;-;-;-;-;-;-;-;-;-;-;-;-;-;-;-
1514190992883;-;-;8.831497;-1.7810974;1.3653717;-;-;-;-;-;-;-;-;-;-;-;-;-;-;-
1514190992903;-;-;8.38858;-1.8469391;1.2564392;-;-;-;-;-;-;-;-;-;-;-;-;-;-;-
1514190992924;-;-;9.3151245;-1.8337708;1.196579;-;-;-;-;-;-;-;-;-;-;-;-;-;-;-
1514190992944;-;-;8.46759;-1.9762268;1.5868378;-;-;-;-;-;-;-;-;-;-;-;-;-;-;-
1514190992964;-;-;8.967972;-1.5249176;-0.5942688;-;-;-;-;-;-;-;-;-;-;-;-;-;-;-
1514190992994;-;-;8.5082855;-0.97065735;0.04258728;-;-;-;-;-;-;-;-;-;-;-;-;-;-;-
1514190993005;-;-;10.417664;-0.98861694;1.3833313;-;-;-;-;-;-;-;-;-;-;-;-;-;-;-
1514190993025;-;-;9.893326;-0.2607727;2.0249786;-;-;-;-;-;-;-;-;-;-;-;-;-;-;-
1514190993046;-;-;9.260071;-0.5648346;-0.5715332;-;-;-;-;-;-;-;-;-;-;-;-;-;-;-
1514190993066;-;-;10.3697815;-1.5823822;0.8266754;-;-;-;-;-;-;-;-;-;-;-;-;-;-;-
1514190993087;-;-;9.504272;-1.9462891;0.5094452;-;-;-;-;-;-;-;-;-;-;-;-;-;-;-
1514190993107;-;-;8.483139;-1.1825409;0.15031433;-;-;-;-;-;-;-;-;-;-;-;-;-;-;-
1514190993127;-;-;9.694611;-1.5177307;0.7728119;-;-;-;-;-;-;-;-;-;-;-;-;-;-;-
1514190993148;-;-;8.548981;-1.6733551;1.0158234;-;-;-;-;-;-;-;-;-;-;-;-;-;-;-
1514190993167;-;-;8.607651;-1.4650574;3.208908;-;-;-;-;-;-;-;-;-;-;-;-;-;-;-
1514190993187;-;-;9.955582;-1.8660889;-0.53681946;-;-;-;-;-;-;-;-;-;-;-;-;-;-;-
1514190993208;-;-;9.328293;-1.9822083;1.2528534;-;-;-;-;-;-;-;-;-;-;-;-;-;-;-
1514190993228;-;-;9.543777;-1.9115753;1.5030518;-;-;-;-;-;-;-;-;-;-;-;-;-;-;-
1514190993248;-;-;8.690247;-2.2551422;0.7428894;-;-;-;-;-;-;-;-;-;-;-;-;-;-;-
1514190993269;-;-;9.318726;-1.6110992;0.28918457;-;-;-;-;-;-;-;-;-;-;-;-;-;-;-
1514190993289;-;-;9.212173;-1.2435913;-0.05079651;-;-;-;-;-;-;-;-;-;-;-;-;-;-;-
1514190993309;-;-;8.1922455;-0.8533478;0.760849;-;-;-;-;-;-;-;-;-;-;-;-;-;-;-
1514190993329;-;-;8.399353;-0.49899292;0.9092865;-;-;-;-;-;-;-;-;-;-;-;-;-;-;-
1514190993350;-;-;9.974731;-1.2747192;1.2696075;-;-;-;-;-;-;-;-;-;-;-;-;-;-;-
1514190993369;-;-;10.00705;-1.3058472;0.22932434;-;-;-;-;-;-;-;-;-;-;-;-;-;-;-
1514190993389;-;-;9.576096;-1.8002472;0.16947937;-;-;-;-;-;-;-;-;-;-;-;-;-;-;-
1514190993410;-;-;9.122391;-0.463089;0.17306519;-;-;-;-;-;-;-;-;-;-;-;-;-;-;-
1514190993430;-;-;8.605255;-0.33380127;1.2432709;-;-;-;-;-;-;-;-;-;-;-;-;-;-;-
1514190993450;-;-;8.639969;-0.29788208;0.30474854;-;-;-;-;-;-;-;-;-;-;-;-;-;-;-
1514190993470;-;-;9.072113;-0.6917267;-0.16212463;-;-;-;-;-;-;-;-;-;-;-;-;-;-;-
1514190993491;-;-;8.9392395;-1.1957092;0.7536621;-;-;-;-;-;-;-;-;-;-;-;-;-;-;-
1514190993510;-;-;8.7608795;-0.8712921;0.8195038;-;-;-;-;-;-;-;-;-;-;-;-;-;-;-
1514190993530;-;-;8.9392395;-0.35653687;1.2672119;-;-;-;-;-;-;-;-;-;-;-;-;-;-;-
1514190993550;-;-;9.410904;-0.4954071;0.66267395;-;-;-;-;-;-;-;-;-;-;-;-;-;-;-
1514190993571;-;-;9.267242;-0.1410675;0.19342041;-;-;-;-;-;-;-;-;-;-;-;-;-;-;-
1514190993591;-;-;8.960785;-0.9586792;2.6103668;-;-;-;-;-;-;-;-;-;-;-;-;-;-;-
1514190993611;-;-;7.238159;-0.43914795;1.0086365;-;-;-;-;-;-;-;-;-;-;-;-;-;-;-
1514190993632;-;-;8.692642;-1.7427826;1.176239;-;-;-;-;-;-;-;-;-;-;-;-;-;-;-
1514190993652;-;-;8.560959;-2.2527466;-1.2490845;-;-;-;-;-;-;-;-;-;-;-;-;-;-;-
1514190993672;-;-;10.100433;-1.3226013;0.91885376;-;-;-;-;-;-;-;-;-;-;-;-;-;-;-
1514190993692;-;-;9.418076;-0.636673;0.7536621;-;-;-;-;-;-;-;-;-;-;-;-;-;-;-
1514190993713;-;-;9.205002;-0.57681274;2.5385437;-;-;-;-;-;-;-;-;-;-;-;-;-;-;-
1514190993733;-;-;10.633133;0.30784607;0.117996216;-;-;-;-;-;-;-;-;-;-;-;-;-;-;-
1514190993753;-;-;9.585678;-0.96347046;1.0565186;-;-;-;-;-;-;-;-;-;-;-;-;-;-;-
1514190993774;-;-;8.829102;-1.6230774;0.8877411;-;-;-;-;-;-;-;-;-;-;-;-;-;-;-
1514190993794;-;-;9.390549;-1.6158905;0.35263062;-;-;-;-;-;-;-;-;-;-;-;-;-;-;-
1514190993814;-;-;9.137955;-1.0712128;0.6674652;-;-;-;-;-;-;-;-;-;-;-;-;-;-;-
1514190993834;-;-;8.623199;-0.5504761;1.2648163;-;-;-;-;-;-;-;-;-;-;-;-;-;-;-
1514190993855;-;-;10.554138;-0.78271484;0.022232056;-;-;-;-;-;-;-;-;-;-;-;-;-;-;-
1514190993875;-;-;8.619614;-0.40203857;0.20898438;-;-;-;-;-;-;-;-;-;-;-;-;-;-;-
1514190993895;-;-;8.146759;-0.29908752;0.6710663;-;-;-;-;-;-;-;-;-;-;-;-;-;-;-
1514190993915;-;-;9.202606;-0.9084015;0.26045227;-;-;-;-;-;-;-;-;-;-;-;-;-;-;-
1514190993936;-;-;9.104446;-1.2615509;0.4472046;-;-;-;-;-;-;-;-;-;-;-;-;-;-;-
1514190993956;-;-;8.461594;-0.4487152;-0.06636047;-;-;-;-;-;-;-;-;-;-;-;-;-;-;-
1514190993976;-;-;10.344635;0.70887756;-1.6992035;-;-;-;-;-;-;-;-;-;-;-;-;-;-;-
1514190993997;-;-;8.529831;-1.2902832;-0.9941101;-;-;-;-;-;-;-;-;-;-;-;-;-;-;-
1514190994017;-;-;8.92128;-1.0616302;-0.2866211;-;-;-;-;-;-;-;-;-;-;-;-;-;-;-
1514190994037;-;-;10.71814;-1.4255524;0.98350525;-;-;-;-;-;-;-;-;-;-;-;-;-;-;-
1514190994057;-;-;10.5278015;-0.5540619;-0.16931152;-;-;-;-;-;-;-;-;-;-;-;-;-;-;-
1514190994078;-;-;9.947205;-0.1925354;-0.1776886;-;-;-;-;-;-;-;-;-;-;-;-;-;-;-
1514190994098;-;-;9.171478;0.49699402;-0.3045807;-;-;-;-;-;-;-;-;-;-;-;-;-;-;-
1514190994118;-;-;8.965576;0.4945984;-0.44822693;-;-;-;-;-;-;-;-;-;-;-;-;-;-;-
1514190994139;-;-;8.668701;1.9836426E-4;-0.012481689;-;-;-;-;-;-;-;-;-;-;-;-;-;-;-
1514190994159;-;-;9.067337;0.08998108;-1.0898743;-;-;-;-;-;-;-;-;-;-;-;-;-;-;-
1514190994179;-;-;8.542999;-0.9586792;-1.8440552;-;-;-;-;-;-;-;-;-;-;-;-;-;-;-
1514190994199;-;-;7.906143;-0.9107971;0.019836426;-;-;-;-;-;-;-;-;-;-;-;-;-;-;-
1514190994220;-;-;9.407303;-0.06324768;-1.104248;-;-;-;-;-;-;-;-;-;-;-;-;-;-;-
1514190994240;-;-;9.252884;0.2635498;-0.40753174;-;-;-;-;-;-;-;-;-;-;-;-;-;-;-
1514190994260;-;-;8.969162;0.46466064;-0.68644714;-;-;-;-;-;-;-;-;-;-;-;-;-;-;-
1514190994281;-;-;8.788406;0.24679565;-0.82650757;-;-;-;-;-;-;-;-;-;-;-;-;-;-;-
1514190994301;-;-;8.950012;0.013366699;-1.1078339;-;-;-;-;-;-;-;-;-;-;-;-;-;-;-
1514190994321;-;-;9.2756195;-0.14704895;-1.1868439;-;-;-;-;-;-;-;-;-;-;-;-;-;-;-
1514190994342;-;-;9.685028;-0.10395813;-1.0503693;-;-;-;-;-;-;-;-;-;-;-;-;-;-;-
1514190994362;-;-;9.948395;0.08758545;-0.9186859;-;-;-;-;-;-;-;-;-;-;-;-;-;-;-
1514190994382;-;-;9.718552;0.18214417;-1.0192413;-;-;-;-;-;-;-;-;-;-;-;-;-;-;-
1514190994403;-;-;9.091278;0.34854126;-1.1054382;-;-;-;-;-;-;-;-;-;-;-;-;-;-;-
1514190994422;-;-;8.376602;0.79626465;-1.6405487;-;-;-;-;-;-;-;-;-;-;-;-;-;-;-
1514190994442;-;-;8.167114;1.3205872;-2.132553;-;-;-;-;-;-;-;-;-;-;-;-;-;-;-
1514190994463;-;-;8.286819;1.7551422;-2.1732483;-;-;-;-;-;-;-;-;-;-;-;-;-;-;-
1514190994483;-;-;8.311966;1.8317566;-2.483307;-;-;-;-;-;-;-;-;-;-;-;-;-;-;-
1514190994503;-;-;7.9228973;1.703659;-2.934616;-;-;-;-;-;-;-;-;-;-;-;-;-;-;-
1514190994523;-;-;7.3578644;1.1601868;-3.3188782;-;-;-;-;-;-;-;-;-;-;-;-;-;-;-
1514190994545;-;-;7.4883575;-0.064453125;-3.9138336;-;-;-;-;-;-;-;-;-;-;-;-;-;-;-
1514190994564;-;-;8.320343;-1.4530945;-3.851593;-;-;-;-;-;-;-;-;-;-;-;-;-;-;-
1514190994585;-;-;8.814743;-2.7663116;-3.7426453;-;-;-;-;-;-;-;-;-;-;-;-;-;-;-
1514190994605;-;-;9.650314;-3.1733246;-4.0946045;-;-;-;-;-;-;-;-;-;-;-;-;-;-;-
1514190994625;-;-;9.021835;-2.432312;-4.0706635;-;-;-;-;-;-;-;-;-;-;-;-;-;-;-
1514190994646;-;-;7.620041;-1.7272186;-3.8623657;-;-;-;-;-;-;-;-;-;-;-;-;-;-;-
1514190994666;-;-;6.755722;-1.3357697;-3.9712982;-;-;-;-;-;-;-;-;-;-;-;-;-;-;-
1514190994686;-;-;6.2709045;-1.285492;-3.6684265;-;-;-;-;-;-;-;-;-;-;-;-;-;-;-
1514190994707;-;-;6.4851837;-1.9786224;-3.6576538;-;-;-;-;-;-;-;-;-;-;-;-;-;-;-
1514190994727;-;-;6.920929;-2.6094818;-3.7797546;-;-;-;-;-;-;-;-;-;-;-;-;-;-;-
1514190994747;-;-;7.039444;-2.6956787;-4.2298737;-;-;-;-;-;-;-;-;-;-;-;-;-;-;-
1514190994768;-;-;6.8395233;-2.3521118;-4.5111847;-;-;-;-;-;-;-;-;-;-;-;-;-;-;-
1514190994788;-;-;6.403778;-1.5835724;-5.0319366;-;-;-;-;-;-;-;-;-;-;-;-;-;-;-
1514190994808;-;-;6.422943;-0.8270111;-5.306061;-;-;-;-;-;-;-;-;-;-;-;-;-;-;-
1514190994829;-;-;6.8754425;0.074417114;-5.701111;-;-;-;-;-;-;-;-;-;-;-;-;-;-;-
1514190994849;-;-;7.3542786;0.9351349;-6.7282257;-;-;-;-;-;-;-;-;-;-;-;-;-;-;-
1514190994869;-;-;7.732559;-0.038116455;-6.911377;-;-;-;-;-;-;-;-;-;-;-;-;-;-;-
1514190994890;-;-;8.553772;-1.313034;-6.457672;-;-;-;-;-;-;-;-;-;-;-;-;-;-;-
1514190994910;-;-;8.677078;-1.9450989;-6.495987;-;-;-;-;-;-;-;-;-;-;-;-;-;-;-
1514190994930;-;-;8.018677;-1.601532;-6.9532776;-;-;-;-;-;-;-;-;-;-;-;-;-;-;-
1514190994950;-;-;6.6611633;-1.1011353;-5.7358246;-;-;-;-;-;-;-;-;-;-;-;-;-;-;-
1514190994971;-;-;6.2086487;-0.39245605;-7.307617;-;-;-;-;-;-;-;-;-;-;-;-;-;-;-
1514190994991;-;-;7.095703;-0.4487152;-7.2932587;-;-;-;-;-;-;-;-;-;-;-;-;-;-;-
1514190995011;-;-;8.789597;0.072021484;-7.4895782;-;-;-;-;-;-;-;-;-;-;-;-;-;-;-
1514190995031;-;-;9.825104;0.40600586;-7.4009857;-;-;-;-;-;-;-;-;-;-;-;-;-;-;-
1514190995052;-;-;9.330688;0.10194397;-6.958069;-;-;-;-;-;-;-;-;-;-;-;-;-;-;-
1514190995072;-;-;8.436462;-0.2679596;-6.578583;-;-;-;-;-;-;-;-;-;-;-;-;-;-;-
1514190995093;-;-;6.9400787;-0.093185425;-6.3475494;-;-;-;-;-;-;-;-;-;-;-;-;-;-;-
1514190995113;-;-;6.0482483;0.20729065;-6.0195313;-;-;-;-;-;-;-;-;-;-;-;-;-;-;-
1514190995133;-;-;5.5753937;0.4766388;-5.8734894;-;-;-;-;-;-;-;-;-;-;-;-;-;-;-
1514190995154;-;-;5.667572;0.42277527;-5.9249725;-;-;-;-;-;-;-;-;-;-;-;-;-;-;-
1514190995174;-;-;5.589752;-0.08958435;-5.805252;-;-;-;-;-;-;-;-;-;-;-;-;-;-;-
1514190995194;-;-;5.2198486;-0.49421692;-6.021927;-;-;-;-;-;-;-;-;-;-;-;-;-;-;-
1514190995214;-;-;5.106125;-0.5157623;-6.1584015;-;-;-;-;-;-;-;-;-;-;-;-;-;-;-
1514190995235;-;-;5.1911163;-0.3002777;-6.191925;-;-;-;-;-;-;-;-;-;-;-;-;-;-;-
1514190995255;-;-;5.387436;-0.23443604;-6.4900055;-;-;-;-;-;-;-;-;-;-;-;-;-;-;-
1514190995275;-;-;5.628067;-0.085998535;-6.3367615;-;-;-;-;-;-;-;-;-;-;-;-;-;-;-
1514190995296;-;-;5.5586243;0.03012085;-6.626465;-;-;-;-;-;-;-;-;-;-;-;-;-;-;-
1514190995316;-;-;5.4760284;-0.5313263;-6.3319855;-;-;-;-;-;-;-;-;-;-;-;-;-;-;-
1514190995336;-;-;5.6651764;-1.2771149;-6.784485;-;-;-;-;-;-;-;-;-;-;-;-;-;-;-
1514190995357;-;-;5.407791;-1.3716888;-6.4038086;-;-;-;-;-;-;-;-;-;-;-;-;-;-;-
1514190995377;-;-;5.186325;-0.4152069;-6.4205627;-;-;-;-;-;-;-;-;-;-;-;-;-;-;-
1514190995397;-;-;5.376663;-0.09677124;-6.160797;-;-;-;-;-;-;-;-;-;-;-;-;-;-;-
1514190995418;-;-;6.1643677;-0.2679596;-6.267334;-;-;-;-;-;-;-;-;-;-;-;-;-;-;-
1514190995437;-;-;6.695877;-0.783905;-6.2050934;-;-;-;-;-;-;-;-;-;-;-;-;-;-;-
1514190995457;-;-;6.996353;-0.7408142;-6.3810577;-;-;-;-;-;-;-;-;-;-;-;-;-;-;-
1514190995478;-;-;6.7772827;-0.46548462;-6.235016;-;-;-;-;-;-;-;-;-;-;-;-;-;-;-
1514190995497;-;-;6.53067;-0.65940857;-5.10376;-;-;-;-;-;-;-;-;-;-;-;-;-;-;-
1514190995517;-;-;6.7090454;-0.26437378;-6.128479;-;-;-;-;-;-;-;-;-;-;-;-;-;-;-
1514190995537;-;-;6.7605133;-0.29309082;-6.1667786;-;-;-;-;-;-;-;-;-;-;-;-;-;-;-
1514190995558;-;-;7.161545;-0.31225586;-5.6735687;-;-;-;-;-;-;-;-;-;-;-;-;-;-;-
1514190995578;-;-;7.5757446;-0.45350647;-5.8806763;-;-;-;-;-;-;-;-;-;-;-;-;-;-;-
1514190995598;-;-;7.8798065;-0.89404297;-5.772934;-;-;-;-;-;-;-;-;-;-;-;-;-;-;-
1514190995619;-;-;7.569763;-0.95269775;-5.010376;-;-;-;-;-;-;-;-;-;-;-;-;-;-;-
1514190995639;-;-;7.4488525;-0.6498413;-4.911026;-;-;-;-;-;-;-;-;-;-;-;-;-;-;-
1514190995659;-;-;7.5781403;-0.3589325;-5.6963196;-;-;-;-;-;-;-;-;-;-;-;-;-;-;-
1514190995680;-;-;8.007904;-0.7910919;-5.748993;-;-;-;-;-;-;-;-;-;-;-;-;-;-;-
1514190995700;-;-;8.155136;-1.6661682;-4.9684753;-;-;-;-;-;-;-;-;-;-;-;-;-;-;-
1514190995720;-;-;8.672287;-1.6123047;-3.3236694;-;-;-;-;-;-;-;-;-;-;-;-;-;-;-
1514190995741;-;-;10.359009;-1.5416718;-2.4461975;-;-;-;-;-;-;-;-;-;-;-;-;-;-;-
1514190995760;-;-;14.645828;-0.8856659;-1.480133;-;-;-;-;-;-;-;-;-;-;-;-;-;-;-
1514190995780;-;-;19.292969;-0.5540619;-2.9908752;-;-;-;-;-;-;-;-;-;-;-;-;-;-;-
1514190995801;-;-;18.715958;-1.0436859;-6.195511;-;-;-;-;-;-;-;-;-;-;-;-;-;-;-
1514190995821;-;-;17.077133;-1.2124786;-6.354721;-;-;-;-;-;-;-;-;-;-;-;-;-;-;-
1514190995841;-;-;15.489777;-0.51934814;-4.19516;-;-;-;-;-;-;-;-;-;-;-;-;-;-;-
1514190995862;-;-;12.08403;-0.36372375;-3.3547974;-;-;-;-;-;-;-;-;-;-;-;-;-;-;-
1514190995882;-;-;8.317947;0.0037841797;-1.8332825;-;-;-;-;-;-;-;-;-;-;-;-;-;-;-
1514190995902;-;-;5.0618286;0.56163025;0.9918823;-;-;-;-;-;-;-;-;-;-;-;-;-;-;-
1514190995922;-;-;2.3791351;0.7830963;2.8342133;-;-;-;-;-;-;-;-;-;-;-;-;-;-;-
1514190995943;-;-;0.65411377;0.66218567;2.7839355;-;-;-;-;-;-;-;-;-;-;-;-;-;-;-
1514190995963;-;-;1.3041382;0.32460022;1.0708923;-;-;-;-;-;-;-;-;-;-;-;-;-;-;-
1514190995983;-;-;5.0762024;-0.100372314;-0.42907715;-;-;-;-;-;-;-;-;-;-;-;-;-;-;-
1514190996004;-;-;9.291183;-0.30387878;-0.6266022;-;-;-;-;-;-;-;-;-;-;-;-;-;-;-
1514190996024;-;-;15.232407;-0.11831665;-0.36083984;-;-;-;-;-;-;-;-;-;-;-;-;-;-;-
1514190996044;-;-;16.192474;-0.6797638;-1.8895416;-;-;-;-;-;-;-;-;-;-;-;-;-;-;-
1514190996065;-;-;13.203308;-2.0600128;-0.803772;-;-;-;-;-;-;-;-;-;-;-;-;-;-;-
1514190996084;-;-;11.012619;-2.0037537;-0.2064209;-;-;-;-;-;-;-;-;-;-;-;-;-;-;-
1514190996104;-;-;9.044586;-0.7671509;0.5884552;-;-;-;-;-;-;-;-;-;-;-;-;-;-;-
1514190996124;-;-;8.021072;0.50416565;0.8422394;-;-;-;-;-;-;-;-;-;-;-;-;-;-;-
1514190996145;-;-;6.4241333;1.7000732;1.1499023;-;-;-;-;-;-;-;-;-;-;-;-;-;-;-
1514190996165;-;-;5.260544;1.4055939;1.3569946;-;-;-;-;-;-;-;-;-;-;-;-;-;-;-
1514190996185;-;-;6.51033;-0.00819397;0.63275146;-;-;-;-;-;-;-;-;-;-;-;-;-;-;-
1514190996206;-;-;8.82193;-1.0975494;0.5704956;-;-;-;-;-;-;-;-;-;-;-;-;-;-;-
1514190996226;-;-;10.214157;-1.7619476;0.1539154;-;-;-;-;-;-;-;-;-;-;-;-;-;-;-
1514190996246;-;-;10.730103;-1.5476532;0.42445374;-;-;-;-;-;-;-;-;-;-;-;-;-;-;-
1514190996267;-;-;10.623566;-0.88446045;0.96435547;-;-;-;-;-;-;-;-;-;-;-;-;-;-;-
1514190996287;-;-;9.898117;-0.957489;1.0720825;-;-;-;-;-;-;-;-;-;-;-;-;-;-;-
1514190996307;-;-;8.824326;-1.1609955;1.3330536;-;-;-;-;-;-;-;-;-;-;-;-;-;-;-
1514190996328;-;-;8.054581;-1.0305176;1.5497284;-;-;-;-;-;-;-;-;-;-;-;-;-;-;-
1514190996348;-;-;7.877411;-0.8018646;1.4431915;-;-;-;-;-;-;-;-;-;-;-;-;-;-;-
1514190996368;-;-;8.084518;-0.83299255;1.176239;-;-;-;-;-;-;-;-;-;-;-;-;-;-;-
1514190996389;-;-;8.56694;-1.0604401;0.9344177;-;-;-;-;-;-;-;-;-;-;-;-;-;-;-
1514190996408;-;-;9.003891;-1.2711334;0.7464752;-;-;-;-;-;-;-;-;-;-;-;-;-;-;-
1514190996428;-;-;9.529419;-1.190918;0.79196167;-;-;-;-;-;-;-;-;-;-;-;-;-;-;-
1514190996448;-;-;9.717361;-0.9934082;0.84584045;-;-;-;-;-;-;-;-;-;-;-;-;-;-;-
1514190996468;-;-;9.062546;-0.7910919;0.15151978;-;-;-;-;-;-;-;-;-;-;-;-;-;-;-
1514190996489;-;-;9.63237;-0.6713867;0.9859009;-;-;-;-;-;-;-;-;-;-;-;-;-;-;-
1514190996509;-;-;10.733688;-0.86172485;1.2013702;-;-;-;-;-;-;-;-;-;-;-;-;-;-;-
1514190996529;-;-;10.236893;-0.5277252;0.45318604;-;-;-;-;-;-;-;-;-;-;-;-;-;-;-
1514190996550;-;-;8.801575;-0.026138306;0.04498291;-;-;-;-;-;-;-;-;-;-;-;-;-;-;-
1514190996570;-;-;8.461594;0.13665771;-0.39076233;-;-;-;-;-;-;-;-;-;-;-;-;-;-;-
1514190996591;-;-;8.788406;-0.00819397;-1.0982513;-;-;-;-;-;-;-;-;-;-;-;-;-;-;-
1514190996611;-;-;9.070923;-0.29071045;-2.2223358;-;-;-;-;-;-;-;-;-;-;-;-;-;-;-
1514190996631;-;-;9.489914;-0.4666748;-2.65448;-;-;-;-;-;-;-;-;-;-;-;-;-;-;-
1514190996651;-;-;10.021423;-0.39126587;-2.840042;-;-;-;-;-;-;-;-;-;-;-;-;-;-;-
1514190996672;-;-;9.711365;-0.4559021;-2.5359802;-;-;-;-;-;-;-;-;-;-;-;-;-;-;-
1514190996692;-;-;9.471954;-0.61750793;-2.562317;-;-;-;-;-;-;-;-;-;-;-;-;-;-;-
1514190996712;-;-;9.717361;-0.660614;-2.428238;-;-;-;-;-;-;-;-;-;-;-;-;-;-;-
1514190996733;-;-;9.723343;-0.49780273;-2.4342194;-;-;-;-;-;-;-;-;-;-;-;-;-;-;-
1514190996753;-;-;9.437241;-0.5600586;-2.4497833;-;-;-;-;-;-;-;-;-;-;-;-;-;-;-
1514190996773;-;-;9.184647;-0.6031494;-2.8424377;-;-;-;-;-;-;-;-;-;-;-;-;-;-;-
1514190996794;-;-;9.051773;-0.72883606;-2.7430725;-;-;-;-;-;-;-;-;-;-;-;-;-;-;-
1514190996813;-;-;9.222961;-1.249588;-2.460556;-;-;-;-;-;-;-;-;-;-;-;-;-;-;-
1514190996833;-;-;9.402527;-0.8868561;-2.1936035;-;-;-;-;-;-;-;-;-;-;-;-;-;-;-
1514190996853;-;-;9.115219;-1.0556488;-1.4262543;-;-;-;-;-;-;-;-;-;-;-;-;-;-;-
1514190996874;-;-;9.021835;-1.1286774;-1.0192413;-;-;-;-;-;-;-;-;-;-;-;-;-;-;-
1514190996894;-;-;9.322311;-1.2926788;-0.412323;-;-;-;-;-;-;-;-;-;-;-;-;-;-;-
1514190996914;-;-;9.716156;-1.1645813;0.49150085;-;-;-;-;-;-;-;-;-;-;-;-;-;-;-
1514190996935;-;-;9.330688;-1.2400055;0.66986084;-;-;-;-;-;-;-;-;-;-;-;-;-;-;-
1514190996955;-;-;8.970367;-1.1478271;0.7859802;-;-;-;-;-;-;-;-;-;-;-;-;-;-;-
1514190996975;-;-;8.527435;-1.3968201;0.44480896;-;-;-;-;-;-;-;-;-;-;-;-;-;-;-
1514190996996;-;-;8.497513;-1.8373566;-0.34169006;-;-;-;-;-;-;-;-;-;-;-;-;-;-;-
1514190997016;-;-;8.92128;-1.5763855;-0.84446716;-;-;-;-;-;-;-;-;-;-;-;-;-;-;-
1514190997036;-;-;9.576096;-1.214859;-0.8684082;-;-;-;-;-;-;-;-;-;-;-;-;-;-;-
1514190997057;-;-;10.178238;-1.4626617;-0.748703;-;-;-;-;-;-;-;-;-;-;-;-;-;-;-
1514190997076;-;-;10.404495;-1.8505249;-0.6337738;-;-;-;-;-;-;-;-;-;-;-;-;-;-;-
1514190997096;-;-;9.694611;-2.0025635;-0.7858124;-;-;-;-;-;-;-;-;-;-;-;-;-;-;-
1514190997117;-;-;8.702209;-1.5596313;-0.5823059;-;-;-;-;-;-;-;-;-;-;-;-;-;-;-
1514190997137;-;-;8.040222;-1.0113525;0.05934143;-;-;-;-;-;-;-;-;-;-;-;-;-;-;-
1514190997157;-;-;7.5039215;-0.6246948;0.8266754;-;-;-;-;-;-;-;-;-;-;-;-;-;-;-
1514190997178;-;-;8.687851;-0.9610748;0.30593872;-;-;-;-;-;-;-;-;-;-;-;-;-;-;-
1514190997197;-;-;9.199005;-1.6374359;-0.39076233;-;-;-;-;-;-;-;-;-;-;-;-;-;-;-
1514190997217;-;-;9.451599;-2.2826843;-0.60983276;-;-;-;-;-;-;-;-;-;-;-;-;-;-;-
1514190997237;-;-;9.807144;-2.2922516;-0.3440857;-;-;-;-;-;-;-;-;-;-;-;-;-;-;-
1514190997258;-;-;9.748489;-1.7320099;-0.09628296;-;-;-;-;-;-;-;-;-;-;-;-;-;-;-
1514190997278;-;-;9.477936;-1.333374;0.32868958;-;-;-;-;-;-;-;-;-;-;-;-;-;-;-
1514190997298;-;-;9.274429;-1.1406403;0.7117615;-;-;-;-;-;-;-;-;-;-;-;-;-;-;-
1514190997319;-;-;8.772842;-1.0580444;0.9811096;-;-;-;-;-;-;-;-;-;-;-;-;-;-;-
1514190997339;-;-;8.423294;-0.9610748;0.6854248;-;-;-;-;-;-;-;-;-;-;-;-;-;-;-
1514190997359;-;-;8.303574;-0.81144714;0.5381775;-;-;-;-;-;-;-;-;-;-;-;-;-;-;-
1514190997379;-;-;8.886566;-0.6821594;0.27720642;-;-;-;-;-;-;-;-;-;-;-;-;-;-;-
1514190997400;-;-;9.179855;-0.7671509;0.5262146;-;-;-;-;-;-;-;-;-;-;-;-;-;-;-
1514190997420;-;-;9.639542;-0.78630066;0.39453125;-;-;-;-;-;-;-;-;-;-;-;-;-;-;-
1514190997440;-;-;10.030991;-0.6187134;0.1144104;-;-;-;-;-;-;-;-;-;-;-;-;-;-;-
1514190997461;-;-;9.764038;-0.71328735;0.860199;-;-;-;-;-;-;-;-;-;-;-;-;-;-;-
1514190997481;-;-;8.478363;-0.9251709;0.8254852;-;-;-;-;-;-;-;-;-;-;-;-;-;-;-
1514190997501;-;-;7.699051;-1.6601868;0.7931671;-;-;-;-;-;-;-;-;-;-;-;-;-;-;-
1514190997522;-;-;8.26767;-2.4143677;0.80752563;-;-;-;-;-;-;-;-;-;-;-;-;-;-;-
1514190997542;-;-;10.458359;-2.0767822;1.9914551;-;-;-;-;-;-;-;-;-;-;-;-;-;-;-
1514190997562;-;-;10.713348;-1.5452728;1.9471741;-;-;-;-;-;-;-;-;-;-;-;-;-;-;-
1514190997583;-;-;10.002274;-1.1873322;0.15750122;-;-;-;-;-;-;-;-;-;-;-;-;-;-;-
1514190997603;-;-;9.529419;-1.3214111;-0.29499817;-;-;-;-;-;-;-;-;-;-;-;-;-;-;-
1514190997623;-;-;9.361816;-1.285492;0.070114136;-;-;-;-;-;-;-;-;-;-;-;-;-;-;-
1514190997644;-;-;8.886566;-1.3393707;0.91526794;-;-;-;-;-;-;-;-;-;-;-;-;-;-;-
1514190997664;-;-;8.546585;-1.4506989;1.4515686;-;-;-;-;-;-;-;-;-;-;-;-;-;-;-
1514190997684;-;-;8.564545;-1.6063232;1.504242;-;-;-;-;-;-;-;-;-;-;-;-;-;-;-
1514190997704;-;-;8.465195;-1.5919495;1.4635468;-;-;-;-;-;-;-;-;-;-;-;-;-;-;-
1514190997725;-;-;8.795593;-1.4806213;1.552124;-;-;-;-;-;-;-;-;-;-;-;-;-;-;-
1514190997745;-;-;8.671097;-1.3752747;1.4168549;-;-;-;-;-;-;-;-;-;-;-;-;-;-;-
1514190997766;-;-;8.855438;-1.3465424;1.1223602;-;-;-;-;-;-;-;-;-;-;-;-;-;-;-
1514190997786;-;-;9.352234;-1.4566803;0.899704;-;-;-;-;-;-;-;-;-;-;-;-;-;-;-
1514190997806;-;-;9.272034;-1.7212372;0.80513;-;-;-;-;-;-;-;-;-;-;-;-;-;-;-
1514190997827;-;-;9.762848;-1.7068787;0.860199;-;-;-;-;-;-;-;-;-;-;-;-;-;-;-
1514190997846;-;-;9.895721;-1.625473;0.72732544;-;-;-;-;-;-;-;-;-;-;-;-;-;-;-
1514190997866;-;-;9.657501;-1.6278687;0.76322937;-;-;-;-;-;-;-;-;-;-;-;-;-;-;-
1514190997886;-;-;9.185837;-1.7727203;1.1738434;-;-;-;-;-;-;-;-;-;-;-;-;-;-;-
1514190997907;-;-;9.005081;-1.8182068;1.3869324;-;-;-;-;-;-;-;-;-;-;-;-;-;-;-
1514190997927;-;-;9.099655;-1.6422272;1.6694489;-;-;-;-;-;-;-;-;-;-;-;-;-;-;-
1514190997947;-;-;8.650742;-1.6733551;1.686203;-;-;-;-;-;-;-;-;-;-;-;-;-;-;-
1514190997968;-;-;8.371811;-1.5512543;1.6754303;-;-;-;-;-;-;-;-;-;-;-;-;-;-;-
1514190997988;-;-;8.406525;-1.3609161;1.923233;-;-;-;-;-;-;-;-;-;-;-;-;-;-;-
1514190998008;-;-;8.606445;-1.170578;1.8813324;-;-;-;-;-;-;-;-;-;-;-;-;-;-;-
1514190998029;-;-;8.955994;-1.0388947;1.5892334;-;-;-;-;-;-;-;-;-;-;-;-;-;-;-
1514190998048;-;-;9.008667;-1.2639465;1.8226776;-;-;-;-;-;-;-;-;-;-;-;-;-;-;-
1514190998068;-;-;9.319916;-1.3692932;1.6059875;-;-;-;-;-;-;-;-;-;-;-;-;-;-;-
1514190998088;-;-;9.2708435;-1.31781;1.4982605;-;-;-;-;-;-;-;-;-;-;-;-;-;-;-
1514190998109;-;-;9.25647;-1.0544586;1.5557098;-;-;-;-;-;-;-;-;-;-;-;-;-;-;-
1514190998129;-;-;9.307953;-1.0400848;1.3617859;-;-;-;-;-;-;-;-;-;-;-;-;-;-;-
1514190998149;-;-;9.221756;-1.0388947;1.552124;-;-;-;-;-;-;-;-;-;-;-;-;-;-;-
1514190998170;-;-;9.019455;-1.1047363;1.1115875;-;-;-;-;-;-;-;-;-;-;-;-;-;-;-
1514190998190;-;-;8.806366;-1.2424011;1.4755096;-;-;-;-;-;-;-;-;-;-;-;-;-;-;-
1514190998210;-;-;9.336685;-0.95988464;1.3857269;-;-;-;-;-;-;-;-;-;-;-;-;-;-;-
1514190998231;-;-;8.923676;-1.0041809;1.3522034;-;-;-;-;-;-;-;-;-;-;-;-;-;-;-
1514190998251;-;-;8.837494;-1.0460815;1.5940247;-;-;-;-;-;-;-;-;-;-;-;-;-;-;-
1514190998271;-;-;9.15831;-0.96347046;1.1989746;-;-;-;-;-;-;-;-;-;-;-;-;-;-;-
1514190998292;-;-;9.250488;-0.76116943;1.7759857;-;-;-;-;-;-;-;-;-;-;-;-;-;-;-
1514190998312;-;-;9.221756;-0.6833496;1.3330536;-;-;-;-;-;-;-;-;-;-;-;-;-;-;-
1514190998332;-;-;8.80397;-0.6330719;1.5413513;-;-;-;-;-;-;-;-;-;-;-;-;-;-;-
1514190998353;-;-;8.578918;-0.58399963;1.373764;-;-;-;-;-;-;-;-;-;-;-;-;-;-;-
1514190998372;-;-;9.029022;-0.6246948;1.3534088;-;-;-;-;-;-;-;-;-;-;-;-;-;-;-
1514190998392;-;-;8.908112;-0.6438446;1.2696075;-;-;-;-;-;-;-;-;-;-;-;-;-;-;-
1514190998412;-;-;9.369003;-0.4451294;1.4958649;-;-;-;-;-;-;-;-;-;-;-;-;-;-;-
1514190998432;-;-;9.142746;-0.50857544;1.033783;-;-;-;-;-;-;-;-;-;-;-;-;-;-;-
1514190998453;-;-;9.240906;-0.40682983;1.112793;-;-;-;-;-;-;-;-;-;-;-;-;-;-;-
1514190998473;-;-;9.026627;-0.7695465;0.6255646;-;-;-;-;-;-;-;-;-;-;-;-;-;-;-
1514190998493;-;-;9.843048;-0.44033813;0.42445374;-;-;-;-;-;-;-;-;-;-;-;-;-;-;-
1514190998514;-;-;9.51265;-0.38168335;0.5848694;-;-;-;-;-;-;-;-;-;-;-;-;-;-;-
1514190998534;-;-;9.003891;-0.86172485;0.18383789;-;-;-;-;-;-;-;-;-;-;-;-;-;-;-
1514190998554;-;-;9.279221;-0.92396545;0.30714417;-;-;-;-;-;-;-;-;-;-;-;-;-;-;-
1514190998575;-;-;10.002274;-0.8593292;1.04216;-;-;-;-;-;-;-;-;-;-;-;-;-;-;-
1514190998595;-;-;9.15712;-0.7527771;0.8218994;-;-;-;-;-;-;-;-;-;-;-;-;-;-;-
1514190998615;-;-;8.9787445;-0.8569336;0.60162354;-;-;-;-;-;-;-;-;-;-;-;-;-;-;-
1514190998636;-;-;8.801575;-0.80426025;1.0840607;-;-;-;-;-;-;-;-;-;-;-;-;-;-;-
1514190998656;-;-;8.788406;-0.73602295;1.1905975;-;-;-;-;-;-;-;-;-;-;-;-;-;-;-
1514190998676;-;-;8.697433;-0.86531067;0.9715271;-;-;-;-;-;-;-;-;-;-;-;-;-;-;-
1514190998697;-;-;8.84108;-1.1011353;0.55374146;-;-;-;-;-;-;-;-;-;-;-;-;-;-;-
1514190998717;-;-;9.227737;-1.0460815;0.53100586;-;-;-;-;-;-;-;-;-;-;-;-;-;-;-
1514190998737;-;-;9.674255;-1.0089569;0.24609375;-;-;-;-;-;-;-;-;-;-;-;-;-;-;-
1514190998757;-;-;9.962769;-0.6582184;0.19581604;-;-;-;-;-;-;-;-;-;-;-;-;-;-;-
1514190998778;-;-;9.839462;-0.3433838;0.22215271;-;-;-;-;-;-;-;-;-;-;-;-;-;-;-
1514190998798;-;-;9.615601;-0.17219543;0.2915802;-;-;-;-;-;-;-;-;-;-;-;-;-;-;-
1514190998818;-;-;9.23613;-0.32661438;0.22932434;-;-;-;-;-;-;-;-;-;-;-;-;-;-;-
1514190998839;-;-;8.911713;-0.6725769;0.39453125;-;-;-;-;-;-;-;-;-;-;-;-;-;-;-
1514190998859;-;-;8.8051605;-0.97424316;0.6961975;-;-;-;-;-;-;-;-;-;-;-;-;-;-;-
1514190998879;-;-;8.845871;-1.0712128;0.78956604;-;-;-;-;-;-;-;-;-;-;-;-;-;-;-
1514190998900;-;-;9.011063;-1.0580444;0.9104767;-;-;-;-;-;-;-;-;-;-;-;-;-;-;-
1514190998920;-;-;9.182251;-1.0400848;0.83984375;-;-;-;-;-;-;-;-;-;-;-;-;-;-;-
1514190998940;-;-;9.328293;-0.8964386;0.7728119;-;-;-;-;-;-;-;-;-;-;-;-;-;-;-
1514190998960;-;-;9.258865;-0.7216644;0.7428894;-;-;-;-;-;-;-;-;-;-;-;-;-;-;-
1514190998981;-;-;9.173874;-0.63905334;0.9822998;-;-;-;-;-;-;-;-;-;-;-;-;-;-;-
1514190999001;-;-;9.0577545;-0.5672302;1.0242004;-;-;-;-;-;-;-;-;-;-;-;-;-;-;-
1514190999021;-;-;9.105637;-0.6246948;1.1594696;-;-;-;-;-;-;-;-;-;-;-;-;-;-;-
1514190999041;-;-;9.195419;-0.8665161;1.236084;-;-;-;-;-;-;-;-;-;-;-;-;-;-;-
1514190999062;-;-;9.115219;-0.9251709;0.978714;-;-;-;-;-;-;-;-;-;-;-;-;-;-;-
1514190999082;-;-;9.0577545;-0.5564575;0.43403625;-;-;-;-;-;-;-;-;-;-;-;-;-;-;-
1514190999102;-;-;9.342667;0.23602295;0.04258728;-;-;-;-;-;-;-;-;-;-;-;-;-;-;-
1514190999122;-;-;9.346252;0.1905365;-0.1309967;-;-;-;-;-;-;-;-;-;-;-;-;-;-;-
1514190999143;-;-;9.402527;-0.289505;-0.0076904297;-;-;-;-;-;-;-;-;-;-;-;-;-;-;-
1514190999163;-;-;9.446808;-0.7384186;0.36819458;-;-;-;-;-;-;-;-;-;-;-;-;-;-;-
1514190999183;-;-;9.402527;-0.8712921;0.350235;-;-;-;-;-;-;-;-;-;-;-;-;-;-;-
1514190999204;-;-;9.203796;-0.289505;0.25086975;-;-;-;-;-;-;-;-;-;-;-;-;-;-;-
1514190999224;-;-;8.957199;-0.32421875;0.39572144;-;-;-;-;-;-;-;-;-;-;-;-;-;-;-
1514190999244;-;-;9.06015;-0.8162384;0.62197876;-;-;-;-;-;-;-;-;-;-;-;-;-;-;-
1514190999265;-;-;9.230133;-0.98861694;0.53219604;-;-;-;-;-;-;-;-;-;-;-;-;-;-;-
1514190999285;-;-;9.613205;-0.6534271;0.23292542;-;-;-;-;-;-;-;-;-;-;-;-;-;-;-
1514190999305;-;-;9.579697;-0.34217834;0.27960205;-;-;-;-;-;-;-;-;-;-;-;-;-;-;-
1514190999326;-;-;9.273239;-0.47625732;0.69140625;-;-;-;-;-;-;-;-;-;-;-;-;-;-;-
1514190999346;-;-;9.063736;-0.75398254;0.7931671;-;-;-;-;-;-;-;-;-;-;-;-;-;-;-
1514190999366;-;-;8.975159;-1.0843811;0.74168396;-;-;-;-;-;-;-;-;-;-;-;-;-;-;-
1514190999386;-;-;9.080505;-0.92996216;0.60162354;-;-;-;-;-;-;-;-;-;-;-;-;-;-;-
1514190999407;-;-;9.246902;-0.35295105;0.8422394;-;-;-;-;-;-;-;-;-;-;-;-;-;-;-
1514190999427;-;-;9.031418;-0.4379425;0.96195984;-;-;-;-;-;-;-;-;-;-;-;-;-;-;-
1514190999447;-;-;8.975159;-0.6989136;0.82907104;-;-;-;-;-;-;-;-;-;-;-;-;-;-;-
1514190999468;-;-;9.390549;-0.957489;0.62197876;-;-;-;-;-;-;-;-;-;-;-;-;-;-;-
1514190999488;-;-;9.776016;-0.700119;0.38974;-;-;-;-;-;-;-;-;-;-;-;-;-;-;-
1514190999508;-;-;9.771225;-0.102752686;0.24728394;-;-;-;-;-;-;-;-;-;-;-;-;-;-;-
1514190999529;-;-;9.482727;0.22644043;0.4795227;-;-;-;-;-;-;-;-;-;-;-;-;-;-;-
1514190999549;-;-;9.163101;0.12109375;0.6950073;-;-;-;-;-;-;-;-;-;-;-;-;-;-;-
1514190999569;-;-;8.990723;-0.47146606;1.0074463;-;-;-;-;-;-;-;-;-;-;-;-;-;-;-
1514190999590;-;-;8.9787445;-0.704895;1.2025757;-;-;-;-;-;-;-;-;-;-;-;-;-;-;-
1514190999610;-;-;8.995499;-0.7228546;1.1882019;-;-;-;-;-;-;-;-;-;-;-;-;-;-;-
1514190999630;-;-;9.030228;-0.43196106;1.1499023;-;-;-;-;-;-;-;-;-;-;-;-;-;-;-
1514190999651;-;-;9.167892;-0.14346313;1.112793;-;-;-;-;-;-;-;-;-;-;-;-;-;-;-
1514190999671;-;-;9.361816;-0.038116455;1.057724;-;-;-;-;-;-;-;-;-;-;-;-;-;-;-
1514190999691;-;-;9.307953;-0.071640015;0.75964355;-;-;-;-;-;-;-;-;-;-;-;-;-;-;-
1514190999712;-;-;9.069733;-0.25;0.5190277;-;-;-;-;-;-;-;-;-;-;-;-;-;-;-
1514190999732;-;-;9.135559;-0.2033081;0.45916748;-;-;-;-;-;-;-;-;-;-;-;-;-;-;-
1514190999752;-;-;9.324707;-0.026138306;0.5980377;-;-;-;-;-;-;-;-;-;-;-;-;-;-;-
1514190999773;-;-;9.440826;-0.045303345;0.68782043;-;-;-;-;-;-;-;-;-;-;-;-;-;-;-
1514190999793;-;-;9.380966;-0.24520874;0.6710663;-;-;-;-;-;-;-;-;-;-;-;-;-;-;-
1514190999813;-;-;9.0793;-0.47984314;0.4040985;-;-;-;-;-;-;-;-;-;-;-;-;-;-;-
1514190999834;-;-;9.264847;-0.6833496;0.1144104;-;-;-;-;-;-;-;-;-;-;-;-;-;-;-
1514190999854;-;-;9.513855;-0.41879272;0.17066956;-;-;-;-;-;-;-;-;-;-;-;-;-;-;-
1514190999874;-;-;9.631165;-0.1697998;0.6064148;-;-;-;-;-;-;-;-;-;-;-;-;-;-;-
1514190999894;-;-;8.8997345;-0.19732666;0.6782379;-;-;-;-;-;-;-;-;-;-;-;-;-;-;-
1514190999915;-;-;8.264084;-0.7264557;0.3322754;-;-;-;-;-;-;-;-;-;-;-;-;-;-;-
1514190999935;-;-;8.942825;-0.9539032;0.38974;-;-;-;-;-;-;-;-;-;-;-;-;-;-;-
1514190999955;-;-;9.588074;-0.38287354;0.7033844;-;-;-;-;-;-;-;-;-;-;-;-;-;-;-
1514190999976;-;-;9.702988;0.112716675;0.9416046;-;-;-;-;-;-;-;-;-;-;-;-;-;-;-
1514190999996;-;-;9.63356;0.081588745;0.78837585;-;-;-;-;-;-;-;-;-;-;-;-;-;-;-
1514191000016;-;-;9.601242;-0.24281311;0.60401917;-;-;-;-;-;-;-;-;-;-;-;-;-;-;-
1514191000037;-;-;9.169083;-0.27035522;0.7225342;-;-;-;-;-;-;-;-;-;-;-;-;-;-;-
1514191000056;-;-;8.72496;-0.18655396;0.9320221;-;-;-;-;-;-;-;-;-;-;-;-;-;-;-
1514191000076;-;-;8.460403;-0.083602905;1.1139832;-;-;-;-;-;-;-;-;-;-;-;-;-;-;-
1514191000096;-;-;8.680664;0.091171265;1.0708923;-;-;-;-;-;-;-;-;-;-;-;-;-;-;-
1514191000117;-;-;9.127182;0.34854126;1.0756836;-;-;-;-;-;-;-;-;-;-;-;-;-;-;-
1514191000137;-;-;9.209793;0.39164734;1.0984192;-;-;-;-;-;-;-;-;-;-;-;-;-;-;-
1514191000157;-;-;9.194229;-0.05368042;1.0804749;-;-;-;-;-;-;-;-;-;-;-;-;-;-;-
1514191000180;-;-;9.21817;-0.60913086;1.1846161;-;-;-;-;-;-;-;-;-;-;-;-;-;-;-
1514191000198;-;-;9.355835;-0.8018646;1.2624207;-;-;-;-;-;-;-;-;-;-;-;-;-;-;-
1514191000218;-;-;9.373795;-0.6151123;1.0218048;-;-;-;-;-;-;-;-;-;-;-;-;-;-;-
1514191000239;-;-;9.074509;-0.38287354;0.9751282;-;-;-;-;-;-;-;-;-;-;-;-;-;-;-
1514191000258;-;-;9.064941;-0.23443604;1.0673065;-;-;-;-;-;-;-;-;-;-;-;-;-;-;-
1514191000278;-;-;9.23732;-0.12669373;1.1463013;-;-;-;-;-;-;-;-;-;-;-;-;-;-;-
1514191000298;-;-;9.036209;-0.117126465;0.9487915;-;-;-;-;-;-;-;-;-;-;-;-;-;-;-
1514191000319;-;-;8.997894;-0.2679596;0.8123169;-;-;-;-;-;-;-;-;-;-;-;-;-;-;-
1514191000339;-;-;9.159515;-0.47505188;0.8614044;-;-;-;-;-;-;-;-;-;-;-;-;-;-;-
1514191000359;-;-;9.243301;-0.71806335;0.87457275;-;-;-;-;-;-;-;-;-;-;-;-;-;-;-
1514191000380;-;-;9.227737;-0.94911194;0.8661804;-;-;-;-;-;-;-;-;-;-;-;-;-;-;-
1514191000400;-;-;9.1128235;-1.1490326;0.8374634;-;-;-;-;-;-;-;-;-;-;-;-;-;-;-
1514191000420;-;-;9.093674;-1.2184601;0.77760315;-;-;-;-;-;-;-;-;-;-;-;-;-;-;-
1514191000440;-;-;9.123596;-1.2268372;0.844635;-;-;-;-;-;-;-;-;-;-;-;-;-;-;-
1514191000461;-;-;9.154724;-1.2388;0.8302765;-;-;-;-;-;-;-;-;-;-;-;-;-;-;-
1514191000480;-;-;9.0972595;-1.0951538;0.7752075;-;-;-;-;-;-;-;-;-;-;-;-;-;-;-
1514191000500;-;-;9.056564;-0.71687317;0.50704956;-;-;-;-;-;-;-;-;-;-;-;-;-;-;-
1514191000520;-;-;9.190628;-0.5384979;0.31552124;-;-;-;-;-;-;-;-;-;-;-;-;-;-;-
1514191000541;-;-;9.268448;-0.30267334;0.15031433;-;-;-;-;-;-;-;-;-;-;-;-;-;-;-
1514191000561;-;-;9.410904;-0.28112793;0.1431427;-;-;-;-;-;-;-;-;-;-;-;-;-;-;-
1514191000581;-;-;9.47554;-0.31105042;0.091659546;-;-;-;-;-;-;-;-;-;-;-;-;-;-;-
1514191000602;-;-;9.228943;-0.41760254;0.21376038;-;-;-;-;-;-;-;-;-;-;-;-;-;-;-
1514191000622;-;-;9.1128235;-0.55166626;0.18862915;-;-;-;-;-;-;-;-;-;-;-;-;-;-;-
1514191000642;-;-;9.346252;-0.5780029;-0.04840088;-;-;-;-;-;-;-;-;-;-;-;-;-;-;-
1514191000663;-;-;9.369003;-0.6426544;-0.1309967;-;-;-;-;-;-;-;-;-;-;-;-;-;-;-
1514191000682;-;-;9.352234;-0.6725769;0.036590576;-;-;-;-;-;-;-;-;-;-;-;-;-;-;-
1514191000702;-;-;9.324707;-0.6833496;0.21376038;-;-;-;-;-;-;-;-;-;-;-;-;-;-;-
1514191000722;-;-;9.25647;-0.6031494;0.23171997;-;-;-;-;-;-;-;-;-;-;-;-;-;-;-
1514191000743;-;-;9.254074;-0.40682983;0.171875;-;-;-;-;-;-;-;-;-;-;-;-;-;-;-
1514191000763;-;-;9.196625;-0.12908936;0.17066956;-;-;-;-;-;-;-;-;-;-;-;-;-;-;-
1514191000783;-;-;9.151123;0.117507935;0.19102478;-;-;-;-;-;-;-;-;-;-;-;-;-;-;-
1514191000803;-;-;9.06015;-0.112335205;0.06413269;-;-;-;-;-;-;-;-;-;-;-;-;-;-;-
1514191000824;-;-;9.12001;-0.3984375;-0.56674194;-;-;-;-;-;-;-;-;-;-;-;-;-;-;-
1514191000844;-;-;9.506668;-1.0628357;-1.4190826;-;-;-;-;-;-;-;-;-;-;-;-;-;-;-
1514191000864;-;-;10.252457;-1.5536499;-2.302536;-;-;-;-;-;-;-;-;-;-;-;-;-;-;-
1514191000884;-;-;11.293945;-1.9175568;-2.728714;-;-;-;-;-;-;-;-;-;-;-;-;-;-;-
1514191000905;-;-;11.347809;-1.3118286;-3.405075;-;-;-;-;-;-;-;-;-;-;-;-;-;-;-
1514191000925;-;-;10.959946;0.2240448;-3.5978088;-;-;-;-;-;-;-;-;-;-;-;-;-;-;-
1514191000945;-;-;10.20697;1.4762115;-2.5802612;-;-;-;-;-;-;-;-;-;-;-;-;-;-;-
1514191000966;-;-;8.807556;0.6430359;-2.0116425;-;-;-;-;-;-;-;-;-;-;-;-;-;-;-
1514191000986;-;-;7.580536;-1.3381653;-2.670044;-;-;-;-;-;-;-;-;-;-;-;-;-;-;-
1514191001006;-;-;6.43132;-1.8804474;-3.8827057;-;-;-;-;-;-;-;-;-;-;-;-;-;-;-
1514191001026;-;-;6.225418;-0.94192505;-3.6217499;-;-;-;-;-;-;-;-;-;-;-;-;-;-;-
1514191001047;-;-;6.0578156;-0.05847168;-2.761032;-;-;-;-;-;-;-;-;-;-;-;-;-;-;-
1514191001067;-;-;6.4408875;0.25517273;-2.3145142;-;-;-;-;-;-;-;-;-;-;-;-;-;-;-
1514191001087;-;-;6.8718414;0.9506836;-2.3540192;-;-;-;-;-;-;-;-;-;-;-;-;-;-;-
1514191001108;-;-;7.3542786;1.3636932;-2.1493073;-;-;-;-;-;-;-;-;-;-;-;-;-;-;-
1514191001128;-;-;8.103668;1.070404;-1.4777374;-;-;-;-;-;-;-;-;-;-;-;-;-;-;-
1514191001148;-;-;7.9863434;0.8237915;-0.8396759;-;-;-;-;-;-;-;-;-;-;-;-;-;-;-
1514191001169;-;-;8.198242;1.0153351;-0.92108154;-;-;-;-;-;-;-;-;-;-;-;-;-;-;-
1514191001188;-;-;8.983536;1.4199524;-1.1676941;-;-;-;-;-;-;-;-;-;-;-;-;-;-;-
1514191001208;-;-;10.471527;2.2543335;-2.0834656;-;-;-;-;-;-;-;-;-;-;-;-;-;-;-
1514191001228;-;-;11.270004;3.0839233;-2.488083;-;-;-;-;-;-;-;-;-;-;-;-;-;-;-
1514191001249;-;-;11.490265;3.0180817;-2.5048523;-;-;-;-;-;-;-;-;-;-;-;-;-;-;-
1514191001269;-;-;11.888901;2.090332;-3.1907806;-;-;-;-;-;-;-;-;-;-;-;-;-;-;-
1514191001289;-;-;11.480682;1.437912;-3.1871948;-;-;-;-;-;-;-;-;-;-;-;-;-;-;-
1514191001310;-;-;11.013824;0.80584717;-2.8639832;-;-;-;-;-;-;-;-;-;-;-;-;-;-;-
1514191001329;-;-;9.857422;0.21806335;-2.1181793;-;-;-;-;-;-;-;-;-;-;-;-;-;-;-
1514191001349;-;-;8.722565;-0.093185425;-1.5124512;-;-;-;-;-;-;-;-;-;-;-;-;-;-;-
1514191001370;-;-;7.99234;-0.24281311;-0.41949463;-;-;-;-;-;-;-;-;-;-;-;-;-;-;-
1514191001390;-;-;6.7569275;0.27671814;0.16947937;-;-;-;-;-;-;-;-;-;-;-;-;-;-;-
1514191001410;-;-;6.8562927;0.7579498;-0.39794922;-;-;-;-;-;-;-;-;-;-;-;-;-;-;-
1514191001430;-;-;7.502716;0.9399109;-1.3664093;-;-;-;-;-;-;-;-;-;-;-;-;-;-;-
1514191001451;-;-;8.780029;1.1230774;-1.7255402;-;-;-;-;-;-;-;-;-;-;-;-;-;-;-
1514191001471;-;-;10.16507;1.0572357;-1.495697;-;-;-;-;-;-;-;-;-;-;-;-;-;-;-
1514191001491;-;-;10.928818;0.4766388;-1.234726;-;-;-;-;-;-;-;-;-;-;-;-;-;-;-
1514191001512;-;-;10.452377;-0.10635376;-1.3316956;-;-;-;-;-;-;-;-;-;-;-;-;-;-;-
1514191001532;-;-;9.220566;0.031311035;-0.45420837;-;-;-;-;-;-;-;-;-;-;-;-;-;-;-
1514191001552;-;-;8.363434;0.45388794;0.3418579;-;-;-;-;-;-;-;-;-;-;-;-;-;-;-
1514191001573;-;-;8.110855;0.6214905;0.4400177;-;-;-;-;-;-;-;-;-;-;-;-;-;-;-
1514191001593;-;-;8.44603;0.8453522;0.1874237;-;-;-;-;-;-;-;-;-;-;-;-;-;-;-
1514191001613;-;-;8.970367;0.8046417;-0.07952881;-;-;-;-;-;-;-;-;-;-;-;-;-;-;-
1514191001633;-;-;9.424072;0.36410522;0.22215271;-;-;-;-;-;-;-;-;-;-;-;-;-;-;-
1514191001654;-;-;9.974731;0.17018127;0.40769958;-;-;-;-;-;-;-;-;-;-;-;-;-;-;-
1514191001674;-;-;9.146347;0.6178894;0.176651;-;-;-;-;-;-;-;-;-;-;-;-;-;-;-
1514191001695;-;-;8.07254;1.1350403;0.10243225;-;-;-;-;-;-;-;-;-;-;-;-;-;-;-
1514191001715;-;-;9.4133;1.0440674;0.35263062;-;-;-;-;-;-;-;-;-;-;-;-;-;-;-
1514191001735;-;-;10.154297;0.730423;0.16468811;-;-;-;-;-;-;-;-;-;-;-;-;-;-;-
1514191001755;-;-;10.173447;0.29588318;-0.0340271;-;-;-;-;-;-;-;-;-;-;-;-;-;-;-
1514191001776;-;-;9.748489;-0.5361023;-0.087905884;-;-;-;-;-;-;-;-;-;-;-;-;-;-;-
1514191001796;-;-;9.159515;-1.6458282;0.07849121;-;-;-;-;-;-;-;-;-;-;-;-;-;-;-
1514191001816;-;-;8.951218;-1.9642487;0.15031433;-;-;-;-;-;-;-;-;-;-;-;-;-;-;-
1514191001837;-;-;9.155914;-1.5380859;-0.19204712;-;-;-;-;-;-;-;-;-;-;-;-;-;-;-
1514191001857;-;-;8.987122;-0.9957886;-0.60743713;-;-;-;-;-;-;-;-;-;-;-;-;-;-;-
1514191001877;-;-;9.250488;-0.9622803;-0.9007416;-;-;-;-;-;-;-;-;-;-;-;-;-;-;-
1514191001898;-;-;9.668274;-1.0161438;-1.2251434;-;-;-;-;-;-;-;-;-;-;-;-;-;-;-
1514191001918;-;-;9.850235;-0.76116943;-1.4370422;-;-;-;-;-;-;-;-;-;-;-;-;-;-;-
1514191001938;-;-;9.754471;-0.42358398;-1.1760712;-;-;-;-;-;-;-;-;-;-;-;-;-;-;-
1514191001959;-;-;9.6622925;-0.39485168;-0.5799103;-;-;-;-;-;-;-;-;-;-;-;-;-;-;-
1514191001978;-;-;9.779602;-0.6929321;-0.18367004;-;-;-;-;-;-;-;-;-;-;-;-;-;-;-
1514191001998;-;-;9.063736;-0.9287567;-0.3297119;-;-;-;-;-;-;-;-;-;-;-;-;-;-;-
1514191002019;-;-;9.046982;-1.1023407;0.38734436;-;-;-;-;-;-;-;-;-;-;-;-;-;-;-
1514191002039;-;-;8.8602295;-1.3980255;0.66267395;-;-;-;-;-;-;-;-;-;-;-;-;-;-;-
1514191002059;-;-;9.234924;-1.1813507;0.64711;-;-;-;-;-;-;-;-;-;-;-;-;-;-;-
1514191002079;-;-;9.202606;-0.72525024;0.33348083;-;-;-;-;-;-;-;-;-;-;-;-;-;-;-
1514191002100;-;-;9.049377;-0.19493103;-0.21479797;-;-;-;-;-;-;-;-;-;-;-;-;-;-;-
1514191002120;-;-;9.295975;-0.21289063;0.079696655;-;-;-;-;-;-;-;-;-;-;-;-;-;-;-
1514191002140;-;-;9.73172;-0.6929321;0.20059204;-;-;-;-;-;-;-;-;-;-;-;-;-;-;-
1514191002161;-;-;9.628769;-0.97065735;0.30116272;-;-;-;-;-;-;-;-;-;-;-;-;-;-;-
1514191002183;-;-;9.318726;-0.70610046;0.84584045;-;-;-;-;-;-;-;-;-;-;-;-;-;-;-
1514191002203;-;-;9.202606;-0.79348755;1.0397644;-;-;-;-;-;-;-;-;-;-;-;-;-;-;-
1514191002223;-;-;8.641159;-0.700119;0.6710663;-;-;-;-;-;-;-;-;-;-;-;-;-;-;-
1514191002244;-;-;8.651932;-0.62350464;1.0146332;-;-;-;-;-;-;-;-;-;-;-;-;-;-;-
1514191002263;-;-;9.159515;-0.89045715;1.1858063;-;-;-;-;-;-;-;-;-;-;-;-;-;-;-
1514191002284;-;-;8.955994;-0.7623596;1.1499023;-;-;-;-;-;-;-;-;-;-;-;-;-;-;-
1514191002304;-;-;9.020645;-0.6426544;1.6215515;-;-;-;-;-;-;-;-;-;-;-;-;-;-;-
1514191002324;-;-;9.153519;-0.5600586;1.4120636;-;-;-;-;-;-;-;-;-;-;-;-;-;-;-
1514191002344;-;-;8.783615;-0.64624023;1.112793;-;-;-;-;-;-;-;-;-;-;-;-;-;-;-
1514191002365;-;-;8.668701;-0.5756073;1.0864563;-;-;-;-;-;-;-;-;-;-;-;-;-;-;-
1514191002384;-;-;9.420471;-0.31225586;1.3857269;-;-;-;-;-;-;-;-;-;-;-;-;-;-;-
1514191002404;-;-;9.843048;-0.2392273;1.2229156;-;-;-;-;-;-;-;-;-;-;-;-;-;-;-
1514191002425;-;-;9.610809;-0.31105042;0.87934875;-;-;-;-;-;-;-;-;-;-;-;-;-;-;-
1514191002445;-;-;9.008667;-0.16500854;1.1271515;-;-;-;-;-;-;-;-;-;-;-;-;-;-;-
1514191002465;-;-;8.595673;0.0025787354;1.5401611;-;-;-;-;-;-;-;-;-;-;-;-;-;-;-
1514191002485;-;-;8.485535;0.02772522;1.9136505;-;-;-;-;-;-;-;-;-;-;-;-;-;-;-
1514191002506;-;-;8.782425;-0.35534668;2.1530762;-;-;-;-;-;-;-;-;-;-;-;-;-;-;-
1514191002526;-;-;9.105637;-0.59835815;1.9902649;-;-;-;-;-;-;-;-;-;-;-;-;-;-;-
1514191002546;-;-;9.408508;-0.7491913;2.0237885;-;-;-;-;-;-;-;-;-;-;-;-;-;-;-
1514191002567;-;-;9.610809;-0.7276459;1.7352753;-;-;-;-;-;-;-;-;-;-;-;-;-;-;-
1514191002587;-;-;9.522232;-0.4954071;1.6598663;-;-;-;-;-;-;-;-;-;-;-;-;-;-;-
1514191002607;-;-;9.3103485;0.040893555;1.4587555;-;-;-;-;-;-;-;-;-;-;-;-;-;-;-
1514191002628;-;-;8.812347;0.4658661;1.5186005;-;-;-;-;-;-;-;-;-;-;-;-;-;-;-
1514191002648;-;-;8.456802;0.7627411;1.662262;-;-;-;-;-;-;-;-;-;-;-;-;-;-;-
1514191002669;-;-;8.625595;0.7866821;1.7460632;-;-;-;-;-;-;-;-;-;-;-;-;-;-;-
1514191002689;-;-;8.855438;0.58917236;1.7508392;-;-;-;-;-;-;-;-;-;-;-;-;-;-;-
1514191002709;-;-;9.304352;0.3174286;1.7137299;-;-;-;-;-;-;-;-;-;-;-;-;-;-;-
1514191002729;-;-;9.47435;0.33657837;1.765213;-;-;-;-;-;-;-;-;-;-;-;-;-;-;-
1514191002750;-;-;9.343857;0.4467163;1.9950562;-;-;-;-;-;-;-;-;-;-;-;-;-;-;-
1514191002769;-;-;8.929672;0.5305023;1.9806824;-;-;-;-;-;-;-;-;-;-;-;-;-;-;-
1514191002789;-;-;8.891357;0.61909485;2.180603;-;-;-;-;-;-;-;-;-;-;-;-;-;-;-
1514191002809;-;-;8.908112;0.65141296;2.4044647;-;-;-;-;-;-;-;-;-;-;-;-;-;-;-
1514191002830;-;-;9.181061;0.45388794;2.3984833;-;-;-;-;-;-;-;-;-;-;-;-;-;-;-
1514191002850;-;-;9.1918335;0.33418274;1.928009;-;-;-;-;-;-;-;-;-;-;-;-;-;-;-
1514191002870;-;-;9.324707;0.26475525;1.413269;-;-;-;-;-;-;-;-;-;-;-;-;-;-;-
1514191002891;-;-;8.958389;0.4945984;1.4192505;-;-;-;-;-;-;-;-;-;-;-;-;-;-;-
1514191002910;-;-;8.68306;0.7591553;2.299118;-;-;-;-;-;-;-;-;-;-;-;-;-;-;-
1514191002930;-;-;8.605255;0.62986755;2.8856964;-;-;-;-;-;-;-;-;-;-;-;-;-;-;-
1514191002950;-;-;8.575317;0.27792358;2.7755585;-;-;-;-;-;-;-;-;-;-;-;-;-;-;-
1514191002971;-;-;8.07254;0.47424316;2.8545685;-;-;-;-;-;-;-;-;-;-;-;-;-;-;-
1514191002991;-;-;7.7756653;0.64183044;2.7408447;-;-;-;-;-;-;-;-;-;-;-;-;-;-;-
1514191003011;-;-;8.050995;0.64183044;2.6235352;-;-;-;-;-;-;-;-;-;-;-;-;-;-;-
1514191003032;-;-;8.513077;0.5843811;2.3158722;-;-;-;-;-;-;-;-;-;-;-;-;-;-;-
1514191003052;-;-;8.703415;0.9686432;1.8908997;-;-;-;-;-;-;-;-;-;-;-;-;-;-;-
1514191003072;-;-;9.321121;1.7204285;2.251236;-;-;-;-;-;-;-;-;-;-;-;-;-;-;-
1514191003093;-;-;9.808334;1.5312805;2.3362274;-;-;-;-;-;-;-;-;-;-;-;-;-;-;-
1514191003113;-;-;9.091278;1.1278534;2.026184;-;-;-;-;-;-;-;-;-;-;-;-;-;-;-
1514191003133;-;-;8.303574;1.4091797;2.8629456;-;-;-;-;-;-;-;-;-;-;-;-;-;-;-
1514191003153;-;-;8.693832;0.9195709;3.3956604;-;-;-;-;-;-;-;-;-;-;-;-;-;-;-
1514191003174;-;-;9.210983;0.54008484;3.2173004;-;-;-;-;-;-;-;-;-;-;-;-;-;-;-
1514191003194;-;-;8.80397;0.556839;2.6079712;-;-;-;-;-;-;-;-;-;-;-;-;-;-;-
1514191003215;-;-;7.7517242;1.1386414;2.4954376;-;-;-;-;-;-;-;-;-;-;-;-;-;-;-
1514191003235;-;-;7.564972;1.1984863;2.9575195;-;-;-;-;-;-;-;-;-;-;-;-;-;-;-
1514191003255;-;-;7.7924194;0.93751526;2.833023;-;-;-;-;-;-;-;-;-;-;-;-;-;-;-
1514191003276;-;-;8.07373;1.0763855;2.7348633;-;-;-;-;-;-;-;-;-;-;-;-;-;-;-
1514191003296;-;-;8.929672;0.50057983;3.1861725;-;-;-;-;-;-;-;-;-;-;-;-;-;-;-
1514191003316;-;-;9.500687;0.016952515;3.0389252;-;-;-;-;-;-;-;-;-;-;-;-;-;-;-
1514191003337;-;-;9.849045;0.3964386;2.730072;-;-;-;-;-;-;-;-;-;-;-;-;-;-;-
1514191003357;-;-;9.815521;1.4115753;2.3254547;-;-;-;-;-;-;-;-;-;-;-;-;-;-;-
1514191003377;-;-;9.049377;2.3141937;2.3338318;-;-;-;-;-;-;-;-;-;-;-;-;-;-;-
1514191003398;-;-;8.243729;2.2986298;2.5576935;-;-;-;-;-;-;-;-;-;-;-;-;-;-;-
1514191003418;-;-;8.100067;1.4271393;2.8988647;-;-;-;-;-;-;-;-;-;-;-;-;-;-;-
1514191003438;-;-;8.730942;0.635849;2.7480316;-;-;-;-;-;-;-;-;-;-;-;-;-;-;-
1514191003458;-;-;9.301956;0.13786316;2.5277557;-;-;-;-;-;-;-;-;-;-;-;-;-;-;-
1514191003479;-;-;9.420471;-0.076416016;2.3912964;-;-;-;-;-;-;-;-;-;-;-;-;-;-;-
1514191003499;-;-;9.051773;-0.057266235;2.4403687;-;-;-;-;-;-;-;-;-;-;-;-;-;-;-
1514191003519;-;-;8.672287;-0.124313354;2.5540924;-;-;-;-;-;-;-;-;-;-;-;-;-;-;-
1514191003540;-;-;8.5238495;-0.14465332;2.7073212;-;-;-;-;-;-;-;-;-;-;-;-;-;-;-
1514191003560;-;-;8.754883;-0.08480835;2.5612793;-;-;-;-;-;-;-;-;-;-;-;-;-;-;-
1514191003580;-;-;8.914108;0.03251648;2.4212189;-;-;-;-;-;-;-;-;-;-;-;-;-;-;-
1514191003601;-;-;9.039795;0.086380005;2.2919312;-;-;-;-;-;-;-;-;-;-;-;-;-;-;-
1514191003621;-;-;8.996704;0.05406189;2.1626434;-;-;-;-;-;-;-;-;-;-;-;-;-;-;-
1514191003641;-;-;8.966782;0.13067627;2.101593;-;-;-;-;-;-;-;-;-;-;-;-;-;-;-
1514191003662;-;-;8.932053;0.105529785;2.069275;-;-;-;-;-;-;-;-;-;-;-;-;-;-;-
1514191003682;-;-;8.988327;0.11152649;2.2392578;-;-;-;-;-;-;-;-;-;-;-;-;-;-;-
1514191003702;-;-;9.043396;0.14025879;2.2536316;-;-;-;-;-;-;-;-;-;-;-;-;-;-;-
1514191003723;-;-;8.950012;0.17497253;2.3434143;-;-;-;-;-;-;-;-;-;-;-;-;-;-;-
1514191003743;-;-;8.831497;0.03970337;2.3374176;-;-;-;-;-;-;-;-;-;-;-;-;-;-;-
1514191003763;-;-;8.801575;-0.009384155;2.3577728;-;-;-;-;-;-;-;-;-;-;-;-;-;-;-
1514191003784;-;-;8.812347;-0.057266235;2.2560272;-;-;-;-;-;-;-;-;-;-;-;-;-;-;-
1514191003803;-;-;9.0733185;-0.05607605;2.20813;-;-;-;-;-;-;-;-;-;-;-;-;-;-;-
1514191003823;-;-;9.200211;-0.01776123;2.0884247;-;-;-;-;-;-;-;-;-;-;-;-;-;-;-
1514191003843;-;-;9.055359;0.07081604;1.9447784;-;-;-;-;-;-;-;-;-;-;-;-;-;-;-
1514191003864;-;-;9.135559;0.0061798096;2.0357513;-;-;-;-;-;-;-;-;-;-;-;-;-;-;-
1514191003884;-;-;9.141556;-0.06324768;2.0848389;-;-;-;-;-;-;-;-;-;-;-;-;-;-;-
1514191003904;-;-;9.155914;-0.18415833;2.1231384;-;-;-;-;-;-;-;-;-;-;-;-;-;-;-
1514191003925;-;-;9.005081;-0.15782166;2.0417328;-;-;-;-;-;-;-;-;-;-;-;-;-;-;-
1514191003945;-;-;9.009872;-0.097976685;1.904068;-;-;-;-;-;-;-;-;-;-;-;-;-;-;-
1514191003965;-;-;9.006287;-0.12908936;1.7735901;-;-;-;-;-;-;-;-;-;-;-;-;-;-;-
1514191003985;-;-;9.062546;-0.14944458;1.7460632;-;-;-;-;-;-;-;-;-;-;-;-;-;-;-
1514191004006;-;-;9.064941;-0.22605896;1.5497284;-;-;-;-;-;-;-;-;-;-;-;-;-;-;-
1514191004026;-;-;9.075714;-0.16381836;1.3474274;-;-;-;-;-;-;-;-;-;-;-;-;-;-;-
1514191004046;-;-;9.197815;-0.117126465;1.1822205;-;-;-;-;-;-;-;-;-;-;-;-;-;-;-
1514191004066;-;-;9.274429;-0.095581055;1.0481415;-;-;-;-;-;-;-;-;-;-;-;-;-;-;-
1514191004087;-;-;9.281616;-0.10395813;0.84703064;-;-;-;-;-;-;-;-;-;-;-;-;-;-;-
1514191004107;-;-;9.196625;-0.14944458;0.7692261;-;-;-;-;-;-;-;-;-;-;-;-;-;-;-
1514191004127;-;-;9.108032;-0.21409607;0.6531067;-;-;-;-;-;-;-;-;-;-;-;-;-;-;-
1514191004147;-;-;9.125992;-0.29548645;0.6279602;-;-;-;-;-;-;-;-;-;-;-;-;-;-;-
1514191004168;-;-;9.185837;-0.42956543;0.57170105;-;-;-;-;-;-;-;-;-;-;-;-;-;-;-
1514191004187;-;-;9.313934;-0.47505188;0.44480896;-;-;-;-;-;-;-;-;-;-;-;-;-;-;-
1514191004207;-;-;9.359421;-0.50857544;0.38615417;-;-;-;-;-;-;-;-;-;-;-;-;-;-;-
1514191004227;-;-;9.321121;-0.49421692;0.30474854;-;-;-;-;-;-;-;-;-;-;-;-;-;-;-
1514191004247;-;-;9.337875;-0.4954071;0.28799438;-;-;-;-;-;-;-;-;-;-;-;-;-;-;-
1514191004268;-;-;9.330688;-0.37091064;0.32629395;-;-;-;-;-;-;-;-;-;-;-;-;-;-;-
1514191004288;-;-;9.342667;-0.25479126;0.34544373;-;-;-;-;-;-;-;-;-;-;-;-;-;-;-
1514191004308;-;-;9.33429;-0.090789795;0.34065247;-;-;-;-;-;-;-;-;-;-;-;-;-;-;-
1514191004329;-;-;9.327103;0.14144897;0.103637695;-;-;-;-;-;-;-;-;-;-;-;-;-;-;-
1514191004349;-;-;9.23851;0.13067627;0.1658783;-;-;-;-;-;-;-;-;-;-;-;-;-;-;-
1514191004369;-;-;9.153519;0.0756073;0.34065247;-;-;-;-;-;-;-;-;-;-;-;-;-;-;-
1514191004390;-;-;9.203796;0.03491211;0.51065063;-;-;-;-;-;-;-;-;-;-;-;-;-;-;-
1514191004410;-;-;9.230133;-0.0105896;0.51423645;-;-;-;-;-;-;-;-;-;-;-;-;-;-;-
1514191004430;-;-;9.212173;-0.14704895;0.33348083;-;-;-;-;-;-;-;-;-;-;-;-;-;-;-
1514191004451;-;-;9.208588;-0.34217834;0.37417603;-;-;-;-;-;-;-;-;-;-;-;-;-;-;-
1514191004471;-;-;9.306747;-0.33259583;0.681839;-;-;-;-;-;-;-;-;-;-;-;-;-;-;-
1514191004491;-;-;9.37619;-0.28710938;1.0218048;-;-;-;-;-;-;-;-;-;-;-;-;-;-;-
1514191004511;-;-;9.330688;-0.36372375;0.9775238;-;-;-;-;-;-;-;-;-;-;-;-;-;-;-
1514191004532;-;-;9.222961;-0.38287354;0.9918823;-;-;-;-;-;-;-;-;-;-;-;-;-;-;-
1514191004552;-;-;9.105637;-0.21409607;0.9116821;-;-;-;-;-;-;-;-;-;-;-;-;-;-;-
1514191004572;-;-;9.058945;-0.109939575;0.9427948;-;-;-;-;-;-;-;-;-;-;-;-;-;-;-
1514191004593;-;-;9.115219;-0.0069885254;0.9344177;-;-;-;-;-;-;-;-;-;-;-;-;-;-;-
1514191004612;-;-;9.042191;0.048080444;0.9032898;-;-;-;-;-;-;-;-;-;-;-;-;-;-;-
1514191004632;-;-;8.984726;0.076812744;0.83506775;-;-;-;-;-;-;-;-;-;-;-;-;-;-;-
1514191004653;-;-;9.087677;0.0013885498;0.6100006;-;-;-;-;-;-;-;-;-;-;-;-;-;-;-
1514191004673;-;-;9.333084;0.20249939;0.4328308;-;-;-;-;-;-;-;-;-;-;-;-;-;-;-
1514191004693;-;-;9.343857;0.40242004;0.28559875;-;-;-;-;-;-;-;-;-;-;-;-;-;-;-
1514191004713;-;-;9.358231;0.36650085;0.20179749;-;-;-;-;-;-;-;-;-;-;-;-;-;-;-
1514191004734;-;-;9.321121;0.49938965;0.18025208;-;-;-;-;-;-;-;-;-;-;-;-;-;-;-
1514191004754;-;-;9.230133;0.5233307;0.18504333;-;-;-;-;-;-;-;-;-;-;-;-;-;-;-
1514191004774;-;-;9.103241;0.512558;0.28320313;-;-;-;-;-;-;-;-;-;-;-;-;-;-;-
1514191004795;-;-;9.006287;0.51493835;0.42684937;-;-;-;-;-;-;-;-;-;-;-;-;-;-;-
1514191004815;-;-;8.92128;0.5352936;0.6531067;-;-;-;-;-;-;-;-;-;-;-;-;-;-;-
1514191004835;-;-;9.015854;0.42755127;0.95835876;-;-;-;-;-;-;-;-;-;-;-;-;-;-;-
1514191004856;-;-;9.172684;0.27911377;1.0493469;-;-;-;-;-;-;-;-;-;-;-;-;-;-;-
1514191004876;-;-;9.224152;0.17736816;1.0313873;-;-;-;-;-;-;-;-;-;-;-;-;-;-;-
1514191004901;-;-;9.129578;0.20249939;0.89730835;-;-;-;-;-;-;-;-;-;-;-;-;-;-;-
1514191004917;-;-;9.15712;0.20489502;0.8015442;-;-;-;-;-;-;-;-;-;-;-;-;-;-;-
1514191004937;-;-;9.171478;0.31622314;0.666275;-;-;-;-;-;-;-;-;-;-;-;-;-;-;-
1514191004958;-;-;9.266052;0.35214233;0.59324646;-;-;-;-;-;-;-;-;-;-;-;-;-;-;-
1514191004978;-;-;9.3151245;0.4371338;0.41966248;-;-;-;-;-;-;-;-;-;-;-;-;-;-;-
1514191004998;-;-;9.17627;0.4299469;0.46037292;-;-;-;-;-;-;-;-;-;-;-;-;-;-;-
1514191005019;-;-;9.025436;0.36410522;0.5704956;-;-;-;-;-;-;-;-;-;-;-;-;-;-;-
1514191005039;-;-;8.964386;0.17018127;0.6279602;-;-;-;-;-;-;-;-;-;-;-;-;-;-;-
1514191005059;-;-;9.093674;0.03970337;0.6483154;-;-;-;-;-;-;-;-;-;-;-;-;-;-;-
1514191005080;-;-;9.260071;0.03730774;0.54296875;-;-;-;-;-;-;-;-;-;-;-;-;-;-;-
1514191005100;-;-;9.3498535;0.060043335;0.43643188;-;-;-;-;-;-;-;-;-;-;-;-;-;-;-
1514191005120;-;-;9.358231;0.02772522;0.3933258;-;-;-;-;-;-;-;-;-;-;-;-;-;-;-
1514191005140;-;-;9.363022;-0.035720825;0.35263062;-;-;-;-;-;-;-;-;-;-;-;-;-;-;-
1514191005161;-;-;9.044586;-0.012969971;0.33587646;-;-;-;-;-;-;-;-;-;-;-;-;-;-;-
1514191005181;-;-;8.966782;0.03491211;0.5704956;-;-;-;-;-;-;-;-;-;-;-;-;-;-;-
1514191005201;-;-;9.151123;0.083984375;0.9416046;-;-;-;-;-;-;-;-;-;-;-;-;-;-;-
1514191005222;-;-;9.281616;0.17855835;1.1068115;-;-;-;-;-;-;-;-;-;-;-;-;-;-;-
1514191005242;-;-;9.342667;0.20968628;1.0170288;-;-;-;-;-;-;-;-;-;-;-;-;-;-;-
1514191005262;-;-;9.189438;0.08758545;1.1044159;-;-;-;-;-;-;-;-;-;-;-;-;-;-;-
1514191005283;-;-;9.032608;-0.2212677;1.4407959;-;-;-;-;-;-;-;-;-;-;-;-;-;-;-
1514191005303;-;-;9.027832;-0.4343567;1.5198059;-;-;-;-;-;-;-;-;-;-;-;-;-;-;-
1514191005323;-;-;9.072113;-0.35295105;1.3617859;-;-;-;-;-;-;-;-;-;-;-;-;-;-;-
1514191005344;-;-;9.1128235;-0.12789917;1.1439209;-;-;-;-;-;-;-;-;-;-;-;-;-;-;-
1514191005364;-;-;9.127182;-0.02734375;1.12117;-;-;-;-;-;-;-;-;-;-;-;-;-;-;-
1514191005384;-;-;9.262466;-0.040512085;1.136734;-;-;-;-;-;-;-;-;-;-;-;-;-;-;-
1514191005405;-;-;9.333084;-0.19374084;1.0876465;-;-;-;-;-;-;-;-;-;-;-;-;-;-;-
1514191005425;-;-;9.207397;-0.21409607;0.95596313;-;-;-;-;-;-;-;-;-;-;-;-;-;-;-
1514191005445;-;-;9.026627;-0.28352356;1.0565186;-;-;-;-;-;-;-;-;-;-;-;-;-;-;-
1514191005466;-;-;9.130783;-0.19374084;1.176239;-;-;-;-;-;-;-;-;-;-;-;-;-;-;-
1514191005486;-;-;9.288788;-0.07762146;1.0074463;-;-;-;-;-;-;-;-;-;-;-;-;-;-;-
1514191005506;-;-;9.353439;-0.064453125;0.8925171;-;-;-;-;-;-;-;-;-;-;-;-;-;-;-
1514191005526;-;-;9.274429;-0.14585876;0.7404938;-;-;-;-;-;-;-;-;-;-;-;-;-;-;-
1514191005547;-;-;9.278015;-0.23324585;0.7799988;-;-;-;-;-;-;-;-;-;-;-;-;-;-;-
1514191005567;-;-;9.197815;-0.3577423;0.6674652;-;-;-;-;-;-;-;-;-;-;-;-;-;-;-
1514191005587;-;-;9.161896;-0.36732483;0.7404938;-;-;-;-;-;-;-;-;-;-;-;-;-;-;-
1514191005607;-;-;9.160706;-0.34457397;0.7069702;-;-;-;-;-;-;-;-;-;-;-;-;-;-;-
1514191005628;-;-;9.1918335;-0.3541565;0.6961975;-;-;-;-;-;-;-;-;-;-;-;-;-;-;-
1514191005648;-;-;9.244507;-0.42837524;0.6758423;-;-;-;-;-;-;-;-;-;-;-;-;-;-;-
1514191005668;-;-;9.225342;-0.43077087;0.6207886;-;-;-;-;-;-;-;-;-;-;-;-;-;-;-
1514191005689;-;-;9.250488;-0.3876648;0.6279602;-;-;-;-;-;-;-;-;-;-;-;-;-;-;-
1514191005709;-;-;9.214569;-0.36132813;0.60762024;-;-;-;-;-;-;-;-;-;-;-;-;-;-;-
1514191005729;-;-;9.245697;-0.24401855;0.5573273;-;-;-;-;-;-;-;-;-;-;-;-;-;-;-
1514191005750;-;-;9.321121;-0.20570374;0.49150085;-;-;-;-;-;-;-;-;-;-;-;-;-;-;-
1514191005770;-;-;9.281616;-0.14704895;0.45916748;-;-;-;-;-;-;-;-;-;-;-;-;-;-;-
1514191005790;-;-;9.222961;-0.117126465;0.4507904;-;-;-;-;-;-;-;-;-;-;-;-;-;-;-
1514191005810;-;-;9.147537;-0.026138306;0.5094452;-;-;-;-;-;-;-;-;-;-;-;-;-;-;-
1514191005831;-;-;9.128387;0.04927063;0.49508667;-;-;-;-;-;-;-;-;-;-;-;-;-;-;-
1514191005851;-;-;9.147537;0.103149414;0.429245;-;-;-;-;-;-;-;-;-;-;-;-;-;-;-
1514191005871;-;-;9.175064;0.03012085;0.44122314;-;-;-;-;-;-;-;-;-;-;-;-;-;-;-
1514191005892;-;-;9.196625;-0.02734375;0.46037292;-;-;-;-;-;-;-;-;-;-;-;-;-;-;-
1514191005912;-;-;9.29837;-0.085998535;0.38015747;-;-;-;-;-;-;-;-;-;-;-;-;-;-;-
1514191005932;-;-;9.299576;-0.085998535;0.30714417;-;-;-;-;-;-;-;-;-;-;-;-;-;-;-
1514191005953;-;-;9.23732;-0.057266235;0.21376038;-;-;-;-;-;-;-;-;-;-;-;-;-;-;-
1514191005972;-;-;9.181061;-0.05128479;0.18383789;-;-;-;-;-;-;-;-;-;-;-;-;-;-;-
1514191005992;-;-;9.212173;0.02532959;0.067718506;-;-;-;-;-;-;-;-;-;-;-;-;-;-;-
1514191006012;-;-;9.262466;0.112716675;-0.018478394;-;-;-;-;-;-;-;-;-;-;-;-;-;-;-
1514191006033;-;-;9.269638;0.13786316;-0.10346985;-;-;-;-;-;-;-;-;-;-;-;-;-;-;-
1514191006053;-;-;9.233734;0.19412231;-0.17289734;-;-;-;-;-;-;-;-;-;-;-;-;-;-;-
1514191006073;-;-;9.261261;0.2192688;-0.28063965;-;-;-;-;-;-;-;-;-;-;-;-;-;-;-
1514191006094;-;-;9.285202;0.27792358;-0.3656311;-;-;-;-;-;-;-;-;-;-;-;-;-;-;-
1514191006115;-;-;9.165497;0.35572815;-0.42907715;-;-;-;-;-;-;-;-;-;-;-;-;-;-;-
1514191006134;-;-;9.225342;0.37010193;-0.42189026;-;-;-;-;-;-;-;-;-;-;-;-;-;-;-
1514191006154;-;-;9.264847;0.3569336;-0.46139526;-;-;-;-;-;-;-;-;-;-;-;-;-;-;-
1514191006175;-;-;9.287598;0.3617096;-0.47816467;-;-;-;-;-;-;-;-;-;-;-;-;-;-;-
1514191006195;-;-;9.23732;0.31861877;-0.491333;-;-;-;-;-;-;-;-;-;-;-;-;-;-;-
1514191006215;-;-;9.190628;0.18693542;-0.48054504;-;-;-;-;-;-;-;-;-;-;-;-;-;-;-
1514191006236;-;-;9.200211;0.13426208;-0.3584442;-;-;-;-;-;-;-;-;-;-;-;-;-;-;-
1514191006256;-;-;9.117615;0.20729065;-0.34048462;-;-;-;-;-;-;-;-;-;-;-;-;-;-;-
1514191006276;-;-;9.076904;0.2743225;-0.32373047;-;-;-;-;-;-;-;-;-;-;-;-;-;-;-
1514191006297;-;-;9.155914;0.36410522;-0.22436523;-;-;-;-;-;-;-;-;-;-;-;-;-;-;-
1514191006317;-;-;9.202606;0.37368774;-0.26387024;-;-;-;-;-;-;-;-;-;-;-;-;-;-;-
1514191006337;-;-;9.240906;0.33537292;-0.17529297;-;-;-;-;-;-;-;-;-;-;-;-;-;-;-
1514191006357;-;-;9.222961;0.30545044;-0.102264404;-;-;-;-;-;-;-;-;-;-;-;-;-;-;-
1514191006378;-;-;9.212173;0.20370483;-0.06036377;-;-;-;-;-;-;-;-;-;-;-;-;-;-;-
1514191006398;-;-;9.242111;0.17018127;0.024627686;-;-;-;-;-;-;-;-;-;-;-;-;-;-;-
1514191006419;-;-;9.216965;0.17616272;0.06173706;-;-;-;-;-;-;-;-;-;-;-;-;-;-;-
1514191006438;-;-;9.172684;0.13426208;0.15270996;-;-;-;-;-;-;-;-;-;-;-;-;-;-;-
1514191006458;-;-;9.161896;0.18574524;0.2053833;-;-;-;-;-;-;-;-;-;-;-;-;-;-;-
1514191006479;-;-;9.195419;0.21566772;0.18144226;-;-;-;-;-;-;-;-;-;-;-;-;-;-;-
1514191006499;-;-;9.224152;0.2815094;0.3095398;-;-;-;-;-;-;-;-;-;-;-;-;-;-;-
1514191006519;-;-;9.240906;0.3210144;0.3203125;-;-;-;-;-;-;-;-;-;-;-;-;-;-;-
1514191006540;-;-;9.249298;0.30186462;0.23052979;-;-;-;-;-;-;-;-;-;-;-;-;-;-;-
1514191006560;-;-;9.183456;0.29588318;0.18025208;-;-;-;-;-;-;-;-;-;-;-;-;-;-;-
1514191006580;-;-;9.214569;0.2635498;0.13237;-;-;-;-;-;-;-;-;-;-;-;-;-;-;-
1514191006601;-;-;9.248093;0.25875854;0.216156;-;-;-;-;-;-;-;-;-;-;-;-;-;-;-
1514191006621;-;-;9.248093;0.21566772;0.255661;-;-;-;-;-;-;-;-;-;-;-;-;-;-;-
1514191006641;-;-;9.184647;0.16419983;0.21017456;-;-;-;-;-;-;-;-;-;-;-;-;-;-;-
1514191006662;-;-;9.166687;0.19891357;0.255661;-;-;-;-;-;-;-;-;-;-;-;-;-;-;-
1514191006681;-;-;9.13916;0.1905365;0.3538208;-;-;-;-;-;-;-;-;-;-;-;-;-;-;-
1514191006702;-;-;9.258865;0.20489502;0.34425354;-;-;-;-;-;-;-;-;-;-;-;-;-;-;-
1514191006722;-;-;9.2756195;0.21087646;0.3885498;-;-;-;-;-;-;-;-;-;-;-;-;-;-;-
1514191006742;-;-;9.230133;0.15701294;0.47833252;-;-;-;-;-;-;-;-;-;-;-;-;-;-;-
1514191006763;-;-;9.254074;0.1953125;0.4507904;-;-;-;-;-;-;-;-;-;-;-;-;-;-;-
1514191006783;-;-;9.25647;0.17376709;0.43403625;-;-;-;-;-;-;-;-;-;-;-;-;-;-;-
1514191006803;-;-;9.165497;0.12828064;0.39453125;-;-;-;-;-;-;-;-;-;-;-;-;-;-;-
1514191006824;-;-;9.115219;0.083984375;0.4795227;-;-;-;-;-;-;-;-;-;-;-;-;-;-;-
1514191006844;-;-;9.184647;0.072021484;0.5381775;-;-;-;-;-;-;-;-;-;-;-;-;-;-;-
1514191006864;-;-;9.23732;0.0061798096;0.54776;-;-;-;-;-;-;-;-;-;-;-;-;-;-;-
1514191006885;-;-;9.187042;0.06124878;0.5740967;-;-;-;-;-;-;-;-;-;-;-;-;-;-;-
1514191006905;-;-;9.181061;0.064834595;0.6207886;-;-;-;-;-;-;-;-;-;-;-;-;-;-;-
1514191006925;-;-;9.195419;0.06602478;0.5956421;-;-;-;-;-;-;-;-;-;-;-;-;-;-;-
1514191006946;-;-;9.227737;0.13067627;0.61839294;-;-;-;-;-;-;-;-;-;-;-;-;-;-;-
1514191006966;-;-;9.268448;0.11152649;0.5585327;-;-;-;-;-;-;-;-;-;-;-;-;-;-;-
1514191006986;-;-;9.225342;0.09954834;0.51304626;-;-;-;-;-;-;-;-;-;-;-;-;-;-;-
1514191007007;-;-;9.21817;0.13665771;0.5453644;-;-;-;-;-;-;-;-;-;-;-;-;-;-;-
1514191007027;-;-;9.220566;0.21566772;0.57888794;-;-;-;-;-;-;-;-;-;-;-;-;-;-;-
1514191007047;-;-;9.173874;0.22764587;0.5956421;-;-;-;-;-;-;-;-;-;-;-;-;-;-;-
1514191007067;-;-;9.121201;0.1618042;0.57528687;-;-;-;-;-;-;-;-;-;-;-;-;-;-;-
1514191007087;-;-;9.220566;0.1438446;0.58966064;-;-;-;-;-;-;-;-;-;-;-;-;-;-;-
1514191007108;-;-;9.21817;0.14263916;0.59085083;-;-;-;-;-;-;-;-;-;-;-;-;-;-;-
1514191007127;-;-;9.260071;0.12588501;0.5489502;-;-;-;-;-;-;-;-;-;-;-;-;-;-;-
1514191007147;-;-;9.209793;0.13426208;0.4807129;-;-;-;-;-;-;-;-;-;-;-;-;-;-;-
1514191007168;-;-;9.213379;0.17497253;0.4902954;-;-;-;-;-;-;-;-;-;-;-;-;-;-;-
1514191007188;-;-;9.169083;0.15701294;0.5202179;-;-;-;-;-;-;-;-;-;-;-;-;-;-;-
1514191007208;-;-;9.15712;0.15820313;0.5046692;-;-;-;-;-;-;-;-;-;-;-;-;-;-;-
1514191007228;-;-;9.179855;0.19770813;0.5561371;-;-;-;-;-;-;-;-;-;-;-;-;-;-;-
1514191007248;-;-;9.189438;0.19172668;0.56211853;-;-;-;-;-;-;-;-;-;-;-;-;-;-;-
1514191007269;-;-;9.207397;0.21208191;0.5549469;-;-;-;-;-;-;-;-;-;-;-;-;-;-;-
1514191007289;-;-;9.17746;0.23242188;0.58128357;-;-;-;-;-;-;-;-;-;-;-;-;-;-;-
1514191007309;-;-;9.155914;0.21566772;0.58247375;-;-;-;-;-;-;-;-;-;-;-;-;-;-;-
1514191007330;-;-;9.185837;0.1953125;0.587265;-;-;-;-;-;-;-;-;-;-;-;-;-;-;-
1514191007350;-;-;9.248093;0.17137146;0.5776825;-;-;-;-;-;-;-;-;-;-;-;-;-;-;-
1514191007370;-;-;9.21817;0.1618042;0.5740967;-;-;-;-;-;-;-;-;-;-;-;-;-;-;-
1514191007390;-;-;9.14035;0.105529785;0.50704956;-;-;-;-;-;-;-;-;-;-;-;-;-;-;-
1514191007411;-;-;9.263657;0.122299194;0.49987793;-;-;-;-;-;-;-;-;-;-;-;-;-;-;-
1514191007431;-;-;9.331894;0.11631775;0.47114563;-;-;-;-;-;-;-;-;-;-;-;-;-;-;-
1514191007451;-;-;9.225342;0.13786316;0.4400177;-;-;-;-;-;-;-;-;-;-;-;-;-;-;-
1514191007472;-;-;9.263657;0.15222168;0.44122314;-;-;-;-;-;-;-;-;-;-;-;-;-;-;-
1514191007491;-;-;9.266052;0.117507935;0.5094452;-;-;-;-;-;-;-;-;-;-;-;-;-;-;-
1514191007511;-;-;9.215775;0.1558075;0.5286102;-;-;-;-;-;-;-;-;-;-;-;-;-;-;-
1514191007532;-;-;9.189438;0.16419983;0.5094452;-;-;-;-;-;-;-;-;-;-;-;-;-;-;-
1514191007552;-;-;9.117615;0.14263916;0.46754456;-;-;-;-;-;-;-;-;-;-;-;-;-;-;-
1514191007572;-;-;9.187042;0.06602478;0.5202179;-;-;-;-;-;-;-;-;-;-;-;-;-;-;-
1514191007592;-;-;9.216965;0.014556885;0.5573273;-;-;-;-;-;-;-;-;-;-;-;-;-;-;-
1514191007613;-;-;9.245697;0.064834595;0.62316895;-;-;-;-;-;-;-;-;-;-;-;-;-;-;-
1514191007633;-;-;9.242111;0.16659546;0.67944336;-;-;-;-;-;-;-;-;-;-;-;-;-;-;-
1514191007653;-;-;9.210983;0.14503479;0.6830292;-;-;-;-;-;-;-;-;-;-;-;-;-;-;-
1514191007674;-;-;9.188232;0.18693542;0.6997833;-;-;-;-;-;-;-;-;-;-;-;-;-;-;-
1514191007694;-;-;9.135559;0.19412231;0.7249298;-;-;-;-;-;-;-;-;-;-;-;-;-;-;-
1514191007714;-;-;9.153519;0.16299438;0.69021606;-;-;-;-;-;-;-;-;-;-;-;-;-;-;-
1514191007735;-;-;9.216965;0.060043335;0.6136017;-;-;-;-;-;-;-;-;-;-;-;-;-;-;-
1514191007754;-;-;9.23732;0.04208374;0.6531067;-;-;-;-;-;-;-;-;-;-;-;-;-;-;-
1514191007774;-;-;9.252884;0.031311035;0.62916565;-;-;-;-;-;-;-;-;-;-;-;-;-;-;-
1514191007794;-;-;9.21936;0.03730774;0.6387329;-;-;-;-;-;-;-;-;-;-;-;-;-;-;-
1514191007814;-;-;9.23613;0.055252075;0.5848694;-;-;-;-;-;-;-;-;-;-;-;-;-;-;-
1514191007835;-;-;9.228943;0.117507935;0.5800781;-;-;-;-;-;-;-;-;-;-;-;-;-;-;-
1514191007855;-;-;9.183456;0.12109375;0.57888794;-;-;-;-;-;-;-;-;-;-;-;-;-;-;-
1514191007875;-;-;9.182251;0.11152649;0.54296875;-;-;-;-;-;-;-;-;-;-;-;-;-;-;-
1514191007896;-;-;9.199005;0.06602478;0.55374146;-;-;-;-;-;-;-;-;-;-;-;-;-;-;-
1514191007916;-;-;9.2313385;0.05166626;0.57289124;-;-;-;-;-;-;-;-;-;-;-;-;-;-;-
1514191007936;-;-;9.197815;0.110321045;0.587265;-;-;-;-;-;-;-;-;-;-;-;-;-;-;-
1514191007957;-;-;9.147537;0.1845398;0.62916565;-;-;-;-;-;-;-;-;-;-;-;-;-;-;-
1514191007977;-;-;9.161896;0.20370483;0.6495056;-;-;-;-;-;-;-;-;-;-;-;-;-;-;-
1514191007997;-;-;9.170288;0.20370483;0.7464752;-;-;-;-;-;-;-;-;-;-;-;-;-;-;-
1514191008018;-;-;9.173874;0.19651794;0.7404938;-;-;-;-;-;-;-;-;-;-;-;-;-;-;-
1514191008038;-;-;9.213379;0.16659546;0.7117615;-;-;-;-;-;-;-;-;-;-;-;-;-;-;-
1514191008058;-;-;9.248093;0.11631775;0.7644348;-;-;-;-;-;-;-;-;-;-;-;-;-;-;-
1514191008079;-;-;9.170288;0.107925415;0.75964355;-;-;-;-;-;-;-;-;-;-;-;-;-;-;-
