TimeStamp[ms];Prox[Cm];Lux[lux];AccX[m/s^2];AccY[m/s^2];AccZ[m/s^2];GyroX[rad/s];GyroY[rad/s];GyroZ[rad/s];MagnX[uT];MagnY[uT];MagnZ[uT];OrienYaw[degrees];OrienPitch[degrees];OrienRoll[degrees];Press[Pa];Temp[C°];Batt[%];Lat;Lng;Speed[m/s]
1514191896659;-;-;8.10965;-0.7444;4.125885;-;-;-;-;-;-;-;-;-;-;-;-;-;-;-
1514191896664;-;-;8.107254;-0.7803192;4.1199036;-;-;-;-;-;-;-;-;-;-;-;-;-;-;-
1514191896685;-;-;8.114441;-0.85214233;4.1701813;-;-;-;-;-;-;-;-;-;-;-;-;-;-;-
1514191896705;-;-;8.110855;-0.8497467;4.2899017;-;-;-;-;-;-;-;-;-;-;-;-;-;-;-
1514191896725;-;-;8.246124;-0.83299255;4.208496;-;-;-;-;-;-;-;-;-;-;-;-;-;-;-
1514191896746;-;-;8.416107;-0.86531067;4.279114;-;-;-;-;-;-;-;-;-;-;-;-;-;-;-
1514191896766;-;-;8.304779;-0.82221985;4.0959625;-;-;-;-;-;-;-;-;-;-;-;-;-;-;-
1514191896786;-;-;8.24852;-0.7120819;4.022949;-;-;-;-;-;-;-;-;-;-;-;-;-;-;-
1514191896807;-;-;8.332306;-0.6689911;4.057663;-;-;-;-;-;-;-;-;-;-;-;-;-;-;-
1514191896827;-;-;8.276047;-0.69532776;3.955902;-;-;-;-;-;-;-;-;-;-;-;-;-;-;-
1514191896848;-;-;8.270065;-0.7444;3.8278198;-;-;-;-;-;-;-;-;-;-;-;-;-;-;-
1514191896868;-;-;8.089294;-0.66659546;3.7093048;-;-;-;-;-;-;-;-;-;-;-;-;-;-;-
1514191896888;-;-;7.6631317;-0.63427734;3.726059;-;-;-;-;-;-;-;-;-;-;-;-;-;-;-
1514191896912;-;-;7.41893;-0.109939575;3.1801758;-;-;-;-;-;-;-;-;-;-;-;-;-;-;-
1514191896929;-;-;7.1819;-0.3469696;2.9838562;-;-;-;-;-;-;-;-;-;-;-;-;-;-;-
1514191896949;-;-;7.5290527;-0.32661438;2.36615;-;-;-;-;-;-;-;-;-;-;-;-;-;-;-
1514191896969;-;-;9.603638;-0.071640015;2.1973572;-;-;-;-;-;-;-;-;-;-;-;-;-;-;-
1514191896990;-;-;9.948395;0.24679565;2.441574;-;-;-;-;-;-;-;-;-;-;-;-;-;-;-
1514191897010;-;-;11.13353;-0.35176086;1.1953888;-;-;-;-;-;-;-;-;-;-;-;-;-;-;-
1514191897030;-;-;9.021835;0.83576965;1.8897095;-;-;-;-;-;-;-;-;-;-;-;-;-;-;-
1514191897050;-;-;8.1707;1.4678345;1.7149353;-;-;-;-;-;-;-;-;-;-;-;-;-;-;-
1514191897071;-;-;6.256546;1.0261078;0.51304626;-;-;-;-;-;-;-;-;-;-;-;-;-;-;-
1514191897091;-;-;7.1950684;-0.16381836;0.642334;-;-;-;-;-;-;-;-;-;-;-;-;-;-;-
1514191897111;-;-;11.043747;-0.5325165;1.662262;-;-;-;-;-;-;-;-;-;-;-;-;-;-;-
1514191897131;-;-;13.25;-0.13986206;1.4790955;-;-;-;-;-;-;-;-;-;-;-;-;-;-;-
1514191897152;-;-;10.227325;-0.119522095;-0.9115143;-;-;-;-;-;-;-;-;-;-;-;-;-;-;-
1514191897172;-;-;10.533783;-0.19374084;-0.102264404;-;-;-;-;-;-;-;-;-;-;-;-;-;-;-
1514191897192;-;-;8.601654;0.95547485;0.1479187;-;-;-;-;-;-;-;-;-;-;-;-;-;-;-
1514191897213;-;-;8.077332;1.8808441;-0.56555176;-;-;-;-;-;-;-;-;-;-;-;-;-;-;-
1514191897233;-;-;5.48201;0.6562042;0.72013855;-;-;-;-;-;-;-;-;-;-;-;-;-;-;-
1514191897253;-;-;8.7261505;0.45628357;1.3593903;-;-;-;-;-;-;-;-;-;-;-;-;-;-;-
1514191897274;-;-;6.6132813;0.7651367;1.5545197;-;-;-;-;-;-;-;-;-;-;-;-;-;-;-
1514191897294;-;-;6.0243073;1.4498749;-0.01727295;-;-;-;-;-;-;-;-;-;-;-;-;-;-;-
1514191897314;-;-;7.549408;1.2691193;0.77760315;-;-;-;-;-;-;-;-;-;-;-;-;-;-;-
1514191897335;-;-;7.494339;0.90519714;-0.7415161;-;-;-;-;-;-;-;-;-;-;-;-;-;-;-
1514191897355;-;-;4.0454865;-0.40322876;-2.709549;-;-;-;-;-;-;-;-;-;-;-;-;-;-;-
1514191897375;-;-;6.9269104;-1.3381653;-3.3128967;-;-;-;-;-;-;-;-;-;-;-;-;-;-;-
1514191897396;-;-;12.699341;-2.8309479;-1.2538757;-;-;-;-;-;-;-;-;-;-;-;-;-;-;-
1514191897416;-;-;18.93982;-6.1660767;-0.107055664;-;-;-;-;-;-;-;-;-;-;-;-;-;-;-
1514191897436;-;-;16.761093;-3.9466553;-5.0630493;-;-;-;-;-;-;-;-;-;-;-;-;-;-;-
1514191897456;-;-;12.513779;-2.4969635;-0.5032959;-;-;-;-;-;-;-;-;-;-;-;-;-;-;-
1514191897477;-;-;10.669052;-1.8158112;2.2560272;-;-;-;-;-;-;-;-;-;-;-;-;-;-;-
1514191897496;-;-;10.853409;0.036102295;0.7033844;-;-;-;-;-;-;-;-;-;-;-;-;-;-;-
1514191897516;-;-;9.839462;0.9889984;-0.09628296;-;-;-;-;-;-;-;-;-;-;-;-;-;-;-
1514191897537;-;-;9.552155;1.4163666;-1.2107849;-;-;-;-;-;-;-;-;-;-;-;-;-;-;-
1514191897556;-;-;7.585327;2.7642975;-1.6357574;-;-;-;-;-;-;-;-;-;-;-;-;-;-;-
1514191897576;-;-;9.025436;2.9330902;-1.4466095;-;-;-;-;-;-;-;-;-;-;-;-;-;-;-
1514191897597;-;-;11.234085;1.0344849;-0.84806824;-;-;-;-;-;-;-;-;-;-;-;-;-;-;-
1514191897617;-;-;12.231262;-0.2033081;-2.6508942;-;-;-;-;-;-;-;-;-;-;-;-;-;-;-
1514191897637;-;-;11.441177;1.006958;-2.1780396;-;-;-;-;-;-;-;-;-;-;-;-;-;-;-
1514191897657;-;-;7.3578644;0.8237915;-1.3580322;-;-;-;-;-;-;-;-;-;-;-;-;-;-;-
1514191897678;-;-;6.7341766;-0.4451294;-4.37352;-;-;-;-;-;-;-;-;-;-;-;-;-;-;-
1514191897698;-;-;7.790024;-1.0891724;-3.089035;-;-;-;-;-;-;-;-;-;-;-;-;-;-;-
1514191897718;-;-;5.1276703;-1.0005798;-1.3723907;-;-;-;-;-;-;-;-;-;-;-;-;-;-;-
1514191897739;-;-;4.9864197;-0.720459;-1.713562;-;-;-;-;-;-;-;-;-;-;-;-;-;-;-
1514191897759;-;-;5.6017303;-0.60194397;-1.1114197;-;-;-;-;-;-;-;-;-;-;-;-;-;-;-
1514191897779;-;-;7.463211;-1.7296143;-1.9410095;-;-;-;-;-;-;-;-;-;-;-;-;-;-;-
1514191897799;-;-;8.164719;-1.1681824;-1.0072784;-;-;-;-;-;-;-;-;-;-;-;-;-;-;-
1514191897820;-;-;12.459915;-2.554428;-1.0802917;-;-;-;-;-;-;-;-;-;-;-;-;-;-;-
1514191897840;-;-;14.047272;-3.1817017;-2.278595;-;-;-;-;-;-;-;-;-;-;-;-;-;-;-
1514191897860;-;-;14.3190155;-2.8872223;-3.4852753;-;-;-;-;-;-;-;-;-;-;-;-;-;-;-
1514191897880;-;-;8.395752;-1.8397522;-5.1851654;-;-;-;-;-;-;-;-;-;-;-;-;-;-;-
1514191897903;-;-;7.3889923;-1.625473;-3.0243835;-;-;-;-;-;-;-;-;-;-;-;-;-;-;-
1514191897921;-;-;6.9005737;-1.6302643;-2.3360596;-;-;-;-;-;-;-;-;-;-;-;-;-;-;-
1514191897942;-;-;6.7928467;-1.5536499;-2.6963806;-;-;-;-;-;-;-;-;-;-;-;-;-;-;-
1514191897962;-;-;8.865021;-2.0001678;-2.6724396;-;-;-;-;-;-;-;-;-;-;-;-;-;-;-
1514191897982;-;-;9.357025;-1.9977722;-3.0746765;-;-;-;-;-;-;-;-;-;-;-;-;-;-;-
1514191898003;-;-;9.507858;-2.2443695;-3.1022034;-;-;-;-;-;-;-;-;-;-;-;-;-;-;-
1514191898023;-;-;8.826721;-2.353302;-3.3404236;-;-;-;-;-;-;-;-;-;-;-;-;-;-;-
1514191898043;-;-;8.720169;-2.696869;-3.8312378;-;-;-;-;-;-;-;-;-;-;-;-;-;-;-
1514191898064;-;-;8.07254;-1.8960114;-3.44458;-;-;-;-;-;-;-;-;-;-;-;-;-;-;-
1514191898084;-;-;8.040222;-1.4542847;-3.4912567;-;-;-;-;-;-;-;-;-;-;-;-;-;-;-
1514191898104;-;-;8.431671;-1.4243622;-4.1041718;-;-;-;-;-;-;-;-;-;-;-;-;-;-;-
1514191898124;-;-;7.846283;-1.7607422;-4.2131195;-;-;-;-;-;-;-;-;-;-;-;-;-;-;-
1514191898145;-;-;7.7541046;-2.281479;-4.0598907;-;-;-;-;-;-;-;-;-;-;-;-;-;-;-
1514191898165;-;-;8.238937;-2.4215393;-3.9533386;-;-;-;-;-;-;-;-;-;-;-;-;-;-;-
1514191898185;-;-;8.462799;-2.2563477;-3.9533386;-;-;-;-;-;-;-;-;-;-;-;-;-;-;-
1514191898206;-;-;8.438858;-1.8313751;-3.8934937;-;-;-;-;-;-;-;-;-;-;-;-;-;-;-
1514191898226;-;-;8.533432;-1.6350555;-3.8180695;-;-;-;-;-;-;-;-;-;-;-;-;-;-;-
1514191898246;-;-;8.667496;-1.5500488;-3.5008392;-;-;-;-;-;-;-;-;-;-;-;-;-;-;-
1514191898267;-;-;8.541809;-1.6027222;-3.2686005;-;-;-;-;-;-;-;-;-;-;-;-;-;-;-
1514191898287;-;-;8.401749;-1.9175568;-3.1141663;-;-;-;-;-;-;-;-;-;-;-;-;-;-;-
1514191898307;-;-;8.533432;-2.0336761;-3.0064392;-;-;-;-;-;-;-;-;-;-;-;-;-;-;-
1514191898328;-;-;8.608841;-2.1557922;-2.7742004;-;-;-;-;-;-;-;-;-;-;-;-;-;-;-
1514191898348;-;-;8.655533;-2.3832397;-2.8244781;-;-;-;-;-;-;-;-;-;-;-;-;-;-;-
1514191898368;-;-;8.560959;-2.6944885;-2.9717255;-;-;-;-;-;-;-;-;-;-;-;-;-;-;-
1514191898389;-;-;8.48674;-2.851303;-3.0375519;-;-;-;-;-;-;-;-;-;-;-;-;-;-;-
1514191898409;-;-;8.322739;-2.7651062;-3.0160065;-;-;-;-;-;-;-;-;-;-;-;-;-;-;-
1514191898429;-;-;8.272461;-2.4993591;-3.2087402;-;-;-;-;-;-;-;-;-;-;-;-;-;-;-
1514191898450;-;-;8.554977;-2.1486053;-3.3823242;-;-;-;-;-;-;-;-;-;-;-;-;-;-;-
1514191898470;-;-;8.441254;-1.6709595;-3.429016;-;-;-;-;-;-;-;-;-;-;-;-;-;-;-
1514191898490;-;-;8.254501;-1.3692932;-3.764206;-;-;-;-;-;-;-;-;-;-;-;-;-;-;-
1514191898510;-;-;7.964798;-0.96347046;-4.464508;-;-;-;-;-;-;-;-;-;-;-;-;-;-;-
1514191898531;-;-;7.5877075;-0.4774475;-4.9002533;-;-;-;-;-;-;-;-;-;-;-;-;-;-;-
1514191898551;-;-;8.059372;0.39283752;-5.5131683;-;-;-;-;-;-;-;-;-;-;-;-;-;-;-
1514191898571;-;-;9.470749;2.9881592;-4.990036;-;-;-;-;-;-;-;-;-;-;-;-;-;-;-
1514191898592;-;-;9.045776;5.3033447;-3.3212738;-;-;-;-;-;-;-;-;-;-;-;-;-;-;-
1514191898611;-;-;8.471176;2.5081177;-2.5120392;-;-;-;-;-;-;-;-;-;-;-;-;-;-;-
1514191898631;-;-;10.160278;0.23841858;-2.9968567;-;-;-;-;-;-;-;-;-;-;-;-;-;-;-
1514191898651;-;-;10.506241;0.49699402;-3.511612;-;-;-;-;-;-;-;-;-;-;-;-;-;-;-
1514191898672;-;-;9.555756;1.2272186;-3.6516724;-;-;-;-;-;-;-;-;-;-;-;-;-;-;-
1514191898692;-;-;7.963608;2.0963135;-3.5092163;-;-;-;-;-;-;-;-;-;-;-;-;-;-;-
1514191898712;-;-;7.693054;2.4877625;-2.994461;-;-;-;-;-;-;-;-;-;-;-;-;-;-;-
1514191898733;-;-;7.7936096;1.9730072;-2.8137054;-;-;-;-;-;-;-;-;-;-;-;-;-;-;-
1514191898753;-;-;7.940857;1.3493195;-2.1983948;-;-;-;-;-;-;-;-;-;-;-;-;-;-;-
1514191898773;-;-;8.362244;1.1434174;-1.571106;-;-;-;-;-;-;-;-;-;-;-;-;-;-;-
1514191898794;-;-;8.431671;1.3732605;-2.2881775;-;-;-;-;-;-;-;-;-;-;-;-;-;-;-
1514191898814;-;-;8.234146;1.8305664;-2.8974915;-;-;-;-;-;-;-;-;-;-;-;-;-;-;-
1514191898834;-;-;7.750519;2.3932037;-3.151291;-;-;-;-;-;-;-;-;-;-;-;-;-;-;-
1514191898854;-;-;7.7205963;2.5667725;-3.238678;-;-;-;-;-;-;-;-;-;-;-;-;-;-;-
1514191898875;-;-;7.925293;2.608673;-3.0674896;-;-;-;-;-;-;-;-;-;-;-;-;-;-;-
1514191898895;-;-;8.1874695;2.0484314;-2.907074;-;-;-;-;-;-;-;-;-;-;-;-;-;-;-
1514191898915;-;-;8.894943;1.4355164;-3.278183;-;-;-;-;-;-;-;-;-;-;-;-;-;-;-
1514191898936;-;-;9.207397;1.3325653;-3.661255;-;-;-;-;-;-;-;-;-;-;-;-;-;-;-
1514191898956;-;-;9.4887085;0.69091797;-3.393097;-;-;-;-;-;-;-;-;-;-;-;-;-;-;-
1514191898976;-;-;10.175842;-1.2208557;-3.3116913;-;-;-;-;-;-;-;-;-;-;-;-;-;-;-
1514191898996;-;-;11.248444;-3.522873;-4.3555603;-;-;-;-;-;-;-;-;-;-;-;-;-;-;-
1514191899017;-;-;10.496674;-3.3576813;-3.5642853;-;-;-;-;-;-;-;-;-;-;-;-;-;-;-
1514191899037;-;-;8.2317505;-1.9726257;-2.5527344;-;-;-;-;-;-;-;-;-;-;-;-;-;-;-
1514191899057;-;-;6.8993835;-1.7332153;-2.6748352;-;-;-;-;-;-;-;-;-;-;-;-;-;-;-
1514191899078;-;-;6.675522;-1.6230774;-2.3384552;-;-;-;-;-;-;-;-;-;-;-;-;-;-;-
1514191899099;-;-;8.570541;-1.5524445;-2.1660767;-;-;-;-;-;-;-;-;-;-;-;-;-;-;-
1514191899119;-;-;9.463577;-1.0029755;-2.673645;-;-;-;-;-;-;-;-;-;-;-;-;-;-;-
1514191899140;-;-;9.80954;-0.5672302;-2.9178467;-;-;-;-;-;-;-;-;-;-;-;-;-;-;-
1514191899160;-;-;9.498291;-0.36611938;-3.231491;-;-;-;-;-;-;-;-;-;-;-;-;-;-;-
1514191899180;-;-;8.954803;-0.64863586;-3.3308563;-;-;-;-;-;-;-;-;-;-;-;-;-;-;-
1514191899201;-;-;8.5047;-0.7875061;-2.8125;-;-;-;-;-;-;-;-;-;-;-;-;-;-;-
1514191899221;-;-;8.32991;-0.6941223;-2.5359802;-;-;-;-;-;-;-;-;-;-;-;-;-;-;-
1514191899241;-;-;8.636368;-0.21289063;-2.9657288;-;-;-;-;-;-;-;-;-;-;-;-;-;-;-
1514191899261;-;-;8.630386;-0.12550354;-2.7658234;-;-;-;-;-;-;-;-;-;-;-;-;-;-;-
1514191899282;-;-;8.635178;-0.38049316;-2.547943;-;-;-;-;-;-;-;-;-;-;-;-;-;-;-
1514191899301;-;-;8.729752;-0.7192688;-2.467743;-;-;-;-;-;-;-;-;-;-;-;-;-;-;-
1514191899321;-;-;8.903336;-0.90242004;-2.5814667;-;-;-;-;-;-;-;-;-;-;-;-;-;-;-
1514191899342;-;-;9.170288;-1.0077667;-2.551529;-;-;-;-;-;-;-;-;-;-;-;-;-;-;-
1514191899361;-;-;9.215775;-0.838974;-2.5646973;-;-;-;-;-;-;-;-;-;-;-;-;-;-;-
1514191899381;-;-;8.969162;-0.43077087;-2.5970306;-;-;-;-;-;-;-;-;-;-;-;-;-;-;-
1514191899401;-;-;8.655533;0.07081604;-2.6808167;-;-;-;-;-;-;-;-;-;-;-;-;-;-;-
1514191899422;-;-;8.412521;0.5269165;-2.6688538;-;-;-;-;-;-;-;-;-;-;-;-;-;-;-
1514191899442;-;-;8.367035;0.9866028;-2.586258;-;-;-;-;-;-;-;-;-;-;-;-;-;-;-
1514191899462;-;-;8.612427;1.106308;-2.7406769;-;-;-;-;-;-;-;-;-;-;-;-;-;-;-
1514191899483;-;-;8.74411;0.40242004;-3.0698853;-;-;-;-;-;-;-;-;-;-;-;-;-;-;-
1514191899503;-;-;9.002686;-0.65940857;-2.6556854;-;-;-;-;-;-;-;-;-;-;-;-;-;-;-
1514191899523;-;-;9.124786;-1.0712128;-2.3468323;-;-;-;-;-;-;-;-;-;-;-;-;-;-;-
1514191899543;-;-;9.09845;-0.9371338;-2.3719635;-;-;-;-;-;-;-;-;-;-;-;-;-;-;-
1514191899564;-;-;9.006287;-0.42477417;-2.3959198;-;-;-;-;-;-;-;-;-;-;-;-;-;-;-
1514191899584;-;-;8.716583;0.259964;-2.3755646;-;-;-;-;-;-;-;-;-;-;-;-;-;-;-
1514191899604;-;-;8.568146;0.5257263;-2.266632;-;-;-;-;-;-;-;-;-;-;-;-;-;-;-
1514191899625;-;-;8.526245;0.4909973;-2.191208;-;-;-;-;-;-;-;-;-;-;-;-;-;-;-
1514191899645;-;-;8.708206;0.107925415;-2.2331085;-;-;-;-;-;-;-;-;-;-;-;-;-;-;-
1514191899665;-;-;8.903336;-0.17098999;-2.3444366;-;-;-;-;-;-;-;-;-;-;-;-;-;-;-
1514191899685;-;-;9.075714;-0.38049316;-2.483307;-;-;-;-;-;-;-;-;-;-;-;-;-;-;-
1514191899706;-;-;9.160706;-0.5169525;-2.55513;-;-;-;-;-;-;-;-;-;-;-;-;-;-;-
1514191899726;-;-;9.099655;-0.42237854;-2.5778656;-;-;-;-;-;-;-;-;-;-;-;-;-;-;-
1514191899746;-;-;9.118805;-0.31105042;-2.5611115;-;-;-;-;-;-;-;-;-;-;-;-;-;-;-
1514191899767;-;-;9.123596;-0.25479126;-2.5646973;-;-;-;-;-;-;-;-;-;-;-;-;-;-;-
1514191899787;-;-;9.042191;-0.2607727;-2.4414063;-;-;-;-;-;-;-;-;-;-;-;-;-;-;-
1514191899807;-;-;8.969162;-0.24401855;-2.3839417;-;-;-;-;-;-;-;-;-;-;-;-;-;-;-
1514191899827;-;-;8.969162;-0.21528625;-2.309723;-;-;-;-;-;-;-;-;-;-;-;-;-;-;-
1514191899848;-;-;8.955994;-0.20690918;-2.2223358;-;-;-;-;-;-;-;-;-;-;-;-;-;-;-
1514191899868;-;-;8.8602295;-0.17817688;-2.263031;-;-;-;-;-;-;-;-;-;-;-;-;-;-;-
1514191899888;-;-;8.831497;-0.19972229;-2.231903;-;-;-;-;-;-;-;-;-;-;-;-;-;-;-
1514191899909;-;-;8.8997345;-0.1302948;-2.3480225;-;-;-;-;-;-;-;-;-;-;-;-;-;-;-
1514191899929;-;-;8.987122;0.0037841797;-2.3983002;-;-;-;-;-;-;-;-;-;-;-;-;-;-;-
1514191899950;-;-;9.091278;0.23362732;-2.5060425;-;-;-;-;-;-;-;-;-;-;-;-;-;-;-
1514191899970;-;-;8.825516;0.6143036;-2.5682983;-;-;-;-;-;-;-;-;-;-;-;-;-;-;-
1514191899990;-;-;8.884171;0.73161316;-2.5766754;-;-;-;-;-;-;-;-;-;-;-;-;-;-;-
1514191900010;-;-;8.904526;0.35572815;-2.685608;-;-;-;-;-;-;-;-;-;-;-;-;-;-;-
1514191900031;-;-;8.778824;0.008575439;-2.7011719;-;-;-;-;-;-;-;-;-;-;-;-;-;-;-
1514191900051;-;-;8.824326;-0.31105042;-2.6484985;-;-;-;-;-;-;-;-;-;-;-;-;-;-;-
1514191900071;-;-;8.876999;-0.47146606;-2.6963806;-;-;-;-;-;-;-;-;-;-;-;-;-;-;-
1514191900092;-;-;9.020645;-0.5253296;-2.7346954;-;-;-;-;-;-;-;-;-;-;-;-;-;-;-
1514191900112;-;-;8.967972;-0.54689026;-2.7155457;-;-;-;-;-;-;-;-;-;-;-;-;-;-;-
1514191900132;-;-;8.953613;-0.621109;-2.4928741;-;-;-;-;-;-;-;-;-;-;-;-;-;-;-
1514191900152;-;-;8.894943;-0.75756836;-2.467743;-;-;-;-;-;-;-;-;-;-;-;-;-;-;-
1514191900173;-;-;8.908112;-0.88446045;-2.6616669;-;-;-;-;-;-;-;-;-;-;-;-;-;-;-
1514191900193;-;-;8.82193;-0.759964;-2.6353302;-;-;-;-;-;-;-;-;-;-;-;-;-;-;-
1514191900213;-;-;8.848267;-0.5851898;-2.7035675;-;-;-;-;-;-;-;-;-;-;-;-;-;-;-
1514191900234;-;-;8.896149;-0.4738617;-2.6676483;-;-;-;-;-;-;-;-;-;-;-;-;-;-;-
1514191900254;-;-;8.928467;-0.43554688;-2.721527;-;-;-;-;-;-;-;-;-;-;-;-;-;-;-
1514191900274;-;-;8.926071;-0.5049896;-2.7789917;-;-;-;-;-;-;-;-;-;-;-;-;-;-;-
1514191900295;-;-;8.963181;-0.45829773;-2.7586365;-;-;-;-;-;-;-;-;-;-;-;-;-;-;-
1514191900314;-;-;8.959595;-0.4547119;-2.7071533;-;-;-;-;-;-;-;-;-;-;-;-;-;-;-
1514191900334;-;-;8.833893;-0.45948792;-2.6269531;-;-;-;-;-;-;-;-;-;-;-;-;-;-;-
1514191900354;-;-;8.847061;-0.50138855;-2.4904785;-;-;-;-;-;-;-;-;-;-;-;-;-;-;-
1514191900375;-;-;8.756088;-0.35055542;-2.4892883;-;-;-;-;-;-;-;-;-;-;-;-;-;-;-
1514191900395;-;-;8.623199;-0.17098999;-2.610199;-;-;-;-;-;-;-;-;-;-;-;-;-;-;-
1514191900415;-;-;8.7656555;0.14624023;-2.6197662;-;-;-;-;-;-;-;-;-;-;-;-;-;-;-
1514191900436;-;-;8.795593;0.26235962;-2.788559;-;-;-;-;-;-;-;-;-;-;-;-;-;-;-
1514191900456;-;-;8.825516;0.06842041;-2.8508148;-;-;-;-;-;-;-;-;-;-;-;-;-;-;-
1514191900476;-;-;8.876999;-0.16142273;-2.7430725;-;-;-;-;-;-;-;-;-;-;-;-;-;-;-
1514191900497;-;-;8.787216;-0.15782166;-2.6724396;-;-;-;-;-;-;-;-;-;-;-;-;-;-;-
1514191900517;-;-;8.783615;-0.11114502;-2.6532898;-;-;-;-;-;-;-;-;-;-;-;-;-;-;-
1514191900537;-;-;8.7656555;-0.0440979;-2.586258;-;-;-;-;-;-;-;-;-;-;-;-;-;-;-
1514191900558;-;-;8.865021;-0.030929565;-2.5407562;-;-;-;-;-;-;-;-;-;-;-;-;-;-;-
1514191900578;-;-;8.938049;-0.038116455;-2.5443573;-;-;-;-;-;-;-;-;-;-;-;-;-;-;-
1514191900598;-;-;8.967972;0.081588745;-2.6724396;-;-;-;-;-;-;-;-;-;-;-;-;-;-;-
1514191900619;-;-;8.92128;0.24559021;-2.682022;-;-;-;-;-;-;-;-;-;-;-;-;-;-;-
1514191900639;-;-;8.934448;0.43952942;-2.7107544;-;-;-;-;-;-;-;-;-;-;-;-;-;-;-
1514191900659;-;-;8.886566;0.5855713;-2.6233673;-;-;-;-;-;-;-;-;-;-;-;-;-;-;-
1514191900680;-;-;8.819534;0.5484619;-2.6449127;-;-;-;-;-;-;-;-;-;-;-;-;-;-;-
1514191900699;-;-;8.827911;0.37010193;-2.7083588;-;-;-;-;-;-;-;-;-;-;-;-;-;-;-
1514191900720;-;-;8.894943;0.25756836;-2.6293488;-;-;-;-;-;-;-;-;-;-;-;-;-;-;-
1514191900740;-;-;9.038605;0.24320984;-2.5359802;-;-;-;-;-;-;-;-;-;-;-;-;-;-;-
1514191900760;-;-;9.044586;0.21687317;-2.436615;-;-;-;-;-;-;-;-;-;-;-;-;-;-;-
1514191900781;-;-;8.993118;0.14025879;-2.3193054;-;-;-;-;-;-;-;-;-;-;-;-;-;-;-
1514191900802;-;-;8.97995;-0.12310791;-2.3396454;-;-;-;-;-;-;-;-;-;-;-;-;-;-;-
1514191900822;-;-;9.002686;-0.39604187;-2.306137;-;-;-;-;-;-;-;-;-;-;-;-;-;-;-
1514191900842;-;-;9.027832;-0.48582458;-2.3671875;-;-;-;-;-;-;-;-;-;-;-;-;-;-;-
1514191900863;-;-;8.996704;-0.4834442;-2.3707733;-;-;-;-;-;-;-;-;-;-;-;-;-;-;-
1514191900883;-;-;8.997894;-0.4056244;-2.3312683;-;-;-;-;-;-;-;-;-;-;-;-;-;-;-
1514191900903;-;-;8.894943;-0.32781982;-2.2187347;-;-;-;-;-;-;-;-;-;-;-;-;-;-;-
1514191900924;-;-;8.790802;-0.3182373;-2.2342987;-;-;-;-;-;-;-;-;-;-;-;-;-;-;-
1514191900944;-;-;8.806366;-0.32781982;-2.1505127;-;-;-;-;-;-;-;-;-;-;-;-;-;-;-
1514191900964;-;-;8.850662;-0.13986206;-2.0595245;-;-;-;-;-;-;-;-;-;-;-;-;-;-;-
1514191900984;-;-;8.932053;-0.11114502;-2.1732483;-;-;-;-;-;-;-;-;-;-;-;-;-;-;-
1514191901005;-;-;9.049377;-0.37928772;-2.2342987;-;-;-;-;-;-;-;-;-;-;-;-;-;-;-
1514191901025;-;-;9.116409;-0.56604004;-2.207962;-;-;-;-;-;-;-;-;-;-;-;-;-;-;-
1514191901045;-;-;9.038605;-0.5564575;-2.2726135;-;-;-;-;-;-;-;-;-;-;-;-;-;-;-
1514191901066;-;-;8.890167;-0.40083313;-2.2654266;-;-;-;-;-;-;-;-;-;-;-;-;-;-;-
1514191901085;-;-;8.814743;-0.29908752;-2.2259216;-;-;-;-;-;-;-;-;-;-;-;-;-;-;-
1514191901105;-;-;8.959595;-0.29071045;-2.2965546;-;-;-;-;-;-;-;-;-;-;-;-;-;-;-
1514191901126;-;-;9.067337;-0.1482544;-2.2774048;-;-;-;-;-;-;-;-;-;-;-;-;-;-;-
1514191901146;-;-;9.014664;0.067230225;-2.2582397;-;-;-;-;-;-;-;-;-;-;-;-;-;-;-
1514191901166;-;-;9.009872;0.098358154;-2.4545746;-;-;-;-;-;-;-;-;-;-;-;-;-;-;-
1514191901187;-;-;9.0182495;0.0756073;-2.3995056;-;-;-;-;-;-;-;-;-;-;-;-;-;-;-
1514191901207;-;-;8.9991;-0.0010070801;-2.350418;-;-;-;-;-;-;-;-;-;-;-;-;-;-;-
1514191901227;-;-;8.890167;-0.29788208;-2.2067719;-;-;-;-;-;-;-;-;-;-;-;-;-;-;-
1514191901248;-;-;8.880585;-0.4666748;-2.1576843;-;-;-;-;-;-;-;-;-;-;-;-;-;-;-
1514191901268;-;-;8.905716;-0.463089;-2.1552887;-;-;-;-;-;-;-;-;-;-;-;-;-;-;-
1514191901289;-;-;8.972763;-0.29190063;-2.2007904;-;-;-;-;-;-;-;-;-;-;-;-;-;-;-
1514191901308;-;-;8.96199;-0.09197998;-2.3408508;-;-;-;-;-;-;-;-;-;-;-;-;-;-;-
1514191901329;-;-;8.953613;-0.023742676;-2.4006958;-;-;-;-;-;-;-;-;-;-;-;-;-;-;-
1514191901349;-;-;8.983536;-0.12550354;-2.3647919;-;-;-;-;-;-;-;-;-;-;-;-;-;-;-
1514191901369;-;-;9.011063;-0.25598145;-2.3037415;-;-;-;-;-;-;-;-;-;-;-;-;-;-;-
1514191901390;-;-;8.958389;-0.34576416;-2.2857819;-;-;-;-;-;-;-;-;-;-;-;-;-;-;-
1514191901410;-;-;8.935654;-0.36013794;-2.3384552;-;-;-;-;-;-;-;-;-;-;-;-;-;-;-
1514191901430;-;-;8.872208;-0.16142273;-2.2977448;-;-;-;-;-;-;-;-;-;-;-;-;-;-;-
1514191901451;-;-;8.903336;0.1330719;-2.3360596;-;-;-;-;-;-;-;-;-;-;-;-;-;-;-
1514191901471;-;-;8.958389;0.32580566;-2.3324738;-;-;-;-;-;-;-;-;-;-;-;-;-;-;-
1514191901491;-;-;9.017059;-0.00340271;-2.3623962;-;-;-;-;-;-;-;-;-;-;-;-;-;-;-
1514191901511;-;-;9.067337;-0.44752502;-2.3073273;-;-;-;-;-;-;-;-;-;-;-;-;-;-;-
1514191901532;-;-;8.954803;-0.6701813;-2.2450714;-;-;-;-;-;-;-;-;-;-;-;-;-;-;-
1514191901552;-;-;8.92009;-0.69651794;-2.172058;-;-;-;-;-;-;-;-;-;-;-;-;-;-;-
1514191901572;-;-;8.929672;-0.4738617;-2.1181793;-;-;-;-;-;-;-;-;-;-;-;-;-;-;-
1514191901593;-;-;8.8997345;-0.26437378;-2.2798004;-;-;-;-;-;-;-;-;-;-;-;-;-;-;-
1514191901613;-;-;8.869812;-0.15782166;-2.3001404;-;-;-;-;-;-;-;-;-;-;-;-;-;-;-
1514191901633;-;-;8.879379;-0.1697998;-2.3468323;-;-;-;-;-;-;-;-;-;-;-;-;-;-;-
1514191901654;-;-;8.912903;-0.15782166;-2.144516;-;-;-;-;-;-;-;-;-;-;-;-;-;-;-
1514191901673;-;-;8.848267;0.060043335;-2.0858612;-;-;-;-;-;-;-;-;-;-;-;-;-;-;-
1514191901693;-;-;8.884171;0.3030548;-2.128952;-;-;-;-;-;-;-;-;-;-;-;-;-;-;-
1514191901713;-;-;8.924881;0.4084015;-2.0750885;-;-;-;-;-;-;-;-;-;-;-;-;-;-;-
1514191901734;-;-;8.98114;0.34136963;-2.1852264;-;-;-;-;-;-;-;-;-;-;-;-;-;-;-
1514191901754;-;-;8.988327;0.013366699;-2.3288727;-;-;-;-;-;-;-;-;-;-;-;-;-;-;-
1514191901774;-;-;9.056564;-0.30506897;-2.3252869;-;-;-;-;-;-;-;-;-;-;-;-;-;-;-
1514191901795;-;-;9.185837;-0.5540619;-2.2774048;-;-;-;-;-;-;-;-;-;-;-;-;-;-;-
1514191901816;-;-;9.215775;-0.68933105;-2.230713;-;-;-;-;-;-;-;-;-;-;-;-;-;-;-
1514191901835;-;-;9.0972595;-0.54808044;-2.2211304;-;-;-;-;-;-;-;-;-;-;-;-;-;-;-
1514191901855;-;-;8.855438;-0.17219543;-2.0978394;-;-;-;-;-;-;-;-;-;-;-;-;-;-;-
1514191901876;-;-;8.769257;0.21806335;-1.942215;-;-;-;-;-;-;-;-;-;-;-;-;-;-;-
1514191901896;-;-;8.851852;0.13905334;-1.9888916;-;-;-;-;-;-;-;-;-;-;-;-;-;-;-
1514191901916;-;-;9.067337;-0.29071045;-1.9841156;-;-;-;-;-;-;-;-;-;-;-;-;-;-;-
1514191901937;-;-;9.155914;-0.68574524;-1.950592;-;-;-;-;-;-;-;-;-;-;-;-;-;-;-
1514191901957;-;-;9.091278;-0.81503296;-2.00206;-;-;-;-;-;-;-;-;-;-;-;-;-;-;-
1514191901977;-;-;9.0972595;-0.7120819;-2.115799;-;-;-;-;-;-;-;-;-;-;-;-;-;-;-
1514191901998;-;-;9.102051;-0.47146606;-2.2798004;-;-;-;-;-;-;-;-;-;-;-;-;-;-;-
1514191902018;-;-;9.092468;-0.3397827;-2.3348541;-;-;-;-;-;-;-;-;-;-;-;-;-;-;-
1514191902038;-;-;9.009872;-0.18655396;-2.381546;-;-;-;-;-;-;-;-;-;-;-;-;-;-;-
1514191902059;-;-;8.915298;0.03970337;-2.1888123;-;-;-;-;-;-;-;-;-;-;-;-;-;-;-
1514191902078;-;-;8.869812;0.2815094;-2.1217804;-;-;-;-;-;-;-;-;-;-;-;-;-;-;-
1514191902098;-;-;8.835098;0.23123169;-2.1038208;-;-;-;-;-;-;-;-;-;-;-;-;-;-;-
1514191902119;-;-;8.854248;0.046875;-2.057129;-;-;-;-;-;-;-;-;-;-;-;-;-;-;-
1514191902139;-;-;8.826721;-0.081207275;-2.1110077;-;-;-;-;-;-;-;-;-;-;-;-;-;-;-
1514191902159;-;-;8.933258;-0.17578125;-2.211563;-;-;-;-;-;-;-;-;-;-;-;-;-;-;-
1514191902180;-;-;9.074509;-0.19972229;-2.3157043;-;-;-;-;-;-;-;-;-;-;-;-;-;-;-
1514191902200;-;-;9.121201;-0.25;-2.263031;-;-;-;-;-;-;-;-;-;-;-;-;-;-;-
1514191902220;-;-;9.127182;-0.33140564;-2.2103577;-;-;-;-;-;-;-;-;-;-;-;-;-;-;-
1514191902240;-;-;9.07811;-0.38887024;-2.2342987;-;-;-;-;-;-;-;-;-;-;-;-;-;-;-
1514191902261;-;-;8.977554;-0.4056244;-2.2331085;-;-;-;-;-;-;-;-;-;-;-;-;-;-;-
1514191902281;-;-;8.911713;-0.26437378;-2.1469116;-;-;-;-;-;-;-;-;-;-;-;-;-;-;-
1514191902301;-;-;8.896149;-0.109939575;-2.179245;-;-;-;-;-;-;-;-;-;-;-;-;-;-;-
1514191902321;-;-;9.008667;0.05406189;-2.199585;-;-;-;-;-;-;-;-;-;-;-;-;-;-;-
1514191902341;-;-;9.074509;0.21447754;-2.2139587;-;-;-;-;-;-;-;-;-;-;-;-;-;-;-
1514191902362;-;-;8.957199;0.117507935;-2.0894623;-;-;-;-;-;-;-;-;-;-;-;-;-;-;-
1514191902382;-;-;8.82312;-0.09197998;-1.9553833;-;-;-;-;-;-;-;-;-;-;-;-;-;-;-
1514191902402;-;-;8.7764435;-0.25598145;-1.8548279;-;-;-;-;-;-;-;-;-;-;-;-;-;-;-
1514191902423;-;-;8.905716;-0.3086548;-1.8536224;-;-;-;-;-;-;-;-;-;-;-;-;-;-;-
1514191902442;-;-;9.0577545;-0.34098816;-1.942215;-;-;-;-;-;-;-;-;-;-;-;-;-;-;-
1514191902462;-;-;9.096069;-0.38407898;-2.012848;-;-;-;-;-;-;-;-;-;-;-;-;-;-;-
1514191902482;-;-;9.027832;-0.35055542;-2.0403748;-;-;-;-;-;-;-;-;-;-;-;-;-;-;-
1514191902503;-;-;8.967972;-0.24760437;-2.0583344;-;-;-;-;-;-;-;-;-;-;-;-;-;-;-
1514191902522;-;-;8.98114;-0.24641418;-2.132553;-;-;-;-;-;-;-;-;-;-;-;-;-;-;-
1514191902542;-;-;9.023041;-0.28710938;-2.128952;-;-;-;-;-;-;-;-;-;-;-;-;-;-;-
1514191902563;-;-;9.0182495;-0.30506897;-2.0619202;-;-;-;-;-;-;-;-;-;-;-;-;-;-;-
1514191902583;-;-;9.002686;-0.32063293;-2.0307922;-;-;-;-;-;-;-;-;-;-;-;-;-;-;-
1514191902604;-;-;9.005081;-0.36372375;-2.0008698;-;-;-;-;-;-;-;-;-;-;-;-;-;-;-
1514191902624;-;-;9.015854;-0.39964294;-1.9948883;-;-;-;-;-;-;-;-;-;-;-;-;-;-;-
1514191902644;-;-;9.002686;-0.2715454;-2.0152283;-;-;-;-;-;-;-;-;-;-;-;-;-;-;-
1514191902665;-;-;8.929672;-0.015365601;-2.1253662;-;-;-;-;-;-;-;-;-;-;-;-;-;-;-
1514191902685;-;-;8.947617;0.28390503;-2.096634;-;-;-;-;-;-;-;-;-;-;-;-;-;-;-
1514191902705;-;-;8.970367;0.3712921;-2.2007904;-;-;-;-;-;-;-;-;-;-;-;-;-;-;-
1514191902725;-;-;8.964386;0.03491211;-2.1169891;-;-;-;-;-;-;-;-;-;-;-;-;-;-;-
1514191902746;-;-;8.936844;-0.40682983;-2.057129;-;-;-;-;-;-;-;-;-;-;-;-;-;-;-
1514191902765;-;-;8.969162;-0.44752502;-2.2618408;-;-;-;-;-;-;-;-;-;-;-;-;-;-;-
1514191902785;-;-;9.160706;-0.40682983;-2.546753;-;-;-;-;-;-;-;-;-;-;-;-;-;-;-
1514191902805;-;-;9.099655;-0.22247314;-2.5599213;-;-;-;-;-;-;-;-;-;-;-;-;-;-;-
1514191902826;-;-;8.933258;-0.25479126;-2.5144196;-;-;-;-;-;-;-;-;-;-;-;-;-;-;-
1514191902846;-;-;8.80397;-0.24880981;-2.2187347;-;-;-;-;-;-;-;-;-;-;-;-;-;-;-
1514191902867;-;-;8.791992;-0.23443604;-2.2570496;-;-;-;-;-;-;-;-;-;-;-;-;-;-;-
1514191902887;-;-;8.783615;-0.1590271;-2.4904785;-;-;-;-;-;-;-;-;-;-;-;-;-;-;-
1514191902907;-;-;8.884171;0.0181427;-2.551529;-;-;-;-;-;-;-;-;-;-;-;-;-;-;-
1514191902928;-;-;8.983536;0.069625854;-2.5060425;-;-;-;-;-;-;-;-;-;-;-;-;-;-;-
1514191902948;-;-;9.127182;-0.15782166;-2.5994263;-;-;-;-;-;-;-;-;-;-;-;-;-;-;-
1514191902967;-;-;9.13916;-0.2607727;-2.6748352;-;-;-;-;-;-;-;-;-;-;-;-;-;-;-
1514191902987;-;-;8.935654;-0.26197815;-2.7777863;-;-;-;-;-;-;-;-;-;-;-;-;-;-;-
1514191903007;-;-;8.711792;-0.088394165;-2.7705994;-;-;-;-;-;-;-;-;-;-;-;-;-;-;-
1514191903028;-;-;8.64476;0.08039856;-2.6628723;-;-;-;-;-;-;-;-;-;-;-;-;-;-;-
1514191903048;-;-;8.685455;0.17497253;-2.6125946;-;-;-;-;-;-;-;-;-;-;-;-;-;-;-
1514191903068;-;-;8.83989;0.14144897;-2.6042023;-;-;-;-;-;-;-;-;-;-;-;-;-;-;-
1514191903089;-;-;8.989517;0.038497925;-2.6233673;-;-;-;-;-;-;-;-;-;-;-;-;-;-;-
1514191903109;-;-;8.98114;-0.052474976;-2.6748352;-;-;-;-;-;-;-;-;-;-;-;-;-;-;-
1514191903130;-;-;8.90094;-0.07522583;-2.6006165;-;-;-;-;-;-;-;-;-;-;-;-;-;-;-
1514191903150;-;-;8.789597;-0.05607605;-2.5778656;-;-;-;-;-;-;-;-;-;-;-;-;-;-;-
1514191903170;-;-;8.80397;-0.0069885254;-2.5898438;-;-;-;-;-;-;-;-;-;-;-;-;-;-;-
1514191903190;-;-;8.836288;0.12948608;-2.5575256;-;-;-;-;-;-;-;-;-;-;-;-;-;-;-
1514191903211;-;-;8.812347;0.22764587;-2.5048523;-;-;-;-;-;-;-;-;-;-;-;-;-;-;-
1514191903231;-;-;8.759674;0.18693542;-2.4557648;-;-;-;-;-;-;-;-;-;-;-;-;-;-;-
1514191903251;-;-;8.88298;0.03730774;-2.5754852;-;-;-;-;-;-;-;-;-;-;-;-;-;-;-
1514191903272;-;-;8.844666;-0.011779785;-2.5599213;-;-;-;-;-;-;-;-;-;-;-;-;-;-;-
1514191903292;-;-;8.853058;-0.0440979;-2.4485931;-;-;-;-;-;-;-;-;-;-;-;-;-;-;-
1514191903312;-;-;8.7608795;-0.081207275;-2.6078033;-;-;-;-;-;-;-;-;-;-;-;-;-;-;-
1514191903332;-;-;8.754883;-0.078811646;-2.6568756;-;-;-;-;-;-;-;-;-;-;-;-;-;-;-
1514191903353;-;-;8.83989;-0.04170227;-2.7466583;-;-;-;-;-;-;-;-;-;-;-;-;-;-;-
1514191903373;-;-;8.866211;-0.018966675;-2.8065186;-;-;-;-;-;-;-;-;-;-;-;-;-;-;-
1514191903393;-;-;8.972763;-0.021362305;-2.7167358;-;-;-;-;-;-;-;-;-;-;-;-;-;-;-
1514191903414;-;-;8.972763;-0.059661865;-2.5802612;-;-;-;-;-;-;-;-;-;-;-;-;-;-;-
1514191903434;-;-;8.911713;-0.16381836;-2.5287933;-;-;-;-;-;-;-;-;-;-;-;-;-;-;-
1514191903455;-;-;8.832703;-0.25;-2.6808167;-;-;-;-;-;-;-;-;-;-;-;-;-;-;-
1514191903475;-;-;8.837494;-0.22486877;-2.6221619;-;-;-;-;-;-;-;-;-;-;-;-;-;-;-
1514191903495;-;-;8.903336;-0.15663147;-2.5611115;-;-;-;-;-;-;-;-;-;-;-;-;-;-;-
1514191903515;-;-;8.844666;-0.06564331;-2.5419617;-;-;-;-;-;-;-;-;-;-;-;-;-;-;-
1514191903536;-;-;8.759674;-0.0045928955;-2.5096436;-;-;-;-;-;-;-;-;-;-;-;-;-;-;-
1514191903556;-;-;8.710602;0.10913086;-2.6006165;-;-;-;-;-;-;-;-;-;-;-;-;-;-;-
1514191903576;-;-;8.791992;0.2348175;-2.6628723;-;-;-;-;-;-;-;-;-;-;-;-;-;-;-
1514191903597;-;-;8.857834;0.17736816;-2.7909546;-;-;-;-;-;-;-;-;-;-;-;-;-;-;-
1514191903617;-;-;8.924881;0.107925415;-2.8639832;-;-;-;-;-;-;-;-;-;-;-;-;-;-;-
1514191903637;-;-;8.869812;-0.015365601;-2.8053284;-;-;-;-;-;-;-;-;-;-;-;-;-;-;-
1514191903658;-;-;8.787216;-0.1530304;-2.6844177;-;-;-;-;-;-;-;-;-;-;-;-;-;-;-
1514191903678;-;-;8.777634;-0.21647644;-2.5970306;-;-;-;-;-;-;-;-;-;-;-;-;-;-;-
1514191903698;-;-;8.830307;-0.20211792;-2.6808167;-;-;-;-;-;-;-;-;-;-;-;-;-;-;-
1514191903719;-;-;8.916504;-0.16619873;-2.7239227;-;-;-;-;-;-;-;-;-;-;-;-;-;-;-
1514191903739;-;-;8.938049;-0.119522095;-2.717926;-;-;-;-;-;-;-;-;-;-;-;-;-;-;-
1514191903759;-;-;8.923676;-0.14465332;-2.7167358;-;-;-;-;-;-;-;-;-;-;-;-;-;-;-
1514191903779;-;-;8.848267;-0.14585876;-2.7394867;-;-;-;-;-;-;-;-;-;-;-;-;-;-;-
1514191903800;-;-;8.74292;-0.08480835;-2.709549;-;-;-;-;-;-;-;-;-;-;-;-;-;-;-
1514191903820;-;-;8.756088;-0.083602905;-2.7203217;-;-;-;-;-;-;-;-;-;-;-;-;-;-;-
1514191903840;-;-;8.7812195;-0.021362305;-2.7837677;-;-;-;-;-;-;-;-;-;-;-;-;-;-;-
1514191903861;-;-;8.82193;0.064834595;-2.879547;-;-;-;-;-;-;-;-;-;-;-;-;-;-;-
1514191903881;-;-;8.857834;0.18933105;-2.8352509;-;-;-;-;-;-;-;-;-;-;-;-;-;-;-
1514191903901;-;-;8.818329;0.29467773;-2.875946;-;-;-;-;-;-;-;-;-;-;-;-;-;-;-
1514191903922;-;-;8.807556;0.338974;-2.8376465;-;-;-;-;-;-;-;-;-;-;-;-;-;-;-
1514191903942;-;-;8.811157;0.32460022;-2.828064;-;-;-;-;-;-;-;-;-;-;-;-;-;-;-
1514191903962;-;-;8.771652;0.21208191;-2.7897644;-;-;-;-;-;-;-;-;-;-;-;-;-;-;-
1514191903982;-;-;8.766861;0.17376709;-2.752655;-;-;-;-;-;-;-;-;-;-;-;-;-;-;-
1514191904003;-;-;8.777634;0.17497253;-2.7897644;-;-;-;-;-;-;-;-;-;-;-;-;-;-;-
1514191904023;-;-;8.84108;0.16419983;-2.831665;-;-;-;-;-;-;-;-;-;-;-;-;-;-;-
1514191904043;-;-;8.8003845;0.1558075;-2.8651733;-;-;-;-;-;-;-;-;-;-;-;-;-;-;-
1514191904063;-;-;8.813553;0.15940857;-2.8579865;-;-;-;-;-;-;-;-;-;-;-;-;-;-;-
1514191904084;-;-;8.8003845;0.08998108;-2.8328552;-;-;-;-;-;-;-;-;-;-;-;-;-;-;-
1514191904104;-;-;8.836288;0.03730774;-2.7753906;-;-;-;-;-;-;-;-;-;-;-;-;-;-;-
1514191904124;-;-;8.836288;-0.023742676;-2.728714;-;-;-;-;-;-;-;-;-;-;-;-;-;-;-
1514191904145;-;-;8.819534;-0.04170227;-2.7239227;-;-;-;-;-;-;-;-;-;-;-;-;-;-;-
1514191904165;-;-;8.795593;-0.028533936;-2.728714;-;-;-;-;-;-;-;-;-;-;-;-;-;-;-
1514191904185;-;-;8.795593;-0.035720825;-2.6903992;-;-;-;-;-;-;-;-;-;-;-;-;-;-;-
1514191904206;-;-;8.82312;-0.028533936;-2.728714;-;-;-;-;-;-;-;-;-;-;-;-;-;-;-
1514191904226;-;-;8.844666;-0.047698975;-2.7346954;-;-;-;-;-;-;-;-;-;-;-;-;-;-;-
1514191904246;-;-;8.814743;0.008575439;-2.7143402;-;-;-;-;-;-;-;-;-;-;-;-;-;-;-
1514191904267;-;-;8.80397;0.100753784;-2.8472137;-;-;-;-;-;-;-;-;-;-;-;-;-;-;-
1514191904287;-;-;8.8207245;0.11869812;-2.8627777;-;-;-;-;-;-;-;-;-;-;-;-;-;-;-
1514191904307;-;-;8.789597;0.064834595;-2.8256683;-;-;-;-;-;-;-;-;-;-;-;-;-;-;-
1514191904327;-;-;8.791992;0.07081604;-2.8376465;-;-;-;-;-;-;-;-;-;-;-;-;-;-;-
1514191904348;-;-;8.830307;0.06602478;-2.8340454;-;-;-;-;-;-;-;-;-;-;-;-;-;-;-
1514191904368;-;-;8.813553;0.095962524;-2.8113098;-;-;-;-;-;-;-;-;-;-;-;-;-;-;-
1514191904388;-;-;8.814743;0.105529785;-2.8089142;-;-;-;-;-;-;-;-;-;-;-;-;-;-;-
1514191904409;-;-;8.7764435;0.12348938;-2.8065186;-;-;-;-;-;-;-;-;-;-;-;-;-;-;-
1514191904429;-;-;8.782425;0.13067627;-2.8065186;-;-;-;-;-;-;-;-;-;-;-;-;-;-;-
1514191904449;-;-;8.775238;0.055252075;-2.816101;-;-;-;-;-;-;-;-;-;-;-;-;-;-;-
1514191904470;-;-;8.784821;0.014556885;-2.796936;-;-;-;-;-;-;-;-;-;-;-;-;-;-;-
1514191904490;-;-;8.82193;0.033706665;-2.8807373;-;-;-;-;-;-;-;-;-;-;-;-;-;-;-
1514191904510;-;-;8.859039;0.057647705;-2.875946;-;-;-;-;-;-;-;-;-;-;-;-;-;-;-
1514191904531;-;-;8.786011;0.050476074;-2.8484192;-;-;-;-;-;-;-;-;-;-;-;-;-;-;-
1514191904551;-;-;8.801575;-0.0045928955;-2.8352509;-;-;-;-;-;-;-;-;-;-;-;-;-;-;-
1514191904571;-;-;8.797989;0.0061798096;-2.8172913;-;-;-;-;-;-;-;-;-;-;-;-;-;-;-
1514191904592;-;-;8.788406;1.9836426E-4;-2.7849731;-;-;-;-;-;-;-;-;-;-;-;-;-;-;-
1514191904612;-;-;8.791992;0.0061798096;-2.820877;-;-;-;-;-;-;-;-;-;-;-;-;-;-;-
1514191904632;-;-;8.791992;0.10673523;-2.8496094;-;-;-;-;-;-;-;-;-;-;-;-;-;-;-
1514191904652;-;-;8.770447;0.093566895;-2.8711548;-;-;-;-;-;-;-;-;-;-;-;-;-;-;-
1514191904673;-;-;8.854248;0.0756073;-2.836441;-;-;-;-;-;-;-;-;-;-;-;-;-;-;-
1514191904692;-;-;8.868607;0.04208374;-2.831665;-;-;-;-;-;-;-;-;-;-;-;-;-;-;-
1514191904712;-;-;8.817139;0.0181427;-2.8232727;-;-;-;-;-;-;-;-;-;-;-;-;-;-;-
1514191904733;-;-;8.793198;0.09475708;-2.8615875;-;-;-;-;-;-;-;-;-;-;-;-;-;-;-
1514191904753;-;-;8.76207;0.093566895;-2.843628;-;-;-;-;-;-;-;-;-;-;-;-;-;-;-
1514191904774;-;-;8.768051;0.048080444;-2.8089142;-;-;-;-;-;-;-;-;-;-;-;-;-;-;-
1514191904794;-;-;8.813553;0.052871704;-2.7861633;-;-;-;-;-;-;-;-;-;-;-;-;-;-;-
1514191904814;-;-;8.819534;0.02772522;-2.7753906;-;-;-;-;-;-;-;-;-;-;-;-;-;-;-
1514191904834;-;-;8.806366;0.033706665;-2.764618;-;-;-;-;-;-;-;-;-;-;-;-;-;-;-
1514191904855;-;-;8.799179;0.045684814;-2.7873688;-;-;-;-;-;-;-;-;-;-;-;-;-;-;-
1514191904875;-;-;8.771652;0.05885315;-2.8113098;-;-;-;-;-;-;-;-;-;-;-;-;-;-;-
1514191904895;-;-;8.811157;0.086380005;-2.8089142;-;-;-;-;-;-;-;-;-;-;-;-;-;-;-
1514191904916;-;-;8.818329;0.11152649;-2.8017273;-;-;-;-;-;-;-;-;-;-;-;-;-;-;-
1514191904936;-;-;8.8003845;0.0756073;-2.800537;-;-;-;-;-;-;-;-;-;-;-;-;-;-;-
1514191904956;-;-;8.790802;0.079193115;-2.8352509;-;-;-;-;-;-;-;-;-;-;-;-;-;-;-
1514191904976;-;-;8.796783;0.09475708;-2.8412323;-;-;-;-;-;-;-;-;-;-;-;-;-;-;-
1514191904997;-;-;8.8207245;0.093566895;-2.8125;-;-;-;-;-;-;-;-;-;-;-;-;-;-;-
1514191905017;-;-;8.819534;0.08039856;-2.8268738;-;-;-;-;-;-;-;-;-;-;-;-;-;-;-
1514191905037;-;-;8.8051605;0.07800293;-2.8220825;-;-;-;-;-;-;-;-;-;-;-;-;-;-;-
1514191905058;-;-;8.770447;0.05885315;-2.7837677;-;-;-;-;-;-;-;-;-;-;-;-;-;-;-
1514191905078;-;-;8.830307;0.04208374;-2.772995;-;-;-;-;-;-;-;-;-;-;-;-;-;-;-
1514191905098;-;-;8.790802;0.031311035;-2.757431;-;-;-;-;-;-;-;-;-;-;-;-;-;-;-
1514191905119;-;-;8.819534;0.06124878;-2.7777863;-;-;-;-;-;-;-;-;-;-;-;-;-;-;-
1514191905139;-;-;8.819534;0.057647705;-2.7777863;-;-;-;-;-;-;-;-;-;-;-;-;-;-;-
1514191905159;-;-;8.845871;0.09715271;-2.804123;-;-;-;-;-;-;-;-;-;-;-;-;-;-;-
1514191905180;-;-;8.827911;0.067230225;-2.7742004;-;-;-;-;-;-;-;-;-;-;-;-;-;-;-
1514191905200;-;-;8.812347;0.079193115;-2.7418823;-;-;-;-;-;-;-;-;-;-;-;-;-;-;-
1514191905220;-;-;8.838684;0.06602478;-2.7430725;-;-;-;-;-;-;-;-;-;-;-;-;-;-;-
1514191905241;-;-;8.833893;0.09954834;-2.7358856;-;-;-;-;-;-;-;-;-;-;-;-;-;-;-
1514191905261;-;-;8.8207245;0.08039856;-2.7382813;-;-;-;-;-;-;-;-;-;-;-;-;-;-;-
1514191905281;-;-;8.783615;0.08518982;-2.7742004;-;-;-;-;-;-;-;-;-;-;-;-;-;-;-
1514191905301;-;-;8.826721;0.06842041;-2.71315;-;-;-;-;-;-;-;-;-;-;-;-;-;-;-
1514191905322;-;-;8.867416;0.045684814;-2.6784363;-;-;-;-;-;-;-;-;-;-;-;-;-;-;-
1514191905342;-;-;8.8602295;0.064834595;-2.6664581;-;-;-;-;-;-;-;-;-;-;-;-;-;-;-
1514191905362;-;-;8.801575;0.095962524;-2.7406769;-;-;-;-;-;-;-;-;-;-;-;-;-;-;-
1514191905382;-;-;8.801575;0.12109375;-2.7358856;-;-;-;-;-;-;-;-;-;-;-;-;-;-;-
1514191905403;-;-;8.819534;0.12588501;-2.7275085;-;-;-;-;-;-;-;-;-;-;-;-;-;-;-
1514191905422;-;-;8.829102;0.10913086;-2.7143402;-;-;-;-;-;-;-;-;-;-;-;-;-;-;-
1514191905442;-;-;8.851852;0.09954834;-2.7418823;-;-;-;-;-;-;-;-;-;-;-;-;-;-;-
1514191905463;-;-;8.84227;0.06602478;-2.6999817;-;-;-;-;-;-;-;-;-;-;-;-;-;-;-
1514191905483;-;-;8.812347;0.064834595;-2.721527;-;-;-;-;-;-;-;-;-;-;-;-;-;-;-
1514191905503;-;-;8.796783;0.10194397;-2.7227173;-;-;-;-;-;-;-;-;-;-;-;-;-;-;-
1514191905524;-;-;8.797989;0.112716675;-2.7035675;-;-;-;-;-;-;-;-;-;-;-;-;-;-;-
1514191905544;-;-;8.815933;0.14263916;-2.728714;-;-;-;-;-;-;-;-;-;-;-;-;-;-;-
1514191905563;-;-;8.843475;0.117507935;-2.7957458;-;-;-;-;-;-;-;-;-;-;-;-;-;-;-
1514191905583;-;-;8.843475;0.10194397;-2.7993317;-;-;-;-;-;-;-;-;-;-;-;-;-;-;-
1514191905604;-;-;8.867416;0.08279419;-2.7789917;-;-;-;-;-;-;-;-;-;-;-;-;-;-;-
1514191905623;-;-;8.865021;0.10673523;-2.6484985;-;-;-;-;-;-;-;-;-;-;-;-;-;-;-
1514191905643;-;-;8.814743;0.103149414;-2.6916046;-;-;-;-;-;-;-;-;-;-;-;-;-;-;-
1514191905664;-;-;8.7764435;0.14743042;-2.7059631;-;-;-;-;-;-;-;-;-;-;-;-;-;-;-
1514191905684;-;-;8.778824;0.14144897;-2.8137054;-;-;-;-;-;-;-;-;-;-;-;-;-;-;-
1514191905704;-;-;8.84227;0.08039856;-2.7622223;-;-;-;-;-;-;-;-;-;-;-;-;-;-;-
1514191905725;-;-;8.845871;0.052871704;-2.7143402;-;-;-;-;-;-;-;-;-;-;-;-;-;-;-
1514191905745;-;-;8.827911;0.038497925;-2.71315;-;-;-;-;-;-;-;-;-;-;-;-;-;-;-
1514191905765;-;-;8.817139;0.055252075;-2.7227173;-;-;-;-;-;-;-;-;-;-;-;-;-;-;-
1514191905785;-;-;8.796783;0.05166626;-2.7382813;-;-;-;-;-;-;-;-;-;-;-;-;-;-;-
1514191905806;-;-;8.807556;0.10673523;-2.7406769;-;-;-;-;-;-;-;-;-;-;-;-;-;-;-
1514191905826;-;-;8.819534;0.13067627;-2.7658234;-;-;-;-;-;-;-;-;-;-;-;-;-;-;-
1514191905846;-;-;8.826721;0.14144897;-2.7849731;-;-;-;-;-;-;-;-;-;-;-;-;-;-;-
1514191905866;-;-;8.854248;0.10913086;-2.7705994;-;-;-;-;-;-;-;-;-;-;-;-;-;-;-
1514191905887;-;-;8.833893;0.093566895;-2.7550507;-;-;-;-;-;-;-;-;-;-;-;-;-;-;-
1514191905907;-;-;8.819534;0.12828064;-2.737091;-;-;-;-;-;-;-;-;-;-;-;-;-;-;-
1514191905928;-;-;8.799179;0.105529785;-2.717926;-;-;-;-;-;-;-;-;-;-;-;-;-;-;-
1514191905948;-;-;8.787216;0.07081604;-2.7394867;-;-;-;-;-;-;-;-;-;-;-;-;-;-;-
1514191905968;-;-;8.8003845;0.11392212;-2.7837677;-;-;-;-;-;-;-;-;-;-;-;-;-;-;-
1514191905989;-;-;8.847061;0.09715271;-2.8065186;-;-;-;-;-;-;-;-;-;-;-;-;-;-;-
1514191906009;-;-;8.837494;0.07800293;-2.7753906;-;-;-;-;-;-;-;-;-;-;-;-;-;-;-
1514191906029;-;-;8.838684;0.04208374;-2.7478638;-;-;-;-;-;-;-;-;-;-;-;-;-;-;-
1514191906049;-;-;8.799179;0.09236145;-2.772995;-;-;-;-;-;-;-;-;-;-;-;-;-;-;-
1514191906069;-;-;8.7764435;0.124694824;-2.828064;-;-;-;-;-;-;-;-;-;-;-;-;-;-;-
1514191906090;-;-;8.801575;0.098358154;-2.8172913;-;-;-;-;-;-;-;-;-;-;-;-;-;-;-
1514191906110;-;-;8.788406;0.086380005;-2.780182;-;-;-;-;-;-;-;-;-;-;-;-;-;-;-
1514191906130;-;-;8.825516;0.08758545;-2.749054;-;-;-;-;-;-;-;-;-;-;-;-;-;-;-
1514191906151;-;-;8.84108;0.093566895;-2.7634277;-;-;-;-;-;-;-;-;-;-;-;-;-;-;-
1514191906171;-;-;8.783615;0.110321045;-2.7705994;-;-;-;-;-;-;-;-;-;-;-;-;-;-;-
1514191906191;-;-;8.769257;0.13067627;-2.8663788;-;-;-;-;-;-;-;-;-;-;-;-;-;-;-
1514191906211;-;-;8.809952;0.12348938;-2.8484192;-;-;-;-;-;-;-;-;-;-;-;-;-;-;-
1514191906232;-;-;8.833893;0.12109375;-2.8939056;-;-;-;-;-;-;-;-;-;-;-;-;-;-;-
1514191906252;-;-;8.8051605;0.06124878;-2.8532104;-;-;-;-;-;-;-;-;-;-;-;-;-;-;-
1514191906272;-;-;8.758484;0.07321167;-2.8232727;-;-;-;-;-;-;-;-;-;-;-;-;-;-;-
1514191906293;-;-;8.774048;0.110321045;-2.840042;-;-;-;-;-;-;-;-;-;-;-;-;-;-;-
1514191906313;-;-;8.764465;0.12948608;-2.9046783;-;-;-;-;-;-;-;-;-;-;-;-;-;-;-
1514191906333;-;-;8.764465;0.115112305;-2.8879242;-;-;-;-;-;-;-;-;-;-;-;-;-;-;-
1514191906354;-;-;8.813553;0.122299194;-2.8077087;-;-;-;-;-;-;-;-;-;-;-;-;-;-;-
1514191906374;-;-;8.76207;0.14025879;-2.800537;-;-;-;-;-;-;-;-;-;-;-;-;-;-;-
1514191906394;-;-;8.768051;0.117507935;-2.7933502;-;-;-;-;-;-;-;-;-;-;-;-;-;-;-
1514191906414;-;-;8.786011;0.09954834;-2.8340454;-;-;-;-;-;-;-;-;-;-;-;-;-;-;-
1514191906435;-;-;8.793198;0.09715271;-2.831665;-;-;-;-;-;-;-;-;-;-;-;-;-;-;-
1514191906455;-;-;8.84227;0.13665771;-2.89151;-;-;-;-;-;-;-;-;-;-;-;-;-;-;-
1514191906475;-;-;8.835098;0.1558075;-2.9358063;-;-;-;-;-;-;-;-;-;-;-;-;-;-;-
1514191906496;-;-;8.825516;0.13426208;-2.9238281;-;-;-;-;-;-;-;-;-;-;-;-;-;-;-
1514191906516;-;-;8.807556;0.16659546;-2.8544006;-;-;-;-;-;-;-;-;-;-;-;-;-;-;-
1514191906536;-;-;8.836288;0.14263916;-2.860382;-;-;-;-;-;-;-;-;-;-;-;-;-;-;-
1514191906556;-;-;8.815933;0.110321045;-2.8783417;-;-;-;-;-;-;-;-;-;-;-;-;-;-;-
1514191906577;-;-;8.8003845;0.093566895;-2.867569;-;-;-;-;-;-;-;-;-;-;-;-;-;-;-
1514191906597;-;-;8.815933;0.11869812;-2.7873688;-;-;-;-;-;-;-;-;-;-;-;-;-;-;-
1514191906617;-;-;8.797989;0.11392212;-2.852005;-;-;-;-;-;-;-;-;-;-;-;-;-;-;-
1514191906638;-;-;8.791992;0.110321045;-2.8053284;-;-;-;-;-;-;-;-;-;-;-;-;-;-;-
1514191906658;-;-;8.788406;0.14863586;-2.8232727;-;-;-;-;-;-;-;-;-;-;-;-;-;-;-
1514191906678;-;-;8.788406;0.1043396;-2.8292694;-;-;-;-;-;-;-;-;-;-;-;-;-;-;-
1514191906699;-;-;8.806366;0.07081604;-2.831665;-;-;-;-;-;-;-;-;-;-;-;-;-;-;-
1514191906718;-;-;8.83989;0.04208374;-2.831665;-;-;-;-;-;-;-;-;-;-;-;-;-;-;-
1514191906738;-;-;8.8003845;0.112716675;-2.8184967;-;-;-;-;-;-;-;-;-;-;-;-;-;-;-
1514191906758;-;-;8.795593;0.115112305;-2.796936;-;-;-;-;-;-;-;-;-;-;-;-;-;-;-
1514191906779;-;-;8.784821;0.14743042;-2.8472137;-;-;-;-;-;-;-;-;-;-;-;-;-;-;-
1514191906799;-;-;8.826721;0.110321045;-2.8460236;-;-;-;-;-;-;-;-;-;-;-;-;-;-;-
1514191906819;-;-;8.808762;0.1330719;-2.895111;-;-;-;-;-;-;-;-;-;-;-;-;-;-;-
1514191906840;-;-;8.830307;0.09236145;-2.804123;-;-;-;-;-;-;-;-;-;-;-;-;-;-;-
1514191906860;-;-;8.8003845;0.105529785;-2.764618;-;-;-;-;-;-;-;-;-;-;-;-;-;-;-
1514191906880;-;-;8.802765;0.112716675;-2.8340454;-;-;-;-;-;-;-;-;-;-;-;-;-;-;-
1514191906900;-;-;8.802765;0.16778564;-2.8412323;-;-;-;-;-;-;-;-;-;-;-;-;-;-;-
1514191906921;-;-;8.797989;0.16419983;-2.859192;-;-;-;-;-;-;-;-;-;-;-;-;-;-;-
1514191906940;-;-;8.819534;0.14863586;-2.859192;-;-;-;-;-;-;-;-;-;-;-;-;-;-;-
1514191906960;-;-;8.7608795;0.1558075;-2.8974915;-;-;-;-;-;-;-;-;-;-;-;-;-;-;-
1514191906981;-;-;8.770447;0.1558075;-2.9250336;-;-;-;-;-;-;-;-;-;-;-;-;-;-;-
1514191907001;-;-;8.794388;0.15820313;-2.8663788;-;-;-;-;-;-;-;-;-;-;-;-;-;-;-
1514191907021;-;-;8.835098;0.11631775;-2.840042;-;-;-;-;-;-;-;-;-;-;-;-;-;-;-
1514191907042;-;-;8.8207245;0.100753784;-2.8244781;-;-;-;-;-;-;-;-;-;-;-;-;-;-;-
1514191907062;-;-;8.8003845;0.124694824;-2.7191315;-;-;-;-;-;-;-;-;-;-;-;-;-;-;-
1514191907083;-;-;8.764465;0.1558075;-2.7418823;-;-;-;-;-;-;-;-;-;-;-;-;-;-;-
1514191907103;-;-;8.764465;0.13186646;-2.7694092;-;-;-;-;-;-;-;-;-;-;-;-;-;-;-
1514191907123;-;-;8.811157;0.1558075;-2.8352509;-;-;-;-;-;-;-;-;-;-;-;-;-;-;-
1514191907144;-;-;8.8602295;0.15461731;-2.8496094;-;-;-;-;-;-;-;-;-;-;-;-;-;-;-
1514191907164;-;-;8.859039;0.1438446;-2.843628;-;-;-;-;-;-;-;-;-;-;-;-;-;-;-
1514191907185;-;-;8.875793;0.119903564;-2.8089142;-;-;-;-;-;-;-;-;-;-;-;-;-;-;-
1514191907205;-;-;8.857834;0.112716675;-2.796936;-;-;-;-;-;-;-;-;-;-;-;-;-;-;-
1514191907225;-;-;8.789597;0.086380005;-2.8328552;-;-;-;-;-;-;-;-;-;-;-;-;-;-;-
1514191907245;-;-;8.82193;0.105529785;-2.7418823;-;-;-;-;-;-;-;-;-;-;-;-;-;-;-
1514191907266;-;-;8.770447;0.14025879;-2.7718048;-;-;-;-;-;-;-;-;-;-;-;-;-;-;-
1514191907286;-;-;8.752487;0.1558075;-2.7670135;-;-;-;-;-;-;-;-;-;-;-;-;-;-;-
1514191907306;-;-;8.802765;0.115112305;-2.7849731;-;-;-;-;-;-;-;-;-;-;-;-;-;-;-
1514191907326;-;-;8.794388;0.0756073;-2.7454681;-;-;-;-;-;-;-;-;-;-;-;-;-;-;-
1514191907346;-;-;8.82193;0.12348938;-2.768219;-;-;-;-;-;-;-;-;-;-;-;-;-;-;-
1514191907367;-;-;8.809952;0.14263916;-2.7658234;-;-;-;-;-;-;-;-;-;-;-;-;-;-;-
1514191907387;-;-;8.797989;0.16059875;-2.7742004;-;-;-;-;-;-;-;-;-;-;-;-;-;-;-
1514191907407;-;-;8.799179;0.17736816;-2.8340454;-;-;-;-;-;-;-;-;-;-;-;-;-;-;-
1514191907427;-;-;8.847061;0.1558075;-2.831665;-;-;-;-;-;-;-;-;-;-;-;-;-;-;-
1514191907448;-;-;8.888962;0.1510315;-2.7873688;-;-;-;-;-;-;-;-;-;-;-;-;-;-;-
1514191907468;-;-;8.818329;0.13786316;-2.7346954;-;-;-;-;-;-;-;-;-;-;-;-;-;-;-
1514191907488;-;-;8.795593;0.15222168;-2.7550507;-;-;-;-;-;-;-;-;-;-;-;-;-;-;-
1514191907509;-;-;8.824326;0.09715271;-2.7622223;-;-;-;-;-;-;-;-;-;-;-;-;-;-;-
1514191907529;-;-;8.819534;0.07081604;-2.7670135;-;-;-;-;-;-;-;-;-;-;-;-;-;-;-
1514191907549;-;-;8.812347;0.11869812;-2.7107544;-;-;-;-;-;-;-;-;-;-;-;-;-;-;-
1514191907570;-;-;8.787216;0.093566895;-2.728714;-;-;-;-;-;-;-;-;-;-;-;-;-;-;-
1514191907590;-;-;8.82193;0.06602478;-2.7299042;-;-;-;-;-;-;-;-;-;-;-;-;-;-;-
1514191907610;-;-;8.829102;0.08518982;-2.7466583;-;-;-;-;-;-;-;-;-;-;-;-;-;-;-
1514191907631;-;-;8.832703;0.1438446;-2.7909546;-;-;-;-;-;-;-;-;-;-;-;-;-;-;-
1514191907651;-;-;8.861435;0.08998108;-2.8268738;-;-;-;-;-;-;-;-;-;-;-;-;-;-;-
1514191907671;-;-;8.862625;0.115112305;-2.8101044;-;-;-;-;-;-;-;-;-;-;-;-;-;-;-
1514191907692;-;-;8.850662;0.0756073;-2.831665;-;-;-;-;-;-;-;-;-;-;-;-;-;-;-
1514191907712;-;-;8.7417145;0.0756073;-2.7299042;-;-;-;-;-;-;-;-;-;-;-;-;-;-;-
1514191907732;-;-;8.754883;0.052871704;-2.6951904;-;-;-;-;-;-;-;-;-;-;-;-;-;-;-
1514191907752;-;-;8.782425;0.026535034;-2.7586365;-;-;-;-;-;-;-;-;-;-;-;-;-;-;-
1514191907773;-;-;8.844666;0.08758545;-2.788559;-;-;-;-;-;-;-;-;-;-;-;-;-;-;-
1514191907793;-;-;8.838684;0.18095398;-2.859192;-;-;-;-;-;-;-;-;-;-;-;-;-;-;-
1514191907813;-;-;8.736938;0.24320984;-2.9992523;-;-;-;-;-;-;-;-;-;-;-;-;-;-;-
1514191907834;-;-;8.687851;0.16659546;-3.096222;-;-;-;-;-;-;-;-;-;-;-;-;-;-;-
1514191907854;-;-;8.607651;0.18334961;-3.1417084;-;-;-;-;-;-;-;-;-;-;-;-;-;-;-
1514191907874;-;-;8.521454;0.13426208;-3.2422638;-;-;-;-;-;-;-;-;-;-;-;-;-;-;-
1514191907894;-;-;8.4687805;0.045684814;-3.3212738;-;-;-;-;-;-;-;-;-;-;-;-;-;-;-
1514191907915;-;-;8.34668;-0.1302948;-3.2793732;-;-;-;-;-;-;-;-;-;-;-;-;-;-;-
1514191907935;-;-;8.313156;-0.22247314;-3.3116913;-;-;-;-;-;-;-;-;-;-;-;-;-;-;-
1514191907955;-;-;8.314362;0.08758545;-3.381134;-;-;-;-;-;-;-;-;-;-;-;-;-;-;-
1514191907976;-;-;8.469971;0.20010376;-3.2554321;-;-;-;-;-;-;-;-;-;-;-;-;-;-;-
1514191907996;-;-;8.526245;0.26475525;-3.310501;-;-;-;-;-;-;-;-;-;-;-;-;-;-;-
1514191908017;-;-;8.540604;0.2420044;-3.5128021;-;-;-;-;-;-;-;-;-;-;-;-;-;-;-
1514191908037;-;-;8.400543;0.26115417;-3.7234955;-;-;-;-;-;-;-;-;-;-;-;-;-;-;-
1514191908057;-;-;8.331116;0.15820313;-3.7833557;-;-;-;-;-;-;-;-;-;-;-;-;-;-;-
1514191908078;-;-;8.258087;0.074417114;-3.6528625;-;-;-;-;-;-;-;-;-;-;-;-;-;-;-
1514191908097;-;-;8.285629;0.02772522;-3.46492;-;-;-;-;-;-;-;-;-;-;-;-;-;-;-
1514191908117;-;-;8.44603;0.09715271;-3.38591;-;-;-;-;-;-;-;-;-;-;-;-;-;-;-
1514191908138;-;-;8.529831;0.30186462;-3.3009186;-;-;-;-;-;-;-;-;-;-;-;-;-;-;-
1514191908158;-;-;8.648346;0.23123169;-3.3954926;-;-;-;-;-;-;-;-;-;-;-;-;-;-;-
1514191908178;-;-;8.712982;0.031311035;-3.456543;-;-;-;-;-;-;-;-;-;-;-;-;-;-;-
1514191908198;-;-;8.690247;-0.016571045;-3.448166;-;-;-;-;-;-;-;-;-;-;-;-;-;-;-
1514191908219;-;-;8.560959;0.22164917;-3.5954132;-;-;-;-;-;-;-;-;-;-;-;-;-;-;-
1514191908240;-;-;8.5849;0.46228027;-3.598999;-;-;-;-;-;-;-;-;-;-;-;-;-;-;-
1514191908260;-;-;8.708206;0.47543335;-3.5463257;-;-;-;-;-;-;-;-;-;-;-;-;-;-;-
1514191908281;-;-;8.946426;0.42037964;-3.590622;-;-;-;-;-;-;-;-;-;-;-;-;-;-;-
1514191908301;-;-;9.109222;0.32699585;-3.4242249;-;-;-;-;-;-;-;-;-;-;-;-;-;-;-
1514191908321;-;-;9.263657;0.2192688;-3.2793732;-;-;-;-;-;-;-;-;-;-;-;-;-;-;-
1514191908341;-;-;8.97995;0.009765625;-3.1081848;-;-;-;-;-;-;-;-;-;-;-;-;-;-;-
1514191908362;-;-;8.637573;-0.289505;-3.0854492;-;-;-;-;-;-;-;-;-;-;-;-;-;-;-
1514191908382;-;-;8.414917;-0.6318817;-3.1608582;-;-;-;-;-;-;-;-;-;-;-;-;-;-;-
1514191908402;-;-;8.479553;-0.700119;-3.3128967;-;-;-;-;-;-;-;-;-;-;-;-;-;-;-
1514191908423;-;-;8.84108;-0.54089355;-3.5427399;-;-;-;-;-;-;-;-;-;-;-;-;-;-;-
1514191908443;-;-;9.012268;-0.09916687;-3.496048;-;-;-;-;-;-;-;-;-;-;-;-;-;-;-
1514191908463;-;-;9.134369;0.28630066;-3.4529572;-;-;-;-;-;-;-;-;-;-;-;-;-;-;-
1514191908483;-;-;9.257675;0.49578857;-3.8611603;-;-;-;-;-;-;-;-;-;-;-;-;-;-;-
1514191908504;-;-;9.222961;0.6166992;-3.990448;-;-;-;-;-;-;-;-;-;-;-;-;-;-;-
1514191908524;-;-;9.00029;0.41677856;-4.061081;-;-;-;-;-;-;-;-;-;-;-;-;-;-;-
1514191908544;-;-;8.897339;-0.33499146;-4.1855774;-;-;-;-;-;-;-;-;-;-;-;-;-;-;-
1514191908565;-;-;8.941635;0.013366699;-4.0311584;-;-;-;-;-;-;-;-;-;-;-;-;-;-;-
1514191908584;-;-;8.450821;0.50177;-3.5403442;-;-;-;-;-;-;-;-;-;-;-;-;-;-;-
1514191908604;-;-;7.971985;0.30784607;-3.638504;-;-;-;-;-;-;-;-;-;-;-;-;-;-;-
1514191908626;-;-;7.6822815;0.34016418;-3.36557;-;-;-;-;-;-;-;-;-;-;-;-;-;-;-
1514191908646;-;-;7.477585;0.5460663;-2.9741058;-;-;-;-;-;-;-;-;-;-;-;-;-;-;-
1514191908667;-;-;7.135208;0.55085754;-2.7143402;-;-;-;-;-;-;-;-;-;-;-;-;-;-;-
1514191908687;-;-;7.6032715;0.14743042;-2.8472137;-;-;-;-;-;-;-;-;-;-;-;-;-;-;-
1514191908707;-;-;8.930862;-0.3182373;-3.3595734;-;-;-;-;-;-;-;-;-;-;-;-;-;-;-
1514191908727;-;-;9.912491;-0.66778564;-3.3511963;-;-;-;-;-;-;-;-;-;-;-;-;-;-;-
1514191908748;-;-;10.420059;-0.40083313;-3.2243042;-;-;-;-;-;-;-;-;-;-;-;-;-;-;-
1514191908768;-;-;10.247665;-0.4271698;-3.1213531;-;-;-;-;-;-;-;-;-;-;-;-;-;-;-
1514191908788;-;-;9.977127;-0.77911377;-3.5307617;-;-;-;-;-;-;-;-;-;-;-;-;-;-;-
1514191908809;-;-;9.716156;-0.5744171;-4.1269226;-;-;-;-;-;-;-;-;-;-;-;-;-;-;-
1514191908829;-;-;9.131973;-0.3074646;-3.3763428;-;-;-;-;-;-;-;-;-;-;-;-;-;-;-
1514191908849;-;-;8.065353;0.18814087;-2.9765015;-;-;-;-;-;-;-;-;-;-;-;-;-;-;-
1514191908870;-;-;7.4368744;0.17376709;-2.6532898;-;-;-;-;-;-;-;-;-;-;-;-;-;-;-
1514191908889;-;-;7.3889923;-0.15065002;-2.5838623;-;-;-;-;-;-;-;-;-;-;-;-;-;-;-
1514191908909;-;-;7.805588;-0.6618042;-3.2027588;-;-;-;-;-;-;-;-;-;-;-;-;-;-;-
1514191908930;-;-;8.417313;-0.7695465;-4.132904;-;-;-;-;-;-;-;-;-;-;-;-;-;-;-
1514191908950;-;-;9.141556;-0.5600586;-4.6632233;-;-;-;-;-;-;-;-;-;-;-;-;-;-;-
1514191908971;-;-;9.819107;-0.502594;-4.9840393;-;-;-;-;-;-;-;-;-;-;-;-;-;-;-
1514191908991;-;-;10.143524;-0.7372284;-4.9636993;-;-;-;-;-;-;-;-;-;-;-;-;-;-;-
1514191909011;-;-;10.248871;-0.9586792;-4.2143097;-;-;-;-;-;-;-;-;-;-;-;-;-;-;-
1514191909031;-;-;10.208176;-0.76116943;-5.219879;-;-;-;-;-;-;-;-;-;-;-;-;-;-;-
1514191909052;-;-;9.202606;-0.30986023;-4.9792633;-;-;-;-;-;-;-;-;-;-;-;-;-;-;-
1514191909072;-;-;8.153946;-0.4044342;-3.8743286;-;-;-;-;-;-;-;-;-;-;-;-;-;-;-
1514191909092;-;-;7.1244354;-0.7096863;-3.4745026;-;-;-;-;-;-;-;-;-;-;-;-;-;-;-
1514191909113;-;-;6.703064;-0.933548;-3.180008;-;-;-;-;-;-;-;-;-;-;-;-;-;-;-
1514191909133;-;-;5.818405;-0.38287354;-2.9369965;-;-;-;-;-;-;-;-;-;-;-;-;-;-;-
1514191909153;-;-;5.0450745;0.23123169;-2.931015;-;-;-;-;-;-;-;-;-;-;-;-;-;-;-
1514191909173;-;-;4.7374115;0.74598694;-3.0076294;-;-;-;-;-;-;-;-;-;-;-;-;-;-;-
1514191909194;-;-;5.5442657;1.3732605;-2.6113892;-;-;-;-;-;-;-;-;-;-;-;-;-;-;-
1514191909214;-;-;6.466034;1.4917755;-2.8065186;-;-;-;-;-;-;-;-;-;-;-;-;-;-;-
1514191909234;-;-;7.636795;1.1506042;-3.2063446;-;-;-;-;-;-;-;-;-;-;-;-;-;-;-
1514191909255;-;-;8.587296;0.29109192;-3.2889557;-;-;-;-;-;-;-;-;-;-;-;-;-;-;-
1514191909275;-;-;10.494278;-1.2807007;-4.3555603;-;-;-;-;-;-;-;-;-;-;-;-;-;-;-
1514191909296;-;-;13.753983;-4.0268555;-5.4509125;-;-;-;-;-;-;-;-;-;-;-;-;-;-;-
1514191909316;-;-;13.50618;-3.7012482;-4.6536407;-;-;-;-;-;-;-;-;-;-;-;-;-;-;-
1514191909336;-;-;9.722153;-0.1817627;-4.5447083;-;-;-;-;-;-;-;-;-;-;-;-;-;-;-
1514191909357;-;-;8.661514;1.0368805;-3.7031403;-;-;-;-;-;-;-;-;-;-;-;-;-;-;-
1514191909377;-;-;6.735382;1.3864288;-2.1265717;-;-;-;-;-;-;-;-;-;-;-;-;-;-;-
1514191909397;-;-;5.6544037;0.27671814;-1.4909058;-;-;-;-;-;-;-;-;-;-;-;-;-;-;-
1514191909418;-;-;6.70665;-1.3046417;-1.9924927;-;-;-;-;-;-;-;-;-;-;-;-;-;-;-
1514191909438;-;-;8.353867;-1.764328;-3.3835144;-;-;-;-;-;-;-;-;-;-;-;-;-;-;-
1514191909458;-;-;9.826294;-0.89523315;-3.8934937;-;-;-;-;-;-;-;-;-;-;-;-;-;-;-
1514191909479;-;-;10.259644;-0.24281311;-3.6684265;-;-;-;-;-;-;-;-;-;-;-;-;-;-;-
1514191909499;-;-;10.12677;-0.06086731;-3.9401703;-;-;-;-;-;-;-;-;-;-;-;-;-;-;-
1514191909519;-;-;9.598846;0.13905334;-3.4314117;-;-;-;-;-;-;-;-;-;-;-;-;-;-;-
1514191909539;-;-;9.100845;0.40600586;-2.922638;-;-;-;-;-;-;-;-;-;-;-;-;-;-;-
1514191909560;-;-;8.406525;0.41558838;-2.6209717;-;-;-;-;-;-;-;-;-;-;-;-;-;-;-
1514191909580;-;-;7.971985;-0.028533936;-2.6269531;-;-;-;-;-;-;-;-;-;-;-;-;-;-;-
1514191909600;-;-;8.551376;-0.3433838;-2.7263184;-;-;-;-;-;-;-;-;-;-;-;-;-;-;-
1514191909621;-;-;8.924881;-0.3864746;-2.9034882;-;-;-;-;-;-;-;-;-;-;-;-;-;-;-
1514191909641;-;-;8.806366;-0.41160583;-2.6868134;-;-;-;-;-;-;-;-;-;-;-;-;-;-;-
1514191909661;-;-;8.827911;-0.26914978;-2.728714;-;-;-;-;-;-;-;-;-;-;-;-;-;-;-
1514191909681;-;-;8.888962;-0.05128479;-2.725113;-;-;-;-;-;-;-;-;-;-;-;-;-;-;-
1514191909702;-;-;8.918884;-0.1302948;-2.8627777;-;-;-;-;-;-;-;-;-;-;-;-;-;-;-
1514191909722;-;-;8.897339;-0.24880981;-2.931015;-;-;-;-;-;-;-;-;-;-;-;-;-;-;-
1514191909742;-;-;8.66391;-0.34217834;-3.0423431;-;-;-;-;-;-;-;-;-;-;-;-;-;-;-
1514191909763;-;-;8.550186;-0.32901;-3.1500854;-;-;-;-;-;-;-;-;-;-;-;-;-;-;-
1514191909783;-;-;8.587296;-0.17459106;-3.144104;-;-;-;-;-;-;-;-;-;-;-;-;-;-;-
1514191909803;-;-;8.619614;0.040893555;-3.180008;-;-;-;-;-;-;-;-;-;-;-;-;-;-;-
1514191909824;-;-;8.626801;0.16539001;-3.3296509;-;-;-;-;-;-;-;-;-;-;-;-;-;-;-
1514191909844;-;-;8.693832;0.009765625;-3.3799286;-;-;-;-;-;-;-;-;-;-;-;-;-;-;-
1514191909864;-;-;8.734543;-0.28112793;-3.2721863;-;-;-;-;-;-;-;-;-;-;-;-;-;-;-
1514191909884;-;-;8.814743;-0.53730774;-3.0794525;-;-;-;-;-;-;-;-;-;-;-;-;-;-;-
1514191909905;-;-;8.696228;-0.5923767;-3.0064392;-;-;-;-;-;-;-;-;-;-;-;-;-;-;-
1514191909925;-;-;8.595673;-0.56843567;-3.0842438;-;-;-;-;-;-;-;-;-;-;-;-;-;-;-
1514191909945;-;-;8.680664;-0.4846344;-3.0866394;-;-;-;-;-;-;-;-;-;-;-;-;-;-;-
1514191909965;-;-;8.684265;-0.3194275;-3.1345215;-;-;-;-;-;-;-;-;-;-;-;-;-;-;-
1514191909986;-;-;8.795593;-0.13867188;-3.1668396;-;-;-;-;-;-;-;-;-;-;-;-;-;-;-
1514191910006;-;-;8.802765;0.045684814;-3.2566223;-;-;-;-;-;-;-;-;-;-;-;-;-;-;-
1514191910026;-;-;8.872208;0.036102295;-3.2003632;-;-;-;-;-;-;-;-;-;-;-;-;-;-;-
1514191910046;-;-;8.562149;-0.00579834;-3.1333313;-;-;-;-;-;-;-;-;-;-;-;-;-;-;-
1514191910067;-;-;8.611237;0.0061798096;-3.112976;-;-;-;-;-;-;-;-;-;-;-;-;-;-;-
1514191910087;-;-;8.503494;0.040893555;-3.0746765;-;-;-;-;-;-;-;-;-;-;-;-;-;-;-
1514191910107;-;-;8.552582;0.088775635;-3.033966;-;-;-;-;-;-;-;-;-;-;-;-;-;-;-
1514191910128;-;-;8.692642;0.019348145;-3.116562;-;-;-;-;-;-;-;-;-;-;-;-;-;-;-
1514191910148;-;-;8.844666;0.060043335;-3.1464996;-;-;-;-;-;-;-;-;-;-;-;-;-;-;-
1514191910168;-;-;8.8207245;0.03970337;-3.2063446;-;-;-;-;-;-;-;-;-;-;-;-;-;-;-
1514191910188;-;-;8.772842;-0.03691101;-3.214737;-;-;-;-;-;-;-;-;-;-;-;-;-;-;-
1514191910209;-;-;8.750107;-0.12789917;-3.1476898;-;-;-;-;-;-;-;-;-;-;-;-;-;-;-
1514191910228;-;-;8.641159;-0.29908752;-2.9369965;-;-;-;-;-;-;-;-;-;-;-;-;-;-;-
1514191910248;-;-;8.553772;-0.33859253;-2.819687;-;-;-;-;-;-;-;-;-;-;-;-;-;-;-
1514191910269;-;-;8.763275;-0.48582458;-2.875946;-;-;-;-;-;-;-;-;-;-;-;-;-;-;-
1514191910289;-;-;8.786011;-0.42837524;-2.9741058;-;-;-;-;-;-;-;-;-;-;-;-;-;-;-
1514191910309;-;-;8.777634;-0.42837524;-3.0279846;-;-;-;-;-;-;-;-;-;-;-;-;-;-;-
1514191910330;-;-;8.796783;-0.3757019;-3.0662842;-;-;-;-;-;-;-;-;-;-;-;-;-;-;-
1514191910349;-;-;8.80397;-0.30387878;-2.9848938;-;-;-;-;-;-;-;-;-;-;-;-;-;-;-
1514191910369;-;-;8.764465;-0.3074646;-2.9920654;-;-;-;-;-;-;-;-;-;-;-;-;-;-;-
1514191910390;-;-;8.936844;-0.36611938;-2.907074;-;-;-;-;-;-;-;-;-;-;-;-;-;-;-
1514191910410;-;-;8.728546;-0.35653687;-2.875946;-;-;-;-;-;-;-;-;-;-;-;-;-;-;-
1514191910430;-;-;8.791992;-0.32182312;-2.9693298;-;-;-;-;-;-;-;-;-;-;-;-;-;-;-
1514191910450;-;-;8.825516;-0.34936523;-3.0459442;-;-;-;-;-;-;-;-;-;-;-;-;-;-;-
1514191910471;-;-;8.794388;-0.3182373;-2.9836884;-;-;-;-;-;-;-;-;-;-;-;-;-;-;-
1514191910491;-;-;8.759674;-0.29309082;-2.9932709;-;-;-;-;-;-;-;-;-;-;-;-;-;-;-
1514191910511;-;-;8.7608795;-0.27394104;-2.9980621;-;-;-;-;-;-;-;-;-;-;-;-;-;-;-
1514191910531;-;-;8.783615;-0.2392273;-2.9573517;-;-;-;-;-;-;-;-;-;-;-;-;-;-;-
1514191910552;-;-;8.783615;-0.2679596;-2.9334106;-;-;-;-;-;-;-;-;-;-;-;-;-;-;-
1514191910572;-;-;8.7764435;-0.2272644;-2.9645386;-;-;-;-;-;-;-;-;-;-;-;-;-;-;-
1514191910592;-;-;8.751297;-0.20451355;-3.010025;-;-;-;-;-;-;-;-;-;-;-;-;-;-;-
1514191910612;-;-;8.758484;-0.1925354;-2.9956665;-;-;-;-;-;-;-;-;-;-;-;-;-;-;-
1514191910633;-;-;8.8003845;-0.10635376;-3.0196075;-;-;-;-;-;-;-;-;-;-;-;-;-;-;-
1514191910653;-;-;8.797989;-0.066848755;-3.0543213;-;-;-;-;-;-;-;-;-;-;-;-;-;-;-
1514191910673;-;-;8.774048;-0.05368042;-2.994461;-;-;-;-;-;-;-;-;-;-;-;-;-;-;-
1514191910694;-;-;8.748901;-0.064453125;-2.9908752;-;-;-;-;-;-;-;-;-;-;-;-;-;-;-
1514191910714;-;-;8.705811;-0.042907715;-2.9980621;-;-;-;-;-;-;-;-;-;-;-;-;-;-;-
1514191910734;-;-;8.709396;-0.062057495;-3.0603027;-;-;-;-;-;-;-;-;-;-;-;-;-;-;-
1514191910755;-;-;8.768051;-0.057266235;-3.0052338;-;-;-;-;-;-;-;-;-;-;-;-;-;-;-
1514191910775;-;-;8.772842;-0.09197998;-3.0351715;-;-;-;-;-;-;-;-;-;-;-;-;-;-;-
1514191910795;-;-;8.790802;-0.14225769;-3.096222;-;-;-;-;-;-;-;-;-;-;-;-;-;-;-
1514191910816;-;-;8.7812195;-0.12071228;-3.0279846;-;-;-;-;-;-;-;-;-;-;-;-;-;-;-
1514191910836;-;-;8.7417145;-0.08001709;-3.0231934;-;-;-;-;-;-;-;-;-;-;-;-;-;-;-
1514191910856;-;-;8.7417145;-0.09916687;-3.0064392;-;-;-;-;-;-;-;-;-;-;-;-;-;-;-
1514191910877;-;-;8.7261505;-0.112335205;-3.0136108;-;-;-;-;-;-;-;-;-;-;-;-;-;-;-
1514191910897;-;-;8.7608795;-0.13867188;-3.0315704;-;-;-;-;-;-;-;-;-;-;-;-;-;-;-
1514191910917;-;-;8.764465;-0.1482544;-3.0507202;-;-;-;-;-;-;-;-;-;-;-;-;-;-;-
1514191910938;-;-;8.734543;-0.18536377;-3.0519257;-;-;-;-;-;-;-;-;-;-;-;-;-;-;-
1514191910958;-;-;8.699814;-0.17098999;-2.9836884;-;-;-;-;-;-;-;-;-;-;-;-;-;-;-
1514191910978;-;-;8.702209;-0.17817688;-2.97052;-;-;-;-;-;-;-;-;-;-;-;-;-;-;-
1514191910999;-;-;8.722565;-0.14346313;-3.001648;-;-;-;-;-;-;-;-;-;-;-;-;-;-;-
1514191911019;-;-;8.714188;-0.088394165;-2.9741058;-;-;-;-;-;-;-;-;-;-;-;-;-;-;-
1514191911039;-;-;8.756088;-0.030929565;-2.9920654;-;-;-;-;-;-;-;-;-;-;-;-;-;-;-
1514191911059;-;-;8.797989;-0.021362305;-3.0698853;-;-;-;-;-;-;-;-;-;-;-;-;-;-;-
1514191911080;-;-;8.819534;-0.100372314;-3.0351715;-;-;-;-;-;-;-;-;-;-;-;-;-;-;-
1514191911100;-;-;8.72496;-0.16740417;-3.0626984;-;-;-;-;-;-;-;-;-;-;-;-;-;-;-
1514191911120;-;-;8.671097;-0.2033081;-2.9896698;-;-;-;-;-;-;-;-;-;-;-;-;-;-;-
1514191911141;-;-;8.685455;-0.18655396;-2.9657288;-;-;-;-;-;-;-;-;-;-;-;-;-;-;-
1514191911160;-;-;8.7261505;-0.21289063;-2.9609375;-;-;-;-;-;-;-;-;-;-;-;-;-;-;-
1514191911180;-;-;8.794388;-0.18536377;-3.0387573;-;-;-;-;-;-;-;-;-;-;-;-;-;-;-
1514191911201;-;-;8.815933;-0.20451355;-3.080658;-;-;-;-;-;-;-;-;-;-;-;-;-;-;-
1514191911220;-;-;8.789597;-0.22964478;-3.0710754;-;-;-;-;-;-;-;-;-;-;-;-;-;-;-
1514191911240;-;-;8.739319;-0.119522095;-3.1081848;-;-;-;-;-;-;-;-;-;-;-;-;-;-;-
1514191911261;-;-;8.699814;-0.12550354;-3.1249542;-;-;-;-;-;-;-;-;-;-;-;-;-;-;-
1514191911281;-;-;8.689041;-0.15663147;-2.9992523;-;-;-;-;-;-;-;-;-;-;-;-;-;-;-
1514191911301;-;-;8.715378;-0.12669373;-3.017212;-;-;-;-;-;-;-;-;-;-;-;-;-;-;-
1514191911321;-;-;8.698624;-0.11831665;-3.0710754;-;-;-;-;-;-;-;-;-;-;-;-;-;-;-
1514191911342;-;-;8.705811;-0.12071228;-3.0914307;-;-;-;-;-;-;-;-;-;-;-;-;-;-;-
1514191911362;-;-;8.715378;-0.11352539;-3.1704407;-;-;-;-;-;-;-;-;-;-;-;-;-;-;-
1514191911382;-;-;8.729752;-0.08720398;-3.1668396;-;-;-;-;-;-;-;-;-;-;-;-;-;-;-
1514191911403;-;-;8.732147;-0.093185425;-3.1704407;-;-;-;-;-;-;-;-;-;-;-;-;-;-;-
1514191911423;-;-;8.679474;-0.050079346;-3.1608582;-;-;-;-;-;-;-;-;-;-;-;-;-;-;-
1514191911443;-;-;8.651932;-0.06086731;-3.1452942;-;-;-;-;-;-;-;-;-;-;-;-;-;-;-
1514191911464;-;-;8.672287;-0.026138306;-3.0423431;-;-;-;-;-;-;-;-;-;-;-;-;-;-;-
1514191911484;-;-;8.689041;-0.07522583;-2.9801025;-;-;-;-;-;-;-;-;-;-;-;-;-;-;-
1514191911504;-;-;8.703415;-0.00819397;-3.0387573;-;-;-;-;-;-;-;-;-;-;-;-;-;-;-
1514191911525;-;-;8.715378;-0.08241272;-3.057907;-;-;-;-;-;-;-;-;-;-;-;-;-;-;-
1514191911545;-;-;8.757278;-0.09197998;-3.0842438;-;-;-;-;-;-;-;-;-;-;-;-;-;-;-
1514191911565;-;-;8.775238;-0.13269043;-3.0902252;-;-;-;-;-;-;-;-;-;-;-;-;-;-;-
1514191911586;-;-;8.74411;-0.107543945;-3.116562;-;-;-;-;-;-;-;-;-;-;-;-;-;-;-
1514191911606;-;-;8.715378;-0.078811646;-3.112976;-;-;-;-;-;-;-;-;-;-;-;-;-;-;-
1514191911626;-;-;8.696228;-0.12908936;-3.1153717;-;-;-;-;-;-;-;-;-;-;-;-;-;-;-
1514191911646;-;-;8.710602;-0.08001709;-3.1033936;-;-;-;-;-;-;-;-;-;-;-;-;-;-;-
1514191911667;-;-;8.704605;-0.093185425;-3.136917;-;-;-;-;-;-;-;-;-;-;-;-;-;-;-
1514191911686;-;-;8.756088;-0.13627625;-3.1536713;-;-;-;-;-;-;-;-;-;-;-;-;-;-;-
1514191911706;-;-;8.722565;-0.09437561;-3.1943817;-;-;-;-;-;-;-;-;-;-;-;-;-;-;-
1514191911727;-;-;8.712982;-0.10635376;-3.175232;-;-;-;-;-;-;-;-;-;-;-;-;-;-;-
1514191911746;-;-;8.678268;-0.15065002;-3.2243042;-;-;-;-;-;-;-;-;-;-;-;-;-;-;-
1514191911766;-;-;8.697433;-0.16500854;-3.2015686;-;-;-;-;-;-;-;-;-;-;-;-;-;-;-
1514191911787;-;-;8.679474;-0.17219543;-3.1644592;-;-;-;-;-;-;-;-;-;-;-;-;-;-;-
1514191911807;-;-;8.693832;-0.14465332;-3.120163;-;-;-;-;-;-;-;-;-;-;-;-;-;-;-
1514191911827;-;-;8.669891;-0.1482544;-3.0471344;-;-;-;-;-;-;-;-;-;-;-;-;-;-;-
1514191911848;-;-;8.623199;-0.13269043;-3.0423431;-;-;-;-;-;-;-;-;-;-;-;-;-;-;-
1514191911868;-;-;8.625595;-0.117126465;-3.0758667;-;-;-;-;-;-;-;-;-;-;-;-;-;-;-
1514191911888;-;-;8.656723;-0.09677124;-3.1428986;-;-;-;-;-;-;-;-;-;-;-;-;-;-;-
1514191911909;-;-;8.730942;-0.09197998;-3.1931763;-;-;-;-;-;-;-;-;-;-;-;-;-;-;-
1514191911929;-;-;8.707001;-0.083602905;-3.2063446;-;-;-;-;-;-;-;-;-;-;-;-;-;-;-
