TimeStamp[ms];Prox[Cm];Lux[lux];AccX[m/s^2];AccY[m/s^2];AccZ[m/s^2];GyroX[rad/s];GyroY[rad/s];GyroZ[rad/s];MagnX[uT];MagnY[uT];MagnZ[uT];OrienYaw[degrees];OrienPitch[degrees];OrienRoll[degrees];Press[Pa];Temp[C°];Batt[%];Lat;Lng;Speed[m/s]
1514191574992;-;-;7.3650513;-1.2040863;4.9854126;-;-;-;-;-;-;-;-;-;-;-;-;-;-;-
1514191575017;-;-;7.473984;-1.1107178;4.7830963;-;-;-;-;-;-;-;-;-;-;-;-;-;-;-
1514191575029;-;-;7.4716034;-1.0963593;4.7316284;-;-;-;-;-;-;-;-;-;-;-;-;-;-;-
1514191575049;-;-;7.36026;-1.0652313;4.385666;-;-;-;-;-;-;-;-;-;-;-;-;-;-;-
1514191575069;-;-;7.530258;-0.81503296;4.2444;-;-;-;-;-;-;-;-;-;-;-;-;-;-;-
1514191575090;-;-;8.217392;-0.37330627;3.7631683;-;-;-;-;-;-;-;-;-;-;-;-;-;-;-
1514191575110;-;-;9.452805;0.122299194;3.875702;-;-;-;-;-;-;-;-;-;-;-;-;-;-;-
1514191575130;-;-;7.374634;-0.40682983;2.864151;-;-;-;-;-;-;-;-;-;-;-;-;-;-;-
1514191575151;-;-;5.260544;-0.78630066;1.0110321;-;-;-;-;-;-;-;-;-;-;-;-;-;-;-
1514191575171;-;-;5.1731567;-0.7312317;0.8661804;-;-;-;-;-;-;-;-;-;-;-;-;-;-;-
1514191575191;-;-;5.6579895;-0.5313263;0.923645;-;-;-;-;-;-;-;-;-;-;-;-;-;-;-
1514191575211;-;-;5.947693;-0.58758545;0.47354126;-;-;-;-;-;-;-;-;-;-;-;-;-;-;-
1514191575232;-;-;6.170349;-1.155014;-0.13697815;-;-;-;-;-;-;-;-;-;-;-;-;-;-;-
1514191575252;-;-;5.9704285;-2.3233795;-2.3468323;-;-;-;-;-;-;-;-;-;-;-;-;-;-;-
1514191575272;-;-;13.828201;-2.4861908;-2.2091675;-;-;-;-;-;-;-;-;-;-;-;-;-;-;-
1514191575292;-;-;26.366638;0.12948608;5.4079895;-;-;-;-;-;-;-;-;-;-;-;-;-;-;-
1514191575313;-;-;11.243668;-1.3621063;-2.954956;-;-;-;-;-;-;-;-;-;-;-;-;-;-;-
1514191575333;-;-;7.0729675;-2.7232056;-2.5216064;-;-;-;-;-;-;-;-;-;-;-;-;-;-;-
1514191575353;-;-;8.48793;-2.2180328;-0.8755951;-;-;-;-;-;-;-;-;-;-;-;-;-;-;-
1514191575374;-;-;10.573288;-1.779892;-1.322113;-;-;-;-;-;-;-;-;-;-;-;-;-;-;-
1514191575394;-;-;8.9392395;-2.0516357;-1.2490845;-;-;-;-;-;-;-;-;-;-;-;-;-;-;-
1514191575414;-;-;8.616028;-2.0061493;-1.9637604;-;-;-;-;-;-;-;-;-;-;-;-;-;-;-
1514191575435;-;-;9.074509;-1.8457336;-1.416687;-;-;-;-;-;-;-;-;-;-;-;-;-;-;-
1514191575455;-;-;9.39653;-1.6278687;-1.2909851;-;-;-;-;-;-;-;-;-;-;-;-;-;-;-
1514191575475;-;-;9.650314;-1.7906647;-1.526825;-;-;-;-;-;-;-;-;-;-;-;-;-;-;-
1514191575496;-;-;9.795166;-2.1809235;-1.1305847;-;-;-;-;-;-;-;-;-;-;-;-;-;-;-
1514191575515;-;-;8.972763;-2.309021;-1.4765472;-;-;-;-;-;-;-;-;-;-;-;-;-;-;-
1514191575535;-;-;8.643555;-2.293457;-1.574707;-;-;-;-;-;-;-;-;-;-;-;-;-;-;-
1514191575556;-;-;8.793198;-1.9846039;-2.3133087;-;-;-;-;-;-;-;-;-;-;-;-;-;-;-
1514191575575;-;-;9.457581;-1.8612976;-0.9809418;-;-;-;-;-;-;-;-;-;-;-;-;-;-;-
1514191575595;-;-;9.67186;-1.3010559;-2.4461975;-;-;-;-;-;-;-;-;-;-;-;-;-;-;-
1514191575616;-;-;8.942825;-0.8641205;-1.6154022;-;-;-;-;-;-;-;-;-;-;-;-;-;-;-
1514191575635;-;-;9.530609;-0.8856659;-1.7398987;-;-;-;-;-;-;-;-;-;-;-;-;-;-;-
1514191575655;-;-;8.727356;-0.45948792;-0.77622986;-;-;-;-;-;-;-;-;-;-;-;-;-;-;-
1514191575676;-;-;9.65271;-0.10635376;-0.7989807;-;-;-;-;-;-;-;-;-;-;-;-;-;-;-
1514191575695;-;-;9.141556;0.5736084;-2.0272064;-;-;-;-;-;-;-;-;-;-;-;-;-;-;-
1514191575715;-;-;8.003113;0.9494934;-1.9314423;-;-;-;-;-;-;-;-;-;-;-;-;-;-;-
1514191575735;-;-;9.734116;1.2930603;-0.8540497;-;-;-;-;-;-;-;-;-;-;-;-;-;-;-
1514191575756;-;-;9.4492035;1.9538574;-0.4673767;-;-;-;-;-;-;-;-;-;-;-;-;-;-;-
1514191575776;-;-;9.29837;1.7946472;-0.9055176;-;-;-;-;-;-;-;-;-;-;-;-;-;-;-
1514191575796;-;-;10.908478;1.4558716;-1.3340912;-;-;-;-;-;-;-;-;-;-;-;-;-;-;-
1514191575817;-;-;10.246475;2.090332;-2.7275085;-;-;-;-;-;-;-;-;-;-;-;-;-;-;-
1514191575837;-;-;9.644333;2.0951233;-2.1864166;-;-;-;-;-;-;-;-;-;-;-;-;-;-;-
1514191575857;-;-;9.062546;2.363266;-1.1616974;-;-;-;-;-;-;-;-;-;-;-;-;-;-;-
1514191575878;-;-;9.437241;2.3453064;-0.82173157;-;-;-;-;-;-;-;-;-;-;-;-;-;-;-
1514191575898;-;-;9.930435;2.825348;1.2492523;-;-;-;-;-;-;-;-;-;-;-;-;-;-;-
1514191575918;-;-;11.143097;2.4805908;-4.7865295;-;-;-;-;-;-;-;-;-;-;-;-;-;-;-
1514191575938;-;-;9.610809;-0.57681274;-1.0814972;-;-;-;-;-;-;-;-;-;-;-;-;-;-;-
1514191575959;-;-;5.411392;-0.23085022;-1.6848297;-;-;-;-;-;-;-;-;-;-;-;-;-;-;-
1514191575979;-;-;4.3495636;0.86450195;-0.451828;-;-;-;-;-;-;-;-;-;-;-;-;-;-;-
1514191575999;-;-;7.3506927;0.8213959;-0.3045807;-;-;-;-;-;-;-;-;-;-;-;-;-;-;-
1514191576020;-;-;8.918884;-0.3433838;-0.20281982;-;-;-;-;-;-;-;-;-;-;-;-;-;-;-
1514191576040;-;-;7.222595;-0.84017944;-0.23275757;-;-;-;-;-;-;-;-;-;-;-;-;-;-;-
1514191576060;-;-;7.4452667;-0.76594543;-0.5320282;-;-;-;-;-;-;-;-;-;-;-;-;-;-;-
1514191576080;-;-;7.493149;-0.90242004;-3.8312378;-;-;-;-;-;-;-;-;-;-;-;-;-;-;-
1514191576101;-;-;9.67067;-0.45350647;-4.8775024;-;-;-;-;-;-;-;-;-;-;-;-;-;-;-
1514191576121;-;-;11.475891;-1.4686584;-3.8216553;-;-;-;-;-;-;-;-;-;-;-;-;-;-;-
1514191576141;-;-;11.2951355;-2.1797333;-3.2290955;-;-;-;-;-;-;-;-;-;-;-;-;-;-;-
1514191576163;-;-;8.973953;-2.0420685;-4.307678;-;-;-;-;-;-;-;-;-;-;-;-;-;-;-
1514191576183;-;-;8.447235;-1.6158905;-2.3791504;-;-;-;-;-;-;-;-;-;-;-;-;-;-;-
1514191576203;-;-;9.160706;0.1330719;-1.9098969;-;-;-;-;-;-;-;-;-;-;-;-;-;-;-
1514191576224;-;-;9.195419;-2.8919983;0.63993835;-;-;-;-;-;-;-;-;-;-;-;-;-;-;-
1514191576243;-;-;10.497864;-2.9781952;-2.4785156;-;-;-;-;-;-;-;-;-;-;-;-;-;-;-
1514191576264;-;-;12.901642;-1.3860474;-2.820877;-;-;-;-;-;-;-;-;-;-;-;-;-;-;-
1514191576284;-;-;6.505539;-1.3860474;-2.5730896;-;-;-;-;-;-;-;-;-;-;-;-;-;-;-
1514191576305;-;-;9.480331;-0.55885315;-2.5874481;-;-;-;-;-;-;-;-;-;-;-;-;-;-;-
1514191576325;-;-;7.4332886;-1.131073;-2.0260162;-;-;-;-;-;-;-;-;-;-;-;-;-;-;-
1514191576345;-;-;7.7852325;-2.2048645;-2.922638;-;-;-;-;-;-;-;-;-;-;-;-;-;-;-
1514191576365;-;-;8.374207;-2.3221893;-3.152481;-;-;-;-;-;-;-;-;-;-;-;-;-;-;-
1514191576386;-;-;7.684677;-2.0660095;-3.7869415;-;-;-;-;-;-;-;-;-;-;-;-;-;-;-
1514191576406;-;-;7.9073334;-1.6087189;-3.2506409;-;-;-;-;-;-;-;-;-;-;-;-;-;-;-
1514191576426;-;-;8.381393;-1.7056732;-4.523163;-;-;-;-;-;-;-;-;-;-;-;-;-;-;-
1514191576447;-;-;8.876999;-2.04805;-5.51915;-;-;-;-;-;-;-;-;-;-;-;-;-;-;-
1514191576467;-;-;9.698196;-2.8441162;-4.013199;-;-;-;-;-;-;-;-;-;-;-;-;-;-;-
1514191576488;-;-;12.55928;-3.3409119;-3.370346;-;-;-;-;-;-;-;-;-;-;-;-;-;-;-
1514191576509;-;-;6.841919;-1.1322632;-4.809265;-;-;-;-;-;-;-;-;-;-;-;-;-;-;-
1514191576529;-;-;6.633621;-0.5205536;-2.6880035;-;-;-;-;-;-;-;-;-;-;-;-;-;-;-
1514191576549;-;-;8.710602;-0.39006042;-3.6720276;-;-;-;-;-;-;-;-;-;-;-;-;-;-;-
1514191576569;-;-;9.981918;1.0763855;-3.9892578;-;-;-;-;-;-;-;-;-;-;-;-;-;-;-
1514191576590;-;-;8.952408;-0.035720825;-2.6365356;-;-;-;-;-;-;-;-;-;-;-;-;-;-;-
1514191576611;-;-;7.3231506;-2.2371826;-2.527588;-;-;-;-;-;-;-;-;-;-;-;-;-;-;-
1514191576631;-;-;6.8443146;-3.2247925;-3.1776276;-;-;-;-;-;-;-;-;-;-;-;-;-;-;-
1514191576651;-;-;8.853058;-3.3265533;-3.950943;-;-;-;-;-;-;-;-;-;-;-;-;-;-;-
1514191576671;-;-;8.872208;-2.1976929;-3.745041;-;-;-;-;-;-;-;-;-;-;-;-;-;-;-
1514191576692;-;-;8.730942;-1.107132;-3.6744232;-;-;-;-;-;-;-;-;-;-;-;-;-;-;-
1514191576712;-;-;8.783615;-0.5444946;-3.5654755;-;-;-;-;-;-;-;-;-;-;-;-;-;-;-
1514191576732;-;-;8.880585;-0.6079407;-3.1620636;-;-;-;-;-;-;-;-;-;-;-;-;-;-;-
1514191576752;-;-;8.940445;-0.95988464;-3.1608582;-;-;-;-;-;-;-;-;-;-;-;-;-;-;-
1514191576773;-;-;9.027832;-1.0580444;-3.432602;-;-;-;-;-;-;-;-;-;-;-;-;-;-;-
1514191576793;-;-;9.1523285;-1.0532532;-3.5762482;-;-;-;-;-;-;-;-;-;-;-;-;-;-;-
1514191576813;-;-;9.0182495;-0.6929321;-3.456543;-;-;-;-;-;-;-;-;-;-;-;-;-;-;-
1514191576833;-;-;8.416107;-0.36611938;-3.254242;-;-;-;-;-;-;-;-;-;-;-;-;-;-;-
1514191576853;-;-;7.7445374;-0.6977234;-3.1033936;-;-;-;-;-;-;-;-;-;-;-;-;-;-;-
1514191576874;-;-;8.085709;-1.3285828;-2.9046783;-;-;-;-;-;-;-;-;-;-;-;-;-;-;-
1514191576894;-;-;8.704605;-1.8337708;-3.0243835;-;-;-;-;-;-;-;-;-;-;-;-;-;-;-
1514191576914;-;-;9.035004;-1.874466;-3.191986;-;-;-;-;-;-;-;-;-;-;-;-;-;-;-
1514191576935;-;-;8.993118;-1.4566803;-3.2554321;-;-;-;-;-;-;-;-;-;-;-;-;-;-;-
1514191576955;-;-;8.758484;-1.1095276;-3.073471;-;-;-;-;-;-;-;-;-;-;-;-;-;-;-
1514191576975;-;-;8.590881;-1.1346588;-2.934616;-;-;-;-;-;-;-;-;-;-;-;-;-;-;-
1514191576996;-;-;8.5849;-1.2723236;-3.0686798;-;-;-;-;-;-;-;-;-;-;-;-;-;-;-
1514191577016;-;-;8.789597;-1.1203003;-3.322464;-;-;-;-;-;-;-;-;-;-;-;-;-;-;-
1514191577036;-;-;8.92128;-0.86172485;-3.4361877;-;-;-;-;-;-;-;-;-;-;-;-;-;-;-
1514191577056;-;-;8.837494;-0.82940674;-3.3164825;-;-;-;-;-;-;-;-;-;-;-;-;-;-;-
1514191577077;-;-;8.594482;-0.8976288;-3.199173;-;-;-;-;-;-;-;-;-;-;-;-;-;-;-
1514191577097;-;-;8.475967;-1.1693726;-3.1452942;-;-;-;-;-;-;-;-;-;-;-;-;-;-;-
1514191577117;-;-;8.493927;-1.4423218;-3.1728363;-;-;-;-;-;-;-;-;-;-;-;-;-;-;-
1514191577138;-;-;8.612427;-1.5021667;-3.199173;-;-;-;-;-;-;-;-;-;-;-;-;-;-;-
1514191577158;-;-;8.710602;-1.3704834;-3.2219086;-;-;-;-;-;-;-;-;-;-;-;-;-;-;-
1514191577178;-;-;8.661514;-1.2866974;-3.2638092;-;-;-;-;-;-;-;-;-;-;-;-;-;-;-
1514191577199;-;-;8.545395;-1.2914734;-3.3069;-;-;-;-;-;-;-;-;-;-;-;-;-;-;-
1514191577218;-;-;8.452026;-1.364502;-3.3476105;-;-;-;-;-;-;-;-;-;-;-;-;-;-;-
1514191577238;-;-;8.458008;-1.3597107;-3.3092957;-;-;-;-;-;-;-;-;-;-;-;-;-;-;-
1514191577258;-;-;8.4843445;-1.3633118;-3.2290955;-;-;-;-;-;-;-;-;-;-;-;-;-;-;-
1514191577279;-;-;8.564545;-1.3525391;-3.2482452;-;-;-;-;-;-;-;-;-;-;-;-;-;-;-
1514191577299;-;-;8.629196;-1.3405609;-3.3045197;-;-;-;-;-;-;-;-;-;-;-;-;-;-;-
1514191577320;-;-;8.702209;-1.3297882;-3.314087;-;-;-;-;-;-;-;-;-;-;-;-;-;-;-
1514191577340;-;-;8.735733;-1.3513336;-3.3081055;-;-;-;-;-;-;-;-;-;-;-;-;-;-;-
1514191577360;-;-;8.7213745;-1.4087982;-3.2111359;-;-;-;-;-;-;-;-;-;-;-;-;-;-;-
1514191577380;-;-;8.661514;-1.4722443;-3.254242;-;-;-;-;-;-;-;-;-;-;-;-;-;-;-
1514191577401;-;-;8.668701;-1.5093536;-3.1740265;-;-;-;-;-;-;-;-;-;-;-;-;-;-;-
1514191577421;-;-;8.699814;-1.5273132;-3.1632538;-;-;-;-;-;-;-;-;-;-;-;-;-;-;-
1514191577441;-;-;8.673492;-1.4494934;-3.1321259;-;-;-;-;-;-;-;-;-;-;-;-;-;-;-
1514191577462;-;-;8.696228;-1.3657074;-3.0207977;-;-;-;-;-;-;-;-;-;-;-;-;-;-;-
1514191577482;-;-;8.687851;-1.3597107;-3.0471344;-;-;-;-;-;-;-;-;-;-;-;-;-;-;-
1514191577502;-;-;8.769257;-1.3609161;-2.9681244;-;-;-;-;-;-;-;-;-;-;-;-;-;-;-
1514191577523;-;-;8.831497;-1.3573151;-2.9034882;-;-;-;-;-;-;-;-;-;-;-;-;-;-;-
1514191577543;-;-;8.848267;-1.3106384;-2.9106598;-;-;-;-;-;-;-;-;-;-;-;-;-;-;-
1514191577563;-;-;8.753693;-1.3537292;-2.9429932;-;-;-;-;-;-;-;-;-;-;-;-;-;-;-
1514191577583;-;-;8.696228;-1.4243622;-2.977707;-;-;-;-;-;-;-;-;-;-;-;-;-;-;-
1514191577604;-;-;8.692642;-1.3597107;-2.9501648;-;-;-;-;-;-;-;-;-;-;-;-;-;-;-
1514191577624;-;-;8.710602;-1.269928;-2.836441;-;-;-;-;-;-;-;-;-;-;-;-;-;-;-
1514191577645;-;-;8.710602;-1.269928;-2.7358856;-;-;-;-;-;-;-;-;-;-;-;-;-;-;-
1514191577665;-;-;8.884171;-1.3944244;-2.709549;-;-;-;-;-;-;-;-;-;-;-;-;-;-;-
1514191577685;-;-;8.963181;-1.5285034;-2.7059631;-;-;-;-;-;-;-;-;-;-;-;-;-;-;-
1514191577705;-;-;8.909317;-1.5991364;-2.7861633;-;-;-;-;-;-;-;-;-;-;-;-;-;-;-
1514191577726;-;-;8.801575;-1.4782257;-2.8699646;-;-;-;-;-;-;-;-;-;-;-;-;-;-;-
1514191577746;-;-;8.611237;-1.289093;-2.9214478;-;-;-;-;-;-;-;-;-;-;-;-;-;-;-
1514191577766;-;-;8.544205;-1.0987396;-3.0196075;-;-;-;-;-;-;-;-;-;-;-;-;-;-;-
1514191577787;-;-;8.590881;-0.9910126;-3.0746765;-;-;-;-;-;-;-;-;-;-;-;-;-;-;-
1514191577807;-;-;8.701019;-1.0029755;-3.1022034;-;-;-;-;-;-;-;-;-;-;-;-;-;-;-
1514191577827;-;-;8.787216;-1.1166992;-3.1057892;-;-;-;-;-;-;-;-;-;-;-;-;-;-;-
1514191577848;-;-;8.794388;-1.2160645;-3.0591125;-;-;-;-;-;-;-;-;-;-;-;-;-;-;-
1514191577868;-;-;8.720169;-1.2040863;-2.986084;-;-;-;-;-;-;-;-;-;-;-;-;-;-;-
1514191577888;-;-;8.667496;-1.2579651;-2.986084;-;-;-;-;-;-;-;-;-;-;-;-;-;-;-
1514191577908;-;-;8.627991;-1.3285828;-2.9765015;-;-;-;-;-;-;-;-;-;-;-;-;-;-;-
1514191577929;-;-;8.626801;-1.3788757;-2.9513702;-;-;-;-;-;-;-;-;-;-;-;-;-;-;-
1514191577949;-;-;8.618423;-1.4135895;-2.9501648;-;-;-;-;-;-;-;-;-;-;-;-;-;-;-
1514191577970;-;-;8.695038;-1.3968201;-3.0267792;-;-;-;-;-;-;-;-;-;-;-;-;-;-;-
1514191577990;-;-;8.6423645;-1.3585205;-3.0279846;-;-;-;-;-;-;-;-;-;-;-;-;-;-;-
1514191578010;-;-;8.575317;-1.3190155;-3.0794525;-;-;-;-;-;-;-;-;-;-;-;-;-;-;-
1514191578030;-;-;8.631592;-1.2591553;-3.1608582;-;-;-;-;-;-;-;-;-;-;-;-;-;-;-
1514191578051;-;-;8.693832;-1.254364;-3.1716309;-;-;-;-;-;-;-;-;-;-;-;-;-;-;-
1514191578071;-;-;8.734543;-1.2028961;-3.1943817;-;-;-;-;-;-;-;-;-;-;-;-;-;-;-
1514191578091;-;-;8.693832;-1.2483826;-3.1907806;-;-;-;-;-;-;-;-;-;-;-;-;-;-;-
1514191578112;-;-;8.648346;-1.2986603;-3.1608582;-;-;-;-;-;-;-;-;-;-;-;-;-;-;-
1514191578132;-;-;8.617218;-1.3429565;-3.0674896;-;-;-;-;-;-;-;-;-;-;-;-;-;-;-
1514191578152;-;-;8.632782;-1.4147797;-3.025589;-;-;-;-;-;-;-;-;-;-;-;-;-;-;-
1514191578172;-;-;8.660324;-1.4399261;-3.0088348;-;-;-;-;-;-;-;-;-;-;-;-;-;-;-
1514191578193;-;-;8.692642;-1.5141449;-3.0950165;-;-;-;-;-;-;-;-;-;-;-;-;-;-;-
1514191578213;-;-;8.788406;-1.5644226;-3.1189575;-;-;-;-;-;-;-;-;-;-;-;-;-;-;-
1514191578233;-;-;8.607651;-1.570404;-2.9824982;-;-;-;-;-;-;-;-;-;-;-;-;-;-;-
1514191578254;-;-;8.5047;-1.8397522;-2.8053284;-;-;-;-;-;-;-;-;-;-;-;-;-;-;-
1514191578274;-;-;8.474762;-1.961853;-2.7227173;-;-;-;-;-;-;-;-;-;-;-;-;-;-;-
1514191578294;-;-;8.596878;-1.843338;-2.8579865;-;-;-;-;-;-;-;-;-;-;-;-;-;-;-
1514191578315;-;-;8.807556;-1.4554901;-3.0926208;-;-;-;-;-;-;-;-;-;-;-;-;-;-;-
1514191578335;-;-;9.06134;-1.2878876;-3.1213531;-;-;-;-;-;-;-;-;-;-;-;-;-;-;-
1514191578355;-;-;9.104446;-1.313034;-3.0914307;-;-;-;-;-;-;-;-;-;-;-;-;-;-;-
1514191578376;-;-;8.969162;-1.3010559;-2.9214478;-;-;-;-;-;-;-;-;-;-;-;-;-;-;-
1514191578396;-;-;8.751297;-1.273529;-2.9525604;-;-;-;-;-;-;-;-;-;-;-;-;-;-;-
1514191578416;-;-;8.629196;-1.3585205;-3.041153;-;-;-;-;-;-;-;-;-;-;-;-;-;-;-
1514191578437;-;-;8.56575;-1.3836517;-2.9765015;-;-;-;-;-;-;-;-;-;-;-;-;-;-;-
1514191578457;-;-;8.576523;-1.4542847;-2.9489746;-;-;-;-;-;-;-;-;-;-;-;-;-;-;-
1514191578477;-;-;8.610046;-1.5500488;-2.9298248;-;-;-;-;-;-;-;-;-;-;-;-;-;-;-
1514191578497;-;-;8.695038;-1.696106;-2.9848938;-;-;-;-;-;-;-;-;-;-;-;-;-;-;-
1514191578518;-;-;8.74411;-1.7272186;-3.0267792;-;-;-;-;-;-;-;-;-;-;-;-;-;-;-
1514191578538;-;-;8.667496;-1.7655334;-2.9836884;-;-;-;-;-;-;-;-;-;-;-;-;-;-;-
1514191578558;-;-;8.5238495;-1.9498901;-3.0459442;-;-;-;-;-;-;-;-;-;-;-;-;-;-;-
1514191578579;-;-;8.624405;-1.9259491;-2.9884796;-;-;-;-;-;-;-;-;-;-;-;-;-;-;-
1514191578599;-;-;8.734543;-1.6529999;-2.9801025;-;-;-;-;-;-;-;-;-;-;-;-;-;-;-
1514191578620;-;-;8.774048;-1.4327393;-3.0064392;-;-;-;-;-;-;-;-;-;-;-;-;-;-;-
1514191578640;-;-;8.807556;-1.2807007;-3.3045197;-;-;-;-;-;-;-;-;-;-;-;-;-;-;-
1514191578660;-;-;8.871002;-1.2376099;-3.3763428;-;-;-;-;-;-;-;-;-;-;-;-;-;-;-
1514191578680;-;-;8.835098;-1.1382446;-3.3667603;-;-;-;-;-;-;-;-;-;-;-;-;-;-;-
1514191578701;-;-;8.695038;-1.0472717;-3.317688;-;-;-;-;-;-;-;-;-;-;-;-;-;-;-
1514191578721;-;-;8.48793;-0.98861694;-3.36557;-;-;-;-;-;-;-;-;-;-;-;-;-;-;-
1514191578741;-;-;8.167114;-0.9910126;-3.4984436;-;-;-;-;-;-;-;-;-;-;-;-;-;-;-
1514191578762;-;-;7.928894;-0.8772888;-3.8288422;-;-;-;-;-;-;-;-;-;-;-;-;-;-;-
1514191578782;-;-;7.9396667;-0.5672302;-4.4465485;-;-;-;-;-;-;-;-;-;-;-;-;-;-;-
1514191578802;-;-;8.180283;-0.27514648;-4.895462;-;-;-;-;-;-;-;-;-;-;-;-;-;-;-
1514191578822;-;-;8.046204;-0.16619873;-4.3986664;-;-;-;-;-;-;-;-;-;-;-;-;-;-;-
1514191578843;-;-;7.2872467;-0.22007751;-3.5259705;-;-;-;-;-;-;-;-;-;-;-;-;-;-;-
1514191578863;-;-;6.640808;-0.3972473;-3.0148163;-;-;-;-;-;-;-;-;-;-;-;-;-;-;-
1514191578883;-;-;7.1004944;-0.56843567;-2.3719635;-;-;-;-;-;-;-;-;-;-;-;-;-;-;-
1514191578904;-;-;8.867416;-0.92996216;-2.5299835;-;-;-;-;-;-;-;-;-;-;-;-;-;-;-
1514191578924;-;-;11.03537;-1.3920441;-2.7634277;-;-;-;-;-;-;-;-;-;-;-;-;-;-;-
1514191578945;-;-;11.92601;-1.8864441;-3.28656;-;-;-;-;-;-;-;-;-;-;-;-;-;-;-
1514191578965;-;-;12.321045;-1.7942657;-3.6313171;-;-;-;-;-;-;-;-;-;-;-;-;-;-;-
1514191578985;-;-;10.842636;-0.97065735;-3.2638092;-;-;-;-;-;-;-;-;-;-;-;-;-;-;-
1514191579005;-;-;9.175064;-0.01776123;-3.2135315;-;-;-;-;-;-;-;-;-;-;-;-;-;-;-
1514191579025;-;-;7.4368744;0.85731506;-3.0447388;-;-;-;-;-;-;-;-;-;-;-;-;-;-;-
1514191579047;-;-;6.584549;1.1529999;-2.4473877;-;-;-;-;-;-;-;-;-;-;-;-;-;-;-
1514191579066;-;-;6.6432037;0.6741638;-1.693222;-;-;-;-;-;-;-;-;-;-;-;-;-;-;-
1514191579086;-;-;7.4332886;-0.11114502;-1.6549072;-;-;-;-;-;-;-;-;-;-;-;-;-;-;-
1514191579107;-;-;8.656723;-0.5456848;-2.2582397;-;-;-;-;-;-;-;-;-;-;-;-;-;-;-
1514191579126;-;-;9.45639;-0.63905334;-2.895111;-;-;-;-;-;-;-;-;-;-;-;-;-;-;-
1514191579146;-;-;9.461182;-0.71806335;-3.1860046;-;-;-;-;-;-;-;-;-;-;-;-;-;-;-
1514191579167;-;-;8.831497;-0.80784607;-3.2015686;-;-;-;-;-;-;-;-;-;-;-;-;-;-;-
1514191579187;-;-;8.320343;-0.54689026;-3.666031;-;-;-;-;-;-;-;-;-;-;-;-;-;-;-
1514191579207;-;-;8.455612;0.39523315;-4.4501343;-;-;-;-;-;-;-;-;-;-;-;-;-;-;-
1514191579227;-;-;8.685455;1.248764;-5.2186737;-;-;-;-;-;-;-;-;-;-;-;-;-;-;-
1514191579248;-;-;9.233734;1.5648041;-5.362335;-;-;-;-;-;-;-;-;-;-;-;-;-;-;-
1514191579268;-;-;9.700592;0.34854126;-5.1396637;-;-;-;-;-;-;-;-;-;-;-;-;-;-;-
1514191579289;-;-;9.719757;-1.2064819;-3.7462463;-;-;-;-;-;-;-;-;-;-;-;-;-;-;-
1514191579309;-;-;7.921707;-1.7320099;-2.8855286;-;-;-;-;-;-;-;-;-;-;-;-;-;-;-
1514191579329;-;-;7.1399994;-1.5356903;-3.104599;-;-;-;-;-;-;-;-;-;-;-;-;-;-;-
1514191579349;-;-;6.6575623;-1.0173492;-2.9645386;-;-;-;-;-;-;-;-;-;-;-;-;-;-;-
1514191579370;-;-;6.959244;-0.70610046;-2.7742004;-;-;-;-;-;-;-;-;-;-;-;-;-;-;-
1514191579390;-;-;8.358643;-0.7444;-2.9609375;-;-;-;-;-;-;-;-;-;-;-;-;-;-;-
1514191579410;-;-;8.535812;-0.3589325;-2.986084;-;-;-;-;-;-;-;-;-;-;-;-;-;-;-
1514191579430;-;-;9.008667;-0.0069885254;-3.3595734;-;-;-;-;-;-;-;-;-;-;-;-;-;-;-
1514191579451;-;-;9.883759;-0.0045928955;-3.666031;-;-;-;-;-;-;-;-;-;-;-;-;-;-;-
1514191579471;-;-;10.357803;-0.3972473;-3.448166;-;-;-;-;-;-;-;-;-;-;-;-;-;-;-
1514191579491;-;-;10.115997;-1.131073;-2.6245575;-;-;-;-;-;-;-;-;-;-;-;-;-;-;-
1514191579512;-;-;9.55336;-1.7942657;-1.9601746;-;-;-;-;-;-;-;-;-;-;-;-;-;-;-
1514191579532;-;-;8.8602295;-2.2647247;-1.863205;-;-;-;-;-;-;-;-;-;-;-;-;-;-;-
1514191579552;-;-;8.289215;-2.2096558;-2.0942383;-;-;-;-;-;-;-;-;-;-;-;-;-;-;-
1514191579572;-;-;7.734955;-1.6625824;-2.642517;-;-;-;-;-;-;-;-;-;-;-;-;-;-;-
1514191579593;-;-;7.7445374;-1.0041809;-3.065094;-;-;-;-;-;-;-;-;-;-;-;-;-;-;-
1514191579613;-;-;7.909729;-0.4547119;-3.2733917;-;-;-;-;-;-;-;-;-;-;-;-;-;-;-
1514191579633;-;-;8.971558;-0.37330627;-3.270996;-;-;-;-;-;-;-;-;-;-;-;-;-;-;-
1514191579654;-;-;9.602432;-0.4559021;-3.338028;-;-;-;-;-;-;-;-;-;-;-;-;-;-;-
1514191579673;-;-;9.576096;-0.40322876;-3.140503;-;-;-;-;-;-;-;-;-;-;-;-;-;-;-
1514191579693;-;-;9.208588;-0.31225586;-3.0758667;-;-;-;-;-;-;-;-;-;-;-;-;-;-;-
1514191579713;-;-;8.715378;-0.20809937;-2.8879242;-;-;-;-;-;-;-;-;-;-;-;-;-;-;-
1514191579734;-;-;8.4843445;-0.31704712;-2.7191315;-;-;-;-;-;-;-;-;-;-;-;-;-;-;-
1514191579754;-;-;8.44603;-0.5636444;-2.682022;-;-;-;-;-;-;-;-;-;-;-;-;-;-;-
1514191579774;-;-;8.7812195;-0.9191742;-2.7083588;-;-;-;-;-;-;-;-;-;-;-;-;-;-;-
1514191579795;-;-;8.92128;-1.052063;-2.9812927;-;-;-;-;-;-;-;-;-;-;-;-;-;-;-
1514191579814;-;-;8.944031;-0.8198242;-3.0794525;-;-;-;-;-;-;-;-;-;-;-;-;-;-;-
1514191579834;-;-;8.830307;-0.463089;-3.080658;-;-;-;-;-;-;-;-;-;-;-;-;-;-;-
1514191579854;-;-;8.734543;-0.102752686;-2.9262238;-;-;-;-;-;-;-;-;-;-;-;-;-;-;-
1514191579875;-;-;8.64476;-0.107543945;-2.9920654;-;-;-;-;-;-;-;-;-;-;-;-;-;-;-
1514191579895;-;-;8.085709;0.05406189;-3.472107;-;-;-;-;-;-;-;-;-;-;-;-;-;-;-
1514191579915;-;-;7.6810913;0.6562042;-4.0754395;-;-;-;-;-;-;-;-;-;-;-;-;-;-;-
1514191579935;-;-;7.803192;1.1123047;-3.998825;-;-;-;-;-;-;-;-;-;-;-;-;-;-;-
1514191579956;-;-;8.954803;0.9925842;-3.1452942;-;-;-;-;-;-;-;-;-;-;-;-;-;-;-
1514191579976;-;-;9.656311;0.299469;-2.6520996;-;-;-;-;-;-;-;-;-;-;-;-;-;-;-
1514191579996;-;-;9.77243;-1.0185394;-2.7191315;-;-;-;-;-;-;-;-;-;-;-;-;-;-;-
1514191580017;-;-;9.501877;-1.9869995;-2.5659027;-;-;-;-;-;-;-;-;-;-;-;-;-;-;-
1514191580037;-;-;9.153519;-2.2180328;-2.3935242;-;-;-;-;-;-;-;-;-;-;-;-;-;-;-
1514191580058;-;-;8.648346;-1.5608215;-2.2750092;-;-;-;-;-;-;-;-;-;-;-;-;-;-;-
1514191580078;-;-;8.515472;-0.8677063;-2.3157043;-;-;-;-;-;-;-;-;-;-;-;-;-;-;-
1514191580098;-;-;8.560959;-0.55766296;-2.5922394;-;-;-;-;-;-;-;-;-;-;-;-;-;-;-
1514191580118;-;-;8.638763;-0.6522217;-2.7406769;-;-;-;-;-;-;-;-;-;-;-;-;-;-;-
1514191580139;-;-;8.7417145;-0.933548;-2.8232727;-;-;-;-;-;-;-;-;-;-;-;-;-;-;-
1514191580159;-;-;8.909317;-1.155014;-2.752655;-;-;-;-;-;-;-;-;-;-;-;-;-;-;-
1514191580180;-;-;8.843475;-1.1825409;-2.682022;-;-;-;-;-;-;-;-;-;-;-;-;-;-;-
1514191580200;-;-;8.685455;-1.020935;-2.665268;-;-;-;-;-;-;-;-;-;-;-;-;-;-;-
1514191580220;-;-;8.729752;-0.8892517;-2.670044;-;-;-;-;-;-;-;-;-;-;-;-;-;-;-
1514191580240;-;-;8.778824;-0.9790344;-2.8532104;-;-;-;-;-;-;-;-;-;-;-;-;-;-;-
1514191580261;-;-;8.881775;-0.8162384;-2.9812927;-;-;-;-;-;-;-;-;-;-;-;-;-;-;-
1514191580280;-;-;8.96199;-0.56243896;-3.077057;-;-;-;-;-;-;-;-;-;-;-;-;-;-;-
1514191580300;-;-;8.954803;-0.40802002;-3.097412;-;-;-;-;-;-;-;-;-;-;-;-;-;-;-
1514191580321;-;-;8.7764435;-0.2571869;-3.1033936;-;-;-;-;-;-;-;-;-;-;-;-;-;-;-
1514191580341;-;-;8.6028595;-0.13508606;-3.0064392;-;-;-;-;-;-;-;-;-;-;-;-;-;-;-
1514191580361;-;-;8.610046;-0.17338562;-3.0303802;-;-;-;-;-;-;-;-;-;-;-;-;-;-;-
1514191580382;-;-;8.768051;-0.4056244;-3.001648;-;-;-;-;-;-;-;-;-;-;-;-;-;-;-
1514191580402;-;-;8.789597;-0.5157623;-2.9992523;-;-;-;-;-;-;-;-;-;-;-;-;-;-;-
1514191580422;-;-;8.923676;-0.42477417;-2.9477692;-;-;-;-;-;-;-;-;-;-;-;-;-;-;-
1514191580442;-;-;8.843475;-0.38049316;-3.0603027;-;-;-;-;-;-;-;-;-;-;-;-;-;-;-
1514191580463;-;-;8.766861;-0.41281128;-3.0363617;-;-;-;-;-;-;-;-;-;-;-;-;-;-;-
1514191580483;-;-;8.691437;-0.4918213;-3.1213531;-;-;-;-;-;-;-;-;-;-;-;-;-;-;-
1514191580503;-;-;8.74411;-0.49899292;-3.0902252;-;-;-;-;-;-;-;-;-;-;-;-;-;-;-
1514191580524;-;-;8.819534;-0.5169525;-3.017212;-;-;-;-;-;-;-;-;-;-;-;-;-;-;-
1514191580544;-;-;8.769257;-0.5744171;-3.0291748;-;-;-;-;-;-;-;-;-;-;-;-;-;-;-
1514191580564;-;-;8.685455;-0.54808044;-3.0746765;-;-;-;-;-;-;-;-;-;-;-;-;-;-;-
1514191580584;-;-;8.671097;-0.49421692;-3.1057892;-;-;-;-;-;-;-;-;-;-;-;-;-;-;-
1514191580605;-;-;8.752487;-0.4834442;-3.1464996;-;-;-;-;-;-;-;-;-;-;-;-;-;-;-
1514191580624;-;-;8.80397;-0.5145569;-3.1141663;-;-;-;-;-;-;-;-;-;-;-;-;-;-;-
1514191580644;-;-;8.80397;-0.55766296;-3.116562;-;-;-;-;-;-;-;-;-;-;-;-;-;-;-
1514191580664;-;-;8.728546;-0.58758545;-3.0220032;-;-;-;-;-;-;-;-;-;-;-;-;-;-;-
1514191580685;-;-;8.707001;-0.55166626;-3.1105804;-;-;-;-;-;-;-;-;-;-;-;-;-;-;-
1514191580705;-;-;8.728546;-0.51216125;-3.1033936;-;-;-;-;-;-;-;-;-;-;-;-;-;-;-
1514191580725;-;-;8.774048;-0.5133667;-3.0519257;-;-;-;-;-;-;-;-;-;-;-;-;-;-;-
1514191580746;-;-;8.7812195;-0.6330719;-3.0603027;-;-;-;-;-;-;-;-;-;-;-;-;-;-;-
1514191580766;-;-;8.799179;-0.70370483;-3.0674896;-;-;-;-;-;-;-;-;-;-;-;-;-;-;-
1514191580787;-;-;8.774048;-0.7024994;-3.0327759;-;-;-;-;-;-;-;-;-;-;-;-;-;-;-
1514191580807;-;-;8.736938;-0.73243713;-2.9980621;-;-;-;-;-;-;-;-;-;-;-;-;-;-;-
1514191580827;-;-;8.687851;-0.660614;-2.9848938;-;-;-;-;-;-;-;-;-;-;-;-;-;-;-
1514191580848;-;-;8.707001;-0.6582184;-2.9429932;-;-;-;-;-;-;-;-;-;-;-;-;-;-;-
1514191580867;-;-;8.711792;-0.6917267;-2.915451;-;-;-;-;-;-;-;-;-;-;-;-;-;-;-
1514191580887;-;-;8.739319;-0.68814087;-2.9693298;-;-;-;-;-;-;-;-;-;-;-;-;-;-;-
1514191580908;-;-;8.794388;-0.7108917;-3.0064392;-;-;-;-;-;-;-;-;-;-;-;-;-;-;-
1514191580928;-;-;8.790802;-0.7408142;-2.9872742;-;-;-;-;-;-;-;-;-;-;-;-;-;-;-
1514191580948;-;-;8.783615;-0.7096863;-2.9501648;-;-;-;-;-;-;-;-;-;-;-;-;-;-;-
1514191580969;-;-;8.754883;-0.75398254;-2.9513702;-;-;-;-;-;-;-;-;-;-;-;-;-;-;-
1514191580988;-;-;8.768051;-0.68574524;-3.0351715;-;-;-;-;-;-;-;-;-;-;-;-;-;-;-
1514191581008;-;-;8.7812195;-0.6797638;-3.0710754;-;-;-;-;-;-;-;-;-;-;-;-;-;-;-
1514191581028;-;-;8.848267;-0.6689911;-3.0902252;-;-;-;-;-;-;-;-;-;-;-;-;-;-;-
1514191581049;-;-;8.863831;-0.6929321;-3.0674896;-;-;-;-;-;-;-;-;-;-;-;-;-;-;-
1514191581069;-;-;8.812347;-0.72406006;-2.9801025;-;-;-;-;-;-;-;-;-;-;-;-;-;-;-
1514191581089;-;-;8.747711;-0.68574524;-2.9836884;-;-;-;-;-;-;-;-;-;-;-;-;-;-;-
1514191581110;-;-;8.720169;-0.71806335;-3.065094;-;-;-;-;-;-;-;-;-;-;-;-;-;-;-
1514191581130;-;-;8.758484;-0.69532776;-3.0626984;-;-;-;-;-;-;-;-;-;-;-;-;-;-;-
1514191581150;-;-;8.759674;-0.64624023;-3.0399475;-;-;-;-;-;-;-;-;-;-;-;-;-;-;-
1514191581170;-;-;8.795593;-0.66778564;-2.9884796;-;-;-;-;-;-;-;-;-;-;-;-;-;-;-
1514191581191;-;-;8.814743;-0.64505005;-3.0028381;-;-;-;-;-;-;-;-;-;-;-;-;-;-;-
1514191581211;-;-;8.855438;-0.60194397;-3.001648;-;-;-;-;-;-;-;-;-;-;-;-;-;-;-
1514191581231;-;-;8.801575;-0.5792084;-3.0327759;-;-;-;-;-;-;-;-;-;-;-;-;-;-;-
1514191581252;-;-;8.815933;-0.5744171;-3.0746765;-;-;-;-;-;-;-;-;-;-;-;-;-;-;-
1514191581272;-;-;8.794388;-0.5636444;-3.0483398;-;-;-;-;-;-;-;-;-;-;-;-;-;-;-
1514191581292;-;-;8.751297;-0.61750793;-3.0220032;-;-;-;-;-;-;-;-;-;-;-;-;-;-;-
1514191581312;-;-;8.740524;-0.56962585;-2.9920654;-;-;-;-;-;-;-;-;-;-;-;-;-;-;-
1514191581333;-;-;8.738129;-0.56243896;-2.9968567;-;-;-;-;-;-;-;-;-;-;-;-;-;-;-
1514191581353;-;-;8.712982;-0.5504761;-2.9980621;-;-;-;-;-;-;-;-;-;-;-;-;-;-;-
1514191581373;-;-;8.692642;-0.56243896;-2.986084;-;-;-;-;-;-;-;-;-;-;-;-;-;-;-
1514191581394;-;-;8.711792;-0.5648346;-2.9896698;-;-;-;-;-;-;-;-;-;-;-;-;-;-;-
1514191581414;-;-;8.766861;-0.5145569;-2.978897;-;-;-;-;-;-;-;-;-;-;-;-;-;-;-
1514191581434;-;-;8.793198;-0.5325165;-3.0004425;-;-;-;-;-;-;-;-;-;-;-;-;-;-;-
1514191581455;-;-;8.771652;-0.58877563;-3.0698853;-;-;-;-;-;-;-;-;-;-;-;-;-;-;-
1514191581475;-;-;8.7812195;-0.63786316;-2.9908752;-;-;-;-;-;-;-;-;-;-;-;-;-;-;-
1514191581495;-;-;8.759674;-0.63905334;-3.0112305;-;-;-;-;-;-;-;-;-;-;-;-;-;-;-
1514191581515;-;-;8.745316;-0.6103363;-2.97052;-;-;-;-;-;-;-;-;-;-;-;-;-;-;-
1514191581536;-;-;8.718979;-0.54689026;-2.9884796;-;-;-;-;-;-;-;-;-;-;-;-;-;-;-
1514191581556;-;-;8.748901;-0.5600586;-3.0782623;-;-;-;-;-;-;-;-;-;-;-;-;-;-;-
1514191581576;-;-;8.794388;-0.5444946;-3.0854492;-;-;-;-;-;-;-;-;-;-;-;-;-;-;-
1514191581596;-;-;8.8051605;-0.5600586;-3.0531158;-;-;-;-;-;-;-;-;-;-;-;-;-;-;-
1514191581617;-;-;8.777634;-0.56604004;-2.9669342;-;-;-;-;-;-;-;-;-;-;-;-;-;-;-
1514191581637;-;-;8.763275;-0.5792084;-3.0196075;-;-;-;-;-;-;-;-;-;-;-;-;-;-;-
1514191581657;-;-;8.734543;-0.61990356;-3.0387573;-;-;-;-;-;-;-;-;-;-;-;-;-;-;-
1514191581677;-;-;8.7764435;-0.6641998;-3.0447388;-;-;-;-;-;-;-;-;-;-;-;-;-;-;-
1514191581698;-;-;8.795593;-0.6689911;-3.0112305;-;-;-;-;-;-;-;-;-;-;-;-;-;-;-
1514191581718;-;-;8.815933;-0.63067627;-3.0267792;-;-;-;-;-;-;-;-;-;-;-;-;-;-;-
1514191581738;-;-;8.748901;-0.6546173;-2.9489746;-;-;-;-;-;-;-;-;-;-;-;-;-;-;-
1514191581759;-;-;8.747711;-0.6330719;-2.9633331;-;-;-;-;-;-;-;-;-;-;-;-;-;-;-
1514191581780;-;-;8.753693;-0.581604;-3.010025;-;-;-;-;-;-;-;-;-;-;-;-;-;-;-
1514191581799;-;-;8.751297;-0.59477234;-2.9980621;-;-;-;-;-;-;-;-;-;-;-;-;-;-;-
1514191581820;-;-;8.775238;-0.5504761;-3.018402;-;-;-;-;-;-;-;-;-;-;-;-;-;-;-
1514191581840;-;-;8.751297;-0.5792084;-2.9956665;-;-;-;-;-;-;-;-;-;-;-;-;-;-;-
1514191581861;-;-;8.784821;-0.54808044;-2.978897;-;-;-;-;-;-;-;-;-;-;-;-;-;-;-
1514191581881;-;-;8.752487;-0.5349121;-2.9717255;-;-;-;-;-;-;-;-;-;-;-;-;-;-;-
1514191581900;-;-;8.782425;-0.5732269;-2.9765015;-;-;-;-;-;-;-;-;-;-;-;-;-;-;-
1514191581920;-;-;8.771652;-0.60913086;-2.9956665;-;-;-;-;-;-;-;-;-;-;-;-;-;-;-
1514191581941;-;-;8.789597;-0.61750793;-2.9417877;-;-;-;-;-;-;-;-;-;-;-;-;-;-;-
1514191581961;-;-;8.851852;-0.58877563;-2.9693298;-;-;-;-;-;-;-;-;-;-;-;-;-;-;-
1514191581981;-;-;8.806366;-0.58399963;-2.9106598;-;-;-;-;-;-;-;-;-;-;-;-;-;-;-
1514191582001;-;-;8.780029;-0.5923767;-2.9274292;-;-;-;-;-;-;-;-;-;-;-;-;-;-;-
1514191582022;-;-;8.796783;-0.5959625;-2.9645386;-;-;-;-;-;-;-;-;-;-;-;-;-;-;-
1514191582042;-;-;8.813553;-0.5792084;-2.9812927;-;-;-;-;-;-;-;-;-;-;-;-;-;-;-
1514191582062;-;-;8.777634;-0.60913086;-2.9286194;-;-;-;-;-;-;-;-;-;-;-;-;-;-;-
1514191582083;-;-;8.76207;-0.636673;-2.8819427;-;-;-;-;-;-;-;-;-;-;-;-;-;-;-
1514191582103;-;-;8.777634;-0.5744171;-2.8771515;-;-;-;-;-;-;-;-;-;-;-;-;-;-;-
1514191582123;-;-;8.790802;-0.53730774;-2.9022827;-;-;-;-;-;-;-;-;-;-;-;-;-;-;-
1514191582143;-;-;8.782425;-0.5361023;-2.934616;-;-;-;-;-;-;-;-;-;-;-;-;-;-;-
1514191582164;-;-;8.777634;-0.55766296;-2.9453888;-;-;-;-;-;-;-;-;-;-;-;-;-;-;-
1514191582184;-;-;8.817139;-0.542099;-2.9094696;-;-;-;-;-;-;-;-;-;-;-;-;-;-;-
1514191582204;-;-;8.799179;-0.47265625;-2.8651733;-;-;-;-;-;-;-;-;-;-;-;-;-;-;-
1514191582225;-;-;8.734543;-0.48703003;-2.9022827;-;-;-;-;-;-;-;-;-;-;-;-;-;-;-
1514191582245;-;-;8.735733;-0.5708313;-2.9286194;-;-;-;-;-;-;-;-;-;-;-;-;-;-;-
1514191582265;-;-;8.782425;-0.6031494;-2.9836884;-;-;-;-;-;-;-;-;-;-;-;-;-;-;-
1514191582286;-;-;8.832703;-0.5648346;-2.9202423;-;-;-;-;-;-;-;-;-;-;-;-;-;-;-
1514191582306;-;-;8.813553;-0.5145569;-2.883133;-;-;-;-;-;-;-;-;-;-;-;-;-;-;-
1514191582326;-;-;8.783615;-0.5313263;-2.9058838;-;-;-;-;-;-;-;-;-;-;-;-;-;-;-
1514191582346;-;-;8.7812195;-0.53012085;-2.9082794;-;-;-;-;-;-;-;-;-;-;-;-;-;-;-
1514191582367;-;-;8.789597;-0.5672302;-2.895111;-;-;-;-;-;-;-;-;-;-;-;-;-;-;-
1514191582387;-;-;8.8051605;-0.54808044;-2.8735504;-;-;-;-;-;-;-;-;-;-;-;-;-;-;-
1514191582407;-;-;8.768051;-0.5504761;-2.895111;-;-;-;-;-;-;-;-;-;-;-;-;-;-;-
1514191582428;-;-;8.801575;-0.5720215;-2.8927155;-;-;-;-;-;-;-;-;-;-;-;-;-;-;-
1514191582448;-;-;8.783615;-0.5504761;-2.859192;-;-;-;-;-;-;-;-;-;-;-;-;-;-;-
1514191582468;-;-;8.80397;-0.51934814;-2.860382;-;-;-;-;-;-;-;-;-;-;-;-;-;-;-
1514191582488;-;-;8.827911;-0.5432892;-2.8891144;-;-;-;-;-;-;-;-;-;-;-;-;-;-;-
1514191582509;-;-;8.811157;-0.5564575;-2.898697;-;-;-;-;-;-;-;-;-;-;-;-;-;-;-
1514191582529;-;-;8.84108;-0.5600586;-2.8723602;-;-;-;-;-;-;-;-;-;-;-;-;-;-;-
1514191582549;-;-;8.8003845;-0.5756073;-2.8412323;-;-;-;-;-;-;-;-;-;-;-;-;-;-;-
1514191582570;-;-;8.797989;-0.56843567;-2.8699646;-;-;-;-;-;-;-;-;-;-;-;-;-;-;-
1514191582590;-;-;8.825516;-0.59835815;-2.8819427;-;-;-;-;-;-;-;-;-;-;-;-;-;-;-
1514191582610;-;-;8.825516;-0.5923767;-2.8651733;-;-;-;-;-;-;-;-;-;-;-;-;-;-;-
1514191582630;-;-;8.8207245;-0.5636444;-2.8220825;-;-;-;-;-;-;-;-;-;-;-;-;-;-;-
1514191582651;-;-;8.793198;-0.5899811;-2.843628;-;-;-;-;-;-;-;-;-;-;-;-;-;-;-
1514191582671;-;-;8.8003845;-0.56843567;-2.843628;-;-;-;-;-;-;-;-;-;-;-;-;-;-;-
1514191582691;-;-;8.835098;-0.5899811;-2.816101;-;-;-;-;-;-;-;-;-;-;-;-;-;-;-
1514191582711;-;-;8.84108;-0.5780029;-2.79216;-;-;-;-;-;-;-;-;-;-;-;-;-;-;-
1514191582732;-;-;8.812347;-0.5612488;-2.7598267;-;-;-;-;-;-;-;-;-;-;-;-;-;-;-
1514191582752;-;-;8.788406;-0.5851898;-2.7753906;-;-;-;-;-;-;-;-;-;-;-;-;-;-;-
1514191582772;-;-;8.806366;-0.5564575;-2.8184967;-;-;-;-;-;-;-;-;-;-;-;-;-;-;-
1514191582793;-;-;8.850662;-0.56604004;-2.840042;-;-;-;-;-;-;-;-;-;-;-;-;-;-;-
1514191582813;-;-;8.818329;-0.52293396;-2.7957458;-;-;-;-;-;-;-;-;-;-;-;-;-;-;-
1514191582833;-;-;8.788406;-0.5169525;-2.7861633;-;-;-;-;-;-;-;-;-;-;-;-;-;-;-
1514191582854;-;-;8.83989;-0.5037842;-2.7849731;-;-;-;-;-;-;-;-;-;-;-;-;-;-;-
1514191582873;-;-;8.797989;-0.54927063;-2.859192;-;-;-;-;-;-;-;-;-;-;-;-;-;-;-
1514191582893;-;-;8.837494;-0.5217438;-2.820877;-;-;-;-;-;-;-;-;-;-;-;-;-;-;-
1514191582914;-;-;8.854248;-0.54927063;-2.8125;-;-;-;-;-;-;-;-;-;-;-;-;-;-;-
1514191582934;-;-;8.876999;-0.5600586;-2.8113098;-;-;-;-;-;-;-;-;-;-;-;-;-;-;-
1514191582954;-;-;8.871002;-0.5444946;-2.79216;-;-;-;-;-;-;-;-;-;-;-;-;-;-;-
1514191582975;-;-;8.829102;-0.52893066;-2.8376465;-;-;-;-;-;-;-;-;-;-;-;-;-;-;-
1514191582995;-;-;8.8003845;-0.62709045;-2.8771515;-;-;-;-;-;-;-;-;-;-;-;-;-;-;-
1514191583015;-;-;8.84227;-0.6318817;-2.8663788;-;-;-;-;-;-;-;-;-;-;-;-;-;-;-
1514191583035;-;-;8.854248;-0.5648346;-2.8292694;-;-;-;-;-;-;-;-;-;-;-;-;-;-;-
1514191583056;-;-;8.855438;-0.5732269;-2.7705994;-;-;-;-;-;-;-;-;-;-;-;-;-;-;-
1514191583075;-;-;8.831497;-0.5756073;-2.7993317;-;-;-;-;-;-;-;-;-;-;-;-;-;-;-
1514191583095;-;-;8.797989;-0.57681274;-2.7849731;-;-;-;-;-;-;-;-;-;-;-;-;-;-;-
1514191583116;-;-;8.813553;-0.55766296;-2.8077087;-;-;-;-;-;-;-;-;-;-;-;-;-;-;-
1514191583136;-;-;8.790802;-0.54089355;-2.8184967;-;-;-;-;-;-;-;-;-;-;-;-;-;-;-
1514191583156;-;-;8.814743;-0.5528717;-2.8053284;-;-;-;-;-;-;-;-;-;-;-;-;-;-;-
1514191583176;-;-;8.831497;-0.5384979;-2.8053284;-;-;-;-;-;-;-;-;-;-;-;-;-;-;-
1514191583197;-;-;8.787216;-0.5313263;-2.8125;-;-;-;-;-;-;-;-;-;-;-;-;-;-;-
1514191583217;-;-;8.8003845;-0.53730774;-2.764618;-;-;-;-;-;-;-;-;-;-;-;-;-;-;-
1514191583237;-;-;8.836288;-0.56243896;-2.8065186;-;-;-;-;-;-;-;-;-;-;-;-;-;-;-
1514191583258;-;-;8.848267;-0.5349121;-2.8172913;-;-;-;-;-;-;-;-;-;-;-;-;-;-;-
1514191583278;-;-;8.871002;-0.54808044;-2.843628;-;-;-;-;-;-;-;-;-;-;-;-;-;-;-
1514191583298;-;-;8.838684;-0.5241394;-2.816101;-;-;-;-;-;-;-;-;-;-;-;-;-;-;-
1514191583319;-;-;8.845871;-0.58639526;-2.8256683;-;-;-;-;-;-;-;-;-;-;-;-;-;-;-
1514191583339;-;-;8.849457;-0.5636444;-2.836441;-;-;-;-;-;-;-;-;-;-;-;-;-;-;-
1514191583359;-;-;8.881775;-0.5361023;-2.8939056;-;-;-;-;-;-;-;-;-;-;-;-;-;-;-
1514191583379;-;-;8.859039;-0.5349121;-2.8065186;-;-;-;-;-;-;-;-;-;-;-;-;-;-;-
1514191583399;-;-;8.837494;-0.5241394;-2.776596;-;-;-;-;-;-;-;-;-;-;-;-;-;-;-
1514191583420;-;-;8.784821;-0.5061798;-2.7993317;-;-;-;-;-;-;-;-;-;-;-;-;-;-;-
1514191583440;-;-;8.782425;-0.5313263;-2.8220825;-;-;-;-;-;-;-;-;-;-;-;-;-;-;-
1514191583460;-;-;8.808762;-0.50857544;-2.7825775;-;-;-;-;-;-;-;-;-;-;-;-;-;-;-
1514191583481;-;-;8.826721;-0.49421692;-2.781372;-;-;-;-;-;-;-;-;-;-;-;-;-;-;-
1514191583500;-;-;8.829102;-0.44154358;-2.7119446;-;-;-;-;-;-;-;-;-;-;-;-;-;-;-
1514191583520;-;-;8.815933;-0.42837524;-2.7897644;-;-;-;-;-;-;-;-;-;-;-;-;-;-;-
1514191583540;-;-;8.835098;-0.43554688;-2.780182;-;-;-;-;-;-;-;-;-;-;-;-;-;-;-
1514191583560;-;-;8.826721;-0.46788025;-2.7945404;-;-;-;-;-;-;-;-;-;-;-;-;-;-;-
1514191583581;-;-;8.795593;-0.5061798;-2.7789917;-;-;-;-;-;-;-;-;-;-;-;-;-;-;-
1514191583601;-;-;8.790802;-0.52893066;-2.7502594;-;-;-;-;-;-;-;-;-;-;-;-;-;-;-
1514191583621;-;-;8.84108;-0.5253296;-2.7191315;-;-;-;-;-;-;-;-;-;-;-;-;-;-;-
1514191583641;-;-;8.82312;-0.44154358;-2.7777863;-;-;-;-;-;-;-;-;-;-;-;-;-;-;-
1514191583662;-;-;8.826721;-0.45350647;-2.7598267;-;-;-;-;-;-;-;-;-;-;-;-;-;-;-
1514191583682;-;-;8.854248;-0.5313263;-2.788559;-;-;-;-;-;-;-;-;-;-;-;-;-;-;-
1514191583702;-;-;8.914108;-0.4918213;-2.7454681;-;-;-;-;-;-;-;-;-;-;-;-;-;-;-
1514191583723;-;-;8.92128;-0.41999817;-2.7346954;-;-;-;-;-;-;-;-;-;-;-;-;-;-;-
1514191583743;-;-;8.857834;-0.45350647;-2.7634277;-;-;-;-;-;-;-;-;-;-;-;-;-;-;-
1514191583763;-;-;8.809952;-0.55166626;-2.7718048;-;-;-;-;-;-;-;-;-;-;-;-;-;-;-
1514191583783;-;-;8.872208;-0.5648346;-2.7442627;-;-;-;-;-;-;-;-;-;-;-;-;-;-;-
1514191583804;-;-;8.872208;-0.54927063;-2.7466583;-;-;-;-;-;-;-;-;-;-;-;-;-;-;-
1514191583824;-;-;8.869812;-0.5648346;-2.7478638;-;-;-;-;-;-;-;-;-;-;-;-;-;-;-
1514191583844;-;-;8.871002;-0.55526733;-2.7310944;-;-;-;-;-;-;-;-;-;-;-;-;-;-;-
1514191583865;-;-;8.84108;-0.53012085;-2.7454681;-;-;-;-;-;-;-;-;-;-;-;-;-;-;-
1514191583885;-;-;8.854248;-0.5217438;-2.7322998;-;-;-;-;-;-;-;-;-;-;-;-;-;-;-
1514191583905;-;-;8.850662;-0.5241394;-2.7478638;-;-;-;-;-;-;-;-;-;-;-;-;-;-;-
1514191583926;-;-;8.849457;-0.5349121;-2.728714;-;-;-;-;-;-;-;-;-;-;-;-;-;-;-
1514191583946;-;-;8.888962;-0.56604004;-2.709549;-;-;-;-;-;-;-;-;-;-;-;-;-;-;-
1514191583966;-;-;8.853058;-0.52653503;-2.7406769;-;-;-;-;-;-;-;-;-;-;-;-;-;-;-
1514191583987;-;-;8.815933;-0.51934814;-2.752655;-;-;-;-;-;-;-;-;-;-;-;-;-;-;-
1514191584006;-;-;8.829102;-0.5325165;-2.7550507;-;-;-;-;-;-;-;-;-;-;-;-;-;-;-
1514191584026;-;-;8.879379;-0.5528717;-2.7358856;-;-;-;-;-;-;-;-;-;-;-;-;-;-;-
1514191584048;-;-;8.897339;-0.48223877;-2.7718048;-;-;-;-;-;-;-;-;-;-;-;-;-;-;-
1514191584068;-;-;8.859039;-0.54927063;-2.7430725;-;-;-;-;-;-;-;-;-;-;-;-;-;-;-
1514191584088;-;-;8.845871;-0.50019836;-2.7478638;-;-;-;-;-;-;-;-;-;-;-;-;-;-;-
1514191584108;-;-;8.8051605;-0.55526733;-2.764618;-;-;-;-;-;-;-;-;-;-;-;-;-;-;-
1514191584129;-;-;8.878189;-0.5217438;-2.749054;-;-;-;-;-;-;-;-;-;-;-;-;-;-;-
1514191584149;-;-;8.866211;-0.4918213;-2.7550507;-;-;-;-;-;-;-;-;-;-;-;-;-;-;-
1514191584170;-;-;8.835098;-0.5384979;-2.7634277;-;-;-;-;-;-;-;-;-;-;-;-;-;-;-
1514191584190;-;-;8.830307;-0.5313263;-2.73349;-;-;-;-;-;-;-;-;-;-;-;-;-;-;-
1514191584210;-;-;8.826721;-0.52653503;-2.7478638;-;-;-;-;-;-;-;-;-;-;-;-;-;-;-
1514191584231;-;-;8.837494;-0.48942566;-2.7191315;-;-;-;-;-;-;-;-;-;-;-;-;-;-;-
1514191584251;-;-;8.835098;-0.47625732;-2.7382813;-;-;-;-;-;-;-;-;-;-;-;-;-;-;-
1514191584271;-;-;8.850662;-0.44273376;-2.752655;-;-;-;-;-;-;-;-;-;-;-;-;-;-;-
1514191584291;-;-;8.862625;-0.4666748;-2.7622223;-;-;-;-;-;-;-;-;-;-;-;-;-;-;-
1514191584312;-;-;8.835098;-0.4738617;-2.7598267;-;-;-;-;-;-;-;-;-;-;-;-;-;-;-
1514191584331;-;-;8.819534;-0.49421692;-2.7454681;-;-;-;-;-;-;-;-;-;-;-;-;-;-;-
1514191584351;-;-;8.835098;-0.48703003;-2.7119446;-;-;-;-;-;-;-;-;-;-;-;-;-;-;-
1514191584372;-;-;8.833893;-0.4487152;-2.7550507;-;-;-;-;-;-;-;-;-;-;-;-;-;-;-
1514191584391;-;-;8.824326;-0.47505188;-2.7957458;-;-;-;-;-;-;-;-;-;-;-;-;-;-;-
1514191584411;-;-;8.829102;-0.5145569;-2.831665;-;-;-;-;-;-;-;-;-;-;-;-;-;-;-
1514191584432;-;-;8.8602295;-0.5097656;-2.7873688;-;-;-;-;-;-;-;-;-;-;-;-;-;-;-
1514191584451;-;-;8.879379;-0.45111084;-2.73349;-;-;-;-;-;-;-;-;-;-;-;-;-;-;-
1514191584471;-;-;8.84108;-0.41281128;-2.7394867;-;-;-;-;-;-;-;-;-;-;-;-;-;-;-
1514191584492;-;-;8.799179;-0.44273376;-2.8352509;-;-;-;-;-;-;-;-;-;-;-;-;-;-;-
1514191584512;-;-;8.894943;-0.4774475;-2.8544006;-;-;-;-;-;-;-;-;-;-;-;-;-;-;-
1514191584532;-;-;8.898544;-0.45231628;-2.7550507;-;-;-;-;-;-;-;-;-;-;-;-;-;-;-
1514191584552;-;-;8.837494;-0.463089;-2.768219;-;-;-;-;-;-;-;-;-;-;-;-;-;-;-
1514191584573;-;-;8.806366;-0.47505188;-2.7466583;-;-;-;-;-;-;-;-;-;-;-;-;-;-;-
1514191584593;-;-;8.790802;-0.5205536;-2.7742004;-;-;-;-;-;-;-;-;-;-;-;-;-;-;-
1514191584613;-;-;8.824326;-0.46907043;-2.761032;-;-;-;-;-;-;-;-;-;-;-;-;-;-;-
1514191584634;-;-;8.83989;-0.43196106;-2.7143402;-;-;-;-;-;-;-;-;-;-;-;-;-;-;-
1514191584654;-;-;8.857834;-0.46907043;-2.725113;-;-;-;-;-;-;-;-;-;-;-;-;-;-;-
1514191584674;-;-;8.837494;-0.47027588;-2.7310944;-;-;-;-;-;-;-;-;-;-;-;-;-;-;-
1514191584695;-;-;8.818329;-0.4774475;-2.717926;-;-;-;-;-;-;-;-;-;-;-;-;-;-;-
1514191584715;-;-;8.829102;-0.4451294;-2.725113;-;-;-;-;-;-;-;-;-;-;-;-;-;-;-
1514191584735;-;-;8.865021;-0.49421692;-2.7789917;-;-;-;-;-;-;-;-;-;-;-;-;-;-;-
1514191584756;-;-;8.926071;-0.47265625;-2.7789917;-;-;-;-;-;-;-;-;-;-;-;-;-;-;-
1514191584776;-;-;8.915298;-0.50738525;-2.7873688;-;-;-;-;-;-;-;-;-;-;-;-;-;-;-
1514191584796;-;-;8.869812;-0.47505188;-2.7083588;-;-;-;-;-;-;-;-;-;-;-;-;-;-;-
1514191584817;-;-;8.843475;-0.50738525;-2.697586;-;-;-;-;-;-;-;-;-;-;-;-;-;-;-
1514191584837;-;-;8.827911;-0.5205536;-2.6951904;-;-;-;-;-;-;-;-;-;-;-;-;-;-;-
1514191584857;-;-;8.82193;-0.47984314;-2.6927948;-;-;-;-;-;-;-;-;-;-;-;-;-;-;-
1514191584877;-;-;8.893753;-0.4846344;-2.7191315;-;-;-;-;-;-;-;-;-;-;-;-;-;-;-
1514191584898;-;-;8.885376;-0.47146606;-2.7562408;-;-;-;-;-;-;-;-;-;-;-;-;-;-;-
1514191584918;-;-;8.836288;-0.48582458;-2.6963806;-;-;-;-;-;-;-;-;-;-;-;-;-;-;-
1514191584938;-;-;8.843475;-0.51815796;-2.737091;-;-;-;-;-;-;-;-;-;-;-;-;-;-;-
1514191584959;-;-;8.868607;-0.49661255;-2.6999817;-;-;-;-;-;-;-;-;-;-;-;-;-;-;-
1514191584979;-;-;8.893753;-0.48942566;-2.7299042;-;-;-;-;-;-;-;-;-;-;-;-;-;-;-
1514191584999;-;-;8.826721;-0.5277252;-2.7059631;-;-;-;-;-;-;-;-;-;-;-;-;-;-;-
1514191585019;-;-;8.88298;-0.5145569;-2.7598267;-;-;-;-;-;-;-;-;-;-;-;-;-;-;-
1514191585040;-;-;8.888962;-0.51097107;-2.7358856;-;-;-;-;-;-;-;-;-;-;-;-;-;-;-
1514191585060;-;-;8.835098;-0.47865295;-2.7239227;-;-;-;-;-;-;-;-;-;-;-;-;-;-;-
1514191585081;-;-;8.774048;-0.47625732;-2.6987762;-;-;-;-;-;-;-;-;-;-;-;-;-;-;-
1514191585101;-;-;8.814743;-0.46788025;-2.7011719;-;-;-;-;-;-;-;-;-;-;-;-;-;-;-
1514191585121;-;-;8.850662;-0.4379425;-2.7670135;-;-;-;-;-;-;-;-;-;-;-;-;-;-;-
1514191585141;-;-;8.83989;-0.44154358;-2.7478638;-;-;-;-;-;-;-;-;-;-;-;-;-;-;-
1514191585162;-;-;8.853058;-0.54689026;-2.7203217;-;-;-;-;-;-;-;-;-;-;-;-;-;-;-
1514191585182;-;-;8.888962;-0.53012085;-2.7346954;-;-;-;-;-;-;-;-;-;-;-;-;-;-;-
1514191585202;-;-;8.847061;-0.48223877;-2.6796265;-;-;-;-;-;-;-;-;-;-;-;-;-;-;-
1514191585223;-;-;8.818329;-0.44154358;-2.6999817;-;-;-;-;-;-;-;-;-;-;-;-;-;-;-
1514191585243;-;-;8.835098;-0.48104858;-2.709549;-;-;-;-;-;-;-;-;-;-;-;-;-;-;-
1514191585263;-;-;8.904526;-0.5253296;-2.7622223;-;-;-;-;-;-;-;-;-;-;-;-;-;-;-
1514191585284;-;-;8.912903;-0.53970337;-2.7945404;-;-;-;-;-;-;-;-;-;-;-;-;-;-;-
1514191585303;-;-;8.890167;-0.50857544;-2.749054;-;-;-;-;-;-;-;-;-;-;-;-;-;-;-
1514191585323;-;-;8.853058;-0.49301147;-2.7275085;-;-;-;-;-;-;-;-;-;-;-;-;-;-;-
1514191585343;-;-;8.831497;-0.4774475;-2.7167358;-;-;-;-;-;-;-;-;-;-;-;-;-;-;-
1514191585364;-;-;8.813553;-0.46427917;-2.7023773;-;-;-;-;-;-;-;-;-;-;-;-;-;-;-
1514191585384;-;-;8.84227;-0.47265625;-2.7239227;-;-;-;-;-;-;-;-;-;-;-;-;-;-;-
1514191585404;-;-;8.826721;-0.4738617;-2.6903992;-;-;-;-;-;-;-;-;-;-;-;-;-;-;-
1514191585425;-;-;8.873398;-0.50019836;-2.7083588;-;-;-;-;-;-;-;-;-;-;-;-;-;-;-
1514191585445;-;-;8.867416;-0.47984314;-2.7059631;-;-;-;-;-;-;-;-;-;-;-;-;-;-;-
1514191585465;-;-;8.827911;-0.49421692;-2.6927948;-;-;-;-;-;-;-;-;-;-;-;-;-;-;-
1514191585485;-;-;8.848267;-0.5337219;-2.6951904;-;-;-;-;-;-;-;-;-;-;-;-;-;-;-
1514191585506;-;-;8.908112;-0.52293396;-2.73349;-;-;-;-;-;-;-;-;-;-;-;-;-;-;-
1514191585526;-;-;8.906921;-0.5313263;-2.7071533;-;-;-;-;-;-;-;-;-;-;-;-;-;-;-
1514191585546;-;-;8.878189;-0.50738525;-2.7203217;-;-;-;-;-;-;-;-;-;-;-;-;-;-;-
1514191585567;-;-;8.850662;-0.5133667;-2.7322998;-;-;-;-;-;-;-;-;-;-;-;-;-;-;-
1514191585586;-;-;8.88298;-0.53970337;-2.7299042;-;-;-;-;-;-;-;-;-;-;-;-;-;-;-
1514191585606;-;-;8.894943;-0.5241394;-2.71315;-;-;-;-;-;-;-;-;-;-;-;-;-;-;-
1514191585627;-;-;8.850662;-0.4834442;-2.6796265;-;-;-;-;-;-;-;-;-;-;-;-;-;-;-
1514191585646;-;-;8.844666;-0.5037842;-2.7394867;-;-;-;-;-;-;-;-;-;-;-;-;-;-;-
1514191585666;-;-;8.854248;-0.48582458;-2.6987762;-;-;-;-;-;-;-;-;-;-;-;-;-;-;-
1514191585687;-;-;8.84227;-0.49661255;-2.7023773;-;-;-;-;-;-;-;-;-;-;-;-;-;-;-
1514191585706;-;-;8.817139;-0.48223877;-2.7047577;-;-;-;-;-;-;-;-;-;-;-;-;-;-;-
1514191585726;-;-;8.884171;-0.5061798;-2.6748352;-;-;-;-;-;-;-;-;-;-;-;-;-;-;-
1514191585746;-;-;8.861435;-0.5097656;-2.6987762;-;-;-;-;-;-;-;-;-;-;-;-;-;-;-
1514191585767;-;-;8.848267;-0.4846344;-2.717926;-;-;-;-;-;-;-;-;-;-;-;-;-;-;-
1514191585787;-;-;8.849457;-0.48582458;-2.7191315;-;-;-;-;-;-;-;-;-;-;-;-;-;-;-
1514191585807;-;-;8.914108;-0.49899292;-2.7550507;-;-;-;-;-;-;-;-;-;-;-;-;-;-;-
1514191585828;-;-;8.830307;-0.47027588;-2.7275085;-;-;-;-;-;-;-;-;-;-;-;-;-;-;-
1514191585848;-;-;8.802765;-0.50138855;-2.697586;-;-;-;-;-;-;-;-;-;-;-;-;-;-;-
1514191585868;-;-;8.836288;-0.49899292;-2.7107544;-;-;-;-;-;-;-;-;-;-;-;-;-;-;-
1514191585889;-;-;8.843475;-0.4738617;-2.7310944;-;-;-;-;-;-;-;-;-;-;-;-;-;-;-
1514191585908;-;-;8.851852;-0.4487152;-2.7789917;-;-;-;-;-;-;-;-;-;-;-;-;-;-;-
1514191585928;-;-;8.866211;-0.5384979;-2.73349;-;-;-;-;-;-;-;-;-;-;-;-;-;-;-
1514191585949;-;-;8.893753;-0.5277252;-2.7035675;-;-;-;-;-;-;-;-;-;-;-;-;-;-;-
1514191585969;-;-;8.836288;-0.44033813;-2.6628723;-;-;-;-;-;-;-;-;-;-;-;-;-;-;-
1514191585989;-;-;8.797989;-0.42237854;-2.6987762;-;-;-;-;-;-;-;-;-;-;-;-;-;-;-
1514191586009;-;-;8.783615;-0.50738525;-2.7406769;-;-;-;-;-;-;-;-;-;-;-;-;-;-;-
1514191586030;-;-;8.930862;-0.53730774;-2.7275085;-;-;-;-;-;-;-;-;-;-;-;-;-;-;-
1514191586050;-;-;8.914108;-0.5349121;-2.7418823;-;-;-;-;-;-;-;-;-;-;-;-;-;-;-
1514191586070;-;-;8.897339;-0.50138855;-2.6963806;-;-;-;-;-;-;-;-;-;-;-;-;-;-;-
1514191586091;-;-;8.808762;-0.4738617;-2.6832123;-;-;-;-;-;-;-;-;-;-;-;-;-;-;-
1514191586111;-;-;8.826721;-0.4487152;-2.6903992;-;-;-;-;-;-;-;-;-;-;-;-;-;-;-
1514191586131;-;-;8.849457;-0.44752502;-2.71315;-;-;-;-;-;-;-;-;-;-;-;-;-;-;-
1514191586152;-;-;8.862625;-0.4834442;-2.6784363;-;-;-;-;-;-;-;-;-;-;-;-;-;-;-
1514191586172;-;-;8.843475;-0.4738617;-2.689209;-;-;-;-;-;-;-;-;-;-;-;-;-;-;-
1514191586192;-;-;8.844666;-0.4954071;-2.6796265;-;-;-;-;-;-;-;-;-;-;-;-;-;-;-
1514191586213;-;-;8.844666;-0.50019836;-2.7275085;-;-;-;-;-;-;-;-;-;-;-;-;-;-;-
1514191586233;-;-;8.885376;-0.47625732;-2.6784363;-;-;-;-;-;-;-;-;-;-;-;-;-;-;-
1514191586253;-;-;8.912903;-0.50138855;-2.71315;-;-;-;-;-;-;-;-;-;-;-;-;-;-;-
1514191586273;-;-;8.898544;-0.50138855;-2.7442627;-;-;-;-;-;-;-;-;-;-;-;-;-;-;-
1514191586294;-;-;8.884171;-0.5049896;-2.7239227;-;-;-;-;-;-;-;-;-;-;-;-;-;-;-
1514191586314;-;-;8.83989;-0.47146606;-2.6927948;-;-;-;-;-;-;-;-;-;-;-;-;-;-;-
1514191586334;-;-;8.862625;-0.54689026;-2.693985;-;-;-;-;-;-;-;-;-;-;-;-;-;-;-
1514191586355;-;-;8.880585;-0.5361023;-2.642517;-;-;-;-;-;-;-;-;-;-;-;-;-;-;-
1514191586375;-;-;8.868607;-0.50857544;-2.7023773;-;-;-;-;-;-;-;-;-;-;-;-;-;-;-
1514191586395;-;-;8.863831;-0.48942566;-2.709549;-;-;-;-;-;-;-;-;-;-;-;-;-;-;-
1514191586416;-;-;8.856644;-0.47027588;-2.7263184;-;-;-;-;-;-;-;-;-;-;-;-;-;-;-
1514191586435;-;-;8.855438;-0.5097656;-2.6844177;-;-;-;-;-;-;-;-;-;-;-;-;-;-;-
1514191586455;-;-;8.857834;-0.542099;-2.642517;-;-;-;-;-;-;-;-;-;-;-;-;-;-;-
1514191586475;-;-;8.869812;-0.6007538;-2.665268;-;-;-;-;-;-;-;-;-;-;-;-;-;-;-
1514191586496;-;-;8.867416;-0.58039856;-2.6844177;-;-;-;-;-;-;-;-;-;-;-;-;-;-;-
1514191586516;-;-;8.863831;-0.57681274;-2.6484985;-;-;-;-;-;-;-;-;-;-;-;-;-;-;-
1514191586536;-;-;8.837494;-0.5253296;-2.6437073;-;-;-;-;-;-;-;-;-;-;-;-;-;-;-
1514191586557;-;-;8.807556;-0.5037842;-2.6676483;-;-;-;-;-;-;-;-;-;-;-;-;-;-;-
1514191586577;-;-;8.862625;-0.5157623;-2.697586;-;-;-;-;-;-;-;-;-;-;-;-;-;-;-
1514191586597;-;-;8.891357;-0.54689026;-2.6903992;-;-;-;-;-;-;-;-;-;-;-;-;-;-;-
1514191586618;-;-;8.891357;-0.58758545;-2.6927948;-;-;-;-;-;-;-;-;-;-;-;-;-;-;-
1514191586638;-;-;8.84227;-0.58399963;-2.6233673;-;-;-;-;-;-;-;-;-;-;-;-;-;-;-
1514191586658;-;-;8.837494;-0.56843567;-2.6868134;-;-;-;-;-;-;-;-;-;-;-;-;-;-;-
1514191586679;-;-;8.850662;-0.54927063;-2.752655;-;-;-;-;-;-;-;-;-;-;-;-;-;-;-
1514191586699;-;-;8.897339;-0.6043396;-2.697586;-;-;-;-;-;-;-;-;-;-;-;-;-;-;-
1514191586719;-;-;8.92009;-0.56962585;-2.689209;-;-;-;-;-;-;-;-;-;-;-;-;-;-;-
1514191586740;-;-;8.914108;-0.5133667;-2.6712494;-;-;-;-;-;-;-;-;-;-;-;-;-;-;-
1514191586759;-;-;8.838684;-0.4882202;-2.6532898;-;-;-;-;-;-;-;-;-;-;-;-;-;-;-
1514191586779;-;-;8.8051605;-0.5277252;-2.7107544;-;-;-;-;-;-;-;-;-;-;-;-;-;-;-
1514191586800;-;-;8.836288;-0.5636444;-2.728714;-;-;-;-;-;-;-;-;-;-;-;-;-;-;-
1514191586820;-;-;8.950012;-0.542099;-2.709549;-;-;-;-;-;-;-;-;-;-;-;-;-;-;-
1514191586840;-;-;8.891357;-0.5528717;-2.6556854;-;-;-;-;-;-;-;-;-;-;-;-;-;-;-
1514191586860;-;-;8.83989;-0.5313263;-2.618576;-;-;-;-;-;-;-;-;-;-;-;-;-;-;-
1514191586881;-;-;8.843475;-0.54689026;-2.6688538;-;-;-;-;-;-;-;-;-;-;-;-;-;-;-
1514191586901;-;-;8.844666;-0.50738525;-2.6832123;-;-;-;-;-;-;-;-;-;-;-;-;-;-;-
1514191586921;-;-;8.866211;-0.5037842;-2.6999817;-;-;-;-;-;-;-;-;-;-;-;-;-;-;-
1514191586942;-;-;8.844666;-0.51815796;-2.6712494;-;-;-;-;-;-;-;-;-;-;-;-;-;-;-
1514191586962;-;-;8.865021;-0.52653503;-2.625763;-;-;-;-;-;-;-;-;-;-;-;-;-;-;-
1514191586983;-;-;8.888962;-0.5504761;-2.6724396;-;-;-;-;-;-;-;-;-;-;-;-;-;-;-
1514191587003;-;-;8.835098;-0.5253296;-2.6927948;-;-;-;-;-;-;-;-;-;-;-;-;-;-;-
1514191587023;-;-;8.843475;-0.5097656;-2.6628723;-;-;-;-;-;-;-;-;-;-;-;-;-;-;-
1514191587043;-;-;8.879379;-0.5361023;-2.665268;-;-;-;-;-;-;-;-;-;-;-;-;-;-;-
1514191587064;-;-;8.90213;-0.5564575;-2.6963806;-;-;-;-;-;-;-;-;-;-;-;-;-;-;-
1514191587084;-;-;8.896149;-0.5325165;-2.693985;-;-;-;-;-;-;-;-;-;-;-;-;-;-;-
1514191587104;-;-;8.861435;-0.48104858;-2.709549;-;-;-;-;-;-;-;-;-;-;-;-;-;-;-
1514191587125;-;-;8.848267;-0.5037842;-2.6760406;-;-;-;-;-;-;-;-;-;-;-;-;-;-;-
1514191587145;-;-;8.879379;-0.53012085;-2.6640625;-;-;-;-;-;-;-;-;-;-;-;-;-;-;-
1514191587165;-;-;8.873398;-0.52893066;-2.6664581;-;-;-;-;-;-;-;-;-;-;-;-;-;-;-
1514191587185;-;-;8.830307;-0.5313263;-2.6520996;-;-;-;-;-;-;-;-;-;-;-;-;-;-;-
1514191587205;-;-;8.829102;-0.5432892;-2.6844177;-;-;-;-;-;-;-;-;-;-;-;-;-;-;-
1514191587226;-;-;8.856644;-0.53970337;-2.689209;-;-;-;-;-;-;-;-;-;-;-;-;-;-;-
1514191587246;-;-;8.879379;-0.5325165;-2.6844177;-;-;-;-;-;-;-;-;-;-;-;-;-;-;-
1514191587266;-;-;8.876999;-0.5097656;-2.6868134;-;-;-;-;-;-;-;-;-;-;-;-;-;-;-
1514191587286;-;-;8.869812;-0.52653503;-2.6808167;-;-;-;-;-;-;-;-;-;-;-;-;-;-;-
1514191587307;-;-;8.876999;-0.4918213;-2.6903992;-;-;-;-;-;-;-;-;-;-;-;-;-;-;-
1514191587327;-;-;8.8602295;-0.5097656;-2.6951904;-;-;-;-;-;-;-;-;-;-;-;-;-;-;-
1514191587347;-;-;8.92009;-0.46788025;-2.7047577;-;-;-;-;-;-;-;-;-;-;-;-;-;-;-
1514191587368;-;-;8.873398;-0.5037842;-2.693985;-;-;-;-;-;-;-;-;-;-;-;-;-;-;-
1514191587388;-;-;8.880585;-0.54927063;-2.6676483;-;-;-;-;-;-;-;-;-;-;-;-;-;-;-
1514191587408;-;-;8.857834;-0.5528717;-2.6377258;-;-;-;-;-;-;-;-;-;-;-;-;-;-;-
1514191587429;-;-;8.874603;-0.51815796;-2.6688538;-;-;-;-;-;-;-;-;-;-;-;-;-;-;-
1514191587449;-;-;8.84227;-0.48942566;-2.7562408;-;-;-;-;-;-;-;-;-;-;-;-;-;-;-
1514191587469;-;-;8.891357;-0.5851898;-2.6808167;-;-;-;-;-;-;-;-;-;-;-;-;-;-;-
1514191587490;-;-;8.876999;-0.52293396;-2.6664581;-;-;-;-;-;-;-;-;-;-;-;-;-;-;-
1514191587510;-;-;8.885376;-0.4846344;-2.6568756;-;-;-;-;-;-;-;-;-;-;-;-;-;-;-
1514191587530;-;-;8.82193;-0.4559021;-2.6784363;-;-;-;-;-;-;-;-;-;-;-;-;-;-;-
1514191587550;-;-;8.832703;-0.5241394;-2.6927948;-;-;-;-;-;-;-;-;-;-;-;-;-;-;-
1514191587571;-;-;8.885376;-0.55766296;-2.7239227;-;-;-;-;-;-;-;-;-;-;-;-;-;-;-
1514191587590;-;-;8.903336;-0.58639526;-2.6868134;-;-;-;-;-;-;-;-;-;-;-;-;-;-;-
1514191587610;-;-;8.868607;-0.5061798;-2.6377258;-;-;-;-;-;-;-;-;-;-;-;-;-;-;-
1514191587631;-;-;8.856644;-0.56962585;-2.63414;-;-;-;-;-;-;-;-;-;-;-;-;-;-;-
1514191587651;-;-;8.868607;-0.4918213;-2.6676483;-;-;-;-;-;-;-;-;-;-;-;-;-;-;-
1514191587671;-;-;8.886566;-0.49421692;-2.6796265;-;-;-;-;-;-;-;-;-;-;-;-;-;-;-
1514191587692;-;-;8.876999;-0.5253296;-2.7107544;-;-;-;-;-;-;-;-;-;-;-;-;-;-;-
1514191587712;-;-;8.837494;-0.5600586;-2.6844177;-;-;-;-;-;-;-;-;-;-;-;-;-;-;-
1514191587732;-;-;8.869812;-0.5217438;-2.689209;-;-;-;-;-;-;-;-;-;-;-;-;-;-;-
1514191587753;-;-;8.861435;-0.56604004;-2.6784363;-;-;-;-;-;-;-;-;-;-;-;-;-;-;-
1514191587773;-;-;8.818329;-0.53730774;-2.670044;-;-;-;-;-;-;-;-;-;-;-;-;-;-;-
1514191587793;-;-;8.856644;-0.5361023;-2.685608;-;-;-;-;-;-;-;-;-;-;-;-;-;-;-
1514191587814;-;-;8.875793;-0.54689026;-2.7191315;-;-;-;-;-;-;-;-;-;-;-;-;-;-;-
1514191587834;-;-;8.884171;-0.50857544;-2.7011719;-;-;-;-;-;-;-;-;-;-;-;-;-;-;-
1514191587854;-;-;8.866211;-0.5253296;-2.7035675;-;-;-;-;-;-;-;-;-;-;-;-;-;-;-
1514191587874;-;-;8.884171;-0.56604004;-2.6413116;-;-;-;-;-;-;-;-;-;-;-;-;-;-;-
1514191587895;-;-;8.836288;-0.5049896;-2.6592712;-;-;-;-;-;-;-;-;-;-;-;-;-;-;-
1514191587915;-;-;8.869812;-0.49780273;-2.670044;-;-;-;-;-;-;-;-;-;-;-;-;-;-;-
1514191587935;-;-;8.827911;-0.5205536;-2.6449127;-;-;-;-;-;-;-;-;-;-;-;-;-;-;-
1514191587956;-;-;8.865021;-0.48104858;-2.6748352;-;-;-;-;-;-;-;-;-;-;-;-;-;-;-
1514191587976;-;-;8.908112;-0.5241394;-2.6963806;-;-;-;-;-;-;-;-;-;-;-;-;-;-;-
1514191587996;-;-;8.880585;-0.4918213;-2.6868134;-;-;-;-;-;-;-;-;-;-;-;-;-;-;-
1514191588016;-;-;8.914108;-0.50138855;-2.642517;-;-;-;-;-;-;-;-;-;-;-;-;-;-;-
1514191588037;-;-;8.885376;-0.5097656;-2.6784363;-;-;-;-;-;-;-;-;-;-;-;-;-;-;-
1514191588057;-;-;8.8602295;-0.46548462;-2.7035675;-;-;-;-;-;-;-;-;-;-;-;-;-;-;-
1514191588077;-;-;8.861435;-0.4738617;-2.670044;-;-;-;-;-;-;-;-;-;-;-;-;-;-;-
1514191588098;-;-;8.876999;-0.50019836;-2.6389313;-;-;-;-;-;-;-;-;-;-;-;-;-;-;-
1514191588118;-;-;8.903336;-0.45829773;-2.6353302;-;-;-;-;-;-;-;-;-;-;-;-;-;-;-
1514191588138;-;-;8.872208;-0.4882202;-2.6664581;-;-;-;-;-;-;-;-;-;-;-;-;-;-;-
1514191588159;-;-;8.854248;-0.47505188;-2.6532898;-;-;-;-;-;-;-;-;-;-;-;-;-;-;-
1514191588178;-;-;8.893753;-0.48223877;-2.5970306;-;-;-;-;-;-;-;-;-;-;-;-;-;-;-
1514191588198;-;-;8.813553;-0.45231628;-2.625763;-;-;-;-;-;-;-;-;-;-;-;-;-;-;-
1514191588218;-;-;8.84108;-0.50138855;-2.6628723;-;-;-;-;-;-;-;-;-;-;-;-;-;-;-
1514191588239;-;-;8.881775;-0.5205536;-2.6377258;-;-;-;-;-;-;-;-;-;-;-;-;-;-;-
1514191588258;-;-;8.948822;-0.50138855;-2.6640625;-;-;-;-;-;-;-;-;-;-;-;-;-;-;-
1514191588278;-;-;8.885376;-0.43554688;-2.6640625;-;-;-;-;-;-;-;-;-;-;-;-;-;-;-
1514191588299;-;-;8.8207245;-0.46188354;-2.665268;-;-;-;-;-;-;-;-;-;-;-;-;-;-;-
1514191588318;-;-;8.875793;-0.48942566;-2.6868134;-;-;-;-;-;-;-;-;-;-;-;-;-;-;-
1514191588338;-;-;8.881775;-0.5456848;-2.6329346;-;-;-;-;-;-;-;-;-;-;-;-;-;-;-
1514191588359;-;-;8.898544;-0.48582458;-2.6508942;-;-;-;-;-;-;-;-;-;-;-;-;-;-;-
1514191588378;-;-;8.881775;-0.53012085;-2.6221619;-;-;-;-;-;-;-;-;-;-;-;-;-;-;-
1514191588398;-;-;8.849457;-0.48582458;-2.6401215;-;-;-;-;-;-;-;-;-;-;-;-;-;-;-
1514191588419;-;-;8.84108;-0.46427917;-2.6401215;-;-;-;-;-;-;-;-;-;-;-;-;-;-;-
1514191588439;-;-;8.855438;-0.47505188;-2.6556854;-;-;-;-;-;-;-;-;-;-;-;-;-;-;-
1514191588459;-;-;8.848267;-0.50857544;-2.6664581;-;-;-;-;-;-;-;-;-;-;-;-;-;-;-
1514191588479;-;-;8.88298;-0.52893066;-2.6437073;-;-;-;-;-;-;-;-;-;-;-;-;-;-;-
1514191588500;-;-;8.88298;-0.49421692;-2.6449127;-;-;-;-;-;-;-;-;-;-;-;-;-;-;-
1514191588520;-;-;8.876999;-0.46427917;-2.6760406;-;-;-;-;-;-;-;-;-;-;-;-;-;-;-
1514191588540;-;-;8.855438;-0.4954071;-2.646103;-;-;-;-;-;-;-;-;-;-;-;-;-;-;-
1514191588561;-;-;8.857834;-0.4846344;-2.6748352;-;-;-;-;-;-;-;-;-;-;-;-;-;-;-
1514191588581;-;-;8.865021;-0.5217438;-2.6640625;-;-;-;-;-;-;-;-;-;-;-;-;-;-;-
1514191588602;-;-;8.892548;-0.5157623;-2.6880035;-;-;-;-;-;-;-;-;-;-;-;-;-;-;-
1514191588622;-;-;8.875793;-0.48942566;-2.6676483;-;-;-;-;-;-;-;-;-;-;-;-;-;-;-
1514191588641;-;-;8.869812;-0.48223877;-2.673645;-;-;-;-;-;-;-;-;-;-;-;-;-;-;-
1514191588661;-;-;8.844666;-0.5049896;-2.6197662;-;-;-;-;-;-;-;-;-;-;-;-;-;-;-
1514191588682;-;-;8.885376;-0.5217438;-2.6556854;-;-;-;-;-;-;-;-;-;-;-;-;-;-;-
1514191588701;-;-;8.872208;-0.54689026;-2.6532898;-;-;-;-;-;-;-;-;-;-;-;-;-;-;-
1514191588721;-;-;8.867416;-0.5504761;-2.63414;-;-;-;-;-;-;-;-;-;-;-;-;-;-;-
1514191588742;-;-;8.856644;-0.53730774;-2.6329346;-;-;-;-;-;-;-;-;-;-;-;-;-;-;-
1514191588762;-;-;8.880585;-0.51934814;-2.5994263;-;-;-;-;-;-;-;-;-;-;-;-;-;-;-
1514191588782;-;-;8.868607;-0.51934814;-2.610199;-;-;-;-;-;-;-;-;-;-;-;-;-;-;-
1514191588803;-;-;8.890167;-0.5145569;-2.646103;-;-;-;-;-;-;-;-;-;-;-;-;-;-;-
1514191588823;-;-;8.90094;-0.5061798;-2.6209717;-;-;-;-;-;-;-;-;-;-;-;-;-;-;-
1514191588843;-;-;8.90094;-0.5205536;-2.646103;-;-;-;-;-;-;-;-;-;-;-;-;-;-;-
1514191588863;-;-;8.874603;-0.542099;-2.6293488;-;-;-;-;-;-;-;-;-;-;-;-;-;-;-
1514191588884;-;-;8.886566;-0.51934814;-2.6113892;-;-;-;-;-;-;-;-;-;-;-;-;-;-;-
1514191588903;-;-;8.884171;-0.51216125;-2.567093;-;-;-;-;-;-;-;-;-;-;-;-;-;-;-
1514191588923;-;-;8.911713;-0.45948792;-2.6389313;-;-;-;-;-;-;-;-;-;-;-;-;-;-;-
1514191588944;-;-;8.874603;-0.47984314;-2.7263184;-;-;-;-;-;-;-;-;-;-;-;-;-;-;-
1514191588963;-;-;8.924881;-0.5349121;-2.649704;-;-;-;-;-;-;-;-;-;-;-;-;-;-;-
1514191588983;-;-;8.90094;-0.5756073;-2.5742798;-;-;-;-;-;-;-;-;-;-;-;-;-;-;-
1514191589004;-;-;8.897339;-0.4954071;-2.5922394;-;-;-;-;-;-;-;-;-;-;-;-;-;-;-
1514191589024;-;-;8.847061;-0.4379425;-2.606598;-;-;-;-;-;-;-;-;-;-;-;-;-;-;-
1514191589044;-;-;8.837494;-0.47027588;-2.5982208;-;-;-;-;-;-;-;-;-;-;-;-;-;-;-
1514191589064;-;-;8.912903;-0.5205536;-2.6377258;-;-;-;-;-;-;-;-;-;-;-;-;-;-;-
1514191589085;-;-;8.936844;-0.5241394;-2.6413116;-;-;-;-;-;-;-;-;-;-;-;-;-;-;-
1514191589105;-;-;8.912903;-0.43554688;-2.6281433;-;-;-;-;-;-;-;-;-;-;-;-;-;-;-
1514191589125;-;-;8.88298;-0.46188354;-2.5898438;-;-;-;-;-;-;-;-;-;-;-;-;-;-;-
1514191589146;-;-;8.861435;-0.45231628;-2.6161804;-;-;-;-;-;-;-;-;-;-;-;-;-;-;-
1514191589166;-;-;8.874603;-0.46188354;-2.6293488;-;-;-;-;-;-;-;-;-;-;-;-;-;-;-
1514191589186;-;-;8.855438;-0.42956543;-2.665268;-;-;-;-;-;-;-;-;-;-;-;-;-;-;-
1514191589207;-;-;8.869812;-0.4379425;-2.6293488;-;-;-;-;-;-;-;-;-;-;-;-;-;-;-
1514191589227;-;-;8.929672;-0.49301147;-2.6078033;-;-;-;-;-;-;-;-;-;-;-;-;-;-;-
1514191589247;-;-;8.8997345;-0.45829773;-2.6473083;-;-;-;-;-;-;-;-;-;-;-;-;-;-;-
1514191589268;-;-;8.843475;-0.4559021;-2.6293488;-;-;-;-;-;-;-;-;-;-;-;-;-;-;-
1514191589288;-;-;8.857834;-0.47027588;-2.6078033;-;-;-;-;-;-;-;-;-;-;-;-;-;-;-
1514191589308;-;-;8.845871;-0.47865295;-2.6233673;-;-;-;-;-;-;-;-;-;-;-;-;-;-;-
1514191589329;-;-;8.879379;-0.46788025;-2.6233673;-;-;-;-;-;-;-;-;-;-;-;-;-;-;-
1514191589348;-;-;8.893753;-0.43914795;-2.6293488;-;-;-;-;-;-;-;-;-;-;-;-;-;-;-
1514191589368;-;-;8.878189;-0.4487152;-2.6760406;-;-;-;-;-;-;-;-;-;-;-;-;-;-;-
1514191589389;-;-;8.903336;-0.43077087;-2.625763;-;-;-;-;-;-;-;-;-;-;-;-;-;-;-
1514191589408;-;-;8.896149;-0.4774475;-2.6329346;-;-;-;-;-;-;-;-;-;-;-;-;-;-;-
1514191589428;-;-;8.888962;-0.47265625;-2.6688538;-;-;-;-;-;-;-;-;-;-;-;-;-;-;-
1514191589448;-;-;8.906921;-0.463089;-2.625763;-;-;-;-;-;-;-;-;-;-;-;-;-;-;-
1514191589469;-;-;8.880585;-0.48942566;-2.6556854;-;-;-;-;-;-;-;-;-;-;-;-;-;-;-
1514191589489;-;-;8.90094;-0.5349121;-2.625763;-;-;-;-;-;-;-;-;-;-;-;-;-;-;-
1514191589509;-;-;8.90094;-0.5169525;-2.6089935;-;-;-;-;-;-;-;-;-;-;-;-;-;-;-
1514191589530;-;-;8.859039;-0.46548462;-2.6556854;-;-;-;-;-;-;-;-;-;-;-;-;-;-;-
1514191589550;-;-;8.887772;-0.46788025;-2.6365356;-;-;-;-;-;-;-;-;-;-;-;-;-;-;-
1514191589570;-;-;8.909317;-0.47505188;-2.6137848;-;-;-;-;-;-;-;-;-;-;-;-;-;-;-
1514191589591;-;-;8.869812;-0.48942566;-2.6245575;-;-;-;-;-;-;-;-;-;-;-;-;-;-;-
1514191589611;-;-;8.891357;-0.5157623;-2.6113892;-;-;-;-;-;-;-;-;-;-;-;-;-;-;-
1514191589631;-;-;8.874603;-0.43675232;-2.567093;-;-;-;-;-;-;-;-;-;-;-;-;-;-;-
1514191589652;-;-;8.905716;-0.43196106;-2.625763;-;-;-;-;-;-;-;-;-;-;-;-;-;-;-
1514191589672;-;-;8.854248;-0.44992065;-2.7167358;-;-;-;-;-;-;-;-;-;-;-;-;-;-;-
1514191589692;-;-;8.911713;-0.52293396;-2.6269531;-;-;-;-;-;-;-;-;-;-;-;-;-;-;-
1514191589713;-;-;8.88298;-0.5217438;-2.5970306;-;-;-;-;-;-;-;-;-;-;-;-;-;-;-
1514191589733;-;-;8.873398;-0.41160583;-2.5359802;-;-;-;-;-;-;-;-;-;-;-;-;-;-;-
1514191589753;-;-;8.843475;-0.4271698;-2.6353302;-;-;-;-;-;-;-;-;-;-;-;-;-;-;-
1514191589773;-;-;8.875793;-0.46069336;-2.6616669;-;-;-;-;-;-;-;-;-;-;-;-;-;-;-
1514191589794;-;-;8.915298;-0.48582458;-2.6592712;-;-;-;-;-;-;-;-;-;-;-;-;-;-;-
1514191589813;-;-;8.914108;-0.46069336;-2.646103;-;-;-;-;-;-;-;-;-;-;-;-;-;-;-
1514191589833;-;-;8.868607;-0.4559021;-2.6293488;-;-;-;-;-;-;-;-;-;-;-;-;-;-;-
1514191589853;-;-;8.838684;-0.463089;-2.5802612;-;-;-;-;-;-;-;-;-;-;-;-;-;-;-
1514191589874;-;-;8.826721;-0.4259796;-2.6078033;-;-;-;-;-;-;-;-;-;-;-;-;-;-;-
1514191589894;-;-;8.833893;-0.43315125;-2.625763;-;-;-;-;-;-;-;-;-;-;-;-;-;-;-
1514191589915;-;-;8.8051605;-0.4092102;-2.6161804;-;-;-;-;-;-;-;-;-;-;-;-;-;-;-
1514191589935;-;-;8.891357;-0.41160583;-2.6281433;-;-;-;-;-;-;-;-;-;-;-;-;-;-;-
1514191589955;-;-;8.908112;-0.41041565;-2.6556854;-;-;-;-;-;-;-;-;-;-;-;-;-;-;-
1514191589975;-;-;8.866211;-0.37928772;-2.5982208;-;-;-;-;-;-;-;-;-;-;-;-;-;-;-
1514191589996;-;-;8.83989;-0.41760254;-2.5982208;-;-;-;-;-;-;-;-;-;-;-;-;-;-;-
1514191590015;-;-;8.850662;-0.45231628;-2.6161804;-;-;-;-;-;-;-;-;-;-;-;-;-;-;-
1514191590035;-;-;8.90094;-0.42237854;-2.6377258;-;-;-;-;-;-;-;-;-;-;-;-;-;-;-
1514191590056;-;-;8.897339;-0.47146606;-2.6209717;-;-;-;-;-;-;-;-;-;-;-;-;-;-;-
1514191590076;-;-;8.92009;-0.43675232;-2.6772308;-;-;-;-;-;-;-;-;-;-;-;-;-;-;-
1514191590096;-;-;8.865021;-0.43315125;-2.6592712;-;-;-;-;-;-;-;-;-;-;-;-;-;-;-
1514191590116;-;-;8.892548;-0.41400146;-2.6197662;-;-;-;-;-;-;-;-;-;-;-;-;-;-;-
1514191590137;-;-;8.866211;-0.43077087;-2.65448;-;-;-;-;-;-;-;-;-;-;-;-;-;-;-
1514191590157;-;-;8.904526;-0.42837524;-2.6054077;-;-;-;-;-;-;-;-;-;-;-;-;-;-;-
1514191590177;-;-;8.903336;-0.42237854;-2.6197662;-;-;-;-;-;-;-;-;-;-;-;-;-;-;-
1514191590197;-;-;8.868607;-0.41041565;-2.6125946;-;-;-;-;-;-;-;-;-;-;-;-;-;-;-
1514191590218;-;-;8.857834;-0.4259796;-2.5898438;-;-;-;-;-;-;-;-;-;-;-;-;-;-;-
1514191590237;-;-;8.880585;-0.39245605;-2.618576;-;-;-;-;-;-;-;-;-;-;-;-;-;-;-
1514191590257;-;-;8.917694;-0.39245605;-2.5766754;-;-;-;-;-;-;-;-;-;-;-;-;-;-;-
