TimeStamp[ms];Prox[Cm];Lux[lux];AccX[m/s^2];AccY[m/s^2];AccZ[m/s^2];GyroX[rad/s];GyroY[rad/s];GyroZ[rad/s];MagnX[uT];MagnY[uT];MagnZ[uT];OrienYaw[degrees];OrienPitch[degrees];OrienRoll[degrees];Press[Pa];Temp[C°];Batt[%];Lat;Lng;Speed[m/s]
1514190294950;-;-;8.040222;-0.4044342;3.615921;-;-;-;-;-;-;-;-;-;-;-;-;-;-;-
1514190294953;-;-;7.9899445;-0.41999817;3.3884735;-;-;-;-;-;-;-;-;-;-;-;-;-;-;-
1514190294973;-;-;7.9516296;-0.66300964;3.4567108;-;-;-;-;-;-;-;-;-;-;-;-;-;-;-
1514190294994;-;-;8.368225;-0.72883606;3.5309296;-;-;-;-;-;-;-;-;-;-;-;-;-;-;-
1514190295014;-;-;8.914108;-0.39126587;3.8182373;-;-;-;-;-;-;-;-;-;-;-;-;-;-;-
1514190295034;-;-;9.002686;-0.2033081;3.540512;-;-;-;-;-;-;-;-;-;-;-;-;-;-;-
1514190295054;-;-;8.936844;-0.21409607;3.3010864;-;-;-;-;-;-;-;-;-;-;-;-;-;-;-
1514190295075;-;-;8.959595;-0.066848755;3.2328491;-;-;-;-;-;-;-;-;-;-;-;-;-;-;-
1514190295095;-;-;8.973953;0.048080444;3.279541;-;-;-;-;-;-;-;-;-;-;-;-;-;-;-
1514190295115;-;-;8.74292;0.086380005;3.1658173;-;-;-;-;-;-;-;-;-;-;-;-;-;-;-
1514190295136;-;-;8.387375;0.048080444;3.192154;-;-;-;-;-;-;-;-;-;-;-;-;-;-;-
1514190295156;-;-;8.371811;0.052871704;3.327423;-;-;-;-;-;-;-;-;-;-;-;-;-;-;-
1514190295177;-;-;8.42688;0.20010376;3.6841583;-;-;-;-;-;-;-;-;-;-;-;-;-;-;-
1514190295197;-;-;8.371811;0.3102417;3.7440186;-;-;-;-;-;-;-;-;-;-;-;-;-;-;-
1514190295218;-;-;8.299988;0.24679565;3.773941;-;-;-;-;-;-;-;-;-;-;-;-;-;-;-
1514190295238;-;-;8.383789;0.1953125;3.5895844;-;-;-;-;-;-;-;-;-;-;-;-;-;-;-
1514190295258;-;-;8.6423645;0.079193115;3.0149841;-;-;-;-;-;-;-;-;-;-;-;-;-;-;-
1514190295279;-;-;9.182251;0.1953125;2.611557;-;-;-;-;-;-;-;-;-;-;-;-;-;-;-
1514190295298;-;-;8.96199;0.117507935;2.1111755;-;-;-;-;-;-;-;-;-;-;-;-;-;-;-
1514190295318;-;-;8.629196;-0.04888916;1.45755;-;-;-;-;-;-;-;-;-;-;-;-;-;-;-
1514190295338;-;-;8.845871;-0.14346313;1.4898834;-;-;-;-;-;-;-;-;-;-;-;-;-;-;-
1514190295359;-;-;8.474762;-0.08958435;0.28918457;-;-;-;-;-;-;-;-;-;-;-;-;-;-;-
1514190295379;-;-;10.385345;1.367279;0.012649536;-;-;-;-;-;-;-;-;-;-;-;-;-;-;-
1514190295400;-;-;9.048172;3.0851135;-0.46499634;-;-;-;-;-;-;-;-;-;-;-;-;-;-;-
1514190295420;-;-;7.8331146;3.0982819;-1.629776;-;-;-;-;-;-;-;-;-;-;-;-;-;-;-
1514190295440;-;-;9.7413025;1.1589813;-0.3189392;-;-;-;-;-;-;-;-;-;-;-;-;-;-;-
1514190295461;-;-;9.768829;0.34735107;-0.4817505;-;-;-;-;-;-;-;-;-;-;-;-;-;-;-
1514190295481;-;-;8.787216;0.3102417;-0.18247986;-;-;-;-;-;-;-;-;-;-;-;-;-;-;-
1514190295501;-;-;8.623199;0.27911377;-0.45541382;-;-;-;-;-;-;-;-;-;-;-;-;-;-;-
1514190295521;-;-;8.826721;0.32580566;-0.061569214;-;-;-;-;-;-;-;-;-;-;-;-;-;-;-
1514190295542;-;-;9.825104;-0.047698975;-0.38838196;-;-;-;-;-;-;-;-;-;-;-;-;-;-;-
1514190295562;-;-;9.045776;0.2013092;-0.67448425;-;-;-;-;-;-;-;-;-;-;-;-;-;-;-
1514190295582;-;-;9.343857;0.4658661;-0.43026733;-;-;-;-;-;-;-;-;-;-;-;-;-;-;-
1514190295603;-;-;7.995926;0.73161316;-0.7786255;-;-;-;-;-;-;-;-;-;-;-;-;-;-;-
1514190295624;-;-;9.627579;2.5188904;-1.5208282;-;-;-;-;-;-;-;-;-;-;-;-;-;-;-
1514190295643;-;-;12.206131;1.1901093;-1.8919373;-;-;-;-;-;-;-;-;-;-;-;-;-;-;-
1514190295664;-;-;12.453934;-0.1530304;-2.5323792;-;-;-;-;-;-;-;-;-;-;-;-;-;-;-
1514190295684;-;-;11.684189;-0.0045928955;-2.6520996;-;-;-;-;-;-;-;-;-;-;-;-;-;-;-
1514190295704;-;-;9.744888;-0.16261292;-2.389923;-;-;-;-;-;-;-;-;-;-;-;-;-;-;-
1514190295725;-;-;9.242111;-0.74679565;-2.8819427;-;-;-;-;-;-;-;-;-;-;-;-;-;-;-
1514190295745;-;-;6.6467896;-1.6996918;-2.828064;-;-;-;-;-;-;-;-;-;-;-;-;-;-;-
1514190295765;-;-;6.60849;-2.5831451;-3.468521;-;-;-;-;-;-;-;-;-;-;-;-;-;-;-
1514190295786;-;-;7.0933075;-2.7387695;-2.9932709;-;-;-;-;-;-;-;-;-;-;-;-;-;-;-
1514190295806;-;-;8.650742;-1.0556488;-3.097412;-;-;-;-;-;-;-;-;-;-;-;-;-;-;-
1514190295827;-;-;10.089661;0.42636108;-3.5726624;-;-;-;-;-;-;-;-;-;-;-;-;-;-;-
1514190295847;-;-;10.76123;0.6897278;-1.9601746;-;-;-;-;-;-;-;-;-;-;-;-;-;-;-
1514190295867;-;-;10.526596;-0.4056244;-2.0427704;-;-;-;-;-;-;-;-;-;-;-;-;-;-;-
1514190295887;-;-;10.816299;-1.878067;-1.6333618;-;-;-;-;-;-;-;-;-;-;-;-;-;-;-
1514190295908;-;-;8.987122;-1.8397522;-1.7913818;-;-;-;-;-;-;-;-;-;-;-;-;-;-;-
1514190295928;-;-;7.344696;-1.7427826;-1.7961731;-;-;-;-;-;-;-;-;-;-;-;-;-;-;-
1514190295948;-;-;7.406952;-1.5392761;-1.104248;-;-;-;-;-;-;-;-;-;-;-;-;-;-;-
1514190295968;-;-;5.747772;-1.2627563;-1.4537964;-;-;-;-;-;-;-;-;-;-;-;-;-;-;-
1514190295989;-;-;6.877838;-1.7607422;-1.8488312;-;-;-;-;-;-;-;-;-;-;-;-;-;-;-
1514190296009;-;-;6.7401733;-1.4554901;-1.3089447;-;-;-;-;-;-;-;-;-;-;-;-;-;-;-
1514190296029;-;-;7.6272125;-1.7092743;-0.49971008;-;-;-;-;-;-;-;-;-;-;-;-;-;-;-
1514190296050;-;-;8.553772;-1.6374359;-0.6948395;-;-;-;-;-;-;-;-;-;-;-;-;-;-;-
1514190296070;-;-;8.780029;-1.0089569;-1.219162;-;-;-;-;-;-;-;-;-;-;-;-;-;-;-
1514190296090;-;-;8.527435;-0.6007538;-1.1856384;-;-;-;-;-;-;-;-;-;-;-;-;-;-;-
1514190296111;-;-;9.037399;-0.6522217;-1.4789276;-;-;-;-;-;-;-;-;-;-;-;-;-;-;-
1514190296131;-;-;9.050568;-0.7767334;-1.7279358;-;-;-;-;-;-;-;-;-;-;-;-;-;-;-
1514190296151;-;-;9.667084;-0.625885;-1.4897003;-;-;-;-;-;-;-;-;-;-;-;-;-;-;-
1514190296171;-;-;10.149506;0.29467773;-0.48773193;-;-;-;-;-;-;-;-;-;-;-;-;-;-;-
1514190296192;-;-;10.810303;-0.29071045;-0.46499634;-;-;-;-;-;-;-;-;-;-;-;-;-;-;-
1514190296213;-;-;10.449982;-0.74679565;-1.9326324;-;-;-;-;-;-;-;-;-;-;-;-;-;-;-
1514190296232;-;-;10.404495;-0.680954;-5.0043945;-;-;-;-;-;-;-;-;-;-;-;-;-;-;-
1514190296253;-;-;10.988678;-1.3716888;-5.9369354;-;-;-;-;-;-;-;-;-;-;-;-;-;-;-
1514190296273;-;-;9.734116;-1.5392761;-3.5559082;-;-;-;-;-;-;-;-;-;-;-;-;-;-;-
1514190296293;-;-;8.647156;-1.4099884;-1.5040741;-;-;-;-;-;-;-;-;-;-;-;-;-;-;-
1514190296314;-;-;7.8211517;-0.6713867;-2.4438019;-;-;-;-;-;-;-;-;-;-;-;-;-;-;-
1514190296334;-;-;8.668701;-0.17578125;-2.7430725;-;-;-;-;-;-;-;-;-;-;-;-;-;-;-
1514190296354;-;-;10.654694;-0.24043274;-2.7789917;-;-;-;-;-;-;-;-;-;-;-;-;-;-;-
1514190296374;-;-;13.907211;-2.6717377;-3.322464;-;-;-;-;-;-;-;-;-;-;-;-;-;-;-
1514190296395;-;-;14.360916;-1.1621857;-1.2490845;-;-;-;-;-;-;-;-;-;-;-;-;-;-;-
1514190296416;-;-;14.618286;-0.51216125;-2.9358063;-;-;-;-;-;-;-;-;-;-;-;-;-;-;-
1514190296436;-;-;10.616379;-0.39006042;-1.4980927;-;-;-;-;-;-;-;-;-;-;-;-;-;-;-
1514190296456;-;-;4.229843;0.5987396;-0.99890137;-;-;-;-;-;-;-;-;-;-;-;-;-;-;-
1514190296477;-;-;2.5694733;-0.2787323;-0.11903381;-;-;-;-;-;-;-;-;-;-;-;-;-;-;-
1514190296497;-;-;2.53714;-0.54689026;0.74528503;-;-;-;-;-;-;-;-;-;-;-;-;-;-;-
1514190296517;-;-;2.786148;-0.9945984;0.5058594;-;-;-;-;-;-;-;-;-;-;-;-;-;-;-
1514190296537;-;-;3.7234802;-0.7336273;-1.6118164;-;-;-;-;-;-;-;-;-;-;-;-;-;-;-
1514190296558;-;-;6.3690643;-0.44154358;0.4184723;-;-;-;-;-;-;-;-;-;-;-;-;-;-;-
1514190296579;-;-;4.2190704;0.12588501;-0.372818;-;-;-;-;-;-;-;-;-;-;-;-;-;-;-
1514190296599;-;-;7.4763794;-0.60194397;2.4679108;-;-;-;-;-;-;-;-;-;-;-;-;-;-;-
1514190296618;-;-;11.272385;-0.08001709;-5.903412;-;-;-;-;-;-;-;-;-;-;-;-;-;-;-
1514190296638;-;-;9.185837;0.46347046;-1.5723114;-;-;-;-;-;-;-;-;-;-;-;-;-;-;-
1514190296658;-;-;8.692642;-2.320984;-4.2370605;-;-;-;-;-;-;-;-;-;-;-;-;-;-;-
1514190296679;-;-;7.1088715;-0.51815796;-0.53082275;-;-;-;-;-;-;-;-;-;-;-;-;-;-;-
1514190296699;-;-;7.217804;0.86808777;0.113204956;-;-;-;-;-;-;-;-;-;-;-;-;-;-;-
1514190296719;-;-;8.131195;1.114685;-1.0108643;-;-;-;-;-;-;-;-;-;-;-;-;-;-;-
1514190296740;-;-;7.8546753;0.9925842;-1.2203674;-;-;-;-;-;-;-;-;-;-;-;-;-;-;-
1514190296760;-;-;7.5673676;0.9111786;-2.230713;-;-;-;-;-;-;-;-;-;-;-;-;-;-;-
1514190296780;-;-;8.294006;0.30186462;-0.03881836;-;-;-;-;-;-;-;-;-;-;-;-;-;-;-
1514190296801;-;-;8.222183;-2.0229034;-0.7451172;-;-;-;-;-;-;-;-;-;-;-;-;-;-;-
1514190296821;-;-;7.142395;-3.179306;-4.832016;-;-;-;-;-;-;-;-;-;-;-;-;-;-;-
1514190296841;-;-;7.3375244;-3.8101807;-7.282486;-;-;-;-;-;-;-;-;-;-;-;-;-;-;-
1514190296861;-;-;15.694489;-6.709564;-2.0164337;-;-;-;-;-;-;-;-;-;-;-;-;-;-;-
1514190296882;-;-;18.541183;-4.6960297;1.2265167;-;-;-;-;-;-;-;-;-;-;-;-;-;-;-
1514190296902;-;-;18.173676;-2.1294556;-1.4514008;-;-;-;-;-;-;-;-;-;-;-;-;-;-;-
1514190296922;-;-;14.8289795;-2.104309;-0.75109863;-;-;-;-;-;-;-;-;-;-;-;-;-;-;-
1514190296943;-;-;13.593567;-2.6717377;1.5222015;-;-;-;-;-;-;-;-;-;-;-;-;-;-;-
1514190296963;-;-;9.081696;-2.9195404;0.6746521;-;-;-;-;-;-;-;-;-;-;-;-;-;-;-
1514190296983;-;-;8.349075;-2.6418152;0.048568726;-;-;-;-;-;-;-;-;-;-;-;-;-;-;-
1514190297003;-;-;9.285202;-2.8572845;-0.49971008;-;-;-;-;-;-;-;-;-;-;-;-;-;-;-
1514190297024;-;-;8.643555;-2.0971222;-0.34527588;-;-;-;-;-;-;-;-;-;-;-;-;-;-;-
1514190297044;-;-;8.471176;-1.2807007;0.4902954;-;-;-;-;-;-;-;-;-;-;-;-;-;-;-
1514190297064;-;-;8.623199;-1.3070374;-0.3548584;-;-;-;-;-;-;-;-;-;-;-;-;-;-;-
1514190297085;-;-;7.3147736;-1.5392761;0.6136017;-;-;-;-;-;-;-;-;-;-;-;-;-;-;-
1514190297105;-;-;7.222595;-1.3166199;2.211731;-;-;-;-;-;-;-;-;-;-;-;-;-;-;-
1514190297125;-;-;6.6228485;-1.6051178;0.8554077;-;-;-;-;-;-;-;-;-;-;-;-;-;-;-
1514190297145;-;-;7.4991302;-2.2575378;1.0194092;-;-;-;-;-;-;-;-;-;-;-;-;-;-;-
1514190297166;-;-;8.050995;-1.9702301;0.27482605;-;-;-;-;-;-;-;-;-;-;-;-;-;-;-
1514190297186;-;-;7.9743805;-1.9091797;-0.16931152;-;-;-;-;-;-;-;-;-;-;-;-;-;-;-
1514190297206;-;-;7.6176453;-2.001358;0.3430481;-;-;-;-;-;-;-;-;-;-;-;-;-;-;-
1514190297227;-;-;7.660736;-2.0660095;0.03300476;-;-;-;-;-;-;-;-;-;-;-;-;-;-;-
1514190297247;-;-;7.4572296;-2.001358;-0.11064148;-;-;-;-;-;-;-;-;-;-;-;-;-;-;-
1514190297267;-;-;7.9468384;-1.6817322;1.073288;-;-;-;-;-;-;-;-;-;-;-;-;-;-;-
1514190297287;-;-;7.4596252;-1.249588;1.4814911;-;-;-;-;-;-;-;-;-;-;-;-;-;-;-
1514190297308;-;-;6.790451;-1.4578705;1.2061615;-;-;-;-;-;-;-;-;-;-;-;-;-;-;-
1514190297327;-;-;7.451248;-1.783493;0.7907715;-;-;-;-;-;-;-;-;-;-;-;-;-;-;-
1514190297347;-;-;7.885788;-1.803833;1.6371155;-;-;-;-;-;-;-;-;-;-;-;-;-;-;-
1514190297367;-;-;8.295197;-1.7571564;0.8266754;-;-;-;-;-;-;-;-;-;-;-;-;-;-;-
1514190297388;-;-;8.581314;-1.8648987;-1.5292053;-;-;-;-;-;-;-;-;-;-;-;-;-;-;-
1514190297408;-;-;8.4687805;-1.1645813;-3.1428986;-;-;-;-;-;-;-;-;-;-;-;-;-;-;-
1514190297428;-;-;9.576096;0.05406189;-1.8859406;-;-;-;-;-;-;-;-;-;-;-;-;-;-;-
1514190297448;-;-;10.341049;1.4738159;-0.7475128;-;-;-;-;-;-;-;-;-;-;-;-;-;-;-
1514190297469;-;-;13.76236;1.7132416;-3.080658;-;-;-;-;-;-;-;-;-;-;-;-;-;-;-
1514190297488;-;-;17.75589;1.5073395;-0.49371338;-;-;-;-;-;-;-;-;-;-;-;-;-;-;-
1514190297508;-;-;19.344437;0.47903442;-0.24232483;-;-;-;-;-;-;-;-;-;-;-;-;-;-;-
1514190297529;-;-;18.624985;-1.2986603;-0.50808716;-;-;-;-;-;-;-;-;-;-;-;-;-;-;-
1514190297549;-;-;12.342606;-0.45231628;-0.21598816;-;-;-;-;-;-;-;-;-;-;-;-;-;-;-
1514190297569;-;-;8.303574;-0.6031494;0.41607666;-;-;-;-;-;-;-;-;-;-;-;-;-;-;-
1514190297590;-;-;6.189499;-0.4774475;0.44599915;-;-;-;-;-;-;-;-;-;-;-;-;-;-;-
1514190297610;-;-;6.378647;-0.0440979;1.1894073;-;-;-;-;-;-;-;-;-;-;-;-;-;-;-
1514190297630;-;-;5.2581635;0.11869812;1.2420807;-;-;-;-;-;-;-;-;-;-;-;-;-;-;-
1514190297651;-;-;5.9069824;0.107925415;1.0361786;-;-;-;-;-;-;-;-;-;-;-;-;-;-;-
1514190297671;-;-;5.8195953;0.44432068;1.0242004;-;-;-;-;-;-;-;-;-;-;-;-;-;-;-
1514190297691;-;-;6.5091248;0.33776855;1.0780792;-;-;-;-;-;-;-;-;-;-;-;-;-;-;-
1514190297711;-;-;8.396957;-0.16021729;1.2097473;-;-;-;-;-;-;-;-;-;-;-;-;-;-;-
1514190297732;-;-;8.40773;-0.076416016;0.7428894;-;-;-;-;-;-;-;-;-;-;-;-;-;-;-
1514190297753;-;-;8.259293;-0.02734375;0.54655457;-;-;-;-;-;-;-;-;-;-;-;-;-;-;-
1514190297774;-;-;8.083313;-0.23803711;0.6171875;-;-;-;-;-;-;-;-;-;-;-;-;-;-;-
1514190297795;-;-;7.5470123;-0.21647644;0.32389832;-;-;-;-;-;-;-;-;-;-;-;-;-;-;-
1514190297815;-;-;7.715805;-0.04170227;1.5377655;-;-;-;-;-;-;-;-;-;-;-;-;-;-;-
1514190297836;-;-;7.653549;0.11869812;2.2392578;-;-;-;-;-;-;-;-;-;-;-;-;-;-;-
1514190297856;-;-;7.4799805;0.31263733;1.3186951;-;-;-;-;-;-;-;-;-;-;-;-;-;-;-
1514190297876;-;-;7.332733;0.8525238;-0.2854309;-;-;-;-;-;-;-;-;-;-;-;-;-;-;-
1514190297897;-;-;8.5238495;0.5376892;-0.5535736;-;-;-;-;-;-;-;-;-;-;-;-;-;-;-
1514190297916;-;-;8.26767;0.91596985;0.41249084;-;-;-;-;-;-;-;-;-;-;-;-;-;-;-
1514190297936;-;-;8.647156;0.71006775;0.21138;-;-;-;-;-;-;-;-;-;-;-;-;-;-;-
1514190297957;-;-;8.630386;0.70529175;-1.0779114;-;-;-;-;-;-;-;-;-;-;-;-;-;-;-
1514190297977;-;-;8.898544;0.7364044;-0.709198;-;-;-;-;-;-;-;-;-;-;-;-;-;-;-
1514190297997;-;-;8.60405;0.35572815;0.99427795;-;-;-;-;-;-;-;-;-;-;-;-;-;-;-
1514190298017;-;-;8.97995;-0.80067444;-0.6218109;-;-;-;-;-;-;-;-;-;-;-;-;-;-;-
1514190298038;-;-;9.123596;-0.9550934;-4.8152466;-;-;-;-;-;-;-;-;-;-;-;-;-;-;-
1514190298058;-;-;9.9986725;-1.1095276;-4.6524506;-;-;-;-;-;-;-;-;-;-;-;-;-;-;-
1514190298078;-;-;11.782349;-2.9375;-2.546753;-;-;-;-;-;-;-;-;-;-;-;-;-;-;-
1514190298099;-;-;11.408859;-3.6880798;-3.8491974;-;-;-;-;-;-;-;-;-;-;-;-;-;-;-
1514190298120;-;-;13.040512;-3.8125763;-3.025589;-;-;-;-;-;-;-;-;-;-;-;-;-;-;-
1514190298139;-;-;17.800186;-5.095871;-1.4442139;-;-;-;-;-;-;-;-;-;-;-;-;-;-;-
1514190298159;-;-;17.907928;-3.3061981;0.20658875;-;-;-;-;-;-;-;-;-;-;-;-;-;-;-
1514190298179;-;-;15.386826;-3.649765;0.06173706;-;-;-;-;-;-;-;-;-;-;-;-;-;-;-
1514190298200;-;-;11.107193;-1.210083;-0.34527588;-;-;-;-;-;-;-;-;-;-;-;-;-;-;-
1514190298220;-;-;7.4416656;-0.44033813;-1.2251434;-;-;-;-;-;-;-;-;-;-;-;-;-;-;-
1514190298241;-;-;6.376251;0.3509369;-0.6888428;-;-;-;-;-;-;-;-;-;-;-;-;-;-;-
1514190298261;-;-;7.83432;-0.40203857;0.24369812;-;-;-;-;-;-;-;-;-;-;-;-;-;-;-
1514190298281;-;-;8.475967;-1.076004;0.2736206;-;-;-;-;-;-;-;-;-;-;-;-;-;-;-
1514190298301;-;-;8.323929;-0.89404297;-0.3656311;-;-;-;-;-;-;-;-;-;-;-;-;-;-;-
1514190298322;-;-;8.164719;-1.2579651;-0.55477905;-;-;-;-;-;-;-;-;-;-;-;-;-;-;-
1514190298342;-;-;7.7648926;-1.0317078;0.760849;-;-;-;-;-;-;-;-;-;-;-;-;-;-;-
1514190298362;-;-;7.5314484;-1.214859;0.99069214;-;-;-;-;-;-;-;-;-;-;-;-;-;-;-
1514190298383;-;-;8.422089;-1.906784;-0.047195435;-;-;-;-;-;-;-;-;-;-;-;-;-;-;-
1514190298403;-;-;8.623199;-2.1916962;-0.32373047;-;-;-;-;-;-;-;-;-;-;-;-;-;-;-
1514190298423;-;-;9.431244;-1.9175568;0.16229248;-;-;-;-;-;-;-;-;-;-;-;-;-;-;-
1514190298444;-;-;9.718552;-1.6925049;0.21736145;-;-;-;-;-;-;-;-;-;-;-;-;-;-;-
1514190298464;-;-;8.966782;-1.2016907;-0.5535736;-;-;-;-;-;-;-;-;-;-;-;-;-;-;-
1514190298484;-;-;9.837067;-1.175354;-0.9402313;-;-;-;-;-;-;-;-;-;-;-;-;-;-;-
1514190298504;-;-;10.057327;-0.9838257;-0.9055176;-;-;-;-;-;-;-;-;-;-;-;-;-;-;-
1514190298525;-;-;9.816711;-0.73243713;-0.7953949;-;-;-;-;-;-;-;-;-;-;-;-;-;-;-
1514190298544;-;-;9.758057;-0.7096863;-0.37161255;-;-;-;-;-;-;-;-;-;-;-;-;-;-;-
1514190298564;-;-;9.738907;-0.75398254;-0.2794342;-;-;-;-;-;-;-;-;-;-;-;-;-;-;-
1514190298585;-;-;9.781998;-0.5648346;0.31671143;-;-;-;-;-;-;-;-;-;-;-;-;-;-;-
1514190298604;-;-;9.661087;-0.55526733;0.44241333;-;-;-;-;-;-;-;-;-;-;-;-;-;-;-
1514190298625;-;-;9.148727;-0.31584167;0.27122498;-;-;-;-;-;-;-;-;-;-;-;-;-;-;-
1514190298646;-;-;8.750107;-0.1985321;0.27482605;-;-;-;-;-;-;-;-;-;-;-;-;-;-;-
1514190298666;-;-;8.514267;-0.31704712;0.46875;-;-;-;-;-;-;-;-;-;-;-;-;-;-;-
1514190298686;-;-;8.623199;-0.5361023;0.31072998;-;-;-;-;-;-;-;-;-;-;-;-;-;-;-
1514190298707;-;-;9.014664;-0.8425598;0.26643372;-;-;-;-;-;-;-;-;-;-;-;-;-;-;-
1514190298727;-;-;9.536591;-1.1502228;0.9212494;-;-;-;-;-;-;-;-;-;-;-;-;-;-;-
1514190298747;-;-;9.325912;-0.8988342;0.57289124;-;-;-;-;-;-;-;-;-;-;-;-;-;-;-
1514190298767;-;-;9.137955;-0.77911377;0.64352417;-;-;-;-;-;-;-;-;-;-;-;-;-;-;-
1514190298788;-;-;9.594055;-0.5277252;0.7548523;-;-;-;-;-;-;-;-;-;-;-;-;-;-;-
1514190298808;-;-;9.3893585;-0.107543945;0.57528687;-;-;-;-;-;-;-;-;-;-;-;-;-;-;-
1514190298828;-;-;9.230133;0.25875854;0.24728394;-;-;-;-;-;-;-;-;-;-;-;-;-;-;-
1514190298849;-;-;8.942825;0.20968628;-0.2866211;-;-;-;-;-;-;-;-;-;-;-;-;-;-;-
1514190298869;-;-;9.115219;0.15342712;0.8482361;-;-;-;-;-;-;-;-;-;-;-;-;-;-;-
1514190298889;-;-;9.550964;0.05166626;0.63035583;-;-;-;-;-;-;-;-;-;-;-;-;-;-;-
1514190298910;-;-;8.043808;0.59394836;-1.1856384;-;-;-;-;-;-;-;-;-;-;-;-;-;-;-
1514190298930;-;-;8.205414;0.3892517;-0.84088135;-;-;-;-;-;-;-;-;-;-;-;-;-;-;-
1514190298951;-;-;9.604828;-0.46907043;1.0696869;-;-;-;-;-;-;-;-;-;-;-;-;-;-;-
1514190298970;-;-;9.360626;-1.6889191;2.2524261;-;-;-;-;-;-;-;-;-;-;-;-;-;-;-
1514190298991;-;-;9.7017975;-1.7727203;1.8956909;-;-;-;-;-;-;-;-;-;-;-;-;-;-;-
1514190299010;-;-;8.344284;-1.0137482;0.98350525;-;-;-;-;-;-;-;-;-;-;-;-;-;-;-
1514190299031;-;-;8.334702;-0.32302856;0.74168396;-;-;-;-;-;-;-;-;-;-;-;-;-;-;-
1514190299050;-;-;8.308365;-0.43315125;2.6390991;-;-;-;-;-;-;-;-;-;-;-;-;-;-;-
1514190299070;-;-;9.321121;-1.1598053;2.5145874;-;-;-;-;-;-;-;-;-;-;-;-;-;-;-
1514190299090;-;-;7.818756;-0.39126587;-2.5455475;-;-;-;-;-;-;-;-;-;-;-;-;-;-;-
1514190299111;-;-;6.415756;0.8010559;-1.9062958;-;-;-;-;-;-;-;-;-;-;-;-;-;-;-
1514190299131;-;-;11.550125;-3.1685333;8.464188;-;-;-;-;-;-;-;-;-;-;-;-;-;-;-
1514190299151;-;-;11.812286;-2.6561737;13.229843;-;-;-;-;-;-;-;-;-;-;-;-;-;-;-
1514190299172;-;-;9.8203125;-5.361618;-13.9599;-;-;-;-;-;-;-;-;-;-;-;-;-;-;-
1514190299192;-;-;9.135559;-2.009735;6.0568085;-;-;-;-;-;-;-;-;-;-;-;-;-;-;-
1514190299212;-;-;6.2002716;-0.33259583;-3.5499115;-;-;-;-;-;-;-;-;-;-;-;-;-;-;-
1514190299233;-;-;7.4105377;-1.3668976;-0.5176544;-;-;-;-;-;-;-;-;-;-;-;-;-;-;-
1514190299253;-;-;8.732147;-2.2156372;2.572052;-;-;-;-;-;-;-;-;-;-;-;-;-;-;-
1514190299273;-;-;8.564545;-1.5488586;0.29756165;-;-;-;-;-;-;-;-;-;-;-;-;-;-;-
1514190299294;-;-;6.9113464;0.22164917;0.8697815;-;-;-;-;-;-;-;-;-;-;-;-;-;-;-
1514190299314;-;-;5.960861;0.9004059;-0.18606567;-;-;-;-;-;-;-;-;-;-;-;-;-;-;-
1514190299334;-;-;7.174713;-0.21647644;0.5010681;-;-;-;-;-;-;-;-;-;-;-;-;-;-;-
1514190299355;-;-;7.727768;-0.7767334;0.7249298;-;-;-;-;-;-;-;-;-;-;-;-;-;-;-
1514190299374;-;-;5.8160095;0.4119873;2.4942474;-;-;-;-;-;-;-;-;-;-;-;-;-;-;-
1514190299395;-;-;6.7174225;-0.16261292;0.28918457;-;-;-;-;-;-;-;-;-;-;-;-;-;-;-
1514190299415;-;-;9.847839;-1.9989624;-0.69721985;-;-;-;-;-;-;-;-;-;-;-;-;-;-;-
1514190299436;-;-;7.5865173;-1.5380859;0.15270996;-;-;-;-;-;-;-;-;-;-;-;-;-;-;-
1514190299456;-;-;7.9899445;-2.1857147;0.6746521;-;-;-;-;-;-;-;-;-;-;-;-;-;-;-
1514190299476;-;-;7.9995117;-2.1414185;-0.9809418;-;-;-;-;-;-;-;-;-;-;-;-;-;-;-
1514190299497;-;-;7.679886;-0.9539032;-2.8747559;-;-;-;-;-;-;-;-;-;-;-;-;-;-;-
1514190299517;-;-;5.9141693;-0.22007751;-6.5019684;-;-;-;-;-;-;-;-;-;-;-;-;-;-;-
1514190299537;-;-;9.675461;2.0436401;-4.2095184;-;-;-;-;-;-;-;-;-;-;-;-;-;-;-
1514190299557;-;-;11.235275;0.96984863;-1.9553833;-;-;-;-;-;-;-;-;-;-;-;-;-;-;-
1514190299578;-;-;12.7939;2.8002167;-0.42668152;-;-;-;-;-;-;-;-;-;-;-;-;-;-;-
1514190299598;-;-;18.573517;0.7292328;-2.057129;-;-;-;-;-;-;-;-;-;-;-;-;-;-;-
1514190299618;-;-;20.062698;1.4642487;-5.211487;-;-;-;-;-;-;-;-;-;-;-;-;-;-;-
1514190299639;-;-;21.05629;1.3768616;-3.638504;-;-;-;-;-;-;-;-;-;-;-;-;-;-;-
1514190299660;-;-;18.76744;-0.680954;-3.1261444;-;-;-;-;-;-;-;-;-;-;-;-;-;-;-
1514190299680;-;-;10.676239;-1.5871582;-3.274582;-;-;-;-;-;-;-;-;-;-;-;-;-;-;-
1514190299700;-;-;4.561447;0.29109192;-1.7171631;-;-;-;-;-;-;-;-;-;-;-;-;-;-;-
1514190299721;-;-;1.1868134;1.0380707;0.028213501;-;-;-;-;-;-;-;-;-;-;-;-;-;-;-
1514190299741;-;-;-1.1702728;2.512909;0.0856781;-;-;-;-;-;-;-;-;-;-;-;-;-;-;-
1514190299761;-;-;0.32369995;1.5971222;1.8370361;-;-;-;-;-;-;-;-;-;-;-;-;-;-;-
1514190299781;-;-;4.833191;-0.21409607;0.94400024;-;-;-;-;-;-;-;-;-;-;-;-;-;-;-
1514190299801;-;-;7.9121246;-1.2675323;0.06413269;-;-;-;-;-;-;-;-;-;-;-;-;-;-;-
1514190299822;-;-;8.782425;-0.59835815;-0.827713;-;-;-;-;-;-;-;-;-;-;-;-;-;-;-
1514190299842;-;-;8.635178;0.23960876;-1.4095001;-;-;-;-;-;-;-;-;-;-;-;-;-;-;-
1514190299862;-;-;8.472366;0.98301697;-1.9015045;-;-;-;-;-;-;-;-;-;-;-;-;-;-;-
1514190299883;-;-;9.518631;0.58078;-0.7606659;-;-;-;-;-;-;-;-;-;-;-;-;-;-;-
1514190299903;-;-;10.862976;-0.22366333;-0.55955505;-;-;-;-;-;-;-;-;-;-;-;-;-;-;-
1514190299924;-;-;10.005859;-0.6294861;-1.7315216;-;-;-;-;-;-;-;-;-;-;-;-;-;-;-
1514190299944;-;-;9.674255;-1.1203003;-1.0360107;-;-;-;-;-;-;-;-;-;-;-;-;-;-;-
1514190299964;-;-;8.370621;-0.64505005;0.009063721;-;-;-;-;-;-;-;-;-;-;-;-;-;-;-
1514190299984;-;-;7.8211517;0.062438965;0.43403625;-;-;-;-;-;-;-;-;-;-;-;-;-;-;-
1514190300005;-;-;7.066971;0.22045898;-0.15374756;-;-;-;-;-;-;-;-;-;-;-;-;-;-;-
1514190300026;-;-;7.003525;0.12948608;-0.34648132;-;-;-;-;-;-;-;-;-;-;-;-;-;-;-
1514190300046;-;-;7.463211;0.07321167;0.009063721;-;-;-;-;-;-;-;-;-;-;-;-;-;-;-
1514190300066;-;-;4.9947968;0.18574524;-1.7147675;-;-;-;-;-;-;-;-;-;-;-;-;-;-;-
1514190300087;-;-;4.6141205;-0.41879272;-3.1716309;-;-;-;-;-;-;-;-;-;-;-;-;-;-;-
1514190300107;-;-;3.5115814;-0.67378235;-4.2921143;-;-;-;-;-;-;-;-;-;-;-;-;-;-;-
1514190300127;-;-;6.632431;-0.90122986;-3.199173;-;-;-;-;-;-;-;-;-;-;-;-;-;-;-
1514190300148;-;-;11.1610565;-3.1924744;-3.9473572;-;-;-;-;-;-;-;-;-;-;-;-;-;-;-
1514190300168;-;-;21.542313;-2.6094818;-5.646042;-;-;-;-;-;-;-;-;-;-;-;-;-;-;-
1514190300188;-;-;25.076157;-3.0488281;-3.4457703;-;-;-;-;-;-;-;-;-;-;-;-;-;-;-
1514190300208;-;-;26.704224;-6.2295227;-5.602951;-;-;-;-;-;-;-;-;-;-;-;-;-;-;-
1514190300229;-;-;24.016724;-3.9406586;-1.48732;-;-;-;-;-;-;-;-;-;-;-;-;-;-;-
1514190300250;-;-;13.757568;0.87646484;1.7927399;-;-;-;-;-;-;-;-;-;-;-;-;-;-;-
1514190300270;-;-;8.528641;1.7000732;0.30833435;-;-;-;-;-;-;-;-;-;-;-;-;-;-;-
1514190300290;-;-;0.37397766;0.71606445;-1.4023132;-;-;-;-;-;-;-;-;-;-;-;-;-;-;-
1514190300311;-;-;1.4549713;0.8585205;-0.5332184;-;-;-;-;-;-;-;-;-;-;-;-;-;-;-
1514190300330;-;-;3.5068054;-0.1877594;-1.1461334;-;-;-;-;-;-;-;-;-;-;-;-;-;-;-
1514190300350;-;-;5.521515;-1.234024;-0.4338684;-;-;-;-;-;-;-;-;-;-;-;-;-;-;-
1514190300370;-;-;6.005142;-1.6147003;-1.4693604;-;-;-;-;-;-;-;-;-;-;-;-;-;-;-
1514190300391;-;-;5.7369995;-1.4470978;-1.432251;-;-;-;-;-;-;-;-;-;-;-;-;-;-;-
1514190300412;-;-;4.9313507;-1.2483826;-1.7195587;-;-;-;-;-;-;-;-;-;-;-;-;-;-;-
1514190300432;-;-;3.9892273;-1.1107178;-3.1177673;-;-;-;-;-;-;-;-;-;-;-;-;-;-;-
1514190300452;-;-;4.9911957;-1.4794312;-1.6441345;-;-;-;-;-;-;-;-;-;-;-;-;-;-;-
1514190300472;-;-;7.00473;-2.5448456;-0.58828735;-;-;-;-;-;-;-;-;-;-;-;-;-;-;-
1514190300492;-;-;6.4301147;-2.2599335;0.73809814;-;-;-;-;-;-;-;-;-;-;-;-;-;-;-
1514190300513;-;-;7.063385;-2.1785278;1.0625153;-;-;-;-;-;-;-;-;-;-;-;-;-;-;-
1514190300533;-;-;8.5082855;-2.2096558;0.1539154;-;-;-;-;-;-;-;-;-;-;-;-;-;-;-
1514190300553;-;-;8.710602;-1.2172546;1.3019257;-;-;-;-;-;-;-;-;-;-;-;-;-;-;-
1514190300574;-;-;8.420898;-0.76834106;0.6387329;-;-;-;-;-;-;-;-;-;-;-;-;-;-;-
1514190300594;-;-;8.045013;-0.7013092;0.2616577;-;-;-;-;-;-;-;-;-;-;-;-;-;-;-
1514190300614;-;-;5.447296;-1.2376099;-2.488083;-;-;-;-;-;-;-;-;-;-;-;-;-;-;-
1514190300635;-;-;5.1432343;-3.0320587;-6.776108;-;-;-;-;-;-;-;-;-;-;-;-;-;-;-
1514190300655;-;-;10.787567;0.20010376;-3.7606049;-;-;-;-;-;-;-;-;-;-;-;-;-;-;-
1514190300675;-;-;13.763565;3.750702;-1.447815;-;-;-;-;-;-;-;-;-;-;-;-;-;-;-
1514190300696;-;-;17.437454;5.2315216;-4.508789;-;-;-;-;-;-;-;-;-;-;-;-;-;-;-
1514190300716;-;-;23.406204;6.046753;-8.817169;-;-;-;-;-;-;-;-;-;-;-;-;-;-;-
1514190300736;-;-;31.485443;2.6326141;-2.8544006;-;-;-;-;-;-;-;-;-;-;-;-;-;-;-
1514190300757;-;-;24.287277;-3.613861;-3.4038696;-;-;-;-;-;-;-;-;-;-;-;-;-;-;-
1514190300778;-;-;8.455612;-3.325348;-1.5052643;-;-;-;-;-;-;-;-;-;-;-;-;-;-;-
1514190300797;-;-;4.3735046;-1.9367218;-1.1605072;-;-;-;-;-;-;-;-;-;-;-;-;-;-;-
1514190300817;-;-;0.87677;0.7795105;-0.7522888;-;-;-;-;-;-;-;-;-;-;-;-;-;-;-
1514190300838;-;-;-0.45082092;1.9095612;0.06652832;-;-;-;-;-;-;-;-;-;-;-;-;-;-;-
1514190300858;-;-;0.421875;0.70887756;0.99069214;-;-;-;-;-;-;-;-;-;-;-;-;-;-;-
1514190300878;-;-;5.3623047;-1.2471924;1.7233124;-;-;-;-;-;-;-;-;-;-;-;-;-;-;-
1514190300898;-;-;7.667923;-1.6553955;1.0852509;-;-;-;-;-;-;-;-;-;-;-;-;-;-;-
1514190300918;-;-;7.209427;-1.2316284;-0.19085693;-;-;-;-;-;-;-;-;-;-;-;-;-;-;-
1514190300938;-;-;5.7800903;-0.27514648;-0.84207153;-;-;-;-;-;-;-;-;-;-;-;-;-;-;-
1514190300958;-;-;5.042679;0.48382568;-1.0910797;-;-;-;-;-;-;-;-;-;-;-;-;-;-;-
1514190300979;-;-;5.708267;0.64183044;-1.0132599;-;-;-;-;-;-;-;-;-;-;-;-;-;-;-
1514190300999;-;-;7.61644;0.9171753;-1.4657593;-;-;-;-;-;-;-;-;-;-;-;-;-;-;-
1514190301020;-;-;6.961624;2.370453;-1.9398193;-;-;-;-;-;-;-;-;-;-;-;-;-;-;-
1514190301039;-;-;6.6982727;4.273834;-1.447815;-;-;-;-;-;-;-;-;-;-;-;-;-;-;-
1514190301059;-;-;7.1806946;4.2989807;-3.5978088;-;-;-;-;-;-;-;-;-;-;-;-;-;-;-
1514190301080;-;-;6.8287506;2.0795593;-3.8887024;-;-;-;-;-;-;-;-;-;-;-;-;-;-;-
1514190301099;-;-;7.059799;0.7723236;-1.4382324;-;-;-;-;-;-;-;-;-;-;-;-;-;-;-
1514190301120;-;-;7.550598;0.73760986;-2.6628723;-;-;-;-;-;-;-;-;-;-;-;-;-;-;-
1514190301140;-;-;6.8323517;0.4359436;-4.362747;-;-;-;-;-;-;-;-;-;-;-;-;-;-;-
1514190301160;-;-;8.095291;-1.5093536;-2.859192;-;-;-;-;-;-;-;-;-;-;-;-;-;-;-
1514190301181;-;-;9.221756;-4.7259674;-1.6728668;-;-;-;-;-;-;-;-;-;-;-;-;-;-;-
1514190301201;-;-;16.277466;-6.689209;-3.3978882;-;-;-;-;-;-;-;-;-;-;-;-;-;-;-
1514190301221;-;-;25.36586;-6.611389;2.3865051;-;-;-;-;-;-;-;-;-;-;-;-;-;-;-
1514190301242;-;-;28.28798;-4.9318695;-3.1141663;-;-;-;-;-;-;-;-;-;-;-;-;-;-;-
1514190301264;-;-;24.208267;-0.55766296;-0.93185425;-;-;-;-;-;-;-;-;-;-;-;-;-;-;-
1514190301284;-;-;14.274719;1.1206818;0.171875;-;-;-;-;-;-;-;-;-;-;-;-;-;-;-
1514190301304;-;-;4.8044586;1.9658356;-1.0431824;-;-;-;-;-;-;-;-;-;-;-;-;-;-;-
1514190301325;-;-;0.40151978;1.3229828;0.35144043;-;-;-;-;-;-;-;-;-;-;-;-;-;-;-
1514190301345;-;-;4.81044;-0.8868561;-0.33450317;-;-;-;-;-;-;-;-;-;-;-;-;-;-;-
1514190301365;-;-;9.80954;-1.170578;-0.34648132;-;-;-;-;-;-;-;-;-;-;-;-;-;-;-
1514190301386;-;-;11.020996;-1.661377;-0.75109863;-;-;-;-;-;-;-;-;-;-;-;-;-;-;-
1514190301405;-;-;8.72377;-2.4023895;-0.4159088;-;-;-;-;-;-;-;-;-;-;-;-;-;-;-
1514190301425;-;-;6.0422516;-2.3114166;0.10482788;-;-;-;-;-;-;-;-;-;-;-;-;-;-;-
1514190301446;-;-;4.865509;-2.3473206;-0.08192444;-;-;-;-;-;-;-;-;-;-;-;-;-;-;-
1514190301466;-;-;5.430542;-2.9111633;-1.1162109;-;-;-;-;-;-;-;-;-;-;-;-;-;-;-
1514190301486;-;-;5.0378876;-2.9171448;-1.3089447;-;-;-;-;-;-;-;-;-;-;-;-;-;-;-
1514190301506;-;-;3.3846893;-1.7499695;-0.827713;-;-;-;-;-;-;-;-;-;-;-;-;-;-;-
1514190301527;-;-;3.6253052;-1.0688171;-0.3045807;-;-;-;-;-;-;-;-;-;-;-;-;-;-;-
1514190301547;-;-;6.3774414;-1.5919495;0.65071106;-;-;-;-;-;-;-;-;-;-;-;-;-;-;-
1514190301567;-;-;7.580536;-2.613083;0.978714;-;-;-;-;-;-;-;-;-;-;-;-;-;-;-
1514190301587;-;-;7.8833923;-3.3660583;0.06652832;-;-;-;-;-;-;-;-;-;-;-;-;-;-;-
1514190301608;-;-;9.171478;-2.7567291;-0.5284424;-;-;-;-;-;-;-;-;-;-;-;-;-;-;-
1514190301628;-;-;8.386185;-1.5572357;-0.45899963;-;-;-;-;-;-;-;-;-;-;-;-;-;-;-
1514190301648;-;-;7.396179;-1.2160645;-1.3089447;-;-;-;-;-;-;-;-;-;-;-;-;-;-;-
1514190301669;-;-;5.0091553;-2.5244904;-6.400223;-;-;-;-;-;-;-;-;-;-;-;-;-;-;-
1514190301689;-;-;5.9381104;-0.9431305;-6.6432343;-;-;-;-;-;-;-;-;-;-;-;-;-;-;-
1514190301708;-;-;9.234924;1.8018341;-4.227478;-;-;-;-;-;-;-;-;-;-;-;-;-;-;-
1514190301728;-;-;12.652649;6.794937;-4.4860535;-;-;-;-;-;-;-;-;-;-;-;-;-;-;-
1514190301748;-;-;15.299438;6.6141815;-2.3935242;-;-;-;-;-;-;-;-;-;-;-;-;-;-;-
1514190301769;-;-;18.58429;3.6106415;-3.3751373;-;-;-;-;-;-;-;-;-;-;-;-;-;-;-
1514190301788;-;-;24.786469;2.4554443;-4.3842926;-;-;-;-;-;-;-;-;-;-;-;-;-;-;-
1514190301808;-;-;27.429657;-0.9431305;-2.570694;-;-;-;-;-;-;-;-;-;-;-;-;-;-;-
1514190301829;-;-;17.594284;-2.1653595;-0.99650574;-;-;-;-;-;-;-;-;-;-;-;-;-;-;-
1514190301849;-;-;9.640747;-2.4335175;-0.7115936;-;-;-;-;-;-;-;-;-;-;-;-;-;-;-
1514190301869;-;-;5.1049347;-1.6829376;-0.82650757;-;-;-;-;-;-;-;-;-;-;-;-;-;-;-
1514190301890;-;-;1.8955078;-1.0652313;-1.3328857;-;-;-;-;-;-;-;-;-;-;-;-;-;-;-
1514190301910;-;-;-0.18745422;-1.4698486;-1.7650452;-;-;-;-;-;-;-;-;-;-;-;-;-;-;-
1514190301930;-;-;0.79655457;-1.0149536;0.30714417;-;-;-;-;-;-;-;-;-;-;-;-;-;-;-
1514190301950;-;-;6.189499;0.095962524;0.7249298;-;-;-;-;-;-;-;-;-;-;-;-;-;-;-
1514190301971;-;-;6.2517548;1.1482086;-0.590683;-;-;-;-;-;-;-;-;-;-;-;-;-;-;-
1514190301990;-;-;4.125702;1.7551422;-1.6441345;-;-;-;-;-;-;-;-;-;-;-;-;-;-;-
1514190302010;-;-;4.9349365;1.2379913;-1.2598572;-;-;-;-;-;-;-;-;-;-;-;-;-;-;-
1514190302031;-;-;7.8750153;0.6143036;-1.4813232;-;-;-;-;-;-;-;-;-;-;-;-;-;-;-
1514190302051;-;-;9.207397;0.8561249;-1.5483704;-;-;-;-;-;-;-;-;-;-;-;-;-;-;-
1514190302071;-;-;10.070496;1.101532;-0.78341675;-;-;-;-;-;-;-;-;-;-;-;-;-;-;-
1514190302092;-;-;10.050156;1.5025482;0.69859314;-;-;-;-;-;-;-;-;-;-;-;-;-;-;-
1514190302111;-;-;8.885376;1.6964874;-0.3620453;-;-;-;-;-;-;-;-;-;-;-;-;-;-;-
1514190302131;-;-;7.35907;2.0879364;-2.06073;-;-;-;-;-;-;-;-;-;-;-;-;-;-;-
1514190302151;-;-;6.952057;2.5188904;-1.0419922;-;-;-;-;-;-;-;-;-;-;-;-;-;-;-
1514190302171;-;-;7.91333;1.4893799;1.0062408;-;-;-;-;-;-;-;-;-;-;-;-;-;-;-
1514190302192;-;-;9.25647;-0.07762146;1.9399872;-;-;-;-;-;-;-;-;-;-;-;-;-;-;-
1514190302212;-;-;9.683838;-0.9251709;1.820282;-;-;-;-;-;-;-;-;-;-;-;-;-;-;-
1514190302232;-;-;8.456802;-1.0771942;-3.322464;-;-;-;-;-;-;-;-;-;-;-;-;-;-;-
1514190302252;-;-;7.2824554;-1.5907593;-5.7585754;-;-;-;-;-;-;-;-;-;-;-;-;-;-;-
1514190302273;-;-;9.355835;-2.432312;-7.286072;-;-;-;-;-;-;-;-;-;-;-;-;-;-;-
1514190302293;-;-;12.3545685;-4.285431;-4.184387;-;-;-;-;-;-;-;-;-;-;-;-;-;-;-
1514190302313;-;-;14.520126;-5.942215;-2.3037415;-;-;-;-;-;-;-;-;-;-;-;-;-;-;-
1514190302333;-;-;15.6549835;-5.727936;-4.804474;-;-;-;-;-;-;-;-;-;-;-;-;-;-;-
1514190302354;-;-;19.786179;-2.890808;-4.5530853;-;-;-;-;-;-;-;-;-;-;-;-;-;-;-
1514190302374;-;-;21.675201;0.23123169;-3.867157;-;-;-;-;-;-;-;-;-;-;-;-;-;-;-
1514190302394;-;-;15.513718;1.3301697;-3.8348236;-;-;-;-;-;-;-;-;-;-;-;-;-;-;-
1514190302415;-;-;9.877762;0.7244415;-2.5694885;-;-;-;-;-;-;-;-;-;-;-;-;-;-;-
1514190302435;-;-;6.4325104;-0.7276459;-1.6884308;-;-;-;-;-;-;-;-;-;-;-;-;-;-;-
1514190302455;-;-;5.2677307;-1.7032776;-1.1605072;-;-;-;-;-;-;-;-;-;-;-;-;-;-;-
1514190302475;-;-;4.1436615;-0.9898071;-1.0707245;-;-;-;-;-;-;-;-;-;-;-;-;-;-;-
1514190302496;-;-;3.5475006;-0.58039856;-1.1832428;-;-;-;-;-;-;-;-;-;-;-;-;-;-;-
1514190302516;-;-;3.4756775;-0.99220276;-0.669693;-;-;-;-;-;-;-;-;-;-;-;-;-;-;-
1514190302536;-;-;5.1516113;-1.3609161;0.26045227;-;-;-;-;-;-;-;-;-;-;-;-;-;-;-
1514190302557;-;-;6.4648285;-0.8473511;-0.27824402;-;-;-;-;-;-;-;-;-;-;-;-;-;-;-
1514190302577;-;-;7.3135834;-0.6797638;-0.37161255;-;-;-;-;-;-;-;-;-;-;-;-;-;-;-
1514190302597;-;-;8.070145;-1.3297882;-0.47216797;-;-;-;-;-;-;-;-;-;-;-;-;-;-;-
1514190302617;-;-;9.048172;-2.5376587;-1.0982513;-;-;-;-;-;-;-;-;-;-;-;-;-;-;-
1514190302638;-;-;9.963959;-3.7718658;-1.579483;-;-;-;-;-;-;-;-;-;-;-;-;-;-;-
1514190302658;-;-;11.298721;-3.407959;0.9918823;-;-;-;-;-;-;-;-;-;-;-;-;-;-;-
1514190302678;-;-;11.9236145;-1.9869995;1.8741455;-;-;-;-;-;-;-;-;-;-;-;-;-;-;-
1514190302699;-;-;11.076065;-1.0879669;1.1642609;-;-;-;-;-;-;-;-;-;-;-;-;-;-;-
1514190302719;-;-;10.135147;-0.7515869;-1.4334412;-;-;-;-;-;-;-;-;-;-;-;-;-;-;-
1514190302739;-;-;8.83989;-1.5380859;-6.026718;-;-;-;-;-;-;-;-;-;-;-;-;-;-;-
1514190302760;-;-;9.360626;-2.2922516;-10.080109;-;-;-;-;-;-;-;-;-;-;-;-;-;-;-
1514190302780;-;-;8.892548;-0.68814087;-8.039047;-;-;-;-;-;-;-;-;-;-;-;-;-;-;-
1514190302800;-;-;8.984726;1.0368805;-4.9217987;-;-;-;-;-;-;-;-;-;-;-;-;-;-;-
1514190302820;-;-;11.615952;-0.8198242;-1.6130066;-;-;-;-;-;-;-;-;-;-;-;-;-;-;-
1514190302841;-;-;14.024521;-4.26268;-3.4373932;-;-;-;-;-;-;-;-;-;-;-;-;-;-;-
1514190302861;-;-;16.743149;-6.0750885;-4.298111;-;-;-;-;-;-;-;-;-;-;-;-;-;-;-
1514190302881;-;-;14.284302;-5.200012;-4.499222;-;-;-;-;-;-;-;-;-;-;-;-;-;-;-
1514190302902;-;-;9.254074;-2.2276154;-3.144104;-;-;-;-;-;-;-;-;-;-;-;-;-;-;-
1514190302922;-;-;6.9149475;-0.3876648;-2.820877;-;-;-;-;-;-;-;-;-;-;-;-;-;-;-
1514190302942;-;-;4.351944;0.05166626;-3.0399475;-;-;-;-;-;-;-;-;-;-;-;-;-;-;-
1514190302963;-;-;1.9218292;0.34136963;-3.247055;-;-;-;-;-;-;-;-;-;-;-;-;-;-;-
1514190302982;-;-;1.7147369;-0.085998535;-3.5870209;-;-;-;-;-;-;-;-;-;-;-;-;-;-;-
1514190303002;-;-;4.3220215;-0.7384186;-4.8978577;-;-;-;-;-;-;-;-;-;-;-;-;-;-;-
1514190303022;-;-;9.303162;-0.03453064;-4.2454376;-;-;-;-;-;-;-;-;-;-;-;-;-;-;-
1514190303043;-;-;12.379715;1.1494141;-4.125717;-;-;-;-;-;-;-;-;-;-;-;-;-;-;-
1514190303063;-;-;11.320282;1.6857147;-4.4142303;-;-;-;-;-;-;-;-;-;-;-;-;-;-;-
1514190303083;-;-;7.8594513;2.3249664;-4.2478333;-;-;-;-;-;-;-;-;-;-;-;-;-;-;-
1514190303104;-;-;6.5163116;2.5775452;-3.3990784;-;-;-;-;-;-;-;-;-;-;-;-;-;-;-
1514190303124;-;-;6.6707306;2.1908875;-2.6401215;-;-;-;-;-;-;-;-;-;-;-;-;-;-;-
1514190303144;-;-;7.178299;1.2667236;-2.7430725;-;-;-;-;-;-;-;-;-;-;-;-;-;-;-
1514190303165;-;-;8.054581;0.4407196;-2.71315;-;-;-;-;-;-;-;-;-;-;-;-;-;-;-
1514190303184;-;-;8.577713;0.80584717;-2.7789917;-;-;-;-;-;-;-;-;-;-;-;-;-;-;-
1514190303205;-;-;9.134369;2.2315826;-2.4138641;-;-;-;-;-;-;-;-;-;-;-;-;-;-;-
1514190303225;-;-;9.027832;2.9187164;-1.7315216;-;-;-;-;-;-;-;-;-;-;-;-;-;-;-
1514190303245;-;-;8.499908;1.7946472;-1.7087708;-;-;-;-;-;-;-;-;-;-;-;-;-;-;-
1514190303265;-;-;8.361038;0.596344;-1.2754211;-;-;-;-;-;-;-;-;-;-;-;-;-;-;-
1514190303286;-;-;8.422089;-0.0010070801;0.44960022;-;-;-;-;-;-;-;-;-;-;-;-;-;-;-
1514190303306;-;-;9.257675;-0.6989136;0.49627686;-;-;-;-;-;-;-;-;-;-;-;-;-;-;-
1514190303326;-;-;11.382523;-1.1238861;-4.028763;-;-;-;-;-;-;-;-;-;-;-;-;-;-;-
1514190303346;-;-;12.826233;-1.8864441;-6.8826447;-;-;-;-;-;-;-;-;-;-;-;-;-;-;-
1514190303367;-;-;14.39682;-1.2819061;-7.252548;-;-;-;-;-;-;-;-;-;-;-;-;-;-;-
1514190303387;-;-;10.570892;-0.55166626;-5.93454;-;-;-;-;-;-;-;-;-;-;-;-;-;-;-
1514190303407;-;-;7.798401;-2.0612183;-4.0119934;-;-;-;-;-;-;-;-;-;-;-;-;-;-;-
1514190303427;-;-;5.3850555;-3.2080383;-3.5798492;-;-;-;-;-;-;-;-;-;-;-;-;-;-;-
1514190303448;-;-;4.47406;-2.739975;-4.4381714;-;-;-;-;-;-;-;-;-;-;-;-;-;-;-
1514190303468;-;-;6.7102356;-1.1370544;-5.041504;-;-;-;-;-;-;-;-;-;-;-;-;-;-;-
1514190303488;-;-;10.503845;-0.17219543;-4.464508;-;-;-;-;-;-;-;-;-;-;-;-;-;-;-
1514190303509;-;-;11.539337;0.21566772;-4.507599;-;-;-;-;-;-;-;-;-;-;-;-;-;-;-
1514190303529;-;-;10.641525;-0.19613647;-4.950531;-;-;-;-;-;-;-;-;-;-;-;-;-;-;-
1514190303549;-;-;9.070923;-1.0448761;-4.0012207;-;-;-;-;-;-;-;-;-;-;-;-;-;-;-
1514190303570;-;-;8.125214;-1.5943451;-3.662445;-;-;-;-;-;-;-;-;-;-;-;-;-;-;-
1514190303590;-;-;6.9352875;-1.6972961;-3.5104065;-;-;-;-;-;-;-;-;-;-;-;-;-;-;-
1514190303611;-;-;6.202667;-1.3824615;-2.922638;-;-;-;-;-;-;-;-;-;-;-;-;-;-;-
1514190303632;-;-;5.8160095;-0.85095215;-2.7083588;-;-;-;-;-;-;-;-;-;-;-;-;-;-;-
1514190303651;-;-;6.0458527;-0.57681274;-2.579071;-;-;-;-;-;-;-;-;-;-;-;-;-;-;-
1514190303671;-;-;6.074585;-0.39006042;-2.4701385;-;-;-;-;-;-;-;-;-;-;-;-;-;-;-
1514190303692;-;-;6.059021;-0.093185425;-2.1457214;-;-;-;-;-;-;-;-;-;-;-;-;-;-;-
1514190303712;-;-;7.0969086;0.16659546;-1.8332825;-;-;-;-;-;-;-;-;-;-;-;-;-;-;-
1514190303732;-;-;8.522644;0.08039856;-1.753067;-;-;-;-;-;-;-;-;-;-;-;-;-;-;-
1514190303752;-;-;9.7017975;0.37487793;-1.8931274;-;-;-;-;-;-;-;-;-;-;-;-;-;-;-
1514190303773;-;-;10.025009;0.8309784;-1.8248901;-;-;-;-;-;-;-;-;-;-;-;-;-;-;-
1514190303793;-;-;10.132751;1.0141296;-1.243103;-;-;-;-;-;-;-;-;-;-;-;-;-;-;-
1514190303813;-;-;10.008255;0.45988464;-1.3448639;-;-;-;-;-;-;-;-;-;-;-;-;-;-;-
1514190303833;-;-;9.529419;-0.4487152;-2.5036469;-;-;-;-;-;-;-;-;-;-;-;-;-;-;-
1514190303854;-;-;9.388153;-1.4327393;-0.412323;-;-;-;-;-;-;-;-;-;-;-;-;-;-;-
1514190303874;-;-;9.728134;-1.6901093;0.9380188;-;-;-;-;-;-;-;-;-;-;-;-;-;-;-
1514190303894;-;-;10.9384;-1.8026428;-0.20162964;-;-;-;-;-;-;-;-;-;-;-;-;-;-;-
1514190303915;-;-;10.767212;-2.3030243;-3.4469604;-;-;-;-;-;-;-;-;-;-;-;-;-;-;-
1514190303935;-;-;9.116409;-3.2068481;-7.864273;-;-;-;-;-;-;-;-;-;-;-;-;-;-;-
1514190303955;-;-;7.469208;-3.266693;-7.7349854;-;-;-;-;-;-;-;-;-;-;-;-;-;-;-
1514190303976;-;-;6.92572;-0.9790344;-7.333954;-;-;-;-;-;-;-;-;-;-;-;-;-;-;-
1514190303996;-;-;7.442871;2.4123535;-5.721466;-;-;-;-;-;-;-;-;-;-;-;-;-;-;-
1514190304016;-;-;9.29718;1.2332001;-5.0427094;-;-;-;-;-;-;-;-;-;-;-;-;-;-;-
1514190304036;-;-;13.508575;-3.4941406;-4.330429;-;-;-;-;-;-;-;-;-;-;-;-;-;-;-
1514190304057;-;-;17.035233;-5.028824;-4.334015;-;-;-;-;-;-;-;-;-;-;-;-;-;-;-
1514190304077;-;-;14.709274;-2.736374;-3.614563;-;-;-;-;-;-;-;-;-;-;-;-;-;-;-
1514190304097;-;-;10.004654;-0.5528717;-2.9034882;-;-;-;-;-;-;-;-;-;-;-;-;-;-;-
1514190304118;-;-;6.771286;0.11392212;-1.5471649;-;-;-;-;-;-;-;-;-;-;-;-;-;-;-
1514190304137;-;-;4.122101;0.39164734;-1.618988;-;-;-;-;-;-;-;-;-;-;-;-;-;-;-
1514190304157;-;-;2.7813568;0.29467773;-2.4976654;-;-;-;-;-;-;-;-;-;-;-;-;-;-;-
1514190304178;-;-;2.2450562;0.052871704;-2.725113;-;-;-;-;-;-;-;-;-;-;-;-;-;-;-
1514190304198;-;-;4.3363953;0.012161255;-1.9637604;-;-;-;-;-;-;-;-;-;-;-;-;-;-;-
1514190304218;-;-;7.715805;0.21566772;-1.3580322;-;-;-;-;-;-;-;-;-;-;-;-;-;-;-
1514190304238;-;-;9.941208;-0.41879272;-1.7207489;-;-;-;-;-;-;-;-;-;-;-;-;-;-;-
1514190304258;-;-;8.562149;-0.8760834;-1.9936829;-;-;-;-;-;-;-;-;-;-;-;-;-;-;-
1514190304279;-;-;6.245758;-1.0017853;-1.3101501;-;-;-;-;-;-;-;-;-;-;-;-;-;-;-
1514190304300;-;-;4.039505;-0.4559021;-0.67448425;-;-;-;-;-;-;-;-;-;-;-;-;-;-;-
1514190304320;-;-;4.007187;0.22164917;-0.2064209;-;-;-;-;-;-;-;-;-;-;-;-;-;-;-
1514190304340;-;-;5.781296;0.5460663;-0.17289734;-;-;-;-;-;-;-;-;-;-;-;-;-;-;-
1514190304361;-;-;7.5003204;0.25038147;-1.188034;-;-;-;-;-;-;-;-;-;-;-;-;-;-;-
1514190304381;-;-;8.849457;-0.047698975;-1.9733429;-;-;-;-;-;-;-;-;-;-;-;-;-;-;-
1514190304401;-;-;9.561737;-0.33021545;-2.954956;-;-;-;-;-;-;-;-;-;-;-;-;-;-;-
1514190304422;-;-;9.351044;-0.057266235;-2.65448;-;-;-;-;-;-;-;-;-;-;-;-;-;-;-
1514190304443;-;-;9.419281;-0.1590271;-1.7207489;-;-;-;-;-;-;-;-;-;-;-;-;-;-;-
1514190304464;-;-;8.463989;0.02532959;-2.0738983;-;-;-;-;-;-;-;-;-;-;-;-;-;-;-
1514190304483;-;-;7.082535;0.7519684;-3.6720276;-;-;-;-;-;-;-;-;-;-;-;-;-;-;-
1514190304503;-;-;7.0370483;1.1793365;-3.7342682;-;-;-;-;-;-;-;-;-;-;-;-;-;-;-
1514190304524;-;-;6.3738556;1.1278534;-5.750183;-;-;-;-;-;-;-;-;-;-;-;-;-;-;-
1514190304544;-;-;5.276108;-0.76116943;-7.223816;-;-;-;-;-;-;-;-;-;-;-;-;-;-;-
1514190304564;-;-;8.317947;-2.945877;-4.911026;-;-;-;-;-;-;-;-;-;-;-;-;-;-;-
1514190304584;-;-;14.141846;-4.866028;-4.244232;-;-;-;-;-;-;-;-;-;-;-;-;-;-;-
1514190304605;-;-;19.429443;-4.8923645;-4.089813;-;-;-;-;-;-;-;-;-;-;-;-;-;-;-
1514190304625;-;-;22.22467;-2.3652802;-5.2689514;-;-;-;-;-;-;-;-;-;-;-;-;-;-;-
1514190304646;-;-;22.762161;-0.80426025;-3.2697906;-;-;-;-;-;-;-;-;-;-;-;-;-;-;-
1514190304666;-;-;15.607086;-1.2388;-2.2163544;-;-;-;-;-;-;-;-;-;-;-;-;-;-;-
1514190304686;-;-;9.692215;-1.3896484;-0.8959503;-;-;-;-;-;-;-;-;-;-;-;-;-;-;-
1514190304706;-;-;5.313217;-1.5033722;-0.5332184;-;-;-;-;-;-;-;-;-;-;-;-;-;-;-
1514190304727;-;-;1.991272;-1.867279;-0.7846222;-;-;-;-;-;-;-;-;-;-;-;-;-;-;-
1514190304747;-;-;-0.10964966;-2.3281708;-0.74272156;-;-;-;-;-;-;-;-;-;-;-;-;-;-;-
1514190304767;-;-;1.9721222;-2.1809235;-1.0779114;-;-;-;-;-;-;-;-;-;-;-;-;-;-;-
1514190304788;-;-;5.368286;-1.4075928;-1.7698364;-;-;-;-;-;-;-;-;-;-;-;-;-;-;-
1514190304808;-;-;7.295624;-0.37091064;-2.6676483;-;-;-;-;-;-;-;-;-;-;-;-;-;-;-
1514190304828;-;-;8.910507;0.5053711;-2.9082794;-;-;-;-;-;-;-;-;-;-;-;-;-;-;-
1514190304848;-;-;9.164291;0.6957092;-2.6293488;-;-;-;-;-;-;-;-;-;-;-;-;-;-;-
1514190304869;-;-;9.039795;0.04927063;-2.642517;-;-;-;-;-;-;-;-;-;-;-;-;-;-;-
1514190304889;-;-;8.288025;-1.3273926;-2.3803558;-;-;-;-;-;-;-;-;-;-;-;-;-;-;-
1514190304909;-;-;7.5362396;-1.9750214;-0.8887634;-;-;-;-;-;-;-;-;-;-;-;-;-;-;-
1514190304930;-;-;7.585327;-2.1067047;0.89012146;-;-;-;-;-;-;-;-;-;-;-;-;-;-;-
1514190304950;-;-;7.712219;-2.4311218;1.2025757;-;-;-;-;-;-;-;-;-;-;-;-;-;-;-
1514190304970;-;-;7.4213104;-2.377243;0.5381775;-;-;-;-;-;-;-;-;-;-;-;-;-;-;-
1514190304991;-;-;7.4895477;-2.3952026;-1.0360107;-;-;-;-;-;-;-;-;-;-;-;-;-;-;-
1514190305010;-;-;8.155136;-2.3102112;-1.5088654;-;-;-;-;-;-;-;-;-;-;-;-;-;-;-
1514190305030;-;-;8.751297;-1.3932343;-1.4609833;-;-;-;-;-;-;-;-;-;-;-;-;-;-;-
1514190305050;-;-;9.629974;-0.6989136;-0.30937195;-;-;-;-;-;-;-;-;-;-;-;-;-;-;-
1514190305070;-;-;10.293167;-1.2567596;-0.06636047;-;-;-;-;-;-;-;-;-;-;-;-;-;-;-
1514190305091;-;-;10.14711;-1.9355164;-1.650116;-;-;-;-;-;-;-;-;-;-;-;-;-;-;-
1514190305111;-;-;10.269226;-1.1669769;-5.3132477;-;-;-;-;-;-;-;-;-;-;-;-;-;-;-
1514190305132;-;-;10.772003;0.88604736;-6.560623;-;-;-;-;-;-;-;-;-;-;-;-;-;-;-
1514190305151;-;-;10.703766;2.4793854;-4.5961914;-;-;-;-;-;-;-;-;-;-;-;-;-;-;-
1514190305172;-;-;8.909317;2.905548;-2.1612854;-;-;-;-;-;-;-;-;-;-;-;-;-;-;-
1514190305192;-;-;7.827133;1.406784;0.23532104;-;-;-;-;-;-;-;-;-;-;-;-;-;-;-
1514190305212;-;-;8.507095;0.90400696;-2.1768494;-;-;-;-;-;-;-;-;-;-;-;-;-;-;-
1514190305232;-;-;11.472305;2.8361206;-4.7039185;-;-;-;-;-;-;-;-;-;-;-;-;-;-;-
1514190305253;-;-;16.35408;2.5703735;-2.4186554;-;-;-;-;-;-;-;-;-;-;-;-;-;-;-
1514190305273;-;-;20.12735;0.019348145;-2.036789;-;-;-;-;-;-;-;-;-;-;-;-;-;-;-
1514190305293;-;-;16.148178;-0.97784424;-1.9589691;-;-;-;-;-;-;-;-;-;-;-;-;-;-;-
1514190305313;-;-;10.1171875;0.17736816;-1.3065491;-;-;-;-;-;-;-;-;-;-;-;-;-;-;-
1514190305334;-;-;5.371887;0.30545044;-1.4933014;-;-;-;-;-;-;-;-;-;-;-;-;-;-;-
1514190305354;-;-;3.5331268;0.21447754;-1.5040741;-;-;-;-;-;-;-;-;-;-;-;-;-;-;-
1514190305374;-;-;4.8906403;0.64782715;-0.5643463;-;-;-;-;-;-;-;-;-;-;-;-;-;-;-
1514190305395;-;-;7.1603546;0.70529175;0.8614044;-;-;-;-;-;-;-;-;-;-;-;-;-;-;-
1514190305415;-;-;6.3774414;0.18574524;-0.30577087;-;-;-;-;-;-;-;-;-;-;-;-;-;-;-
1514190305436;-;-;6.0266876;0.17855835;-0.28303528;-;-;-;-;-;-;-;-;-;-;-;-;-;-;-
1514190305456;-;-;7.2836456;0.6933136;-0.36323547;-;-;-;-;-;-;-;-;-;-;-;-;-;-;-
1514190305476;-;-;9.401321;1.0285034;-1.2048035;-;-;-;-;-;-;-;-;-;-;-;-;-;-;-
1514190305497;-;-;9.465973;0.8525238;-2.065506;-;-;-;-;-;-;-;-;-;-;-;-;-;-;-
1514190305517;-;-;7.1866913;0.10194397;-1.2838135;-;-;-;-;-;-;-;-;-;-;-;-;-;-;-
1514190305538;-;-;6.0422516;-0.4882202;-0.27226257;-;-;-;-;-;-;-;-;-;-;-;-;-;-;-
1514190305558;-;-;7.0765533;-0.47146606;-0.36442566;-;-;-;-;-;-;-;-;-;-;-;-;-;-;-
1514190305578;-;-;8.18866;-0.13508606;-1.2730255;-;-;-;-;-;-;-;-;-;-;-;-;-;-;-
1514190305600;-;-;8.710602;0.23123169;-1.030014;-;-;-;-;-;-;-;-;-;-;-;-;-;-;-
1514190305621;-;-;8.10965;0.47903442;-1.2095795;-;-;-;-;-;-;-;-;-;-;-;-;-;-;-
1514190305641;-;-;7.9276886;0.5065613;-1.4059143;-;-;-;-;-;-;-;-;-;-;-;-;-;-;-
1514190305661;-;-;8.727356;0.25756836;-2.014038;-;-;-;-;-;-;-;-;-;-;-;-;-;-;-
1514190305682;-;-;8.855438;0.091171265;-1.7794037;-;-;-;-;-;-;-;-;-;-;-;-;-;-;-
1514190305702;-;-;8.596878;0.5771942;-1.1030426;-;-;-;-;-;-;-;-;-;-;-;-;-;-;-
1514190305722;-;-;8.909317;0.68852234;-2.8065186;-;-;-;-;-;-;-;-;-;-;-;-;-;-;-
1514190305742;-;-;7.4524384;0.05885315;-4.9181976;-;-;-;-;-;-;-;-;-;-;-;-;-;-;-
1514190305763;-;-;6.802414;-1.3968201;-4.7434235;-;-;-;-;-;-;-;-;-;-;-;-;-;-;-
1514190305783;-;-;7.3506927;-3.040451;-3.2015686;-;-;-;-;-;-;-;-;-;-;-;-;-;-;-
1514190305803;-;-;10.871368;-4.18367;-1.693222;-;-;-;-;-;-;-;-;-;-;-;-;-;-;-
1514190305823;-;-;13.581604;-2.9877777;-4.081436;-;-;-;-;-;-;-;-;-;-;-;-;-;-;-
1514190305844;-;-;17.202835;-1.5727997;-3.6109772;-;-;-;-;-;-;-;-;-;-;-;-;-;-;-
1514190305864;-;-;21.524368;-2.4011993;-3.0686798;-;-;-;-;-;-;-;-;-;-;-;-;-;-;-
1514190305884;-;-;23.78209;-3.8484802;-2.2726135;-;-;-;-;-;-;-;-;-;-;-;-;-;-;-
1514190305905;-;-;15.234802;-1.6985016;-1.8213043;-;-;-;-;-;-;-;-;-;-;-;-;-;-;-
1514190305925;-;-;8.593277;-0.1530304;-1.2359161;-;-;-;-;-;-;-;-;-;-;-;-;-;-;-
1514190305945;-;-;3.2003326;0.3509369;-1.7063904;-;-;-;-;-;-;-;-;-;-;-;-;-;-;-
1514190305965;-;-;1.2706146;0.754364;-2.1373444;-;-;-;-;-;-;-;-;-;-;-;-;-;-;-
1514190305986;-;-;3.4553223;0.4287567;-2.467743;-;-;-;-;-;-;-;-;-;-;-;-;-;-;-
1514190306006;-;-;5.273712;0.0049743652;-1.5735016;-;-;-;-;-;-;-;-;-;-;-;-;-;-;-
1514190306027;-;-;6.7928467;-0.4439392;-0.7917938;-;-;-;-;-;-;-;-;-;-;-;-;-;-;-
1514190306047;-;-;7.6415863;-0.51097107;-1.2383118;-;-;-;-;-;-;-;-;-;-;-;-;-;-;-
1514190306067;-;-;8.253296;-0.4092102;-2.2809906;-;-;-;-;-;-;-;-;-;-;-;-;-;-;-
1514190306088;-;-;9.364212;-0.49301147;-1.9146729;-;-;-;-;-;-;-;-;-;-;-;-;-;-;-
1514190306108;-;-;9.527023;-1.2400055;-1.416687;-;-;-;-;-;-;-;-;-;-;-;-;-;-;-
1514190306128;-;-;8.294006;-1.819397;-1.9230652;-;-;-;-;-;-;-;-;-;-;-;-;-;-;-
1514190306149;-;-;6.791641;-1.506958;-1.550766;-;-;-;-;-;-;-;-;-;-;-;-;-;-;-
1514190306169;-;-;5.727417;-1.4866028;-0.6373749;-;-;-;-;-;-;-;-;-;-;-;-;-;-;-
1514190306189;-;-;5.011551;-1.8122253;0.39453125;-;-;-;-;-;-;-;-;-;-;-;-;-;-;-
1514190306209;-;-;4.827194;-2.0695953;1.4503784;-;-;-;-;-;-;-;-;-;-;-;-;-;-;-
1514190306230;-;-;6.810791;-2.1653595;1.1594696;-;-;-;-;-;-;-;-;-;-;-;-;-;-;-
1514190306249;-;-;8.951218;-2.001358;-0.01008606;-;-;-;-;-;-;-;-;-;-;-;-;-;-;-
1514190306270;-;-;9.902908;-1.1322632;-1.1808624;-;-;-;-;-;-;-;-;-;-;-;-;-;-;-
1514190306290;-;-;9.549759;-0.38887024;-1.5459747;-;-;-;-;-;-;-;-;-;-;-;-;-;-;-
1514190306310;-;-;7.4009705;-0.76116943;-1.2945862;-;-;-;-;-;-;-;-;-;-;-;-;-;-;-
1514190306331;-;-;5.959656;-2.1282501;-1.8512268;-;-;-;-;-;-;-;-;-;-;-;-;-;-;-
1514190306351;-;-;6.992752;-2.4945679;-4.481262;-;-;-;-;-;-;-;-;-;-;-;-;-;-;-
1514190306371;-;-;10.355408;0.41677856;-6.097351;-;-;-;-;-;-;-;-;-;-;-;-;-;-;-
1514190306391;-;-;12.030151;4.07872;-4.5914;-;-;-;-;-;-;-;-;-;-;-;-;-;-;-
1514190306411;-;-;13.996994;2.9594269;-3.3440094;-;-;-;-;-;-;-;-;-;-;-;-;-;-;-
1514190306431;-;-;15.653778;-1.3381653;-0.49850464;-;-;-;-;-;-;-;-;-;-;-;-;-;-;-
1514190306453;-;-;18.82251;-0.6534271;-7.369873;-;-;-;-;-;-;-;-;-;-;-;-;-;-;-
1514190306473;-;-;21.584213;2.904358;-4.289734;-;-;-;-;-;-;-;-;-;-;-;-;-;-;-
1514190306493;-;-;17.843277;1.7922516;-3.8659515;-;-;-;-;-;-;-;-;-;-;-;-;-;-;-
1514190306514;-;-;12.123535;1.5576172;-2.9238281;-;-;-;-;-;-;-;-;-;-;-;-;-;-;-
1514190306534;-;-;6.6791077;1.2080688;-2.310913;-;-;-;-;-;-;-;-;-;-;-;-;-;-;-
1514190306554;-;-;2.0487366;-0.27514648;-2.444992;-;-;-;-;-;-;-;-;-;-;-;-;-;-;-
1514190306575;-;-;0.32730103;-1.9427032;-1.7351074;-;-;-;-;-;-;-;-;-;-;-;-;-;-;-
1514190306595;-;-;0.92944336;-2.530487;-0.57392883;-;-;-;-;-;-;-;-;-;-;-;-;-;-;-
1514190306615;-;-;4.4130096;-0.98143005;-0.39675903;-;-;-;-;-;-;-;-;-;-;-;-;-;-;-
1514190306635;-;-;5.7537537;-0.066848755;-1.2921906;-;-;-;-;-;-;-;-;-;-;-;-;-;-;-
1514190306656;-;-;5.9931793;0.9602661;-1.7758179;-;-;-;-;-;-;-;-;-;-;-;-;-;-;-
1514190306675;-;-;6.533066;1.7371826;-2.4330292;-;-;-;-;-;-;-;-;-;-;-;-;-;-;-
1514190306695;-;-;8.118027;2.418335;-2.0870667;-;-;-;-;-;-;-;-;-;-;-;-;-;-;-
1514190306715;-;-;10.083664;1.971817;-1.6166077;-;-;-;-;-;-;-;-;-;-;-;-;-;-;-
1514190306736;-;-;10.112396;0.6214905;-1.6177979;-;-;-;-;-;-;-;-;-;-;-;-;-;-;-
1514190306756;-;-;8.538208;-0.17098999;-0.10824585;-;-;-;-;-;-;-;-;-;-;-;-;-;-;-
1514190306777;-;-;6.922119;0.14863586;-0.2171936;-;-;-;-;-;-;-;-;-;-;-;-;-;-;-
1514190306797;-;-;6.8287506;0.9016113;-1.4442139;-;-;-;-;-;-;-;-;-;-;-;-;-;-;-
1514190306816;-;-;7.125641;0.93392944;-1.1892395;-;-;-;-;-;-;-;-;-;-;-;-;-;-;-
1514190306836;-;-;7.7265778;0.13665771;-1.030014;-;-;-;-;-;-;-;-;-;-;-;-;-;-;-
1514190306856;-;-;7.9504395;-0.02015686;-0.8600311;-;-;-;-;-;-;-;-;-;-;-;-;-;-;-
1514190306877;-;-;8.997894;0.16659546;-4.0191803;-;-;-;-;-;-;-;-;-;-;-;-;-;-;-
1514190306897;-;-;8.769257;0.35333252;-6.1979065;-;-;-;-;-;-;-;-;-;-;-;-;-;-;-
1514190306917;-;-;9.819107;0.54367065;-5.6436462;-;-;-;-;-;-;-;-;-;-;-;-;-;-;-
1514190306937;-;-;10.910873;-0.86531067;-4.5052032;-;-;-;-;-;-;-;-;-;-;-;-;-;-;-
1514190306958;-;-;12.663422;-3.4462585;-1.9434052;-;-;-;-;-;-;-;-;-;-;-;-;-;-;-
1514190306978;-;-;14.285492;-4.9570007;-0.57751465;-;-;-;-;-;-;-;-;-;-;-;-;-;-;-
1514190306998;-;-;14.454285;-3.9167175;-1.0886841;-;-;-;-;-;-;-;-;-;-;-;-;-;-;-
1514190307019;-;-;15.637024;-3.9215088;-1.9829102;-;-;-;-;-;-;-;-;-;-;-;-;-;-;-
1514190307039;-;-;18.629776;-2.5005493;-2.6927948;-;-;-;-;-;-;-;-;-;-;-;-;-;-;-
1514190307059;-;-;15.135437;-0.15542603;-0.7403259;-;-;-;-;-;-;-;-;-;-;-;-;-;-;-
1514190307080;-;-;11.335831;0.9243469;-1.6596985;-;-;-;-;-;-;-;-;-;-;-;-;-;-;-
1514190307101;-;-;8.141968;1.1601868;-2.4330292;-;-;-;-;-;-;-;-;-;-;-;-;-;-;-
1514190307121;-;-;4.916977;0.80345154;-2.1217804;-;-;-;-;-;-;-;-;-;-;-;-;-;-;-
1514190307142;-;-;4.214279;0.378479;-1.4741516;-;-;-;-;-;-;-;-;-;-;-;-;-;-;-
1514190307162;-;-;6.0650024;-0.68814087;-1.4490051;-;-;-;-;-;-;-;-;-;-;-;-;-;-;-
1514190307182;-;-;6.8167877;-1.3597107;-1.5423737;-;-;-;-;-;-;-;-;-;-;-;-;-;-;-
1514190307202;-;-;6.68869;-1.4806213;-1.6608887;-;-;-;-;-;-;-;-;-;-;-;-;-;-;-
1514190307223;-;-;6.378647;-1.2615509;-1.2239532;-;-;-;-;-;-;-;-;-;-;-;-;-;-;-
1514190307243;-;-;7.236969;-1.2902832;-1.5890656;-;-;-;-;-;-;-;-;-;-;-;-;-;-;-
1514190307263;-;-;8.596878;-1.4135895;-1.8308868;-;-;-;-;-;-;-;-;-;-;-;-;-;-;-
1514190307284;-;-;8.589691;-1.5823822;-1.5567474;-;-;-;-;-;-;-;-;-;-;-;-;-;-;-
1514190307304;-;-;7.3686523;-1.6745453;-1.3065491;-;-;-;-;-;-;-;-;-;-;-;-;-;-;-
1514190307325;-;-;6.165558;-1.0436859;-0.69363403;-;-;-;-;-;-;-;-;-;-;-;-;-;-;-
1514190307345;-;-;4.9433136;-0.24162292;-0.83010864;-;-;-;-;-;-;-;-;-;-;-;-;-;-;-
1514190307364;-;-;4.356735;0.38565063;0.10961914;-;-;-;-;-;-;-;-;-;-;-;-;-;-;-
1514190307384;-;-;5.5071564;-0.3469696;-0.42668152;-;-;-;-;-;-;-;-;-;-;-;-;-;-;-
1514190307404;-;-;7.6631317;-1.5931549;-1.1030426;-;-;-;-;-;-;-;-;-;-;-;-;-;-;-
1514190307425;-;-;9.732925;-1.9881897;-1.4370422;-;-;-;-;-;-;-;-;-;-;-;-;-;-;-
1514190307445;-;-;10.965927;-1.3944244;-0.7570801;-;-;-;-;-;-;-;-;-;-;-;-;-;-;-
1514190307465;-;-;9.622787;-0.43914795;-1.1317749;-;-;-;-;-;-;-;-;-;-;-;-;-;-;-
1514190307486;-;-;8.279633;-1.1190948;-2.3743591;-;-;-;-;-;-;-;-;-;-;-;-;-;-;-
1514190307506;-;-;9.269638;-1.2663422;-5.81723;-;-;-;-;-;-;-;-;-;-;-;-;-;-;-
1514190307526;-;-;11.775177;0.809433;-4.338806;-;-;-;-;-;-;-;-;-;-;-;-;-;-;-
1514190307547;-;-;13.8485565;2.612259;-3.2243042;-;-;-;-;-;-;-;-;-;-;-;-;-;-;-
1514190307567;-;-;15.271912;1.3050385;-3.8156738;-;-;-;-;-;-;-;-;-;-;-;-;-;-;-
1514190307587;-;-;15.161774;-1.5153351;-2.5527344;-;-;-;-;-;-;-;-;-;-;-;-;-;-;-
1514190307608;-;-;12.236053;-1.4351349;-4.717087;-;-;-;-;-;-;-;-;-;-;-;-;-;-;-
1514190307628;-;-;10.767212;1.679718;-2.2331085;-;-;-;-;-;-;-;-;-;-;-;-;-;-;-
1514190307648;-;-;11.639908;2.9594269;-0.7774353;-;-;-;-;-;-;-;-;-;-;-;-;-;-;-
1514190307669;-;-;12.661026;3.1138458;-1.8392639;-;-;-;-;-;-;-;-;-;-;-;-;-;-;-
1514190307689;-;-;9.222961;1.7000732;-1.5998383;-;-;-;-;-;-;-;-;-;-;-;-;-;-;-
1514190307709;-;-;5.886627;0.13067627;-1.3819733;-;-;-;-;-;-;-;-;-;-;-;-;-;-;-
1514190307730;-;-;4.7422028;-0.2775421;-0.83369446;-;-;-;-;-;-;-;-;-;-;-;-;-;-;-
1514190307750;-;-;5.8279724;0.7651367;0.048568726;-;-;-;-;-;-;-;-;-;-;-;-;-;-;-
1514190307770;-;-;7.039444;1.2822876;-0.26626587;-;-;-;-;-;-;-;-;-;-;-;-;-;-;-
1514190307791;-;-;7.2752686;-0.16619873;-0.9641876;-;-;-;-;-;-;-;-;-;-;-;-;-;-;-
1514190307811;-;-;6.78685;-0.86531067;-1.0862885;-;-;-;-;-;-;-;-;-;-;-;-;-;-;-
1514190307831;-;-;7.4165344;-0.29788208;-0.72476196;-;-;-;-;-;-;-;-;-;-;-;-;-;-;-
1514190307851;-;-;8.712982;-0.059661865;-0.9629822;-;-;-;-;-;-;-;-;-;-;-;-;-;-;-
1514190307872;-;-;8.712982;-0.4738617;-1.0659332;-;-;-;-;-;-;-;-;-;-;-;-;-;-;-
1514190307891;-;-;7.605667;-0.5720215;-1.2119751;-;-;-;-;-;-;-;-;-;-;-;-;-;-;-
1514190307911;-;-;7.046631;-0.06564331;-1.3712006;-;-;-;-;-;-;-;-;-;-;-;-;-;-;-
1514190307931;-;-;6.8670654;0.99858093;-1.7159576;-;-;-;-;-;-;-;-;-;-;-;-;-;-;-
1514190307951;-;-;6.908966;1.2056732;-2.689209;-;-;-;-;-;-;-;-;-;-;-;-;-;-;-
1514190307973;-;-;6.237381;1.0392761;-2.0918427;-;-;-;-;-;-;-;-;-;-;-;-;-;-;-
1514190307993;-;-;6.521103;1.5432587;-1.0779114;-;-;-;-;-;-;-;-;-;-;-;-;-;-;-
1514190308012;-;-;8.121628;2.058014;-1.5471649;-;-;-;-;-;-;-;-;-;-;-;-;-;-;-
1514190308032;-;-;9.2756195;1.6785278;-2.460556;-;-;-;-;-;-;-;-;-;-;-;-;-;-;-
1514190308052;-;-;9.582092;0.48262024;-1.392746;-;-;-;-;-;-;-;-;-;-;-;-;-;-;-
1514190308073;-;-;9.115219;0.45030212;-0.6289978;-;-;-;-;-;-;-;-;-;-;-;-;-;-;-
1514190308092;-;-;8.082123;0.26235962;-2.693985;-;-;-;-;-;-;-;-;-;-;-;-;-;-;-
1514190308112;-;-;7.9863434;-1.0472717;-5.5802;-;-;-;-;-;-;-;-;-;-;-;-;-;-;-
1514190308132;-;-;10.312317;-3.7383575;-5.0750275;-;-;-;-;-;-;-;-;-;-;-;-;-;-;-
1514190308153;-;-;11.988251;-5.081497;-2.2618408;-;-;-;-;-;-;-;-;-;-;-;-;-;-;-
1514190308174;-;-;13.900024;-3.507309;-0.60983276;-;-;-;-;-;-;-;-;-;-;-;-;-;-;-
1514190308194;-;-;17.453018;-3.6521606;-0.4015503;-;-;-;-;-;-;-;-;-;-;-;-;-;-;-
1514190308214;-;-;19.398315;-3.7180023;-2.4533691;-;-;-;-;-;-;-;-;-;-;-;-;-;-;-
1514190308234;-;-;18.197617;-0.069244385;-1.2622528;-;-;-;-;-;-;-;-;-;-;-;-;-;-;-
1514190308255;-;-;13.103958;1.3960114;-1.1940308;-;-;-;-;-;-;-;-;-;-;-;-;-;-;-
1514190308275;-;-;8.016281;1.2260284;-1.6573029;-;-;-;-;-;-;-;-;-;-;-;-;-;-;-
1514190308295;-;-;4.4477234;0.1330719;-1.7566681;-;-;-;-;-;-;-;-;-;-;-;-;-;-;-
1514190308316;-;-;3.3128662;-0.1482544;-1.4095001;-;-;-;-;-;-;-;-;-;-;-;-;-;-;-
1514190308336;-;-;4.9828186;-0.112335205;-1.1186066;-;-;-;-;-;-;-;-;-;-;-;-;-;-;-
1514190308356;-;-;6.53067;-0.8174286;-0.9546051;-;-;-;-;-;-;-;-;-;-;-;-;-;-;-
1514190308377;-;-;7.5553894;-1.6314545;-0.95339966;-;-;-;-;-;-;-;-;-;-;-;-;-;-;-
1514190308397;-;-;6.8119965;-1.3704834;-0.9629822;-;-;-;-;-;-;-;-;-;-;-;-;-;-;-
1514190308417;-;-;6.300827;-1.0424805;-1.006073;-;-;-;-;-;-;-;-;-;-;-;-;-;-;-
1514190308437;-;-;6.7736816;-1.372879;-1.109024;-;-;-;-;-;-;-;-;-;-;-;-;-;-;-
1514190308458;-;-;6.4600525;-1.7882843;-1.3101501;-;-;-;-;-;-;-;-;-;-;-;-;-;-;-
1514190308478;-;-;6.5522156;-2.4466858;-1.3388672;-;-;-;-;-;-;-;-;-;-;-;-;-;-;-
1514190308498;-;-;6.9795837;-2.3736572;-0.6325836;-;-;-;-;-;-;-;-;-;-;-;-;-;-;-
1514190308519;-;-;7.3614655;-1.7559509;-0.15614319;-;-;-;-;-;-;-;-;-;-;-;-;-;-;-
1514190308539;-;-;8.106064;-1.1478271;0.6243744;-;-;-;-;-;-;-;-;-;-;-;-;-;-;-
1514190308559;-;-;8.551376;-1.740387;0.92962646;-;-;-;-;-;-;-;-;-;-;-;-;-;-;-
1514190308579;-;-;9.096069;-2.5604095;0.587265;-;-;-;-;-;-;-;-;-;-;-;-;-;-;-
1514190308599;-;-;9.352234;-2.210846;0.1251831;-;-;-;-;-;-;-;-;-;-;-;-;-;-;-
1514190308620;-;-;8.206619;-0.9754486;-1.3340912;-;-;-;-;-;-;-;-;-;-;-;-;-;-;-
1514190308641;-;-;6.596512;-0.7384186;-3.5786438;-;-;-;-;-;-;-;-;-;-;-;-;-;-;-
1514190308661;-;-;4.8247986;-1.8098297;-6.955673;-;-;-;-;-;-;-;-;-;-;-;-;-;-;-
1514190308682;-;-;6.354706;-0.9539032;-4.8379974;-;-;-;-;-;-;-;-;-;-;-;-;-;-;-
1514190308702;-;-;10.227325;1.8114014;-1.3556366;-;-;-;-;-;-;-;-;-;-;-;-;-;-;-
1514190308722;-;-;12.113953;4.0368195;-4.459717;-;-;-;-;-;-;-;-;-;-;-;-;-;-;-
1514190308742;-;-;12.729263;0.8405609;-1.0635376;-;-;-;-;-;-;-;-;-;-;-;-;-;-;-
1514190308763;-;-;12.920792;-2.0851593;-4.7075195;-;-;-;-;-;-;-;-;-;-;-;-;-;-;-
1514190308783;-;-;16.089523;-1.827774;-3.1871948;-;-;-;-;-;-;-;-;-;-;-;-;-;-;-
1514190308803;-;-;18.829681;1.0572357;-2.2678223;-;-;-;-;-;-;-;-;-;-;-;-;-;-;-
1514190308823;-;-;17.506897;2.1035004;-3.3907013;-;-;-;-;-;-;-;-;-;-;-;-;-;-;-
1514190308844;-;-;13.089584;1.6785278;-2.7658234;-;-;-;-;-;-;-;-;-;-;-;-;-;-;-
1514190308864;-;-;8.509476;1.4199524;-2.3468323;-;-;-;-;-;-;-;-;-;-;-;-;-;-;-
1514190308884;-;-;4.3375854;0.098358154;-1.5471649;-;-;-;-;-;-;-;-;-;-;-;-;-;-;-
1514190308904;-;-;2.9190216;-2.0217133;-0.48054504;-;-;-;-;-;-;-;-;-;-;-;-;-;-;-
1514190308925;-;-;3.8647308;-3.187683;0.666275;-;-;-;-;-;-;-;-;-;-;-;-;-;-;-
1514190308945;-;-;6.849106;-3.3038025;0.4986725;-;-;-;-;-;-;-;-;-;-;-;-;-;-;-
1514190308965;-;-;9.281616;-1.5895538;-0.5344238;-;-;-;-;-;-;-;-;-;-;-;-;-;-;-
1514190308986;-;-;7.5553894;0.6238861;-1.0264282;-;-;-;-;-;-;-;-;-;-;-;-;-;-;-
1514190309006;-;-;6.5869446;1.7024689;-1.8524323;-;-;-;-;-;-;-;-;-;-;-;-;-;-;-
1514190309026;-;-;7.126831;1.947876;-1.7578583;-;-;-;-;-;-;-;-;-;-;-;-;-;-;-
1514190309046;-;-;9.127182;1.0153351;-1.7219391;-;-;-;-;-;-;-;-;-;-;-;-;-;-;-
1514190309066;-;-;8.911713;-0.23085022;0.24130249;-;-;-;-;-;-;-;-;-;-;-;-;-;-;-
1514190309087;-;-;7.794815;0.512558;0.82429504;-;-;-;-;-;-;-;-;-;-;-;-;-;-;-
1514190309107;-;-;7.3423157;1.1865234;-1.3005676;-;-;-;-;-;-;-;-;-;-;-;-;-;-;-
1514190309127;-;-;6.9987335;2.081955;-3.3751373;-;-;-;-;-;-;-;-;-;-;-;-;-;-;-
1514190309148;-;-;6.7186127;2.2076416;-2.115799;-;-;-;-;-;-;-;-;-;-;-;-;-;-;-
1514190309168;-;-;7.612854;0.8154144;0.25326538;-;-;-;-;-;-;-;-;-;-;-;-;-;-;-
1514190309188;-;-;9.659897;0.1725769;0.7859802;-;-;-;-;-;-;-;-;-;-;-;-;-;-;-
1514190309209;-;-;9.799957;-0.09677124;-3.6552582;-;-;-;-;-;-;-;-;-;-;-;-;-;-;-
1514190309228;-;-;9.090073;-0.44154358;-7.484787;-;-;-;-;-;-;-;-;-;-;-;-;-;-;-
1514190309248;-;-;9.87178;-2.502945;-5.5526733;-;-;-;-;-;-;-;-;-;-;-;-;-;-;-
1514190309268;-;-;12.7256775;-5.024048;-2.5359802;-;-;-;-;-;-;-;-;-;-;-;-;-;-;-
1514190309288;-;-;17.497314;-3.4223175;-2.931015;-;-;-;-;-;-;-;-;-;-;-;-;-;-;-
1514190309309;-;-;16.961014;-1.7679291;-5.088196;-;-;-;-;-;-;-;-;-;-;-;-;-;-;-
1514190309329;-;-;17.368027;-2.8465118;-4.314865;-;-;-;-;-;-;-;-;-;-;-;-;-;-;-
1514190309349;-;-;18.398727;-4.516464;-4.1927643;-;-;-;-;-;-;-;-;-;-;-;-;-;-;-
1514190309370;-;-;12.8489685;-2.988968;-3.646881;-;-;-;-;-;-;-;-;-;-;-;-;-;-;-
1514190309389;-;-;7.5350494;-0.80426025;-3.136917;-;-;-;-;-;-;-;-;-;-;-;-;-;-;-
1514190309409;-;-;4.790085;-0.24520874;-2.1385345;-;-;-;-;-;-;-;-;-;-;-;-;-;-;-
1514190309429;-;-;4.794876;-0.19613647;-2.136139;-;-;-;-;-;-;-;-;-;-;-;-;-;-;-
1514190309449;-;-;5.513138;-0.33738708;-2.4892883;-;-;-;-;-;-;-;-;-;-;-;-;-;-;-
1514190309470;-;-;5.367096;-0.3876648;-2.5347748;-;-;-;-;-;-;-;-;-;-;-;-;-;-;-
1514190309490;-;-;5.392227;-0.957489;-1.5447693;-;-;-;-;-;-;-;-;-;-;-;-;-;-;-
1514190309510;-;-;5.4042053;-1.9869995;-1.6632843;-;-;-;-;-;-;-;-;-;-;-;-;-;-;-
1514190309531;-;-;5.3898315;-2.5256958;-1.5723114;-;-;-;-;-;-;-;-;-;-;-;-;-;-;-
1514190309552;-;-;6.047043;-2.763916;-1.143753;-;-;-;-;-;-;-;-;-;-;-;-;-;-;-
1514190309573;-;-;7.3063965;-2.8967896;-0.53082275;-;-;-;-;-;-;-;-;-;-;-;-;-;-;-
1514190309593;-;-;8.739319;-2.902771;-0.17289734;-;-;-;-;-;-;-;-;-;-;-;-;-;-;-
1514190309613;-;-;9.807144;-2.1390228;-0.08192444;-;-;-;-;-;-;-;-;-;-;-;-;-;-;-
1514190309633;-;-;10.306335;-1.3668976;-0.28901672;-;-;-;-;-;-;-;-;-;-;-;-;-;-;-
1514190309654;-;-;10.619965;-1.1574097;-1.5962524;-;-;-;-;-;-;-;-;-;-;-;-;-;-;-
1514190309674;-;-;11.993042;-0.5648346;-1.4190826;-;-;-;-;-;-;-;-;-;-;-;-;-;-;-
1514190309694;-;-;12.878906;0.73760986;0.350235;-;-;-;-;-;-;-;-;-;-;-;-;-;-;-
1514190309715;-;-;11.981079;1.5899353;0.5776825;-;-;-;-;-;-;-;-;-;-;-;-;-;-;-
1514190309735;-;-;9.363022;0.82499695;-0.91389465;-;-;-;-;-;-;-;-;-;-;-;-;-;-;-
1514190309755;-;-;6.928116;-2.04924;-3.104599;-;-;-;-;-;-;-;-;-;-;-;-;-;-;-
1514190309776;-;-;5.7094574;-4.945038;-7.2298126;-;-;-;-;-;-;-;-;-;-;-;-;-;-;-
1514190309796;-;-;6.154785;-4.6469574;-9.311569;-;-;-;-;-;-;-;-;-;-;-;-;-;-;-
1514190309816;-;-;8.454422;-2.0588226;-5.4987946;-;-;-;-;-;-;-;-;-;-;-;-;-;-;-
1514190309837;-;-;11.647079;0.124694824;-2.931015;-;-;-;-;-;-;-;-;-;-;-;-;-;-;-
1514190309857;-;-;15.098328;-1.5644226;-3.7474365;-;-;-;-;-;-;-;-;-;-;-;-;-;-;-
1514190309877;-;-;19.36;-5.360428;-7.1855164;-;-;-;-;-;-;-;-;-;-;-;-;-;-;-
1514190309898;-;-;17.764267;-6.519226;-7.335144;-;-;-;-;-;-;-;-;-;-;-;-;-;-;-
1514190309919;-;-;10.050156;-2.0109406;-3.5223846;-;-;-;-;-;-;-;-;-;-;-;-;-;-;-
1514190309939;-;-;5.098938;0.17736816;-3.3643646;-;-;-;-;-;-;-;-;-;-;-;-;-;-;-
1514190309959;-;-;2.5694733;-0.13867188;-3.231491;-;-;-;-;-;-;-;-;-;-;-;-;-;-;-
1514190309980;-;-;1.7063599;0.09475708;-3.314087;-;-;-;-;-;-;-;-;-;-;-;-;-;-;-
1514190310000;-;-;2.3923035;-0.12908936;-3.473297;-;-;-;-;-;-;-;-;-;-;-;-;-;-;-
1514190310020;-;-;5.3419495;-1.111908;-4.4513397;-;-;-;-;-;-;-;-;-;-;-;-;-;-;-
1514190310040;-;-;8.976349;-1.5045624;-5.0630493;-;-;-;-;-;-;-;-;-;-;-;-;-;-;-
1514190310061;-;-;11.7260895;-0.8066559;-4.2885284;-;-;-;-;-;-;-;-;-;-;-;-;-;-;-
1514190310081;-;-;10.947983;0.49699402;-5.0666504;-;-;-;-;-;-;-;-;-;-;-;-;-;-;-
1514190310101;-;-;7.521881;1.7659149;-5.4437256;-;-;-;-;-;-;-;-;-;-;-;-;-;-;-
1514190310122;-;-;5.0067596;2.0855408;-4.421402;-;-;-;-;-;-;-;-;-;-;-;-;-;-;-
1514190310142;-;-;4.4130096;1.774292;-3.041153;-;-;-;-;-;-;-;-;-;-;-;-;-;-;-
1514190310162;-;-;5.9740295;1.2272186;-2.9238281;-;-;-;-;-;-;-;-;-;-;-;-;-;-;-
1514190310183;-;-;7.924103;1.3541107;-3.4709167;-;-;-;-;-;-;-;-;-;-;-;-;-;-;-
1514190310203;-;-;9.313934;2.5009308;-3.041153;-;-;-;-;-;-;-;-;-;-;-;-;-;-;-
1514190310223;-;-;9.243301;3.275467;-1.9888916;-;-;-;-;-;-;-;-;-;-;-;-;-;-;-
