TimeStamp[ms];Prox[Cm];Lux[lux];AccX[m/s^2];AccY[m/s^2];AccZ[m/s^2];GyroX[rad/s];GyroY[rad/s];GyroZ[rad/s];MagnX[uT];MagnY[uT];MagnZ[uT];OrienYaw[degrees];OrienPitch[degrees];OrienRoll[degrees];Press[Pa];Temp[C°];Batt[%];Lat;Lng;Speed[m/s]
1514190343954;-;-;7.526657;-1.151413;5.236801;-;-;-;-;-;-;-;-;-;-;-;-;-;-;-
1514190343955;-;-;7.526657;-1.151413;5.236801;-;-;-;-;-;-;-;-;-;-;-;-;-;-;-
1514190343972;-;-;7.5446167;-1.1813507;5.047653;-;-;-;-;-;-;-;-;-;-;-;-;-;-;-
1514190343992;-;-;7.6858826;-1.1873322;5.005768;-;-;-;-;-;-;-;-;-;-;-;-;-;-;-
1514190344013;-;-;7.7996063;-1.1502228;5.1757507;-;-;-;-;-;-;-;-;-;-;-;-;-;-;-
1514190344033;-;-;7.956421;-1.1322632;5.1901093;-;-;-;-;-;-;-;-;-;-;-;-;-;-;-
1514190344053;-;-;7.91333;-1.146637;5.157791;-;-;-;-;-;-;-;-;-;-;-;-;-;-;-
1514190344074;-;-;7.731369;-1.1238861;5.157791;-;-;-;-;-;-;-;-;-;-;-;-;-;-;-
1514190344095;-;-;7.7493286;-1.1837463;5.0129395;-;-;-;-;-;-;-;-;-;-;-;-;-;-;-
1514190344115;-;-;7.7565002;-1.2076874;5.0596313;-;-;-;-;-;-;-;-;-;-;-;-;-;-;-
1514190344136;-;-;7.6236267;-1.2531738;5.082382;-;-;-;-;-;-;-;-;-;-;-;-;-;-;-
1514190344155;-;-;7.67749;-1.249588;5.172165;-;-;-;-;-;-;-;-;-;-;-;-;-;-;-
1514190344175;-;-;7.743332;-1.3453522;5.1949005;-;-;-;-;-;-;-;-;-;-;-;-;-;-;-
1514190344196;-;-;7.664322;-1.364502;4.944702;-;-;-;-;-;-;-;-;-;-;-;-;-;-;-
1514190344216;-;-;7.557785;-1.3585205;5.082382;-;-;-;-;-;-;-;-;-;-;-;-;-;-;-
1514190344236;-;-;7.672714;-1.3956299;5.07399;-;-;-;-;-;-;-;-;-;-;-;-;-;-;-
1514190344256;-;-;7.770874;-1.3764801;4.983017;-;-;-;-;-;-;-;-;-;-;-;-;-;-;-
1514190344277;-;-;7.691864;-1.2603607;4.948303;-;-;-;-;-;-;-;-;-;-;-;-;-;-;-
1514190344297;-;-;7.858261;-1.1382446;4.695709;-;-;-;-;-;-;-;-;-;-;-;-;-;-;-
1514190344317;-;-;8.280838;-1.214859;4.6298676;-;-;-;-;-;-;-;-;-;-;-;-;-;-;-
1514190344338;-;-;8.363434;-1.2196503;4.769928;-;-;-;-;-;-;-;-;-;-;-;-;-;-;-
1514190344358;-;-;8.114441;-1.1454315;4.5580444;-;-;-;-;-;-;-;-;-;-;-;-;-;-;-
1514190344378;-;-;8.157532;-1.0101624;4.568817;-;-;-;-;-;-;-;-;-;-;-;-;-;-;-
1514190344398;-;-;8.238937;-1.1203003;4.6921234;-;-;-;-;-;-;-;-;-;-;-;-;-;-;-
1514190344419;-;-;8.094086;-1.0903625;4.16539;-;-;-;-;-;-;-;-;-;-;-;-;-;-;-
1514190344439;-;-;8.0138855;-1.0412903;3.9774475;-;-;-;-;-;-;-;-;-;-;-;-;-;-;-
1514190344459;-;-;8.107254;-1.0484619;3.9978027;-;-;-;-;-;-;-;-;-;-;-;-;-;-;-
1514190344480;-;-;8.162323;-1.0927582;3.8230286;-;-;-;-;-;-;-;-;-;-;-;-;-;-;-
1514190344499;-;-;8.226959;-1.3034515;3.717682;-;-;-;-;-;-;-;-;-;-;-;-;-;-;-
1514190344519;-;-;8.1707;-1.4459076;3.0808258;-;-;-;-;-;-;-;-;-;-;-;-;-;-;-
1514190344539;-;-;7.995926;-1.5141449;2.1375122;-;-;-;-;-;-;-;-;-;-;-;-;-;-;-
1514190344560;-;-;7.5206757;-1.8349609;1.5820465;-;-;-;-;-;-;-;-;-;-;-;-;-;-;-
1514190344580;-;-;7.3937836;-1.5871582;0.681839;-;-;-;-;-;-;-;-;-;-;-;-;-;-;-
1514190344600;-;-;8.730942;-0.84495544;1.1259613;-;-;-;-;-;-;-;-;-;-;-;-;-;-;-
1514190344620;-;-;9.443222;-0.29190063;2.7001495;-;-;-;-;-;-;-;-;-;-;-;-;-;-;-
1514190344641;-;-;11.268799;0.4586792;0.5202179;-;-;-;-;-;-;-;-;-;-;-;-;-;-;-
1514190344661;-;-;9.272034;0.9004059;-0.93066406;-;-;-;-;-;-;-;-;-;-;-;-;-;-;-
1514190344681;-;-;9.629974;2.9414673;-0.86242676;-;-;-;-;-;-;-;-;-;-;-;-;-;-;-
1514190344702;-;-;9.695816;0.5185394;-1.3987274;-;-;-;-;-;-;-;-;-;-;-;-;-;-;-
1514190344722;-;-;10.457169;-0.05607605;-0.99890137;-;-;-;-;-;-;-;-;-;-;-;-;-;-;-
1514190344742;-;-;11.44957;-1.4255524;-0.8959503;-;-;-;-;-;-;-;-;-;-;-;-;-;-;-
1514190344763;-;-;10.070496;-0.5504761;-0.614624;-;-;-;-;-;-;-;-;-;-;-;-;-;-;-
1514190344783;-;-;9.884949;-0.18655396;-0.39196777;-;-;-;-;-;-;-;-;-;-;-;-;-;-;-
1514190344803;-;-;9.064941;-0.06324768;-0.67567444;-;-;-;-;-;-;-;-;-;-;-;-;-;-;-
1514190344823;-;-;8.797989;-0.011779785;-1.1413574;-;-;-;-;-;-;-;-;-;-;-;-;-;-;-
1514190344845;-;-;7.830719;-0.0069885254;0.26882935;-;-;-;-;-;-;-;-;-;-;-;-;-;-;-
1514190344864;-;-;8.64595;0.5257263;-0.4745636;-;-;-;-;-;-;-;-;-;-;-;-;-;-;-
1514190344884;-;-;9.506668;-0.042907715;-0.7379303;-;-;-;-;-;-;-;-;-;-;-;-;-;-;-
1514190344905;-;-;9.164291;0.24798584;-0.81333923;-;-;-;-;-;-;-;-;-;-;-;-;-;-;-
1514190344925;-;-;9.228943;-0.03213501;-0.377594;-;-;-;-;-;-;-;-;-;-;-;-;-;-;-
1514190344946;-;-;9.817917;-0.54689026;-0.30218506;-;-;-;-;-;-;-;-;-;-;-;-;-;-;-
1514190344966;-;-;8.538208;-0.47865295;-0.29260254;-;-;-;-;-;-;-;-;-;-;-;-;-;-;-
1514190344986;-;-;8.203018;-0.3182373;-0.9905243;-;-;-;-;-;-;-;-;-;-;-;-;-;-;-
1514190345006;-;-;10.111206;0.05166626;-0.32852173;-;-;-;-;-;-;-;-;-;-;-;-;-;-;-
1514190345027;-;-;10.082474;-0.100372314;-0.34527588;-;-;-;-;-;-;-;-;-;-;-;-;-;-;-
1514190345046;-;-;10.661865;0.13905334;-0.12860107;-;-;-;-;-;-;-;-;-;-;-;-;-;-;-
1514190345066;-;-;10.193802;0.42156982;-0.37521362;-;-;-;-;-;-;-;-;-;-;-;-;-;-;-
1514190345087;-;-;9.339081;0.7950592;0.50227356;-;-;-;-;-;-;-;-;-;-;-;-;-;-;-
1514190345106;-;-;7.4919434;6.4812927;-0.5978699;-;-;-;-;-;-;-;-;-;-;-;-;-;-;-
1514190345126;-;-;6.7365723;-4.468582;-0.20402527;-;-;-;-;-;-;-;-;-;-;-;-;-;-;-
1514190345146;-;-;9.547363;0.20249939;0.64112854;-;-;-;-;-;-;-;-;-;-;-;-;-;-;-
1514190345167;-;-;8.751297;0.02053833;0.13116455;-;-;-;-;-;-;-;-;-;-;-;-;-;-;-
1514190345187;-;-;8.84227;0.793869;0.31791687;-;-;-;-;-;-;-;-;-;-;-;-;-;-;-
1514190345207;-;-;10.374573;2.1118774;-1.6213837;-;-;-;-;-;-;-;-;-;-;-;-;-;-;-
1514190345227;-;-;10.068115;0.84295654;0.19342041;-;-;-;-;-;-;-;-;-;-;-;-;-;-;-
1514190345248;-;-;6.467224;-3.0069275;-3.9772797;-;-;-;-;-;-;-;-;-;-;-;-;-;-;-
1514190345268;-;-;10.288376;-0.5923767;-1.9697418;-;-;-;-;-;-;-;-;-;-;-;-;-;-;-
1514190345288;-;-;7.292038;0.35572815;-2.4102783;-;-;-;-;-;-;-;-;-;-;-;-;-;-;-
1514190345309;-;-;8.763275;-0.27394104;-4.244232;-;-;-;-;-;-;-;-;-;-;-;-;-;-;-
1514190345329;-;-;10.903687;-1.7272186;-3.3272552;-;-;-;-;-;-;-;-;-;-;-;-;-;-;-
1514190345349;-;-;11.111984;-2.6717377;-4.606964;-;-;-;-;-;-;-;-;-;-;-;-;-;-;-
1514190345369;-;-;9.330688;-0.43914795;-2.4174652;-;-;-;-;-;-;-;-;-;-;-;-;-;-;-
1514190345390;-;-;9.518631;-0.6438446;-2.6161804;-;-;-;-;-;-;-;-;-;-;-;-;-;-;-
1514190345410;-;-;8.857834;1.0033569;-1.9062958;-;-;-;-;-;-;-;-;-;-;-;-;-;-;-
1514190345430;-;-;8.435257;0.48262024;-2.3743591;-;-;-;-;-;-;-;-;-;-;-;-;-;-;-
1514190345451;-;-;8.489136;0.13546753;-2.5730896;-;-;-;-;-;-;-;-;-;-;-;-;-;-;-
1514190345471;-;-;8.284424;-0.069244385;-2.0499573;-;-;-;-;-;-;-;-;-;-;-;-;-;-;-
1514190345491;-;-;8.542999;-0.69651794;-1.2730255;-;-;-;-;-;-;-;-;-;-;-;-;-;-;-
1514190345512;-;-;8.483139;-1.7368011;-1.1820526;-;-;-;-;-;-;-;-;-;-;-;-;-;-;-
1514190345532;-;-;10.454773;-2.3197937;-0.13697815;-;-;-;-;-;-;-;-;-;-;-;-;-;-;-
1514190345552;-;-;6.913742;-1.2603607;1.0637054;-;-;-;-;-;-;-;-;-;-;-;-;-;-;-
1514190345573;-;-;8.096481;-2.842926;0.4759369;-;-;-;-;-;-;-;-;-;-;-;-;-;-;-
1514190345593;-;-;6.1009216;-1.052063;-4.7745514;-;-;-;-;-;-;-;-;-;-;-;-;-;-;-
1514190345613;-;-;9.687424;-2.0779724;-1.9996796;-;-;-;-;-;-;-;-;-;-;-;-;-;-;-
1514190345633;-;-;11.426819;-1.5392761;-3.183609;-;-;-;-;-;-;-;-;-;-;-;-;-;-;-
1514190345653;-;-;8.131195;0.22164917;-1.3101501;-;-;-;-;-;-;-;-;-;-;-;-;-;-;-
1514190345674;-;-;8.605255;1.2463684;-1.768631;-;-;-;-;-;-;-;-;-;-;-;-;-;-;-
1514190345694;-;-;8.626801;0.6789551;-1.9194641;-;-;-;-;-;-;-;-;-;-;-;-;-;-;-
1514190345714;-;-;7.894165;-0.14346313;-1.8380585;-;-;-;-;-;-;-;-;-;-;-;-;-;-;-
1514190345735;-;-;7.451248;-0.5361023;-1.7003937;-;-;-;-;-;-;-;-;-;-;-;-;-;-;-
1514190345755;-;-;7.2238007;-0.47625732;-0.9151001;-;-;-;-;-;-;-;-;-;-;-;-;-;-;-
1514190345775;-;-;6.896988;-0.47865295;-0.34648132;-;-;-;-;-;-;-;-;-;-;-;-;-;-;-
1514190345796;-;-;6.9065704;-0.97184753;0.110809326;-;-;-;-;-;-;-;-;-;-;-;-;-;-;-
1514190345816;-;-;7.3099823;-1.6003265;0.05455017;-;-;-;-;-;-;-;-;-;-;-;-;-;-;-
1514190345836;-;-;7.865448;-1.6482086;-0.120224;-;-;-;-;-;-;-;-;-;-;-;-;-;-;-
1514190345857;-;-;8.250916;-1.7954559;-0.14297485;-;-;-;-;-;-;-;-;-;-;-;-;-;-;-
1514190345876;-;-;7.9755707;-1.8313751;-0.575119;-;-;-;-;-;-;-;-;-;-;-;-;-;-;-
1514190345896;-;-;7.8869934;-1.4806213;-1.3161316;-;-;-;-;-;-;-;-;-;-;-;-;-;-;-
1514190345916;-;-;7.9935303;-0.5097656;-0.58709717;-;-;-;-;-;-;-;-;-;-;-;-;-;-;-
1514190345937;-;-;8.550186;-0.08480835;0.49987793;-;-;-;-;-;-;-;-;-;-;-;-;-;-;-
1514190345957;-;-;9.272034;-0.6797638;-0.45062256;-;-;-;-;-;-;-;-;-;-;-;-;-;-;-
1514190345977;-;-;9.340271;-1.4183655;-1.2658539;-;-;-;-;-;-;-;-;-;-;-;-;-;-;-
1514190345997;-;-;8.600464;-1.9869995;-1.0539703;-;-;-;-;-;-;-;-;-;-;-;-;-;-;-
1514190346018;-;-;7.779251;-2.6094818;-2.2055817;-;-;-;-;-;-;-;-;-;-;-;-;-;-;-
1514190346038;-;-;6.4253235;-3.1960602;-4.8308105;-;-;-;-;-;-;-;-;-;-;-;-;-;-;-
1514190346058;-;-;6.984375;-2.174942;-7.8271637;-;-;-;-;-;-;-;-;-;-;-;-;-;-;-
1514190346078;-;-;9.698196;3.022873;-4.125717;-;-;-;-;-;-;-;-;-;-;-;-;-;-;-
1514190346099;-;-;11.261612;5.802536;-2.9561615;-;-;-;-;-;-;-;-;-;-;-;-;-;-;-
1514190346119;-;-;13.373306;4.291794;-1.3795776;-;-;-;-;-;-;-;-;-;-;-;-;-;-;-
1514190346140;-;-;16.163742;1.8257751;-4.386688;-;-;-;-;-;-;-;-;-;-;-;-;-;-;-
1514190346160;-;-;19.331268;0.33418274;-5.9764404;-;-;-;-;-;-;-;-;-;-;-;-;-;-;-
1514190346180;-;-;19.975311;-1.7774963;-2.586258;-;-;-;-;-;-;-;-;-;-;-;-;-;-;-
1514190346201;-;-;13.821014;-1.6039276;-0.86361694;-;-;-;-;-;-;-;-;-;-;-;-;-;-;-
1514190346220;-;-;9.006287;-0.20930481;-1.0922699;-;-;-;-;-;-;-;-;-;-;-;-;-;-;-
1514190346240;-;-;5.216263;2.0280762;-1.7626495;-;-;-;-;-;-;-;-;-;-;-;-;-;-;-
1514190346260;-;-;2.612564;2.6601563;-1.4537964;-;-;-;-;-;-;-;-;-;-;-;-;-;-;-
1514190346281;-;-;1.9158478;1.8389435;-0.8744049;-;-;-;-;-;-;-;-;-;-;-;-;-;-;-
1514190346301;-;-;3.5905914;-0.45231628;0.019836426;-;-;-;-;-;-;-;-;-;-;-;-;-;-;-
1514190346321;-;-;6.6108856;-2.1102905;0.29397583;-;-;-;-;-;-;-;-;-;-;-;-;-;-;-
1514190346342;-;-;9.347458;-2.5233002;-0.39915466;-;-;-;-;-;-;-;-;-;-;-;-;-;-;-
1514190346362;-;-;9.801147;-1.9917908;-1.5866699;-;-;-;-;-;-;-;-;-;-;-;-;-;-;-
1514190346382;-;-;8.750107;-0.63786316;-1.7877808;-;-;-;-;-;-;-;-;-;-;-;-;-;-;-
1514190346402;-;-;7.8175507;0.35572815;-1.5076599;-;-;-;-;-;-;-;-;-;-;-;-;-;-;-
1514190346423;-;-;7.3052063;0.6789551;-0.75349426;-;-;-;-;-;-;-;-;-;-;-;-;-;-;-
1514190346443;-;-;6.624054;0.9758301;-0.45420837;-;-;-;-;-;-;-;-;-;-;-;-;-;-;-
1514190346463;-;-;5.478424;0.967453;0.050964355;-;-;-;-;-;-;-;-;-;-;-;-;-;-;-
1514190346483;-;-;5.185135;0.9470978;0.08328247;-;-;-;-;-;-;-;-;-;-;-;-;-;-;-
1514190346504;-;-;6.205063;0.9291382;-1.1748657;-;-;-;-;-;-;-;-;-;-;-;-;-;-;-
1514190346523;-;-;7.3698425;0.60113525;-1.4035187;-;-;-;-;-;-;-;-;-;-;-;-;-;-;-
1514190346543;-;-;8.459198;-0.3002777;-0.5942688;-;-;-;-;-;-;-;-;-;-;-;-;-;-;-
1514190346564;-;-;9.956772;-0.36732483;-0.9546051;-;-;-;-;-;-;-;-;-;-;-;-;-;-;-
1514190346584;-;-;10.9982605;0.34136963;-2.4425964;-;-;-;-;-;-;-;-;-;-;-;-;-;-;-
1514190346604;-;-;10.704971;1.1685638;-3.8144836;-;-;-;-;-;-;-;-;-;-;-;-;-;-;-
1514190346624;-;-;9.398926;1.0536346;-4.7518005;-;-;-;-;-;-;-;-;-;-;-;-;-;-;-
1514190346645;-;-;8.358643;-0.3697052;-4.990036;-;-;-;-;-;-;-;-;-;-;-;-;-;-;-
1514190346665;-;-;8.102463;-2.693283;-3.8468018;-;-;-;-;-;-;-;-;-;-;-;-;-;-;-
1514190346685;-;-;9.668274;-5.344864;-2.9238281;-;-;-;-;-;-;-;-;-;-;-;-;-;-;-
1514190346705;-;-;13.078812;-6.3037415;-2.2582397;-;-;-;-;-;-;-;-;-;-;-;-;-;-;-
1514190346725;-;-;16.164948;-4.7151947;-2.2678223;-;-;-;-;-;-;-;-;-;-;-;-;-;-;-
1514190346745;-;-;18.40831;-4.1453705;-2.563507;-;-;-;-;-;-;-;-;-;-;-;-;-;-;-
1514190346765;-;-;19.668854;-2.677719;-4.004822;-;-;-;-;-;-;-;-;-;-;-;-;-;-;-
1514190346786;-;-;18.924255;0.04208374;-3.0363617;-;-;-;-;-;-;-;-;-;-;-;-;-;-;-
1514190346806;-;-;12.814255;1.1529999;-2.840042;-;-;-;-;-;-;-;-;-;-;-;-;-;-;-
1514190346826;-;-;5.4137726;0.55085754;-3.0842438;-;-;-;-;-;-;-;-;-;-;-;-;-;-;-
1514190346847;-;-;1.5531311;0.031311035;-2.0643158;-;-;-;-;-;-;-;-;-;-;-;-;-;-;-
1514190346867;-;-;0.86120605;-0.5935669;-1.0000916;-;-;-;-;-;-;-;-;-;-;-;-;-;-;-
1514190346887;-;-;4.482437;-0.8186188;-1.4741516;-;-;-;-;-;-;-;-;-;-;-;-;-;-;-
1514190346908;-;-;5.4042053;-0.86531067;-1.8213043;-;-;-;-;-;-;-;-;-;-;-;-;-;-;-
1514190346928;-;-;5.8160095;-1.3561249;-1.7650452;-;-;-;-;-;-;-;-;-;-;-;-;-;-;-
1514190346949;-;-;7.015503;-1.372879;-2.0236206;-;-;-;-;-;-;-;-;-;-;-;-;-;-;-
1514190346969;-;-;8.112045;-0.8138428;-2.1026306;-;-;-;-;-;-;-;-;-;-;-;-;-;-;-
1514190346989;-;-;8.632782;-0.48104858;-1.9062958;-;-;-;-;-;-;-;-;-;-;-;-;-;-;-
1514190347010;-;-;8.078522;-0.57681274;-1.4585876;-;-;-;-;-;-;-;-;-;-;-;-;-;-;-
1514190347031;-;-;6.2673187;-1.388443;-0.7630615;-;-;-;-;-;-;-;-;-;-;-;-;-;-;-
1514190347051;-;-;4.642853;-1.8517303;0.5944519;-;-;-;-;-;-;-;-;-;-;-;-;-;-;-
1514190347071;-;-;4.774521;-2.1402283;1.8106995;-;-;-;-;-;-;-;-;-;-;-;-;-;-;-
1514190347092;-;-;7.1651306;-2.0384674;0.024627686;-;-;-;-;-;-;-;-;-;-;-;-;-;-;-
1514190347112;-;-;8.256897;-1.4686584;-1.1976166;-;-;-;-;-;-;-;-;-;-;-;-;-;-;-
1514190347132;-;-;9.617996;-1.2040863;-1.4059143;-;-;-;-;-;-;-;-;-;-;-;-;-;-;-
1514190347153;-;-;10.044159;-0.9359436;-0.81095886;-;-;-;-;-;-;-;-;-;-;-;-;-;-;-
1514190347172;-;-;9.49469;-0.85572815;-1.2897949;-;-;-;-;-;-;-;-;-;-;-;-;-;-;-
1514190347192;-;-;7.8726196;-1.4399261;-4.519577;-;-;-;-;-;-;-;-;-;-;-;-;-;-;-
1514190347213;-;-;8.833893;-1.1621857;-6.5330963;-;-;-;-;-;-;-;-;-;-;-;-;-;-;-
1514190347232;-;-;12.040924;1.0644073;-3.3943024;-;-;-;-;-;-;-;-;-;-;-;-;-;-;-
1514190347252;-;-;13.064453;3.0970917;-2.5012512;-;-;-;-;-;-;-;-;-;-;-;-;-;-;-
1514190347273;-;-;15.124664;2.0831451;-2.2055817;-;-;-;-;-;-;-;-;-;-;-;-;-;-;-
1514190347293;-;-;16.739548;0.62028503;-5.0845947;-;-;-;-;-;-;-;-;-;-;-;-;-;-;-
1514190347313;-;-;20.372757;2.1358185;-4.816452;-;-;-;-;-;-;-;-;-;-;-;-;-;-;-
1514190347333;-;-;17.751099;1.8616791;-3.5630798;-;-;-;-;-;-;-;-;-;-;-;-;-;-;-
1514190347354;-;-;12.746017;0.44432068;-2.7059631;-;-;-;-;-;-;-;-;-;-;-;-;-;-;-
1514190347375;-;-;8.181473;-0.00819397;-1.8213043;-;-;-;-;-;-;-;-;-;-;-;-;-;-;-
1514190347395;-;-;5.2437897;0.40361023;-1.4645691;-;-;-;-;-;-;-;-;-;-;-;-;-;-;-
1514190347415;-;-;2.2498474;0.59394836;-1.2311401;-;-;-;-;-;-;-;-;-;-;-;-;-;-;-
1514190347435;-;-;0.13217163;-0.13508606;-0.7858124;-;-;-;-;-;-;-;-;-;-;-;-;-;-;-
1514190347456;-;-;-0.21737671;-1.5440674;-0.39315796;-;-;-;-;-;-;-;-;-;-;-;-;-;-;-
1514190347477;-;-;3.8036804;-1.0005798;0.1658783;-;-;-;-;-;-;-;-;-;-;-;-;-;-;-
1514190347497;-;-;6.475601;-0.042907715;-0.49971008;-;-;-;-;-;-;-;-;-;-;-;-;-;-;-
1514190347518;-;-;6.9400787;0.3904419;-1.7231445;-;-;-;-;-;-;-;-;-;-;-;-;-;-;-
1514190347539;-;-;8.24852;0.28271484;-2.172058;-;-;-;-;-;-;-;-;-;-;-;-;-;-;-
1514190347559;-;-;10.003464;0.6526184;-1.0874786;-;-;-;-;-;-;-;-;-;-;-;-;-;-;-
1514190347579;-;-;10.81749;1.006958;-1.1748657;-;-;-;-;-;-;-;-;-;-;-;-;-;-;-
1514190347600;-;-;8.951218;0.9506836;-1.7662354;-;-;-;-;-;-;-;-;-;-;-;-;-;-;-
1514190347620;-;-;7.3901978;1.0835724;-1.8464508;-;-;-;-;-;-;-;-;-;-;-;-;-;-;-
1514190347641;-;-;6.5187073;1.3660889;-1.7470856;-;-;-;-;-;-;-;-;-;-;-;-;-;-;-
1514190347661;-;-;6.8131866;1.3313751;-1.5806885;-;-;-;-;-;-;-;-;-;-;-;-;-;-;-
1514190347681;-;-;7.825943;1.0847626;-0.7678528;-;-;-;-;-;-;-;-;-;-;-;-;-;-;-
1514190347701;-;-;8.406525;1.1230774;-0.9438324;-;-;-;-;-;-;-;-;-;-;-;-;-;-;-
1514190347722;-;-;8.572922;1.0201263;-3.4433746;-;-;-;-;-;-;-;-;-;-;-;-;-;-;-
1514190347742;-;-;9.091278;-1.1454315;-6.0554504;-;-;-;-;-;-;-;-;-;-;-;-;-;-;-
1514190347762;-;-;10.971924;-3.9406586;-4.3998566;-;-;-;-;-;-;-;-;-;-;-;-;-;-;-
1514190347784;-;-;12.722076;-6.507248;-2.6245575;-;-;-;-;-;-;-;-;-;-;-;-;-;-;-
1514190347802;-;-;16.461823;-6.14093;-1.4861145;-;-;-;-;-;-;-;-;-;-;-;-;-;-;-
1514190347823;-;-;17.862427;-4.4626007;-0.9869232;-;-;-;-;-;-;-;-;-;-;-;-;-;-;-
1514190347843;-;-;16.695251;-5.274231;-3.2063446;-;-;-;-;-;-;-;-;-;-;-;-;-;-;-
1514190347863;-;-;20.608582;-3.5767517;-2.5144196;-;-;-;-;-;-;-;-;-;-;-;-;-;-;-
1514190347883;-;-;13.673782;0.7220459;-1.526825;-;-;-;-;-;-;-;-;-;-;-;-;-;-;-
1514190347903;-;-;7.9947357;2.8157654;-2.6161804;-;-;-;-;-;-;-;-;-;-;-;-;-;-;-
1514190347924;-;-;3.9174042;2.916336;-3.1620636;-;-;-;-;-;-;-;-;-;-;-;-;-;-;-
1514190347944;-;-;2.011612;1.7886658;-1.5100555;-;-;-;-;-;-;-;-;-;-;-;-;-;-;-
1514190347964;-;-;5.327591;-0.112335205;-1.3256989;-;-;-;-;-;-;-;-;-;-;-;-;-;-;-
1514190347985;-;-;6.7246094;-1.0101624;-2.333664;-;-;-;-;-;-;-;-;-;-;-;-;-;-;-
1514190348005;-;-;6.664749;-1.704483;-2.0499573;-;-;-;-;-;-;-;-;-;-;-;-;-;-;-
1514190348026;-;-;6.6192627;-1.7236328;-1.4514008;-;-;-;-;-;-;-;-;-;-;-;-;-;-;-
1514190348047;-;-;7.145981;-1.6230774;-1.3053589;-;-;-;-;-;-;-;-;-;-;-;-;-;-;-
1514190348067;-;-;8.361038;-1.3166199;-1.3412628;-;-;-;-;-;-;-;-;-;-;-;-;-;-;-
1514190348087;-;-;8.240128;-1.0580444;-1.5495605;-;-;-;-;-;-;-;-;-;-;-;-;-;-;-
1514190348107;-;-;7.189087;-1.4459076;-0.13220215;-;-;-;-;-;-;-;-;-;-;-;-;-;-;-
1514190348128;-;-;6.218231;-2.3545074;0.86738586;-;-;-;-;-;-;-;-;-;-;-;-;-;-;-
1514190348148;-;-;6.493561;-2.732788;0.4974823;-;-;-;-;-;-;-;-;-;-;-;-;-;-;-
1514190348168;-;-;7.653549;-2.0743866;-1.1269836;-;-;-;-;-;-;-;-;-;-;-;-;-;-;-
1514190348189;-;-;7.9947357;-0.4918213;-1.6177979;-;-;-;-;-;-;-;-;-;-;-;-;-;-;-
1514190348208;-;-;9.199005;0.378479;-1.3005676;-;-;-;-;-;-;-;-;-;-;-;-;-;-;-
1514190348228;-;-;10.272812;-0.20451355;-1.3400726;-;-;-;-;-;-;-;-;-;-;-;-;-;-;-
1514190348249;-;-;9.8203125;-0.89045715;-1.7746124;-;-;-;-;-;-;-;-;-;-;-;-;-;-;-
1514190348269;-;-;8.701019;-0.704895;-2.642517;-;-;-;-;-;-;-;-;-;-;-;-;-;-;-
1514190348289;-;-;9.330688;0.16897583;-4.5064087;-;-;-;-;-;-;-;-;-;-;-;-;-;-;-
1514190348309;-;-;11.674622;2.778656;-5.227051;-;-;-;-;-;-;-;-;-;-;-;-;-;-;-
1514190348330;-;-;13.143463;4.838867;-2.4952698;-;-;-;-;-;-;-;-;-;-;-;-;-;-;-
1514190348350;-;-;13.600754;3.486145;-2.780182;-;-;-;-;-;-;-;-;-;-;-;-;-;-;-
1514190348371;-;-;13.519348;0.27911377;-0.9797363;-;-;-;-;-;-;-;-;-;-;-;-;-;-;-
1514190348391;-;-;13.593567;-0.064453125;-3.448166;-;-;-;-;-;-;-;-;-;-;-;-;-;-;-
1514190348411;-;-;14.532089;-0.35295105;-2.223526;-;-;-;-;-;-;-;-;-;-;-;-;-;-;-
1514190348431;-;-;12.7556;-0.5253296;-0.71517944;-;-;-;-;-;-;-;-;-;-;-;-;-;-;-
1514190348452;-;-;8.106064;0.11152649;-0.66729736;-;-;-;-;-;-;-;-;-;-;-;-;-;-;-
1514190348471;-;-;6.501938;0.6023407;-1.021637;-;-;-;-;-;-;-;-;-;-;-;-;-;-;-
1514190348491;-;-;5.9297333;1.0632172;-1.3999176;-;-;-;-;-;-;-;-;-;-;-;-;-;-;-
1514190348511;-;-;6.651581;0.96624756;-1.4849243;-;-;-;-;-;-;-;-;-;-;-;-;-;-;-
1514190348531;-;-;7.2549133;1.0632172;-2.1744537;-;-;-;-;-;-;-;-;-;-;-;-;-;-;-
1514190348552;-;-;6.5749664;1.461853;-1.8823547;-;-;-;-;-;-;-;-;-;-;-;-;-;-;-
1514190348573;-;-;6.2302094;1.537262;-0.66490173;-;-;-;-;-;-;-;-;-;-;-;-;-;-;-
1514190348593;-;-;5.300049;1.1709595;0.077301025;-;-;-;-;-;-;-;-;-;-;-;-;-;-;-
1514190348613;-;-;6.059021;0.7579498;-0.040023804;-;-;-;-;-;-;-;-;-;-;-;-;-;-;-
1514190348634;-;-;7.53743;0.2527771;-0.7498932;-;-;-;-;-;-;-;-;-;-;-;-;-;-;-
1514190348655;-;-;8.550186;-0.076416016;-0.867218;-;-;-;-;-;-;-;-;-;-;-;-;-;-;-
1514190348674;-;-;7.948044;-0.05847168;-0.6289978;-;-;-;-;-;-;-;-;-;-;-;-;-;-;-
1514190348694;-;-;7.34111;0.23362732;-1.5723114;-;-;-;-;-;-;-;-;-;-;-;-;-;-;-
1514190348715;-;-;7.205841;0.33776855;-1.4549866;-;-;-;-;-;-;-;-;-;-;-;-;-;-;-
1514190348735;-;-;7.04303;0.512558;-0.2111969;-;-;-;-;-;-;-;-;-;-;-;-;-;-;-
1514190348755;-;-;7.9983215;0.7615509;0.40171814;-;-;-;-;-;-;-;-;-;-;-;-;-;-;-
1514190348775;-;-;9.63475;0.79985046;-1.064743;-;-;-;-;-;-;-;-;-;-;-;-;-;-;-
1514190348796;-;-;10.041779;1.0536346;-1.7470856;-;-;-;-;-;-;-;-;-;-;-;-;-;-;-
1514190348816;-;-;9.430054;0.59754944;-1.2071991;-;-;-;-;-;-;-;-;-;-;-;-;-;-;-
1514190348837;-;-;8.594482;0.37249756;-1.4633789;-;-;-;-;-;-;-;-;-;-;-;-;-;-;-
1514190348857;-;-;7.945648;0.62028503;-3.0243835;-;-;-;-;-;-;-;-;-;-;-;-;-;-;-
1514190348877;-;-;7.1687317;0.6394501;-5.2126923;-;-;-;-;-;-;-;-;-;-;-;-;-;-;-
1514190348898;-;-;8.815933;-0.09916687;-4.421402;-;-;-;-;-;-;-;-;-;-;-;-;-;-;-
1514190348918;-;-;12.744827;-3.4091492;-2.120575;-;-;-;-;-;-;-;-;-;-;-;-;-;-;-
1514190348938;-;-;16.118256;-5.3664093;-1.4992828;-;-;-;-;-;-;-;-;-;-;-;-;-;-;-
1514190348958;-;-;18.434647;-3.3313446;-1.9517822;-;-;-;-;-;-;-;-;-;-;-;-;-;-;-
1514190348979;-;-;16.579132;-1.5213165;-1.8847504;-;-;-;-;-;-;-;-;-;-;-;-;-;-;-
1514190348999;-;-;15.999741;-1.4028168;-1.4418182;-;-;-;-;-;-;-;-;-;-;-;-;-;-;-
1514190349020;-;-;12.923187;-1.4075928;-0.120224;-;-;-;-;-;-;-;-;-;-;-;-;-;-;-
1514190349040;-;-;9.853821;-0.7420044;-1.0264282;-;-;-;-;-;-;-;-;-;-;-;-;-;-;-
1514190349060;-;-;7.327942;0.44551086;-1.4837189;-;-;-;-;-;-;-;-;-;-;-;-;-;-;-
1514190349081;-;-;8.1707;0.76753235;-1.1856384;-;-;-;-;-;-;-;-;-;-;-;-;-;-;-
1514190349101;-;-;8.481949;0.40242004;-1.9733429;-;-;-;-;-;-;-;-;-;-;-;-;-;-;-
1514190349121;-;-;6.8562927;0.299469;-2.1971893;-;-;-;-;-;-;-;-;-;-;-;-;-;-;-
1514190349141;-;-;5.411392;-0.30625916;-1.574707;-;-;-;-;-;-;-;-;-;-;-;-;-;-;-
1514190349162;-;-;5.0965424;-1.0245209;-1.282608;-;-;-;-;-;-;-;-;-;-;-;-;-;-;-
1514190349182;-;-;4.937332;-0.94551086;-0.98213196;-;-;-;-;-;-;-;-;-;-;-;-;-;-;-
1514190349202;-;-;5.201889;-0.89045715;-0.91989136;-;-;-;-;-;-;-;-;-;-;-;-;-;-;-
1514190349223;-;-;5.8830414;-1.5009766;-1.0204468;-;-;-;-;-;-;-;-;-;-;-;-;-;-;-
1514190349243;-;-;5.932129;-2.1318512;-1.4885101;-;-;-;-;-;-;-;-;-;-;-;-;-;-;-
1514190349263;-;-;5.605316;-2.4023895;-1.1988068;-;-;-;-;-;-;-;-;-;-;-;-;-;-;-
1514190349283;-;-;6.202667;-2.0791779;-0.102264404;-;-;-;-;-;-;-;-;-;-;-;-;-;-;-
1514190349304;-;-;7.5709534;-0.9275665;0.92962646;-;-;-;-;-;-;-;-;-;-;-;-;-;-;-
1514190349325;-;-;9.171478;-0.22486877;-0.75349426;-;-;-;-;-;-;-;-;-;-;-;-;-;-;-
1514190349344;-;-;9.644333;-0.71447754;-2.5431519;-;-;-;-;-;-;-;-;-;-;-;-;-;-;-
1514190349364;-;-;10.1961975;-1.1190948;-1.085083;-;-;-;-;-;-;-;-;-;-;-;-;-;-;-
1514190349385;-;-;10.209366;-1.6158905;0.3777771;-;-;-;-;-;-;-;-;-;-;-;-;-;-;-
1514190349404;-;-;10.112396;-2.0540314;-0.28303528;-;-;-;-;-;-;-;-;-;-;-;-;-;-;-
1514190349424;-;-;8.599258;-1.3537292;-2.9202423;-;-;-;-;-;-;-;-;-;-;-;-;-;-;-
1514190349444;-;-;7.5877075;-0.74560547;-6.282898;-;-;-;-;-;-;-;-;-;-;-;-;-;-;-
1514190349464;-;-;8.717773;2.7834473;-4.6763916;-;-;-;-;-;-;-;-;-;-;-;-;-;-;-
1514190349485;-;-;9.9986725;4.3803864;-3.3559875;-;-;-;-;-;-;-;-;-;-;-;-;-;-;-
1514190349507;-;-;13.010574;3.228775;-3.9617157;-;-;-;-;-;-;-;-;-;-;-;-;-;-;-
1514190349527;-;-;17.584702;2.5021362;-4.675186;-;-;-;-;-;-;-;-;-;-;-;-;-;-;-
1514190349547;-;-;21.385498;0.63105774;-4.460907;-;-;-;-;-;-;-;-;-;-;-;-;-;-;-
1514190349567;-;-;18.96376;-2.810608;-2.6963806;-;-;-;-;-;-;-;-;-;-;-;-;-;-;-
1514190349587;-;-;11.698563;-1.1837463;-1.4861145;-;-;-;-;-;-;-;-;-;-;-;-;-;-;-
1514190349608;-;-;7.293228;1.1673584;-1.8464508;-;-;-;-;-;-;-;-;-;-;-;-;-;-;-
1514190349628;-;-;4.252594;2.9462585;-1.6225891;-;-;-;-;-;-;-;-;-;-;-;-;-;-;-
1514190349648;-;-;2.600586;2.7619019;-1.2957764;-;-;-;-;-;-;-;-;-;-;-;-;-;-;-
1514190349669;-;-;2.9286041;0.7519684;-0.5799103;-;-;-;-;-;-;-;-;-;-;-;-;-;-;-
1514190349690;-;-;5.0809784;-1.4291534;-0.44822693;-;-;-;-;-;-;-;-;-;-;-;-;-;-;-
1514190349709;-;-;6.7054443;-2.377243;-0.2459259;-;-;-;-;-;-;-;-;-;-;-;-;-;-;-
1514190349729;-;-;7.3291473;-2.0707855;-0.8720093;-;-;-;-;-;-;-;-;-;-;-;-;-;-;-
1514190349749;-;-;7.664322;-1.1825409;-1.452591;-;-;-;-;-;-;-;-;-;-;-;-;-;-;-
1514190349770;-;-;8.118027;0.299469;-1.8141174;-;-;-;-;-;-;-;-;-;-;-;-;-;-;-
1514190349790;-;-;7.9707794;1.1841278;-1.9529877;-;-;-;-;-;-;-;-;-;-;-;-;-;-;-
1514190349810;-;-;6.829956;1.3624878;-2.642517;-;-;-;-;-;-;-;-;-;-;-;-;-;-;-
1514190349830;-;-;4.9385376;0.9794159;-2.00206;-;-;-;-;-;-;-;-;-;-;-;-;-;-;-
1514190349851;-;-;4.154434;0.90519714;-1.0934601;-;-;-;-;-;-;-;-;-;-;-;-;-;-;-
1514190349871;-;-;5.2521667;2.1118774;-0.5236511;-;-;-;-;-;-;-;-;-;-;-;-;-;-;-
1514190349891;-;-;6.8443146;2.7092285;-0.7594757;-;-;-;-;-;-;-;-;-;-;-;-;-;-;-
1514190349912;-;-;7.8283386;1.8999939;-2.3588104;-;-;-;-;-;-;-;-;-;-;-;-;-;-;-
1514190349932;-;-;8.780029;0.6274719;-2.227127;-;-;-;-;-;-;-;-;-;-;-;-;-;-;-
1514190349953;-;-;8.995499;0.021743774;-2.0619202;-;-;-;-;-;-;-;-;-;-;-;-;-;-;-
1514190349973;-;-;8.866211;-0.7563782;-4.7589874;-;-;-;-;-;-;-;-;-;-;-;-;-;-;-
1514190349994;-;-;9.328293;-1.5596313;-5.4042206;-;-;-;-;-;-;-;-;-;-;-;-;-;-;-
1514190350014;-;-;11.395691;-2.4059753;-3.9317932;-;-;-;-;-;-;-;-;-;-;-;-;-;-;-
1514190350034;-;-;13.92038;-3.9430542;-3.6959686;-;-;-;-;-;-;-;-;-;-;-;-;-;-;-
1514190350055;-;-;18.563934;-4.400345;-1.8907318;-;-;-;-;-;-;-;-;-;-;-;-;-;-;-
1514190350074;-;-;20.93898;-3.8209534;-0.55836487;-;-;-;-;-;-;-;-;-;-;-;-;-;-;-
1514190350094;-;-;20.115372;-3.3313446;-3.2111359;-;-;-;-;-;-;-;-;-;-;-;-;-;-;-
1514190350115;-;-;15.405975;-0.7084961;-1.3963318;-;-;-;-;-;-;-;-;-;-;-;-;-;-;-
1514190350135;-;-;9.506668;0.41677856;-0.5966644;-;-;-;-;-;-;-;-;-;-;-;-;-;-;-
1514190350156;-;-;4.7326355;0.3964386;-0.867218;-;-;-;-;-;-;-;-;-;-;-;-;-;-;-
1514190350176;-;-;2.659256;-0.28471375;-1.7578583;-;-;-;-;-;-;-;-;-;-;-;-;-;-;-
1514190350197;-;-;4.6967163;-1.012558;-1.689621;-;-;-;-;-;-;-;-;-;-;-;-;-;-;-
1514190350217;-;-;8.538208;-1.2052917;-1.7458801;-;-;-;-;-;-;-;-;-;-;-;-;-;-;-
1514190350237;-;-;9.965164;-0.27514648;-3.0794525;-;-;-;-;-;-;-;-;-;-;-;-;-;-;-
1514190350257;-;-;7.0609894;-0.47865295;-2.5024567;-;-;-;-;-;-;-;-;-;-;-;-;-;-;-
1514190350278;-;-;4.465683;-1.5560455;-0.69363403;-;-;-;-;-;-;-;-;-;-;-;-;-;-;-
1514190350298;-;-;4.2549896;-2.3221893;-0.491333;-;-;-;-;-;-;-;-;-;-;-;-;-;-;-
1514190350318;-;-;4.356735;-2.5879364;-0.5320282;-;-;-;-;-;-;-;-;-;-;-;-;-;-;-
1514190350339;-;-;5.276108;-2.2922516;-0.3476715;-;-;-;-;-;-;-;-;-;-;-;-;-;-;-
1514190350360;-;-;5.715454;-2.317398;-0.5021057;-;-;-;-;-;-;-;-;-;-;-;-;-;-;-
1514190350379;-;-;6.869461;-2.5687866;-0.843277;-;-;-;-;-;-;-;-;-;-;-;-;-;-;-
1514190350399;-;-;8.110855;-2.842926;-1.2538757;-;-;-;-;-;-;-;-;-;-;-;-;-;-;-
1514190350419;-;-;8.305969;-1.9319305;0.17785645;-;-;-;-;-;-;-;-;-;-;-;-;-;-;-
1514190350440;-;-;9.207397;-0.98023987;0.6255646;-;-;-;-;-;-;-;-;-;-;-;-;-;-;-
1514190350460;-;-;10.63913;-1.4997711;1.1929932;-;-;-;-;-;-;-;-;-;-;-;-;-;-;-
1514190350481;-;-;11.753632;-2.324585;1.7747803;-;-;-;-;-;-;-;-;-;-;-;-;-;-;-
1514190350501;-;-;10.987488;-2.0899506;1.7304993;-;-;-;-;-;-;-;-;-;-;-;-;-;-;-
1514190350521;-;-;9.911285;-1.249588;-1.025238;-;-;-;-;-;-;-;-;-;-;-;-;-;-;-
1514190350542;-;-;7.806778;-1.8086243;-5.295288;-;-;-;-;-;-;-;-;-;-;-;-;-;-;-
1514190350562;-;-;9.738907;-1.570404;-4.1748047;-;-;-;-;-;-;-;-;-;-;-;-;-;-;-
1514190350582;-;-;13.570831;0.7759094;-4.0347443;-;-;-;-;-;-;-;-;-;-;-;-;-;-;-
1514190350602;-;-;15.192902;3.2539063;-4.9445343;-;-;-;-;-;-;-;-;-;-;-;-;-;-;-
1514190350623;-;-;13.040512;1.1278534;-3.3978882;-;-;-;-;-;-;-;-;-;-;-;-;-;-;-
1514190350644;-;-;12.838196;0.06124878;-5.4892273;-;-;-;-;-;-;-;-;-;-;-;-;-;-;-
1514190350664;-;-;13.752777;1.0847626;-5.460495;-;-;-;-;-;-;-;-;-;-;-;-;-;-;-
1514190350685;-;-;12.772354;2.1669464;-5.2378235;-;-;-;-;-;-;-;-;-;-;-;-;-;-;-
1514190350705;-;-;12.842987;2.2507477;-3.5714722;-;-;-;-;-;-;-;-;-;-;-;-;-;-;-
1514190350725;-;-;12.713699;0.0756073;-2.9118652;-;-;-;-;-;-;-;-;-;-;-;-;-;-;-
1514190350745;-;-;11.5872345;-1.2663422;-3.231491;-;-;-;-;-;-;-;-;-;-;-;-;-;-;-
1514190350766;-;-;7.944458;-1.7583466;-3.120163;-;-;-;-;-;-;-;-;-;-;-;-;-;-;-
1514190350785;-;-;4.3699036;-1.6542053;-2.9118652;-;-;-;-;-;-;-;-;-;-;-;-;-;-;-
1514190350806;-;-;4.407013;-1.1442413;-1.7662354;-;-;-;-;-;-;-;-;-;-;-;-;-;-;-
1514190350826;-;-;7.435684;1.2188416;-1.1066284;-;-;-;-;-;-;-;-;-;-;-;-;-;-;-
1514190350846;-;-;5.928528;2.5931091;-1.8787689;-;-;-;-;-;-;-;-;-;-;-;-;-;-;-
1514190350866;-;-;3.7988892;2.7714844;-1.471756;-;-;-;-;-;-;-;-;-;-;-;-;-;-;-
1514190350887;-;-;4.4632874;1.956253;-0.417099;-;-;-;-;-;-;-;-;-;-;-;-;-;-;-
1514190350907;-;-;7.1016846;0.68852234;-0.17170715;-;-;-;-;-;-;-;-;-;-;-;-;-;-;-
1514190350927;-;-;9.698196;-0.65582275;-0.9749603;-;-;-;-;-;-;-;-;-;-;-;-;-;-;-
1514190350948;-;-;10.68103;-0.25360107;-2.2654266;-;-;-;-;-;-;-;-;-;-;-;-;-;-;-
1514190350968;-;-;10.385345;1.2415924;-1.5591431;-;-;-;-;-;-;-;-;-;-;-;-;-;-;-
1514190350988;-;-;10.483505;1.1398315;-1.0527649;-;-;-;-;-;-;-;-;-;-;-;-;-;-;-
1514190351009;-;-;10.525406;0.124694824;-0.37998962;-;-;-;-;-;-;-;-;-;-;-;-;-;-;-
1514190351029;-;-;9.79277;-0.46069336;0.95835876;-;-;-;-;-;-;-;-;-;-;-;-;-;-;-
1514190351049;-;-;8.893753;-1.0197449;0.4807129;-;-;-;-;-;-;-;-;-;-;-;-;-;-;-
1514190351069;-;-;8.736938;-0.8748932;-4.270569;-;-;-;-;-;-;-;-;-;-;-;-;-;-;-
1514190351089;-;-;9.268448;-2.0743866;-8.815964;-;-;-;-;-;-;-;-;-;-;-;-;-;-;-
1514190351109;-;-;11.326263;-2.320984;-5.491623;-;-;-;-;-;-;-;-;-;-;-;-;-;-;-
1514190351129;-;-;12.929184;-3.2487335;-6.360718;-;-;-;-;-;-;-;-;-;-;-;-;-;-;-
1514190351149;-;-;11.684189;-4.2638855;-6.8419495;-;-;-;-;-;-;-;-;-;-;-;-;-;-;-
1514190351169;-;-;12.232468;-2.6729279;-4.9804535;-;-;-;-;-;-;-;-;-;-;-;-;-;-;-
1514190351189;-;-;12.212112;-1.0077667;-5.582596;-;-;-;-;-;-;-;-;-;-;-;-;-;-;-
1514190351209;-;-;11.120361;-1.0233307;-5.441345;-;-;-;-;-;-;-;-;-;-;-;-;-;-;-
1514190351230;-;-;8.894943;-0.51216125;-4.9636993;-;-;-;-;-;-;-;-;-;-;-;-;-;-;-
1514190351250;-;-;6.6348267;0.338974;-4.172409;-;-;-;-;-;-;-;-;-;-;-;-;-;-;-
1514190351270;-;-;5.6986847;-0.31704712;-3.4122467;-;-;-;-;-;-;-;-;-;-;-;-;-;-;-
1514190351290;-;-;5.881851;-2.0899506;-2.263031;-;-;-;-;-;-;-;-;-;-;-;-;-;-;-
1514190351311;-;-;6.2505493;-3.124237;-2.017624;-;-;-;-;-;-;-;-;-;-;-;-;-;-;-
1514190351331;-;-;6.1595764;-3.0093231;-2.4473877;-;-;-;-;-;-;-;-;-;-;-;-;-;-;-
1514190351351;-;-;5.952469;-1.8948212;-2.6712494;-;-;-;-;-;-;-;-;-;-;-;-;-;-;-
1514190351371;-;-;6.4600525;-1.076004;-2.7167358;-;-;-;-;-;-;-;-;-;-;-;-;-;-;-
1514190351392;-;-;7.059799;-0.7910919;-2.8053284;-;-;-;-;-;-;-;-;-;-;-;-;-;-;-
1514190351413;-;-;7.3889923;-0.45948792;-2.7035675;-;-;-;-;-;-;-;-;-;-;-;-;-;-;-
1514190351432;-;-;7.7804413;-0.1985321;-2.5180206;-;-;-;-;-;-;-;-;-;-;-;-;-;-;-
1514190351452;-;-;8.1324005;-0.33021545;-2.3157043;-;-;-;-;-;-;-;-;-;-;-;-;-;-;-
1514190351472;-;-;9.026627;-0.6905365;-2.0224152;-;-;-;-;-;-;-;-;-;-;-;-;-;-;-
1514190351493;-;-;9.754471;-0.8186188;-1.693222;-;-;-;-;-;-;-;-;-;-;-;-;-;-;-
1514190351513;-;-;10.278793;-1.1107178;-1.7231445;-;-;-;-;-;-;-;-;-;-;-;-;-;-;-
1514190351534;-;-;10.3697815;-1.1837463;-1.7817993;-;-;-;-;-;-;-;-;-;-;-;-;-;-;-
1514190351554;-;-;11.016205;-0.8593292;-1.1305847;-;-;-;-;-;-;-;-;-;-;-;-;-;-;-
1514190351576;-;-;11.347809;-0.51216125;-0.92826843;-;-;-;-;-;-;-;-;-;-;-;-;-;-;-
1514190351596;-;-;10.657074;-1.1993103;-0.06994629;-;-;-;-;-;-;-;-;-;-;-;-;-;-;-
1514190351617;-;-;9.866989;-2.2766876;0.9859009;-;-;-;-;-;-;-;-;-;-;-;-;-;-;-
1514190351637;-;-;9.645538;-3.6856842;-0.6517334;-;-;-;-;-;-;-;-;-;-;-;-;-;-;-
1514190351657;-;-;9.673065;-5.885956;-5.381485;-;-;-;-;-;-;-;-;-;-;-;-;-;-;-
1514190351678;-;-;10.24408;-6.2558594;-5.6364594;-;-;-;-;-;-;-;-;-;-;-;-;-;-;-
1514190351697;-;-;8.290421;-3.3349304;-4.0910034;-;-;-;-;-;-;-;-;-;-;-;-;-;-;-
1514190351717;-;-;6.7617188;0.28630066;-5.108551;-;-;-;-;-;-;-;-;-;-;-;-;-;-;-
1514190351738;-;-;6.379837;2.6206512;-5.1336823;-;-;-;-;-;-;-;-;-;-;-;-;-;-;-
1514190351758;-;-;9.024231;0.675354;-4.5818176;-;-;-;-;-;-;-;-;-;-;-;-;-;-;-
1514190351778;-;-;12.175003;-1.9438934;-3.5714722;-;-;-;-;-;-;-;-;-;-;-;-;-;-;-
1514190351798;-;-;13.085999;-3.281067;-3.377533;-;-;-;-;-;-;-;-;-;-;-;-;-;-;-
1514190351819;-;-;11.630325;-2.8201752;-3.5427399;-;-;-;-;-;-;-;-;-;-;-;-;-;-;-
1514190351838;-;-;10.039383;-1.4231567;-3.2458496;-;-;-;-;-;-;-;-;-;-;-;-;-;-;-
1514190351858;-;-;9.281616;-1.3704834;-3.3368378;-;-;-;-;-;-;-;-;-;-;-;-;-;-;-
1514190351879;-;-;8.304779;-0.85572815;-3.3787384;-;-;-;-;-;-;-;-;-;-;-;-;-;-;-
1514190351899;-;-;6.3822327;0.06364441;-3.7905426;-;-;-;-;-;-;-;-;-;-;-;-;-;-;-
1514190351919;-;-;4.7445984;0.74957275;-4.0012207;-;-;-;-;-;-;-;-;-;-;-;-;-;-;-
1514190351940;-;-;4.058655;0.89682007;-3.6804047;-;-;-;-;-;-;-;-;-;-;-;-;-;-;-
1514190351960;-;-;6.434906;0.8154144;-3.2458496;-;-;-;-;-;-;-;-;-;-;-;-;-;-;-
1514190351980;-;-;9.0793;1.1182861;-3.0674896;-;-;-;-;-;-;-;-;-;-;-;-;-;-;-
1514190352000;-;-;9.37738;1.956253;-2.8148956;-;-;-;-;-;-;-;-;-;-;-;-;-;-;-
1514190352021;-;-;8.936844;3.2000427;-2.8448334;-;-;-;-;-;-;-;-;-;-;-;-;-;-;-
1514190352041;-;-;8.671097;3.9506226;-2.3468323;-;-;-;-;-;-;-;-;-;-;-;-;-;-;-
1514190352062;-;-;8.632782;3.8105621;-2.199585;-;-;-;-;-;-;-;-;-;-;-;-;-;-;-
1514190352082;-;-;8.259293;3.1605377;-2.254654;-;-;-;-;-;-;-;-;-;-;-;-;-;-;-
1514190352102;-;-;7.1998596;1.9754028;-1.7363129;-;-;-;-;-;-;-;-;-;-;-;-;-;-;-
1514190352122;-;-;7.0298615;1.1158905;-1.0132599;-;-;-;-;-;-;-;-;-;-;-;-;-;-;-
1514190352143;-;-;7.502716;0.7292328;-0.62060547;-;-;-;-;-;-;-;-;-;-;-;-;-;-;-
1514190352162;-;-;8.507095;0.30186462;-0.5823059;-;-;-;-;-;-;-;-;-;-;-;-;-;-;-
1514190352182;-;-;9.437241;-0.1877594;-0.40393066;-;-;-;-;-;-;-;-;-;-;-;-;-;-;-
1514190352203;-;-;10.058533;-0.93473816;0.54177856;-;-;-;-;-;-;-;-;-;-;-;-;-;-;-
1514190352222;-;-;10.099228;-1.3788757;1.6790161;-;-;-;-;-;-;-;-;-;-;-;-;-;-;-
1514190352242;-;-;9.924454;-1.9175568;1.2492523;-;-;-;-;-;-;-;-;-;-;-;-;-;-;-
1514190352262;-;-;10.435623;-1.6266632;-2.4318237;-;-;-;-;-;-;-;-;-;-;-;-;-;-;-
1514190352282;-;-;11.049728;0.9087982;-6.279312;-;-;-;-;-;-;-;-;-;-;-;-;-;-;-
1514190352302;-;-;12.975861;1.4833984;-7.6056976;-;-;-;-;-;-;-;-;-;-;-;-;-;-;-
1514190352322;-;-;15.30542;2.1980743;-4.5662537;-;-;-;-;-;-;-;-;-;-;-;-;-;-;-
1514190352342;-;-;9.404907;0.6861267;-5.5131683;-;-;-;-;-;-;-;-;-;-;-;-;-;-;-
1514190352363;-;-;5.6017303;-1.992981;-3.6361084;-;-;-;-;-;-;-;-;-;-;-;-;-;-;-
1514190352383;-;-;2.7262878;-3.823349;-1.8679962;-;-;-;-;-;-;-;-;-;-;-;-;-;-;-
1514190352403;-;-;7.5158844;-3.4067535;-3.8575745;-;-;-;-;-;-;-;-;-;-;-;-;-;-;-
1514190352424;-;-;10.943192;-0.20690918;-5.5335083;-;-;-;-;-;-;-;-;-;-;-;-;-;-;-
1514190352443;-;-;12.277954;3.4981232;-4.4740753;-;-;-;-;-;-;-;-;-;-;-;-;-;-;-
1514190352463;-;-;11.105988;5.0818787;-3.6265259;-;-;-;-;-;-;-;-;-;-;-;-;-;-;-
1514190352484;-;-;10.092056;2.861267;-3.8432007;-;-;-;-;-;-;-;-;-;-;-;-;-;-;-
1514190352504;-;-;9.305557;-0.34457397;-2.7107544;-;-;-;-;-;-;-;-;-;-;-;-;-;-;-
1514190352524;-;-;7.8726196;-2.4107666;-1.8536224;-;-;-;-;-;-;-;-;-;-;-;-;-;-;-
1514190352545;-;-;6.8407288;-3.0428314;-1.1365662;-;-;-;-;-;-;-;-;-;-;-;-;-;-;-
1514190352565;-;-;5.4927826;-1.8816528;-1.2275391;-;-;-;-;-;-;-;-;-;-;-;-;-;-;-
1514190352585;-;-;5.2545624;-0.36732483;-1.9936829;-;-;-;-;-;-;-;-;-;-;-;-;-;-;-
1514190352606;-;-;5.490387;0.8513336;-2.3923187;-;-;-;-;-;-;-;-;-;-;-;-;-;-;-
1514190352626;-;-;6.0482483;1.5528259;-2.665268;-;-;-;-;-;-;-;-;-;-;-;-;-;-;-
1514190352646;-;-;6.8479004;1.9227295;-2.7346954;-;-;-;-;-;-;-;-;-;-;-;-;-;-;-
1514190352666;-;-;7.269287;1.8257751;-1.6213837;-;-;-;-;-;-;-;-;-;-;-;-;-;-;-
1514190352687;-;-;7.4404755;0.8381653;-0.88757324;-;-;-;-;-;-;-;-;-;-;-;-;-;-;-
1514190352707;-;-;7.490753;-0.09197998;-0.42907715;-;-;-;-;-;-;-;-;-;-;-;-;-;-;-
1514190352727;-;-;7.159149;-0.49661255;-0.9258728;-;-;-;-;-;-;-;-;-;-;-;-;-;-;-
1514190352747;-;-;6.9077606;-0.61750793;-0.84088135;-;-;-;-;-;-;-;-;-;-;-;-;-;-;-
1514190352768;-;-;7.2393646;-1.2424011;-0.27105713;-;-;-;-;-;-;-;-;-;-;-;-;-;-;-
1514190352788;-;-;7.6786957;-1.9199524;-0.12860107;-;-;-;-;-;-;-;-;-;-;-;-;-;-;-
1514190352808;-;-;7.5984955;-2.6190643;-0.709198;-;-;-;-;-;-;-;-;-;-;-;-;-;-;-
1514190352829;-;-;7.683487;-2.8381348;-1.6944122;-;-;-;-;-;-;-;-;-;-;-;-;-;-;-
1514190352849;-;-;7.8726196;-1.9570618;-1.9733429;-;-;-;-;-;-;-;-;-;-;-;-;-;-;-
1514190352869;-;-;8.656723;-1.3273926;-3.223114;-;-;-;-;-;-;-;-;-;-;-;-;-;-;-
1514190352890;-;-;10.697784;-0.7491913;-7.8295593;-;-;-;-;-;-;-;-;-;-;-;-;-;-;-
1514190352910;-;-;12.219299;1.4965668;-6.654007;-;-;-;-;-;-;-;-;-;-;-;-;-;-;-
1514190352930;-;-;11.153885;3.237152;-6.2960663;-;-;-;-;-;-;-;-;-;-;-;-;-;-;-
1514190352951;-;-;12.826233;2.6170502;-3.8001099;-;-;-;-;-;-;-;-;-;-;-;-;-;-;-
1514190352971;-;-;15.238388;3.4873505;-2.9980621;-;-;-;-;-;-;-;-;-;-;-;-;-;-;-
1514190352991;-;-;15.5759735;4.0009003;-6.6755524;-;-;-;-;-;-;-;-;-;-;-;-;-;-;-
1514190353011;-;-;15.054031;1.3780518;-3.381134;-;-;-;-;-;-;-;-;-;-;-;-;-;-;-
1514190353032;-;-;12.880096;-1.1107178;-2.3875275;-;-;-;-;-;-;-;-;-;-;-;-;-;-;-
1514190353052;-;-;9.826294;-0.41041565;-2.4485931;-;-;-;-;-;-;-;-;-;-;-;-;-;-;-
1514190353072;-;-;7.5553894;1.6234589;-2.148117;-;-;-;-;-;-;-;-;-;-;-;-;-;-;-
1514190353093;-;-;5.1911163;2.5979004;-2.0894623;-;-;-;-;-;-;-;-;-;-;-;-;-;-;-
1514190353113;-;-;3.0686646;1.9371033;-1.7518768;-;-;-;-;-;-;-;-;-;-;-;-;-;-;-
1514190353133;-;-;2.1756287;0.26715088;-0.80856323;-;-;-;-;-;-;-;-;-;-;-;-;-;-;-
1514190353154;-;-;3.8120575;-1.1454315;0.25926208;-;-;-;-;-;-;-;-;-;-;-;-;-;-;-
1514190353176;-;-;6.4923706;-1.4399261;0.6207886;-;-;-;-;-;-;-;-;-;-;-;-;-;-;-
1514190353196;-;-;8.1324005;-0.8186188;-0.60743713;-;-;-;-;-;-;-;-;-;-;-;-;-;-;-
1514190353216;-;-;8.016281;-0.064453125;-1.5890656;-;-;-;-;-;-;-;-;-;-;-;-;-;-;-
1514190353236;-;-;7.9312897;0.35333252;-1.697998;-;-;-;-;-;-;-;-;-;-;-;-;-;-;-
1514190353257;-;-;7.3865967;0.24440002;-2.2845764;-;-;-;-;-;-;-;-;-;-;-;-;-;-;-
1514190353277;-;-;6.86467;-0.2679596;-1.7387085;-;-;-;-;-;-;-;-;-;-;-;-;-;-;-
1514190353297;-;-;6.553421;-0.17817688;-0.15853882;-;-;-;-;-;-;-;-;-;-;-;-;-;-;-
1514190353318;-;-;7.0298615;0.5771942;-0.32852173;-;-;-;-;-;-;-;-;-;-;-;-;-;-;-
1514190353337;-;-;8.045013;1.1637726;-3.20755;-;-;-;-;-;-;-;-;-;-;-;-;-;-;-
1514190353357;-;-;8.83989;0.7759094;-3.6133575;-;-;-;-;-;-;-;-;-;-;-;-;-;-;-
1514190353378;-;-;8.400543;-0.10874939;-1.8392639;-;-;-;-;-;-;-;-;-;-;-;-;-;-;-
1514190353398;-;-;8.5082855;-0.23443604;0.117996216;-;-;-;-;-;-;-;-;-;-;-;-;-;-;-
1514190353418;-;-;8.957199;0.58078;-3.661255;-;-;-;-;-;-;-;-;-;-;-;-;-;-;-
1514190353439;-;-;8.050995;1.6821136;-8.448456;-;-;-;-;-;-;-;-;-;-;-;-;-;-;-
1514190353458;-;-;9.692215;0.1558075;-7.4033813;-;-;-;-;-;-;-;-;-;-;-;-;-;-;-
1514190353478;-;-;11.416046;-1.7379913;-4.0742493;-;-;-;-;-;-;-;-;-;-;-;-;-;-;-
1514190353498;-;-;13.464279;-5.2443085;-3.1656494;-;-;-;-;-;-;-;-;-;-;-;-;-;-;-
1514190353519;-;-;16.399567;-5.1341705;-3.0220032;-;-;-;-;-;-;-;-;-;-;-;-;-;-;-
1514190353539;-;-;19.45578;-4.1860657;-3.669632;-;-;-;-;-;-;-;-;-;-;-;-;-;-;-
1514190353559;-;-;18.404724;-3.5432281;-2.7993317;-;-;-;-;-;-;-;-;-;-;-;-;-;-;-
1514190353580;-;-;14.107132;-1.8481293;-1.4095001;-;-;-;-;-;-;-;-;-;-;-;-;-;-;-
1514190353600;-;-;9.711365;-0.51815796;-1.7315216;-;-;-;-;-;-;-;-;-;-;-;-;-;-;-
1514190353622;-;-;6.0961304;-0.32302856;-2.0834656;-;-;-;-;-;-;-;-;-;-;-;-;-;-;-
1514190353642;-;-;4.1795654;-0.9766388;-1.4190826;-;-;-;-;-;-;-;-;-;-;-;-;-;-;-
1514190353663;-;-;3.9150085;-1.9331207;-1.634552;-;-;-;-;-;-;-;-;-;-;-;-;-;-;-
1514190353683;-;-;5.3251953;-1.3776703;-2.2917633;-;-;-;-;-;-;-;-;-;-;-;-;-;-;-
1514190353703;-;-;5.821991;-0.21289063;-2.6377258;-;-;-;-;-;-;-;-;-;-;-;-;-;-;-
1514190353723;-;-;6.37027;0.25756836;-2.8065186;-;-;-;-;-;-;-;-;-;-;-;-;-;-;-
1514190353744;-;-;6.580948;0.3222046;-2.8065186;-;-;-;-;-;-;-;-;-;-;-;-;-;-;-
1514190353765;-;-;7.794815;0.052871704;-2.5922394;-;-;-;-;-;-;-;-;-;-;-;-;-;-;-
1514190353785;-;-;9.216965;-0.3433838;-2.115799;-;-;-;-;-;-;-;-;-;-;-;-;-;-;-
1514190353805;-;-;8.490326;-0.7312317;-2.65448;-;-;-;-;-;-;-;-;-;-;-;-;-;-;-
1514190353827;-;-;6.2589264;-0.5720215;-2.3540192;-;-;-;-;-;-;-;-;-;-;-;-;-;-;-
1514190353846;-;-;5.0211334;-0.51815796;-1.0228424;-;-;-;-;-;-;-;-;-;-;-;-;-;-;-
1514190353866;-;-;5.663971;-1.4399261;0.08328247;-;-;-;-;-;-;-;-;-;-;-;-;-;-;-
1514190353887;-;-;7.693054;-2.9566498;0.68782043;-;-;-;-;-;-;-;-;-;-;-;-;-;-;-
1514190353908;-;-;9.583282;-3.8832092;-0.748703;-;-;-;-;-;-;-;-;-;-;-;-;-;-;-
1514190353928;-;-;10.0298;-2.1545868;-2.1229706;-;-;-;-;-;-;-;-;-;-;-;-;-;-;-
1514190353949;-;-;8.6651;-0.30267334;-2.1409302;-;-;-;-;-;-;-;-;-;-;-;-;-;-;-
1514190353969;-;-;7.6810913;0.4012146;-2.4509735;-;-;-;-;-;-;-;-;-;-;-;-;-;-;-
1514190353989;-;-;7.660736;0.48262024;-1.5926514;-;-;-;-;-;-;-;-;-;-;-;-;-;-;-
1514190354010;-;-;7.7888336;-0.34457397;-2.6293488;-;-;-;-;-;-;-;-;-;-;-;-;-;-;-
1514190354030;-;-;9.9436035;-1.0089569;-5.7358246;-;-;-;-;-;-;-;-;-;-;-;-;-;-;-
1514190354050;-;-;12.437164;0.4694519;-7.0514374;-;-;-;-;-;-;-;-;-;-;-;-;-;-;-
1514190354071;-;-;12.282745;2.8169708;-4.8763123;-;-;-;-;-;-;-;-;-;-;-;-;-;-;-
1514190354090;-;-;13.167404;2.8552704;-3.156067;-;-;-;-;-;-;-;-;-;-;-;-;-;-;-
1514190354110;-;-;13.321823;0.793869;-1.3712006;-;-;-;-;-;-;-;-;-;-;-;-;-;-;-
1514190354130;-;-;14.150223;1.8054199;-7.374649;-;-;-;-;-;-;-;-;-;-;-;-;-;-;-
1514190354151;-;-;15.891998;3.0348358;-3.9186249;-;-;-;-;-;-;-;-;-;-;-;-;-;-;-
1514190354170;-;-;14.099945;2.0639954;-4.420212;-;-;-;-;-;-;-;-;-;-;-;-;-;-;-
1514190354190;-;-;9.922058;1.1242676;-2.9082794;-;-;-;-;-;-;-;-;-;-;-;-;-;-;-
1514190354210;-;-;7.233368;1.1601868;-2.0822754;-;-;-;-;-;-;-;-;-;-;-;-;-;-;-
1514190354230;-;-;4.4632874;1.477417;-1.792572;-;-;-;-;-;-;-;-;-;-;-;-;-;-;-
1514190354251;-;-;2.114563;0.85372925;-1.5818787;-;-;-;-;-;-;-;-;-;-;-;-;-;-;-
1514190354272;-;-;1.6692505;-0.3541565;-1.2861938;-;-;-;-;-;-;-;-;-;-;-;-;-;-;-
1514190354292;-;-;3.0914001;-0.6797638;-1.1269836;-;-;-;-;-;-;-;-;-;-;-;-;-;-;-
1514190354312;-;-;6.6156616;-0.41281128;-1.9039001;-;-;-;-;-;-;-;-;-;-;-;-;-;-;-
1514190354333;-;-;6.3571014;-0.21647644;-2.3863373;-;-;-;-;-;-;-;-;-;-;-;-;-;-;-
1514190354352;-;-;5.765732;-0.06086731;-1.8991089;-;-;-;-;-;-;-;-;-;-;-;-;-;-;-
1514190354372;-;-;5.9225464;0.13905334;-1.7111664;-;-;-;-;-;-;-;-;-;-;-;-;-;-;-
1514190354393;-;-;8.223373;0.4072113;-1.8248901;-;-;-;-;-;-;-;-;-;-;-;-;-;-;-
1514190354413;-;-;9.452805;0.7220459;-0.8720093;-;-;-;-;-;-;-;-;-;-;-;-;-;-;-
1514190354433;-;-;9.37619;0.90400696;-0.496109;-;-;-;-;-;-;-;-;-;-;-;-;-;-;-
1514190354454;-;-;9.276825;1.3289795;-2.3300781;-;-;-;-;-;-;-;-;-;-;-;-;-;-;-
1514190354474;-;-;8.241333;1.5492401;-3.2446594;-;-;-;-;-;-;-;-;-;-;-;-;-;-;-
1514190354494;-;-;7.0190887;0.1725769;-1.5339966;-;-;-;-;-;-;-;-;-;-;-;-;-;-;-
1514190354514;-;-;7.0526123;-0.4559021;-0.05319214;-;-;-;-;-;-;-;-;-;-;-;-;-;-;-
1514190354535;-;-;8.294006;0.10673523;-0.5978699;-;-;-;-;-;-;-;-;-;-;-;-;-;-;-
1514190354555;-;-;8.6651;0.3282013;-4.393875;-;-;-;-;-;-;-;-;-;-;-;-;-;-;-
1514190354575;-;-;7.5589905;-0.119522095;-6.844345;-;-;-;-;-;-;-;-;-;-;-;-;-;-;-
1514190354596;-;-;7.762497;-0.89164734;-4.5530853;-;-;-;-;-;-;-;-;-;-;-;-;-;-;-
1514190354616;-;-;10.092056;-1.7739105;-3.4613342;-;-;-;-;-;-;-;-;-;-;-;-;-;-;-
1514190354636;-;-;13.889252;-2.7543335;-2.883133;-;-;-;-;-;-;-;-;-;-;-;-;-;-;-
1514190354657;-;-;18.832077;-1.7415924;-5.559845;-;-;-;-;-;-;-;-;-;-;-;-;-;-;-
1514190354677;-;-;21.1353;-1.2268372;-3.408661;-;-;-;-;-;-;-;-;-;-;-;-;-;-;-
1514190354697;-;-;21.320862;-4.9174957;-4.4788666;-;-;-;-;-;-;-;-;-;-;-;-;-;-;-
1514190354717;-;-;20.150085;-4.5966797;-3.7582092;-;-;-;-;-;-;-;-;-;-;-;-;-;-;-
1514190354738;-;-;13.376892;-1.4303436;-1.7363129;-;-;-;-;-;-;-;-;-;-;-;-;-;-;-
1514190354758;-;-;7.683487;1.0428619;-2.4868927;-;-;-;-;-;-;-;-;-;-;-;-;-;-;-
1514190354778;-;-;3.2338562;1.8185883;-2.9609375;-;-;-;-;-;-;-;-;-;-;-;-;-;-;-
1514190354799;-;-;0.48771667;1.4283295;-1.8643951;-;-;-;-;-;-;-;-;-;-;-;-;-;-;-
1514190354819;-;-;0.97732544;-0.47146606;-2.2606354;-;-;-;-;-;-;-;-;-;-;-;-;-;-;-
1514190354839;-;-;3.536728;-1.427948;-2.2738037;-;-;-;-;-;-;-;-;-;-;-;-;-;-;-
1514190354859;-;-;3.9269867;-1.6625824;-1.9865112;-;-;-;-;-;-;-;-;-;-;-;-;-;-;-
1514190354879;-;-;5.0857697;-1.922348;-1.610611;-;-;-;-;-;-;-;-;-;-;-;-;-;-;-
1514190354900;-;-;6.9747925;-2.3509216;-2.6317444;-;-;-;-;-;-;-;-;-;-;-;-;-;-;-
1514190354920;-;-;9.008667;-2.3269653;-2.6796265;-;-;-;-;-;-;-;-;-;-;-;-;-;-;-
1514190354940;-;-;10.46315;-1.8026428;-1.6357574;-;-;-;-;-;-;-;-;-;-;-;-;-;-;-
1514190354961;-;-;11.03656;-1.8517303;-1.2478943;-;-;-;-;-;-;-;-;-;-;-;-;-;-;-
1514190354981;-;-;9.3893585;-1.8289795;-1.713562;-;-;-;-;-;-;-;-;-;-;-;-;-;-;-
1514190355001;-;-;7.0741577;-1.1262817;-1.6608887;-;-;-;-;-;-;-;-;-;-;-;-;-;-;-
1514190355022;-;-;5.6903076;-0.34576416;-0.451828;-;-;-;-;-;-;-;-;-;-;-;-;-;-;-
1514190355042;-;-;5.6544037;-0.92037964;-0.57632446;-;-;-;-;-;-;-;-;-;-;-;-;-;-;-
1514190355062;-;-;7.0107117;-2.7100372;-1.2059937;-;-;-;-;-;-;-;-;-;-;-;-;-;-;-
1514190355083;-;-;7.174713;-3.1828918;-1.3005676;-;-;-;-;-;-;-;-;-;-;-;-;-;-;-
1514190355103;-;-;7.6763;-2.1701508;-0.5643463;-;-;-;-;-;-;-;-;-;-;-;-;-;-;-
1514190355124;-;-;7.9504395;-0.4044342;-0.085510254;-;-;-;-;-;-;-;-;-;-;-;-;-;-;-
1514190355144;-;-;8.801575;0.596344;-0.8851776;-;-;-;-;-;-;-;-;-;-;-;-;-;-;-
1514190355164;-;-;9.212173;0.48501587;-1.595047;-;-;-;-;-;-;-;-;-;-;-;-;-;-;-
1514190355185;-;-;8.933258;-0.054870605;-1.4071045;-;-;-;-;-;-;-;-;-;-;-;-;-;-;-
1514190355205;-;-;8.68306;-0.878479;-4.417816;-;-;-;-;-;-;-;-;-;-;-;-;-;-;-
1514190355225;-;-;10.4930725;-0.45710754;-6.4552765;-;-;-;-;-;-;-;-;-;-;-;-;-;-;-
1514190355245;-;-;12.714905;1.1338501;-5.013977;-;-;-;-;-;-;-;-;-;-;-;-;-;-;-
1514190355265;-;-;13.662994;2.651764;-4.833206;-;-;-;-;-;-;-;-;-;-;-;-;-;-;-
1514190355286;-;-;15.863266;2.8684387;-4.184387;-;-;-;-;-;-;-;-;-;-;-;-;-;-;-
1514190355306;-;-;17.260284;3.1377869;-6.342758;-;-;-;-;-;-;-;-;-;-;-;-;-;-;-
1514190355326;-;-;16.933487;2.3165894;-3.2638092;-;-;-;-;-;-;-;-;-;-;-;-;-;-;-
1514190355347;-;-;11.296326;0.26834106;-3.0076294;-;-;-;-;-;-;-;-;-;-;-;-;-;-;-
1514190355367;-;-;8.660324;0.1510315;-1.8907318;-;-;-;-;-;-;-;-;-;-;-;-;-;-;-
1514190355387;-;-;7.7732697;0.8417511;-1.6860352;-;-;-;-;-;-;-;-;-;-;-;-;-;-;-
1514190355408;-;-;6.5115204;1.3086243;-2.1229706;-;-;-;-;-;-;-;-;-;-;-;-;-;-;-
1514190355428;-;-;4.627289;0.9291382;-1.6118164;-;-;-;-;-;-;-;-;-;-;-;-;-;-;-
1514190355448;-;-;3.7282562;0.117507935;-1.1509247;-;-;-;-;-;-;-;-;-;-;-;-;-;-;-
1514190355469;-;-;4.1879425;-0.4559021;-0.98213196;-;-;-;-;-;-;-;-;-;-;-;-;-;-;-
1514190355489;-;-;5.414978;-0.8282013;-0.8564453;-;-;-;-;-;-;-;-;-;-;-;-;-;-;-
1514190355509;-;-;7.0023346;-1.1358643;-1.1221924;-;-;-;-;-;-;-;-;-;-;-;-;-;-;-
1514190355529;-;-;7.969589;-0.9143982;-0.867218;-;-;-;-;-;-;-;-;-;-;-;-;-;-;-
1514190355550;-;-;8.788406;0.15940857;-1.0491791;-;-;-;-;-;-;-;-;-;-;-;-;-;-;-
1514190355570;-;-;8.801575;1.2355957;-1.7195587;-;-;-;-;-;-;-;-;-;-;-;-;-;-;-
1514190355590;-;-;8.040222;1.4127655;-2.029602;-;-;-;-;-;-;-;-;-;-;-;-;-;-;-
1514190355611;-;-;7.150772;1.2391968;-1.1964111;-;-;-;-;-;-;-;-;-;-;-;-;-;-;-
1514190355631;-;-;6.9317017;1.2930603;-1.4394226;-;-;-;-;-;-;-;-;-;-;-;-;-;-;-
1514190355651;-;-;5.893814;1.5085449;-1.8967285;-;-;-;-;-;-;-;-;-;-;-;-;-;-;-
1514190355672;-;-;4.446518;1.6054993;-0.5858917;-;-;-;-;-;-;-;-;-;-;-;-;-;-;-
1514190355692;-;-;4.884659;1.4953766;0.19102478;-;-;-;-;-;-;-;-;-;-;-;-;-;-;-
1514190355712;-;-;6.3822327;1.1075134;-0.9162903;-;-;-;-;-;-;-;-;-;-;-;-;-;-;-
1514190355733;-;-;7.3506927;0.25517273;-3.4589386;-;-;-;-;-;-;-;-;-;-;-;-;-;-;-
1514190355753;-;-;8.127609;-0.7444;-5.590973;-;-;-;-;-;-;-;-;-;-;-;-;-;-;-
1514190355774;-;-;9.243301;-1.4925995;-5.283325;-;-;-;-;-;-;-;-;-;-;-;-;-;-;-
1514190355794;-;-;13.136276;-1.6889191;-3.2279053;-;-;-;-;-;-;-;-;-;-;-;-;-;-;-
1514190355814;-;-;16.003326;-2.5532227;-5.543091;-;-;-;-;-;-;-;-;-;-;-;-;-;-;-
1514190355835;-;-;20.909058;-3.6114655;-4.84877;-;-;-;-;-;-;-;-;-;-;-;-;-;-;-
1514190355855;-;-;24.484787;-4.397949;-1.5914612;-;-;-;-;-;-;-;-;-;-;-;-;-;-;-
1514190355875;-;-;22.089401;-4.594284;-3.4780884;-;-;-;-;-;-;-;-;-;-;-;-;-;-;-
1514190355896;-;-;16.41513;-3.2966309;-3.0387573;-;-;-;-;-;-;-;-;-;-;-;-;-;-;-
1514190355916;-;-;9.868195;-1.5584412;-1.258667;-;-;-;-;-;-;-;-;-;-;-;-;-;-;-
1514190355936;-;-;3.8467712;-0.18057251;-0.8312988;-;-;-;-;-;-;-;-;-;-;-;-;-;-;-
1514190355957;-;-;0.7223358;-0.045303345;-2.0882568;-;-;-;-;-;-;-;-;-;-;-;-;-;-;-
1514190355977;-;-;1.5232086;-0.124313354;-1.456192;-;-;-;-;-;-;-;-;-;-;-;-;-;-;-
1514190355998;-;-;5.416168;0.3282013;-2.270218;-;-;-;-;-;-;-;-;-;-;-;-;-;-;-
1514190356018;-;-;5.72023;1.1949005;-2.7203217;-;-;-;-;-;-;-;-;-;-;-;-;-;-;-
1514190356038;-;-;5.3251953;0.069625854;-1.7207489;-;-;-;-;-;-;-;-;-;-;-;-;-;-;-
1514190356058;-;-;6.402588;-1.4854126;-1.3843689;-;-;-;-;-;-;-;-;-;-;-;-;-;-;-
1514190356079;-;-;8.016281;-2.0707855;-1.8691864;-;-;-;-;-;-;-;-;-;-;-;-;-;-;-
1514190356099;-;-;8.7764435;-1.641037;-2.069107;-;-;-;-;-;-;-;-;-;-;-;-;-;-;-
1514190356119;-;-;7.1627502;-0.9562988;-2.2558594;-;-;-;-;-;-;-;-;-;-;-;-;-;-;-
1514190356140;-;-;5.6531982;-0.46548462;-1.768631;-;-;-;-;-;-;-;-;-;-;-;-;-;-;-
1514190356160;-;-;4.822418;-1.1621857;-0.5823059;-;-;-;-;-;-;-;-;-;-;-;-;-;-;-
1514190356181;-;-;5.7920685;-1.8840485;0.3203125;-;-;-;-;-;-;-;-;-;-;-;-;-;-;-
1514190356201;-;-;6.838333;-1.9474945;0.6854248;-;-;-;-;-;-;-;-;-;-;-;-;-;-;-
1514190356221;-;-;8.068954;-1.7499695;1.073288;-;-;-;-;-;-;-;-;-;-;-;-;-;-;-
1514190356241;-;-;9.752075;-1.7128601;-0.39076233;-;-;-;-;-;-;-;-;-;-;-;-;-;-;-
1514190356262;-;-;8.599258;-0.9610748;-1.0886841;-;-;-;-;-;-;-;-;-;-;-;-;-;-;-
1514190356282;-;-;8.024658;-0.52653503;-0.7522888;-;-;-;-;-;-;-;-;-;-;-;-;-;-;-
1514190356302;-;-;7.3099823;-0.30267334;-1.0862885;-;-;-;-;-;-;-;-;-;-;-;-;-;-;-
1514190356322;-;-;6.436096;-1.0197449;-5.270157;-;-;-;-;-;-;-;-;-;-;-;-;-;-;-
1514190356342;-;-;8.90094;-0.30986023;-4.8260345;-;-;-;-;-;-;-;-;-;-;-;-;-;-;-
1514190356363;-;-;11.714127;1.4031982;-3.473297;-;-;-;-;-;-;-;-;-;-;-;-;-;-;-
1514190356383;-;-;13.270355;3.3580627;-4.1269226;-;-;-;-;-;-;-;-;-;-;-;-;-;-;-
1514190356403;-;-;16.904755;3.422699;-4.141281;-;-;-;-;-;-;-;-;-;-;-;-;-;-;-
1514190356423;-;-;21.994827;3.407135;-4.982849;-;-;-;-;-;-;-;-;-;-;-;-;-;-;-
1514190356444;-;-;23.675552;-0.26914978;-3.7187042;-;-;-;-;-;-;-;-;-;-;-;-;-;-;-
1514190356464;-;-;14.150223;-1.5153351;-2.4222565;-;-;-;-;-;-;-;-;-;-;-;-;-;-;-
1514190356484;-;-;9.3151245;-1.2639465;-2.4102783;-;-;-;-;-;-;-;-;-;-;-;-;-;-;-
1514190356504;-;-;5.550247;0.33776855;-3.535553;-;-;-;-;-;-;-;-;-;-;-;-;-;-;-
1514190356524;-;-;2.8567657;1.5492401;-2.8927155;-;-;-;-;-;-;-;-;-;-;-;-;-;-;-
1514190356544;-;-;1.6919861;2.0149078;-1.9637604;-;-;-;-;-;-;-;-;-;-;-;-;-;-;-
1514190356564;-;-;3.6372833;0.5664215;-1.3699951;-;-;-;-;-;-;-;-;-;-;-;-;-;-;-
1514190356584;-;-;5.0283203;-1.0017853;-0.654129;-;-;-;-;-;-;-;-;-;-;-;-;-;-;-
1514190356605;-;-;7.02269;-1.7056732;-0.23873901;-;-;-;-;-;-;-;-;-;-;-;-;-;-;-
1514190356626;-;-;7.722992;-1.2950745;-0.8779907;-;-;-;-;-;-;-;-;-;-;-;-;-;-;-
1514190356646;-;-;6.8921967;0.13905334;-1.6800537;-;-;-;-;-;-;-;-;-;-;-;-;-;-;-
1514190356666;-;-;6.3618774;1.209259;-1.7554626;-;-;-;-;-;-;-;-;-;-;-;-;-;-;-
1514190356686;-;-;6.62764;1.4403076;-2.2247314;-;-;-;-;-;-;-;-;-;-;-;-;-;-;-
1514190356706;-;-;7.8367157;1.2739105;-1.3568268;-;-;-;-;-;-;-;-;-;-;-;-;-;-;-
1514190356727;-;-;8.155136;1.0811768;-0.85523987;-;-;-;-;-;-;-;-;-;-;-;-;-;-;-
1514190356747;-;-;7.0849304;0.62268066;-1.5435791;-;-;-;-;-;-;-;-;-;-;-;-;-;-;-
1514190356767;-;-;6.4528656;-0.02973938;-1.5818787;-;-;-;-;-;-;-;-;-;-;-;-;-;-;-
1514190356788;-;-;6.9891663;-0.9790344;0.0030822754;-;-;-;-;-;-;-;-;-;-;-;-;-;-;-
1514190356808;-;-;8.637573;-1.0245209;-0.6122284;-;-;-;-;-;-;-;-;-;-;-;-;-;-;-
1514190356828;-;-;9.401321;0.13546753;-2.0858612;-;-;-;-;-;-;-;-;-;-;-;-;-;-;-
1514190356849;-;-;8.381393;1.3265839;-3.1321259;-;-;-;-;-;-;-;-;-;-;-;-;-;-;-
1514190356869;-;-;7.585327;1.7766876;-2.2331085;-;-;-;-;-;-;-;-;-;-;-;-;-;-;-
1514190356889;-;-;7.605667;1.0811768;-3.7582092;-;-;-;-;-;-;-;-;-;-;-;-;-;-;-
1514190356910;-;-;10.185425;0.17736816;-6.029114;-;-;-;-;-;-;-;-;-;-;-;-;-;-;-
1514190356930;-;-;13.648636;-0.44752502;-5.75737;-;-;-;-;-;-;-;-;-;-;-;-;-;-;-
1514190356950;-;-;15.447876;-3.0703735;-5.160019;-;-;-;-;-;-;-;-;-;-;-;-;-;-;-
1514190356970;-;-;16.259506;-6.6281586;-2.4186554;-;-;-;-;-;-;-;-;-;-;-;-;-;-;-
1514190356991;-;-;17.153748;-7.587036;-1.9829102;-;-;-;-;-;-;-;-;-;-;-;-;-;-;-
1514190357011;-;-;18.291;-7.3907013;-2.4809113;-;-;-;-;-;-;-;-;-;-;-;-;-;-;-
1514190357031;-;-;15.507736;-4.573929;-2.1421204;-;-;-;-;-;-;-;-;-;-;-;-;-;-;-
1514190357052;-;-;10.885727;-1.9319305;-2.0583344;-;-;-;-;-;-;-;-;-;-;-;-;-;-;-
1514190357072;-;-;6.6180573;-0.13867188;-1.7937775;-;-;-;-;-;-;-;-;-;-;-;-;-;-;-
1514190357092;-;-;3.90065;0.1905365;-1.2323303;-;-;-;-;-;-;-;-;-;-;-;-;-;-;-
1514190357112;-;-;2.6508636;-0.10395813;-1.5603333;-;-;-;-;-;-;-;-;-;-;-;-;-;-;-
1514190357133;-;-;4.3184357;-0.08480835;-2.2690277;-;-;-;-;-;-;-;-;-;-;-;-;-;-;-
1514190357153;-;-;6.038666;-0.097976685;-1.9326324;-;-;-;-;-;-;-;-;-;-;-;-;-;-;-
1514190357173;-;-;7.241745;-0.957489;-1.495697;-;-;-;-;-;-;-;-;-;-;-;-;-;-;-
1514190357194;-;-;8.118027;-1.953476;-1.3999176;-;-;-;-;-;-;-;-;-;-;-;-;-;-;-
1514190357214;-;-;8.727356;-2.1402283;-1.3245087;-;-;-;-;-;-;-;-;-;-;-;-;-;-;-
1514190357234;-;-;9.160706;-1.7918701;-0.7786255;-;-;-;-;-;-;-;-;-;-;-;-;-;-;-
1514190357255;-;-;9.303162;-1.6218872;-0.56674194;-;-;-;-;-;-;-;-;-;-;-;-;-;-;-
1514190357275;-;-;8.4292755;-1.6374359;-1.061142;-;-;-;-;-;-;-;-;-;-;-;-;-;-;-
1514190357295;-;-;6.817978;-1.451889;-1.104248;-;-;-;-;-;-;-;-;-;-;-;-;-;-;-
1514190357316;-;-;6.012329;-1.0221252;-0.788208;-;-;-;-;-;-;-;-;-;-;-;-;-;-;-
1514190357336;-;-;5.8758545;-0.5361023;-0.34288025;-;-;-;-;-;-;-;-;-;-;-;-;-;-;-
1514190357356;-;-;5.8914185;-0.65701294;-1.0970612;-;-;-;-;-;-;-;-;-;-;-;-;-;-;-
1514190357377;-;-;5.95726;-0.8856659;-2.0822754;-;-;-;-;-;-;-;-;-;-;-;-;-;-;-
1514190357397;-;-;6.719818;-0.8282013;-1.416687;-;-;-;-;-;-;-;-;-;-;-;-;-;-;-
1514190357417;-;-;8.314362;-0.78990173;0.642334;-;-;-;-;-;-;-;-;-;-;-;-;-;-;-
1514190357437;-;-;10.168671;-0.878479;-0.57751465;-;-;-;-;-;-;-;-;-;-;-;-;-;-;-
1514190357458;-;-;11.315491;-0.36732483;-2.9956665;-;-;-;-;-;-;-;-;-;-;-;-;-;-;-
1514190357478;-;-;10.4930725;0.038497925;-0.40872192;-;-;-;-;-;-;-;-;-;-;-;-;-;-;-
1514190357498;-;-;9.525818;-0.7156677;1.6454926;-;-;-;-;-;-;-;-;-;-;-;-;-;-;-
1514190357519;-;-;9.199005;-2.0612183;0.4388275;-;-;-;-;-;-;-;-;-;-;-;-;-;-;-
1514190357539;-;-;7.214218;-2.6310425;-4.9098206;-;-;-;-;-;-;-;-;-;-;-;-;-;-;-
1514190357559;-;-;5.687912;-1.9175568;-8.58493;-;-;-;-;-;-;-;-;-;-;-;-;-;-;-
1514190357580;-;-;7.4716034;1.7862701;-5.152832;-;-;-;-;-;-;-;-;-;-;-;-;-;-;-
1514190357600;-;-;11.462723;5.1273804;-3.8539886;-;-;-;-;-;-;-;-;-;-;-;-;-;-;-
1514190357620;-;-;15.786652;0.2707367;-1.9877014;-;-;-;-;-;-;-;-;-;-;-;-;-;-;-
1514190357641;-;-;17.073547;-2.2707062;-6.2062836;-;-;-;-;-;-;-;-;-;-;-;-;-;-;-
1514190357661;-;-;18.607025;-0.66778564;-6.911377;-;-;-;-;-;-;-;-;-;-;-;-;-;-;-
1514190357681;-;-;17.213608;2.3285522;-3.8611603;-;-;-;-;-;-;-;-;-;-;-;-;-;-;-
1514190357702;-;-;12.158249;2.5715637;-4.5375214;-;-;-;-;-;-;-;-;-;-;-;-;-;-;-
1514190357722;-;-;9.145142;1.114685;-2.6724396;-;-;-;-;-;-;-;-;-;-;-;-;-;-;-
1514190357742;-;-;8.622009;-0.018966675;-1.9434052;-;-;-;-;-;-;-;-;-;-;-;-;-;-;-
1514190357763;-;-;6.086548;-0.96347046;-2.3552094;-;-;-;-;-;-;-;-;-;-;-;-;-;-;-
1514190357783;-;-;5.04747;-1.700882;-2.3372498;-;-;-;-;-;-;-;-;-;-;-;-;-;-;-
1514190357803;-;-;5.6388397;-0.93833923;-2.0152283;-;-;-;-;-;-;-;-;-;-;-;-;-;-;-
1514190357824;-;-;8.252106;1.2080688;-1.8416595;-;-;-;-;-;-;-;-;-;-;-;-;-;-;-
1514190357844;-;-;8.625595;2.607483;-2.144516;-;-;-;-;-;-;-;-;-;-;-;-;-;-;-
1514190357864;-;-;6.5558167;2.7607117;-1.5208282;-;-;-;-;-;-;-;-;-;-;-;-;-;-;-
1514190357884;-;-;5.6232758;2.0065308;-0.89834595;-;-;-;-;-;-;-;-;-;-;-;-;-;-;-
1514190357904;-;-;6.592926;1.209259;-0.43745422;-;-;-;-;-;-;-;-;-;-;-;-;-;-;-
1514190357925;-;-;8.764465;0.43473816;-0.61701965;-;-;-;-;-;-;-;-;-;-;-;-;-;-;-
1514190357945;-;-;9.728134;0.07321167;-0.7475128;-;-;-;-;-;-;-;-;-;-;-;-;-;-;-
1514190357965;-;-;9.655106;-0.117126465;-1.8667908;-;-;-;-;-;-;-;-;-;-;-;-;-;-;-
1514190357985;-;-;9.055359;0.6059265;-2.9597473;-;-;-;-;-;-;-;-;-;-;-;-;-;-;-
1514190358006;-;-;8.679474;2.687683;-0.8971405;-;-;-;-;-;-;-;-;-;-;-;-;-;-;-
1514190358026;-;-;9.224152;3.0168915;0.65071106;-;-;-;-;-;-;-;-;-;-;-;-;-;-;-
1514190358046;-;-;12.384491;0.98779297;-4.1185455;-;-;-;-;-;-;-;-;-;-;-;-;-;-;-
1514190358066;-;-;15.48259;-1.1729736;-5.532318;-;-;-;-;-;-;-;-;-;-;-;-;-;-;-
1514190358087;-;-;15.26712;-2.6633606;-5.5814056;-;-;-;-;-;-;-;-;-;-;-;-;-;-;-
1514190358107;-;-;12.146271;-4.230362;-5.306061;-;-;-;-;-;-;-;-;-;-;-;-;-;-;-
1514190358127;-;-;9.461182;-4.1369934;-3.8408203;-;-;-;-;-;-;-;-;-;-;-;-;-;-;-
1514190358147;-;-;7.53743;-3.2355652;-3.7127228;-;-;-;-;-;-;-;-;-;-;-;-;-;-;-
1514190358168;-;-;5.79924;-2.4311218;-3.6241455;-;-;-;-;-;-;-;-;-;-;-;-;-;-;-
1514190358188;-;-;4.225052;-1.5332947;-4.086212;-;-;-;-;-;-;-;-;-;-;-;-;-;-;-
1514190358208;-;-;5.0067596;-0.51216125;-3.9222107;-;-;-;-;-;-;-;-;-;-;-;-;-;-;-
1514190358228;-;-;7.35907;-0.30986023;-3.7833557;-;-;-;-;-;-;-;-;-;-;-;-;-;-;-
1514190358249;-;-;9.801147;-1.210083;-3.254242;-;-;-;-;-;-;-;-;-;-;-;-;-;-;-
1514190358268;-;-;11.127548;-2.7890472;-2.9956665;-;-;-;-;-;-;-;-;-;-;-;-;-;-;-
1514190358288;-;-;10.6666565;-3.7850342;-3.041153;-;-;-;-;-;-;-;-;-;-;-;-;-;-;-
1514190358309;-;-;9.418076;-3.8437042;-3.0387573;-;-;-;-;-;-;-;-;-;-;-;-;-;-;-
1514190358329;-;-;6.999939;-2.9829865;-3.017212;-;-;-;-;-;-;-;-;-;-;-;-;-;-;-
1514190358349;-;-;6.0266876;-2.4107666;-2.820877;-;-;-;-;-;-;-;-;-;-;-;-;-;-;-
1514190358369;-;-;5.6819305;-1.8936157;-2.5694885;-;-;-;-;-;-;-;-;-;-;-;-;-;-;-
1514190358390;-;-;6.754532;-1.2759247;-2.5096436;-;-;-;-;-;-;-;-;-;-;-;-;-;-;-
1514190358410;-;-;7.6571503;-0.78271484;-2.093048;-;-;-;-;-;-;-;-;-;-;-;-;-;-;-
1514190358430;-;-;8.276047;-0.70729065;-1.5699158;-;-;-;-;-;-;-;-;-;-;-;-;-;-;-
1514190358451;-;-;8.568146;-0.7228546;-1.2945862;-;-;-;-;-;-;-;-;-;-;-;-;-;-;-
1514190358470;-;-;8.8003845;-1.067627;-1.0192413;-;-;-;-;-;-;-;-;-;-;-;-;-;-;-
1514190358490;-;-;8.832703;-1.1933136;-0.9629822;-;-;-;-;-;-;-;-;-;-;-;-;-;-;-
1514190358511;-;-;8.766861;-1.0029755;-1.1569061;-;-;-;-;-;-;-;-;-;-;-;-;-;-;-
1514190358531;-;-;9.001495;-0.47265625;-1.3915405;-;-;-;-;-;-;-;-;-;-;-;-;-;-;-
1514190358551;-;-;9.443222;0.32341003;-1.3197174;-;-;-;-;-;-;-;-;-;-;-;-;-;-;-
1514190358571;-;-;9.49231;0.536499;-0.15374756;-;-;-;-;-;-;-;-;-;-;-;-;-;-;-
1514190358592;-;-;9.804749;-0.542099;0.6243744;-;-;-;-;-;-;-;-;-;-;-;-;-;-;-
1514190358611;-;-;9.990295;-3.8520813;-2.2199402;-;-;-;-;-;-;-;-;-;-;-;-;-;-;-
1514190358631;-;-;13.540894;-6.728714;-4.712311;-;-;-;-;-;-;-;-;-;-;-;-;-;-;-
1514190358652;-;-;12.59758;-5.0755157;-5.0594635;-;-;-;-;-;-;-;-;-;-;-;-;-;-;-
1514190358671;-;-;9.689819;-0.3768921;-7.045456;-;-;-;-;-;-;-;-;-;-;-;-;-;-;-
1514190358691;-;-;7.683487;2.7511292;-6.2888794;-;-;-;-;-;-;-;-;-;-;-;-;-;-;-
1514190358712;-;-;8.01268;2.078354;-4.337616;-;-;-;-;-;-;-;-;-;-;-;-;-;-;-
1514190358732;-;-;10.356613;-1.4554901;-3.724701;-;-;-;-;-;-;-;-;-;-;-;-;-;-;-
1514190358752;-;-;11.648285;-3.2954254;-3.7677917;-;-;-;-;-;-;-;-;-;-;-;-;-;-;-
1514190358773;-;-;11.647079;-3.8832092;-2.6592712;-;-;-;-;-;-;-;-;-;-;-;-;-;-;-
1514190358793;-;-;10.344635;-2.8860168;-2.8232727;-;-;-;-;-;-;-;-;-;-;-;-;-;-;-
1514190358814;-;-;8.812347;-1.4255524;-2.728714;-;-;-;-;-;-;-;-;-;-;-;-;-;-;-
1514190358834;-;-;6.4480743;0.17497253;-2.1552887;-;-;-;-;-;-;-;-;-;-;-;-;-;-;-
1514190358854;-;-;3.9617004;0.8297882;-2.6209717;-;-;-;-;-;-;-;-;-;-;-;-;-;-;-
1514190358875;-;-;2.7646027;0.42515564;-3.2099457;-;-;-;-;-;-;-;-;-;-;-;-;-;-;-
1514190358895;-;-;4.822418;-0.31344604;-3.191986;-;-;-;-;-;-;-;-;-;-;-;-;-;-;-
1514190358915;-;-;9.23851;-0.085998535;-2.3791504;-;-;-;-;-;-;-;-;-;-;-;-;-;-;-
1514190358936;-;-;12.441956;0.60832214;-2.6437073;-;-;-;-;-;-;-;-;-;-;-;-;-;-;-
1514190358956;-;-;10.484695;0.72802734;-2.3635864;-;-;-;-;-;-;-;-;-;-;-;-;-;-;-
1514190358976;-;-;7.5793304;0.5951538;-1.634552;-;-;-;-;-;-;-;-;-;-;-;-;-;-;-
1514190358997;-;-;6.917343;0.36410522;-1.3209229;-;-;-;-;-;-;-;-;-;-;-;-;-;-;-
1514190359017;-;-;7.5362396;0.24559021;-1.1509247;-;-;-;-;-;-;-;-;-;-;-;-;-;-;-
1514190359037;-;-;9.00029;-0.5732269;-1.8368683;-;-;-;-;-;-;-;-;-;-;-;-;-;-;-
1514190359058;-;-;9.227737;-0.13148499;-2.3588104;-;-;-;-;-;-;-;-;-;-;-;-;-;-;-
1514190359078;-;-;9.17746;1.9227295;-2.8532104;-;-;-;-;-;-;-;-;-;-;-;-;-;-;-
1514190359098;-;-;8.556168;2.5572052;-3.0435486;-;-;-;-;-;-;-;-;-;-;-;-;-;-;-
1514190359118;-;-;8.217392;2.3800354;-1.6944122;-;-;-;-;-;-;-;-;-;-;-;-;-;-;-
1514190359139;-;-;8.5047;1.9047852;0.40888977;-;-;-;-;-;-;-;-;-;-;-;-;-;-;-
1514190359158;-;-;10.34584;0.59155273;0.96554565;-;-;-;-;-;-;-;-;-;-;-;-;-;-;-
1514190359178;-;-;11.047333;-0.51815796;-1.8548279;-;-;-;-;-;-;-;-;-;-;-;-;-;-;-
1514190359199;-;-;10.133942;-1.3573151;-5.6161194;-;-;-;-;-;-;-;-;-;-;-;-;-;-;-
1514190359220;-;-;11.538147;-4.0867157;-5.9967957;-;-;-;-;-;-;-;-;-;-;-;-;-;-;-
1514190359240;-;-;10.593628;-4.310562;-6.266144;-;-;-;-;-;-;-;-;-;-;-;-;-;-;-
