TimeStamp[ms];Prox[Cm];Lux[lux];AccX[m/s^2];AccY[m/s^2];AccZ[m/s^2];GyroX[rad/s];GyroY[rad/s];GyroZ[rad/s];MagnX[uT];MagnY[uT];MagnZ[uT];OrienYaw[degrees];OrienPitch[degrees];OrienRoll[degrees];Press[Pa];Temp[C°];Batt[%];Lat;Lng;Speed[m/s]
1514190394113;-;-;7.9073334;-1.5931549;4.1594086;-;-;-;-;-;-;-;-;-;-;-;-;-;-;-
1514190394114;-;-;7.9073334;-1.5931549;4.1594086;-;-;-;-;-;-;-;-;-;-;-;-;-;-;-
1514190394122;-;-;7.679886;-1.6123047;4.022949;-;-;-;-;-;-;-;-;-;-;-;-;-;-;-
1514190394142;-;-;7.9779663;-1.700882;3.9187927;-;-;-;-;-;-;-;-;-;-;-;-;-;-;-
1514190394163;-;-;8.1719055;-1.4099884;4.061249;-;-;-;-;-;-;-;-;-;-;-;-;-;-;-
1514190394182;-;-;8.210205;-1.3585205;4.184555;-;-;-;-;-;-;-;-;-;-;-;-;-;-;-
1514190394202;-;-;8.398148;-1.404007;4.0480804;-;-;-;-;-;-;-;-;-;-;-;-;-;-;-
1514190394223;-;-;8.440048;-1.4291534;3.8697052;-;-;-;-;-;-;-;-;-;-;-;-;-;-;-
1514190394244;-;-;8.473572;-1.4578705;3.8158417;-;-;-;-;-;-;-;-;-;-;-;-;-;-;-
1514190394264;-;-;8.489136;-1.4806213;3.6685944;-;-;-;-;-;-;-;-;-;-;-;-;-;-;-
1514190394284;-;-;8.254501;-1.5524445;3.2412415;-;-;-;-;-;-;-;-;-;-;-;-;-;-;-
1514190394304;-;-;8.159927;-1.7667236;2.4511414;-;-;-;-;-;-;-;-;-;-;-;-;-;-;-
1514190394324;-;-;8.40773;-1.7703247;2.4559326;-;-;-;-;-;-;-;-;-;-;-;-;-;-;-
1514190394360;-;-;8.862625;-0.8282013;2.4032593;-;-;-;-;-;-;-;-;-;-;-;-;-;-;-
1514190394365;-;-;8.5633545;-0.6941223;2.1195526;-;-;-;-;-;-;-;-;-;-;-;-;-;-;-
1514190394385;-;-;8.627991;-0.19374084;2.227295;-;-;-;-;-;-;-;-;-;-;-;-;-;-;-
1514190394405;-;-;9.826294;-0.35055542;0.3610077;-;-;-;-;-;-;-;-;-;-;-;-;-;-;-
1514190394425;-;-;8.650742;0.076812744;3.2747498;-;-;-;-;-;-;-;-;-;-;-;-;-;-;-
1514190394445;-;-;9.536591;1.5384674;-4.1939545;-;-;-;-;-;-;-;-;-;-;-;-;-;-;-
1514190394466;-;-;9.566528;0.32939148;0.43762207;-;-;-;-;-;-;-;-;-;-;-;-;-;-;-
1514190394485;-;-;8.7764435;0.36291504;-1.550766;-;-;-;-;-;-;-;-;-;-;-;-;-;-;-
1514190394505;-;-;8.669891;-0.042907715;-1.2718353;-;-;-;-;-;-;-;-;-;-;-;-;-;-;-
1514190394525;-;-;9.61441;-0.2966919;-0.9917145;-;-;-;-;-;-;-;-;-;-;-;-;-;-;-
1514190394546;-;-;10.228516;-0.46069336;-1.3496399;-;-;-;-;-;-;-;-;-;-;-;-;-;-;-
1514190394566;-;-;9.366608;-0.5732269;1.8861237;-;-;-;-;-;-;-;-;-;-;-;-;-;-;-
1514190394587;-;-;10.302734;-0.71806335;-1.6836395;-;-;-;-;-;-;-;-;-;-;-;-;-;-;-
1514190394607;-;-;9.49231;0.848938;-1.5962524;-;-;-;-;-;-;-;-;-;-;-;-;-;-;-
1514190394628;-;-;9.321121;0.41319275;-0.8001709;-;-;-;-;-;-;-;-;-;-;-;-;-;-;-
1514190394648;-;-;9.276825;0.40960693;-0.3955536;-;-;-;-;-;-;-;-;-;-;-;-;-;-;-
1514190394668;-;-;8.641159;0.3892517;-0.48654175;-;-;-;-;-;-;-;-;-;-;-;-;-;-;-
1514190394689;-;-;9.397736;0.31263733;-0.64575195;-;-;-;-;-;-;-;-;-;-;-;-;-;-;-
1514190394709;-;-;8.684265;0.77830505;-1.2323303;-;-;-;-;-;-;-;-;-;-;-;-;-;-;-
1514190394729;-;-;8.576523;0.7950592;-1.5040741;-;-;-;-;-;-;-;-;-;-;-;-;-;-;-
1514190394750;-;-;9.8645935;0.20370483;-0.3261261;-;-;-;-;-;-;-;-;-;-;-;-;-;-;-
1514190394770;-;-;9.400131;0.44551086;-0.82173157;-;-;-;-;-;-;-;-;-;-;-;-;-;-;-
1514190394790;-;-;9.115219;1.1422272;-0.69244385;-;-;-;-;-;-;-;-;-;-;-;-;-;-;-
1514190394812;-;-;7.6739044;0.96984863;-1.1772614;-;-;-;-;-;-;-;-;-;-;-;-;-;-;-
1514190394832;-;-;7.8917847;0.7364044;0.34544373;-;-;-;-;-;-;-;-;-;-;-;-;-;-;-
1514190394852;-;-;6.913742;0.93392944;-0.95939636;-;-;-;-;-;-;-;-;-;-;-;-;-;-;-
1514190394873;-;-;9.722153;0.4479065;-1.4083099;-;-;-;-;-;-;-;-;-;-;-;-;-;-;-
1514190394893;-;-;10.405685;-0.4092102;-0.25549316;-;-;-;-;-;-;-;-;-;-;-;-;-;-;-
1514190394914;-;-;8.936844;-0.22007751;-0.60743713;-;-;-;-;-;-;-;-;-;-;-;-;-;-;-
1514190394934;-;-;8.879379;0.3796692;-0.77264404;-;-;-;-;-;-;-;-;-;-;-;-;-;-;-
1514190394954;-;-;8.97995;0.9087982;0.36698914;-;-;-;-;-;-;-;-;-;-;-;-;-;-;-
1514190394974;-;-;10.210556;0.14624023;0.13476563;-;-;-;-;-;-;-;-;-;-;-;-;-;-;-
1514190394995;-;-;7.9145203;1.3337555;0.15031433;-;-;-;-;-;-;-;-;-;-;-;-;-;-;-
1514190395015;-;-;9.719757;0.3222046;-2.8508148;-;-;-;-;-;-;-;-;-;-;-;-;-;-;-
1514190395035;-;-;12.112762;0.20729065;-2.0978394;-;-;-;-;-;-;-;-;-;-;-;-;-;-;-
1514190395056;-;-;9.5737;1.3229828;-2.012848;-;-;-;-;-;-;-;-;-;-;-;-;-;-;-
1514190395076;-;-;11.091629;1.679718;-3.3751373;-;-;-;-;-;-;-;-;-;-;-;-;-;-;-
1514190395096;-;-;12.854965;1.4438934;-0.9366455;-;-;-;-;-;-;-;-;-;-;-;-;-;-;-
1514190395116;-;-;10.320694;1.0584259;-0.79299927;-;-;-;-;-;-;-;-;-;-;-;-;-;-;-
1514190395137;-;-;5.5083466;-0.7803192;-6.3511353;-;-;-;-;-;-;-;-;-;-;-;-;-;-;-
1514190395156;-;-;4.2430115;-2.0516357;-3.6157532;-;-;-;-;-;-;-;-;-;-;-;-;-;-;-
1514190395176;-;-;7.6739044;-1.6793365;-2.4438019;-;-;-;-;-;-;-;-;-;-;-;-;-;-;-
1514190395196;-;-;8.007904;-2.514923;-4.9732666;-;-;-;-;-;-;-;-;-;-;-;-;-;-;-
1514190395217;-;-;8.6818695;-1.5177307;-5.614914;-;-;-;-;-;-;-;-;-;-;-;-;-;-;-
1514190395237;-;-;10.06572;-0.1015625;-3.1381226;-;-;-;-;-;-;-;-;-;-;-;-;-;-;-
1514190395257;-;-;9.090073;1.5133209;-2.5335846;-;-;-;-;-;-;-;-;-;-;-;-;-;-;-
1514190395278;-;-;8.970367;-0.012969971;-2.4533691;-;-;-;-;-;-;-;-;-;-;-;-;-;-;-
1514190395298;-;-;9.743698;-2.032486;-2.1457214;-;-;-;-;-;-;-;-;-;-;-;-;-;-;-
1514190395318;-;-;9.610809;-3.1278381;-2.9405975;-;-;-;-;-;-;-;-;-;-;-;-;-;-;-
1514190395339;-;-;6.9340973;-1.9953766;-2.3037415;-;-;-;-;-;-;-;-;-;-;-;-;-;-;-
1514190395360;-;-;6.493561;-2.9949493;-0.52604675;-;-;-;-;-;-;-;-;-;-;-;-;-;-;-
1514190395380;-;-;5.9297333;-1.724823;-2.115799;-;-;-;-;-;-;-;-;-;-;-;-;-;-;-
1514190395399;-;-;7.6188354;-1.9403076;-0.7917938;-;-;-;-;-;-;-;-;-;-;-;-;-;-;-
1514190395420;-;-;9.268448;-0.8665161;-2.9801025;-;-;-;-;-;-;-;-;-;-;-;-;-;-;-
1514190395440;-;-;9.945999;-1.1657867;-2.5539246;-;-;-;-;-;-;-;-;-;-;-;-;-;-;-
1514190395460;-;-;11.236481;-0.58399963;-2.7981415;-;-;-;-;-;-;-;-;-;-;-;-;-;-;-
1514190395480;-;-;10.525406;-0.24880981;1.2923584;-;-;-;-;-;-;-;-;-;-;-;-;-;-;-
1514190395500;-;-;8.806366;-1.8206024;-4.61174;-;-;-;-;-;-;-;-;-;-;-;-;-;-;-
1514190395521;-;-;10.576874;-3.0380554;-0.9342499;-;-;-;-;-;-;-;-;-;-;-;-;-;-;-
1514190395541;-;-;7.2657013;-2.6274414;-2.2019806;-;-;-;-;-;-;-;-;-;-;-;-;-;-;-
1514190395562;-;-;6.6432037;-2.380844;-0.5799103;-;-;-;-;-;-;-;-;-;-;-;-;-;-;-
1514190395581;-;-;6.572571;-2.3221893;-0.30937195;-;-;-;-;-;-;-;-;-;-;-;-;-;-;-
1514190395601;-;-;7.470398;-2.0181274;-0.4051361;-;-;-;-;-;-;-;-;-;-;-;-;-;-;-
1514190395622;-;-;8.757278;-1.7152557;-0.9294586;-;-;-;-;-;-;-;-;-;-;-;-;-;-;-
1514190395641;-;-;9.805939;-1.4375305;-1.3340912;-;-;-;-;-;-;-;-;-;-;-;-;-;-;-
1514190395661;-;-;10.475128;-1.4638672;-1.7434998;-;-;-;-;-;-;-;-;-;-;-;-;-;-;-
1514190395681;-;-;10.733688;-1.5165405;-1.8093262;-;-;-;-;-;-;-;-;-;-;-;-;-;-;-
1514190395702;-;-;11.59082;-1.6110992;-1.555542;-;-;-;-;-;-;-;-;-;-;-;-;-;-;-
1514190395722;-;-;12.175003;-1.5141449;-1.8967285;-;-;-;-;-;-;-;-;-;-;-;-;-;-;-
1514190395742;-;-;12.520966;-1.9953766;-3.7618103;-;-;-;-;-;-;-;-;-;-;-;-;-;-;-
1514190395762;-;-;13.021362;-3.5635834;-6.4205627;-;-;-;-;-;-;-;-;-;-;-;-;-;-;-
1514190395783;-;-;14.717651;-3.3720398;-2.9693298;-;-;-;-;-;-;-;-;-;-;-;-;-;-;-
1514190395803;-;-;13.002197;-4.158539;-1.4394226;-;-;-;-;-;-;-;-;-;-;-;-;-;-;-
1514190395823;-;-;10.438019;-5.3987274;-2.8843231;-;-;-;-;-;-;-;-;-;-;-;-;-;-;-
1514190395843;-;-;7.6427765;-4.673294;-4.68956;-;-;-;-;-;-;-;-;-;-;-;-;-;-;-
1514190395864;-;-;4.6296844;-2.8129883;-6.6875153;-;-;-;-;-;-;-;-;-;-;-;-;-;-;-
1514190395884;-;-;3.9305725;-1.0508575;-6.345154;-;-;-;-;-;-;-;-;-;-;-;-;-;-;-
1514190395904;-;-;6.347519;-0.057266235;-4.863144;-;-;-;-;-;-;-;-;-;-;-;-;-;-;-
1514190395925;-;-;8.944031;-0.13748169;-4.6991425;-;-;-;-;-;-;-;-;-;-;-;-;-;-;-
1514190395945;-;-;11.229294;-0.85453796;-5.6843567;-;-;-;-;-;-;-;-;-;-;-;-;-;-;-
1514190395965;-;-;11.796722;-1.4147797;-6.164383;-;-;-;-;-;-;-;-;-;-;-;-;-;-;-
1514190395986;-;-;11.418442;-1.1262817;-5.1181183;-;-;-;-;-;-;-;-;-;-;-;-;-;-;-
1514190396006;-;-;9.673065;-0.7013092;-3.9461517;-;-;-;-;-;-;-;-;-;-;-;-;-;-;-
1514190396026;-;-;7.380615;-0.25120544;-3.3595734;-;-;-;-;-;-;-;-;-;-;-;-;-;-;-
1514190396046;-;-;5.6268616;0.098358154;-3.2027588;-;-;-;-;-;-;-;-;-;-;-;-;-;-;-
1514190396067;-;-;4.8475494;0.18095398;-2.978897;-;-;-;-;-;-;-;-;-;-;-;-;-;-;-
1514190396087;-;-;4.4333496;0.18574524;-1.9948883;-;-;-;-;-;-;-;-;-;-;-;-;-;-;-
1514190396108;-;-;4.6308746;0.27552795;-1.6034393;-;-;-;-;-;-;-;-;-;-;-;-;-;-;-
1514190396128;-;-;5.1204834;0.81781006;-1.2658539;-;-;-;-;-;-;-;-;-;-;-;-;-;-;-
1514190396149;-;-;5.3575134;1.4546661;-1.5866699;-;-;-;-;-;-;-;-;-;-;-;-;-;-;-
1514190396169;-;-;6.433716;1.4558716;-1.6513214;-;-;-;-;-;-;-;-;-;-;-;-;-;-;-
1514190396189;-;-;7.8570557;1.1877136;-2.0726929;-;-;-;-;-;-;-;-;-;-;-;-;-;-;-
1514190396209;-;-;8.938049;1.3217926;-2.4701385;-;-;-;-;-;-;-;-;-;-;-;-;-;-;-
1514190396230;-;-;9.045776;1.774292;-2.7837677;-;-;-;-;-;-;-;-;-;-;-;-;-;-;-
1514190396250;-;-;9.146347;1.9682312;-2.7933502;-;-;-;-;-;-;-;-;-;-;-;-;-;-;-
1514190396270;-;-;9.076904;2.019699;-2.5036469;-;-;-;-;-;-;-;-;-;-;-;-;-;-;-
1514190396290;-;-;9.372589;1.8724518;-2.0511475;-;-;-;-;-;-;-;-;-;-;-;-;-;-;-
1514190396310;-;-;9.143951;1.2655334;-1.9649506;-;-;-;-;-;-;-;-;-;-;-;-;-;-;-
1514190396331;-;-;8.918884;0.76753235;-3.0998077;-;-;-;-;-;-;-;-;-;-;-;-;-;-;-
1514190396351;-;-;9.228943;1.537262;-5.9285583;-;-;-;-;-;-;-;-;-;-;-;-;-;-;-
1514190396371;-;-;11.252045;3.4885406;-4.943344;-;-;-;-;-;-;-;-;-;-;-;-;-;-;-
1514190396391;-;-;14.159805;3.335312;-4.776947;-;-;-;-;-;-;-;-;-;-;-;-;-;-;-
1514190396412;-;-;15.014526;2.2675018;-6.516327;-;-;-;-;-;-;-;-;-;-;-;-;-;-;-
1514190396432;-;-;11.51181;1.0644073;-7.306427;-;-;-;-;-;-;-;-;-;-;-;-;-;-;-
1514190396452;-;-;8.198242;0.16778564;-6.274521;-;-;-;-;-;-;-;-;-;-;-;-;-;-;-
1514190396473;-;-;6.0374756;-0.7982788;-4.2813416;-;-;-;-;-;-;-;-;-;-;-;-;-;-;-
1514190396493;-;-;6.090149;-1.4722443;-3.3943024;-;-;-;-;-;-;-;-;-;-;-;-;-;-;-
1514190396513;-;-;7.221405;-1.2112732;-4.481262;-;-;-;-;-;-;-;-;-;-;-;-;-;-;-
1514190396534;-;-;8.18866;-0.36611938;-4.189163;-;-;-;-;-;-;-;-;-;-;-;-;-;-;-
1514190396554;-;-;8.316742;-0.42237854;-3.8312378;-;-;-;-;-;-;-;-;-;-;-;-;-;-;-
1514190396574;-;-;8.695038;-0.095581055;-3.7079315;-;-;-;-;-;-;-;-;-;-;-;-;-;-;-
1514190396595;-;-;8.72496;0.028915405;-3.2841644;-;-;-;-;-;-;-;-;-;-;-;-;-;-;-
1514190396615;-;-;8.413712;-0.4738617;-3.1381226;-;-;-;-;-;-;-;-;-;-;-;-;-;-;-
1514190396635;-;-;7.8163605;-1.3381653;-3.2111359;-;-;-;-;-;-;-;-;-;-;-;-;-;-;-
1514190396656;-;-;6.592926;-1.8972168;-2.9034882;-;-;-;-;-;-;-;-;-;-;-;-;-;-;-
1514190396676;-;-;5.46167;-2.0360718;-2.5838623;-;-;-;-;-;-;-;-;-;-;-;-;-;-;-
1514190396696;-;-;5.6232758;-1.7691193;-2.5192108;-;-;-;-;-;-;-;-;-;-;-;-;-;-;-
1514190396716;-;-;6.3618774;-1.5297089;-2.4306335;-;-;-;-;-;-;-;-;-;-;-;-;-;-;-
1514190396737;-;-;6.475601;-1.5668182;-2.4425964;-;-;-;-;-;-;-;-;-;-;-;-;-;-;-
1514190396756;-;-;6.304428;-1.8936157;-2.579071;-;-;-;-;-;-;-;-;-;-;-;-;-;-;-
1514190396776;-;-;6.481598;-1.8517303;-2.3743591;-;-;-;-;-;-;-;-;-;-;-;-;-;-;-
1514190396797;-;-;7.550598;-1.8864441;-2.175644;-;-;-;-;-;-;-;-;-;-;-;-;-;-;-
1514190396817;-;-;8.298798;-2.0384674;-2.2462769;-;-;-;-;-;-;-;-;-;-;-;-;-;-;-
1514190396837;-;-;8.897339;-2.4921722;-2.3432465;-;-;-;-;-;-;-;-;-;-;-;-;-;-;-
1514190396857;-;-;9.622787;-2.918335;-2.2690277;-;-;-;-;-;-;-;-;-;-;-;-;-;-;-
1514190396878;-;-;9.664688;-3.1781158;-2.3396454;-;-;-;-;-;-;-;-;-;-;-;-;-;-;-
1514190396899;-;-;9.453995;-3.5528107;-2.4019012;-;-;-;-;-;-;-;-;-;-;-;-;-;-;-
1514190396918;-;-;9.725739;-3.146988;-2.2977448;-;-;-;-;-;-;-;-;-;-;-;-;-;-;-
1514190396938;-;-;10.279999;-2.2647247;-2.6209717;-;-;-;-;-;-;-;-;-;-;-;-;-;-;-
1514190396959;-;-;10.642715;-1.2555695;-3.1237488;-;-;-;-;-;-;-;-;-;-;-;-;-;-;-
1514190396979;-;-;10.568497;-1.364502;-5.030731;-;-;-;-;-;-;-;-;-;-;-;-;-;-;-
1514190396999;-;-;10.549347;-2.7854614;-8.374237;-;-;-;-;-;-;-;-;-;-;-;-;-;-;-
1514190397020;-;-;12.373718;-3.4187317;-5.8854675;-;-;-;-;-;-;-;-;-;-;-;-;-;-;-
1514190397040;-;-;13.657013;-3.6545563;-1.0838928;-;-;-;-;-;-;-;-;-;-;-;-;-;-;-
1514190397060;-;-;12.033752;-3.7634888;-4.361557;-;-;-;-;-;-;-;-;-;-;-;-;-;-;-
1514190397081;-;-;9.3893585;-3.0811462;-6.9365234;-;-;-;-;-;-;-;-;-;-;-;-;-;-;-
1514190397101;-;-;6.4217377;-0.6725769;-6.4552765;-;-;-;-;-;-;-;-;-;-;-;-;-;-;-
1514190397121;-;-;6.7688904;0.43115234;-3.6157532;-;-;-;-;-;-;-;-;-;-;-;-;-;-;-
1514190397141;-;-;7.0023346;-1.3549194;-2.8867188;-;-;-;-;-;-;-;-;-;-;-;-;-;-;-
1514190397162;-;-;7.8558655;-2.2371826;-2.7083588;-;-;-;-;-;-;-;-;-;-;-;-;-;-;-
1514190397182;-;-;9.0793;-1.4530945;-2.606598;-;-;-;-;-;-;-;-;-;-;-;-;-;-;-
1514190397203;-;-;8.58609;-0.7695465;-3.9437714;-;-;-;-;-;-;-;-;-;-;-;-;-;-;-
1514190397223;-;-;8.07373;-0.42237854;-4.065872;-;-;-;-;-;-;-;-;-;-;-;-;-;-;-
1514190397243;-;-;7.02388;0.13546753;-4.165222;-;-;-;-;-;-;-;-;-;-;-;-;-;-;-
1514190397263;-;-;5.6101074;0.9782257;-4.0072174;-;-;-;-;-;-;-;-;-;-;-;-;-;-;-
1514190397284;-;-;4.821213;1.5707855;-3.7821503;-;-;-;-;-;-;-;-;-;-;-;-;-;-;-
1514190397304;-;-;5.486801;1.4462891;-3.4900665;-;-;-;-;-;-;-;-;-;-;-;-;-;-;-
1514190397324;-;-;6.312805;0.7795105;-3.5966034;-;-;-;-;-;-;-;-;-;-;-;-;-;-;-
1514190397345;-;-;7.245346;0.25875854;-3.6516724;-;-;-;-;-;-;-;-;-;-;-;-;-;-;-
1514190397366;-;-;7.0502167;0.6921234;-3.259018;-;-;-;-;-;-;-;-;-;-;-;-;-;-;-
1514190397386;-;-;6.522293;1.5145264;-3.0052338;-;-;-;-;-;-;-;-;-;-;-;-;-;-;-
1514190397406;-;-;6.6312256;2.1094818;-2.7981415;-;-;-;-;-;-;-;-;-;-;-;-;-;-;-
1514190397426;-;-;6.928116;2.189682;-2.4653473;-;-;-;-;-;-;-;-;-;-;-;-;-;-;-
1514190397447;-;-;7.6894684;1.6809235;-1.8284912;-;-;-;-;-;-;-;-;-;-;-;-;-;-;-
1514190397467;-;-;8.420898;1.2212372;-1.8009491;-;-;-;-;-;-;-;-;-;-;-;-;-;-;-
1514190397487;-;-;8.880585;1.0943451;-2.211563;-;-;-;-;-;-;-;-;-;-;-;-;-;-;-
1514190397508;-;-;9.286407;1.3756561;-2.3947144;-;-;-;-;-;-;-;-;-;-;-;-;-;-;-
1514190397528;-;-;9.434845;1.4594574;-2.5024567;-;-;-;-;-;-;-;-;-;-;-;-;-;-;-
1514190397548;-;-;10.063324;0.73880005;-2.405487;-;-;-;-;-;-;-;-;-;-;-;-;-;-;-
1514190397569;-;-;11.260422;0.10194397;-3.5942078;-;-;-;-;-;-;-;-;-;-;-;-;-;-;-
1514190397588;-;-;12.494629;0.39523315;-6.464859;-;-;-;-;-;-;-;-;-;-;-;-;-;-;-
1514190397611;-;-;13.2751465;2.315384;-5.7825165;-;-;-;-;-;-;-;-;-;-;-;-;-;-;-
1514190397630;-;-;14.527313;3.7088165;-4.641678;-;-;-;-;-;-;-;-;-;-;-;-;-;-;-
1514190397650;-;-;13.552872;3.7530975;-5.1540375;-;-;-;-;-;-;-;-;-;-;-;-;-;-;-
1514190397670;-;-;9.913681;2.0101166;-5.9931946;-;-;-;-;-;-;-;-;-;-;-;-;-;-;-
1514190397691;-;-;6.11528;0.1618042;-4.124527;-;-;-;-;-;-;-;-;-;-;-;-;-;-;-
1514190397710;-;-;5.256958;-1.2579651;-3.1967773;-;-;-;-;-;-;-;-;-;-;-;-;-;-;-
1514190397730;-;-;5.1097107;-1.5093536;-4.654846;-;-;-;-;-;-;-;-;-;-;-;-;-;-;-
1514190397750;-;-;6.4600525;-1.0472717;-3.2769775;-;-;-;-;-;-;-;-;-;-;-;-;-;-;-
1514190397771;-;-;8.1719055;-0.64863586;-2.5347748;-;-;-;-;-;-;-;-;-;-;-;-;-;-;-
1514190397791;-;-;9.248093;-0.62828064;-3.3428192;-;-;-;-;-;-;-;-;-;-;-;-;-;-;-
1514190397811;-;-;9.777206;-0.9862213;-4.3962708;-;-;-;-;-;-;-;-;-;-;-;-;-;-;-
1514190397831;-;-;9.67067;-1.0233307;-4.7003326;-;-;-;-;-;-;-;-;-;-;-;-;-;-;-
1514190397852;-;-;8.074936;-0.77911377;-4.4656982;-;-;-;-;-;-;-;-;-;-;-;-;-;-;-
1514190397872;-;-;5.93692;-0.77911377;-3.6097717;-;-;-;-;-;-;-;-;-;-;-;-;-;-;-
1514190397892;-;-;5.2270355;-0.98143005;-2.8148956;-;-;-;-;-;-;-;-;-;-;-;-;-;-;-
1514190397913;-;-;5.747772;-1.4985809;-2.5742798;-;-;-;-;-;-;-;-;-;-;-;-;-;-;-
1514190397933;-;-;6.051834;-1.664978;-2.8903198;-;-;-;-;-;-;-;-;-;-;-;-;-;-;-
1514190397953;-;-;5.739395;-1.5332947;-2.6903992;-;-;-;-;-;-;-;-;-;-;-;-;-;-;-
1514190397973;-;-;5.684326;-1.7535553;-2.1924133;-;-;-;-;-;-;-;-;-;-;-;-;-;-;-
1514190397994;-;-;6.1164703;-2.088745;-2.1409302;-;-;-;-;-;-;-;-;-;-;-;-;-;-;-
1514190398013;-;-;6.8682556;-2.262329;-2.1529083;-;-;-;-;-;-;-;-;-;-;-;-;-;-;-
1514190398033;-;-;7.9360657;-2.2288055;-2.144516;-;-;-;-;-;-;-;-;-;-;-;-;-;-;-
1514190398053;-;-;8.897339;-1.799057;-2.357605;-;-;-;-;-;-;-;-;-;-;-;-;-;-;-
1514190398074;-;-;9.392944;-1.1885223;-2.4497833;-;-;-;-;-;-;-;-;-;-;-;-;-;-;-
1514190398094;-;-;10.06572;-1.0628357;-2.2678223;-;-;-;-;-;-;-;-;-;-;-;-;-;-;-
1514190398114;-;-;10.773193;-1.961853;-1.5124512;-;-;-;-;-;-;-;-;-;-;-;-;-;-;-
1514190398134;-;-;11.226898;-3.1266327;-2.076294;-;-;-;-;-;-;-;-;-;-;-;-;-;-;-
1514190398155;-;-;12.24324;-2.7375793;-2.3288727;-;-;-;-;-;-;-;-;-;-;-;-;-;-;-
1514190398175;-;-;12.720886;-1.2830963;-3.1309357;-;-;-;-;-;-;-;-;-;-;-;-;-;-;-
1514190398195;-;-;11.720108;-0.96707153;-5.108551;-;-;-;-;-;-;-;-;-;-;-;-;-;-;-
1514190398216;-;-;11.3909;-1.8074341;-6.33078;-;-;-;-;-;-;-;-;-;-;-;-;-;-;-
1514190398236;-;-;10.670242;-2.772293;-4.43338;-;-;-;-;-;-;-;-;-;-;-;-;-;-;-
1514190398256;-;-;9.922058;-4.052002;-4.598572;-;-;-;-;-;-;-;-;-;-;-;-;-;-;-
1514190398276;-;-;10.740875;-3.0105133;-4.626114;-;-;-;-;-;-;-;-;-;-;-;-;-;-;-
1514190398297;-;-;8.255692;-1.4087982;-6.6168976;-;-;-;-;-;-;-;-;-;-;-;-;-;-;-
1514190398317;-;-;6.280487;-0.55885315;-6.7006836;-;-;-;-;-;-;-;-;-;-;-;-;-;-;-
1514190398337;-;-;7.4129333;-0.72406006;-4.2418365;-;-;-;-;-;-;-;-;-;-;-;-;-;-;-
1514190398358;-;-;8.206619;-1.4818115;-3.528366;-;-;-;-;-;-;-;-;-;-;-;-;-;-;-
1514190398378;-;-;8.080917;-1.5967407;-3.3835144;-;-;-;-;-;-;-;-;-;-;-;-;-;-;-
1514190398398;-;-;7.5948944;-0.8413696;-2.7514496;-;-;-;-;-;-;-;-;-;-;-;-;-;-;-
1514190398418;-;-;7.003525;-0.6546173;-2.8460236;-;-;-;-;-;-;-;-;-;-;-;-;-;-;-
1514190398439;-;-;6.888611;-0.66300964;-3.425415;-;-;-;-;-;-;-;-;-;-;-;-;-;-;-
1514190398459;-;-;6.576172;-0.28352356;-4.3268433;-;-;-;-;-;-;-;-;-;-;-;-;-;-;-
1514190398479;-;-;5.9848022;0.7471771;-4.386688;-;-;-;-;-;-;-;-;-;-;-;-;-;-;-
1514190398500;-;-;5.56102;1.6976776;-3.895874;-;-;-;-;-;-;-;-;-;-;-;-;-;-;-
1514190398520;-;-;5.765732;1.8604889;-3.7127228;-;-;-;-;-;-;-;-;-;-;-;-;-;-;-
1514190398540;-;-;6.774887;1.2535553;-3.8432007;-;-;-;-;-;-;-;-;-;-;-;-;-;-;-
1514190398561;-;-;7.6260223;0.64064026;-3.7139282;-;-;-;-;-;-;-;-;-;-;-;-;-;-;-
1514190398581;-;-;8.1371765;0.27192688;-2.9513702;-;-;-;-;-;-;-;-;-;-;-;-;-;-;-
1514190398601;-;-;7.635605;0.19891357;-2.7191315;-;-;-;-;-;-;-;-;-;-;-;-;-;-;-
1514190398621;-;-;6.9305115;0.5053711;-2.500061;-;-;-;-;-;-;-;-;-;-;-;-;-;-;-
1514190398642;-;-;6.5282745;1.114685;-2.00206;-;-;-;-;-;-;-;-;-;-;-;-;-;-;-
1514190398662;-;-;6.7018585;1.5360718;-1.7039948;-;-;-;-;-;-;-;-;-;-;-;-;-;-;-
1514190398682;-;-;7.8403015;1.5025482;-1.5758972;-;-;-;-;-;-;-;-;-;-;-;-;-;-;-
1514190398703;-;-;9.240906;1.492981;-2.0355835;-;-;-;-;-;-;-;-;-;-;-;-;-;-;-
1514190398723;-;-;9.8993225;2.2411652;-2.4078827;-;-;-;-;-;-;-;-;-;-;-;-;-;-;-
1514190398743;-;-;10.081268;2.912735;-2.1253662;-;-;-;-;-;-;-;-;-;-;-;-;-;-;-
1514190398763;-;-;10.394913;2.2136383;-2.036789;-;-;-;-;-;-;-;-;-;-;-;-;-;-;-
1514190398784;-;-;10.469131;1.1901093;-2.144516;-;-;-;-;-;-;-;-;-;-;-;-;-;-;-
1514190398804;-;-;10.378159;0.70887756;-2.819687;-;-;-;-;-;-;-;-;-;-;-;-;-;-;-
1514190398824;-;-;10.427231;1.1027222;-5.409012;-;-;-;-;-;-;-;-;-;-;-;-;-;-;-
1514190398845;-;-;11.277176;2.5440369;-6.547455;-;-;-;-;-;-;-;-;-;-;-;-;-;-;-
1514190398865;-;-;14.103531;3.8045807;-4.650055;-;-;-;-;-;-;-;-;-;-;-;-;-;-;-
1514190398885;-;-;15.625046;2.8313293;-5.0606537;-;-;-;-;-;-;-;-;-;-;-;-;-;-;-
1514190398906;-;-;11.526184;1.3026428;-7.1508026;-;-;-;-;-;-;-;-;-;-;-;-;-;-;-
1514190398927;-;-;6.5977173;0.02293396;-5.7046967;-;-;-;-;-;-;-;-;-;-;-;-;-;-;-
1514190398947;-;-;5.394623;-1.4806213;-3.575058;-;-;-;-;-;-;-;-;-;-;-;-;-;-;-
1514190398967;-;-;5.8279724;-2.6837158;-3.6408997;-;-;-;-;-;-;-;-;-;-;-;-;-;-;-
1514190398987;-;-;7.881012;-1.7032776;-3.8623657;-;-;-;-;-;-;-;-;-;-;-;-;-;-;-
1514190399008;-;-;8.708206;-0.07762146;-3.6408997;-;-;-;-;-;-;-;-;-;-;-;-;-;-;-
1514190399028;-;-;8.416107;0.7232361;-3.0854492;-;-;-;-;-;-;-;-;-;-;-;-;-;-;-
1514190399048;-;-;7.6978455;0.7807007;-3.2207184;-;-;-;-;-;-;-;-;-;-;-;-;-;-;-
1514190399068;-;-;6.862274;0.48980713;-2.9537659;-;-;-;-;-;-;-;-;-;-;-;-;-;-;-
1514190399089;-;-;5.702286;-0.17459106;-2.9130554;-;-;-;-;-;-;-;-;-;-;-;-;-;-;-
1514190399110;-;-;4.866699;-1.155014;-2.709549;-;-;-;-;-;-;-;-;-;-;-;-;-;-;-
1514190399131;-;-;4.252594;-2.2288055;-2.2845764;-;-;-;-;-;-;-;-;-;-;-;-;-;-;-
1514190399151;-;-;5.0809784;-3.024887;-1.9769287;-;-;-;-;-;-;-;-;-;-;-;-;-;-;-
1514190399171;-;-;6.9867706;-3.040451;-2.4198608;-;-;-;-;-;-;-;-;-;-;-;-;-;-;-
1514190399191;-;-;7.9073334;-2.2958527;-2.570694;-;-;-;-;-;-;-;-;-;-;-;-;-;-;-
1514190399211;-;-;8.121628;-1.9091797;-2.2690277;-;-;-;-;-;-;-;-;-;-;-;-;-;-;-
1514190399232;-;-;7.901352;-1.8301697;-2.270218;-;-;-;-;-;-;-;-;-;-;-;-;-;-;-
1514190399252;-;-;8.250916;-2.0133362;-2.4857025;-;-;-;-;-;-;-;-;-;-;-;-;-;-;-
1514190399272;-;-;9.058945;-1.9714355;-2.1373444;-;-;-;-;-;-;-;-;-;-;-;-;-;-;-
1514190399292;-;-;9.178665;-1.8888397;-2.2043762;-;-;-;-;-;-;-;-;-;-;-;-;-;-;-
1514190399312;-;-;9.070923;-1.6386414;-2.484497;-;-;-;-;-;-;-;-;-;-;-;-;-;-;-
1514190399333;-;-;9.188232;-2.1378326;-2.1074066;-;-;-;-;-;-;-;-;-;-;-;-;-;-;-
1514190399353;-;-;9.941208;-2.6047058;-2.0643158;-;-;-;-;-;-;-;-;-;-;-;-;-;-;-
1514190399373;-;-;10.977905;-3.124237;-2.2019806;-;-;-;-;-;-;-;-;-;-;-;-;-;-;-
1514190399394;-;-;11.60878;-3.4642181;-2.9358063;-;-;-;-;-;-;-;-;-;-;-;-;-;-;-
1514190399414;-;-;11.954742;-3.000946;-4.6249084;-;-;-;-;-;-;-;-;-;-;-;-;-;-;-
1514190399434;-;-;11.775177;-2.5496368;-6.7401886;-;-;-;-;-;-;-;-;-;-;-;-;-;-;-
1514190399455;-;-;12.8046875;-1.2435913;-4.507599;-;-;-;-;-;-;-;-;-;-;-;-;-;-;-
1514190399475;-;-;11.791931;-1.1454315;-3.3667603;-;-;-;-;-;-;-;-;-;-;-;-;-;-;-
1514190399495;-;-;11.010223;-2.2276154;-4.416626;-;-;-;-;-;-;-;-;-;-;-;-;-;-;-
1514190399516;-;-;9.754471;-2.7866516;-4.863144;-;-;-;-;-;-;-;-;-;-;-;-;-;-;-
1514190399535;-;-;6.9400787;-2.6705475;-6.6204834;-;-;-;-;-;-;-;-;-;-;-;-;-;-;-
1514190399555;-;-;6.0458527;-1.8206024;-6.511551;-;-;-;-;-;-;-;-;-;-;-;-;-;-;-
1514190399575;-;-;7.9815674;-0.92996216;-4.5255585;-;-;-;-;-;-;-;-;-;-;-;-;-;-;-
1514190399596;-;-;9.082901;-0.64505005;-3.7223053;-;-;-;-;-;-;-;-;-;-;-;-;-;-;-
1514190399616;-;-;8.894943;-0.56962585;-3.433792;-;-;-;-;-;-;-;-;-;-;-;-;-;-;-
1514190399636;-;-;8.370621;-0.8976288;-2.71315;-;-;-;-;-;-;-;-;-;-;-;-;-;-;-
1514190399657;-;-;7.712219;-1.3573151;-2.819687;-;-;-;-;-;-;-;-;-;-;-;-;-;-;-
1514190399677;-;-;6.961624;-1.4626617;-2.8711548;-;-;-;-;-;-;-;-;-;-;-;-;-;-;-
1514190399697;-;-;6.2637177;-0.9622803;-3.4361877;-;-;-;-;-;-;-;-;-;-;-;-;-;-;-
1514190399718;-;-;5.2461853;0.25517273;-3.9772797;-;-;-;-;-;-;-;-;-;-;-;-;-;-;-
1514190399738;-;-;5.0211334;1.3924255;-3.8767242;-;-;-;-;-;-;-;-;-;-;-;-;-;-;-
1514190399759;-;-;5.3251953;2.0376587;-3.8587646;-;-;-;-;-;-;-;-;-;-;-;-;-;-;-
1514190399779;-;-;6.158371;1.9251251;-3.8503876;-;-;-;-;-;-;-;-;-;-;-;-;-;-;-
1514190399799;-;-;6.759323;1.4462891;-3.7067413;-;-;-;-;-;-;-;-;-;-;-;-;-;-;-
1514190399820;-;-;6.960434;1.0356903;-3.2721863;-;-;-;-;-;-;-;-;-;-;-;-;-;-;-
1514190399840;-;-;7.2022552;0.64782715;-2.8077087;-;-;-;-;-;-;-;-;-;-;-;-;-;-;-
1514190399861;-;-;7.4368744;0.42277527;-2.4952698;-;-;-;-;-;-;-;-;-;-;-;-;-;-;-
1514190399881;-;-;7.2585144;0.70887756;-2.2366943;-;-;-;-;-;-;-;-;-;-;-;-;-;-;-
1514190399901;-;-;7.387802;1.1805267;-2.2893677;-;-;-;-;-;-;-;-;-;-;-;-;-;-;-
1514190399922;-;-;7.7373505;1.6701508;-2.5958252;-;-;-;-;-;-;-;-;-;-;-;-;-;-;-
1514190399942;-;-;8.793198;1.9897766;-2.5958252;-;-;-;-;-;-;-;-;-;-;-;-;-;-;-
1514190399962;-;-;9.798767;2.0963135;-2.6233673;-;-;-;-;-;-;-;-;-;-;-;-;-;-;-
1514190399982;-;-;10.159088;2.0017395;-2.4797058;-;-;-;-;-;-;-;-;-;-;-;-;-;-;-
1514190400002;-;-;10.051346;1.8856201;-2.0391846;-;-;-;-;-;-;-;-;-;-;-;-;-;-;-
1514190400022;-;-;10.2752075;1.4055939;-1.5854797;-;-;-;-;-;-;-;-;-;-;-;-;-;-;-
1514190400043;-;-;11.180222;0.59754944;-2.1421204;-;-;-;-;-;-;-;-;-;-;-;-;-;-;-
1514190400063;-;-;11.256836;0.62986755;-3.6923676;-;-;-;-;-;-;-;-;-;-;-;-;-;-;-
1514190400084;-;-;10.853409;1.2475739;-7.2501526;-;-;-;-;-;-;-;-;-;-;-;-;-;-;-
1514190400103;-;-;12.680176;3.0324554;-5.725052;-;-;-;-;-;-;-;-;-;-;-;-;-;-;-
1514190400123;-;-;15.103119;4.2510986;-4.3208466;-;-;-;-;-;-;-;-;-;-;-;-;-;-;-
1514190400144;-;-;12.2204895;4.605438;-5.558655;-;-;-;-;-;-;-;-;-;-;-;-;-;-;-
1514190400164;-;-;8.766861;2.5703735;-6.789276;-;-;-;-;-;-;-;-;-;-;-;-;-;-;-
1514190400184;-;-;5.1719666;0.6322632;-5.6412506;-;-;-;-;-;-;-;-;-;-;-;-;-;-;-
1514190400205;-;-;5.3611145;-1.704483;-4.0514984;-;-;-;-;-;-;-;-;-;-;-;-;-;-;-
1514190400225;-;-;7.750519;-2.2048645;-3.5367432;-;-;-;-;-;-;-;-;-;-;-;-;-;-;-
1514190400245;-;-;9.383362;-0.50857544;-3.0603027;-;-;-;-;-;-;-;-;-;-;-;-;-;-;-
1514190400265;-;-;8.880585;0.6645813;-2.4114685;-;-;-;-;-;-;-;-;-;-;-;-;-;-;-
1514190400286;-;-;7.8367157;0.6274719;-2.9034882;-;-;-;-;-;-;-;-;-;-;-;-;-;-;-
1514190400306;-;-;6.7401733;0.40361023;-3.2506409;-;-;-;-;-;-;-;-;-;-;-;-;-;-;-
1514190400326;-;-;5.2581635;-0.41879272;-3.0746765;-;-;-;-;-;-;-;-;-;-;-;-;-;-;-
1514190400346;-;-;4.051483;-1.028122;-3.0938263;-;-;-;-;-;-;-;-;-;-;-;-;-;-;-
1514190400366;-;-;3.6384735;-1.1562042;-3.1644592;-;-;-;-;-;-;-;-;-;-;-;-;-;-;-
1514190400387;-;-;5.4281464;-1.3573151;-2.6054077;-;-;-;-;-;-;-;-;-;-;-;-;-;-;-
1514190400406;-;-;7.805588;-1.210083;-3.353592;-;-;-;-;-;-;-;-;-;-;-;-;-;-;-
1514190400426;-;-;8.039017;-0.42237854;-3.4768982;-;-;-;-;-;-;-;-;-;-;-;-;-;-;-
1514190400446;-;-;8.016281;-0.6534271;-3.346405;-;-;-;-;-;-;-;-;-;-;-;-;-;-;-
1514190400467;-;-;7.2908325;-1.4243622;-3.0375519;-;-;-;-;-;-;-;-;-;-;-;-;-;-;-
1514190400487;-;-;7.787628;-2.0205078;-2.1229706;-;-;-;-;-;-;-;-;-;-;-;-;-;-;-
1514190400507;-;-;8.250916;-2.1617737;-1.2670441;-;-;-;-;-;-;-;-;-;-;-;-;-;-;-
1514190400528;-;-;8.7656555;-2.7806702;-0.827713;-;-;-;-;-;-;-;-;-;-;-;-;-;-;-
1514190400548;-;-;8.03064;-3.0727692;-1.6788483;-;-;-;-;-;-;-;-;-;-;-;-;-;-;-
1514190400568;-;-;7.937271;-2.6334229;-1.203598;-;-;-;-;-;-;-;-;-;-;-;-;-;-;-
1514190400589;-;-;7.9935303;-2.2743073;-1.2419128;-;-;-;-;-;-;-;-;-;-;-;-;-;-;-
1514190400609;-;-;8.517868;-2.221634;-1.7279358;-;-;-;-;-;-;-;-;-;-;-;-;-;-;-
1514190400629;-;-;9.546173;-2.2647247;-2.1169891;-;-;-;-;-;-;-;-;-;-;-;-;-;-;-
1514190400649;-;-;11.127548;-2.380844;-2.579071;-;-;-;-;-;-;-;-;-;-;-;-;-;-;-
1514190400670;-;-;11.888901;-2.6729279;-2.6987762;-;-;-;-;-;-;-;-;-;-;-;-;-;-;-
1514190400689;-;-;12.65863;-2.427536;-2.4569702;-;-;-;-;-;-;-;-;-;-;-;-;-;-;-
1514190400709;-;-;13.451111;-1.5237122;-2.5419617;-;-;-;-;-;-;-;-;-;-;-;-;-;-;-
1514190400730;-;-;12.240845;-1.1334686;-6.305649;-;-;-;-;-;-;-;-;-;-;-;-;-;-;-
1514190400749;-;-;13.247604;-2.3952026;-5.780121;-;-;-;-;-;-;-;-;-;-;-;-;-;-;-
1514190400769;-;-;12.85376;-2.6717377;-2.7083588;-;-;-;-;-;-;-;-;-;-;-;-;-;-;-
1514190400789;-;-;11.407669;-2.9913635;-4.227478;-;-;-;-;-;-;-;-;-;-;-;-;-;-;-
1514190400810;-;-;10.354218;-1.9558716;-4.69075;-;-;-;-;-;-;-;-;-;-;-;-;-;-;-
1514190400830;-;-;8.165909;-0.35534668;-4.9062347;-;-;-;-;-;-;-;-;-;-;-;-;-;-;-
1514190400850;-;-;6.9795837;-0.463089;-4.3711243;-;-;-;-;-;-;-;-;-;-;-;-;-;-;-
1514190400871;-;-;6.5402527;-2.2982483;-3.3715515;-;-;-;-;-;-;-;-;-;-;-;-;-;-;-
1514190400891;-;-;6.7569275;-2.966217;-2.4809113;-;-;-;-;-;-;-;-;-;-;-;-;-;-;-
1514190400911;-;-;7.4967346;-1.6685638;-2.0918427;-;-;-;-;-;-;-;-;-;-;-;-;-;-;-
1514190400932;-;-;7.0729675;0.100753784;-2.500061;-;-;-;-;-;-;-;-;-;-;-;-;-;-;-
1514190400952;-;-;6.466034;1.1350403;-2.7981415;-;-;-;-;-;-;-;-;-;-;-;-;-;-;-
1514190400972;-;-;6.354706;1.6258545;-3.2937317;-;-;-;-;-;-;-;-;-;-;-;-;-;-;-
1514190400993;-;-;6.316391;1.9047852;-3.8264465;-;-;-;-;-;-;-;-;-;-;-;-;-;-;-
1514190401013;-;-;5.754959;1.9622345;-4.4621124;-;-;-;-;-;-;-;-;-;-;-;-;-;-;-
1514190401034;-;-;5.8830414;1.7874603;-4.377121;-;-;-;-;-;-;-;-;-;-;-;-;-;-;-
1514190401059;-;-;6.5079346;1.0871582;-3.8827057;-;-;-;-;-;-;-;-;-;-;-;-;-;-;-
1514190401079;-;-;7.252533;0.24679565;-3.5618896;-;-;-;-;-;-;-;-;-;-;-;-;-;-;-
1514190401099;-;-;7.6822815;0.13186646;-3.3583832;-;-;-;-;-;-;-;-;-;-;-;-;-;-;-
1514190401120;-;-;7.435684;0.75675964;-3.180008;-;-;-;-;-;-;-;-;-;-;-;-;-;-;-
1514190401140;-;-;7.1567535;1.1829224;-2.939392;-;-;-;-;-;-;-;-;-;-;-;-;-;-;-
1514190401160;-;-;6.904175;0.92674255;-2.7155457;-;-;-;-;-;-;-;-;-;-;-;-;-;-;-
1514190401180;-;-;6.972412;0.9004059;-2.6880035;-;-;-;-;-;-;-;-;-;-;-;-;-;-;-
1514190401200;-;-;7.284851;1.2140503;-2.500061;-;-;-;-;-;-;-;-;-;-;-;-;-;-;-
1514190401221;-;-;7.5948944;1.616272;-2.3276825;-;-;-;-;-;-;-;-;-;-;-;-;-;-;-
1514190401241;-;-;8.085709;1.698883;-2.0080566;-;-;-;-;-;-;-;-;-;-;-;-;-;-;-
1514190401262;-;-;8.392166;1.4043884;-2.017624;-;-;-;-;-;-;-;-;-;-;-;-;-;-;-
1514190401282;-;-;8.582504;0.8525238;-1.8775635;-;-;-;-;-;-;-;-;-;-;-;-;-;-;-
1514190401303;-;-;8.545395;0.27671814;-1.2239532;-;-;-;-;-;-;-;-;-;-;-;-;-;-;-
1514190401323;-;-;8.777634;-0.016571045;-1.1293793;-;-;-;-;-;-;-;-;-;-;-;-;-;-;-
1514190401344;-;-;9.303162;-0.44992065;-1.1940308;-;-;-;-;-;-;-;-;-;-;-;-;-;-;-
1514190401364;-;-;9.114014;-0.4044342;-0.946228;-;-;-;-;-;-;-;-;-;-;-;-;-;-;-
1514190401384;-;-;8.944031;-0.5540619;-0.48773193;-;-;-;-;-;-;-;-;-;-;-;-;-;-;-
1514190401405;-;-;9.373795;-0.63905334;-0.2758484;-;-;-;-;-;-;-;-;-;-;-;-;-;-;-
1514190401424;-;-;10.268021;-0.43196106;-0.7199707;-;-;-;-;-;-;-;-;-;-;-;-;-;-;-
1514190401444;-;-;10.734894;0.89442444;-3.104599;-;-;-;-;-;-;-;-;-;-;-;-;-;-;-
1514190401465;-;-;10.862976;3.235962;-6.3164215;-;-;-;-;-;-;-;-;-;-;-;-;-;-;-
1514190401485;-;-;12.274368;5.7558594;-6.5977325;-;-;-;-;-;-;-;-;-;-;-;-;-;-;-
1514190401505;-;-;11.304718;5.680435;-4.4393616;-;-;-;-;-;-;-;-;-;-;-;-;-;-;-
1514190401525;-;-;8.000717;2.4279175;-4.4226074;-;-;-;-;-;-;-;-;-;-;-;-;-;-;-
1514190401546;-;-;6.506729;-1.1346588;-4.8272247;-;-;-;-;-;-;-;-;-;-;-;-;-;-;-
1514190401567;-;-;6.2792816;-2.9075623;-5.2126923;-;-;-;-;-;-;-;-;-;-;-;-;-;-;-
1514190401587;-;-;7.763687;-2.6980743;-5.0367126;-;-;-;-;-;-;-;-;-;-;-;-;-;-;-
1514190401608;-;-;9.2756195;-0.65701294;-4.108963;-;-;-;-;-;-;-;-;-;-;-;-;-;-;-
1514190401628;-;-;11.304718;1.9275208;-4.890671;-;-;-;-;-;-;-;-;-;-;-;-;-;-;-
1514190401648;-;-;11.644684;1.5037537;-4.3196564;-;-;-;-;-;-;-;-;-;-;-;-;-;-;-
1514190401668;-;-;10.404495;0.04927063;-4.013199;-;-;-;-;-;-;-;-;-;-;-;-;-;-;-
1514190401689;-;-;8.156342;-0.74679565;-3.5068207;-;-;-;-;-;-;-;-;-;-;-;-;-;-;-
1514190401710;-;-;6.0769806;-0.9898071;-2.9836884;-;-;-;-;-;-;-;-;-;-;-;-;-;-;-
1514190401730;-;-;4.664398;-0.85453796;-2.7742004;-;-;-;-;-;-;-;-;-;-;-;-;-;-;-
1514190401750;-;-;4.8870544;-1.0149536;-3.302124;-;-;-;-;-;-;-;-;-;-;-;-;-;-;-
1514190401771;-;-;8.017471;-1.1777496;-3.5451355;-;-;-;-;-;-;-;-;-;-;-;-;-;-;-
1514190401791;-;-;8.492722;-0.87368774;-3.2063446;-;-;-;-;-;-;-;-;-;-;-;-;-;-;-
1514190401811;-;-;7.6427765;-1.0819855;-2.6054077;-;-;-;-;-;-;-;-;-;-;-;-;-;-;-
1514190401832;-;-;7.301605;-1.7523651;-2.1337433;-;-;-;-;-;-;-;-;-;-;-;-;-;-;-
1514190401852;-;-;8.1766815;-2.5089264;-1.8811646;-;-;-;-;-;-;-;-;-;-;-;-;-;-;-
1514190401873;-;-;9.628769;-2.6633606;-2.2378998;-;-;-;-;-;-;-;-;-;-;-;-;-;-;-
1514190401893;-;-;10.54216;-2.0540314;-2.2761993;-;-;-;-;-;-;-;-;-;-;-;-;-;-;-
1514190401913;-;-;10.14592;-1.0341034;-2.0092468;-;-;-;-;-;-;-;-;-;-;-;-;-;-;-
1514190401933;-;-;9.586868;-0.8018646;-1.674057;-;-;-;-;-;-;-;-;-;-;-;-;-;-;-
1514190401954;-;-;9.058945;-0.70729065;-0.9474182;-;-;-;-;-;-;-;-;-;-;-;-;-;-;-
1514190401974;-;-;7.91333;-1.7918701;-1.5148468;-;-;-;-;-;-;-;-;-;-;-;-;-;-;-
1514190401994;-;-;7.6894684;-3.6509705;-2.3683777;-;-;-;-;-;-;-;-;-;-;-;-;-;-;-
1514190402015;-;-;8.113235;-3.9011536;-1.2682495;-;-;-;-;-;-;-;-;-;-;-;-;-;-;-
1514190402035;-;-;9.239716;-2.0552368;-0.059173584;-;-;-;-;-;-;-;-;-;-;-;-;-;-;-
1514190402055;-;-;10.264435;-0.54089355;-1.5232239;-;-;-;-;-;-;-;-;-;-;-;-;-;-;-
1514190402076;-;-;11.769196;1.4091797;-7.488373;-;-;-;-;-;-;-;-;-;-;-;-;-;-;-
1514190402096;-;-;12.236053;3.3053894;-6.3906403;-;-;-;-;-;-;-;-;-;-;-;-;-;-;-
1514190402116;-;-;10.789963;2.8038025;-5.302475;-;-;-;-;-;-;-;-;-;-;-;-;-;-;-
1514190402136;-;-;8.173096;2.0927277;-5.4904175;-;-;-;-;-;-;-;-;-;-;-;-;-;-;-
1514190402157;-;-;7.2501373;0.65141296;-4.1436768;-;-;-;-;-;-;-;-;-;-;-;-;-;-;-
1514190402177;-;-;7.473984;-0.96707153;-3.6277313;-;-;-;-;-;-;-;-;-;-;-;-;-;-;-
1514190402197;-;-;7.4500427;-1.5883636;-3.6947632;-;-;-;-;-;-;-;-;-;-;-;-;-;-;-
1514190402218;-;-;8.213791;-1.3405609;-3.1333313;-;-;-;-;-;-;-;-;-;-;-;-;-;-;-
1514190402237;-;-;8.740524;-0.5349121;-2.9896698;-;-;-;-;-;-;-;-;-;-;-;-;-;-;-
1514190402257;-;-;10.033386;0.08039856;-3.2650146;-;-;-;-;-;-;-;-;-;-;-;-;-;-;-
1514190402277;-;-;10.120773;1.2355957;-3.2973328;-;-;-;-;-;-;-;-;-;-;-;-;-;-;-
1514190402298;-;-;9.499481;1.2619324;-3.0243835;-;-;-;-;-;-;-;-;-;-;-;-;-;-;-
1514190402317;-;-;8.26767;1.5755768;-2.649704;-;-;-;-;-;-;-;-;-;-;-;-;-;-;-
1514190402337;-;-;6.791641;2.0053406;-2.1026306;-;-;-;-;-;-;-;-;-;-;-;-;-;-;-
1514190402357;-;-;5.647217;1.9251251;-1.7506714;-;-;-;-;-;-;-;-;-;-;-;-;-;-;-
1514190402378;-;-;5.5957336;1.3313751;-1.7171631;-;-;-;-;-;-;-;-;-;-;-;-;-;-;-
1514190402398;-;-;7.046631;0.4371338;-1.7817993;-;-;-;-;-;-;-;-;-;-;-;-;-;-;-
1514190402419;-;-;8.553772;-0.52893066;-1.6620941;-;-;-;-;-;-;-;-;-;-;-;-;-;-;-
1514190402438;-;-;9.148727;-1.0867767;-1.4418182;-;-;-;-;-;-;-;-;-;-;-;-;-;-;-
1514190402459;-;-;9.041;-0.7623596;-1.0719147;-;-;-;-;-;-;-;-;-;-;-;-;-;-;-
1514190402479;-;-;8.010284;0.08039856;-1.4250641;-;-;-;-;-;-;-;-;-;-;-;-;-;-;-
1514190402499;-;-;7.664322;0.3712921;-1.4466095;-;-;-;-;-;-;-;-;-;-;-;-;-;-;-
1514190402520;-;-;7.9145203;0.48980713;-1.030014;-;-;-;-;-;-;-;-;-;-;-;-;-;-;-
1514190402540;-;-;8.502304;0.57240295;-0.6984253;-;-;-;-;-;-;-;-;-;-;-;-;-;-;-
1514190402560;-;-;9.403717;0.46107483;-0.7738342;-;-;-;-;-;-;-;-;-;-;-;-;-;-;-
1514190402581;-;-;10.238098;0.30545044;-0.961792;-;-;-;-;-;-;-;-;-;-;-;-;-;-;-
1514190402602;-;-;10.945587;0.44432068;-2.2402954;-;-;-;-;-;-;-;-;-;-;-;-;-;-;-
1514190402622;-;-;11.296326;1.3361511;-4.1424866;-;-;-;-;-;-;-;-;-;-;-;-;-;-;-
1514190402642;-;-;10.552933;3.5615692;-7.0753784;-;-;-;-;-;-;-;-;-;-;-;-;-;-;-
1514190402662;-;-;7.901352;4.190048;-5.6831512;-;-;-;-;-;-;-;-;-;-;-;-;-;-;-
1514190402682;-;-;6.6024933;2.0101166;-3.9569397;-;-;-;-;-;-;-;-;-;-;-;-;-;-;-
1514190402703;-;-;7.4404755;-1.3202057;-4.077835;-;-;-;-;-;-;-;-;-;-;-;-;-;-;-
1514190402724;-;-;9.955582;-2.8596802;-7.721817;-;-;-;-;-;-;-;-;-;-;-;-;-;-;-
1514190402744;-;-;11.899673;-2.0432587;-5.6951294;-;-;-;-;-;-;-;-;-;-;-;-;-;-;-
1514190402765;-;-;12.1019745;0.769928;-3.8982697;-;-;-;-;-;-;-;-;-;-;-;-;-;-;-
1514190402785;-;-;12.365341;0.57121277;-2.6724396;-;-;-;-;-;-;-;-;-;-;-;-;-;-;-
1514190402805;-;-;11.588425;-1.1095276;-2.737091;-;-;-;-;-;-;-;-;-;-;-;-;-;-;-
1514190402826;-;-;9.736511;-2.1976929;-3.176422;-;-;-;-;-;-;-;-;-;-;-;-;-;-;-
1514190402846;-;-;7.422516;-2.6430054;-3.203949;-;-;-;-;-;-;-;-;-;-;-;-;-;-;-
1514190402866;-;-;5.1683807;-2.7651062;-2.978897;-;-;-;-;-;-;-;-;-;-;-;-;-;-;-
1514190402887;-;-;3.8743134;-2.6992645;-2.3995056;-;-;-;-;-;-;-;-;-;-;-;-;-;-;-
1514190402907;-;-;4.4357452;-2.6118774;-1.6369476;-;-;-;-;-;-;-;-;-;-;-;-;-;-;-
1514190402927;-;-;7.422516;-2.4550629;-1.4980927;-;-;-;-;-;-;-;-;-;-;-;-;-;-;-
1514190402947;-;-;8.254501;-2.6238556;-1.5100555;-;-;-;-;-;-;-;-;-;-;-;-;-;-;-
1514190402967;-;-;8.590881;-2.6645508;-1.471756;-;-;-;-;-;-;-;-;-;-;-;-;-;-;-
1514190402988;-;-;9.166687;-2.380844;-1.8284912;-;-;-;-;-;-;-;-;-;-;-;-;-;-;-
1514190403007;-;-;9.452805;-2.0133362;-2.069107;-;-;-;-;-;-;-;-;-;-;-;-;-;-;-
1514190403027;-;-;9.415695;-2.2754974;-2.4773102;-;-;-;-;-;-;-;-;-;-;-;-;-;-;-
1514190403048;-;-;9.110428;-2.8692627;-2.4737244;-;-;-;-;-;-;-;-;-;-;-;-;-;-;-
1514190403068;-;-;8.869812;-3.5324554;-1.8296814;-;-;-;-;-;-;-;-;-;-;-;-;-;-;-
1514190403088;-;-;9.240906;-3.3864136;-1.0479736;-;-;-;-;-;-;-;-;-;-;-;-;-;-;-
1514190403109;-;-;9.863403;-2.3916168;-1.164093;-;-;-;-;-;-;-;-;-;-;-;-;-;-;-
1514190403129;-;-;11.120361;-1.7116699;-2.207962;-;-;-;-;-;-;-;-;-;-;-;-;-;-;-
1514190403149;-;-;12.663422;-2.1701508;-3.7366638;-;-;-;-;-;-;-;-;-;-;-;-;-;-;-
1514190403170;-;-;13.810242;-3.368454;-6.547455;-;-;-;-;-;-;-;-;-;-;-;-;-;-;-
1514190403190;-;-;15.609482;-3.6449738;-5.3551483;-;-;-;-;-;-;-;-;-;-;-;-;-;-;-
1514190403210;-;-;14.115509;-3.7622986;-3.6432953;-;-;-;-;-;-;-;-;-;-;-;-;-;-;-
1514190403231;-;-;10.794754;-5.064743;-4.523163;-;-;-;-;-;-;-;-;-;-;-;-;-;-;-
1514190403251;-;-;8.52504;-4.5296326;-6.1380463;-;-;-;-;-;-;-;-;-;-;-;-;-;-;-
1514190403271;-;-;5.5071564;-2.3341522;-7.8546906;-;-;-;-;-;-;-;-;-;-;-;-;-;-;-
1514190403292;-;-;5.279709;0.7591553;-6.3726807;-;-;-;-;-;-;-;-;-;-;-;-;-;-;-
1514190403311;-;-;5.9788055;1.327774;-5.3000793;-;-;-;-;-;-;-;-;-;-;-;-;-;-;-
1514190403331;-;-;7.61644;0.067230225;-4.0347443;-;-;-;-;-;-;-;-;-;-;-;-;-;-;-
1514190403351;-;-;9.23613;-1.0269165;-3.2398682;-;-;-;-;-;-;-;-;-;-;-;-;-;-;-
1514190403372;-;-;9.989105;-2.190506;-3.025589;-;-;-;-;-;-;-;-;-;-;-;-;-;-;-
1514190403391;-;-;9.121201;-2.3760529;-3.5415344;-;-;-;-;-;-;-;-;-;-;-;-;-;-;-
1514190403411;-;-;7.845093;-1.2088776;-3.5810394;-;-;-;-;-;-;-;-;-;-;-;-;-;-;-
1514190403431;-;-;6.0027466;0.86569214;-3.4302063;-;-;-;-;-;-;-;-;-;-;-;-;-;-;-
1514190403452;-;-;4.221466;2.6936646;-3.2494507;-;-;-;-;-;-;-;-;-;-;-;-;-;-;-
1514190403471;-;-;3.6289063;3.343689;-3.1824036;-;-;-;-;-;-;-;-;-;-;-;-;-;-;-
1514190403492;-;-;4.3028717;2.512909;-3.041153;-;-;-;-;-;-;-;-;-;-;-;-;-;-;-
1514190403512;-;-;5.8902283;1.0285034;-3.0399475;-;-;-;-;-;-;-;-;-;-;-;-;-;-;-
1514190403532;-;-;7.1819;0.20848083;-2.757431;-;-;-;-;-;-;-;-;-;-;-;-;-;-;-
1514190403552;-;-;7.411743;0.4945984;-3.1393127;-;-;-;-;-;-;-;-;-;-;-;-;-;-;-
1514190403573;-;-;7.4847565;1.1745453;-3.0950165;-;-;-;-;-;-;-;-;-;-;-;-;-;-;-
1514190403593;-;-;7.727768;1.5779724;-3.001648;-;-;-;-;-;-;-;-;-;-;-;-;-;-;-
1514190403613;-;-;8.0533905;1.640213;-3.0914307;-;-;-;-;-;-;-;-;-;-;-;-;-;-;-
1514190403634;-;-;7.952835;1.4750214;-2.8927155;-;-;-;-;-;-;-;-;-;-;-;-;-;-;-
1514190403654;-;-;8.1766815;1.6234589;-2.6054077;-;-;-;-;-;-;-;-;-;-;-;-;-;-;-
1514190403675;-;-;8.303574;2.356079;-2.7538452;-;-;-;-;-;-;-;-;-;-;-;-;-;-;-
1514190403695;-;-;9.074509;2.7559204;-2.2091675;-;-;-;-;-;-;-;-;-;-;-;-;-;-;-
1514190403715;-;-;9.990295;1.8545074;-1.9134827;-;-;-;-;-;-;-;-;-;-;-;-;-;-;-
1514190403735;-;-;11.6710205;1.0189209;-2.08107;-;-;-;-;-;-;-;-;-;-;-;-;-;-;-
1514190403755;-;-;12.73764;0.94470215;-2.7897644;-;-;-;-;-;-;-;-;-;-;-;-;-;-;-
1514190403776;-;-;12.713699;1.6462097;-6.2254333;-;-;-;-;-;-;-;-;-;-;-;-;-;-;-
1514190403796;-;-;12.810669;2.837326;-6.1392517;-;-;-;-;-;-;-;-;-;-;-;-;-;-;-
1514190403816;-;-;12.832214;4.2989807;-5.5526733;-;-;-;-;-;-;-;-;-;-;-;-;-;-;-
1514190403836;-;-;11.571671;4.0487823;-5.2581787;-;-;-;-;-;-;-;-;-;-;-;-;-;-;-
1514190403857;-;-;8.6651;2.1633606;-7.7505493;-;-;-;-;-;-;-;-;-;-;-;-;-;-;-
1514190403877;-;-;4.451309;0.6131134;-6.776108;-;-;-;-;-;-;-;-;-;-;-;-;-;-;-
1514190403897;-;-;4.6452484;-1.2112732;-4.6632233;-;-;-;-;-;-;-;-;-;-;-;-;-;-;-
1514190403918;-;-;7.264496;-2.1605682;-4.4429626;-;-;-;-;-;-;-;-;-;-;-;-;-;-;-
1514190403938;-;-;8.84108;-1.2376099;-4.53154;-;-;-;-;-;-;-;-;-;-;-;-;-;-;-
1514190403958;-;-;9.015854;0.1725769;-4.3196564;-;-;-;-;-;-;-;-;-;-;-;-;-;-;-
1514190403978;-;-;8.135986;0.42156982;-3.3236694;-;-;-;-;-;-;-;-;-;-;-;-;-;-;-
1514190403998;-;-;6.858673;0.65859985;-3.6648407;-;-;-;-;-;-;-;-;-;-;-;-;-;-;-
1514190404019;-;-;5.489197;0.03012085;-3.3320465;-;-;-;-;-;-;-;-;-;-;-;-;-;-;-
1514190404039;-;-;4.8475494;-0.973053;-2.7825775;-;-;-;-;-;-;-;-;-;-;-;-;-;-;-
1514190404059;-;-;5.2461853;-2.0540314;-2.3037415;-;-;-;-;-;-;-;-;-;-;-;-;-;-;-
1514190404079;-;-;6.454056;-2.341339;-2.1612854;-;-;-;-;-;-;-;-;-;-;-;-;-;-;-
1514190404100;-;-;7.497925;-1.8636932;-2.4354248;-;-;-;-;-;-;-;-;-;-;-;-;-;-;-
1514190404120;-;-;8.019867;-1.3525391;-2.7059631;-;-;-;-;-;-;-;-;-;-;-;-;-;-;-
1514190404140;-;-;7.4344788;-1.2160645;-2.5814667;-;-;-;-;-;-;-;-;-;-;-;-;-;-;-
1514190404160;-;-;6.4444885;-1.5033722;-2.483307;-;-;-;-;-;-;-;-;-;-;-;-;-;-;-
1514190404181;-;-;6.5390472;-1.6829376;-2.191208;-;-;-;-;-;-;-;-;-;-;-;-;-;-;-
1514190404201;-;-;7.614044;-1.7332153;-1.9470062;-;-;-;-;-;-;-;-;-;-;-;-;-;-;-
1514190404221;-;-;8.954803;-1.6027222;-2.0990295;-;-;-;-;-;-;-;-;-;-;-;-;-;-;-
1514190404241;-;-;9.761642;-1.6087189;-2.0355835;-;-;-;-;-;-;-;-;-;-;-;-;-;-;-
1514190404261;-;-;10.265625;-2.4227448;-2.0188293;-;-;-;-;-;-;-;-;-;-;-;-;-;-;-
1514190404281;-;-;10.997055;-3.2367706;-2.2582397;-;-;-;-;-;-;-;-;-;-;-;-;-;-;-
1514190404302;-;-;12.492233;-3.6437836;-2.6987762;-;-;-;-;-;-;-;-;-;-;-;-;-;-;-
1514190404322;-;-;13.3194275;-3.479782;-3.2805634;-;-;-;-;-;-;-;-;-;-;-;-;-;-;-
1514190404342;-;-;12.549698;-2.6549835;-3.9497528;-;-;-;-;-;-;-;-;-;-;-;-;-;-;-
1514190404363;-;-;11.908051;-1.9462891;-5.974045;-;-;-;-;-;-;-;-;-;-;-;-;-;-;-
1514190404384;-;-;10.93959;-2.961441;-7.8079987;-;-;-;-;-;-;-;-;-;-;-;-;-;-;-
1514190404405;-;-;11.406464;-2.8656616;-3.7737732;-;-;-;-;-;-;-;-;-;-;-;-;-;-;-
1514190404425;-;-;12.929184;-1.8864441;-1.2694397;-;-;-;-;-;-;-;-;-;-;-;-;-;-;-
1514190404446;-;-;8.88298;-1.6673737;-5.8471527;-;-;-;-;-;-;-;-;-;-;-;-;-;-;-
1514190404466;-;-;3.9736633;-1.5009766;-9.963989;-;-;-;-;-;-;-;-;-;-;-;-;-;-;-
1514190404486;-;-;5.280899;-0.98501587;-5.224655;-;-;-;-;-;-;-;-;-;-;-;-;-;-;-
1514190404507;-;-;7.4368744;-1.1993103;-2.9693298;-;-;-;-;-;-;-;-;-;-;-;-;-;-;-
1514190404527;-;-;7.708618;-0.8928528;-2.524002;-;-;-;-;-;-;-;-;-;-;-;-;-;-;-
1514190404547;-;-;7.532654;-0.124313354;-2.203186;-;-;-;-;-;-;-;-;-;-;-;-;-;-;-
1514190404567;-;-;7.0574036;-0.34936523;-2.840042;-;-;-;-;-;-;-;-;-;-;-;-;-;-;-
1514190404588;-;-;6.536667;-0.933548;-4.1352997;-;-;-;-;-;-;-;-;-;-;-;-;-;-;-
1514190404608;-;-;6.1715393;-0.5361023;-4.706314;-;-;-;-;-;-;-;-;-;-;-;-;-;-;-
1514190404629;-;-;5.2282257;1.3289795;-4.2921143;-;-;-;-;-;-;-;-;-;-;-;-;-;-;-
1514190404649;-;-;4.549469;3.276657;-3.4194336;-;-;-;-;-;-;-;-;-;-;-;-;-;-;-
1514190404670;-;-;5.2198486;3.5088959;-3.5714722;-;-;-;-;-;-;-;-;-;-;-;-;-;-;-
1514190404690;-;-;6.354706;2.260315;-3.9293976;-;-;-;-;-;-;-;-;-;-;-;-;-;-;-
1514190404710;-;-;7.391388;0.9758301;-3.689972;-;-;-;-;-;-;-;-;-;-;-;-;-;-;-
1514190404731;-;-;7.3818207;0.15820313;-3.4745026;-;-;-;-;-;-;-;-;-;-;-;-;-;-;-
1514190404751;-;-;7.1723175;0.0037841797;-2.768219;-;-;-;-;-;-;-;-;-;-;-;-;-;-;-
1514190404771;-;-;7.5122986;0.51374817;-1.7853851;-;-;-;-;-;-;-;-;-;-;-;-;-;-;-
1514190404792;-;-;7.4297028;1.2056732;-1.9134827;-;-;-;-;-;-;-;-;-;-;-;-;-;-;-
1514190404812;-;-;7.882202;1.4941711;-2.3683777;-;-;-;-;-;-;-;-;-;-;-;-;-;-;-
1514190404832;-;-;8.416107;1.9538574;-2.4857025;-;-;-;-;-;-;-;-;-;-;-;-;-;-;-
1514190404853;-;-;9.085281;2.4123535;-3.0064392;-;-;-;-;-;-;-;-;-;-;-;-;-;-;-
1514190404872;-;-;9.934036;2.363266;-3.3236694;-;-;-;-;-;-;-;-;-;-;-;-;-;-;-
1514190404892;-;-;10.575684;1.6725464;-3.3476105;-;-;-;-;-;-;-;-;-;-;-;-;-;-;-
1514190404912;-;-;11.486679;1.437912;-3.1740265;-;-;-;-;-;-;-;-;-;-;-;-;-;-;-
1514190404933;-;-;11.692581;1.437912;-3.7977142;-;-;-;-;-;-;-;-;-;-;-;-;-;-;-
1514190404953;-;-;10.855804;1.3852386;-6.7066803;-;-;-;-;-;-;-;-;-;-;-;-;-;-;-
1514190404974;-;-;11.072479;1.3840332;-7.5027466;-;-;-;-;-;-;-;-;-;-;-;-;-;-;-
1514190404994;-;-;11.8841095;2.0927277;-6.5582275;-;-;-;-;-;-;-;-;-;-;-;-;-;-;-
1514190405014;-;-;12.145081;3.3640442;-5.7394104;-;-;-;-;-;-;-;-;-;-;-;-;-;-;-
1514190405034;-;-;9.479141;1.8425293;-7.1076965;-;-;-;-;-;-;-;-;-;-;-;-;-;-;-
1514190405055;-;-;5.8638916;0.56163025;-6.3595123;-;-;-;-;-;-;-;-;-;-;-;-;-;-;-
1514190405074;-;-;4.9540863;-1.4866028;-4.8691254;-;-;-;-;-;-;-;-;-;-;-;-;-;-;-
1514190405094;-;-;5.6340485;-2.4837952;-4.302902;-;-;-;-;-;-;-;-;-;-;-;-;-;-;-
1514190405114;-;-;7.858261;-1.6829376;-3.5427399;-;-;-;-;-;-;-;-;-;-;-;-;-;-;-
1514190405135;-;-;9.519836;0.44551086;-4.2382507;-;-;-;-;-;-;-;-;-;-;-;-;-;-;-
1514190405156;-;-;9.7413025;1.8150024;-3.8707428;-;-;-;-;-;-;-;-;-;-;-;-;-;-;-
1514190405176;-;-;8.969162;1.5300903;-4.077835;-;-;-;-;-;-;-;-;-;-;-;-;-;-;-
1514190405196;-;-;6.1356354;0.031311035;-4.093399;-;-;-;-;-;-;-;-;-;-;-;-;-;-;-
1514190405217;-;-;4.3268127;-1.230423;-3.203949;-;-;-;-;-;-;-;-;-;-;-;-;-;-;-
1514190405236;-;-;3.3571625;-2.377243;-2.4030914;-;-;-;-;-;-;-;-;-;-;-;-;-;-;-
1514190405256;-;-;3.9736633;-3.1015015;-2.1744537;-;-;-;-;-;-;-;-;-;-;-;-;-;-;-
1514190405276;-;-;5.9452972;-3.148178;-2.546753;-;-;-;-;-;-;-;-;-;-;-;-;-;-;-
1514190405296;-;-;7.241745;-2.3042297;-2.9657288;-;-;-;-;-;-;-;-;-;-;-;-;-;-;-
1514190405317;-;-;7.69545;-1.6398315;-3.0004425;-;-;-;-;-;-;-;-;-;-;-;-;-;-;-
1514190405337;-;-;7.8546753;-1.2459869;-3.0914307;-;-;-;-;-;-;-;-;-;-;-;-;-;-;-
1514190405357;-;-;7.9348755;-1.3585205;-3.1057892;-;-;-;-;-;-;-;-;-;-;-;-;-;-;-
1514190405378;-;-;8.127609;-1.8648987;-2.6281433;-;-;-;-;-;-;-;-;-;-;-;-;-;-;-
1514190405398;-;-;8.570541;-2.5675964;-2.3851318;-;-;-;-;-;-;-;-;-;-;-;-;-;-;-
1514190405418;-;-;9.469559;-2.518509;-2.4078827;-;-;-;-;-;-;-;-;-;-;-;-;-;-;-
1514190405438;-;-;9.673065;-2.2479706;-2.5443573;-;-;-;-;-;-;-;-;-;-;-;-;-;-;-
1514190405458;-;-;10.422455;-1.9570618;-2.9812927;-;-;-;-;-;-;-;-;-;-;-;-;-;-;-
1514190405479;-;-;11.776367;-1.8134155;-3.6815948;-;-;-;-;-;-;-;-;-;-;-;-;-;-;-
1514190405499;-;-;12.558075;-1.6637726;-4.4106293;-;-;-;-;-;-;-;-;-;-;-;-;-;-;-
1514190405520;-;-;11.967911;-2.6908875;-6.796463;-;-;-;-;-;-;-;-;-;-;-;-;-;-;-
1514190405539;-;-;12.510193;-2.5328674;-4.4776764;-;-;-;-;-;-;-;-;-;-;-;-;-;-;-
1514190405560;-;-;11.606384;-2.7303925;-2.946579;-;-;-;-;-;-;-;-;-;-;-;-;-;-;-
1514190405579;-;-;11.028183;-3.4342957;-3.8922882;-;-;-;-;-;-;-;-;-;-;-;-;-;-;-
1514190405600;-;-;9.462372;-4.096283;-5.318039;-;-;-;-;-;-;-;-;-;-;-;-;-;-;-
1514190405620;-;-;5.612503;-3.4211273;-9.209808;-;-;-;-;-;-;-;-;-;-;-;-;-;-;-
1514190405640;-;-;8.216187;-1.8840485;-7.022705;-;-;-;-;-;-;-;-;-;-;-;-;-;-;-
1514190405661;-;-;9.521027;0.3102417;-5.3994446;-;-;-;-;-;-;-;-;-;-;-;-;-;-;-
1514190405681;-;-;8.691437;1.2032776;-4.417816;-;-;-;-;-;-;-;-;-;-;-;-;-;-;-
1514190405701;-;-;7.380615;1.0811768;-3.3033142;-;-;-;-;-;-;-;-;-;-;-;-;-;-;-
1514190405722;-;-;6.1990814;0.6166992;-2.8244781;-;-;-;-;-;-;-;-;-;-;-;-;-;-;-
1514190405742;-;-;5.5083466;-0.09916687;-3.2003632;-;-;-;-;-;-;-;-;-;-;-;-;-;-;-
1514190405762;-;-;5.1396484;-0.5792084;-3.93898;-;-;-;-;-;-;-;-;-;-;-;-;-;-;-
1514190405782;-;-;4.683548;0.19891357;-4.538727;-;-;-;-;-;-;-;-;-;-;-;-;-;-;-
1514190405804;-;-;4.1197205;1.7886658;-4.073044;-;-;-;-;-;-;-;-;-;-;-;-;-;-;-
1514190405824;-;-;4.067047;2.8911896;-3.5630798;-;-;-;-;-;-;-;-;-;-;-;-;-;-;-
1514190405845;-;-;5.273712;2.3896027;-3.5331573;-;-;-;-;-;-;-;-;-;-;-;-;-;-;-
1514190405865;-;-;7.0023346;1.3229828;-3.7630005;-;-;-;-;-;-;-;-;-;-;-;-;-;-;-
1514190405885;-;-;7.9228973;0.65859985;-4.0359344;-;-;-;-;-;-;-;-;-;-;-;-;-;-;-
1514190405905;-;-;7.790024;0.8920288;-3.9485474;-;-;-;-;-;-;-;-;-;-;-;-;-;-;-
1514190405926;-;-;7.588913;1.3756561;-2.9968567;-;-;-;-;-;-;-;-;-;-;-;-;-;-;-
1514190405946;-;-;7.5470123;1.5001526;-2.179245;-;-;-;-;-;-;-;-;-;-;-;-;-;-;-
1514190405966;-;-;8.018677;1.2787018;-2.294159;-;-;-;-;-;-;-;-;-;-;-;-;-;-;-
1514190405986;-;-;8.338303;1.2547607;-2.562317;-;-;-;-;-;-;-;-;-;-;-;-;-;-;-
1514190406006;-;-;9.12001;1.4881897;-2.7789917;-;-;-;-;-;-;-;-;-;-;-;-;-;-;-
1514190406026;-;-;10.612793;1.9119568;-3.1452942;-;-;-;-;-;-;-;-;-;-;-;-;-;-;-
1514190406047;-;-;11.490265;2.22081;-3.6420898;-;-;-;-;-;-;-;-;-;-;-;-;-;-;-
1514190406067;-;-;11.660248;2.4985352;-3.7821503;-;-;-;-;-;-;-;-;-;-;-;-;-;-;-
1514190406087;-;-;11.182602;1.9646301;-5.485626;-;-;-;-;-;-;-;-;-;-;-;-;-;-;-
1514190406107;-;-;11.2556305;2.2507477;-6.124878;-;-;-;-;-;-;-;-;-;-;-;-;-;-;-
1514190406128;-;-;11.620743;2.284256;-5.1504364;-;-;-;-;-;-;-;-;-;-;-;-;-;-;-
1514190406148;-;-;12.720886;2.1561737;-4.6955414;-;-;-;-;-;-;-;-;-;-;-;-;-;-;-
1514190406168;-;-;10.248871;2.366867;-7.038269;-;-;-;-;-;-;-;-;-;-;-;-;-;-;-
1514190406188;-;-;7.633209;1.4391022;-7.5027466;-;-;-;-;-;-;-;-;-;-;-;-;-;-;-
1514190406209;-;-;5.4281464;0.024139404;-5.2928925;-;-;-;-;-;-;-;-;-;-;-;-;-;-;-
1514190406230;-;-;5.0690155;-2.933899;-3.1608582;-;-;-;-;-;-;-;-;-;-;-;-;-;-;-
1514190406250;-;-;6.3104095;-3.5097046;-3.1740265;-;-;-;-;-;-;-;-;-;-;-;-;-;-;-
1514190406270;-;-;8.004303;-1.5895538;-3.724701;-;-;-;-;-;-;-;-;-;-;-;-;-;-;-
1514190406291;-;-;8.90213;0.6023407;-3.6420898;-;-;-;-;-;-;-;-;-;-;-;-;-;-;-
1514190406311;-;-;9.118805;1.3948212;-4.0754395;-;-;-;-;-;-;-;-;-;-;-;-;-;-;-
1514190406332;-;-;8.07135;0.6466217;-4.2562103;-;-;-;-;-;-;-;-;-;-;-;-;-;-;-
1514190406352;-;-;6.427719;-0.4846344;-3.484085;-;-;-;-;-;-;-;-;-;-;-;-;-;-;-
1514190406372;-;-;5.1552124;-1.4291534;-2.6532898;-;-;-;-;-;-;-;-;-;-;-;-;-;-;-
1514190406392;-;-;4.348358;-2.4287262;-1.9721375;-;-;-;-;-;-;-;-;-;-;-;-;-;-;-
1514190406412;-;-;5.588562;-3.0069275;-1.863205;-;-;-;-;-;-;-;-;-;-;-;-;-;-;-
1514190406433;-;-;6.8287506;-2.5173187;-2.2845764;-;-;-;-;-;-;-;-;-;-;-;-;-;-;-
1514190406453;-;-;7.295624;-1.5883636;-2.5383606;-;-;-;-;-;-;-;-;-;-;-;-;-;-;-
1514190406474;-;-;7.569763;-0.94073486;-2.6568756;-;-;-;-;-;-;-;-;-;-;-;-;-;-;-
1514190406494;-;-;7.295624;-1.0029755;-2.6808167;-;-;-;-;-;-;-;-;-;-;-;-;-;-;-
1514190406514;-;-;8.01149;-1.2807007;-2.8388367;-;-;-;-;-;-;-;-;-;-;-;-;-;-;-
1514190406534;-;-;8.808762;-1.4758301;-2.6796265;-;-;-;-;-;-;-;-;-;-;-;-;-;-;-
1514190406555;-;-;9.6467285;-1.6996918;-2.263031;-;-;-;-;-;-;-;-;-;-;-;-;-;-;-
1514190406575;-;-;10.351822;-1.9822083;-2.5874481;-;-;-;-;-;-;-;-;-;-;-;-;-;-;-
1514190406595;-;-;11.568069;-2.38443;-2.8615875;-;-;-;-;-;-;-;-;-;-;-;-;-;-;-
1514190406615;-;-;12.968689;-2.5891418;-3.3081055;-;-;-;-;-;-;-;-;-;-;-;-;-;-;-
1514190406636;-;-;13.587585;-2.942276;-4.29451;-;-;-;-;-;-;-;-;-;-;-;-;-;-;-
1514190406656;-;-;12.276764;-4.1465607;-6.1021423;-;-;-;-;-;-;-;-;-;-;-;-;-;-;-
1514190406679;-;-;11.867355;-4.0986786;-4.499222;-;-;-;-;-;-;-;-;-;-;-;-;-;-;-
1514190406696;-;-;11.439987;-3.8209534;-3.6528625;-;-;-;-;-;-;-;-;-;-;-;-;-;-;-
1514190406716;-;-;10.865372;-3.4091492;-5.702301;-;-;-;-;-;-;-;-;-;-;-;-;-;-;-
1514190406737;-;-;9.072113;-1.4291534;-5.73822;-;-;-;-;-;-;-;-;-;-;-;-;-;-;-
1514190406757;-;-;6.4600525;-0.77194214;-7.9767914;-;-;-;-;-;-;-;-;-;-;-;-;-;-;-
1514190406777;-;-;6.5630035;-0.105148315;-6.167984;-;-;-;-;-;-;-;-;-;-;-;-;-;-;-
1514190406797;-;-;7.4344788;-0.16859436;-3.3308563;-;-;-;-;-;-;-;-;-;-;-;-;-;-;-
1514190406817;-;-;7.458435;-0.93833923;-2.488083;-;-;-;-;-;-;-;-;-;-;-;-;-;-;-
1514190406838;-;-;6.809601;-1.4506989;-2.3252869;-;-;-;-;-;-;-;-;-;-;-;-;-;-;-
1514190406858;-;-;6.309204;-1.4004211;-2.096634;-;-;-;-;-;-;-;-;-;-;-;-;-;-;-
1514190406878;-;-;6.1475983;-1.0508575;-2.5527344;-;-;-;-;-;-;-;-;-;-;-;-;-;-;-
1514190406898;-;-;6.2266083;-0.40682983;-3.5702667;-;-;-;-;-;-;-;-;-;-;-;-;-;-;-
1514190406919;-;-;6.051834;0.83576965;-4.338806;-;-;-;-;-;-;-;-;-;-;-;-;-;-;-
1514190406939;-;-;5.2856903;2.8397217;-4.3603516;-;-;-;-;-;-;-;-;-;-;-;-;-;-;-
1514190406959;-;-;4.896637;3.3927765;-4.0251617;-;-;-;-;-;-;-;-;-;-;-;-;-;-;-
1514190406980;-;-;4.9265594;2.8983765;-3.7510376;-;-;-;-;-;-;-;-;-;-;-;-;-;-;-
1514190407001;-;-;6.1009216;1.8975983;-3.4182434;-;-;-;-;-;-;-;-;-;-;-;-;-;-;-
1514190407020;-;-;7.379425;1.1003265;-3.1740265;-;-;-;-;-;-;-;-;-;-;-;-;-;-;-
1514190407040;-;-;8.165909;0.7866821;-3.0662842;-;-;-;-;-;-;-;-;-;-;-;-;-;-;-
1514190407061;-;-;8.046204;0.82858276;-2.9573517;-;-;-;-;-;-;-;-;-;-;-;-;-;-;-
1514190407081;-;-;8.028244;1.1206818;-2.7382813;-;-;-;-;-;-;-;-;-;-;-;-;-;-;-
1514190407101;-;-;7.9360657;1.5779724;-2.8172913;-;-;-;-;-;-;-;-;-;-;-;-;-;-;-
1514190407121;-;-;8.161133;1.9275208;-2.6592712;-;-;-;-;-;-;-;-;-;-;-;-;-;-;-
1514190407141;-;-;9.009872;1.9897766;-2.7227173;-;-;-;-;-;-;-;-;-;-;-;-;-;-;-
1514190407162;-;-;9.6862335;2.5308685;-3.0435486;-;-;-;-;-;-;-;-;-;-;-;-;-;-;-
1514190407182;-;-;10.274002;2.9235077;-3.0351715;-;-;-;-;-;-;-;-;-;-;-;-;-;-;-
1514190407202;-;-;11.168243;2.236374;-2.2438812;-;-;-;-;-;-;-;-;-;-;-;-;-;-;-
1514190407223;-;-;10.926422;1.4582672;-2.5527344;-;-;-;-;-;-;-;-;-;-;-;-;-;-;-
1514190407243;-;-;10.362595;0.54367065;-5.1779785;-;-;-;-;-;-;-;-;-;-;-;-;-;-;-
1514190407263;-;-;12.172607;0.7244415;-6.7389984;-;-;-;-;-;-;-;-;-;-;-;-;-;-;-
1514190407284;-;-;13.070435;1.5815582;-6.6611786;-;-;-;-;-;-;-;-;-;-;-;-;-;-;-
1514190407304;-;-;11.841019;2.0951233;-7.6368256;-;-;-;-;-;-;-;-;-;-;-;-;-;-;-
1514190407325;-;-;9.14035;1.9550629;-7.4584503;-;-;-;-;-;-;-;-;-;-;-;-;-;-;-
1514190407345;-;-;5.833969;1.9598389;-6.974823;-;-;-;-;-;-;-;-;-;-;-;-;-;-;-
1514190407365;-;-;4.790085;1.2332001;-5.488022;-;-;-;-;-;-;-;-;-;-;-;-;-;-;-
1514190407385;-;-;6.6419983;-0.4152069;-4.3447876;-;-;-;-;-;-;-;-;-;-;-;-;-;-;-
1514190407406;-;-;8.022263;-0.84376526;-3.298523;-;-;-;-;-;-;-;-;-;-;-;-;-;-;-
1514190407426;-;-;7.924103;-0.49301147;-2.7167358;-;-;-;-;-;-;-;-;-;-;-;-;-;-;-
1514190407446;-;-;7.7732697;-0.7587738;-2.898697;-;-;-;-;-;-;-;-;-;-;-;-;-;-;-
1514190407467;-;-;7.5398254;-0.6079407;-3.7270966;-;-;-;-;-;-;-;-;-;-;-;-;-;-;-
1514190407487;-;-;6.8754425;-0.27514648;-3.7905426;-;-;-;-;-;-;-;-;-;-;-;-;-;-;-
1514190407507;-;-;5.999161;-0.32901;-3.3763428;-;-;-;-;-;-;-;-;-;-;-;-;-;-;-
1514190407528;-;-;5.051056;-0.7108917;-3.235077;-;-;-;-;-;-;-;-;-;-;-;-;-;-;-
1514190407548;-;-;4.790085;-1.273529;-2.586258;-;-;-;-;-;-;-;-;-;-;-;-;-;-;-
1514190407569;-;-;6.225418;-2.0360718;-2.5682983;-;-;-;-;-;-;-;-;-;-;-;-;-;-;-
1514190407589;-;-;7.317169;-2.0001678;-3.0052338;-;-;-;-;-;-;-;-;-;-;-;-;-;-;-
1514190407609;-;-;8.343079;-1.9163666;-3.2183228;-;-;-;-;-;-;-;-;-;-;-;-;-;-;-
1514190407629;-;-;8.292801;-1.8529205;-2.8053284;-;-;-;-;-;-;-;-;-;-;-;-;-;-;-
1514190407650;-;-;7.6978455;-1.9822083;-2.5886536;-;-;-;-;-;-;-;-;-;-;-;-;-;-;-
1514190407670;-;-;7.521881;-2.0767822;-2.342041;-;-;-;-;-;-;-;-;-;-;-;-;-;-;-
1514190407690;-;-;7.7577057;-2.3317566;-2.2893677;-;-;-;-;-;-;-;-;-;-;-;-;-;-;-
1514190407711;-;-;7.738556;-2.3868256;-2.3145142;-;-;-;-;-;-;-;-;-;-;-;-;-;-;-
1514190407731;-;-;8.261688;-2.320984;-2.6868134;-;-;-;-;-;-;-;-;-;-;-;-;-;-;-
1514190407751;-;-;8.448425;-2.3197937;-2.8292694;-;-;-;-;-;-;-;-;-;-;-;-;-;-;-
1514190407771;-;-;8.443649;-2.2910614;-2.5646973;-;-;-;-;-;-;-;-;-;-;-;-;-;-;-
1514190407792;-;-;8.865021;-2.5316772;-2.649704;-;-;-;-;-;-;-;-;-;-;-;-;-;-;-
1514190407812;-;-;9.73053;-3.0141144;-3.1417084;-;-;-;-;-;-;-;-;-;-;-;-;-;-;-
1514190407833;-;-;11.234085;-3.2619019;-3.116562;-;-;-;-;-;-;-;-;-;-;-;-;-;-;-
1514190407853;-;-;13.278732;-3.1972656;-3.3679657;-;-;-;-;-;-;-;-;-;-;-;-;-;-;-
1514190407873;-;-;13.667786;-2.5460358;-5.326416;-;-;-;-;-;-;-;-;-;-;-;-;-;-;-
1514190407893;-;-;13.277542;-2.2288055;-6.1117096;-;-;-;-;-;-;-;-;-;-;-;-;-;-;-
1514190407913;-;-;11.424423;-4.590683;-2.9214478;-;-;-;-;-;-;-;-;-;-;-;-;-;-;-
1514190407934;-;-;11.480682;-4.8229218;-3.5379486;-;-;-;-;-;-;-;-;-;-;-;-;-;-;-
1514190407955;-;-;9.771225;-2.8656616;-4.380707;-;-;-;-;-;-;-;-;-;-;-;-;-;-;-
1514190407976;-;-;6.467224;-0.6402588;-6.2182617;-;-;-;-;-;-;-;-;-;-;-;-;-;-;-
1514190407996;-;-;5.06662;0.5161438;-7.077774;-;-;-;-;-;-;-;-;-;-;-;-;-;-;-
1514190408016;-;-;7.501526;0.060043335;-4.488449;-;-;-;-;-;-;-;-;-;-;-;-;-;-;-
1514190408036;-;-;9.260071;-1.9989624;-2.9597473;-;-;-;-;-;-;-;-;-;-;-;-;-;-;-
1514190408057;-;-;9.379776;-2.2731018;-3.0830536;-;-;-;-;-;-;-;-;-;-;-;-;-;-;-
1514190408077;-;-;8.235352;-1.6051178;-3.259018;-;-;-;-;-;-;-;-;-;-;-;-;-;-;-
1514190408098;-;-;7.3710327;-0.38887024;-3.1213531;-;-;-;-;-;-;-;-;-;-;-;-;-;-;-
1514190408118;-;-;6.7365723;0.49220276;-3.0842438;-;-;-;-;-;-;-;-;-;-;-;-;-;-;-
1514190408138;-;-;5.912964;1.1541901;-3.4709167;-;-;-;-;-;-;-;-;-;-;-;-;-;-;-
1514190408159;-;-;5.3778687;1.6473999;-4.097;-;-;-;-;-;-;-;-;-;-;-;-;-;-;-
1514190408179;-;-;5.1240845;1.8437195;-4.483658;-;-;-;-;-;-;-;-;-;-;-;-;-;-;-
1514190408199;-;-;5.1947174;1.7084503;-4.464508;-;-;-;-;-;-;-;-;-;-;-;-;-;-;-
1514190408219;-;-;5.754959;1.2810822;-4.622528;-;-;-;-;-;-;-;-;-;-;-;-;-;-;-
1514190408240;-;-;6.3463287;1.082367;-4.6476593;-;-;-;-;-;-;-;-;-;-;-;-;-;-;-
1514190408260;-;-;6.60968;0.66937256;-4.712311;-;-;-;-;-;-;-;-;-;-;-;-;-;-;-
1514190408280;-;-;6.94487;0.23721313;-4.4692993;-;-;-;-;-;-;-;-;-;-;-;-;-;-;-
1514190408301;-;-;7.3818207;-0.14704895;-3.9473572;-;-;-;-;-;-;-;-;-;-;-;-;-;-;-
1514190408321;-;-;7.415329;-0.074035645;-3.3404236;-;-;-;-;-;-;-;-;-;-;-;-;-;-;-
1514190408341;-;-;7.1124725;0.6549988;-2.9022827;-;-;-;-;-;-;-;-;-;-;-;-;-;-;-
1514190408362;-;-;7.047821;1.3026428;-2.3588104;-;-;-;-;-;-;-;-;-;-;-;-;-;-;-
1514190408382;-;-;7.6703186;1.6234589;-1.9458008;-;-;-;-;-;-;-;-;-;-;-;-;-;-;-
1514190408406;-;-;8.40773;1.3768616;-1.9625702;-;-;-;-;-;-;-;-;-;-;-;-;-;-;-
1514190408426;-;-;9.025436;0.33776855;-1.9122772;-;-;-;-;-;-;-;-;-;-;-;-;-;-;-
1514190408446;-;-;9.689819;-0.5384979;-1.4466095;-;-;-;-;-;-;-;-;-;-;-;-;-;-;-
1514190408466;-;-;10.278793;-0.73243713;-0.90193176;-;-;-;-;-;-;-;-;-;-;-;-;-;-;-
1514190408487;-;-;9.9831085;-0.289505;-1.2802124;-;-;-;-;-;-;-;-;-;-;-;-;-;-;-
1514190408507;-;-;9.012268;-0.2272644;-1.322113;-;-;-;-;-;-;-;-;-;-;-;-;-;-;-
1514190408527;-;-;8.236542;-0.8090515;-1.8308868;-;-;-;-;-;-;-;-;-;-;-;-;-;-;-
1514190408548;-;-;9.401321;0.13786316;-1.7542725;-;-;-;-;-;-;-;-;-;-;-;-;-;-;-
1514190408568;-;-;10.513428;2.0149078;-5.382675;-;-;-;-;-;-;-;-;-;-;-;-;-;-;-
1514190408588;-;-;12.446747;3.5998688;-6.663574;-;-;-;-;-;-;-;-;-;-;-;-;-;-;-
1514190408609;-;-;13.728836;4.990906;-5.2019196;-;-;-;-;-;-;-;-;-;-;-;-;-;-;-
1514190408628;-;-;10.883331;3.5005188;-5.7980804;-;-;-;-;-;-;-;-;-;-;-;-;-;-;-
1514190408648;-;-;7.930084;0.7830963;-5.127701;-;-;-;-;-;-;-;-;-;-;-;-;-;-;-
1514190408668;-;-;5.176758;-1.2052917;-4.4297943;-;-;-;-;-;-;-;-;-;-;-;-;-;-;-
1514190408689;-;-;4.3615265;-2.2731018;-3.729477;-;-;-;-;-;-;-;-;-;-;-;-;-;-;-
1514190408709;-;-;5.1288757;-2.8596802;-4.812866;-;-;-;-;-;-;-;-;-;-;-;-;-;-;-
1514190408729;-;-;8.236542;-0.87368774;-4.5339355;-;-;-;-;-;-;-;-;-;-;-;-;-;-;-
1514190408750;-;-;10.628357;1.7084503;-5.0163727;-;-;-;-;-;-;-;-;-;-;-;-;-;-;-
1514190408770;-;-;10.823471;1.6414185;-4.9086304;-;-;-;-;-;-;-;-;-;-;-;-;-;-;-
1514190408790;-;-;10.14473;-0.18894958;-3.3966827;-;-;-;-;-;-;-;-;-;-;-;-;-;-;-
1514190408811;-;-;8.733337;-1.2196503;-3.0638885;-;-;-;-;-;-;-;-;-;-;-;-;-;-;-
1514190408830;-;-;7.039444;-1.4447021;-3.38591;-;-;-;-;-;-;-;-;-;-;-;-;-;-;-
1514190408850;-;-;5.711853;-0.7922821;-3.5559082;-;-;-;-;-;-;-;-;-;-;-;-;-;-;-
1514190408871;-;-;5.4844055;-0.1769867;-3.456543;-;-;-;-;-;-;-;-;-;-;-;-;-;-;-
1514190408891;-;-;6.5749664;0.02772522;-3.203949;-;-;-;-;-;-;-;-;-;-;-;-;-;-;-
1514190408911;-;-;7.5865173;-0.49661255;-2.9920654;-;-;-;-;-;-;-;-;-;-;-;-;-;-;-
1514190408932;-;-;7.829529;-1.2639465;-2.5359802;-;-;-;-;-;-;-;-;-;-;-;-;-;-;-
1514190408952;-;-;7.9073334;-2.490982;-1.8284912;-;-;-;-;-;-;-;-;-;-;-;-;-;-;-
1514190408972;-;-;8.489136;-2.7567291;-1.8991089;-;-;-;-;-;-;-;-;-;-;-;-;-;-;-
1514190408992;-;-;9.359421;-2.1737366;-2.0679016;-;-;-;-;-;-;-;-;-;-;-;-;-;-;-
1514190409012;-;-;10.125565;-1.1957092;-2.3516235;-;-;-;-;-;-;-;-;-;-;-;-;-;-;-
1514190409033;-;-;10.172256;-0.28352356;-2.365982;-;-;-;-;-;-;-;-;-;-;-;-;-;-;-
1514190409053;-;-;9.364212;-0.26556396;-1.9481964;-;-;-;-;-;-;-;-;-;-;-;-;-;-;-
1514190409073;-;-;8.5849;-0.63786316;-1.416687;-;-;-;-;-;-;-;-;-;-;-;-;-;-;-
1514190409093;-;-;8.018677;-1.3309784;-0.8253174;-;-;-;-;-;-;-;-;-;-;-;-;-;-;-
1514190409114;-;-;8.207809;-2.5843506;-2.3252869;-;-;-;-;-;-;-;-;-;-;-;-;-;-;-
1514190409134;-;-;9.287598;-2.1294556;-1.1533203;-;-;-;-;-;-;-;-;-;-;-;-;-;-;-
1514190409154;-;-;9.816711;-0.30387878;-0.56555176;-;-;-;-;-;-;-;-;-;-;-;-;-;-;-
1514190409174;-;-;10.629547;0.23721313;-2.0475616;-;-;-;-;-;-;-;-;-;-;-;-;-;-;-
1514190409195;-;-;12.18219;0.33776855;-6.574997;-;-;-;-;-;-;-;-;-;-;-;-;-;-;-
1514190409214;-;-;12.954315;1.7802734;-6.8658905;-;-;-;-;-;-;-;-;-;-;-;-;-;-;-
1514190409234;-;-;11.702148;2.3572845;-6.2230377;-;-;-;-;-;-;-;-;-;-;-;-;-;-;-
1514190409254;-;-;8.92128;2.8397217;-6.8742676;-;-;-;-;-;-;-;-;-;-;-;-;-;-;-
1514190409275;-;-;6.7892456;2.505722;-5.6484375;-;-;-;-;-;-;-;-;-;-;-;-;-;-;-
1514190409294;-;-;6.2349854;0.61909485;-5.1791687;-;-;-;-;-;-;-;-;-;-;-;-;-;-;-
1514190409314;-;-;6.1871033;-1.1286774;-4.903839;-;-;-;-;-;-;-;-;-;-;-;-;-;-;-
1514190409335;-;-;6.328369;-1.8996124;-3.8072968;-;-;-;-;-;-;-;-;-;-;-;-;-;-;-
1514190409354;-;-;7.988739;-2.3150024;-3.322464;-;-;-;-;-;-;-;-;-;-;-;-;-;-;-
1514190409374;-;-;9.807144;-1.878067;-3.2266998;-;-;-;-;-;-;-;-;-;-;-;-;-;-;-
1514190409395;-;-;11.396896;0.95188904;-3.1069946;-;-;-;-;-;-;-;-;-;-;-;-;-;-;-
1514190409415;-;-;10.412872;2.2160187;-3.583435;-;-;-;-;-;-;-;-;-;-;-;-;-;-;-
1514190409435;-;-;9.069733;1.9107666;-3.369156;-;-;-;-;-;-;-;-;-;-;-;-;-;-;-
