TimeStamp[ms];Prox[Cm];Lux[lux];AccX[m/s^2];AccY[m/s^2];AccZ[m/s^2];GyroX[rad/s];GyroY[rad/s];GyroZ[rad/s];MagnX[uT];MagnY[uT];MagnZ[uT];OrienYaw[degrees];OrienPitch[degrees];OrienRoll[degrees];Press[Pa];Temp[C°];Batt[%];Lat;Lng;Speed[m/s]
1514190443112;-;-;9.196625;-0.07043457;2.7432404;-;-;-;-;-;-;-;-;-;-;-;-;-;-;-
1514190443117;-;-;9.629974;-0.26197815;2.6654358;-;-;-;-;-;-;-;-;-;-;-;-;-;-;-
1514190443137;-;-;8.661514;-0.5061798;2.9323883;-;-;-;-;-;-;-;-;-;-;-;-;-;-;-
1514190443158;-;-;8.556168;-0.45111084;2.7827454;-;-;-;-;-;-;-;-;-;-;-;-;-;-;-
1514190443177;-;-;8.542999;-0.43554688;2.8617554;-;-;-;-;-;-;-;-;-;-;-;-;-;-;-
1514190443198;-;-;8.7656555;-0.34217834;2.7192993;-;-;-;-;-;-;-;-;-;-;-;-;-;-;-
1514190443218;-;-;8.813553;-0.38887024;2.6558533;-;-;-;-;-;-;-;-;-;-;-;-;-;-;-
1514190443238;-;-;8.778824;-0.53012085;2.6738129;-;-;-;-;-;-;-;-;-;-;-;-;-;-;-
1514190443259;-;-;8.692642;-0.5349121;2.6223297;-;-;-;-;-;-;-;-;-;-;-;-;-;-;-
1514190443278;-;-;8.707001;-0.48104858;2.4894562;-;-;-;-;-;-;-;-;-;-;-;-;-;-;-
1514190443298;-;-;8.751297;-0.4271698;2.4990387;-;-;-;-;-;-;-;-;-;-;-;-;-;-;-
1514190443318;-;-;8.691437;-0.39126587;2.4080505;-;-;-;-;-;-;-;-;-;-;-;-;-;-;-
1514190443339;-;-;8.6818695;-0.44154358;2.20813;-;-;-;-;-;-;-;-;-;-;-;-;-;-;-
1514190443364;-;-;8.690247;-0.5241394;2.0513153;-;-;-;-;-;-;-;-;-;-;-;-;-;-;-
1514190443379;-;-;8.739319;-0.5157623;1.8705597;-;-;-;-;-;-;-;-;-;-;-;-;-;-;-
1514190443399;-;-;8.957199;-0.24401855;1.6263428;-;-;-;-;-;-;-;-;-;-;-;-;-;-;-
1514190443420;-;-;8.545395;-0.17459106;1.1439209;-;-;-;-;-;-;-;-;-;-;-;-;-;-;-
1514190443440;-;-;8.520264;0.03251648;0.6088104;-;-;-;-;-;-;-;-;-;-;-;-;-;-;-
1514190443460;-;-;8.44603;-0.17578125;0.4615631;-;-;-;-;-;-;-;-;-;-;-;-;-;-;-
1514190443481;-;-;8.410126;-0.27035522;-0.23873901;-;-;-;-;-;-;-;-;-;-;-;-;-;-;-
1514190443500;-;-;10.794754;-0.8473511;-5.058258;-;-;-;-;-;-;-;-;-;-;-;-;-;-;-
1514190443520;-;-;9.0793;0.21687317;0.004272461;-;-;-;-;-;-;-;-;-;-;-;-;-;-;-
1514190443541;-;-;10.174652;0.02053833;-0.9725647;-;-;-;-;-;-;-;-;-;-;-;-;-;-;-
1514190443561;-;-;9.410904;-0.066848755;-0.53681946;-;-;-;-;-;-;-;-;-;-;-;-;-;-;-
1514190443581;-;-;9.117615;-0.16261292;-0.41111755;-;-;-;-;-;-;-;-;-;-;-;-;-;-;-
1514190443602;-;-;9.4887085;-0.2787323;-0.6253967;-;-;-;-;-;-;-;-;-;-;-;-;-;-;-
1514190443623;-;-;8.715378;-0.7096863;-2.5263977;-;-;-;-;-;-;-;-;-;-;-;-;-;-;-
1514190443642;-;-;8.32991;-1.0197449;-2.2833862;-;-;-;-;-;-;-;-;-;-;-;-;-;-;-
1514190443662;-;-;9.418076;-1.0771942;-1.4346466;-;-;-;-;-;-;-;-;-;-;-;-;-;-;-
1514190443683;-;-;12.620331;-1.882843;-2.2833862;-;-;-;-;-;-;-;-;-;-;-;-;-;-;-
1514190443703;-;-;9.600037;-0.6067352;-2.7239227;-;-;-;-;-;-;-;-;-;-;-;-;-;-;-
1514190443723;-;-;10.138733;-0.32901;-2.08107;-;-;-;-;-;-;-;-;-;-;-;-;-;-;-
1514190443744;-;-;9.89093;-0.08958435;-1.8919373;-;-;-;-;-;-;-;-;-;-;-;-;-;-;-
1514190443764;-;-;8.303574;-0.7803192;-1.4681549;-;-;-;-;-;-;-;-;-;-;-;-;-;-;-
1514190443784;-;-;5.6531982;-1.0831909;-1.7949677;-;-;-;-;-;-;-;-;-;-;-;-;-;-;-
1514190443805;-;-;10.114792;0.15222168;-2.1768494;-;-;-;-;-;-;-;-;-;-;-;-;-;-;-
1514190443825;-;-;9.086487;0.04927063;-3.1273346;-;-;-;-;-;-;-;-;-;-;-;-;-;-;-
1514190443846;-;-;9.439636;0.45388794;-2.9358063;-;-;-;-;-;-;-;-;-;-;-;-;-;-;-
1514190443866;-;-;2.0439453;1.8185883;-0.93785095;-;-;-;-;-;-;-;-;-;-;-;-;-;-;-
1514190443886;-;-;8.24852;0.8800659;-4.622528;-;-;-;-;-;-;-;-;-;-;-;-;-;-;-
1514190443907;-;-;8.944031;1.6138763;-2.1804352;-;-;-;-;-;-;-;-;-;-;-;-;-;-;-
1514190443927;-;-;9.043396;0.67774963;-1.1150208;-;-;-;-;-;-;-;-;-;-;-;-;-;-;-
1514190443948;-;-;11.910446;0.5771942;-0.8959503;-;-;-;-;-;-;-;-;-;-;-;-;-;-;-
1514190443968;-;-;11.224503;0.9135742;-2.0918427;-;-;-;-;-;-;-;-;-;-;-;-;-;-;-
1514190443988;-;-;8.521454;1.0847626;-0.12860107;-;-;-;-;-;-;-;-;-;-;-;-;-;-;-
1514190444008;-;-;8.450821;1.3205872;-1.48732;-;-;-;-;-;-;-;-;-;-;-;-;-;-;-
1514190444029;-;-;9.185837;0.888443;-1.7590485;-;-;-;-;-;-;-;-;-;-;-;-;-;-;-
1514190444049;-;-;8.886566;0.04927063;-0.843277;-;-;-;-;-;-;-;-;-;-;-;-;-;-;-
1514190444069;-;-;9.292389;-0.088394165;-1.0360107;-;-;-;-;-;-;-;-;-;-;-;-;-;-;-
1514190444090;-;-;8.1766815;-0.81503296;0.30714417;-;-;-;-;-;-;-;-;-;-;-;-;-;-;-
1514190444109;-;-;6.489975;1.374466;-0.86961365;-;-;-;-;-;-;-;-;-;-;-;-;-;-;-
1514190444129;-;-;6.3271637;-0.5325165;0.10722351;-;-;-;-;-;-;-;-;-;-;-;-;-;-;-
1514190444150;-;-;8.023453;0.28988647;-0.77622986;-;-;-;-;-;-;-;-;-;-;-;-;-;-;-
1514190444170;-;-;8.548981;1.5839539;-1.2335358;-;-;-;-;-;-;-;-;-;-;-;-;-;-;-
1514190444190;-;-;9.13916;1.8353424;-1.6130066;-;-;-;-;-;-;-;-;-;-;-;-;-;-;-
1514190444210;-;-;7.9552307;1.0584259;-1.48732;-;-;-;-;-;-;-;-;-;-;-;-;-;-;-
1514190444231;-;-;9.974731;0.7076721;-2.144516;-;-;-;-;-;-;-;-;-;-;-;-;-;-;-
1514190444251;-;-;9.789185;0.2695465;-2.1217804;-;-;-;-;-;-;-;-;-;-;-;-;-;-;-
1514190444271;-;-;9.23613;0.1618042;-3.1093903;-;-;-;-;-;-;-;-;-;-;-;-;-;-;-
1514190444292;-;-;9.440826;-0.3146515;-5.1420593;-;-;-;-;-;-;-;-;-;-;-;-;-;-;-
1514190444312;-;-;10.556519;-0.24880981;-4.3483887;-;-;-;-;-;-;-;-;-;-;-;-;-;-;-
1514190444332;-;-;11.515396;-0.2392273;-5.1899414;-;-;-;-;-;-;-;-;-;-;-;-;-;-;-
1514190444353;-;-;9.470749;-0.014175415;-2.7933502;-;-;-;-;-;-;-;-;-;-;-;-;-;-;-
1514190444372;-;-;6.774887;-0.68455505;-4.204727;-;-;-;-;-;-;-;-;-;-;-;-;-;-;-
1514190444393;-;-;8.529831;-0.98143005;-3.5151978;-;-;-;-;-;-;-;-;-;-;-;-;-;-;-
1514190444414;-;-;10.5325775;-1.4207611;-2.7346954;-;-;-;-;-;-;-;-;-;-;-;-;-;-;-
1514190444435;-;-;10.643906;-1.0927582;-1.6596985;-;-;-;-;-;-;-;-;-;-;-;-;-;-;-
1514190444455;-;-;10.151901;-1.6889191;-2.0307922;-;-;-;-;-;-;-;-;-;-;-;-;-;-;-
1514190444475;-;-;9.736511;-3.0045319;-2.3145142;-;-;-;-;-;-;-;-;-;-;-;-;-;-;-
1514190444495;-;-;9.179855;-3.337326;-2.1564941;-;-;-;-;-;-;-;-;-;-;-;-;-;-;-
1514190444515;-;-;7.5984955;-2.8836212;-2.2163544;-;-;-;-;-;-;-;-;-;-;-;-;-;-;-
1514190444536;-;-;6.070984;-2.1581879;-2.2642365;-;-;-;-;-;-;-;-;-;-;-;-;-;-;-
1514190444556;-;-;5.93692;-1.4207611;-2.124176;-;-;-;-;-;-;-;-;-;-;-;-;-;-;-
1514190444576;-;-;7.1914673;-1.1693726;-1.8643951;-;-;-;-;-;-;-;-;-;-;-;-;-;-;-
1514190444597;-;-;8.302383;-1.1322632;-2.1229706;-;-;-;-;-;-;-;-;-;-;-;-;-;-;-
1514190444618;-;-;8.745316;-1.3800659;-2.1672668;-;-;-;-;-;-;-;-;-;-;-;-;-;-;-
1514190444638;-;-;9.105637;-1.8948212;-1.9386139;-;-;-;-;-;-;-;-;-;-;-;-;-;-;-
1514190444658;-;-;9.046982;-2.3940125;-1.7937775;-;-;-;-;-;-;-;-;-;-;-;-;-;-;-
1514190444680;-;-;8.917694;-2.6047058;-1.6321564;-;-;-;-;-;-;-;-;-;-;-;-;-;-;-
1514190444699;-;-;8.771652;-2.9255219;-1.4885101;-;-;-;-;-;-;-;-;-;-;-;-;-;-;-
1514190444719;-;-;9.039795;-2.9075623;-1.1341705;-;-;-;-;-;-;-;-;-;-;-;-;-;-;-
1514190444740;-;-;9.694611;-2.6573792;-1.2407074;-;-;-;-;-;-;-;-;-;-;-;-;-;-;-
1514190444760;-;-;10.841431;-2.2084656;-1.7710266;-;-;-;-;-;-;-;-;-;-;-;-;-;-;-
1514190444780;-;-;12.524551;-1.6242676;-2.3791504;-;-;-;-;-;-;-;-;-;-;-;-;-;-;-
1514190444800;-;-;14.5368805;-1.720047;-3.0507202;-;-;-;-;-;-;-;-;-;-;-;-;-;-;-
1514190444820;-;-;14.904388;-3.8185577;-5.0953827;-;-;-;-;-;-;-;-;-;-;-;-;-;-;-
1514190444841;-;-;14.845734;-4.733139;-3.7031403;-;-;-;-;-;-;-;-;-;-;-;-;-;-;-
1514190444861;-;-;13.62709;-5.306549;-3.1632538;-;-;-;-;-;-;-;-;-;-;-;-;-;-;-
1514190444882;-;-;11.880524;-5.047989;-3.978485;-;-;-;-;-;-;-;-;-;-;-;-;-;-;-
1514190444903;-;-;9.325912;-3.0859375;-6.416977;-;-;-;-;-;-;-;-;-;-;-;-;-;-;-
1514190444922;-;-;4.530319;-1.3238068;-8.612457;-;-;-;-;-;-;-;-;-;-;-;-;-;-;-
1514190444942;-;-;3.600174;0.97224426;-6.140442;-;-;-;-;-;-;-;-;-;-;-;-;-;-;-
1514190444962;-;-;6.376251;0.4862213;-5.587387;-;-;-;-;-;-;-;-;-;-;-;-;-;-;-
1514190444983;-;-;9.555756;-0.87968445;-4.0167847;-;-;-;-;-;-;-;-;-;-;-;-;-;-;-
1514190445003;-;-;10.913254;-1.6326599;-3.1309357;-;-;-;-;-;-;-;-;-;-;-;-;-;-;-
1514190445023;-;-;10.160278;-2.1653595;-2.6389313;-;-;-;-;-;-;-;-;-;-;-;-;-;-;-
1514190445044;-;-;8.84227;-2.4035797;-2.6089935;-;-;-;-;-;-;-;-;-;-;-;-;-;-;-
1514190445064;-;-;6.9795837;-1.9678345;-2.6664581;-;-;-;-;-;-;-;-;-;-;-;-;-;-;-
1514190445084;-;-;4.6931305;-0.54689026;-2.3540192;-;-;-;-;-;-;-;-;-;-;-;-;-;-;-
1514190445105;-;-;2.786148;1.3170013;-2.4461975;-;-;-;-;-;-;-;-;-;-;-;-;-;-;-
1514190445125;-;-;2.0714722;2.8911896;-2.6233673;-;-;-;-;-;-;-;-;-;-;-;-;-;-;-
1514190445145;-;-;3.6420746;2.778656;-2.4569702;-;-;-;-;-;-;-;-;-;-;-;-;-;-;-
1514190445166;-;-;6.1296387;1.635437;-2.9872742;-;-;-;-;-;-;-;-;-;-;-;-;-;-;-
1514190445186;-;-;8.32991;0.58078;-3.151291;-;-;-;-;-;-;-;-;-;-;-;-;-;-;-
1514190445206;-;-;8.880585;-0.0021972656;-3.5379486;-;-;-;-;-;-;-;-;-;-;-;-;-;-;-
1514190445227;-;-;8.777634;0.18574524;-3.3631744;-;-;-;-;-;-;-;-;-;-;-;-;-;-;-
1514190445247;-;-;8.295197;1.2511597;-2.567093;-;-;-;-;-;-;-;-;-;-;-;-;-;-;-
1514190445267;-;-;8.355057;1.9358978;-2.0547333;-;-;-;-;-;-;-;-;-;-;-;-;-;-;-
1514190445287;-;-;8.384979;1.8006287;-2.105011;-;-;-;-;-;-;-;-;-;-;-;-;-;-;-
1514190445308;-;-;8.704605;1.6390228;-2.199585;-;-;-;-;-;-;-;-;-;-;-;-;-;-;-
1514190445328;-;-;9.29718;1.6904907;-2.1576843;-;-;-;-;-;-;-;-;-;-;-;-;-;-;-
1514190445348;-;-;9.682648;1.6102905;-2.1301575;-;-;-;-;-;-;-;-;-;-;-;-;-;-;-
1514190445368;-;-;10.4823;1.2355957;-2.3611908;-;-;-;-;-;-;-;-;-;-;-;-;-;-;-
1514190445388;-;-;11.796722;1.0285034;-2.4497833;-;-;-;-;-;-;-;-;-;-;-;-;-;-;-
1514190445409;-;-;12.919601;0.4479065;-4.1269226;-;-;-;-;-;-;-;-;-;-;-;-;-;-;-
1514190445429;-;-;11.933197;0.9854126;-6.2445984;-;-;-;-;-;-;-;-;-;-;-;-;-;-;-
1514190445449;-;-;11.880524;2.8193665;-5.0666504;-;-;-;-;-;-;-;-;-;-;-;-;-;-;-
1514190445469;-;-;11.655457;2.9857635;-5.745407;-;-;-;-;-;-;-;-;-;-;-;-;-;-;-
1514190445490;-;-;8.413712;1.600708;-6.7988434;-;-;-;-;-;-;-;-;-;-;-;-;-;-;-
1514190445510;-;-;5.6376343;0.110321045;-5.947708;-;-;-;-;-;-;-;-;-;-;-;-;-;-;-
1514190445531;-;-;4.769745;-1.483017;-4.912216;-;-;-;-;-;-;-;-;-;-;-;-;-;-;-
1514190445551;-;-;6.7294006;-2.3545074;-4.2885284;-;-;-;-;-;-;-;-;-;-;-;-;-;-;-
1514190445571;-;-;8.291611;-1.4243622;-3.5295715;-;-;-;-;-;-;-;-;-;-;-;-;-;-;-
1514190445591;-;-;9.151123;0.03970337;-3.62294;-;-;-;-;-;-;-;-;-;-;-;-;-;-;-
1514190445612;-;-;9.110428;1.0895538;-3.7199097;-;-;-;-;-;-;-;-;-;-;-;-;-;-;-
1514190445632;-;-;8.539413;1.0775757;-4.2478333;-;-;-;-;-;-;-;-;-;-;-;-;-;-;-
1514190445652;-;-;7.4955444;0.338974;-4.1197357;-;-;-;-;-;-;-;-;-;-;-;-;-;-;-
1514190445672;-;-;6.11409;-0.91319275;-3.6121674;-;-;-;-;-;-;-;-;-;-;-;-;-;-;-
1514190445693;-;-;5.1994934;-1.8648987;-2.63414;-;-;-;-;-;-;-;-;-;-;-;-;-;-;-
1514190445713;-;-;4.9181824;-2.4897766;-1.7075806;-;-;-;-;-;-;-;-;-;-;-;-;-;-;-
1514190445733;-;-;5.8878326;-2.5795593;-1.7806091;-;-;-;-;-;-;-;-;-;-;-;-;-;-;-
1514190445754;-;-;7.1160583;-2.2168427;-2.4019012;-;-;-;-;-;-;-;-;-;-;-;-;-;-;-
1514190445774;-;-;7.2429504;-1.522522;-2.776596;-;-;-;-;-;-;-;-;-;-;-;-;-;-;-
1514190445794;-;-;6.730591;-1.1203003;-2.5431519;-;-;-;-;-;-;-;-;-;-;-;-;-;-;-
1514190445814;-;-;6.7533417;-1.3273926;-2.610199;-;-;-;-;-;-;-;-;-;-;-;-;-;-;-
1514190445835;-;-;6.937683;-1.743988;-2.4198608;-;-;-;-;-;-;-;-;-;-;-;-;-;-;-
1514190445855;-;-;7.885788;-2.143814;-1.8619995;-;-;-;-;-;-;-;-;-;-;-;-;-;-;-
1514190445875;-;-;8.905716;-2.4837952;-1.8224945;-;-;-;-;-;-;-;-;-;-;-;-;-;-;-
1514190445896;-;-;10.12677;-2.653778;-1.9829102;-;-;-;-;-;-;-;-;-;-;-;-;-;-;-
1514190445916;-;-;10.906082;-2.7435608;-2.570694;-;-;-;-;-;-;-;-;-;-;-;-;-;-;-
1514190445937;-;-;12.275558;-2.6513824;-3.0531158;-;-;-;-;-;-;-;-;-;-;-;-;-;-;-
1514190445957;-;-;13.381683;-2.6226501;-3.7917328;-;-;-;-;-;-;-;-;-;-;-;-;-;-;-
1514190445977;-;-;13.333801;-2.487381;-4.7589874;-;-;-;-;-;-;-;-;-;-;-;-;-;-;-
1514190445997;-;-;12.893265;-2.6238556;-6.203888;-;-;-;-;-;-;-;-;-;-;-;-;-;-;-
1514190446017;-;-;12.53653;-2.8477173;-6.536682;-;-;-;-;-;-;-;-;-;-;-;-;-;-;-
1514190446038;-;-;12.152267;-2.9075623;-4.92778;-;-;-;-;-;-;-;-;-;-;-;-;-;-;-
1514190446058;-;-;12.593994;-2.2671204;-4.069458;-;-;-;-;-;-;-;-;-;-;-;-;-;-;-
1514190446078;-;-;9.220566;-1.348938;-8.009125;-;-;-;-;-;-;-;-;-;-;-;-;-;-;-
1514190446099;-;-;4.33519;-0.7192688;-9.339096;-;-;-;-;-;-;-;-;-;-;-;-;-;-;-
1514190446119;-;-;6.005142;1.2595367;-3.566681;-;-;-;-;-;-;-;-;-;-;-;-;-;-;-
1514190446139;-;-;7.0502167;-0.20092773;-2.1421204;-;-;-;-;-;-;-;-;-;-;-;-;-;-;-
1514190446160;-;-;7.620041;-1.6158905;-1.4992828;-;-;-;-;-;-;-;-;-;-;-;-;-;-;-
1514190446180;-;-;8.311966;-2.2348022;-0.6553345;-;-;-;-;-;-;-;-;-;-;-;-;-;-;-
1514190446200;-;-;8.712982;-2.8860168;-1.5806885;-;-;-;-;-;-;-;-;-;-;-;-;-;-;-
1514190446221;-;-;7.9121246;-3.3504944;-3.5259705;-;-;-;-;-;-;-;-;-;-;-;-;-;-;-
1514190446241;-;-;6.498352;-2.1126862;-4.258606;-;-;-;-;-;-;-;-;-;-;-;-;-;-;-
1514190446261;-;-;3.90065;1.9107666;-3.8491974;-;-;-;-;-;-;-;-;-;-;-;-;-;-;-
1514190446282;-;-;2.5934143;4.216385;-3.8049011;-;-;-;-;-;-;-;-;-;-;-;-;-;-;-
1514190446301;-;-;4.0131683;4.757477;-2.6089935;-;-;-;-;-;-;-;-;-;-;-;-;-;-;-
1514190446321;-;-;5.2868805;2.5188904;-3.5570984;-;-;-;-;-;-;-;-;-;-;-;-;-;-;-
1514190446342;-;-;7.533844;0.6095123;-3.5786438;-;-;-;-;-;-;-;-;-;-;-;-;-;-;-
1514190446362;-;-;8.080917;-0.32421875;-3.2063446;-;-;-;-;-;-;-;-;-;-;-;-;-;-;-
1514190446382;-;-;7.787628;0.08758545;-2.6233673;-;-;-;-;-;-;-;-;-;-;-;-;-;-;-
1514190446402;-;-;7.6068726;1.2188416;-2.13974;-;-;-;-;-;-;-;-;-;-;-;-;-;-;-
1514190446423;-;-;8.462799;2.0568085;-1.7207489;-;-;-;-;-;-;-;-;-;-;-;-;-;-;-
1514190446443;-;-;8.708206;1.9742126;-2.096634;-;-;-;-;-;-;-;-;-;-;-;-;-;-;-
1514190446463;-;-;8.916504;1.2894745;-2.128952;-;-;-;-;-;-;-;-;-;-;-;-;-;-;-
1514190446483;-;-;10.20578;1.114685;-2.3073273;-;-;-;-;-;-;-;-;-;-;-;-;-;-;-
1514190446504;-;-;11.605179;1.2379913;-2.7322998;-;-;-;-;-;-;-;-;-;-;-;-;-;-;-
1514190446524;-;-;11.623138;1.2918701;-3.1488953;-;-;-;-;-;-;-;-;-;-;-;-;-;-;-
1514190446544;-;-;11.830246;1.4546661;-2.946579;-;-;-;-;-;-;-;-;-;-;-;-;-;-;-
1514190446565;-;-;10.002274;1.4403076;-9.167908;-;-;-;-;-;-;-;-;-;-;-;-;-;-;-
1514190446585;-;-;13.277542;3.8500671;-4.2131195;-;-;-;-;-;-;-;-;-;-;-;-;-;-;-
1514190446605;-;-;15.075577;4.4294586;-5.5969543;-;-;-;-;-;-;-;-;-;-;-;-;-;-;-
1514190446626;-;-;11.064102;2.236374;-9.428879;-;-;-;-;-;-;-;-;-;-;-;-;-;-;-
1514190446645;-;-;7.8007965;1.0320892;-8.013901;-;-;-;-;-;-;-;-;-;-;-;-;-;-;-
1514190446665;-;-;5.5861664;-1.878067;-4.4357758;-;-;-;-;-;-;-;-;-;-;-;-;-;-;-
1514190446685;-;-;6.5127106;-3.6425934;-2.8615875;-;-;-;-;-;-;-;-;-;-;-;-;-;-;-
1514190446706;-;-;7.9588165;-2.356903;-2.5287933;-;-;-;-;-;-;-;-;-;-;-;-;-;-;-
1514190446726;-;-;9.437241;0.38446045;-3.1895905;-;-;-;-;-;-;-;-;-;-;-;-;-;-;-
1514190446746;-;-;8.290421;2.2351837;-2.5575256;-;-;-;-;-;-;-;-;-;-;-;-;-;-;-
1514190446767;-;-;7.224991;3.1509552;-3.666031;-;-;-;-;-;-;-;-;-;-;-;-;-;-;-
1514190446787;-;-;5.106125;2.078354;-3.559494;-;-;-;-;-;-;-;-;-;-;-;-;-;-;-
1514190446807;-;-;3.2937164;-0.28831482;-2.689209;-;-;-;-;-;-;-;-;-;-;-;-;-;-;-
1514190446828;-;-;3.3248444;-2.9482727;-2.1469116;-;-;-;-;-;-;-;-;-;-;-;-;-;-;-
1514190446848;-;-;4.3974457;-4.2914124;-1.9529877;-;-;-;-;-;-;-;-;-;-;-;-;-;-;-
1514190446869;-;-;7.5386353;-4.1489563;-2.2247314;-;-;-;-;-;-;-;-;-;-;-;-;-;-;-
1514190446889;-;-;8.503494;-2.5460358;-3.2518463;-;-;-;-;-;-;-;-;-;-;-;-;-;-;-
1514190446909;-;-;8.131195;-1.2447968;-3.0842438;-;-;-;-;-;-;-;-;-;-;-;-;-;-;-
1514190446929;-;-;7.4500427;-0.933548;-2.978897;-;-;-;-;-;-;-;-;-;-;-;-;-;-;-
1514190446950;-;-;6.640808;-1.313034;-2.1732483;-;-;-;-;-;-;-;-;-;-;-;-;-;-;-
1514190446969;-;-;6.928116;-1.5368805;-1.6968079;-;-;-;-;-;-;-;-;-;-;-;-;-;-;-
1514190446989;-;-;7.6703186;-2.1282501;-1.6956024;-;-;-;-;-;-;-;-;-;-;-;-;-;-;-
1514190447009;-;-;8.400543;-2.8357391;-2.093048;-;-;-;-;-;-;-;-;-;-;-;-;-;-;-
1514190447029;-;-;10.173447;-2.8297577;-2.4162598;-;-;-;-;-;-;-;-;-;-;-;-;-;-;-
1514190447050;-;-;10.873764;-2.6873016;-2.3959198;-;-;-;-;-;-;-;-;-;-;-;-;-;-;-
1514190447069;-;-;11.939178;-2.2467651;-2.8651733;-;-;-;-;-;-;-;-;-;-;-;-;-;-;-
1514190447089;-;-;13.125504;-1.724823;-3.1022034;-;-;-;-;-;-;-;-;-;-;-;-;-;-;-
1514190447109;-;-;13.272751;-1.3118286;-2.8639832;-;-;-;-;-;-;-;-;-;-;-;-;-;-;-
1514190447130;-;-;12.069656;-1.1203003;-2.717926;-;-;-;-;-;-;-;-;-;-;-;-;-;-;-
1514190447150;-;-;11.611176;-1.3202057;-4.651245;-;-;-;-;-;-;-;-;-;-;-;-;-;-;-
1514190447170;-;-;10.121979;-2.772293;-6.144043;-;-;-;-;-;-;-;-;-;-;-;-;-;-;-
1514190447191;-;-;8.912903;-4.400345;-6.998764;-;-;-;-;-;-;-;-;-;-;-;-;-;-;-
1514190447211;-;-;10.667862;-4.827713;-3.851593;-;-;-;-;-;-;-;-;-;-;-;-;-;-;-
1514190447231;-;-;11.414841;-3.7012482;-6.104538;-;-;-;-;-;-;-;-;-;-;-;-;-;-;-
1514190447252;-;-;8.146759;-2.016922;-10.268051;-;-;-;-;-;-;-;-;-;-;-;-;-;-;-
1514190447272;-;-;8.662704;0.086380005;-5.2821198;-;-;-;-;-;-;-;-;-;-;-;-;-;-;-
1514190447292;-;-;8.10965;0.28988647;-3.001648;-;-;-;-;-;-;-;-;-;-;-;-;-;-;-
1514190447313;-;-;5.6855164;-0.32661438;-2.4354248;-;-;-;-;-;-;-;-;-;-;-;-;-;-;-
1514190447333;-;-;4.9552917;-1.2603607;-1.887146;-;-;-;-;-;-;-;-;-;-;-;-;-;-;-
1514190447353;-;-;5.1396484;-2.408371;-1.8380585;-;-;-;-;-;-;-;-;-;-;-;-;-;-;-
1514190447373;-;-;5.2701263;-2.7172241;-3.2769775;-;-;-;-;-;-;-;-;-;-;-;-;-;-;-
1514190447393;-;-;5.8363495;-0.9431305;-3.8946838;-;-;-;-;-;-;-;-;-;-;-;-;-;-;-
1514190447414;-;-;4.738617;2.2016602;-4.081436;-;-;-;-;-;-;-;-;-;-;-;-;-;-;-
1514190447434;-;-;4.244217;4.655716;-4.377121;-;-;-;-;-;-;-;-;-;-;-;-;-;-;-
1514190447454;-;-;5.197098;4.477356;-4.2801514;-;-;-;-;-;-;-;-;-;-;-;-;-;-;-
1514190447475;-;-;7.2154236;1.829361;-4.6452637;-;-;-;-;-;-;-;-;-;-;-;-;-;-;-
1514190447495;-;-;8.7812195;-0.3469696;-4.210724;-;-;-;-;-;-;-;-;-;-;-;-;-;-;-
1514190447515;-;-;8.0138855;-1.0484619;-3.6349182;-;-;-;-;-;-;-;-;-;-;-;-;-;-;-
1514190447536;-;-;7.277664;-0.5253296;-2.8567963;-;-;-;-;-;-;-;-;-;-;-;-;-;-;-
1514190447556;-;-;7.487152;1.2547607;-2.0475616;-;-;-;-;-;-;-;-;-;-;-;-;-;-;-
1514190447576;-;-;8.197037;2.3967896;-2.6209717;-;-;-;-;-;-;-;-;-;-;-;-;-;-;-
1514190447597;-;-;8.888962;2.1035004;-3.1428986;-;-;-;-;-;-;-;-;-;-;-;-;-;-;-
1514190447616;-;-;9.560532;1.6366272;-3.0854492;-;-;-;-;-;-;-;-;-;-;-;-;-;-;-
1514190447636;-;-;10.685806;1.7000732;-3.5379486;-;-;-;-;-;-;-;-;-;-;-;-;-;-;-
1514190447657;-;-;11.556107;2.018509;-4.033554;-;-;-;-;-;-;-;-;-;-;-;-;-;-;-
1514190447677;-;-;12.184586;2.1430054;-3.5187988;-;-;-;-;-;-;-;-;-;-;-;-;-;-;-
1514190447699;-;-;11.886505;1.8042297;-4.361557;-;-;-;-;-;-;-;-;-;-;-;-;-;-;-
1514190447718;-;-;11.504623;1.7707062;-4.9996033;-;-;-;-;-;-;-;-;-;-;-;-;-;-;-
1514190447738;-;-;11.496246;1.829361;-5.069046;-;-;-;-;-;-;-;-;-;-;-;-;-;-;-
1514190447759;-;-;11.667435;1.8844299;-5.437744;-;-;-;-;-;-;-;-;-;-;-;-;-;-;-
1514190447779;-;-;9.991501;1.7156372;-6.9412994;-;-;-;-;-;-;-;-;-;-;-;-;-;-;-
1514190447800;-;-;8.509476;0.2420044;-6.195511;-;-;-;-;-;-;-;-;-;-;-;-;-;-;-
1514190447820;-;-;7.487152;-1.5321045;-4.7745514;-;-;-;-;-;-;-;-;-;-;-;-;-;-;-
1514190447840;-;-;7.253723;-2.475418;-3.8839111;-;-;-;-;-;-;-;-;-;-;-;-;-;-;-
1514190447860;-;-;7.059799;-2.024109;-3.0423431;-;-;-;-;-;-;-;-;-;-;-;-;-;-;-
1514190447881;-;-;6.743759;-0.052474976;-2.3623962;-;-;-;-;-;-;-;-;-;-;-;-;-;-;-
1514190447901;-;-;6.9388885;1.1733551;-2.6281433;-;-;-;-;-;-;-;-;-;-;-;-;-;-;-
1514190447922;-;-;7.379425;1.1841278;-3.5427399;-;-;-;-;-;-;-;-;-;-;-;-;-;-;-
1514190447943;-;-;7.1244354;-0.023742676;-4.1592407;-;-;-;-;-;-;-;-;-;-;-;-;-;-;-
1514190447963;-;-;6.394211;-1.5213165;-4.235855;-;-;-;-;-;-;-;-;-;-;-;-;-;-;-
1514190447983;-;-;5.1719666;-2.5077362;-3.685196;-;-;-;-;-;-;-;-;-;-;-;-;-;-;-
1514190448004;-;-;5.098938;-3.0655823;-2.7394867;-;-;-;-;-;-;-;-;-;-;-;-;-;-;-
1514190448023;-;-;6.489975;-2.949463;-2.6784363;-;-;-;-;-;-;-;-;-;-;-;-;-;-;-
1514190448043;-;-;7.3147736;-1.8948212;-3.6839905;-;-;-;-;-;-;-;-;-;-;-;-;-;-;-
1514190448063;-;-;7.1136627;-0.9826355;-3.832428;-;-;-;-;-;-;-;-;-;-;-;-;-;-;-
1514190448084;-;-;6.5713806;-0.8425598;-2.780182;-;-;-;-;-;-;-;-;-;-;-;-;-;-;-
1514190448104;-;-;5.8088226;-1.5488586;-2.124176;-;-;-;-;-;-;-;-;-;-;-;-;-;-;-
1514190448125;-;-;6.304428;-2.8441162;-1.7351074;-;-;-;-;-;-;-;-;-;-;-;-;-;-;-
1514190448145;-;-;7.2321777;-3.4390717;-1.480133;-;-;-;-;-;-;-;-;-;-;-;-;-;-;-
1514190448166;-;-;8.7764435;-2.9111633;-1.3352814;-;-;-;-;-;-;-;-;-;-;-;-;-;-;-
1514190448186;-;-;10.604416;-1.5919495;-1.4142914;-;-;-;-;-;-;-;-;-;-;-;-;-;-;-
1514190448206;-;-;11.882919;-0.8126373;-2.0355835;-;-;-;-;-;-;-;-;-;-;-;-;-;-;-
1514190448226;-;-;13.148254;-1.1238861;-2.6006165;-;-;-;-;-;-;-;-;-;-;-;-;-;-;-
1514190448247;-;-;14.790665;-2.6825104;-2.444992;-;-;-;-;-;-;-;-;-;-;-;-;-;-;-
1514190448267;-;-;14.839752;-3.6749115;-3.9126434;-;-;-;-;-;-;-;-;-;-;-;-;-;-;-
1514190448288;-;-;13.056076;-4.0986786;-4.9529266;-;-;-;-;-;-;-;-;-;-;-;-;-;-;-
1514190448308;-;-;10.671448;-3.830536;-5.022354;-;-;-;-;-;-;-;-;-;-;-;-;-;-;-
1514190448328;-;-;6.9161377;-4.333313;-8.073761;-;-;-;-;-;-;-;-;-;-;-;-;-;-;-
1514190448348;-;-;7.2633057;-3.108673;-4.5375214;-;-;-;-;-;-;-;-;-;-;-;-;-;-;-
1514190448368;-;-;8.890167;-2.3102112;-4.6093597;-;-;-;-;-;-;-;-;-;-;-;-;-;-;-
1514190448389;-;-;7.924103;-1.3908386;-9.2565;-;-;-;-;-;-;-;-;-;-;-;-;-;-;-
1514190448409;-;-;8.052185;1.2044678;-5.4473267;-;-;-;-;-;-;-;-;-;-;-;-;-;-;-
1514190448429;-;-;9.161896;1.8760529;-2.879547;-;-;-;-;-;-;-;-;-;-;-;-;-;-;-
1514190448450;-;-;7.7648926;0.09954834;-3.0854492;-;-;-;-;-;-;-;-;-;-;-;-;-;-;-
1514190448470;-;-;6.8191833;-1.3202057;-2.4425964;-;-;-;-;-;-;-;-;-;-;-;-;-;-;-
1514190448490;-;-;6.5905304;-2.277893;-1.911087;-;-;-;-;-;-;-;-;-;-;-;-;-;-;-
1514190448511;-;-;6.5917206;-2.9398804;-2.373169;-;-;-;-;-;-;-;-;-;-;-;-;-;-;-
1514190448530;-;-;6.154785;-2.432312;-2.9190521;-;-;-;-;-;-;-;-;-;-;-;-;-;-;-
1514190448550;-;-;4.0107727;-0.27514648;-3.1476898;-;-;-;-;-;-;-;-;-;-;-;-;-;-;-
1514190448571;-;-;3.0770416;1.4283295;-2.9681244;-;-;-;-;-;-;-;-;-;-;-;-;-;-;-
1514190448590;-;-;4.687134;3.161728;-2.8532104;-;-;-;-;-;-;-;-;-;-;-;-;-;-;-
1514190448610;-;-;7.3183746;2.4326935;-3.5930176;-;-;-;-;-;-;-;-;-;-;-;-;-;-;-
1514190448630;-;-;8.818329;1.161377;-4.1221313;-;-;-;-;-;-;-;-;-;-;-;-;-;-;-
1514190448651;-;-;8.745316;0.536499;-3.590622;-;-;-;-;-;-;-;-;-;-;-;-;-;-;-
1514190448671;-;-;7.731369;1.0392761;-2.7346954;-;-;-;-;-;-;-;-;-;-;-;-;-;-;-
1514190448692;-;-;7.135208;2.018509;-2.310913;-;-;-;-;-;-;-;-;-;-;-;-;-;-;-
1514190448712;-;-;7.532654;2.85289;-2.2414856;-;-;-;-;-;-;-;-;-;-;-;-;-;-;-
1514190448732;-;-;8.054581;2.3058014;-2.4904785;-;-;-;-;-;-;-;-;-;-;-;-;-;-;-
1514190448752;-;-;8.598068;1.3373566;-2.483307;-;-;-;-;-;-;-;-;-;-;-;-;-;-;-
1514190448773;-;-;9.955582;1.1757507;-2.2498627;-;-;-;-;-;-;-;-;-;-;-;-;-;-;-
1514190448793;-;-;11.435196;1.7443695;-2.3779602;-;-;-;-;-;-;-;-;-;-;-;-;-;-;-
1514190448814;-;-;12.489838;2.232788;-2.7035675;-;-;-;-;-;-;-;-;-;-;-;-;-;-;-
1514190448834;-;-;12.904037;1.758728;-2.71315;-;-;-;-;-;-;-;-;-;-;-;-;-;-;-
1514190448854;-;-;12.147476;0.7411957;-2.551529;-;-;-;-;-;-;-;-;-;-;-;-;-;-;-
1514190448874;-;-;11.059311;0.074417114;-6.7796936;-;-;-;-;-;-;-;-;-;-;-;-;-;-;-
1514190448895;-;-;11.207748;3.0563965;-6.4947815;-;-;-;-;-;-;-;-;-;-;-;-;-;-;-
1514190448915;-;-;14.002975;3.817749;-4.6692047;-;-;-;-;-;-;-;-;-;-;-;-;-;-;-
1514190448935;-;-;11.51062;2.85289;-6.2960663;-;-;-;-;-;-;-;-;-;-;-;-;-;-;-
1514190448955;-;-;8.629196;0.57958984;-7.21904;-;-;-;-;-;-;-;-;-;-;-;-;-;-;-
1514190448975;-;-;5.394623;-1.6374359;-5.4317627;-;-;-;-;-;-;-;-;-;-;-;-;-;-;-
1514190448996;-;-;5.3658905;-3.1302338;-3.3787384;-;-;-;-;-;-;-;-;-;-;-;-;-;-;-
1514190449016;-;-;6.154785;-2.3832397;-2.2163544;-;-;-;-;-;-;-;-;-;-;-;-;-;-;-
1514190449037;-;-;7.185486;-0.105148315;-3.0148163;-;-;-;-;-;-;-;-;-;-;-;-;-;-;-
1514190449056;-;-;7.0346527;1.6210632;-2.2953491;-;-;-;-;-;-;-;-;-;-;-;-;-;-;-
1514190449076;-;-;6.8239594;2.102295;-2.4318237;-;-;-;-;-;-;-;-;-;-;-;-;-;-;-
1514190449096;-;-;5.893814;1.3864288;-3.511612;-;-;-;-;-;-;-;-;-;-;-;-;-;-;-
1514190449117;-;-;4.608124;-0.16740417;-3.0267792;-;-;-;-;-;-;-;-;-;-;-;-;-;-;-
1514190449137;-;-;3.8084717;-1.9008026;-2.4641418;-;-;-;-;-;-;-;-;-;-;-;-;-;-;-
1514190449157;-;-;4.2741394;-3.6797028;-1.8344727;-;-;-;-;-;-;-;-;-;-;-;-;-;-;-
1514190449178;-;-;6.8371277;-4.7187805;-2.2450714;-;-;-;-;-;-;-;-;-;-;-;-;-;-;-
1514190449198;-;-;8.458008;-3.6330109;-3.1105804;-;-;-;-;-;-;-;-;-;-;-;-;-;-;-
1514190449219;-;-;9.082901;-2.024109;-3.338028;-;-;-;-;-;-;-;-;-;-;-;-;-;-;-
1514190449239;-;-;8.455612;-1.0975494;-3.3188782;-;-;-;-;-;-;-;-;-;-;-;-;-;-;-
1514190449259;-;-;7.0921173;-0.88446045;-2.9753113;-;-;-;-;-;-;-;-;-;-;-;-;-;-;-
1514190449279;-;-;7.566162;-1.5117493;-2.3647919;-;-;-;-;-;-;-;-;-;-;-;-;-;-;-
1514190449300;-;-;8.141968;-2.4418945;-2.357605;-;-;-;-;-;-;-;-;-;-;-;-;-;-;-
1514190449320;-;-;8.2317505;-3.005722;-2.5539246;-;-;-;-;-;-;-;-;-;-;-;-;-;-;-
1514190449340;-;-;8.537018;-3.3061981;-2.761032;-;-;-;-;-;-;-;-;-;-;-;-;-;-;-
1514190449360;-;-;9.166687;-3.3349304;-2.603012;-;-;-;-;-;-;-;-;-;-;-;-;-;-;-
1514190449381;-;-;10.020218;-3.0224915;-2.500061;-;-;-;-;-;-;-;-;-;-;-;-;-;-;-
1514190449401;-;-;10.65947;-2.7292023;-2.6125946;-;-;-;-;-;-;-;-;-;-;-;-;-;-;-
1514190449421;-;-;11.226898;-3.11586;-2.6556854;-;-;-;-;-;-;-;-;-;-;-;-;-;-;-
1514190449442;-;-;12.661026;-2.8524933;-2.093048;-;-;-;-;-;-;-;-;-;-;-;-;-;-;-
1514190449462;-;-;13.31105;-1.186142;-1.5339966;-;-;-;-;-;-;-;-;-;-;-;-;-;-;-
1514190449482;-;-;10.909668;-1.9941711;-5.91539;-;-;-;-;-;-;-;-;-;-;-;-;-;-;-
1514190449503;-;-;12.422806;-3.9705963;-6.974823;-;-;-;-;-;-;-;-;-;-;-;-;-;-;-
1514190449522;-;-;13.2404175;-4.910309;-0.03881836;-;-;-;-;-;-;-;-;-;-;-;-;-;-;-
1514190449542;-;-;10.554138;-4.863632;-5.6089325;-;-;-;-;-;-;-;-;-;-;-;-;-;-;-
1514190449563;-;-;9.391739;-3.3061981;-7.7792816;-;-;-;-;-;-;-;-;-;-;-;-;-;-;-
1514190449582;-;-;7.324356;-0.6438446;-6.208679;-;-;-;-;-;-;-;-;-;-;-;-;-;-;-
1514190449602;-;-;6.727005;0.7435913;-5.59816;-;-;-;-;-;-;-;-;-;-;-;-;-;-;-
1514190449622;-;-;7.6475677;-1.0903625;-3.9928436;-;-;-;-;-;-;-;-;-;-;-;-;-;-;-
1514190449643;-;-;7.6032715;-2.396408;-3.112976;-;-;-;-;-;-;-;-;-;-;-;-;-;-;-
1514190449663;-;-;6.264923;-1.3465424;-2.5180206;-;-;-;-;-;-;-;-;-;-;-;-;-;-;-
1514190449683;-;-;5.422165;-0.47146606;-2.5527344;-;-;-;-;-;-;-;-;-;-;-;-;-;-;-
1514190449704;-;-;5.526306;0.1438446;-2.8268738;-;-;-;-;-;-;-;-;-;-;-;-;-;-;-
1514190449724;-;-;5.30365;0.8441467;-3.2913513;-;-;-;-;-;-;-;-;-;-;-;-;-;-;-
1514190449744;-;-;5.016342;1.4750214;-3.8731384;-;-;-;-;-;-;-;-;-;-;-;-;-;-;-
1514190449765;-;-;5.1324615;1.8018341;-4.148468;-;-;-;-;-;-;-;-;-;-;-;-;-;-;-
1514190449785;-;-;6.3259735;1.9837952;-4.3591614;-;-;-;-;-;-;-;-;-;-;-;-;-;-;-
1514190449805;-;-;7.501526;1.090744;-4.863144;-;-;-;-;-;-;-;-;-;-;-;-;-;-;-
1514190449825;-;-;8.182678;0.20370483;-4.488449;-;-;-;-;-;-;-;-;-;-;-;-;-;-;-
1514190449846;-;-;7.924103;-0.09437561;-3.6828003;-;-;-;-;-;-;-;-;-;-;-;-;-;-;-
1514190449866;-;-;7.6511536;0.25637817;-2.9094696;-;-;-;-;-;-;-;-;-;-;-;-;-;-;-
1514190449886;-;-;7.552994;0.754364;-2.4940796;-;-;-;-;-;-;-;-;-;-;-;-;-;-;-
1514190449907;-;-;7.5961;0.6538086;-2.4090881;-;-;-;-;-;-;-;-;-;-;-;-;-;-;-
1514190449927;-;-;7.653549;0.44192505;-2.247467;-;-;-;-;-;-;-;-;-;-;-;-;-;-;-
1514190449947;-;-;7.825943;0.59036255;-1.8488312;-;-;-;-;-;-;-;-;-;-;-;-;-;-;-
1514190449968;-;-;8.096481;0.91238403;-1.4442139;-;-;-;-;-;-;-;-;-;-;-;-;-;-;-
1514190449988;-;-;7.9468384;1.343338;-1.2107849;-;-;-;-;-;-;-;-;-;-;-;-;-;-;-
1514190450008;-;-;7.561386;1.343338;-1.3149261;-;-;-;-;-;-;-;-;-;-;-;-;-;-;-
1514190450028;-;-;7.399765;1.4462891;-1.2454987;-;-;-;-;-;-;-;-;-;-;-;-;-;-;-
1514190450049;-;-;7.497925;1.5001526;-1.2658539;-;-;-;-;-;-;-;-;-;-;-;-;-;-;-
1514190450069;-;-;7.387802;0.596344;-1.9673462;-;-;-;-;-;-;-;-;-;-;-;-;-;-;-
1514190450089;-;-;7.9396667;-1.1765594;-0.2064209;-;-;-;-;-;-;-;-;-;-;-;-;-;-;-
1514190450110;-;-;11.471115;-2.7698975;-0.9976959;-;-;-;-;-;-;-;-;-;-;-;-;-;-;-
1514190450130;-;-;13.384079;0.28988647;-2.3312683;-;-;-;-;-;-;-;-;-;-;-;-;-;-;-
1514190450150;-;-;12.288727;4.726349;-7.125656;-;-;-;-;-;-;-;-;-;-;-;-;-;-;-
1514190450171;-;-;11.740463;6.07428;-6.442108;-;-;-;-;-;-;-;-;-;-;-;-;-;-;-
1514190450191;-;-;12.576035;3.9302673;-6.497177;-;-;-;-;-;-;-;-;-;-;-;-;-;-;-
1514190450211;-;-;10.833054;0.29826355;-5.125305;-;-;-;-;-;-;-;-;-;-;-;-;-;-;-
1514190450232;-;-;9.3103485;-1.2040863;-6.3355713;-;-;-;-;-;-;-;-;-;-;-;-;-;-;-
1514190450252;-;-;6.2122498;-1.3621063;-4.6919556;-;-;-;-;-;-;-;-;-;-;-;-;-;-;-
1514190450272;-;-;3.9580994;-1.6733551;-4.990036;-;-;-;-;-;-;-;-;-;-;-;-;-;-;-
1514190450292;-;-;5.2545624;-0.9945984;-4.092209;-;-;-;-;-;-;-;-;-;-;-;-;-;-;-
1514190450313;-;-;8.811157;0.42037964;-4.5506897;-;-;-;-;-;-;-;-;-;-;-;-;-;-;-
1514190450333;-;-;10.842636;1.5049438;-5.7394104;-;-;-;-;-;-;-;-;-;-;-;-;-;-;-
1514190450353;-;-;10.578079;0.7519684;-4.083832;-;-;-;-;-;-;-;-;-;-;-;-;-;-;-
1514190450374;-;-;9.754471;-1.3106384;-3.381134;-;-;-;-;-;-;-;-;-;-;-;-;-;-;-
1514190450394;-;-;8.203018;-1.3992157;-3.9174347;-;-;-;-;-;-;-;-;-;-;-;-;-;-;-
1514190450414;-;-;6.0099335;-0.9275665;-4.0395355;-;-;-;-;-;-;-;-;-;-;-;-;-;-;-
1514190450434;-;-;5.0103607;-0.6797638;-3.7761688;-;-;-;-;-;-;-;-;-;-;-;-;-;-;-
1514190450454;-;-;5.1647797;-1.0879669;-3.6828003;-;-;-;-;-;-;-;-;-;-;-;-;-;-;-
1514190450475;-;-;7.652359;-1.3501434;-3.6396942;-;-;-;-;-;-;-;-;-;-;-;-;-;-;-
1514190450494;-;-;7.7361603;-0.9957886;-3.3092957;-;-;-;-;-;-;-;-;-;-;-;-;-;-;-
1514190450514;-;-;7.451248;-0.97065735;-2.9262238;-;-;-;-;-;-;-;-;-;-;-;-;-;-;-
1514190450534;-;-;7.8786163;-2.0935364;-2.5431519;-;-;-;-;-;-;-;-;-;-;-;-;-;-;-
1514190450555;-;-;9.173874;-2.8465118;-2.8891144;-;-;-;-;-;-;-;-;-;-;-;-;-;-;-
1514190450574;-;-;10.460754;-2.5412598;-3.433792;-;-;-;-;-;-;-;-;-;-;-;-;-;-;-
1514190450594;-;-;10.351822;-1.8002472;-3.6121674;-;-;-;-;-;-;-;-;-;-;-;-;-;-;-
1514190450614;-;-;9.00029;-1.8313751;-2.9609375;-;-;-;-;-;-;-;-;-;-;-;-;-;-;-
1514190450635;-;-;7.8474884;-2.451477;-1.7075806;-;-;-;-;-;-;-;-;-;-;-;-;-;-;-
1514190450655;-;-;7.3698425;-2.9015808;-1.0587463;-;-;-;-;-;-;-;-;-;-;-;-;-;-;-
1514190450676;-;-;7.451248;-3.2487335;-2.045166;-;-;-;-;-;-;-;-;-;-;-;-;-;-;-
1514190450696;-;-;8.871002;-3.0859375;-2.5407562;-;-;-;-;-;-;-;-;-;-;-;-;-;-;-
1514190450715;-;-;9.997482;-2.4837952;-2.3947144;-;-;-;-;-;-;-;-;-;-;-;-;-;-;-
1514190450735;-;-;10.568497;-1.2926788;-1.2622528;-;-;-;-;-;-;-;-;-;-;-;-;-;-;-
1514190450755;-;-;11.584839;0.6681671;-0.7977905;-;-;-;-;-;-;-;-;-;-;-;-;-;-;-
1514190450776;-;-;11.025787;2.04245;-1.8799591;-;-;-;-;-;-;-;-;-;-;-;-;-;-;-
1514190450796;-;-;9.147537;2.4410858;-4.6081543;-;-;-;-;-;-;-;-;-;-;-;-;-;-;-
1514190450816;-;-;8.679474;2.9582214;-7.3531036;-;-;-;-;-;-;-;-;-;-;-;-;-;-;-
1514190450836;-;-;8.768051;2.6266327;-8.3802185;-;-;-;-;-;-;-;-;-;-;-;-;-;-;-
1514190450857;-;-;8.923676;-0.078811646;-6.7509613;-;-;-;-;-;-;-;-;-;-;-;-;-;-;-
1514190450876;-;-;9.147537;-3.2056427;-6.0051727;-;-;-;-;-;-;-;-;-;-;-;-;-;-;-
1514190450896;-;-;8.4292755;-3.8173676;-5.5730133;-;-;-;-;-;-;-;-;-;-;-;-;-;-;-
1514190450917;-;-;8.326324;-2.4622498;-5.10376;-;-;-;-;-;-;-;-;-;-;-;-;-;-;-
1514190450937;-;-;7.592499;0.05885315;-4.204727;-;-;-;-;-;-;-;-;-;-;-;-;-;-;-
1514190450956;-;-;7.3901978;1.2751007;-3.998825;-;-;-;-;-;-;-;-;-;-;-;-;-;-;-
1514190450977;-;-;8.339493;0.57121277;-4.289734;-;-;-;-;-;-;-;-;-;-;-;-;-;-;-
1514190450997;-;-;9.182251;-0.37210083;-3.6396942;-;-;-;-;-;-;-;-;-;-;-;-;-;-;-
1514190451017;-;-;9.759262;-0.21887207;-3.341629;-;-;-;-;-;-;-;-;-;-;-;-;-;-;-
1514190451038;-;-;9.3893585;0.46107483;-3.1105804;-;-;-;-;-;-;-;-;-;-;-;-;-;-;-
1514190451057;-;-;7.9815674;0.9111786;-2.9513702;-;-;-;-;-;-;-;-;-;-;-;-;-;-;-
1514190451078;-;-;7.059799;1.0093536;-2.8137054;-;-;-;-;-;-;-;-;-;-;-;-;-;-;-
1514190451098;-;-;6.4253235;0.9183655;-2.7299042;-;-;-;-;-;-;-;-;-;-;-;-;-;-;-
1514190451118;-;-;6.090149;0.6957092;-2.8974915;-;-;-;-;-;-;-;-;-;-;-;-;-;-;-
1514190451139;-;-;6.2637177;0.54966736;-2.5994263;-;-;-;-;-;-;-;-;-;-;-;-;-;-;-
1514190451159;-;-;6.936493;0.2707367;-1.9577789;-;-;-;-;-;-;-;-;-;-;-;-;-;-;-
1514190451179;-;-;8.6028595;-0.3697052;-1.4250641;-;-;-;-;-;-;-;-;-;-;-;-;-;-;-
1514190451199;-;-;9.232529;-0.19134521;-1.7003937;-;-;-;-;-;-;-;-;-;-;-;-;-;-;-
1514190451219;-;-;8.775238;0.67774963;-2.0679016;-;-;-;-;-;-;-;-;-;-;-;-;-;-;-
1514190451240;-;-;7.739746;1.027298;-1.7865906;-;-;-;-;-;-;-;-;-;-;-;-;-;-;-
1514190451260;-;-;7.3578644;0.15222168;-0.7582855;-;-;-;-;-;-;-;-;-;-;-;-;-;-;-
1514190451280;-;-;8.048599;-0.89404297;-0.5643463;-;-;-;-;-;-;-;-;-;-;-;-;-;-;-
1514190451300;-;-;9.23613;-1.5488586;-1.8943329;-;-;-;-;-;-;-;-;-;-;-;-;-;-;-
1514190451321;-;-;10.4882965;-0.9072113;-3.4002838;-;-;-;-;-;-;-;-;-;-;-;-;-;-;-
1514190451341;-;-;10.114792;0.88604736;-6.8503265;-;-;-;-;-;-;-;-;-;-;-;-;-;-;-
1514190451361;-;-;7.858261;2.4207306;-6.0674286;-;-;-;-;-;-;-;-;-;-;-;-;-;-;-
1514190451381;-;-;8.219788;0.8525238;-5.022354;-;-;-;-;-;-;-;-;-;-;-;-;-;-;-
1514190451402;-;-;11.763199;-2.731598;-7.2764893;-;-;-;-;-;-;-;-;-;-;-;-;-;-;-
1514190451422;-;-;13.580399;-3.6605377;-6.6671753;-;-;-;-;-;-;-;-;-;-;-;-;-;-;-
1514190451442;-;-;13.331406;-0.973053;-4.4908447;-;-;-;-;-;-;-;-;-;-;-;-;-;-;-
1514190451462;-;-;12.3414;1.6031036;-2.0080566;-;-;-;-;-;-;-;-;-;-;-;-;-;-;-
1514190451482;-;-;10.669052;0.59394836;-2.6963806;-;-;-;-;-;-;-;-;-;-;-;-;-;-;-
1514190451503;-;-;9.142746;-1.31781;-2.7933502;-;-;-;-;-;-;-;-;-;-;-;-;-;-;-
1514190451523;-;-;6.5917206;-2.6873016;-2.388733;-;-;-;-;-;-;-;-;-;-;-;-;-;-;-
1514190451543;-;-;3.806076;-3.4498596;-2.1696625;-;-;-;-;-;-;-;-;-;-;-;-;-;-;-
1514190451563;-;-;2.9238129;-3.7383575;-2.562317;-;-;-;-;-;-;-;-;-;-;-;-;-;-;-
1514190451584;-;-;4.3615265;-2.9279175;-1.9541779;-;-;-;-;-;-;-;-;-;-;-;-;-;-;-
1514190451604;-;-;7.1244354;-1.8301697;-1.9290466;-;-;-;-;-;-;-;-;-;-;-;-;-;-;-
1514190451624;-;-;8.679474;-1.5692139;-2.0331879;-;-;-;-;-;-;-;-;-;-;-;-;-;-;-
1514190451644;-;-;9.110428;-1.724823;-2.2402954;-;-;-;-;-;-;-;-;-;-;-;-;-;-;-
1514190451665;-;-;8.872208;-1.902008;-2.203186;-;-;-;-;-;-;-;-;-;-;-;-;-;-;-
1514190451685;-;-;9.386963;-2.423935;-2.105011;-;-;-;-;-;-;-;-;-;-;-;-;-;-;-
1514190451705;-;-;9.480331;-2.851303;-1.8296814;-;-;-;-;-;-;-;-;-;-;-;-;-;-;-
1514190451726;-;-;9.084091;-3.3480988;-1.3699951;-;-;-;-;-;-;-;-;-;-;-;-;-;-;-
1514190451746;-;-;9.06015;-3.8281403;-1.0144653;-;-;-;-;-;-;-;-;-;-;-;-;-;-;-
1514190451766;-;-;9.6072235;-3.7874298;-0.7283478;-;-;-;-;-;-;-;-;-;-;-;-;-;-;-
1514190451787;-;-;10.035782;-2.530487;-0.709198;-;-;-;-;-;-;-;-;-;-;-;-;-;-;-
1514190451807;-;-;10.039383;-1.3046417;-0.93066406;-;-;-;-;-;-;-;-;-;-;-;-;-;-;-
1514190451828;-;-;11.44957;-1.0412903;-1.5615387;-;-;-;-;-;-;-;-;-;-;-;-;-;-;-
1514190451848;-;-;13.994598;-2.174942;-3.2925415;-;-;-;-;-;-;-;-;-;-;-;-;-;-;-
1514190451868;-;-;13.847351;-4.5487976;-6.74498;-;-;-;-;-;-;-;-;-;-;-;-;-;-;-
1514190451888;-;-;13.692932;-5.98172;-4.2334595;-;-;-;-;-;-;-;-;-;-;-;-;-;-;-
1514190451908;-;-;12.781937;-5.8799744;-3.9856567;-;-;-;-;-;-;-;-;-;-;-;-;-;-;-
1514190451929;-;-;11.735672;-4.6361847;-4.958908;-;-;-;-;-;-;-;-;-;-;-;-;-;-;-
1514190451949;-;-;8.750107;-2.1234589;-6.639633;-;-;-;-;-;-;-;-;-;-;-;-;-;-;-
1514190451969;-;-;5.8195953;0.32699585;-7.0634155;-;-;-;-;-;-;-;-;-;-;-;-;-;-;-
1514190451990;-;-;4.214279;1.2559509;-6.8503265;-;-;-;-;-;-;-;-;-;-;-;-;-;-;-
1514190452010;-;-;4.6787567;0.02053833;-5.022354;-;-;-;-;-;-;-;-;-;-;-;-;-;-;-
1514190452030;-;-;7.6906586;-0.8988342;-3.6444855;-;-;-;-;-;-;-;-;-;-;-;-;-;-;-
1514190452051;-;-;10.311127;-1.1298676;-3.5810394;-;-;-;-;-;-;-;-;-;-;-;-;-;-;-
1514190452071;-;-;10.125565;-1.1454315;-4.306488;-;-;-;-;-;-;-;-;-;-;-;-;-;-;-
1514190452091;-;-;8.887772;-0.7216644;-3.8695374;-;-;-;-;-;-;-;-;-;-;-;-;-;-;-
1514190452112;-;-;8.149155;-0.090789795;-3.740265;-;-;-;-;-;-;-;-;-;-;-;-;-;-;-
1514190452132;-;-;6.6862946;0.77711487;-3.784546;-;-;-;-;-;-;-;-;-;-;-;-;-;-;-
1514190452152;-;-;4.9349365;1.4570618;-3.5020294;-;-;-;-;-;-;-;-;-;-;-;-;-;-;-
1514190452173;-;-;4.351944;1.4738159;-3.346405;-;-;-;-;-;-;-;-;-;-;-;-;-;-;-
1514190452192;-;-;5.0965424;0.74957275;-3.135727;-;-;-;-;-;-;-;-;-;-;-;-;-;-;-
1514190452212;-;-;5.7621307;0.08279419;-3.12854;-;-;-;-;-;-;-;-;-;-;-;-;-;-;-
1514190452232;-;-;6.245758;0.21087646;-3.377533;-;-;-;-;-;-;-;-;-;-;-;-;-;-;-
1514190452252;-;-;6.285263;0.7723236;-3.4182434;-;-;-;-;-;-;-;-;-;-;-;-;-;-;-
1514190452273;-;-;6.983185;1.125473;-3.267395;-;-;-;-;-;-;-;-;-;-;-;-;-;-;-
1514190452293;-;-;7.908539;1.6091003;-3.3033142;-;-;-;-;-;-;-;-;-;-;-;-;-;-;-
1514190452313;-;-;8.942825;1.8437195;-3.2841644;-;-;-;-;-;-;-;-;-;-;-;-;-;-;-
1514190452334;-;-;9.020645;1.6438141;-3.389511;-;-;-;-;-;-;-;-;-;-;-;-;-;-;-
1514190452354;-;-;9.412094;1.4319305;-3.7234955;-;-;-;-;-;-;-;-;-;-;-;-;-;-;-
1514190452374;-;-;9.962769;1.9981537;-3.808487;-;-;-;-;-;-;-;-;-;-;-;-;-;-;-
1514190452395;-;-;10.181839;1.908371;-3.310501;-;-;-;-;-;-;-;-;-;-;-;-;-;-;-
1514190452414;-;-;10.234512;1.0105438;-3.7989197;-;-;-;-;-;-;-;-;-;-;-;-;-;-;-
1514190452434;-;-;10.24408;-0.078811646;-7.1927032;-;-;-;-;-;-;-;-;-;-;-;-;-;-;-
1514190452454;-;-;11.994247;1.7240143;-7.6056976;-;-;-;-;-;-;-;-;-;-;-;-;-;-;-
1514190452475;-;-;13.751587;3.877594;-5.511963;-;-;-;-;-;-;-;-;-;-;-;-;-;-;-
1514190452495;-;-;10.4930725;4.324127;-6.527115;-;-;-;-;-;-;-;-;-;-;-;-;-;-;-
1514190452515;-;-;8.082123;2.7319794;-7.3088074;-;-;-;-;-;-;-;-;-;-;-;-;-;-;-
1514190452536;-;-;5.043869;0.77711487;-6.5702057;-;-;-;-;-;-;-;-;-;-;-;-;-;-;-
1514190452556;-;-;4.3148346;-2.2168427;-5.2031097;-;-;-;-;-;-;-;-;-;-;-;-;-;-;-
1514190452576;-;-;6.229004;-3.8377075;-5.1540375;-;-;-;-;-;-;-;-;-;-;-;-;-;-;-
1514190452597;-;-;7.810379;-2.1019135;-4.210724;-;-;-;-;-;-;-;-;-;-;-;-;-;-;-
1514190452617;-;-;7.7840424;-0.50738525;-3.3296509;-;-;-;-;-;-;-;-;-;-;-;-;-;-;-
1514190452637;-;-;8.0905;0.076812744;-3.7282867;-;-;-;-;-;-;-;-;-;-;-;-;-;-;-
1514190452657;-;-;8.019867;0.417984;-4.2214966;-;-;-;-;-;-;-;-;-;-;-;-;-;-;-
1514190452678;-;-;6.557007;-0.014175415;-4.083832;-;-;-;-;-;-;-;-;-;-;-;-;-;-;-
1514190452698;-;-;5.3024445;-1.0939636;-3.46492;-;-;-;-;-;-;-;-;-;-;-;-;-;-;-
1514190452718;-;-;4.2789307;-2.5065308;-3.104599;-;-;-;-;-;-;-;-;-;-;-;-;-;-;-
1514190452739;-;-;4.3770905;-3.8005981;-3.0662842;-;-;-;-;-;-;-;-;-;-;-;-;-;-;-
1514190452759;-;-;5.947693;-3.4773865;-2.994461;-;-;-;-;-;-;-;-;-;-;-;-;-;-;-
1514190452779;-;-;7.216614;-2.2754974;-3.4517517;-;-;-;-;-;-;-;-;-;-;-;-;-;-;-
1514190452800;-;-;8.007904;-1.2292328;-3.4397888;-;-;-;-;-;-;-;-;-;-;-;-;-;-;-
1514190452820;-;-;7.67749;-0.5600586;-3.2650146;-;-;-;-;-;-;-;-;-;-;-;-;-;-;-
1514190452840;-;-;7.007126;-0.71806335;-3.3452148;-;-;-;-;-;-;-;-;-;-;-;-;-;-;-
1514190452861;-;-;6.8455048;-1.2711334;-3.4912567;-;-;-;-;-;-;-;-;-;-;-;-;-;-;-
1514190452881;-;-;7.566162;-2.3952026;-3.6325226;-;-;-;-;-;-;-;-;-;-;-;-;-;-;-
1514190452901;-;-;9.4887085;-3.0655823;-3.377533;-;-;-;-;-;-;-;-;-;-;-;-;-;-;-
1514190452921;-;-;10.757645;-3.0188904;-3.056717;-;-;-;-;-;-;-;-;-;-;-;-;-;-;-
1514190452942;-;-;11.550125;-3.3157806;-3.7043457;-;-;-;-;-;-;-;-;-;-;-;-;-;-;-
1514190452962;-;-;12.5915985;-3.0727692;-4.2298737;-;-;-;-;-;-;-;-;-;-;-;-;-;-;-
1514190452982;-;-;13.451111;-2.535263;-4.0790405;-;-;-;-;-;-;-;-;-;-;-;-;-;-;-
1514190453003;-;-;12.772354;-1.6889191;-5.1336823;-;-;-;-;-;-;-;-;-;-;-;-;-;-;-
1514190453024;-;-;11.60878;-1.0688171;-5.587387;-;-;-;-;-;-;-;-;-;-;-;-;-;-;-
1514190453043;-;-;10.400894;-1.7296143;-5.5694275;-;-;-;-;-;-;-;-;-;-;-;-;-;-;-
1514190453064;-;-;9.266052;-3.3193665;-5.2773285;-;-;-;-;-;-;-;-;-;-;-;-;-;-;-
1514190453084;-;-;8.539413;-3.266693;-3.788147;-;-;-;-;-;-;-;-;-;-;-;-;-;-;-
1514190453104;-;-;6.7162323;-3.8101807;-6.4540863;-;-;-;-;-;-;-;-;-;-;-;-;-;-;-
1514190453125;-;-;7.02269;-3.091919;-8.438873;-;-;-;-;-;-;-;-;-;-;-;-;-;-;-
1514190453145;-;-;8.452026;-0.36013794;-4.8667297;-;-;-;-;-;-;-;-;-;-;-;-;-;-;-
1514190453165;-;-;8.619614;0.70887756;-3.8192596;-;-;-;-;-;-;-;-;-;-;-;-;-;-;-
1514190453185;-;-;7.7014465;0.103149414;-3.4625244;-;-;-;-;-;-;-;-;-;-;-;-;-;-;-
1514190453206;-;-;6.762909;-0.36013794;-2.6688538;-;-;-;-;-;-;-;-;-;-;-;-;-;-;-
1514190453226;-;-;5.8674774;-2.301834;-2.2019806;-;-;-;-;-;-;-;-;-;-;-;-;-;-;-
1514190453246;-;-;5.5203247;-2.9446716;-3.2111359;-;-;-;-;-;-;-;-;-;-;-;-;-;-;-
1514190453266;-;-;5.150421;-1.8206024;-3.8336334;-;-;-;-;-;-;-;-;-;-;-;-;-;-;-
1514190453287;-;-;4.2071075;0.55804443;-3.8779297;-;-;-;-;-;-;-;-;-;-;-;-;-;-;-
1514190453307;-;-;4.386673;2.6649323;-4.210724;-;-;-;-;-;-;-;-;-;-;-;-;-;-;-
1514190453327;-;-;5.802841;3.1832886;-4.239441;-;-;-;-;-;-;-;-;-;-;-;-;-;-;-
1514190453348;-;-;7.6978455;1.7563324;-4.2454376;-;-;-;-;-;-;-;-;-;-;-;-;-;-;-
1514190453368;-;-;9.019455;0.095962524;-4.2298737;-;-;-;-;-;-;-;-;-;-;-;-;-;-;-
1514190453388;-;-;8.447235;-0.70370483;-3.6552582;-;-;-;-;-;-;-;-;-;-;-;-;-;-;-
1514190453409;-;-;7.344696;-0.050079346;-3.072281;-;-;-;-;-;-;-;-;-;-;-;-;-;-;-
1514190453429;-;-;7.075363;1.2284241;-2.689209;-;-;-;-;-;-;-;-;-;-;-;-;-;-;-
1514190453449;-;-;7.4261017;1.8724518;-2.6473083;-;-;-;-;-;-;-;-;-;-;-;-;-;-;-
1514190453469;-;-;7.810379;1.9526672;-2.6532898;-;-;-;-;-;-;-;-;-;-;-;-;-;-;-
1514190453490;-;-;8.42569;1.3900299;-2.65448;-;-;-;-;-;-;-;-;-;-;-;-;-;-;-
1514190453510;-;-;9.999878;1.0763855;-2.9178467;-;-;-;-;-;-;-;-;-;-;-;-;-;-;-
1514190453530;-;-;11.471115;1.6054993;-3.298523;-;-;-;-;-;-;-;-;-;-;-;-;-;-;-
1514190453551;-;-;12.632294;2.157364;-3.8731384;-;-;-;-;-;-;-;-;-;-;-;-;-;-;-
1514190453571;-;-;12.639481;2.5440369;-6.17276;-;-;-;-;-;-;-;-;-;-;-;-;-;-;-
1514190453591;-;-;12.440765;3.1605377;-4.5171814;-;-;-;-;-;-;-;-;-;-;-;-;-;-;-
1514190453612;-;-;13.09198;2.1166687;-2.6078033;-;-;-;-;-;-;-;-;-;-;-;-;-;-;-
1514190453631;-;-;11.703354;1.3732605;-5.1264954;-;-;-;-;-;-;-;-;-;-;-;-;-;-;-
1514190453651;-;-;8.279633;2.4470673;-7.00235;-;-;-;-;-;-;-;-;-;-;-;-;-;-;-
1514190453672;-;-;7.384201;2.3728485;-5.874695;-;-;-;-;-;-;-;-;-;-;-;-;-;-;-
1514190453691;-;-;6.123657;0.36889648;-5.3790894;-;-;-;-;-;-;-;-;-;-;-;-;-;-;-
1514190453711;-;-;7.118454;-1.7846832;-6.080597;-;-;-;-;-;-;-;-;-;-;-;-;-;-;-
1514190453732;-;-;7.909729;-1.6518097;-5.0594635;-;-;-;-;-;-;-;-;-;-;-;-;-;-;-
1514190453752;-;-;7.1711273;-0.5959625;-3.5762482;-;-;-;-;-;-;-;-;-;-;-;-;-;-;-
1514190453772;-;-;6.3499146;-0.25120544;-3.1895905;-;-;-;-;-;-;-;-;-;-;-;-;-;-;-
1514190453792;-;-;6.5270844;-0.66539;-3.0052338;-;-;-;-;-;-;-;-;-;-;-;-;-;-;-
1514190453813;-;-;6.8431244;-1.3357697;-3.0674896;-;-;-;-;-;-;-;-;-;-;-;-;-;-;-
1514190453833;-;-;6.8119965;-1.9702301;-3.2398682;-;-;-;-;-;-;-;-;-;-;-;-;-;-;-
1514190453853;-;-;6.624054;-2.4694214;-3.0363617;-;-;-;-;-;-;-;-;-;-;-;-;-;-;-
1514190453874;-;-;6.2002716;-2.5843506;-2.7143402;-;-;-;-;-;-;-;-;-;-;-;-;-;-;-
1514190453894;-;-;6.545044;-2.3521118;-2.6413116;-;-;-;-;-;-;-;-;-;-;-;-;-;-;-
1514190453914;-;-;6.9664154;-1.759552;-2.9166565;-;-;-;-;-;-;-;-;-;-;-;-;-;-;-
1514190453935;-;-;6.494766;-0.7958832;-3.1536713;-;-;-;-;-;-;-;-;-;-;-;-;-;-;-
1514190453955;-;-;6.3535004;-0.6246948;-2.757431;-;-;-;-;-;-;-;-;-;-;-;-;-;-;-
1514190453975;-;-;6.3343506;-0.9934082;-2.9801025;-;-;-;-;-;-;-;-;-;-;-;-;-;-;-
1514190453996;-;-;6.5582123;-1.7703247;-3.0543213;-;-;-;-;-;-;-;-;-;-;-;-;-;-;-
1514190454016;-;-;7.114853;-2.511322;-3.0136108;-;-;-;-;-;-;-;-;-;-;-;-;-;-;-
1514190454037;-;-;8.259293;-3.0739594;-3.0519257;-;-;-;-;-;-;-;-;-;-;-;-;-;-;-
1514190454057;-;-;9.467163;-3.100296;-2.5323792;-;-;-;-;-;-;-;-;-;-;-;-;-;-;-
1514190454077;-;-;10.730103;-3.0619965;-2.3923187;-;-;-;-;-;-;-;-;-;-;-;-;-;-;-
1514190454097;-;-;11.201767;-3.4893646;-3.231491;-;-;-;-;-;-;-;-;-;-;-;-;-;-;-
1514190454118;-;-;12.289932;-3.2702942;-2.860382;-;-;-;-;-;-;-;-;-;-;-;-;-;-;-
1514190454138;-;-;12.798691;-3.148178;-2.781372;-;-;-;-;-;-;-;-;-;-;-;-;-;-;-
1514190454158;-;-;11.825455;-3.515686;-3.0231934;-;-;-;-;-;-;-;-;-;-;-;-;-;-;-
1514190454178;-;-;11.091629;-3.8891907;-5.1935425;-;-;-;-;-;-;-;-;-;-;-;-;-;-;-
1514190454199;-;-;11.286758;-4.625412;-8.180298;-;-;-;-;-;-;-;-;-;-;-;-;-;-;-
1514190454219;-;-;12.342606;-3.2056427;-3.4792938;-;-;-;-;-;-;-;-;-;-;-;-;-;-;-
1514190454239;-;-;12.954315;-2.8177795;-1.7542725;-;-;-;-;-;-;-;-;-;-;-;-;-;-;-
1514190454260;-;-;8.527435;-2.222824;-9.920883;-;-;-;-;-;-;-;-;-;-;-;-;-;-;-
1514190454280;-;-;3.3499756;-0.8701019;-12.471909;-;-;-;-;-;-;-;-;-;-;-;-;-;-;-
1514190454300;-;-;4.719467;1.4678345;-5.503586;-;-;-;-;-;-;-;-;-;-;-;-;-;-;-
1514190454321;-;-;5.9824066;1.4187622;-2.8867188;-;-;-;-;-;-;-;-;-;-;-;-;-;-;-
1514190454341;-;-;6.3223724;-0.44992065;-3.111786;-;-;-;-;-;-;-;-;-;-;-;-;-;-;-
1514190454361;-;-;7.3028107;-1.4267578;-2.6784363;-;-;-;-;-;-;-;-;-;-;-;-;-;-;-
1514190454382;-;-;7.581726;-2.2862701;-2.132553;-;-;-;-;-;-;-;-;-;-;-;-;-;-;-
1514190454401;-;-;6.956848;-2.973404;-2.8256683;-;-;-;-;-;-;-;-;-;-;-;-;-;-;-
1514190454421;-;-;6.683899;-2.4335175;-3.3248596;-;-;-;-;-;-;-;-;-;-;-;-;-;-;-
1514190454442;-;-;5.4437103;0.51374817;-4.061081;-;-;-;-;-;-;-;-;-;-;-;-;-;-;-
1514190454462;-;-;4.3387756;2.8708344;-4.393875;-;-;-;-;-;-;-;-;-;-;-;-;-;-;-
1514190454482;-;-;4.3387756;3.7219849;-4.131714;-;-;-;-;-;-;-;-;-;-;-;-;-;-;-
1514190454502;-;-;5.7333984;2.7882385;-3.8312378;-;-;-;-;-;-;-;-;-;-;-;-;-;-;-
1514190454523;-;-;7.6583405;1.0117493;-3.6420898;-;-;-;-;-;-;-;-;-;-;-;-;-;-;-
1514190454543;-;-;9.084091;-0.43675232;-3.322464;-;-;-;-;-;-;-;-;-;-;-;-;-;-;-
1514190454563;-;-;8.499908;-0.80784607;-3.3943024;-;-;-;-;-;-;-;-;-;-;-;-;-;-;-
1514190454583;-;-;7.451248;0.2922821;-3.0866394;-;-;-;-;-;-;-;-;-;-;-;-;-;-;-
1514190454604;-;-;7.6415863;1.5312805;-3.2733917;-;-;-;-;-;-;-;-;-;-;-;-;-;-;-
1514190454623;-;-;8.077332;2.2830658;-3.614563;-;-;-;-;-;-;-;-;-;-;-;-;-;-;-
1514190454643;-;-;8.633987;2.450653;-3.136917;-;-;-;-;-;-;-;-;-;-;-;-;-;-;-
1514190454663;-;-;8.876999;1.7228241;-2.79216;-;-;-;-;-;-;-;-;-;-;-;-;-;-;-
1514190454684;-;-;9.993881;1.4510803;-3.1081848;-;-;-;-;-;-;-;-;-;-;-;-;-;-;-
1514190454704;-;-;10.673843;1.9382935;-3.480484;-;-;-;-;-;-;-;-;-;-;-;-;-;-;-
1514190454724;-;-;11.149094;2.3129883;-3.361969;-;-;-;-;-;-;-;-;-;-;-;-;-;-;-
1514190454744;-;-;11.577652;1.6390228;-2.7705994;-;-;-;-;-;-;-;-;-;-;-;-;-;-;-
1514190454764;-;-;11.1215515;0.76034546;-3.144104;-;-;-;-;-;-;-;-;-;-;-;-;-;-;-
1514190454785;-;-;11.465118;0.088775635;-5.563446;-;-;-;-;-;-;-;-;-;-;-;-;-;-;-
1514190454804;-;-;12.720886;1.6234589;-5.923767;-;-;-;-;-;-;-;-;-;-;-;-;-;-;-
1514190454824;-;-;12.912415;3.2096252;-4.68956;-;-;-;-;-;-;-;-;-;-;-;-;-;-;-
1514190454845;-;-;9.832275;5.346451;-7.527878;-;-;-;-;-;-;-;-;-;-;-;-;-;-;-
1514190454864;-;-;7.624832;4.073929;-7.0083466;-;-;-;-;-;-;-;-;-;-;-;-;-;-;-
1514190454884;-;-;4.656021;2.1154633;-5.6173096;-;-;-;-;-;-;-;-;-;-;-;-;-;-;-
1514190454904;-;-;5.4006042;-2.1701508;-4.100586;-;-;-;-;-;-;-;-;-;-;-;-;-;-;-
1514190454925;-;-;6.6587677;-3.5288544;-3.8288422;-;-;-;-;-;-;-;-;-;-;-;-;-;-;-
1514190454945;-;-;7.6068726;-2.451477;-3.1321259;-;-;-;-;-;-;-;-;-;-;-;-;-;-;-
1514190454965;-;-;7.5781403;-0.6713867;-2.9657288;-;-;-;-;-;-;-;-;-;-;-;-;-;-;-
1514190454986;-;-;7.3626556;0.50057983;-3.504425;-;-;-;-;-;-;-;-;-;-;-;-;-;-;-
1514190455005;-;-;6.695877;0.80584717;-4.03833;-;-;-;-;-;-;-;-;-;-;-;-;-;-;-
1514190455025;-;-;5.1204834;0.057647705;-3.5882263;-;-;-;-;-;-;-;-;-;-;-;-;-;-;-
1514190455045;-;-;4.0059814;-0.71687317;-3.3571777;-;-;-;-;-;-;-;-;-;-;-;-;-;-;-
1514190455067;-;-;4.117325;-1.8409424;-3.638504;-;-;-;-;-;-;-;-;-;-;-;-;-;-;-
1514190455087;-;-;5.3251953;-3.1817017;-3.338028;-;-;-;-;-;-;-;-;-;-;-;-;-;-;-
1514190455107;-;-;6.1284485;-2.7303925;-3.6109772;-;-;-;-;-;-;-;-;-;-;-;-;-;-;-
1514190455128;-;-;7.9671936;-1.7727203;-4.013199;-;-;-;-;-;-;-;-;-;-;-;-;-;-;-
1514190455148;-;-;8.463989;-0.76356506;-3.3033142;-;-;-;-;-;-;-;-;-;-;-;-;-;-;-
1514190455168;-;-;7.399765;-0.02015686;-2.8352509;-;-;-;-;-;-;-;-;-;-;-;-;-;-;-
1514190455189;-;-;7.6380005;-0.43077087;-2.9034882;-;-;-;-;-;-;-;-;-;-;-;-;-;-;-
1514190455209;-;-;8.519058;-1.7176514;-3.3990784;-;-;-;-;-;-;-;-;-;-;-;-;-;-;-
1514190455229;-;-;9.205002;-2.6310425;-2.7634277;-;-;-;-;-;-;-;-;-;-;-;-;-;-;-
1514190455250;-;-;9.984314;-2.7220154;-2.6916046;-;-;-;-;-;-;-;-;-;-;-;-;-;-;-
1514190455271;-;-;10.393723;-2.597519;-3.2326813;-;-;-;-;-;-;-;-;-;-;-;-;-;-;-
1514190455291;-;-;10.394913;-2.6094818;-3.6839905;-;-;-;-;-;-;-;-;-;-;-;-;-;-;-
1514190455312;-;-;10.980301;-2.795044;-4.2250824;-;-;-;-;-;-;-;-;-;-;-;-;-;-;-
1514190455332;-;-;11.813477;-2.9686127;-4.2969055;-;-;-;-;-;-;-;-;-;-;-;-;-;-;-
1514190455352;-;-;12.704117;-2.5927277;-3.8132782;-;-;-;-;-;-;-;-;-;-;-;-;-;-;-
1514190455372;-;-;12.045715;-3.0033417;-5.6735687;-;-;-;-;-;-;-;-;-;-;-;-;-;-;-
1514190455393;-;-;12.386887;-2.897995;-5.5466766;-;-;-;-;-;-;-;-;-;-;-;-;-;-;-
1514190455413;-;-;12.160645;-2.5963135;-3.4852753;-;-;-;-;-;-;-;-;-;-;-;-;-;-;-
1514190455433;-;-;10.4882965;-2.660965;-4.764969;-;-;-;-;-;-;-;-;-;-;-;-;-;-;-
1514190455454;-;-;8.550186;-2.574768;-6.650406;-;-;-;-;-;-;-;-;-;-;-;-;-;-;-
1514190455474;-;-;5.5861664;-1.8289795;-8.103683;-;-;-;-;-;-;-;-;-;-;-;-;-;-;-
1514190455494;-;-;5.48201;-0.85095215;-7.780472;-;-;-;-;-;-;-;-;-;-;-;-;-;-;-
1514190455515;-;-;7.2022552;-0.4487152;-5.148041;-;-;-;-;-;-;-;-;-;-;-;-;-;-;-
1514190455535;-;-;7.985153;-0.73483276;-4.3316193;-;-;-;-;-;-;-;-;-;-;-;-;-;-;-
1514190455555;-;-;8.212601;-0.5672302;-3.5798492;-;-;-;-;-;-;-;-;-;-;-;-;-;-;-
1514190455575;-;-;7.6236267;-0.5923767;-2.3252869;-;-;-;-;-;-;-;-;-;-;-;-;-;-;-
1514190455596;-;-;6.8407288;-1.467453;-2.9681244;-;-;-;-;-;-;-;-;-;-;-;-;-;-;-
1514190455616;-;-;5.941696;-1.7667236;-3.5247803;-;-;-;-;-;-;-;-;-;-;-;-;-;-;-
1514190455636;-;-;4.96846;-0.7851105;-4.089813;-;-;-;-;-;-;-;-;-;-;-;-;-;-;-
1514190455657;-;-;3.773758;1.3110199;-4.349579;-;-;-;-;-;-;-;-;-;-;-;-;-;-;-
1514190455677;-;-;4.032318;3.1748962;-4.1975555;-;-;-;-;-;-;-;-;-;-;-;-;-;-;-
1514190455697;-;-;5.233017;2.87323;-3.9653168;-;-;-;-;-;-;-;-;-;-;-;-;-;-;-
1514190455718;-;-;6.774887;1.3948212;-3.7665863;-;-;-;-;-;-;-;-;-;-;-;-;-;-;-
1514190455738;-;-;7.9504395;0.0061798096;-3.429016;-;-;-;-;-;-;-;-;-;-;-;-;-;-;-
1514190455758;-;-;7.6906586;-0.6917267;-3.44458;-;-;-;-;-;-;-;-;-;-;-;-;-;-;-
1514190455779;-;-;7.145981;-0.4882202;-3.2159271;-;-;-;-;-;-;-;-;-;-;-;-;-;-;-
1514190455799;-;-;7.1926727;0.5640259;-2.7299042;-;-;-;-;-;-;-;-;-;-;-;-;-;-;-
1514190455819;-;-;7.556595;1.7814789;-2.6796265;-;-;-;-;-;-;-;-;-;-;-;-;-;-;-
1514190455840;-;-;8.378998;2.5021362;-2.8651733;-;-;-;-;-;-;-;-;-;-;-;-;-;-;-
1514190455861;-;-;8.758484;2.3261566;-2.5970306;-;-;-;-;-;-;-;-;-;-;-;-;-;-;-
1514190455881;-;-;9.383362;1.8616791;-2.460556;-;-;-;-;-;-;-;-;-;-;-;-;-;-;-
1514190455901;-;-;9.444412;1.7599335;-2.934616;-;-;-;-;-;-;-;-;-;-;-;-;-;-;-
1514190455922;-;-;9.489914;1.8066101;-2.6604767;-;-;-;-;-;-;-;-;-;-;-;-;-;-;-
1514190455942;-;-;9.527023;1.750351;-1.8619995;-;-;-;-;-;-;-;-;-;-;-;-;-;-;-
1514190455962;-;-;10.436813;1.7120514;-1.3915405;-;-;-;-;-;-;-;-;-;-;-;-;-;-;-
1514190455982;-;-;10.749252;1.9071808;-5.3479614;-;-;-;-;-;-;-;-;-;-;-;-;-;-;-
1514190456003;-;-;12.944748;3.541214;-4.3292236;-;-;-;-;-;-;-;-;-;-;-;-;-;-;-
1514190456023;-;-;15.162964;4.0918884;-3.5882263;-;-;-;-;-;-;-;-;-;-;-;-;-;-;-
1514190456043;-;-;13.622299;3.7614899;-5.9728546;-;-;-;-;-;-;-;-;-;-;-;-;-;-;-
1514190456063;-;-;10.449982;2.521286;-6.09375;-;-;-;-;-;-;-;-;-;-;-;-;-;-;-
1514190456083;-;-;6.5246887;0.78907776;-6.4121857;-;-;-;-;-;-;-;-;-;-;-;-;-;-;-
1514190456104;-;-;5.5203247;-0.6725769;-5.795685;-;-;-;-;-;-;-;-;-;-;-;-;-;-;-
1514190456124;-;-;5.972824;-1.827774;-5.5047913;-;-;-;-;-;-;-;-;-;-;-;-;-;-;-
1514190456144;-;-;8.666306;-1.2328186;-5.5382996;-;-;-;-;-;-;-;-;-;-;-;-;-;-;-
1514190456165;-;-;10.045364;0.76753235;-5.7465973;-;-;-;-;-;-;-;-;-;-;-;-;-;-;-
1514190456185;-;-;9.182251;1.6222687;-4.785324;-;-;-;-;-;-;-;-;-;-;-;-;-;-;-
1514190456205;-;-;7.8546753;1.169754;-4.0826263;-;-;-;-;-;-;-;-;-;-;-;-;-;-;-
1514190456225;-;-;6.0638123;0.33537292;-3.1381226;-;-;-;-;-;-;-;-;-;-;-;-;-;-;-
1514190456245;-;-;4.897827;-0.45710754;-2.4234467;-;-;-;-;-;-;-;-;-;-;-;-;-;-;-
1514190456266;-;-;4.920578;-1.5177307;-2.2726135;-;-;-;-;-;-;-;-;-;-;-;-;-;-;-
1514190456285;-;-;4.9038086;-2.2994385;-2.294159;-;-;-;-;-;-;-;-;-;-;-;-;-;-;-
1514190456305;-;-;4.9038086;-2.9841766;-2.3947144;-;-;-;-;-;-;-;-;-;-;-;-;-;-;-
1514190456325;-;-;5.0809784;-2.696869;-2.350418;-;-;-;-;-;-;-;-;-;-;-;-;-;-;-
1514190456346;-;-;5.715454;-1.922348;-2.3851318;-;-;-;-;-;-;-;-;-;-;-;-;-;-;-
1514190456367;-;-;6.94487;-1.1095276;-2.3288727;-;-;-;-;-;-;-;-;-;-;-;-;-;-;-
1514190456387;-;-;7.379425;-1.170578;-2.6413116;-;-;-;-;-;-;-;-;-;-;-;-;-;-;-
1514190456408;-;-;7.8594513;-1.9271393;-2.4306335;-;-;-;-;-;-;-;-;-;-;-;-;-;-;-
1514190456427;-;-;8.319138;-2.7052612;-2.1947937;-;-;-;-;-;-;-;-;-;-;-;-;-;-;-
1514190456447;-;-;8.711792;-3.1613464;-1.9912872;-;-;-;-;-;-;-;-;-;-;-;-;-;-;-
1514190456467;-;-;8.732147;-3.570755;-1.9936829;-;-;-;-;-;-;-;-;-;-;-;-;-;-;-
1514190456488;-;-;7.511093;-3.3169708;-1.887146;-;-;-;-;-;-;-;-;-;-;-;-;-;-;-
1514190456508;-;-;6.695877;-3.1338196;-1.8751678;-;-;-;-;-;-;-;-;-;-;-;-;-;-;-
1514190456528;-;-;6.517502;-3.3014069;-2.223526;-;-;-;-;-;-;-;-;-;-;-;-;-;-;-
1514190456549;-;-;7.1711273;-3.143402;-2.860382;-;-;-;-;-;-;-;-;-;-;-;-;-;-;-
1514190456569;-;-;8.729752;-2.6082916;-2.9190521;-;-;-;-;-;-;-;-;-;-;-;-;-;-;-
1514190456589;-;-;10.092056;-2.0660095;-3.270996;-;-;-;-;-;-;-;-;-;-;-;-;-;-;-
1514190456609;-;-;10.4930725;-1.562027;-3.401474;-;-;-;-;-;-;-;-;-;-;-;-;-;-;-
1514190456630;-;-;9.764038;-1.6985016;-3.4996338;-;-;-;-;-;-;-;-;-;-;-;-;-;-;-
1514190456650;-;-;9.333084;-2.1761322;-3.1644592;-;-;-;-;-;-;-;-;-;-;-;-;-;-;-
1514190456670;-;-;9.165497;-2.1210785;-3.0303802;-;-;-;-;-;-;-;-;-;-;-;-;-;-;-
1514190456691;-;-;10.211761;-1.2483826;-3.2015686;-;-;-;-;-;-;-;-;-;-;-;-;-;-;-
1514190456711;-;-;11.387314;-0.86172485;-4.8858795;-;-;-;-;-;-;-;-;-;-;-;-;-;-;-
1514190456731;-;-;14.262756;-1.1382446;-4.69075;-;-;-;-;-;-;-;-;-;-;-;-;-;-;-
1514190456752;-;-;13.696518;-4.388382;-4.6249084;-;-;-;-;-;-;-;-;-;-;-;-;-;-;-
1514190456772;-;-;15.148605;-7.6313324;-6.1224823;-;-;-;-;-;-;-;-;-;-;-;-;-;-;-
1514190456792;-;-;13.313446;-5.270645;-4.4393616;-;-;-;-;-;-;-;-;-;-;-;-;-;-;-
1514190456812;-;-;9.882553;-3.9849548;-5.6711884;-;-;-;-;-;-;-;-;-;-;-;-;-;-;-
1514190456833;-;-;7.569763;-2.3521118;-6.682724;-;-;-;-;-;-;-;-;-;-;-;-;-;-;-
1514190456853;-;-;5.6735535;-1.3537292;-7.1699524;-;-;-;-;-;-;-;-;-;-;-;-;-;-;-
1514190456873;-;-;6.438492;-1.4470978;-5.8507385;-;-;-;-;-;-;-;-;-;-;-;-;-;-;-
1514190456893;-;-;7.557785;-1.779892;-5.0187683;-;-;-;-;-;-;-;-;-;-;-;-;-;-;-
1514190456914;-;-;7.7301636;-1.6577911;-5.488022;-;-;-;-;-;-;-;-;-;-;-;-;-;-;-
1514190456934;-;-;6.70784;-0.917984;-4.773361;-;-;-;-;-;-;-;-;-;-;-;-;-;-;-
1514190456954;-;-;6.2433777;-0.88327026;-4.1101685;-;-;-;-;-;-;-;-;-;-;-;-;-;-;-
1514190456974;-;-;5.981201;-0.91200256;-3.389511;-;-;-;-;-;-;-;-;-;-;-;-;-;-;-
1514190456994;-;-;5.8160095;-0.783905;-3.0363617;-;-;-;-;-;-;-;-;-;-;-;-;-;-;-
1514190457015;-;-;5.5035553;-0.4152069;-3.6337128;-;-;-;-;-;-;-;-;-;-;-;-;-;-;-
1514190457035;-;-;5.4832153;0.08998108;-4.6644135;-;-;-;-;-;-;-;-;-;-;-;-;-;-;-
1514190457055;-;-;5.648407;0.8345642;-4.7661743;-;-;-;-;-;-;-;-;-;-;-;-;-;-;-
1514190457076;-;-;5.860306;1.2284241;-4.5506897;-;-;-;-;-;-;-;-;-;-;-;-;-;-;-
1514190457096;-;-;6.2146454;1.4151611;-4.3842926;-;-;-;-;-;-;-;-;-;-;-;-;-;-;-
1514190457117;-;-;6.2828674;1.4271393;-4.2849426;-;-;-;-;-;-;-;-;-;-;-;-;-;-;-
1514190457136;-;-;6.1404266;1.0045624;-4.302902;-;-;-;-;-;-;-;-;-;-;-;-;-;-;-
1514190457157;-;-;6.7006683;0.3617096;-4.0084076;-;-;-;-;-;-;-;-;-;-;-;-;-;-;-
1514190457177;-;-;7.332733;-0.030929565;-3.753418;-;-;-;-;-;-;-;-;-;-;-;-;-;-;-
1514190457197;-;-;7.2046356;0.17855835;-3.7127228;-;-;-;-;-;-;-;-;-;-;-;-;-;-;-
1514190457218;-;-;6.60968;0.89801025;-3.1871948;-;-;-;-;-;-;-;-;-;-;-;-;-;-;-
1514190457237;-;-;6.5282745;1.5683899;-2.728714;-;-;-;-;-;-;-;-;-;-;-;-;-;-;-
1514190457257;-;-;6.9628296;1.8784485;-2.547943;-;-;-;-;-;-;-;-;-;-;-;-;-;-;-
1514190457277;-;-;7.494339;1.7276154;-2.483307;-;-;-;-;-;-;-;-;-;-;-;-;-;-;-
1514190457298;-;-;7.9432526;1.2284241;-2.096634;-;-;-;-;-;-;-;-;-;-;-;-;-;-;-
1514190457318;-;-;8.335907;0.5281067;-2.0116425;-;-;-;-;-;-;-;-;-;-;-;-;-;-;-
1514190457338;-;-;8.675873;-0.0021972656;-1.8739777;-;-;-;-;-;-;-;-;-;-;-;-;-;-;-
1514190457359;-;-;9.206192;-0.1817627;-1.2778168;-;-;-;-;-;-;-;-;-;-;-;-;-;-;-
1514190457379;-;-;9.421677;-0.67736816;-0.6900482;-;-;-;-;-;-;-;-;-;-;-;-;-;-;-
1514190457399;-;-;10.855804;-1.9367218;-1.3316956;-;-;-;-;-;-;-;-;-;-;-;-;-;-;-
1514190457420;-;-;12.1414795;-0.92277527;-1.9218597;-;-;-;-;-;-;-;-;-;-;-;-;-;-;-
1514190457440;-;-;10.809113;2.545227;-7.5542145;-;-;-;-;-;-;-;-;-;-;-;-;-;-;-
1514190457460;-;-;10.283585;5.4170685;-9.00032;-;-;-;-;-;-;-;-;-;-;-;-;-;-;-
1514190457481;-;-;12.577225;5.937805;-6.5570374;-;-;-;-;-;-;-;-;-;-;-;-;-;-;-
1514190457502;-;-;10.465546;3.7890167;-6.4900055;-;-;-;-;-;-;-;-;-;-;-;-;-;-;-
1514190457522;-;-;8.659119;0.25038147;-7.093338;-;-;-;-;-;-;-;-;-;-;-;-;-;-;-
1514190457542;-;-;6.580948;-1.9510803;-5.978836;-;-;-;-;-;-;-;-;-;-;-;-;-;-;-
1514190457562;-;-;4.3100586;-2.5639954;-3.757019;-;-;-;-;-;-;-;-;-;-;-;-;-;-;-
1514190457583;-;-;5.820801;-2.3461304;-3.6684265;-;-;-;-;-;-;-;-;-;-;-;-;-;-;-
1514190457602;-;-;7.8438873;-0.7707367;-4.1987457;-;-;-;-;-;-;-;-;-;-;-;-;-;-;-
1514190457622;-;-;9.266052;1.2475739;-5.452118;-;-;-;-;-;-;-;-;-;-;-;-;-;-;-
1514190457642;-;-;9.719757;2.418335;-4.92778;-;-;-;-;-;-;-;-;-;-;-;-;-;-;-
1514190457663;-;-;9.227737;0.61550903;-4.1269226;-;-;-;-;-;-;-;-;-;-;-;-;-;-;-
1514190457682;-;-;8.957199;-0.9251709;-4.7398376;-;-;-;-;-;-;-;-;-;-;-;-;-;-;-
1514190457702;-;-;7.2261963;-1.0005798;-5.1384735;-;-;-;-;-;-;-;-;-;-;-;-;-;-;-
1514190457723;-;-;5.4245605;-0.6833496;-5.132492;-;-;-;-;-;-;-;-;-;-;-;-;-;-;-
1514190457744;-;-;5.5382843;-0.21170044;-4.828415;-;-;-;-;-;-;-;-;-;-;-;-;-;-;-
1514190457764;-;-;8.282028;-0.5169525;-4.879898;-;-;-;-;-;-;-;-;-;-;-;-;-;-;-
1514190457784;-;-;8.635178;-0.41281128;-5.5778046;-;-;-;-;-;-;-;-;-;-;-;-;-;-;-
1514190457804;-;-;7.8319244;-0.23324585;-4.5447083;-;-;-;-;-;-;-;-;-;-;-;-;-;-;-
1514190457825;-;-;6.8239594;-0.6127167;-4.1592407;-;-;-;-;-;-;-;-;-;-;-;-;-;-;-
1514190457846;-;-;7.1052856;-1.8098297;-4.1580505;-;-;-;-;-;-;-;-;-;-;-;-;-;-;-
1514190457866;-;-;8.050995;-2.8309479;-3.7498322;-;-;-;-;-;-;-;-;-;-;-;-;-;-;-
1514190457887;-;-;9.146347;-3.3816223;-2.931015;-;-;-;-;-;-;-;-;-;-;-;-;-;-;-
1514190457907;-;-;9.25528;-3.360077;-2.9765015;-;-;-;-;-;-;-;-;-;-;-;-;-;-;-
1514190457927;-;-;8.124023;-3.384018;-2.2342987;-;-;-;-;-;-;-;-;-;-;-;-;-;-;-
1514190457948;-;-;6.924515;-3.5001373;-1.9553833;-;-;-;-;-;-;-;-;-;-;-;-;-;-;-
1514190457968;-;-;6.8371277;-3.0619965;-1.7327118;-;-;-;-;-;-;-;-;-;-;-;-;-;-;-
1514190457988;-;-;8.089294;-2.3592987;-1.697998;-;-;-;-;-;-;-;-;-;-;-;-;-;-;-
1514190458009;-;-;9.222961;-2.0217133;-2.4797058;-;-;-;-;-;-;-;-;-;-;-;-;-;-;-
1514190458029;-;-;9.9591675;-1.6278687;-2.491684;-;-;-;-;-;-;-;-;-;-;-;-;-;-;-
1514190458049;-;-;10.217743;-1.3597107;-2.6353302;-;-;-;-;-;-;-;-;-;-;-;-;-;-;-
1514190458069;-;-;10.163879;-0.85453796;-2.5754852;-;-;-;-;-;-;-;-;-;-;-;-;-;-;-
1514190458089;-;-;10.634338;0.1845398;-2.2091675;-;-;-;-;-;-;-;-;-;-;-;-;-;-;-
1514190458110;-;-;9.778412;0.70648193;-2.8687744;-;-;-;-;-;-;-;-;-;-;-;-;-;-;-
1514190458130;-;-;8.065353;1.125473;-6.871872;-;-;-;-;-;-;-;-;-;-;-;-;-;-;-
1514190458151;-;-;6.285263;1.695282;-8.766876;-;-;-;-;-;-;-;-;-;-;-;-;-;-;-
1514190458171;-;-;5.592148;0.34376526;-5.3922577;-;-;-;-;-;-;-;-;-;-;-;-;-;-;-
1514190458191;-;-;7.031067;-1.9642487;-4.420212;-;-;-;-;-;-;-;-;-;-;-;-;-;-;-
1514190458211;-;-;9.212173;-3.6162567;-6.463669;-;-;-;-;-;-;-;-;-;-;-;-;-;-;-
1514190458232;-;-;12.668213;-3.658142;-5.5921783;-;-;-;-;-;-;-;-;-;-;-;-;-;-;-
1514190458252;-;-;13.42598;-1.9367218;-5.5179596;-;-;-;-;-;-;-;-;-;-;-;-;-;-;-
1514190458272;-;-;12.177399;0.43234253;-5.9944;-;-;-;-;-;-;-;-;-;-;-;-;-;-;-
1514190458293;-;-;10.039383;2.1011047;-4.796097;-;-;-;-;-;-;-;-;-;-;-;-;-;-;-
1514190458313;-;-;7.9276886;2.1741333;-4.536331;-;-;-;-;-;-;-;-;-;-;-;-;-;-;-
1514190458333;-;-;6.549835;1.6893005;-4.5052032;-;-;-;-;-;-;-;-;-;-;-;-;-;-;-
1514190458354;-;-;5.090561;1.406784;-3.725891;-;-;-;-;-;-;-;-;-;-;-;-;-;-;-
1514190458373;-;-;4.47406;0.61909485;-3.231491;-;-;-;-;-;-;-;-;-;-;-;-;-;-;-
1514190458393;-;-;5.3299866;0.013366699;-2.8974915;-;-;-;-;-;-;-;-;-;-;-;-;-;-;-
1514190458414;-;-;7.861847;-0.29548645;-2.4533691;-;-;-;-;-;-;-;-;-;-;-;-;-;-;-
1514190458434;-;-;9.895721;-0.45710754;-2.1313477;-;-;-;-;-;-;-;-;-;-;-;-;-;-;-
1514190458454;-;-;10.033386;-0.4056244;-2.231903;-;-;-;-;-;-;-;-;-;-;-;-;-;-;-
