TimeStamp[ms];Prox[Cm];Lux[lux];AccX[m/s^2];AccY[m/s^2];AccZ[m/s^2];GyroX[rad/s];GyroY[rad/s];GyroZ[rad/s];MagnX[uT];MagnY[uT];MagnZ[uT];OrienYaw[degrees];OrienPitch[degrees];OrienRoll[degrees];Press[Pa];Temp[C°];Batt[%];Lat;Lng;Speed[m/s]
1514001784060;-;-;7.67511;-1.146637;3.4184113;-;-;-;-;-;-;-;-;-;-;-;-;-;-;-
1514001784061;-;-;7.67511;-1.146637;3.4184113;-;-;-;-;-;-;-;-;-;-;-;-;-;-;-
1514001784064;-;-;7.6415863;-1.2352142;3.0532837;-;-;-;-;-;-;-;-;-;-;-;-;-;-;-
1514001784085;-;-;8.273651;-1.2005005;3.0054016;-;-;-;-;-;-;-;-;-;-;-;-;-;-;-
1514001784106;-;-;9.082901;-1.0269165;3.7523956;-;-;-;-;-;-;-;-;-;-;-;-;-;-;-
1514001784126;-;-;8.831497;-0.8892517;4.1151123;-;-;-;-;-;-;-;-;-;-;-;-;-;-;-
1514001784147;-;-;8.881775;-0.61750793;4.033722;-;-;-;-;-;-;-;-;-;-;-;-;-;-;-
1514001784167;-;-;8.696228;-0.46788025;2.9599152;-;-;-;-;-;-;-;-;-;-;-;-;-;-;-
1514001784187;-;-;8.905716;-0.4547119;3.0281525;-;-;-;-;-;-;-;-;-;-;-;-;-;-;-
1514001784208;-;-;8.993118;-0.56843567;3.046112;-;-;-;-;-;-;-;-;-;-;-;-;-;-;-
1514001784228;-;-;8.960785;-0.46188354;2.2488403;-;-;-;-;-;-;-;-;-;-;-;-;-;-;-
1514001784249;-;-;8.139572;-0.6582184;1.9782867;-;-;-;-;-;-;-;-;-;-;-;-;-;-;-
1514001784269;-;-;8.206619;-0.9562988;1.6969757;-;-;-;-;-;-;-;-;-;-;-;-;-;-;-
1514001784302;-;-;8.107254;-0.5253296;1.3067169;-;-;-;-;-;-;-;-;-;-;-;-;-;-;-
1514001784310;-;-;8.2114105;-0.3972473;0.80992126;-;-;-;-;-;-;-;-;-;-;-;-;-;-;-
1514001784330;-;-;8.928467;-0.2966919;0.73091125;-;-;-;-;-;-;-;-;-;-;-;-;-;-;-
1514001784351;-;-;9.378571;-0.23085022;0.36819458;-;-;-;-;-;-;-;-;-;-;-;-;-;-;-
1514001784371;-;-;9.457581;-0.08480835;-0.22198486;-;-;-;-;-;-;-;-;-;-;-;-;-;-;-
1514001784391;-;-;9.762848;-0.038116455;-0.2004242;-;-;-;-;-;-;-;-;-;-;-;-;-;-;-
1514001784411;-;-;8.912903;-0.1877594;-1.0288239;-;-;-;-;-;-;-;-;-;-;-;-;-;-;-
1514001784432;-;-;9.123596;-0.13986206;-1.313736;-;-;-;-;-;-;-;-;-;-;-;-;-;-;-
1514001784452;-;-;8.140778;-0.054870605;-1.1269836;-;-;-;-;-;-;-;-;-;-;-;-;-;-;-
1514001784472;-;-;7.1208496;-0.13986206;-1.1329651;-;-;-;-;-;-;-;-;-;-;-;-;-;-;-
1514001784492;-;-;7.6703186;-0.58639526;-1.7255402;-;-;-;-;-;-;-;-;-;-;-;-;-;-;-
1514001784513;-;-;8.0928955;-0.5325165;-3.089035;-;-;-;-;-;-;-;-;-;-;-;-;-;-;-
1514001784534;-;-;8.10965;-1.5165405;-4.934967;-;-;-;-;-;-;-;-;-;-;-;-;-;-;-
1514001784554;-;-;8.103668;-1.5512543;-5.2928925;-;-;-;-;-;-;-;-;-;-;-;-;-;-;-
1514001784574;-;-;7.870224;-1.5129395;-5.436554;-;-;-;-;-;-;-;-;-;-;-;-;-;-;-
1514001784594;-;-;9.577301;-2.6741333;-5.2928925;-;-;-;-;-;-;-;-;-;-;-;-;-;-;-
1514001784615;-;-;12.238449;-3.1721191;-5.1743774;-;-;-;-;-;-;-;-;-;-;-;-;-;-;-
1514001784636;-;-;10.943192;-2.4921722;-4.562668;-;-;-;-;-;-;-;-;-;-;-;-;-;-;-
1514001784656;-;-;4.8906403;-3.4127502;0.80992126;-;-;-;-;-;-;-;-;-;-;-;-;-;-;-
1514001784676;-;-;-3.9439545;1.3397522;-3.2458496;-;-;-;-;-;-;-;-;-;-;-;-;-;-;-
1514001784697;-;-;11.231689;-2.0660095;-6.657593;-;-;-;-;-;-;-;-;-;-;-;-;-;-;-
1514001784716;-;-;11.2556305;-5.871582;-7.5506287;-;-;-;-;-;-;-;-;-;-;-;-;-;-;-
1514001784736;-;-;5.959656;-1.8397522;-8.388596;-;-;-;-;-;-;-;-;-;-;-;-;-;-;-
1514001784757;-;-;10.77919;-2.8357391;-5.247406;-;-;-;-;-;-;-;-;-;-;-;-;-;-;-
1514001784777;-;-;11.540543;-3.2607117;-3.5259705;-;-;-;-;-;-;-;-;-;-;-;-;-;-;-
1514001784797;-;-;7.301605;-1.8720703;-3.3978882;-;-;-;-;-;-;-;-;-;-;-;-;-;-;-
1514001784818;-;-;3.8707123;1.3146057;-5.029541;-;-;-;-;-;-;-;-;-;-;-;-;-;-;-
1514001784838;-;-;6.6132813;-0.02255249;-3.2853546;-;-;-;-;-;-;-;-;-;-;-;-;-;-;-
1514001784859;-;-;6.9819794;-0.13867188;-3.219513;-;-;-;-;-;-;-;-;-;-;-;-;-;-;-
1514001784878;-;-;4.348358;1.2619324;-4.5530853;-;-;-;-;-;-;-;-;-;-;-;-;-;-;-
1514001784898;-;-;4.6464386;0.057647705;-3.440979;-;-;-;-;-;-;-;-;-;-;-;-;-;-;-
1514001784919;-;-;3.545105;-1.5895538;-3.7953186;-;-;-;-;-;-;-;-;-;-;-;-;-;-;-
1514001784939;-;-;2.925003;-2.930313;-4.6093597;-;-;-;-;-;-;-;-;-;-;-;-;-;-;-
1514001784960;-;-;4.616516;-3.534851;-4.009598;-;-;-;-;-;-;-;-;-;-;-;-;-;-;-
1514001784980;-;-;5.8997955;-3.0871277;-3.8420105;-;-;-;-;-;-;-;-;-;-;-;-;-;-;-
1514001785001;-;-;6.912552;-2.0229034;-4.006012;-;-;-;-;-;-;-;-;-;-;-;-;-;-;-
1514001785021;-;-;6.8838196;-1.404007;-5.8184204;-;-;-;-;-;-;-;-;-;-;-;-;-;-;-
1514001785042;-;-;7.149582;-1.3238068;-7.2812805;-;-;-;-;-;-;-;-;-;-;-;-;-;-;-
1514001785061;-;-;7.7421417;-1.0221252;-7.6571655;-;-;-;-;-;-;-;-;-;-;-;-;-;-;-
1514001785081;-;-;8.746506;-0.58877563;-6.859909;-;-;-;-;-;-;-;-;-;-;-;-;-;-;-
1514001785101;-;-;9.2708435;-0.43554688;-7.2106476;-;-;-;-;-;-;-;-;-;-;-;-;-;-;-
1514001785122;-;-;9.110428;-1.1777496;-7.1352386;-;-;-;-;-;-;-;-;-;-;-;-;-;-;-
1514001785142;-;-;8.054581;-2.2419739;-7.428528;-;-;-;-;-;-;-;-;-;-;-;-;-;-;-
1514001785162;-;-;7.0933075;-2.8560944;-6.25177;-;-;-;-;-;-;-;-;-;-;-;-;-;-;-
1514001785183;-;-;6.6312256;-2.5843506;-5.875885;-;-;-;-;-;-;-;-;-;-;-;-;-;-;-
1514001785204;-;-;6.62764;-1.8804474;-5.67836;-;-;-;-;-;-;-;-;-;-;-;-;-;-;-
1514001785223;-;-;7.3028107;-1.2819061;-5.6125183;-;-;-;-;-;-;-;-;-;-;-;-;-;-;-
1514001785244;-;-;8.110855;-1.4734344;-5.254593;-;-;-;-;-;-;-;-;-;-;-;-;-;-;-
1514001785264;-;-;8.4448395;-1.3262024;-5.637665;-;-;-;-;-;-;-;-;-;-;-;-;-;-;-
1514001785284;-;-;8.625595;-0.9191742;-5.793289;-;-;-;-;-;-;-;-;-;-;-;-;-;-;-
1514001785305;-;-;8.562149;-0.5169525;-6.132065;-;-;-;-;-;-;-;-;-;-;-;-;-;-;-
1514001785325;-;-;7.569763;-0.45111084;-6.132065;-;-;-;-;-;-;-;-;-;-;-;-;-;-;-
1514001785345;-;-;7.810379;-0.9682617;-5.674774;-;-;-;-;-;-;-;-;-;-;-;-;-;-;-
1514001785366;-;-;7.6080627;-0.9562988;-5.412613;-;-;-;-;-;-;-;-;-;-;-;-;-;-;-
1514001785386;-;-;7.549408;-1.4051971;-4.464508;-;-;-;-;-;-;-;-;-;-;-;-;-;-;-
1514001785406;-;-;7.3865967;-1.4889984;-3.3116913;-;-;-;-;-;-;-;-;-;-;-;-;-;-;-
1514001785427;-;-;8.307175;-1.3202057;-2.931015;-;-;-;-;-;-;-;-;-;-;-;-;-;-;-
1514001785447;-;-;11.126343;-0.94911194;-3.4373932;-;-;-;-;-;-;-;-;-;-;-;-;-;-;-
1514001785468;-;-;16.713211;-0.917984;-4.0514984;-;-;-;-;-;-;-;-;-;-;-;-;-;-;-
1514001785489;-;-;19.180435;-0.5528717;-7.6487885;-;-;-;-;-;-;-;-;-;-;-;-;-;-;-
1514001785509;-;-;17.697235;-1.4506989;-7.292053;-;-;-;-;-;-;-;-;-;-;-;-;-;-;-
1514001785529;-;-;14.928345;-1.0939636;-4.7829285;-;-;-;-;-;-;-;-;-;-;-;-;-;-;-
1514001785550;-;-;12.53772;-0.68933105;-2.610199;-;-;-;-;-;-;-;-;-;-;-;-;-;-;-
1514001785570;-;-;9.924454;-0.9910126;-1.5854797;-;-;-;-;-;-;-;-;-;-;-;-;-;-;-
1514001785591;-;-;6.0458527;-0.8868561;-0.5858917;-;-;-;-;-;-;-;-;-;-;-;-;-;-;-
1514001785610;-;-;2.8735352;-0.55166626;1.1463013;-;-;-;-;-;-;-;-;-;-;-;-;-;-;-
1514001785631;-;-;2.1684418;-0.4666748;2.9132233;-;-;-;-;-;-;-;-;-;-;-;-;-;-;-
1514001785651;-;-;3.9736633;-0.7851105;2.3314362;-;-;-;-;-;-;-;-;-;-;-;-;-;-;-
1514001785672;-;-;7.790024;-1.2627563;0.5405731;-;-;-;-;-;-;-;-;-;-;-;-;-;-;-
1514001785692;-;-;10.593628;-1.2184601;-1.7171631;-;-;-;-;-;-;-;-;-;-;-;-;-;-;-
1514001785712;-;-;12.479065;-1.1490326;-2.9178467;-;-;-;-;-;-;-;-;-;-;-;-;-;-;-
1514001785733;-;-;11.271194;-1.0053711;-2.9322205;-;-;-;-;-;-;-;-;-;-;-;-;-;-;-
1514001785752;-;-;10.959946;-0.7779236;-1.9338379;-;-;-;-;-;-;-;-;-;-;-;-;-;-;-
1514001785772;-;-;11.086838;-0.8377838;-0.9174957;-;-;-;-;-;-;-;-;-;-;-;-;-;-;-
1514001785793;-;-;10.913254;-1.0424805;-0.4530182;-;-;-;-;-;-;-;-;-;-;-;-;-;-;-
1514001785814;-;-;9.677856;-0.88087463;-0.28063965;-;-;-;-;-;-;-;-;-;-;-;-;-;-;-
1514001785834;-;-;8.054581;-0.5169525;0.091659546;-;-;-;-;-;-;-;-;-;-;-;-;-;-;-
1514001785854;-;-;6.8945923;-0.09197998;1.0445557;-;-;-;-;-;-;-;-;-;-;-;-;-;-;-
1514001785875;-;-;7.446457;-0.19493103;1.567688;-;-;-;-;-;-;-;-;-;-;-;-;-;-;-
1514001785895;-;-;8.294006;-0.63905334;1.4144592;-;-;-;-;-;-;-;-;-;-;-;-;-;-;-
1514001785915;-;-;8.967972;-0.9084015;0.76683044;-;-;-;-;-;-;-;-;-;-;-;-;-;-;-
1514001785936;-;-;9.410904;-0.8892517;0.53338623;-;-;-;-;-;-;-;-;-;-;-;-;-;-;-
1514001785956;-;-;9.582092;-0.7384186;0.46754456;-;-;-;-;-;-;-;-;-;-;-;-;-;-;-
1514001785977;-;-;9.644333;-0.76356506;0.4040985;-;-;-;-;-;-;-;-;-;-;-;-;-;-;-
1514001785997;-;-;9.544968;-0.98861694;0.29995728;-;-;-;-;-;-;-;-;-;-;-;-;-;-;-
1514001786017;-;-;9.487518;-1.2028961;0.28799438;-;-;-;-;-;-;-;-;-;-;-;-;-;-;-
1514001786037;-;-;9.306747;-1.2172546;0.30714417;-;-;-;-;-;-;-;-;-;-;-;-;-;-;-
1514001786058;-;-;9.214569;-0.88087463;0.35263062;-;-;-;-;-;-;-;-;-;-;-;-;-;-;-
1514001786079;-;-;9.233734;-0.4774475;0.602829;-;-;-;-;-;-;-;-;-;-;-;-;-;-;-
1514001786099;-;-;9.105637;-0.32781982;0.98350525;-;-;-;-;-;-;-;-;-;-;-;-;-;-;-
1514001786119;-;-;8.884171;-0.3589325;1.1666565;-;-;-;-;-;-;-;-;-;-;-;-;-;-;-
1514001786140;-;-;9.002686;-0.43675232;1.2923584;-;-;-;-;-;-;-;-;-;-;-;-;-;-;-
1514001786159;-;-;9.147537;-0.41400146;1.1750336;-;-;-;-;-;-;-;-;-;-;-;-;-;-;-
1514001786179;-;-;9.343857;-0.4451294;0.8159027;-;-;-;-;-;-;-;-;-;-;-;-;-;-;-
1514001786200;-;-;9.711365;-0.5241394;0.34065247;-;-;-;-;-;-;-;-;-;-;-;-;-;-;-
1514001786220;-;-;9.823898;-0.52893066;-0.20162964;-;-;-;-;-;-;-;-;-;-;-;-;-;-;-
1514001786241;-;-;9.923264;-0.3577423;-0.4733734;-;-;-;-;-;-;-;-;-;-;-;-;-;-;-
1514001786261;-;-;9.8203125;-0.17098999;-0.41949463;-;-;-;-;-;-;-;-;-;-;-;-;-;-;-
1514001786281;-;-;9.3546295;-0.44631958;-0.33210754;-;-;-;-;-;-;-;-;-;-;-;-;-;-;-
1514001786302;-;-;8.758484;-1.0317078;-0.50808716;-;-;-;-;-;-;-;-;-;-;-;-;-;-;-
1514001786322;-;-;8.703415;-1.4171753;-0.5021057;-;-;-;-;-;-;-;-;-;-;-;-;-;-;-
1514001786342;-;-;9.400131;-1.2232513;-0.4733734;-;-;-;-;-;-;-;-;-;-;-;-;-;-;-
1514001786363;-;-;9.719757;-0.6510315;-0.35125732;-;-;-;-;-;-;-;-;-;-;-;-;-;-;-
1514001786384;-;-;9.321121;-0.43315125;-0.5332184;-;-;-;-;-;-;-;-;-;-;-;-;-;-;-
1514001786404;-;-;9.342667;-0.4092102;-0.30697632;-;-;-;-;-;-;-;-;-;-;-;-;-;-;-
1514001786424;-;-;9.110428;-0.50138855;-0.38957214;-;-;-;-;-;-;-;-;-;-;-;-;-;-;-
1514001786445;-;-;9.276825;-0.49780273;-0.15853882;-;-;-;-;-;-;-;-;-;-;-;-;-;-;-
1514001786465;-;-;9.118805;-1.052063;-0.2758484;-;-;-;-;-;-;-;-;-;-;-;-;-;-;-
1514001786485;-;-;9.425262;-0.9323425;-0.456604;-;-;-;-;-;-;-;-;-;-;-;-;-;-;-
1514001786506;-;-;9.668274;-0.91319275;-0.6984253;-;-;-;-;-;-;-;-;-;-;-;-;-;-;-
1514001786527;-;-;9.5282135;-0.71447754;-1.0826874;-;-;-;-;-;-;-;-;-;-;-;-;-;-;-
1514001786546;-;-;9.537796;-0.9431305;-1.1461334;-;-;-;-;-;-;-;-;-;-;-;-;-;-;-
1514001786567;-;-;9.058945;-1.3501434;-1.2155762;-;-;-;-;-;-;-;-;-;-;-;-;-;-;-
1514001786587;-;-;9.086487;-1.7104645;-1.1664886;-;-;-;-;-;-;-;-;-;-;-;-;-;-;-
1514001786608;-;-;9.102051;-1.6266632;-0.9186859;-;-;-;-;-;-;-;-;-;-;-;-;-;-;-
1514001786628;-;-;9.220566;-1.2771149;-0.79299927;-;-;-;-;-;-;-;-;-;-;-;-;-;-;-
1514001786648;-;-;9.29718;-1.0963593;-0.6948395;-;-;-;-;-;-;-;-;-;-;-;-;-;-;-
1514001786669;-;-;9.348648;-1.1262817;-0.8504486;-;-;-;-;-;-;-;-;-;-;-;-;-;-;-
1514001786688;-;-;9.080505;-1.2603607;-0.93185425;-;-;-;-;-;-;-;-;-;-;-;-;-;-;-
1514001786709;-;-;8.827911;-1.1442413;-0.50808716;-;-;-;-;-;-;-;-;-;-;-;-;-;-;-
1514001786729;-;-;8.813553;-1.012558;-0.109451294;-;-;-;-;-;-;-;-;-;-;-;-;-;-;-
1514001786750;-;-;9.304352;-0.9107971;-0.19325256;-;-;-;-;-;-;-;-;-;-;-;-;-;-;-
1514001786770;-;-;9.583282;-1.0269165;-0.44943237;-;-;-;-;-;-;-;-;-;-;-;-;-;-;-
1514001786790;-;-;9.468353;-0.92277527;-0.8384857;-;-;-;-;-;-;-;-;-;-;-;-;-;-;-
1514001786811;-;-;9.491104;-0.92277527;-0.8504486;-;-;-;-;-;-;-;-;-;-;-;-;-;-;-
1514001786831;-;-;9.2708435;-0.9586792;-0.6086426;-;-;-;-;-;-;-;-;-;-;-;-;-;-;-
1514001786851;-;-;9.25528;-0.93115234;-0.27105713;-;-;-;-;-;-;-;-;-;-;-;-;-;-;-
1514001786872;-;-;9.228943;-0.8988342;0.137146;-;-;-;-;-;-;-;-;-;-;-;-;-;-;-
1514001786891;-;-;9.102051;-0.8174286;-0.029251099;-;-;-;-;-;-;-;-;-;-;-;-;-;-;-
1514001786911;-;-;9.075714;-0.7491913;-0.12980652;-;-;-;-;-;-;-;-;-;-;-;-;-;-;-
1514001786932;-;-;8.881775;-0.8605194;-0.4051361;-;-;-;-;-;-;-;-;-;-;-;-;-;-;-
1514001786951;-;-;8.653137;-1.0664215;-0.40393066;-;-;-;-;-;-;-;-;-;-;-;-;-;-;-
1514001786971;-;-;8.9392395;-1.2184601;-0.412323;-;-;-;-;-;-;-;-;-;-;-;-;-;-;-
1514001786992;-;-;9.416885;-1.0484619;-0.29499817;-;-;-;-;-;-;-;-;-;-;-;-;-;-;-
1514001787012;-;-;9.773621;-0.99938965;-0.535614;-;-;-;-;-;-;-;-;-;-;-;-;-;-;-
1514001787033;-;-;9.470749;-1.151413;-0.7283478;-;-;-;-;-;-;-;-;-;-;-;-;-;-;-
1514001787053;-;-;9.412094;-1.2974701;-0.67567444;-;-;-;-;-;-;-;-;-;-;-;-;-;-;-
1514001787074;-;-;9.339081;-1.1346588;-0.47935486;-;-;-;-;-;-;-;-;-;-;-;-;-;-;-
1514001787094;-;-;9.111618;-1.0771942;-0.016082764;-;-;-;-;-;-;-;-;-;-;-;-;-;-;-
1514001787114;-;-;8.707001;-0.88446045;0.01625061;-;-;-;-;-;-;-;-;-;-;-;-;-;-;-
1514001787134;-;-;8.873398;-1.0005798;0.20179749;-;-;-;-;-;-;-;-;-;-;-;-;-;-;-
1514001787155;-;-;8.926071;-1.0305176;-0.018478394;-;-;-;-;-;-;-;-;-;-;-;-;-;-;-
1514001787175;-;-;9.1918335;-1.0388947;-0.102264404;-;-;-;-;-;-;-;-;-;-;-;-;-;-;-
1514001787196;-;-;9.183456;-0.9479065;-0.43147278;-;-;-;-;-;-;-;-;-;-;-;-;-;-;-
1514001787216;-;-;9.306747;-1.0269165;-0.7774353;-;-;-;-;-;-;-;-;-;-;-;-;-;-;-
1514001787237;-;-;9.497086;-0.9981842;-0.8564453;-;-;-;-;-;-;-;-;-;-;-;-;-;-;-
1514001787257;-;-;9.541382;-0.90122986;-0.8289032;-;-;-;-;-;-;-;-;-;-;-;-;-;-;-
1514001787277;-;-;9.548569;-1.0017853;-0.9234772;-;-;-;-;-;-;-;-;-;-;-;-;-;-;-
1514001787298;-;-;9.403717;-0.957489;-1.0276337;-;-;-;-;-;-;-;-;-;-;-;-;-;-;-
1514001787318;-;-;9.206192;-0.78630066;-0.9689636;-;-;-;-;-;-;-;-;-;-;-;-;-;-;-
1514001787339;-;-;9.324707;-0.43675232;-0.9366455;-;-;-;-;-;-;-;-;-;-;-;-;-;-;-
1514001787358;-;-;9.276825;-0.17936707;-0.8612366;-;-;-;-;-;-;-;-;-;-;-;-;-;-;-
1514001787379;-;-;8.988327;-0.081207275;-0.91270447;-;-;-;-;-;-;-;-;-;-;-;-;-;-;-
1514001787399;-;-;9.043396;-0.30625916;-0.867218;-;-;-;-;-;-;-;-;-;-;-;-;-;-;-
1514001787419;-;-;9.379776;-0.6522217;-0.94143677;-;-;-;-;-;-;-;-;-;-;-;-;-;-;-
1514001787440;-;-;9.436035;-0.6618042;-0.9474182;-;-;-;-;-;-;-;-;-;-;-;-;-;-;-
1514001787459;-;-;9.2708435;-0.38049316;-0.7953949;-;-;-;-;-;-;-;-;-;-;-;-;-;-;-
1514001787479;-;-;9.209793;-0.19493103;-0.6182251;-;-;-;-;-;-;-;-;-;-;-;-;-;-;-
1514001787500;-;-;9.264847;-0.11114502;-0.6433563;-;-;-;-;-;-;-;-;-;-;-;-;-;-;-
1514001787521;-;-;9.355835;-0.25479126;-0.6110382;-;-;-;-;-;-;-;-;-;-;-;-;-;-;-
1514001787541;-;-;9.428848;-0.40682983;-0.64933777;-;-;-;-;-;-;-;-;-;-;-;-;-;-;-
1514001787562;-;-;9.339081;-0.47146606;-0.7750397;-;-;-;-;-;-;-;-;-;-;-;-;-;-;-
1514001787582;-;-;9.076904;-0.6546173;-0.84806824;-;-;-;-;-;-;-;-;-;-;-;-;-;-;-
1514001787602;-;-;8.952408;-0.92396545;-0.76187134;-;-;-;-;-;-;-;-;-;-;-;-;-;-;-
1514001787623;-;-;9.092468;-0.87368774;-0.4338684;-;-;-;-;-;-;-;-;-;-;-;-;-;-;-
1514001787644;-;-;9.103241;-0.6713867;-0.43026733;-;-;-;-;-;-;-;-;-;-;-;-;-;-;-
1514001787664;-;-;9.380966;-0.5049896;-0.64694214;-;-;-;-;-;-;-;-;-;-;-;-;-;-;-
1514001787684;-;-;9.637146;-0.34217834;-0.81095886;-;-;-;-;-;-;-;-;-;-;-;-;-;-;-
1514001787704;-;-;9.597641;-0.19972229;-0.7558899;-;-;-;-;-;-;-;-;-;-;-;-;-;-;-
1514001787725;-;-;9.390549;-0.26556396;-0.7475128;-;-;-;-;-;-;-;-;-;-;-;-;-;-;-
1514001787747;-;-;9.23732;-0.36013794;-0.79299927;-;-;-;-;-;-;-;-;-;-;-;-;-;-;-
1514001787765;-;-;9.159515;-0.52653503;-0.7056122;-;-;-;-;-;-;-;-;-;-;-;-;-;-;-
1514001787785;-;-;9.214569;-0.6043396;-0.51885986;-;-;-;-;-;-;-;-;-;-;-;-;-;-;-
1514001787806;-;-;9.263657;-0.6031494;-0.38838196;-;-;-;-;-;-;-;-;-;-;-;-;-;-;-
1514001787826;-;-;9.276825;-0.59835815;-0.39794922;-;-;-;-;-;-;-;-;-;-;-;-;-;-;-
1514001787846;-;-;9.25528;-0.542099;-0.496109;-;-;-;-;-;-;-;-;-;-;-;-;-;-;-
1514001787866;-;-;9.307953;-0.5504761;-0.4853363;-;-;-;-;-;-;-;-;-;-;-;-;-;-;-
1514001787887;-;-;9.179855;-0.4547119;-0.5104828;-;-;-;-;-;-;-;-;-;-;-;-;-;-;-
1514001787907;-;-;9.167892;-0.24401855;-0.39675903;-;-;-;-;-;-;-;-;-;-;-;-;-;-;-
1514001787928;-;-;9.345062;-0.03213501;-0.24951172;-;-;-;-;-;-;-;-;-;-;-;-;-;-;-
1514001787948;-;-;9.201401;-0.00579834;-0.32852173;-;-;-;-;-;-;-;-;-;-;-;-;-;-;-
1514001787969;-;-;9.15712;-0.08720398;-0.13937378;-;-;-;-;-;-;-;-;-;-;-;-;-;-;-
1514001787989;-;-;9.401321;-0.13388062;-0.006500244;-;-;-;-;-;-;-;-;-;-;-;-;-;-;-
1514001788008;-;-;9.305557;-0.17098999;-0.26387024;-;-;-;-;-;-;-;-;-;-;-;-;-;-;-
1514001788028;-;-;9.260071;-0.1985321;-0.20402527;-;-;-;-;-;-;-;-;-;-;-;-;-;-;-
1514001788049;-;-;9.280411;-0.32302856;-0.08909607;-;-;-;-;-;-;-;-;-;-;-;-;-;-;-
1514001788069;-;-;9.303162;-0.37809753;-0.19683838;-;-;-;-;-;-;-;-;-;-;-;-;-;-;-
1514001788089;-;-;9.116409;-0.4559021;-0.20281982;-;-;-;-;-;-;-;-;-;-;-;-;-;-;-
1514001788110;-;-;9.207397;-0.59117126;-0.23873901;-;-;-;-;-;-;-;-;-;-;-;-;-;-;-
1514001788130;-;-;9.355835;-0.5432892;-0.111846924;-;-;-;-;-;-;-;-;-;-;-;-;-;-;-
1514001788150;-;-;9.194229;-0.34217834;-0.13339233;-;-;-;-;-;-;-;-;-;-;-;-;-;-;-
1514001788171;-;-;9.074509;-0.25;-0.3440857;-;-;-;-;-;-;-;-;-;-;-;-;-;-;-
1514001788191;-;-;9.148727;-0.114730835;-0.3548584;-;-;-;-;-;-;-;-;-;-;-;-;-;-;-
1514001788211;-;-;9.257675;-0.11352539;-0.31654358;-;-;-;-;-;-;-;-;-;-;-;-;-;-;-
1514001788232;-;-;9.291183;-0.026138306;-0.2291565;-;-;-;-;-;-;-;-;-;-;-;-;-;-;-
1514001788252;-;-;9.160706;0.0061798096;-0.37521362;-;-;-;-;-;-;-;-;-;-;-;-;-;-;-
1514001788273;-;-;9.123596;-0.00579834;-0.47695923;-;-;-;-;-;-;-;-;-;-;-;-;-;-;-
1514001788294;-;-;9.286407;0.014556885;-0.45420837;-;-;-;-;-;-;-;-;-;-;-;-;-;-;-
1514001788314;-;-;9.360626;-0.071640015;-0.31295776;-;-;-;-;-;-;-;-;-;-;-;-;-;-;-
1514001788335;-;-;9.257675;-0.13986206;-0.20402527;-;-;-;-;-;-;-;-;-;-;-;-;-;-;-
1514001788355;-;-;9.200211;-0.13748169;-0.17648315;-;-;-;-;-;-;-;-;-;-;-;-;-;-;-
1514001788376;-;-;9.305557;-0.14704895;-0.34527588;-;-;-;-;-;-;-;-;-;-;-;-;-;-;-
1514001788396;-;-;9.303162;-0.16740417;-0.491333;-;-;-;-;-;-;-;-;-;-;-;-;-;-;-
1514001788417;-;-;9.203796;-0.28710938;-0.5523834;-;-;-;-;-;-;-;-;-;-;-;-;-;-;-
1514001788437;-;-;9.278015;-0.36611938;-0.52723694;-;-;-;-;-;-;-;-;-;-;-;-;-;-;-
1514001788458;-;-;9.348648;-0.4056244;-0.614624;-;-;-;-;-;-;-;-;-;-;-;-;-;-;-
1514001788478;-;-;9.325912;-0.4044342;-0.654129;-;-;-;-;-;-;-;-;-;-;-;-;-;-;-
1514001788498;-;-;9.301956;-0.37330627;-0.6194153;-;-;-;-;-;-;-;-;-;-;-;-;-;-;-
1514001788519;-;-;9.264847;-0.2859192;-0.6409607;-;-;-;-;-;-;-;-;-;-;-;-;-;-;-
1514001788540;-;-;9.299576;-0.20092773;-0.6194153;-;-;-;-;-;-;-;-;-;-;-;-;-;-;-
1514001788560;-;-;9.263657;-0.12908936;-0.6505432;-;-;-;-;-;-;-;-;-;-;-;-;-;-;-
1514001788580;-;-;9.258865;-0.0105896;-0.57751465;-;-;-;-;-;-;-;-;-;-;-;-;-;-;-
1514001788601;-;-;9.280411;0.1043396;-0.48654175;-;-;-;-;-;-;-;-;-;-;-;-;-;-;-
1514001788621;-;-;9.346252;0.13546753;-0.5056915;-;-;-;-;-;-;-;-;-;-;-;-;-;-;-
1514001788641;-;-;9.295975;0.09954834;-0.46858215;-;-;-;-;-;-;-;-;-;-;-;-;-;-;-
1514001788662;-;-;9.25528;0.117507935;-0.4530182;-;-;-;-;-;-;-;-;-;-;-;-;-;-;-
1514001788682;-;-;9.1918335;0.057647705;-0.39315796;-;-;-;-;-;-;-;-;-;-;-;-;-;-;-
1514001788702;-;-;9.202606;0.04447937;-0.4063263;-;-;-;-;-;-;-;-;-;-;-;-;-;-;-
1514001788723;-;-;9.227737;0.09715271;-0.34648132;-;-;-;-;-;-;-;-;-;-;-;-;-;-;-
1514001788744;-;-;9.222961;0.1558075;-0.33810425;-;-;-;-;-;-;-;-;-;-;-;-;-;-;-
1514001788764;-;-;9.15831;0.1845398;-0.30937195;-;-;-;-;-;-;-;-;-;-;-;-;-;-;-
1514001788784;-;-;9.171478;0.22164917;-0.31295776;-;-;-;-;-;-;-;-;-;-;-;-;-;-;-
1514001788805;-;-;9.2756195;0.29109192;-0.30697632;-;-;-;-;-;-;-;-;-;-;-;-;-;-;-
1514001788825;-;-;9.208588;0.33418274;-0.39196777;-;-;-;-;-;-;-;-;-;-;-;-;-;-;-
1514001788846;-;-;9.213379;0.4287567;-0.42668152;-;-;-;-;-;-;-;-;-;-;-;-;-;-;-
1514001788865;-;-;9.248093;0.44551086;-0.42070007;-;-;-;-;-;-;-;-;-;-;-;-;-;-;-
1514001788886;-;-;9.246902;0.37727356;-0.42070007;-;-;-;-;-;-;-;-;-;-;-;-;-;-;-
1514001788905;-;-;9.228943;0.32341003;-0.45899963;-;-;-;-;-;-;-;-;-;-;-;-;-;-;-
1514001788925;-;-;9.188232;0.35932922;-0.4817505;-;-;-;-;-;-;-;-;-;-;-;-;-;-;-
1514001788946;-;-;9.206192;0.34376526;-0.53800964;-;-;-;-;-;-;-;-;-;-;-;-;-;-;-
1514001788966;-;-;9.205002;0.3712921;-0.5499878;-;-;-;-;-;-;-;-;-;-;-;-;-;-;-
1514001788986;-;-;9.182251;0.37368774;-0.5727234;-;-;-;-;-;-;-;-;-;-;-;-;-;-;-
1514001789006;-;-;9.205002;0.39404297;-0.56674194;-;-;-;-;-;-;-;-;-;-;-;-;-;-;-
1514001789027;-;-;9.233734;0.378479;-0.59547424;-;-;-;-;-;-;-;-;-;-;-;-;-;-;-
1514001789047;-;-;9.261261;0.33657837;-0.6002655;-;-;-;-;-;-;-;-;-;-;-;-;-;-;-
1514001789067;-;-;9.264847;0.3317871;-0.6373749;-;-;-;-;-;-;-;-;-;-;-;-;-;-;-
1514001789087;-;-;9.200211;0.30426025;-0.6625061;-;-;-;-;-;-;-;-;-;-;-;-;-;-;-
1514001789108;-;-;9.202606;0.25398254;-0.6122284;-;-;-;-;-;-;-;-;-;-;-;-;-;-;-
1514001789128;-;-;9.242111;0.2527771;-0.53800964;-;-;-;-;-;-;-;-;-;-;-;-;-;-;-
1514001789148;-;-;9.267242;0.21087646;-0.51527405;-;-;-;-;-;-;-;-;-;-;-;-;-;-;-
1514001789169;-;-;9.263657;0.20610046;-0.47695923;-;-;-;-;-;-;-;-;-;-;-;-;-;-;-
1514001789189;-;-;9.285202;0.2348175;-0.41471863;-;-;-;-;-;-;-;-;-;-;-;-;-;-;-
1514001789210;-;-;9.293579;0.2515869;-0.4458313;-;-;-;-;-;-;-;-;-;-;-;-;-;-;-
1514001789230;-;-;9.21817;0.29707336;-0.377594;-;-;-;-;-;-;-;-;-;-;-;-;-;-;-
1514001789251;-;-;9.21817;0.31503296;-0.3620453;-;-;-;-;-;-;-;-;-;-;-;-;-;-;-
1514001789271;-;-;9.195419;0.3569336;-0.2758484;-;-;-;-;-;-;-;-;-;-;-;-;-;-;-
1514001789292;-;-;9.209793;0.3030548;-0.29380798;-;-;-;-;-;-;-;-;-;-;-;-;-;-;-
1514001789312;-;-;9.206192;0.28271484;-0.23873901;-;-;-;-;-;-;-;-;-;-;-;-;-;-;-
1514001789333;-;-;9.206192;0.25038147;-0.26626587;-;-;-;-;-;-;-;-;-;-;-;-;-;-;-
1514001789352;-;-;9.224152;0.23721313;-0.19085693;-;-;-;-;-;-;-;-;-;-;-;-;-;-;-
1514001789373;-;-;9.227737;0.23960876;-0.19683838;-;-;-;-;-;-;-;-;-;-;-;-;-;-;-
1514001789393;-;-;9.202606;0.2515869;-0.24113464;-;-;-;-;-;-;-;-;-;-;-;-;-;-;-
1514001789414;-;-;9.225342;0.2850952;-0.22676086;-;-;-;-;-;-;-;-;-;-;-;-;-;-;-
1514001789435;-;-;9.266052;0.26475525;-0.24353027;-;-;-;-;-;-;-;-;-;-;-;-;-;-;-
1514001789454;-;-;9.25647;0.26715088;-0.30937195;-;-;-;-;-;-;-;-;-;-;-;-;-;-;-
1514001789475;-;-;9.228943;0.23242188;-0.3261261;-;-;-;-;-;-;-;-;-;-;-;-;-;-;-
1514001789496;-;-;9.29718;0.2348175;-0.3045807;-;-;-;-;-;-;-;-;-;-;-;-;-;-;-
1514001789516;-;-;9.295975;0.22644043;-0.39076233;-;-;-;-;-;-;-;-;-;-;-;-;-;-;-
1514001789536;-;-;9.230133;0.24320984;-0.45541382;-;-;-;-;-;-;-;-;-;-;-;-;-;-;-
1514001789557;-;-;9.254074;0.20010376;-0.4338684;-;-;-;-;-;-;-;-;-;-;-;-;-;-;-
1514001789578;-;-;9.282806;0.19293213;-0.3835907;-;-;-;-;-;-;-;-;-;-;-;-;-;-;-
1514001789598;-;-;9.248093;0.20249939;-0.37400818;-;-;-;-;-;-;-;-;-;-;-;-;-;-;-
1514001789618;-;-;9.260071;0.23362732;-0.44343567;-;-;-;-;-;-;-;-;-;-;-;-;-;-;-
1514001789639;-;-;9.215775;0.30665588;-0.48773193;-;-;-;-;-;-;-;-;-;-;-;-;-;-;-
1514001789659;-;-;9.227737;0.29588318;-0.4530182;-;-;-;-;-;-;-;-;-;-;-;-;-;-;-
1514001789680;-;-;9.209793;0.25637817;-0.3943634;-;-;-;-;-;-;-;-;-;-;-;-;-;-;-
1514001789700;-;-;9.190628;0.23960876;-0.33210754;-;-;-;-;-;-;-;-;-;-;-;-;-;-;-
1514001789721;-;-;9.248093;0.22285461;-0.28781128;-;-;-;-;-;-;-;-;-;-;-;-;-;-;-
1514001789741;-;-;9.288788;0.22285461;-0.2674713;-;-;-;-;-;-;-;-;-;-;-;-;-;-;-
1514001789761;-;-;9.274429;0.2420044;-0.2674713;-;-;-;-;-;-;-;-;-;-;-;-;-;-;-
1514001789782;-;-;9.262466;0.20489502;-0.28063965;-;-;-;-;-;-;-;-;-;-;-;-;-;-;-
1514001789802;-;-;9.260071;0.2300415;-0.2578888;-;-;-;-;-;-;-;-;-;-;-;-;-;-;-
1514001789822;-;-;9.232529;0.2132721;-0.2758484;-;-;-;-;-;-;-;-;-;-;-;-;-;-;-
1514001789843;-;-;9.214569;0.26475525;-0.24951172;-;-;-;-;-;-;-;-;-;-;-;-;-;-;-
1514001789863;-;-;9.194229;0.26475525;-0.24232483;-;-;-;-;-;-;-;-;-;-;-;-;-;-;-
1514001789884;-;-;9.209793;0.24559021;-0.20281982;-;-;-;-;-;-;-;-;-;-;-;-;-;-;-
1514001789903;-;-;9.252884;0.24798584;-0.24113464;-;-;-;-;-;-;-;-;-;-;-;-;-;-;-
1514001789923;-;-;9.266052;0.25875854;-0.23753357;-;-;-;-;-;-;-;-;-;-;-;-;-;-;-
1514001789944;-;-;9.269638;0.2420044;-0.19683838;-;-;-;-;-;-;-;-;-;-;-;-;-;-;-
1514001789964;-;-;9.264847;0.24798584;-0.25190735;-;-;-;-;-;-;-;-;-;-;-;-;-;-;-
1514001789985;-;-;9.263657;0.23721313;-0.22557068;-;-;-;-;-;-;-;-;-;-;-;-;-;-;-
1514001790005;-;-;9.274429;0.23721313;-0.22436523;-;-;-;-;-;-;-;-;-;-;-;-;-;-;-
1514001790026;-;-;9.243301;0.2300415;-0.24113464;-;-;-;-;-;-;-;-;-;-;-;-;-;-;-
1514001790045;-;-;9.250488;0.22644043;-0.23036194;-;-;-;-;-;-;-;-;-;-;-;-;-;-;-
1514001790066;-;-;9.267242;0.23362732;-0.23036194;-;-;-;-;-;-;-;-;-;-;-;-;-;-;-
1514001790086;-;-;9.266052;0.2132721;-0.2351532;-;-;-;-;-;-;-;-;-;-;-;-;-;-;-
1514001790107;-;-;9.23613;0.24440002;-0.21479797;-;-;-;-;-;-;-;-;-;-;-;-;-;-;-
1514001790127;-;-;9.25528;0.25398254;-0.21240234;-;-;-;-;-;-;-;-;-;-;-;-;-;-;-
1514001790148;-;-;9.260071;0.25517273;-0.18486023;-;-;-;-;-;-;-;-;-;-;-;-;-;-;-
1514001790168;-;-;9.2756195;0.2348175;-0.14416504;-;-;-;-;-;-;-;-;-;-;-;-;-;-;-
1514001790189;-;-;9.268448;0.21447754;-0.1489563;-;-;-;-;-;-;-;-;-;-;-;-;-;-;-
1514001790208;-;-;9.216965;0.21447754;-0.14656067;-;-;-;-;-;-;-;-;-;-;-;-;-;-;-
1514001790228;-;-;9.232529;0.22525024;-0.0627594;-;-;-;-;-;-;-;-;-;-;-;-;-;-;-
1514001790249;-;-;9.321121;0.23960876;-0.0687561;-;-;-;-;-;-;-;-;-;-;-;-;-;-;-
1514001790269;-;-;9.242111;0.16897583;-0.16212463;-;-;-;-;-;-;-;-;-;-;-;-;-;-;-
1514001790289;-;-;9.239716;0.2192688;-0.1309967;-;-;-;-;-;-;-;-;-;-;-;-;-;-;-
1514001790310;-;-;9.264847;0.18095398;-0.08192444;-;-;-;-;-;-;-;-;-;-;-;-;-;-;-
1514001790331;-;-;9.262466;0.19293213;-0.03881836;-;-;-;-;-;-;-;-;-;-;-;-;-;-;-
1514001790351;-;-;9.251678;0.19891357;-0.11064148;-;-;-;-;-;-;-;-;-;-;-;-;-;-;-
1514001790372;-;-;9.263657;0.23841858;-0.15493774;-;-;-;-;-;-;-;-;-;-;-;-;-;-;-
1514001790392;-;-;9.230133;0.24919128;-0.14416504;-;-;-;-;-;-;-;-;-;-;-;-;-;-;-
1514001790413;-;-;9.213379;0.26475525;-0.14416504;-;-;-;-;-;-;-;-;-;-;-;-;-;-;-
1514001790433;-;-;9.233734;0.25875854;-0.09628296;-;-;-;-;-;-;-;-;-;-;-;-;-;-;-
1514001790454;-;-;9.29718;0.28630066;-0.071136475;-;-;-;-;-;-;-;-;-;-;-;-;-;-;-
1514001790476;-;-;9.372589;0.27671814;-0.109451294;-;-;-;-;-;-;-;-;-;-;-;-;-;-;-
1514001790495;-;-;9.431244;0.26475525;-0.121414185;-;-;-;-;-;-;-;-;-;-;-;-;-;-;-
1514001790516;-;-;9.373795;0.20848083;-0.14416504;-;-;-;-;-;-;-;-;-;-;-;-;-;-;-
1514001790536;-;-;9.342667;0.17376709;-0.0687561;-;-;-;-;-;-;-;-;-;-;-;-;-;-;-
1514001790556;-;-;9.369003;0.22285461;-0.0041046143;-;-;-;-;-;-;-;-;-;-;-;-;-;-;-
1514001790577;-;-;9.365402;0.20610046;0.022232056;-;-;-;-;-;-;-;-;-;-;-;-;-;-;-
1514001790597;-;-;9.281616;0.16897583;0.053359985;-;-;-;-;-;-;-;-;-;-;-;-;-;-;-
1514001790618;-;-;9.195419;0.22045898;0.137146;-;-;-;-;-;-;-;-;-;-;-;-;-;-;-
1514001790638;-;-;9.170288;0.24081421;0.2640381;-;-;-;-;-;-;-;-;-;-;-;-;-;-;-
1514001790659;-;-;9.169083;0.24919128;0.24609375;-;-;-;-;-;-;-;-;-;-;-;-;-;-;-
1514001790679;-;-;9.200211;0.20249939;0.32270813;-;-;-;-;-;-;-;-;-;-;-;-;-;-;-
1514001790699;-;-;9.21817;0.16897583;0.45199585;-;-;-;-;-;-;-;-;-;-;-;-;-;-;-
1514001790720;-;-;9.286407;0.13665771;0.6159973;-;-;-;-;-;-;-;-;-;-;-;-;-;-;-
1514001790740;-;-;9.205002;0.14863586;0.53578186;-;-;-;-;-;-;-;-;-;-;-;-;-;-;-
1514001790760;-;-;9.226547;0.14863586;0.42326355;-;-;-;-;-;-;-;-;-;-;-;-;-;-;-
1514001790781;-;-;9.106842;0.15940857;0.29756165;-;-;-;-;-;-;-;-;-;-;-;-;-;-;-
1514001790801;-;-;8.929672;0.20249939;0.41488647;-;-;-;-;-;-;-;-;-;-;-;-;-;-;-
1514001790822;-;-;8.972763;0.23721313;0.60762024;-;-;-;-;-;-;-;-;-;-;-;-;-;-;-
1514001790843;-;-;8.926071;0.23362732;0.6255646;-;-;-;-;-;-;-;-;-;-;-;-;-;-;-
1514001790863;-;-;9.066132;0.12828064;0.61479187;-;-;-;-;-;-;-;-;-;-;-;-;-;-;-
1514001790883;-;-;9.143951;0.03012085;0.63035583;-;-;-;-;-;-;-;-;-;-;-;-;-;-;-
1514001790904;-;-;9.293579;-0.047698975;0.55015564;-;-;-;-;-;-;-;-;-;-;-;-;-;-;-
1514001790924;-;-;9.455185;0.014556885;0.7512665;-;-;-;-;-;-;-;-;-;-;-;-;-;-;-
1514001790944;-;-;9.453995;0.119903564;0.82907104;-;-;-;-;-;-;-;-;-;-;-;-;-;-;-
1514001790964;-;-;9.398926;0.21687317;0.80513;-;-;-;-;-;-;-;-;-;-;-;-;-;-;-
1514001790985;-;-;9.301956;0.13546753;0.6710663;-;-;-;-;-;-;-;-;-;-;-;-;-;-;-
1514001791006;-;-;9.245697;0.043289185;0.5549469;-;-;-;-;-;-;-;-;-;-;-;-;-;-;-
1514001791026;-;-;9.197815;0.079193115;0.5166321;-;-;-;-;-;-;-;-;-;-;-;-;-;-;-
1514001791047;-;-;9.232529;0.16059875;0.32748413;-;-;-;-;-;-;-;-;-;-;-;-;-;-;-
1514001791068;-;-;9.288788;0.19172668;0.22932434;-;-;-;-;-;-;-;-;-;-;-;-;-;-;-
1514001791087;-;-;9.161896;0.14025879;0.24369812;-;-;-;-;-;-;-;-;-;-;-;-;-;-;-
1514001791107;-;-;9.170288;-0.05607605;0.43403625;-;-;-;-;-;-;-;-;-;-;-;-;-;-;-
1514001791128;-;-;9.184647;-0.19134521;0.67344666;-;-;-;-;-;-;-;-;-;-;-;-;-;-;-
1514001791149;-;-;9.293579;-0.27035522;0.8314667;-;-;-;-;-;-;-;-;-;-;-;-;-;-;-
1514001791169;-;-;9.367798;-0.1877594;0.83506775;-;-;-;-;-;-;-;-;-;-;-;-;-;-;-
1514001791189;-;-;9.366608;-0.011779785;0.80033875;-;-;-;-;-;-;-;-;-;-;-;-;-;-;-
1514001791210;-;-;9.363022;0.16419983;0.82429504;-;-;-;-;-;-;-;-;-;-;-;-;-;-;-
1514001791230;-;-;9.269638;0.38087463;0.74768066;-;-;-;-;-;-;-;-;-;-;-;-;-;-;-
1514001791251;-;-;8.472366;0.18334961;-0.27703857;-;-;-;-;-;-;-;-;-;-;-;-;-;-;-
1514001791272;-;-;9.793976;0.083984375;1.0122375;-;-;-;-;-;-;-;-;-;-;-;-;-;-;-
1514001791292;-;-;9.917267;-0.06324768;1.2839813;-;-;-;-;-;-;-;-;-;-;-;-;-;-;-
1514001791312;-;-;8.362244;0.27552795;0.47712708;-;-;-;-;-;-;-;-;-;-;-;-;-;-;-
1514001791333;-;-;8.529831;-0.074035645;0.86499023;-;-;-;-;-;-;-;-;-;-;-;-;-;-;-
1514001791353;-;-;9.058945;-0.13748169;0.6495056;-;-;-;-;-;-;-;-;-;-;-;-;-;-;-
1514001791374;-;-;9.267242;-0.20451355;0.5956421;-;-;-;-;-;-;-;-;-;-;-;-;-;-;-
1514001791394;-;-;9.953186;-0.5133667;0.89372253;-;-;-;-;-;-;-;-;-;-;-;-;-;-;-
1514001791415;-;-;9.661087;-0.45231628;0.95835876;-;-;-;-;-;-;-;-;-;-;-;-;-;-;-
1514001791434;-;-;9.030228;-0.36013794;0.88653564;-;-;-;-;-;-;-;-;-;-;-;-;-;-;-
1514001791454;-;-;9.358231;-0.38287354;1.1032104;-;-;-;-;-;-;-;-;-;-;-;-;-;-;-
1514001791475;-;-;9.3103485;-0.46788025;1.0038605;-;-;-;-;-;-;-;-;-;-;-;-;-;-;-
1514001791495;-;-;8.832703;-0.27633667;0.9966736;-;-;-;-;-;-;-;-;-;-;-;-;-;-;-
1514001791515;-;-;9.37738;-0.33140564;0.9416046;-;-;-;-;-;-;-;-;-;-;-;-;-;-;-
1514001791536;-;-;9.029022;-0.1530304;0.844635;-;-;-;-;-;-;-;-;-;-;-;-;-;-;-
1514001791556;-;-;9.222961;-0.16142273;1.0014648;-;-;-;-;-;-;-;-;-;-;-;-;-;-;-
1514001791577;-;-;9.956772;-0.07522583;0.6542969;-;-;-;-;-;-;-;-;-;-;-;-;-;-;-
1514001791597;-;-;9.592865;-0.105148315;1.0661011;-;-;-;-;-;-;-;-;-;-;-;-;-;-;-
1514001791618;-;-;9.072113;-0.3254242;1.1044159;-;-;-;-;-;-;-;-;-;-;-;-;-;-;-
1514001791637;-;-;9.23613;-0.45231628;1.0529327;-;-;-;-;-;-;-;-;-;-;-;-;-;-;-
1514001791657;-;-;9.131973;-0.20211792;0.75605774;-;-;-;-;-;-;-;-;-;-;-;-;-;-;-
1514001791678;-;-;9.154724;-0.33380127;1.7867584;-;-;-;-;-;-;-;-;-;-;-;-;-;-;-
1514001791698;-;-;7.5553894;0.5245209;1.7029572;-;-;-;-;-;-;-;-;-;-;-;-;-;-;-
1514001791719;-;-;9.858612;-0.18655396;1.6742249;-;-;-;-;-;-;-;-;-;-;-;-;-;-;-
1514001791739;-;-;9.450409;-0.44631958;1.0265961;-;-;-;-;-;-;-;-;-;-;-;-;-;-;-
1514001791760;-;-;8.659119;-0.44992065;0.8554077;-;-;-;-;-;-;-;-;-;-;-;-;-;-;-
1514001791780;-;-;8.922485;-0.17459106;1.4719238;-;-;-;-;-;-;-;-;-;-;-;-;-;-;-
1514001791800;-;-;9.419281;-0.1015625;1.1115875;-;-;-;-;-;-;-;-;-;-;-;-;-;-;-
1514001791821;-;-;9.181061;0.0025787354;1.370163;-;-;-;-;-;-;-;-;-;-;-;-;-;-;-
1514001791842;-;-;9.43364;-0.06564331;1.2612305;-;-;-;-;-;-;-;-;-;-;-;-;-;-;-
1514001791862;-;-;9.329498;-0.3194275;2.7181091;-;-;-;-;-;-;-;-;-;-;-;-;-;-;-
1514001791882;-;-;9.147537;-0.2033081;0.60401917;-;-;-;-;-;-;-;-;-;-;-;-;-;-;-
1514001791902;-;-;8.977554;-0.121917725;1.5222015;-;-;-;-;-;-;-;-;-;-;-;-;-;-;-
1514001791923;-;-;9.450409;-0.24641418;1.7568359;-;-;-;-;-;-;-;-;-;-;-;-;-;-;-
1514001791943;-;-;9.076904;-0.19493103;0.9882965;-;-;-;-;-;-;-;-;-;-;-;-;-;-;-
1514001791964;-;-;9.123596;-0.17219543;1.1475067;-;-;-;-;-;-;-;-;-;-;-;-;-;-;-
1514001791984;-;-;9.391739;-0.26197815;-0.09269714;-;-;-;-;-;-;-;-;-;-;-;-;-;-;-
1514001792005;-;-;9.41449;-0.09197998;1.37854;-;-;-;-;-;-;-;-;-;-;-;-;-;-;-
1514001792025;-;-;9.021835;0.14144897;1.7999268;-;-;-;-;-;-;-;-;-;-;-;-;-;-;-
1514001792045;-;-;8.650742;-0.03213501;0.5453644;-;-;-;-;-;-;-;-;-;-;-;-;-;-;-
1514001792066;-;-;9.482727;-0.3757019;1.0505371;-;-;-;-;-;-;-;-;-;-;-;-;-;-;-
1514001792086;-;-;9.428848;-0.47625732;1.5449371;-;-;-;-;-;-;-;-;-;-;-;-;-;-;-
1514001792106;-;-;9.252884;-0.24880981;1.4348145;-;-;-;-;-;-;-;-;-;-;-;-;-;-;-
1514001792127;-;-;9.352234;-0.2966919;0.7859802;-;-;-;-;-;-;-;-;-;-;-;-;-;-;-
1514001792148;-;-;8.660324;0.086380005;1.073288;-;-;-;-;-;-;-;-;-;-;-;-;-;-;-
1514001792168;-;-;9.036209;0.13905334;1.3438263;-;-;-;-;-;-;-;-;-;-;-;-;-;-;-
1514001792189;-;-;8.859039;-0.14585876;0.2843933;-;-;-;-;-;-;-;-;-;-;-;-;-;-;-
1514001792209;-;-;9.104446;-0.24043274;0.30474854;-;-;-;-;-;-;-;-;-;-;-;-;-;-;-
1514001792229;-;-;10.045364;-0.54927063;1.0254059;-;-;-;-;-;-;-;-;-;-;-;-;-;-;-
1514001792250;-;-;9.023041;0.01574707;2.3087006;-;-;-;-;-;-;-;-;-;-;-;-;-;-;-
1514001792270;-;-;9.035004;0.22164917;1.9663239;-;-;-;-;-;-;-;-;-;-;-;-;-;-;-
1514001792291;-;-;9.577301;-0.73602295;1.8322449;-;-;-;-;-;-;-;-;-;-;-;-;-;-;-
1514001792311;-;-;8.772842;0.14025879;0.8877411;-;-;-;-;-;-;-;-;-;-;-;-;-;-;-
1514001792332;-;-;8.90213;-0.3194275;1.9663239;-;-;-;-;-;-;-;-;-;-;-;-;-;-;-
1514001792353;-;-;8.630386;0.2635498;2.4248047;-;-;-;-;-;-;-;-;-;-;-;-;-;-;-
1514001792374;-;-;9.032608;-0.05128479;2.6498718;-;-;-;-;-;-;-;-;-;-;-;-;-;-;-
1514001792394;-;-;9.342667;-0.25239563;2.0585022;-;-;-;-;-;-;-;-;-;-;-;-;-;-;-
1514001792414;-;-;8.727356;-0.27514648;2.6474762;-;-;-;-;-;-;-;-;-;-;-;-;-;-;-
1514001792434;-;-;8.3897705;-0.29190063;2.6869812;-;-;-;-;-;-;-;-;-;-;-;-;-;-;-
1514001792455;-;-;8.509476;-0.12550354;2.500229;-;-;-;-;-;-;-;-;-;-;-;-;-;-;-
1514001792475;-;-;9.540192;-0.20809937;3.374115;-;-;-;-;-;-;-;-;-;-;-;-;-;-;-
1514001792496;-;-;8.618423;-0.58399963;3.59198;-;-;-;-;-;-;-;-;-;-;-;-;-;-;-
1514001792518;-;-;5.6101074;0.61550903;11.624527;-;-;-;-;-;-;-;-;-;-;-;-;-;-;-
1514001792537;-;-;9.691025;-1.5680084;-15.722046;-;-;-;-;-;-;-;-;-;-;-;-;-;-;-
1514001792557;-;-;9.179855;-1.6494141;4.1474457;-;-;-;-;-;-;-;-;-;-;-;-;-;-;-
1514001792578;-;-;8.532227;0.73161316;3.0054016;-;-;-;-;-;-;-;-;-;-;-;-;-;-;-
1514001792598;-;-;10.349426;0.31982422;2.8509827;-;-;-;-;-;-;-;-;-;-;-;-;-;-;-
1514001792620;-;-;10.102829;0.5077667;1.9818878;-;-;-;-;-;-;-;-;-;-;-;-;-;-;-
1514001792640;-;-;9.202606;-0.8581238;-0.013687134;-;-;-;-;-;-;-;-;-;-;-;-;-;-;-
1514001792660;-;-;9.364212;-1.1585999;0.7428894;-;-;-;-;-;-;-;-;-;-;-;-;-;-;-
1514001792681;-;-;9.718552;-0.5732269;1.4695282;-;-;-;-;-;-;-;-;-;-;-;-;-;-;-
1514001792701;-;-;9.196625;-0.25239563;2.0848389;-;-;-;-;-;-;-;-;-;-;-;-;-;-;-
1514001792722;-;-;8.973953;-0.21768188;2.1686249;-;-;-;-;-;-;-;-;-;-;-;-;-;-;-
1514001792742;-;-;9.284012;-0.46069336;1.8968964;-;-;-;-;-;-;-;-;-;-;-;-;-;-;-
1514001792762;-;-;9.483917;-0.8174286;1.8908997;-;-;-;-;-;-;-;-;-;-;-;-;-;-;-
1514001792783;-;-;8.944031;-0.42956543;1.1415253;-;-;-;-;-;-;-;-;-;-;-;-;-;-;-
1514001792803;-;-;8.994308;-0.5959625;1.9926605;-;-;-;-;-;-;-;-;-;-;-;-;-;-;-
1514001792824;-;-;8.58609;-0.19134521;1.2660217;-;-;-;-;-;-;-;-;-;-;-;-;-;-;-
1514001792844;-;-;9.37738;-0.6582184;1.888504;-;-;-;-;-;-;-;-;-;-;-;-;-;-;-
1514001792864;-;-;8.942825;-0.42837524;2.0357513;-;-;-;-;-;-;-;-;-;-;-;-;-;-;-
1514001792885;-;-;8.910507;-0.44752502;1.5964203;-;-;-;-;-;-;-;-;-;-;-;-;-;-;-
1514001792905;-;-;8.886566;-0.61631775;1.5569153;-;-;-;-;-;-;-;-;-;-;-;-;-;-;-
1514001792926;-;-;9.295975;-0.66659546;1.4276276;-;-;-;-;-;-;-;-;-;-;-;-;-;-;-
1514001792946;-;-;11.444778;-1.1059265;1.8897095;-;-;-;-;-;-;-;-;-;-;-;-;-;-;-
1514001792967;-;-;9.024231;0.107925415;1.354599;-;-;-;-;-;-;-;-;-;-;-;-;-;-;-
1514001792987;-;-;13.289505;-0.7803192;0.73091125;-;-;-;-;-;-;-;-;-;-;-;-;-;-;-
1514001793008;-;-;8.458008;-0.08958435;1.2337036;-;-;-;-;-;-;-;-;-;-;-;-;-;-;-
1514001793028;-;-;7.643982;-0.3768921;0.9009094;-;-;-;-;-;-;-;-;-;-;-;-;-;-;-
1514001793048;-;-;8.481949;-0.5253296;1.5784607;-;-;-;-;-;-;-;-;-;-;-;-;-;-;-
1514001793068;-;-;8.929672;-0.5851898;1.9100647;-;-;-;-;-;-;-;-;-;-;-;-;-;-;-
1514001793089;-;-;9.181061;-0.5277252;1.6179657;-;-;-;-;-;-;-;-;-;-;-;-;-;-;-
1514001793109;-;-;9.278015;-0.45948792;1.3605957;-;-;-;-;-;-;-;-;-;-;-;-;-;-;-
1514001793130;-;-;9.343857;-0.41760254;1.4898834;-;-;-;-;-;-;-;-;-;-;-;-;-;-;-
1514001793151;-;-;9.249298;-0.38407898;1.6047974;-;-;-;-;-;-;-;-;-;-;-;-;-;-;-
1514001793170;-;-;9.044586;-0.31704712;1.6909943;-;-;-;-;-;-;-;-;-;-;-;-;-;-;-
1514001793191;-;-;8.991913;-0.25598145;1.7137299;-;-;-;-;-;-;-;-;-;-;-;-;-;-;-
1514001793211;-;-;8.886566;-0.3397827;1.6993713;-;-;-;-;-;-;-;-;-;-;-;-;-;-;-
1514001793231;-;-;8.963181;-0.38526917;1.8310547;-;-;-;-;-;-;-;-;-;-;-;-;-;-;-
1514001793251;-;-;9.166687;-0.44033813;1.859787;-;-;-;-;-;-;-;-;-;-;-;-;-;-;-
1514001793272;-;-;9.175064;-0.48703003;1.7903442;-;-;-;-;-;-;-;-;-;-;-;-;-;-;-
1514001793291;-;-;9.201401;-0.5349121;1.8346405;-;-;-;-;-;-;-;-;-;-;-;-;-;-;-
1514001793312;-;-;9.17627;-0.5780029;1.959137;-;-;-;-;-;-;-;-;-;-;-;-;-;-;-
1514001793332;-;-;9.153519;-0.581604;2.062088;-;-;-;-;-;-;-;-;-;-;-;-;-;-;-
1514001793352;-;-;9.124786;-0.46069336;2.0213928;-;-;-;-;-;-;-;-;-;-;-;-;-;-;-
1514001793373;-;-;9.13916;-0.24043274;1.8418274;-;-;-;-;-;-;-;-;-;-;-;-;-;-;-
1514001793393;-;-;9.167892;-0.057266235;1.6957703;-;-;-;-;-;-;-;-;-;-;-;-;-;-;-
1514001793413;-;-;9.127182;0.105529785;1.5198059;-;-;-;-;-;-;-;-;-;-;-;-;-;-;-
1514001793434;-;-;9.118805;0.055252075;1.4479828;-;-;-;-;-;-;-;-;-;-;-;-;-;-;-
1514001793454;-;-;9.066132;-0.10395813;1.4862823;-;-;-;-;-;-;-;-;-;-;-;-;-;-;-
1514001793474;-;-;9.076904;-0.30267334;1.6407166;-;-;-;-;-;-;-;-;-;-;-;-;-;-;-
1514001793496;-;-;9.068527;-0.4774475;1.6407166;-;-;-;-;-;-;-;-;-;-;-;-;-;-;-
1514001793517;-;-;8.972763;-0.56243896;1.5712738;-;-;-;-;-;-;-;-;-;-;-;-;-;-;-
1514001793537;-;-;8.960785;-0.74560547;1.631134;-;-;-;-;-;-;-;-;-;-;-;-;-;-;-
1514001793557;-;-;9.124786;-0.8665161;1.7580261;-;-;-;-;-;-;-;-;-;-;-;-;-;-;-
1514001793577;-;-;9.227737;-0.9000244;1.8717499;-;-;-;-;-;-;-;-;-;-;-;-;-;-;-
1514001793597;-;-;9.1523285;-0.7312317;1.9699097;-;-;-;-;-;-;-;-;-;-;-;-;-;-;-
1514001793618;-;-;9.054169;-0.4738617;2.0489197;-;-;-;-;-;-;-;-;-;-;-;-;-;-;-
1514001793638;-;-;8.970367;-0.32661438;2.0046234;-;-;-;-;-;-;-;-;-;-;-;-;-;-;-
1514001793658;-;-;9.106842;-0.22605896;1.8729553;-;-;-;-;-;-;-;-;-;-;-;-;-;-;-
1514001793679;-;-;9.248093;-0.24760437;1.7053528;-;-;-;-;-;-;-;-;-;-;-;-;-;-;-
1514001793699;-;-;9.2756195;-0.29071045;1.5988159;-;-;-;-;-;-;-;-;-;-;-;-;-;-;-
1514001793720;-;-;9.178665;-0.31105042;1.7161255;-;-;-;-;-;-;-;-;-;-;-;-;-;-;-
1514001793739;-;-;9.008667;-0.29071045;1.8310547;-;-;-;-;-;-;-;-;-;-;-;-;-;-;-
1514001793759;-;-;8.984726;-0.3074646;1.7951355;-;-;-;-;-;-;-;-;-;-;-;-;-;-;-
1514001793780;-;-;9.0793;-0.33140564;1.7903442;-;-;-;-;-;-;-;-;-;-;-;-;-;-;-
1514001793800;-;-;9.147537;-0.38287354;1.6203613;-;-;-;-;-;-;-;-;-;-;-;-;-;-;-
1514001793821;-;-;9.0793;-0.3481598;1.662262;-;-;-;-;-;-;-;-;-;-;-;-;-;-;-
1514001793841;-;-;9.163101;-0.34098816;1.7185211;-;-;-;-;-;-;-;-;-;-;-;-;-;-;-
1514001793861;-;-;9.210983;-0.2775421;1.741272;-;-;-;-;-;-;-;-;-;-;-;-;-;-;-
1514001793881;-;-;9.233734;-0.29429626;1.607193;-;-;-;-;-;-;-;-;-;-;-;-;-;-;-
1514001793902;-;-;9.312744;-0.3074646;1.5581055;-;-;-;-;-;-;-;-;-;-;-;-;-;-;-
1514001793921;-;-;9.154724;-0.2715454;1.3402405;-;-;-;-;-;-;-;-;-;-;-;-;-;-;-
1514001793941;-;-;9.12001;-0.29190063;1.3414307;-;-;-;-;-;-;-;-;-;-;-;-;-;-;-
1514001793962;-;-;9.041;-0.32421875;1.2660217;-;-;-;-;-;-;-;-;-;-;-;-;-;-;-
1514001793982;-;-;8.84227;-0.3649292;1.3031311;-;-;-;-;-;-;-;-;-;-;-;-;-;-;-
1514001794003;-;-;9.043396;-0.38407898;1.3174896;-;-;-;-;-;-;-;-;-;-;-;-;-;-;-
1514001794023;-;-;9.135559;-0.32901;1.5581055;-;-;-;-;-;-;-;-;-;-;-;-;-;-;-
1514001794044;-;-;9.187042;-0.3481598;1.8334503;-;-;-;-;-;-;-;-;-;-;-;-;-;-;-
1514001794064;-;-;9.213379;-0.41041565;1.928009;-;-;-;-;-;-;-;-;-;-;-;-;-;-;-
1514001794085;-;-;9.189438;-0.55766296;2.0333557;-;-;-;-;-;-;-;-;-;-;-;-;-;-;-
1514001794105;-;-;9.147537;-0.6007538;2.1363068;-;-;-;-;-;-;-;-;-;-;-;-;-;-;-
1514001794126;-;-;9.012268;-0.5708313;2.1315155;-;-;-;-;-;-;-;-;-;-;-;-;-;-;-
1514001794146;-;-;8.917694;-0.5145569;2.002243;-;-;-;-;-;-;-;-;-;-;-;-;-;-;-
1514001794166;-;-;8.946426;-0.5899811;1.9998474;-;-;-;-;-;-;-;-;-;-;-;-;-;-;-
1514001794187;-;-;8.977554;-0.5720215;2.0608978;-;-;-;-;-;-;-;-;-;-;-;-;-;-;-
1514001794207;-;-;9.048172;-0.641449;2.0118103;-;-;-;-;-;-;-;-;-;-;-;-;-;-;-
1514001794228;-;-;9.069733;-0.66778564;1.9567413;-;-;-;-;-;-;-;-;-;-;-;-;-;-;-
1514001794249;-;-;9.050568;-0.5780029;1.9184418;-;-;-;-;-;-;-;-;-;-;-;-;-;-;-
1514001794269;-;-;9.087677;-0.60554504;1.9364014;-;-;-;-;-;-;-;-;-;-;-;-;-;-;-
1514001794289;-;-;9.111618;-0.6103363;1.962738;-;-;-;-;-;-;-;-;-;-;-;-;-;-;-
1514001794310;-;-;9.141556;-0.6127167;1.864563;-;-;-;-;-;-;-;-;-;-;-;-;-;-;-
1514001794330;-;-;9.15712;-0.5708313;1.7735901;-;-;-;-;-;-;-;-;-;-;-;-;-;-;-
1514001794350;-;-;9.215775;-0.5444946;1.6969757;-;-;-;-;-;-;-;-;-;-;-;-;-;-;-
1514001794371;-;-;9.203796;-0.44273376;1.5976105;-;-;-;-;-;-;-;-;-;-;-;-;-;-;-
1514001794391;-;-;9.205002;-0.30387878;1.4527588;-;-;-;-;-;-;-;-;-;-;-;-;-;-;-
1514001794412;-;-;9.147537;-0.23564148;1.4300232;-;-;-;-;-;-;-;-;-;-;-;-;-;-;-
1514001794433;-;-;9.123596;-0.2966919;1.45755;-;-;-;-;-;-;-;-;-;-;-;-;-;-;-
1514001794453;-;-;9.151123;-0.3194275;1.3713684;-;-;-;-;-;-;-;-;-;-;-;-;-;-;-
1514001794473;-;-;9.171478;-0.41041565;1.3629761;-;-;-;-;-;-;-;-;-;-;-;-;-;-;-
1514001794494;-;-;9.199005;-0.3984375;1.275589;-;-;-;-;-;-;-;-;-;-;-;-;-;-;-
1514001794514;-;-;9.234924;-0.33859253;1.2528534;-;-;-;-;-;-;-;-;-;-;-;-;-;-;-
1514001794535;-;-;9.17627;-0.23085022;1.2540436;-;-;-;-;-;-;-;-;-;-;-;-;-;-;-
1514001794555;-;-;9.207397;-0.14465332;1.2767944;-;-;-;-;-;-;-;-;-;-;-;-;-;-;-
1514001794576;-;-;9.172684;-0.102752686;1.2863617;-;-;-;-;-;-;-;-;-;-;-;-;-;-;-
1514001794597;-;-;9.085281;-0.11114502;1.3474274;-;-;-;-;-;-;-;-;-;-;-;-;-;-;-
1514001794617;-;-;9.105637;-0.121917725;1.3725586;-;-;-;-;-;-;-;-;-;-;-;-;-;-;-
1514001794638;-;-;9.233734;-0.17219543;1.3043213;-;-;-;-;-;-;-;-;-;-;-;-;-;-;-
1514001794657;-;-;9.155914;-0.19013977;1.2492523;-;-;-;-;-;-;-;-;-;-;-;-;-;-;-
1514001794677;-;-;9.153519;-0.24162292;1.2672119;-;-;-;-;-;-;-;-;-;-;-;-;-;-;-
1514001794698;-;-;9.201401;-0.2775421;1.3869324;-;-;-;-;-;-;-;-;-;-;-;-;-;-;-
1514001794718;-;-;9.166687;-0.30148315;1.4826965;-;-;-;-;-;-;-;-;-;-;-;-;-;-;-
1514001794738;-;-;9.084091;-0.26675415;1.4695282;-;-;-;-;-;-;-;-;-;-;-;-;-;-;-
1514001794759;-;-;9.109222;-0.1697998;1.4156494;-;-;-;-;-;-;-;-;-;-;-;-;-;-;-
1514001794780;-;-;9.187042;-0.10395813;1.291153;-;-;-;-;-;-;-;-;-;-;-;-;-;-;-
1514001794799;-;-;9.194229;-0.06564331;1.1882019;-;-;-;-;-;-;-;-;-;-;-;-;-;-;-
1514001794820;-;-;9.245697;-0.078811646;1.2013702;-;-;-;-;-;-;-;-;-;-;-;-;-;-;-
1514001794840;-;-;9.245697;-0.1590271;1.2839813;-;-;-;-;-;-;-;-;-;-;-;-;-;-;-
1514001794860;-;-;9.175064;-0.20570374;1.3977051;-;-;-;-;-;-;-;-;-;-;-;-;-;-;-
1514001794881;-;-;9.114014;-0.22605896;1.409668;-;-;-;-;-;-;-;-;-;-;-;-;-;-;-
1514001794901;-;-;9.207397;-0.2392273;1.334259;-;-;-;-;-;-;-;-;-;-;-;-;-;-;-
1514001794922;-;-;9.187042;-0.29548645;1.1666565;-;-;-;-;-;-;-;-;-;-;-;-;-;-;-
1514001794943;-;-;9.081696;-0.26556396;1.1068115;-;-;-;-;-;-;-;-;-;-;-;-;-;-;-
1514001794963;-;-;9.243301;-0.20690918;1.251648;-;-;-;-;-;-;-;-;-;-;-;-;-;-;-
1514001794983;-;-;9.184647;-0.1769867;1.4838867;-;-;-;-;-;-;-;-;-;-;-;-;-;-;-
1514001795003;-;-;9.222961;-0.13388062;1.5485382;-;-;-;-;-;-;-;-;-;-;-;-;-;-;-
1514001795024;-;-;9.284012;-0.22247314;1.4419861;-;-;-;-;-;-;-;-;-;-;-;-;-;-;-
1514001795044;-;-;9.146347;-0.24520874;1.3174896;-;-;-;-;-;-;-;-;-;-;-;-;-;-;-
1514001795065;-;-;9.048172;-0.27514648;1.2803802;-;-;-;-;-;-;-;-;-;-;-;-;-;-;-
1514001795084;-;-;9.043396;-0.2571869;1.2732086;-;-;-;-;-;-;-;-;-;-;-;-;-;-;-
1514001795105;-;-;9.031418;-0.18296814;1.207367;-;-;-;-;-;-;-;-;-;-;-;-;-;-;-
1514001795126;-;-;9.116409;-0.15184021;0.97631836;-;-;-;-;-;-;-;-;-;-;-;-;-;-;-
1514001795146;-;-;9.1918335;-0.059661865;0.7548523;-;-;-;-;-;-;-;-;-;-;-;-;-;-;-
1514001795166;-;-;9.21936;0.03970337;0.6171875;-;-;-;-;-;-;-;-;-;-;-;-;-;-;-
1514001795187;-;-;9.307953;0.13186646;0.57888794;-;-;-;-;-;-;-;-;-;-;-;-;-;-;-
1514001795206;-;-;9.43364;0.23602295;0.6136017;-;-;-;-;-;-;-;-;-;-;-;-;-;-;-
1514001795227;-;-;9.482727;0.2803192;0.48910522;-;-;-;-;-;-;-;-;-;-;-;-;-;-;-
1514001795247;-;-;9.397736;0.23123169;0.33348083;-;-;-;-;-;-;-;-;-;-;-;-;-;-;-
1514001795268;-;-;9.2708435;0.23841858;0.19821167;-;-;-;-;-;-;-;-;-;-;-;-;-;-;-
1514001795288;-;-;9.216965;0.34854126;0.39453125;-;-;-;-;-;-;-;-;-;-;-;-;-;-;-
1514001795308;-;-;9.153519;0.417984;0.64352417;-;-;-;-;-;-;-;-;-;-;-;-;-;-;-
1514001795329;-;-;9.066132;0.47184753;0.7357025;-;-;-;-;-;-;-;-;-;-;-;-;-;-;-
1514001795349;-;-;9.046982;0.4479065;0.7249298;-;-;-;-;-;-;-;-;-;-;-;-;-;-;-
1514001795370;-;-;9.123596;0.31982422;0.75964355;-;-;-;-;-;-;-;-;-;-;-;-;-;-;-
1514001795391;-;-;9.206192;0.14863586;0.765625;-;-;-;-;-;-;-;-;-;-;-;-;-;-;-
1514001795411;-;-;8.787216;0.34854126;0.88653564;-;-;-;-;-;-;-;-;-;-;-;-;-;-;-
1514001795431;-;-;9.272034;-0.03453064;0.8015442;-;-;-;-;-;-;-;-;-;-;-;-;-;-;-
1514001795452;-;-;9.164291;0.22525024;0.765625;-;-;-;-;-;-;-;-;-;-;-;-;-;-;-
1514001795472;-;-;9.178665;0.2743225;0.71655273;-;-;-;-;-;-;-;-;-;-;-;-;-;-;-
1514001795492;-;-;9.087677;0.34854126;0.81829834;-;-;-;-;-;-;-;-;-;-;-;-;-;-;-
1514001795513;-;-;9.210983;0.28271484;0.8266754;-;-;-;-;-;-;-;-;-;-;-;-;-;-;-
1514001795534;-;-;9.286407;0.19293213;0.760849;-;-;-;-;-;-;-;-;-;-;-;-;-;-;-
1514001795553;-;-;9.400131;0.22764587;0.69740295;-;-;-;-;-;-;-;-;-;-;-;-;-;-;-
1514001795573;-;-;9.324707;0.2635498;0.6890106;-;-;-;-;-;-;-;-;-;-;-;-;-;-;-
1514001795594;-;-;9.352234;0.23362732;0.51304626;-;-;-;-;-;-;-;-;-;-;-;-;-;-;-
1514001795614;-;-;9.29837;0.26115417;0.46754456;-;-;-;-;-;-;-;-;-;-;-;-;-;-;-
1514001795635;-;-;9.282806;0.2803192;0.429245;-;-;-;-;-;-;-;-;-;-;-;-;-;-;-
1514001795656;-;-;9.266052;0.33059692;0.45199585;-;-;-;-;-;-;-;-;-;-;-;-;-;-;-
1514001795676;-;-;9.214569;0.3617096;0.44960022;-;-;-;-;-;-;-;-;-;-;-;-;-;-;-
1514001795696;-;-;9.222961;0.31622314;0.41488647;-;-;-;-;-;-;-;-;-;-;-;-;-;-;-
1514001795716;-;-;9.200211;0.34376526;0.3717804;-;-;-;-;-;-;-;-;-;-;-;-;-;-;-
1514001795737;-;-;9.245697;0.33418274;0.32748413;-;-;-;-;-;-;-;-;-;-;-;-;-;-;-
1514001795757;-;-;9.17627;0.38804626;0.33467102;-;-;-;-;-;-;-;-;-;-;-;-;-;-;-
1514001795777;-;-;9.222961;0.35453796;0.36340332;-;-;-;-;-;-;-;-;-;-;-;-;-;-;-
1514001795798;-;-;9.268448;0.2922821;0.3610077;-;-;-;-;-;-;-;-;-;-;-;-;-;-;-
1514001795818;-;-;9.303162;0.3174286;0.2915802;-;-;-;-;-;-;-;-;-;-;-;-;-;-;-
1514001795839;-;-;9.324707;0.3712921;0.22813416;-;-;-;-;-;-;-;-;-;-;-;-;-;-;-
1514001795859;-;-;9.267242;0.42037964;0.30714417;-;-;-;-;-;-;-;-;-;-;-;-;-;-;-
1514001795879;-;-;9.124786;0.43115234;0.3418579;-;-;-;-;-;-;-;-;-;-;-;-;-;-;-
1514001795900;-;-;9.228943;0.43115234;0.36579895;-;-;-;-;-;-;-;-;-;-;-;-;-;-;-
1514001795921;-;-;9.33429;0.36531067;0.33706665;-;-;-;-;-;-;-;-;-;-;-;-;-;-;-
1514001795941;-;-;9.262466;0.3569336;0.3538208;-;-;-;-;-;-;-;-;-;-;-;-;-;-;-
1514001795962;-;-;9.252884;0.35932922;0.33946228;-;-;-;-;-;-;-;-;-;-;-;-;-;-;-
1514001795982;-;-;9.250488;0.4287567;0.44241333;-;-;-;-;-;-;-;-;-;-;-;-;-;-;-
1514001796002;-;-;9.199005;0.45988464;0.37657166;-;-;-;-;-;-;-;-;-;-;-;-;-;-;-
1514001796023;-;-;9.160706;0.4479065;0.4112854;-;-;-;-;-;-;-;-;-;-;-;-;-;-;-
1514001796042;-;-;9.216965;0.45388794;0.46875;-;-;-;-;-;-;-;-;-;-;-;-;-;-;-
1514001796062;-;-;9.208588;0.4694519;0.5262146;-;-;-;-;-;-;-;-;-;-;-;-;-;-;-
1514001796083;-;-;9.234924;0.47782898;0.55374146;-;-;-;-;-;-;-;-;-;-;-;-;-;-;-
1514001796103;-;-;9.243301;0.44192505;0.4986725;-;-;-;-;-;-;-;-;-;-;-;-;-;-;-
1514001796124;-;-;9.228943;0.4299469;0.44480896;-;-;-;-;-;-;-;-;-;-;-;-;-;-;-
1514001796143;-;-;9.208588;0.39404297;0.40530396;-;-;-;-;-;-;-;-;-;-;-;-;-;-;-
1514001796164;-;-;9.172684;0.37010193;0.43164063;-;-;-;-;-;-;-;-;-;-;-;-;-;-;-
1514001796184;-;-;9.209793;0.41079712;0.48431396;-;-;-;-;-;-;-;-;-;-;-;-;-;-;-
1514001796204;-;-;9.25528;0.378479;0.5453644;-;-;-;-;-;-;-;-;-;-;-;-;-;-;-
1514001796225;-;-;9.262466;0.35812378;0.5154419;-;-;-;-;-;-;-;-;-;-;-;-;-;-;-
1514001796245;-;-;9.25528;0.36531067;0.5740967;-;-;-;-;-;-;-;-;-;-;-;-;-;-;-
1514001796266;-;-;9.206192;0.31263733;0.57170105;-;-;-;-;-;-;-;-;-;-;-;-;-;-;-
1514001796285;-;-;9.199005;0.26834106;0.57528687;-;-;-;-;-;-;-;-;-;-;-;-;-;-;-
1514001796306;-;-;9.195419;0.24919128;0.5549469;-;-;-;-;-;-;-;-;-;-;-;-;-;-;-
1514001796327;-;-;9.199005;0.25637817;0.60043335;-;-;-;-;-;-;-;-;-;-;-;-;-;-;-
1514001796347;-;-;9.201401;0.2922821;0.60401917;-;-;-;-;-;-;-;-;-;-;-;-;-;-;-
1514001796367;-;-;9.209793;0.2886963;0.6064148;-;-;-;-;-;-;-;-;-;-;-;-;-;-;-
1514001796388;-;-;9.232529;0.27911377;0.55374146;-;-;-;-;-;-;-;-;-;-;-;-;-;-;-
1514001796408;-;-;9.227737;0.29707336;0.49508667;-;-;-;-;-;-;-;-;-;-;-;-;-;-;-
1514001796428;-;-;9.23851;0.2886963;0.5190277;-;-;-;-;-;-;-;-;-;-;-;-;-;-;-
1514001796449;-;-;9.228943;0.22164917;0.48789978;-;-;-;-;-;-;-;-;-;-;-;-;-;-;-
1514001796470;-;-;9.224152;0.25756836;0.50227356;-;-;-;-;-;-;-;-;-;-;-;-;-;-;-
1514001796489;-;-;9.233734;0.30426025;0.52381897;-;-;-;-;-;-;-;-;-;-;-;-;-;-;-
1514001796510;-;-;9.252884;0.34735107;0.49269104;-;-;-;-;-;-;-;-;-;-;-;-;-;-;-
1514001796531;-;-;9.240906;0.32580566;0.5154419;-;-;-;-;-;-;-;-;-;-;-;-;-;-;-
1514001796551;-;-;9.213379;0.3569336;0.4615631;-;-;-;-;-;-;-;-;-;-;-;-;-;-;-
1514001796572;-;-;9.266052;0.34735107;0.49388123;-;-;-;-;-;-;-;-;-;-;-;-;-;-;-
1514001796591;-;-;9.230133;0.34495544;0.4388275;-;-;-;-;-;-;-;-;-;-;-;-;-;-;-
1514001796611;-;-;9.210983;0.30903625;0.42326355;-;-;-;-;-;-;-;-;-;-;-;-;-;-;-
1514001796632;-;-;9.267242;0.36531067;0.4974823;-;-;-;-;-;-;-;-;-;-;-;-;-;-;-
1514001796652;-;-;9.276825;0.39283752;0.46037292;-;-;-;-;-;-;-;-;-;-;-;-;-;-;-
1514001796672;-;-;9.224152;0.35572815;0.3825531;-;-;-;-;-;-;-;-;-;-;-;-;-;-;-
1514001796693;-;-;9.220566;0.35453796;0.4184723;-;-;-;-;-;-;-;-;-;-;-;-;-;-;-
1514001796713;-;-;9.202606;0.37010193;0.53100586;-;-;-;-;-;-;-;-;-;-;-;-;-;-;-
1514001796734;-;-;9.215775;0.34854126;0.54655457;-;-;-;-;-;-;-;-;-;-;-;-;-;-;-
1514001796754;-;-;9.206192;0.33657837;0.53338623;-;-;-;-;-;-;-;-;-;-;-;-;-;-;-
1514001796774;-;-;9.220566;0.3605194;0.51423645;-;-;-;-;-;-;-;-;-;-;-;-;-;-;-
1514001796795;-;-;9.248093;0.36410522;0.5286102;-;-;-;-;-;-;-;-;-;-;-;-;-;-;-
1514001796814;-;-;9.221756;0.33418274;0.48431396;-;-;-;-;-;-;-;-;-;-;-;-;-;-;-
1514001796834;-;-;9.213379;0.30426025;0.4795227;-;-;-;-;-;-;-;-;-;-;-;-;-;-;-
1514001796855;-;-;9.214569;0.30426025;0.5154419;-;-;-;-;-;-;-;-;-;-;-;-;-;-;-
1514001796875;-;-;9.245697;0.28988647;0.5166321;-;-;-;-;-;-;-;-;-;-;-;-;-;-;-
1514001796896;-;-;9.260071;0.29588318;0.53100586;-;-;-;-;-;-;-;-;-;-;-;-;-;-;-
1514001796916;-;-;9.227737;0.27792358;0.5118408;-;-;-;-;-;-;-;-;-;-;-;-;-;-;-
1514001796936;-;-;9.224152;0.26475525;0.5345917;-;-;-;-;-;-;-;-;-;-;-;-;-;-;-
1514001796957;-;-;9.263657;0.25756836;0.4807129;-;-;-;-;-;-;-;-;-;-;-;-;-;-;-
1514001796977;-;-;9.226547;0.2420044;0.54776;-;-;-;-;-;-;-;-;-;-;-;-;-;-;-
1514001796997;-;-;9.220566;0.23242188;0.54655457;-;-;-;-;-;-;-;-;-;-;-;-;-;-;-
1514001797018;-;-;9.254074;0.24320984;0.5166321;-;-;-;-;-;-;-;-;-;-;-;-;-;-;-
1514001797039;-;-;9.227737;0.2300415;0.49508667;-;-;-;-;-;-;-;-;-;-;-;-;-;-;-
1514001797059;-;-;9.269638;0.20968628;0.5094452;-;-;-;-;-;-;-;-;-;-;-;-;-;-;-
1514001797080;-;-;9.246902;0.23362732;0.5094452;-;-;-;-;-;-;-;-;-;-;-;-;-;-;-
1514001797100;-;-;9.234924;0.2192688;0.5381775;-;-;-;-;-;-;-;-;-;-;-;-;-;-;-
1514001797120;-;-;9.214569;0.23602295;0.56211853;-;-;-;-;-;-;-;-;-;-;-;-;-;-;-
1514001797141;-;-;9.220566;0.2707367;0.5381775;-;-;-;-;-;-;-;-;-;-;-;-;-;-;-
1514001797160;-;-;9.25528;0.26475525;0.49627686;-;-;-;-;-;-;-;-;-;-;-;-;-;-;-
1514001797181;-;-;9.226547;0.27313232;0.47833252;-;-;-;-;-;-;-;-;-;-;-;-;-;-;-
1514001797201;-;-;9.203796;0.26834106;0.508255;-;-;-;-;-;-;-;-;-;-;-;-;-;-;-
1514001797222;-;-;9.214569;0.2707367;0.49508667;-;-;-;-;-;-;-;-;-;-;-;-;-;-;-
1514001797242;-;-;9.251678;0.29707336;0.49388123;-;-;-;-;-;-;-;-;-;-;-;-;-;-;-
1514001797263;-;-;9.202606;0.30426025;0.47712708;-;-;-;-;-;-;-;-;-;-;-;-;-;-;-
1514001797282;-;-;9.199005;0.26235962;0.49987793;-;-;-;-;-;-;-;-;-;-;-;-;-;-;-
1514001797302;-;-;9.263657;0.28390503;0.5597229;-;-;-;-;-;-;-;-;-;-;-;-;-;-;-
1514001797323;-;-;9.276825;0.29826355;0.49508667;-;-;-;-;-;-;-;-;-;-;-;-;-;-;-
1514001797343;-;-;9.2313385;0.2850952;0.43643188;-;-;-;-;-;-;-;-;-;-;-;-;-;-;-
1514001797364;-;-;9.227737;0.30903625;0.43643188;-;-;-;-;-;-;-;-;-;-;-;-;-;-;-
1514001797384;-;-;9.258865;0.27313232;0.54776;-;-;-;-;-;-;-;-;-;-;-;-;-;-;-
1514001797404;-;-;9.23732;0.259964;0.5992279;-;-;-;-;-;-;-;-;-;-;-;-;-;-;-
1514001797425;-;-;9.213379;0.34854126;0.55015564;-;-;-;-;-;-;-;-;-;-;-;-;-;-;-
1514001797445;-;-;9.207397;0.31861877;0.4807129;-;-;-;-;-;-;-;-;-;-;-;-;-;-;-
1514001797465;-;-;9.206192;0.3222046;0.52142334;-;-;-;-;-;-;-;-;-;-;-;-;-;-;-
1514001797486;-;-;9.21936;0.30545044;0.5046692;-;-;-;-;-;-;-;-;-;-;-;-;-;-;-
1514001797506;-;-;9.214569;0.2803192;0.50346375;-;-;-;-;-;-;-;-;-;-;-;-;-;-;-
1514001797527;-;-;9.285202;0.27192688;0.49150085;-;-;-;-;-;-;-;-;-;-;-;-;-;-;-
1514001797547;-;-;9.291183;0.24559021;0.48789978;-;-;-;-;-;-;-;-;-;-;-;-;-;-;-
1514001797567;-;-;9.244507;0.30545044;0.48431396;-;-;-;-;-;-;-;-;-;-;-;-;-;-;-
1514001797588;-;-;9.212173;0.30665588;0.5262146;-;-;-;-;-;-;-;-;-;-;-;-;-;-;-
1514001797607;-;-;9.233734;0.26475525;0.46875;-;-;-;-;-;-;-;-;-;-;-;-;-;-;-
1514001797628;-;-;9.225342;0.26235962;0.50346375;-;-;-;-;-;-;-;-;-;-;-;-;-;-;-
1514001797647;-;-;9.207397;0.2348175;0.5046692;-;-;-;-;-;-;-;-;-;-;-;-;-;-;-
1514001797667;-;-;9.225342;0.27911377;0.5286102;-;-;-;-;-;-;-;-;-;-;-;-;-;-;-
1514001797688;-;-;9.250488;0.23960876;0.51065063;-;-;-;-;-;-;-;-;-;-;-;-;-;-;-
1514001797708;-;-;9.239716;0.26715088;0.5154419;-;-;-;-;-;-;-;-;-;-;-;-;-;-;-
1514001797728;-;-;9.242111;0.24081421;0.5345917;-;-;-;-;-;-;-;-;-;-;-;-;-;-;-
1514001797749;-;-;9.254074;0.27192688;0.55015564;-;-;-;-;-;-;-;-;-;-;-;-;-;-;-
1514001797769;-;-;9.233734;0.25398254;0.55015564;-;-;-;-;-;-;-;-;-;-;-;-;-;-;-
1514001797790;-;-;9.214569;0.259964;0.5190277;-;-;-;-;-;-;-;-;-;-;-;-;-;-;-
1514001797809;-;-;9.252884;0.24798584;0.508255;-;-;-;-;-;-;-;-;-;-;-;-;-;-;-
1514001797829;-;-;9.21936;0.26475525;0.53100586;-;-;-;-;-;-;-;-;-;-;-;-;-;-;-
1514001797850;-;-;9.222961;0.23362732;0.52500916;-;-;-;-;-;-;-;-;-;-;-;-;-;-;-
1514001797871;-;-;9.239716;0.25875854;0.5669098;-;-;-;-;-;-;-;-;-;-;-;-;-;-;-
1514001797891;-;-;9.23851;0.28390503;0.57289124;-;-;-;-;-;-;-;-;-;-;-;-;-;-;-
1514001797910;-;-;9.222961;0.2695465;0.54776;-;-;-;-;-;-;-;-;-;-;-;-;-;-;-
1514001797931;-;-;9.228943;0.32580566;0.5597229;-;-;-;-;-;-;-;-;-;-;-;-;-;-;-
1514001797951;-;-;9.250488;0.3222046;0.5657196;-;-;-;-;-;-;-;-;-;-;-;-;-;-;-
1514001797971;-;-;9.196625;0.32699585;0.55255127;-;-;-;-;-;-;-;-;-;-;-;-;-;-;-
1514001797991;-;-;9.1918335;0.3317871;0.5704956;-;-;-;-;-;-;-;-;-;-;-;-;-;-;-
1514001798012;-;-;9.23732;0.34016418;0.6375427;-;-;-;-;-;-;-;-;-;-;-;-;-;-;-
1514001798033;-;-;9.242111;0.35453796;0.57888794;-;-;-;-;-;-;-;-;-;-;-;-;-;-;-
1514001798052;-;-;9.210983;0.33776855;0.5178375;-;-;-;-;-;-;-;-;-;-;-;-;-;-;-
1514001798073;-;-;9.195419;0.28271484;0.5585327;-;-;-;-;-;-;-;-;-;-;-;-;-;-;-
1514001798092;-;-;9.234924;0.2743225;0.63993835;-;-;-;-;-;-;-;-;-;-;-;-;-;-;-
1514001798113;-;-;9.215775;0.29348755;0.5884552;-;-;-;-;-;-;-;-;-;-;-;-;-;-;-
1514001798133;-;-;9.200211;0.3210144;0.57888794;-;-;-;-;-;-;-;-;-;-;-;-;-;-;-
1514001798154;-;-;9.199005;0.3030548;0.58966064;-;-;-;-;-;-;-;-;-;-;-;-;-;-;-
1514001798174;-;-;9.245697;0.3102417;0.55255127;-;-;-;-;-;-;-;-;-;-;-;-;-;-;-
1514001798194;-;-;9.210983;0.27911377;0.5693054;-;-;-;-;-;-;-;-;-;-;-;-;-;-;-
1514001798215;-;-;9.221756;0.27792358;0.5202179;-;-;-;-;-;-;-;-;-;-;-;-;-;-;-
1514001798234;-;-;9.240906;0.31263733;0.56451416;-;-;-;-;-;-;-;-;-;-;-;-;-;-;-
1514001798254;-;-;9.239716;0.27313232;0.59085083;-;-;-;-;-;-;-;-;-;-;-;-;-;-;-
1514001798275;-;-;9.225342;0.31143188;0.5848694;-;-;-;-;-;-;-;-;-;-;-;-;-;-;-
1514001798295;-;-;9.232529;0.30665588;0.54655457;-;-;-;-;-;-;-;-;-;-;-;-;-;-;-
1514001798316;-;-;9.228943;0.30065918;0.54177856;-;-;-;-;-;-;-;-;-;-;-;-;-;-;-
1514001798336;-;-;9.227737;0.31263733;0.60162354;-;-;-;-;-;-;-;-;-;-;-;-;-;-;-
1514001798357;-;-;9.240906;0.29109192;0.5920563;-;-;-;-;-;-;-;-;-;-;-;-;-;-;-
1514001798376;-;-;9.213379;0.28988647;0.60043335;-;-;-;-;-;-;-;-;-;-;-;-;-;-;-
1514001798397;-;-;9.226547;0.28988647;0.54655457;-;-;-;-;-;-;-;-;-;-;-;-;-;-;-
1514001798418;-;-;9.227737;0.27671814;0.57888794;-;-;-;-;-;-;-;-;-;-;-;-;-;-;-
1514001798438;-;-;9.240906;0.30426025;0.62677;-;-;-;-;-;-;-;-;-;-;-;-;-;-;-
1514001798458;-;-;9.185837;0.27792358;0.65071106;-;-;-;-;-;-;-;-;-;-;-;-;-;-;-
1514001798479;-;-;9.226547;0.2803192;0.6375427;-;-;-;-;-;-;-;-;-;-;-;-;-;-;-
1514001798499;-;-;9.254074;0.27792358;0.6315613;-;-;-;-;-;-;-;-;-;-;-;-;-;-;-
1514001798520;-;-;9.246902;0.29826355;0.60162354;-;-;-;-;-;-;-;-;-;-;-;-;-;-;-
1514001798540;-;-;9.195419;0.30186462;0.6052246;-;-;-;-;-;-;-;-;-;-;-;-;-;-;-
1514001798561;-;-;9.23732;0.27192688;0.5800781;-;-;-;-;-;-;-;-;-;-;-;-;-;-;-
1514001798581;-;-;9.189438;0.27911377;0.5968323;-;-;-;-;-;-;-;-;-;-;-;-;-;-;-
1514001798601;-;-;9.232529;0.29109192;0.59324646;-;-;-;-;-;-;-;-;-;-;-;-;-;-;-
1514001798621;-;-;9.233734;0.2886963;0.55015564;-;-;-;-;-;-;-;-;-;-;-;-;-;-;-
1514001798642;-;-;9.185837;0.26834106;0.5405731;-;-;-;-;-;-;-;-;-;-;-;-;-;-;-
1514001798663;-;-;9.207397;0.27552795;0.60043335;-;-;-;-;-;-;-;-;-;-;-;-;-;-;-
1514001798683;-;-;9.261261;0.26594543;0.5920563;-;-;-;-;-;-;-;-;-;-;-;-;-;-;-
1514001798703;-;-;9.234924;0.28749084;0.56811523;-;-;-;-;-;-;-;-;-;-;-;-;-;-;-
1514001798724;-;-;9.181061;0.2803192;0.5764923;-;-;-;-;-;-;-;-;-;-;-;-;-;-;-
1514001798743;-;-;9.200211;0.28630066;0.6387329;-;-;-;-;-;-;-;-;-;-;-;-;-;-;-
1514001798764;-;-;9.279221;0.30426025;0.64112854;-;-;-;-;-;-;-;-;-;-;-;-;-;-;-
1514001798784;-;-;9.244507;0.28390503;0.53219604;-;-;-;-;-;-;-;-;-;-;-;-;-;-;-
1514001798804;-;-;9.232529;0.27671814;0.54177856;-;-;-;-;-;-;-;-;-;-;-;-;-;-;-
1514001798825;-;-;9.258865;0.28390503;0.63035583;-;-;-;-;-;-;-;-;-;-;-;-;-;-;-
1514001798844;-;-;9.225342;0.2803192;0.6830292;-;-;-;-;-;-;-;-;-;-;-;-;-;-;-
1514001798865;-;-;9.199005;0.29348755;0.6351471;-;-;-;-;-;-;-;-;-;-;-;-;-;-;-
1514001798886;-;-;9.200211;0.29826355;0.62197876;-;-;-;-;-;-;-;-;-;-;-;-;-;-;-
1514001798906;-;-;9.209793;0.31503296;0.61120605;-;-;-;-;-;-;-;-;-;-;-;-;-;-;-
1514001798926;-;-;9.213379;0.30665588;0.5956421;-;-;-;-;-;-;-;-;-;-;-;-;-;-;-
1514001798947;-;-;9.210983;0.32341003;0.6447296;-;-;-;-;-;-;-;-;-;-;-;-;-;-;-
1514001798966;-;-;9.230133;0.26834106;0.66986084;-;-;-;-;-;-;-;-;-;-;-;-;-;-;-
1514001798986;-;-;9.220566;0.24919128;0.6566925;-;-;-;-;-;-;-;-;-;-;-;-;-;-;-
1514001799007;-;-;9.243301;0.24320984;0.681839;-;-;-;-;-;-;-;-;-;-;-;-;-;-;-
1514001799027;-;-;9.239716;0.23960876;0.62316895;-;-;-;-;-;-;-;-;-;-;-;-;-;-;-
1514001799048;-;-;9.200211;0.259964;0.6638794;-;-;-;-;-;-;-;-;-;-;-;-;-;-;-
1514001799069;-;-;9.214569;0.2635498;0.6483154;-;-;-;-;-;-;-;-;-;-;-;-;-;-;-
1514001799089;-;-;9.21936;0.2803192;0.6447296;-;-;-;-;-;-;-;-;-;-;-;-;-;-;-
1514001799110;-;-;9.251678;0.26594543;0.60162354;-;-;-;-;-;-;-;-;-;-;-;-;-;-;-
1514001799131;-;-;9.269638;0.25875854;0.642334;-;-;-;-;-;-;-;-;-;-;-;-;-;-;-
1514001799151;-;-;9.216965;0.26235962;0.6447296;-;-;-;-;-;-;-;-;-;-;-;-;-;-;-
1514001799170;-;-;9.220566;0.26115417;0.6447296;-;-;-;-;-;-;-;-;-;-;-;-;-;-;-
1514001799191;-;-;9.207397;0.23602295;0.64711;-;-;-;-;-;-;-;-;-;-;-;-;-;-;-
1514001799211;-;-;9.205002;0.24440002;0.63035583;-;-;-;-;-;-;-;-;-;-;-;-;-;-;-
1514001799231;-;-;9.21817;0.24798584;0.6171875;-;-;-;-;-;-;-;-;-;-;-;-;-;-;-
1514001799252;-;-;9.239716;0.24679565;0.62677;-;-;-;-;-;-;-;-;-;-;-;-;-;-;-
1514001799272;-;-;9.228943;0.23841858;0.6100006;-;-;-;-;-;-;-;-;-;-;-;-;-;-;-
1514001799293;-;-;9.234924;0.24081421;0.6136017;-;-;-;-;-;-;-;-;-;-;-;-;-;-;-
1514001799314;-;-;9.251678;0.25875854;0.6159973;-;-;-;-;-;-;-;-;-;-;-;-;-;-;-
1514001799334;-;-;9.246902;0.27192688;0.65908813;-;-;-;-;-;-;-;-;-;-;-;-;-;-;-
1514001799354;-;-;9.216965;0.27313232;0.6495056;-;-;-;-;-;-;-;-;-;-;-;-;-;-;-
1514001799375;-;-;9.225342;0.23123169;0.6566925;-;-;-;-;-;-;-;-;-;-;-;-;-;-;-
1514001799394;-;-;9.23732;0.22764587;0.70936584;-;-;-;-;-;-;-;-;-;-;-;-;-;-;-
1514001799414;-;-;9.262466;0.23242188;0.6890106;-;-;-;-;-;-;-;-;-;-;-;-;-;-;-
1514001799435;-;-;9.228943;0.2515869;0.7069702;-;-;-;-;-;-;-;-;-;-;-;-;-;-;-
