TimeStamp[ms];Prox[Cm];Lux[lux];AccX[m/s^2];AccY[m/s^2];AccZ[m/s^2];GyroX[rad/s];GyroY[rad/s];GyroZ[rad/s];MagnX[uT];MagnY[uT];MagnZ[uT];OrienYaw[degrees];OrienPitch[degrees];OrienRoll[degrees];Press[Pa];Temp[C°];Batt[%];Lat;Lng;Speed[m/s]
1514001447034;-;-;8.386185;-2.6178741;0.20059204;-;-;-;-;-;-;-;-;-;-;-;-;-;-;-
1514001447063;-;-;8.944031;-2.4550629;0.41249084;-;-;-;-;-;-;-;-;-;-;-;-;-;-;-
1514001447074;-;-;9.31752;-2.7962341;0.75245667;-;-;-;-;-;-;-;-;-;-;-;-;-;-;-
1514001447094;-;-;9.67067;-2.277893;0.38734436;-;-;-;-;-;-;-;-;-;-;-;-;-;-;-
1514001447115;-;-;9.183456;-2.6657562;-0.57032776;-;-;-;-;-;-;-;-;-;-;-;-;-;-;-
1514001447135;-;-;8.831497;-2.8082123;-0.14176941;-;-;-;-;-;-;-;-;-;-;-;-;-;-;-
1514001447155;-;-;9.267242;-2.514923;0.15989685;-;-;-;-;-;-;-;-;-;-;-;-;-;-;-
1514001447175;-;-;9.451599;-2.3652802;0.31791687;-;-;-;-;-;-;-;-;-;-;-;-;-;-;-
1514001447195;-;-;9.133179;-2.2743073;0.22215271;-;-;-;-;-;-;-;-;-;-;-;-;-;-;-
1514001447216;-;-;8.966782;-2.411972;0.40290833;-;-;-;-;-;-;-;-;-;-;-;-;-;-;-
1514001447236;-;-;8.935654;-2.5065308;0.4005127;-;-;-;-;-;-;-;-;-;-;-;-;-;-;-
1514001447257;-;-;8.926071;-2.4047852;0.2448883;-;-;-;-;-;-;-;-;-;-;-;-;-;-;-
1514001447277;-;-;8.948822;-2.3257751;-0.029251099;-;-;-;-;-;-;-;-;-;-;-;-;-;-;-
1514001447311;-;-;9.1918335;-2.348526;-0.012481689;-;-;-;-;-;-;-;-;-;-;-;-;-;-;-
1514001447318;-;-;9.167892;-2.4263306;0.055755615;-;-;-;-;-;-;-;-;-;-;-;-;-;-;-
1514001447338;-;-;9.141556;-2.4347076;0.31072998;-;-;-;-;-;-;-;-;-;-;-;-;-;-;-
1514001447359;-;-;9.00029;-2.289856;-0.0053100586;-;-;-;-;-;-;-;-;-;-;-;-;-;-;-
1514001447379;-;-;8.728546;-2.3975983;0.072509766;-;-;-;-;-;-;-;-;-;-;-;-;-;-;-
1514001447399;-;-;9.858612;-1.9079895;-2.2798004;-;-;-;-;-;-;-;-;-;-;-;-;-;-;-
1514001447420;-;-;8.386185;-2.5448456;-1.0719147;-;-;-;-;-;-;-;-;-;-;-;-;-;-;-
1514001447442;-;-;9.773621;-2.9243317;-0.36442566;-;-;-;-;-;-;-;-;-;-;-;-;-;-;-
1514001447462;-;-;9.293579;-2.3580933;-0.42668152;-;-;-;-;-;-;-;-;-;-;-;-;-;-;-
1514001447483;-;-;9.333084;-1.6242676;-0.48054504;-;-;-;-;-;-;-;-;-;-;-;-;-;-;-
1514001447503;-;-;9.644333;-1.6793365;-0.7115936;-;-;-;-;-;-;-;-;-;-;-;-;-;-;-
1514001447524;-;-;9.304352;-1.961853;-0.5463867;-;-;-;-;-;-;-;-;-;-;-;-;-;-;-
1514001447544;-;-;8.797989;-2.1785278;-0.63139343;-;-;-;-;-;-;-;-;-;-;-;-;-;-;-
1514001447565;-;-;9.61441;-2.7746887;-0.107055664;-;-;-;-;-;-;-;-;-;-;-;-;-;-;-
1514001447585;-;-;9.673065;-2.3856354;-0.41949463;-;-;-;-;-;-;-;-;-;-;-;-;-;-;-
1514001447606;-;-;8.674683;-1.7547607;-1.3915405;-;-;-;-;-;-;-;-;-;-;-;-;-;-;-
1514001447626;-;-;8.817139;-1.9295349;-0.7187805;-;-;-;-;-;-;-;-;-;-;-;-;-;-;-
1514001447646;-;-;8.927277;-2.142624;-0.36083984;-;-;-;-;-;-;-;-;-;-;-;-;-;-;-
1514001447667;-;-;8.951218;-2.3820343;-0.35604858;-;-;-;-;-;-;-;-;-;-;-;-;-;-;-
1514001447687;-;-;9.491104;-2.6178741;-0.81573486;-;-;-;-;-;-;-;-;-;-;-;-;-;-;-
1514001447707;-;-;9.483917;-2.3975983;-0.51527405;-;-;-;-;-;-;-;-;-;-;-;-;-;-;-
1514001447727;-;-;8.90213;-2.2587433;-0.48294067;-;-;-;-;-;-;-;-;-;-;-;-;-;-;-
1514001447748;-;-;8.806366;-2.353302;-0.23394775;-;-;-;-;-;-;-;-;-;-;-;-;-;-;-
1514001447768;-;-;8.754883;-2.0348816;-0.57392883;-;-;-;-;-;-;-;-;-;-;-;-;-;-;-
1514001447789;-;-;9.328293;-2.5233002;-0.46020508;-;-;-;-;-;-;-;-;-;-;-;-;-;-;-
1514001447810;-;-;9.340271;-2.3988037;-0.86242676;-;-;-;-;-;-;-;-;-;-;-;-;-;-;-
1514001447830;-;-;8.948822;-2.182129;-0.55596924;-;-;-;-;-;-;-;-;-;-;-;-;-;-;-
1514001447849;-;-;9.266052;-2.1342316;-0.9115143;-;-;-;-;-;-;-;-;-;-;-;-;-;-;-
1514001447869;-;-;9.501877;-2.4813995;-0.5858917;-;-;-;-;-;-;-;-;-;-;-;-;-;-;-
1514001447890;-;-;8.875793;-2.1557922;0.094055176;-;-;-;-;-;-;-;-;-;-;-;-;-;-;-
1514001447910;-;-;8.56575;-2.2982483;-0.45899963;-;-;-;-;-;-;-;-;-;-;-;-;-;-;-
1514001447930;-;-;9.893326;-2.5292816;-0.88157654;-;-;-;-;-;-;-;-;-;-;-;-;-;-;-
1514001447951;-;-;8.5238495;-2.5532227;-2.4006958;-;-;-;-;-;-;-;-;-;-;-;-;-;-;-
1514001447971;-;-;9.026627;-2.2743073;-1.2443085;-;-;-;-;-;-;-;-;-;-;-;-;-;-;-
1514001447992;-;-;8.442444;-2.3377533;-0.7738342;-;-;-;-;-;-;-;-;-;-;-;-;-;-;-
1514001448012;-;-;9.155914;-1.8050385;-0.99650574;-;-;-;-;-;-;-;-;-;-;-;-;-;-;-
1514001448033;-;-;10.230911;-1.9079895;-1.579483;-;-;-;-;-;-;-;-;-;-;-;-;-;-;-
1514001448054;-;-;9.515045;-2.918335;-2.682022;-;-;-;-;-;-;-;-;-;-;-;-;-;-;-
1514001448073;-;-;9.333084;-2.344925;-0.95700073;-;-;-;-;-;-;-;-;-;-;-;-;-;-;-
1514001448094;-;-;6.5115204;-1.210083;0.587265;-;-;-;-;-;-;-;-;-;-;-;-;-;-;-
1514001448115;-;-;7.3099823;-0.8186188;-2.0906525;-;-;-;-;-;-;-;-;-;-;-;-;-;-;-
1514001448135;-;-;9.764038;-2.2587433;-1.1748657;-;-;-;-;-;-;-;-;-;-;-;-;-;-;-
1514001448154;-;-;9.783203;-1.6601868;-0.26268005;-;-;-;-;-;-;-;-;-;-;-;-;-;-;-
1514001448176;-;-;10.964737;-0.5540619;0.350235;-;-;-;-;-;-;-;-;-;-;-;-;-;-;-
1514001448195;-;-;7.7924194;0.299469;-1.4154816;-;-;-;-;-;-;-;-;-;-;-;-;-;-;-
1514001448215;-;-;8.1527405;-1.111908;-2.0403748;-;-;-;-;-;-;-;-;-;-;-;-;-;-;-
1514001448236;-;-;8.094086;-1.4506989;-3.7498322;-;-;-;-;-;-;-;-;-;-;-;-;-;-;-
1514001448256;-;-;11.74884;-0.89404297;-4.492035;-;-;-;-;-;-;-;-;-;-;-;-;-;-;-
1514001448277;-;-;9.21936;-0.9323425;-3.847992;-;-;-;-;-;-;-;-;-;-;-;-;-;-;-
1514001448297;-;-;10.294357;-0.4882202;-3.440979;-;-;-;-;-;-;-;-;-;-;-;-;-;-;-
1514001448318;-;-;9.914871;-0.88446045;-3.666031;-;-;-;-;-;-;-;-;-;-;-;-;-;-;-
1514001448338;-;-;9.250488;-1.3932343;-2.8843231;-;-;-;-;-;-;-;-;-;-;-;-;-;-;-
1514001448359;-;-;9.463577;-2.4215393;-3.0435486;-;-;-;-;-;-;-;-;-;-;-;-;-;-;-
1514001448379;-;-;8.413712;-1.0185394;-3.528366;-;-;-;-;-;-;-;-;-;-;-;-;-;-;-
1514001448400;-;-;8.174301;0.30065918;-4.840393;-;-;-;-;-;-;-;-;-;-;-;-;-;-;-
1514001448419;-;-;9.024231;-0.19374084;-3.935379;-;-;-;-;-;-;-;-;-;-;-;-;-;-;-
1514001448440;-;-;9.796371;0.27911377;-3.3966827;-;-;-;-;-;-;-;-;-;-;-;-;-;-;-
1514001448460;-;-;9.254074;2.4949493;-3.6349182;-;-;-;-;-;-;-;-;-;-;-;-;-;-;-
1514001448480;-;-;8.339493;2.6206512;-3.5714722;-;-;-;-;-;-;-;-;-;-;-;-;-;-;-
1514001448501;-;-;9.210983;1.9670258;-1.9338379;-;-;-;-;-;-;-;-;-;-;-;-;-;-;-
1514001448521;-;-;8.447235;1.5025482;-2.2809906;-;-;-;-;-;-;-;-;-;-;-;-;-;-;-
1514001448542;-;-;8.319138;0.7232361;-0.5727234;-;-;-;-;-;-;-;-;-;-;-;-;-;-;-
1514001448562;-;-;8.386185;-0.2033081;-0.1489563;-;-;-;-;-;-;-;-;-;-;-;-;-;-;-
1514001448582;-;-;8.687851;-0.21289063;-0.05558777;-;-;-;-;-;-;-;-;-;-;-;-;-;-;-
1514001448603;-;-;8.085709;-0.96946716;0.20059204;-;-;-;-;-;-;-;-;-;-;-;-;-;-;-
1514001448622;-;-;7.7696686;-0.40083313;-1.832077;-;-;-;-;-;-;-;-;-;-;-;-;-;-;-
1514001448643;-;-;10.845032;-1.175354;-2.1469116;-;-;-;-;-;-;-;-;-;-;-;-;-;-;-
1514001448663;-;-;11.180222;-0.105148315;-3.1297302;-;-;-;-;-;-;-;-;-;-;-;-;-;-;-
1514001448684;-;-;11.6267395;0.031311035;-2.507248;-;-;-;-;-;-;-;-;-;-;-;-;-;-;-
1514001448704;-;-;10.79953;-0.20930481;-0.27464294;-;-;-;-;-;-;-;-;-;-;-;-;-;-;-
1514001448724;-;-;9.784393;0.20249939;0.04975891;-;-;-;-;-;-;-;-;-;-;-;-;-;-;-
1514001448745;-;-;7.5230713;1.051239;-0.21479797;-;-;-;-;-;-;-;-;-;-;-;-;-;-;-
1514001448765;-;-;5.7800903;1.714447;-1.4992828;-;-;-;-;-;-;-;-;-;-;-;-;-;-;-
1514001448785;-;-;7.8594513;1.0691986;-0.9629822;-;-;-;-;-;-;-;-;-;-;-;-;-;-;-
1514001448806;-;-;9.011063;0.4479065;-1.3568268;-;-;-;-;-;-;-;-;-;-;-;-;-;-;-
1514001448827;-;-;10.691803;0.064834595;0.3203125;-;-;-;-;-;-;-;-;-;-;-;-;-;-;-
1514001448847;-;-;10.174652;0.6023407;0.16827393;-;-;-;-;-;-;-;-;-;-;-;-;-;-;-
1514001448868;-;-;8.863831;0.5520477;0.31791687;-;-;-;-;-;-;-;-;-;-;-;-;-;-;-
1514001448888;-;-;8.475967;0.96624756;-1.0312195;-;-;-;-;-;-;-;-;-;-;-;-;-;-;-
1514001448909;-;-;8.946426;-0.02494812;-0.6122284;-;-;-;-;-;-;-;-;-;-;-;-;-;-;-
1514001448929;-;-;6.664749;0.5592346;-1.4154816;-;-;-;-;-;-;-;-;-;-;-;-;-;-;-
1514001448950;-;-;7.9037476;1.1589813;-0.7750397;-;-;-;-;-;-;-;-;-;-;-;-;-;-;-
1514001448970;-;-;11.815872;-0.112335205;-0.97735596;-;-;-;-;-;-;-;-;-;-;-;-;-;-;-
1514001448991;-;-;11.933197;-0.72525024;-3.4002838;-;-;-;-;-;-;-;-;-;-;-;-;-;-;-
1514001449011;-;-;10.400894;-1.0221252;-2.0882568;-;-;-;-;-;-;-;-;-;-;-;-;-;-;-
1514001449032;-;-;10.590042;-0.27035522;-1.8787689;-;-;-;-;-;-;-;-;-;-;-;-;-;-;-
1514001449051;-;-;9.37619;2.0484314;-1.3568268;-;-;-;-;-;-;-;-;-;-;-;-;-;-;-
1514001449071;-;-;7.1806946;0.22883606;-0.04121399;-;-;-;-;-;-;-;-;-;-;-;-;-;-;-
1514001449092;-;-;6.161972;1.3696747;-0.6661072;-;-;-;-;-;-;-;-;-;-;-;-;-;-;-
1514001449112;-;-;7.166336;1.2308044;-1.234726;-;-;-;-;-;-;-;-;-;-;-;-;-;-;-
1514001449133;-;-;8.915298;0.2192688;-1.0156555;-;-;-;-;-;-;-;-;-;-;-;-;-;-;-
1514001449153;-;-;10.947983;-1.3788757;-1.2000122;-;-;-;-;-;-;-;-;-;-;-;-;-;-;-
1514001449174;-;-;11.603989;-4.000519;-1.0024872;-;-;-;-;-;-;-;-;-;-;-;-;-;-;-
1514001449194;-;-;10.815094;-3.2834625;-1.7015991;-;-;-;-;-;-;-;-;-;-;-;-;-;-;-
1514001449215;-;-;9.766434;-2.2012787;-0.5416107;-;-;-;-;-;-;-;-;-;-;-;-;-;-;-
1514001449235;-;-;8.617218;-1.7499695;-1.0814972;-;-;-;-;-;-;-;-;-;-;-;-;-;-;-
1514001449256;-;-;9.803543;-0.8665161;-2.1936035;-;-;-;-;-;-;-;-;-;-;-;-;-;-;-
1514001449277;-;-;7.944458;-0.49899292;-0.56555176;-;-;-;-;-;-;-;-;-;-;-;-;-;-;-
1514001449296;-;-;8.801575;-0.73483276;-1.1664886;-;-;-;-;-;-;-;-;-;-;-;-;-;-;-
1514001449316;-;-;9.677856;-1.0604401;-1.2562714;-;-;-;-;-;-;-;-;-;-;-;-;-;-;-
1514001449336;-;-;9.562927;0.08518982;-3.7199097;-;-;-;-;-;-;-;-;-;-;-;-;-;-;-
1514001449357;-;-;10.056137;0.32939148;-1.7279358;-;-;-;-;-;-;-;-;-;-;-;-;-;-;-
1514001449378;-;-;9.862213;0.20848083;-1.6225891;-;-;-;-;-;-;-;-;-;-;-;-;-;-;-
1514001449398;-;-;8.826721;-0.18296814;-1.0826874;-;-;-;-;-;-;-;-;-;-;-;-;-;-;-
1514001449419;-;-;8.332306;-0.5923767;-1.1844482;-;-;-;-;-;-;-;-;-;-;-;-;-;-;-
1514001449439;-;-;9.009872;-1.1346588;-1.3807678;-;-;-;-;-;-;-;-;-;-;-;-;-;-;-
1514001449460;-;-;9.163101;-1.2172546;-1.6644897;-;-;-;-;-;-;-;-;-;-;-;-;-;-;-
1514001449479;-;-;9.199005;-0.9910126;-1.6944122;-;-;-;-;-;-;-;-;-;-;-;-;-;-;-
1514001449500;-;-;8.996704;-0.6246948;-1.5232239;-;-;-;-;-;-;-;-;-;-;-;-;-;-;-
1514001449519;-;-;9.153519;-0.58639526;-1.5339966;-;-;-;-;-;-;-;-;-;-;-;-;-;-;-
1514001449540;-;-;9.084091;-0.74679565;-1.7889862;-;-;-;-;-;-;-;-;-;-;-;-;-;-;-
1514001449559;-;-;8.527435;-1.1107178;-1.7147675;-;-;-;-;-;-;-;-;-;-;-;-;-;-;-
1514001449579;-;-;8.497513;-1.3154297;-1.5339966;-;-;-;-;-;-;-;-;-;-;-;-;-;-;-
1514001449600;-;-;8.668701;-1.5536499;-1.4514008;-;-;-;-;-;-;-;-;-;-;-;-;-;-;-
1514001449620;-;-;8.953613;-1.6051178;-1.7578583;-;-;-;-;-;-;-;-;-;-;-;-;-;-;-
1514001449641;-;-;9.145142;-1.3704834;-2.148117;-;-;-;-;-;-;-;-;-;-;-;-;-;-;-
1514001449662;-;-;8.6028595;-1.2651367;-2.467743;-;-;-;-;-;-;-;-;-;-;-;-;-;-;-
1514001449682;-;-;8.307175;-1.175354;-1.8213043;-;-;-;-;-;-;-;-;-;-;-;-;-;-;-
1514001449703;-;-;8.90094;-0.76356506;-1.6764526;-;-;-;-;-;-;-;-;-;-;-;-;-;-;-
1514001449722;-;-;9.340271;-0.68814087;-2.1588898;-;-;-;-;-;-;-;-;-;-;-;-;-;-;-
1514001449743;-;-;9.300766;-1.0388947;-3.0758667;-;-;-;-;-;-;-;-;-;-;-;-;-;-;-
1514001449763;-;-;9.33548;-1.3465424;-3.3392334;-;-;-;-;-;-;-;-;-;-;-;-;-;-;-
1514001449784;-;-;8.517868;-1.6925049;-2.4545746;-;-;-;-;-;-;-;-;-;-;-;-;-;-;-
1514001449803;-;-;8.478363;-1.6637726;-1.8380585;-;-;-;-;-;-;-;-;-;-;-;-;-;-;-
1514001449823;-;-;8.232956;-1.4243622;-2.0248108;-;-;-;-;-;-;-;-;-;-;-;-;-;-;-
1514001449843;-;-;8.007904;-1.6589966;-2.6784363;-;-;-;-;-;-;-;-;-;-;-;-;-;-;-
1514001449864;-;-;7.7577057;-1.9726257;-2.8843231;-;-;-;-;-;-;-;-;-;-;-;-;-;-;-
1514001449884;-;-;7.18309;-1.8170013;-2.5144196;-;-;-;-;-;-;-;-;-;-;-;-;-;-;-
1514001449905;-;-;6.7006683;-1.783493;-2.1265717;-;-;-;-;-;-;-;-;-;-;-;-;-;-;-
1514001449925;-;-;6.560608;-1.585968;-2.4402008;-;-;-;-;-;-;-;-;-;-;-;-;-;-;-
1514001449946;-;-;6.588135;-1.3980255;-3.2087402;-;-;-;-;-;-;-;-;-;-;-;-;-;-;-
1514001449966;-;-;6.6539764;-1.3788757;-3.9569397;-;-;-;-;-;-;-;-;-;-;-;-;-;-;-
1514001449987;-;-;6.862274;-1.3166199;-4.445343;-;-;-;-;-;-;-;-;-;-;-;-;-;-;-
1514001450006;-;-;6.975998;-1.1023407;-4.694351;-;-;-;-;-;-;-;-;-;-;-;-;-;-;-
1514001450027;-;-;6.774887;-0.6318817;-4.289734;-;-;-;-;-;-;-;-;-;-;-;-;-;-;-
1514001450047;-;-;6.426529;-0.7156677;-3.6528625;-;-;-;-;-;-;-;-;-;-;-;-;-;-;-
1514001450068;-;-;6.189499;-0.9323425;-3.5583038;-;-;-;-;-;-;-;-;-;-;-;-;-;-;-
1514001450088;-;-;5.6460114;-1.1490326;-3.7665863;-;-;-;-;-;-;-;-;-;-;-;-;-;-;-
1514001450109;-;-;5.1432343;-1.2208557;-3.7917328;-;-;-;-;-;-;-;-;-;-;-;-;-;-;-
1514001450129;-;-;4.3938446;-1.1621857;-3.4038696;-;-;-;-;-;-;-;-;-;-;-;-;-;-;-
1514001450150;-;-;4.6967163;-1.1789551;-3.6684265;-;-;-;-;-;-;-;-;-;-;-;-;-;-;-
1514001450170;-;-;6.309204;-1.2902832;-4.6129456;-;-;-;-;-;-;-;-;-;-;-;-;-;-;-
1514001450191;-;-;8.061768;-1.625473;-5.6951294;-;-;-;-;-;-;-;-;-;-;-;-;-;-;-
1514001450211;-;-;9.1918335;-2.0839539;-6.7282257;-;-;-;-;-;-;-;-;-;-;-;-;-;-;-
1514001450232;-;-;9.064941;-2.8919983;-6.476837;-;-;-;-;-;-;-;-;-;-;-;-;-;-;-
1514001450252;-;-;9.005081;-2.839325;-4.1975555;-;-;-;-;-;-;-;-;-;-;-;-;-;-;-
1514001450273;-;-;6.742569;-0.8976288;-4.125717;-;-;-;-;-;-;-;-;-;-;-;-;-;-;-
1514001450293;-;-;6.2122498;-0.20809937;-4.6799774;-;-;-;-;-;-;-;-;-;-;-;-;-;-;-
1514001450314;-;-;7.614044;-0.9191742;-5.8459625;-;-;-;-;-;-;-;-;-;-;-;-;-;-;-
1514001450335;-;-;8.373016;-1.5955505;-6.0003815;-;-;-;-;-;-;-;-;-;-;-;-;-;-;-
1514001450355;-;-;8.024658;-1.3896484;-6.382263;-;-;-;-;-;-;-;-;-;-;-;-;-;-;-
1514001450375;-;-;8.127609;-1.4602661;-6.3810577;-;-;-;-;-;-;-;-;-;-;-;-;-;-;-
1514001450396;-;-;8.037827;-2.016922;-7.670334;-;-;-;-;-;-;-;-;-;-;-;-;-;-;-
1514001450415;-;-;8.163513;-2.2132416;-7.6368256;-;-;-;-;-;-;-;-;-;-;-;-;-;-;-
1514001450436;-;-;8.01149;-1.6589966;-6.421768;-;-;-;-;-;-;-;-;-;-;-;-;-;-;-
1514001450456;-;-;8.52504;-1.6338501;-5.231842;-;-;-;-;-;-;-;-;-;-;-;-;-;-;-
1514001450477;-;-;8.174301;-0.5133667;-7.180725;-;-;-;-;-;-;-;-;-;-;-;-;-;-;-
1514001450497;-;-;9.088882;-0.6522217;-7.505142;-;-;-;-;-;-;-;-;-;-;-;-;-;-;-
1514001450518;-;-;9.407303;-1.4866028;-5.765747;-;-;-;-;-;-;-;-;-;-;-;-;-;-;-
1514001450538;-;-;10.78038;-2.535263;-5.0558777;-;-;-;-;-;-;-;-;-;-;-;-;-;-;-
1514001450558;-;-;14.383652;-2.677719;-7.078964;-;-;-;-;-;-;-;-;-;-;-;-;-;-;-
1514001450579;-;-;16.085938;-1.0041809;-8.661545;-;-;-;-;-;-;-;-;-;-;-;-;-;-;-
1514001450600;-;-;16.502518;0.714859;-10.318329;-;-;-;-;-;-;-;-;-;-;-;-;-;-;-
1514001450620;-;-;14.09874;0.5281067;-8.918915;-;-;-;-;-;-;-;-;-;-;-;-;-;-;-
1514001450641;-;-;12.522171;-0.64624023;-6.1979065;-;-;-;-;-;-;-;-;-;-;-;-;-;-;-
1514001450661;-;-;10.22493;-1.3501434;-4.0431213;-;-;-;-;-;-;-;-;-;-;-;-;-;-;-
1514001450682;-;-;7.1208496;-1.0233307;-1.3328857;-;-;-;-;-;-;-;-;-;-;-;-;-;-;-
1514001450702;-;-;4.031128;0.19891357;1.1295471;-;-;-;-;-;-;-;-;-;-;-;-;-;-;-
1514001450723;-;-;1.5770721;1.3337555;3.1155396;-;-;-;-;-;-;-;-;-;-;-;-;-;-;-
1514001450744;-;-;2.2450562;1.4690399;2.777954;-;-;-;-;-;-;-;-;-;-;-;-;-;-;-
1514001450764;-;-;6.020706;0.28390503;0.31552124;-;-;-;-;-;-;-;-;-;-;-;-;-;-;-
1514001450784;-;-;10.256058;-1.1669769;-2.5898438;-;-;-;-;-;-;-;-;-;-;-;-;-;-;-
1514001450805;-;-;11.66983;-1.8481293;-3.9138336;-;-;-;-;-;-;-;-;-;-;-;-;-;-;-
1514001450825;-;-;12.095993;-2.0971222;-4.3160553;-;-;-;-;-;-;-;-;-;-;-;-;-;-;-
1514001450846;-;-;12.0576935;-1.700882;-3.2554321;-;-;-;-;-;-;-;-;-;-;-;-;-;-;-
1514001450866;-;-;11.307114;-1.1621857;-1.3484497;-;-;-;-;-;-;-;-;-;-;-;-;-;-;-
1514001450887;-;-;10.318298;-0.68814087;-0.51885986;-;-;-;-;-;-;-;-;-;-;-;-;-;-;-
1514001450907;-;-;9.115219;-0.54927063;-0.14775085;-;-;-;-;-;-;-;-;-;-;-;-;-;-;-
1514001450927;-;-;8.056976;-0.2212677;0.62316895;-;-;-;-;-;-;-;-;-;-;-;-;-;-;-
1514001450948;-;-;7.086136;-0.15423584;1.3665771;-;-;-;-;-;-;-;-;-;-;-;-;-;-;-
1514001450969;-;-;6.9460754;-0.38407898;1.6155701;-;-;-;-;-;-;-;-;-;-;-;-;-;-;-
1514001450989;-;-;7.6942596;-0.44992065;1.2253113;-;-;-;-;-;-;-;-;-;-;-;-;-;-;-
1514001451010;-;-;8.577713;-0.3361969;0.0054779053;-;-;-;-;-;-;-;-;-;-;-;-;-;-;-
1514001451030;-;-;9.288788;-0.33140564;-0.66729736;-;-;-;-;-;-;-;-;-;-;-;-;-;-;-
1514001451051;-;-;9.962769;-0.5612488;-0.89953613;-;-;-;-;-;-;-;-;-;-;-;-;-;-;-
1514001451070;-;-;10.032196;-0.9934082;-0.7858124;-;-;-;-;-;-;-;-;-;-;-;-;-;-;-
1514001451090;-;-;9.500687;-1.4806213;-0.6194153;-;-;-;-;-;-;-;-;-;-;-;-;-;-;-
1514001451111;-;-;9.178665;-1.4650574;-0.7080078;-;-;-;-;-;-;-;-;-;-;-;-;-;-;-
1514001451130;-;-;8.958389;-1.2028961;-0.35246277;-;-;-;-;-;-;-;-;-;-;-;-;-;-;-
1514001451150;-;-;8.772842;-0.9275665;0.015045166;-;-;-;-;-;-;-;-;-;-;-;-;-;-;-
1514001451171;-;-;8.592087;-0.6761627;0.21138;-;-;-;-;-;-;-;-;-;-;-;-;-;-;-
1514001451191;-;-;8.68306;-0.49061584;0.24249268;-;-;-;-;-;-;-;-;-;-;-;-;-;-;-
1514001451212;-;-;9.208588;-0.41281128;-0.0340271;-;-;-;-;-;-;-;-;-;-;-;-;-;-;-
1514001451232;-;-;9.200211;-0.5432892;-0.3871765;-;-;-;-;-;-;-;-;-;-;-;-;-;-;-
1514001451253;-;-;9.064941;-0.4774475;-0.39915466;-;-;-;-;-;-;-;-;-;-;-;-;-;-;-
1514001451273;-;-;9.82988;-0.4666748;-0.20281982;-;-;-;-;-;-;-;-;-;-;-;-;-;-;-
1514001451294;-;-;10.526596;-0.50019836;-0.29141235;-;-;-;-;-;-;-;-;-;-;-;-;-;-;-
1514001451315;-;-;10.625961;-0.17817688;-0.5679474;-;-;-;-;-;-;-;-;-;-;-;-;-;-;-
1514001451335;-;-;9.711365;-0.2571869;-0.8097534;-;-;-;-;-;-;-;-;-;-;-;-;-;-;-
1514001451355;-;-;9.319916;-0.5959625;-0.4278717;-;-;-;-;-;-;-;-;-;-;-;-;-;-;-
1514001451376;-;-;9.043396;-0.8856659;-0.65652466;-;-;-;-;-;-;-;-;-;-;-;-;-;-;-
1514001451398;-;-;9.131973;-0.97784424;-1.0000916;-;-;-;-;-;-;-;-;-;-;-;-;-;-;-
1514001451417;-;-;9.600037;-0.8102417;-1.674057;-;-;-;-;-;-;-;-;-;-;-;-;-;-;-
1514001451437;-;-;9.819107;-0.76116943;-2.5120392;-;-;-;-;-;-;-;-;-;-;-;-;-;-;-
1514001451458;-;-;9.337875;-0.799469;-2.8113098;-;-;-;-;-;-;-;-;-;-;-;-;-;-;-
1514001451478;-;-;9.114014;-0.6869507;-3.1548767;-;-;-;-;-;-;-;-;-;-;-;-;-;-;-
1514001451499;-;-;9.17627;-0.46907043;-3.096222;-;-;-;-;-;-;-;-;-;-;-;-;-;-;-
1514001451519;-;-;9.0577545;-0.24401855;-2.658081;-;-;-;-;-;-;-;-;-;-;-;-;-;-;-
1514001451540;-;-;9.063736;-0.08241272;-2.3564148;-;-;-;-;-;-;-;-;-;-;-;-;-;-;-
1514001451560;-;-;8.888962;-0.02734375;-2.2103577;-;-;-;-;-;-;-;-;-;-;-;-;-;-;-
1514001451580;-;-;9.1523285;0.3222046;-1.9362335;-;-;-;-;-;-;-;-;-;-;-;-;-;-;-
1514001451601;-;-;8.590881;0.44311523;-2.1433258;-;-;-;-;-;-;-;-;-;-;-;-;-;-;-
1514001451621;-;-;8.193451;0.19172668;-2.132553;-;-;-;-;-;-;-;-;-;-;-;-;-;-;-
1514001451642;-;-;8.717773;-0.67497253;-1.8943329;-;-;-;-;-;-;-;-;-;-;-;-;-;-;-
1514001451663;-;-;9.687424;-1.1693726;-1.9446106;-;-;-;-;-;-;-;-;-;-;-;-;-;-;-
1514001451683;-;-;9.940018;-1.3537292;-2.136139;-;-;-;-;-;-;-;-;-;-;-;-;-;-;-
1514001451704;-;-;9.902908;-0.66778564;-2.954956;-;-;-;-;-;-;-;-;-;-;-;-;-;-;-
1514001451723;-;-;9.106842;-0.7264557;-3.2662048;-;-;-;-;-;-;-;-;-;-;-;-;-;-;-
1514001451743;-;-;9.038605;-0.45350647;-3.0746765;-;-;-;-;-;-;-;-;-;-;-;-;-;-;-
1514001451764;-;-;9.014664;-0.36732483;-3.203949;-;-;-;-;-;-;-;-;-;-;-;-;-;-;-
1514001451784;-;-;9.137955;-0.25598145;-2.8328552;-;-;-;-;-;-;-;-;-;-;-;-;-;-;-
1514001451805;-;-;8.969162;-0.011779785;-2.3384552;-;-;-;-;-;-;-;-;-;-;-;-;-;-;-
1514001451825;-;-;8.76207;-0.06086731;-1.6992035;-;-;-;-;-;-;-;-;-;-;-;-;-;-;-
1514001451846;-;-;8.161133;-0.6187134;-1.3328857;-;-;-;-;-;-;-;-;-;-;-;-;-;-;-
1514001451866;-;-;8.203018;-1.0604401;-1.0096741;-;-;-;-;-;-;-;-;-;-;-;-;-;-;-
1514001451887;-;-;8.704605;-0.74560547;-1.4442139;-;-;-;-;-;-;-;-;-;-;-;-;-;-;-
1514001451908;-;-;8.466385;-0.57681274;-2.223526;-;-;-;-;-;-;-;-;-;-;-;-;-;-;-
1514001451929;-;-;8.619614;-0.7300415;-2.3635864;-;-;-;-;-;-;-;-;-;-;-;-;-;-;-
1514001451949;-;-;9.361816;-1.348938;-1.9625702;-;-;-;-;-;-;-;-;-;-;-;-;-;-;-
1514001451970;-;-;9.483917;-1.3513336;-2.132553;-;-;-;-;-;-;-;-;-;-;-;-;-;-;-
1514001451990;-;-;9.783203;-1.2639465;-1.7853851;-;-;-;-;-;-;-;-;-;-;-;-;-;-;-
1514001452010;-;-;9.868195;-1.3369751;-0.76426697;-;-;-;-;-;-;-;-;-;-;-;-;-;-;-
1514001452031;-;-;9.760452;-1.3034515;-0.59547424;-;-;-;-;-;-;-;-;-;-;-;-;-;-;-
1514001452051;-;-;9.129578;-1.3046417;-0.34288025;-;-;-;-;-;-;-;-;-;-;-;-;-;-;-
1514001452072;-;-;9.06015;-1.2819061;-0.22557068;-;-;-;-;-;-;-;-;-;-;-;-;-;-;-
1514001452092;-;-;8.667496;-2.0229034;-0.7498932;-;-;-;-;-;-;-;-;-;-;-;-;-;-;-
1514001452113;-;-;8.9991;-1.6494141;-1.1281891;-;-;-;-;-;-;-;-;-;-;-;-;-;-;-
1514001452134;-;-;9.685028;-0.77552795;-1.1545258;-;-;-;-;-;-;-;-;-;-;-;-;-;-;-
1514001452154;-;-;9.937622;-0.5205536;-0.7570801;-;-;-;-;-;-;-;-;-;-;-;-;-;-;-
1514001452175;-;-;9.495895;-0.90122986;-0.26387024;-;-;-;-;-;-;-;-;-;-;-;-;-;-;-
1514001452195;-;-;9.195419;-1.1262817;-0.86242676;-;-;-;-;-;-;-;-;-;-;-;-;-;-;-
1514001452216;-;-;8.64476;-1.052063;-1.3328857;-;-;-;-;-;-;-;-;-;-;-;-;-;-;-
1514001452236;-;-;8.763275;-0.78271484;-1.3628082;-;-;-;-;-;-;-;-;-;-;-;-;-;-;-
1514001452257;-;-;9.289993;-1.2088776;-0.9689636;-;-;-;-;-;-;-;-;-;-;-;-;-;-;-
1514001452277;-;-;10.051346;-1.5596313;-1.1102295;-;-;-;-;-;-;-;-;-;-;-;-;-;-;-
1514001452298;-;-;10.0776825;-1.5285034;-1.5208282;-;-;-;-;-;-;-;-;-;-;-;-;-;-;-
1514001452318;-;-;9.90889;-1.2136688;-1.2730255;-;-;-;-;-;-;-;-;-;-;-;-;-;-;-
1514001452338;-;-;9.108032;-0.6103363;-0.47935486;-;-;-;-;-;-;-;-;-;-;-;-;-;-;-
1514001452358;-;-;8.708206;-0.49661255;-0.3835907;-;-;-;-;-;-;-;-;-;-;-;-;-;-;-
1514001452379;-;-;8.690247;-0.8126373;-0.1776886;-;-;-;-;-;-;-;-;-;-;-;-;-;-;-
1514001452399;-;-;9.172684;-0.96946716;-0.27345276;-;-;-;-;-;-;-;-;-;-;-;-;-;-;-
1514001452420;-;-;9.348648;-0.933548;-0.6505432;-;-;-;-;-;-;-;-;-;-;-;-;-;-;-
1514001452440;-;-;9.541382;-1.020935;-0.8576355;-;-;-;-;-;-;-;-;-;-;-;-;-;-;-
1514001452461;-;-;9.121201;-1.0053711;-0.94262695;-;-;-;-;-;-;-;-;-;-;-;-;-;-;-
1514001452481;-;-;9.403717;-0.92037964;-0.72236633;-;-;-;-;-;-;-;-;-;-;-;-;-;-;-
1514001452502;-;-;9.164291;-0.8928528;-0.5224457;-;-;-;-;-;-;-;-;-;-;-;-;-;-;-
1514001452522;-;-;9.058945;-0.8186188;-0.61343384;-;-;-;-;-;-;-;-;-;-;-;-;-;-;-
1514001452543;-;-;9.007477;-0.95269775;-0.38598633;-;-;-;-;-;-;-;-;-;-;-;-;-;-;-
1514001452563;-;-;9.254074;-0.80307007;-0.18008423;-;-;-;-;-;-;-;-;-;-;-;-;-;-;-
1514001452584;-;-;9.345062;-0.58758545;-0.056777954;-;-;-;-;-;-;-;-;-;-;-;-;-;-;-
1514001452603;-;-;9.708984;-0.7515869;0.1479187;-;-;-;-;-;-;-;-;-;-;-;-;-;-;-
1514001452624;-;-;9.200211;-0.289505;0.2987671;-;-;-;-;-;-;-;-;-;-;-;-;-;-;-
1514001452644;-;-;9.024231;-0.41160583;-0.008895874;-;-;-;-;-;-;-;-;-;-;-;-;-;-;-
1514001452664;-;-;8.732147;-0.42358398;-0.62779236;-;-;-;-;-;-;-;-;-;-;-;-;-;-;-
1514001452685;-;-;9.105637;-0.8353882;-0.9641876;-;-;-;-;-;-;-;-;-;-;-;-;-;-;-
1514001452705;-;-;9.808334;-0.9467163;-0.6685028;-;-;-;-;-;-;-;-;-;-;-;-;-;-;-
1514001452726;-;-;10.265625;-0.59477234;-0.6337738;-;-;-;-;-;-;-;-;-;-;-;-;-;-;-
1514001452746;-;-;9.851425;-0.4487152;-0.47935486;-;-;-;-;-;-;-;-;-;-;-;-;-;-;-
1514001452768;-;-;8.927277;-0.25;-0.60266113;-;-;-;-;-;-;-;-;-;-;-;-;-;-;-
1514001452787;-;-;8.498703;-0.39485168;-0.3764038;-;-;-;-;-;-;-;-;-;-;-;-;-;-;-
1514001452808;-;-;8.577713;-0.36372375;-0.07713318;-;-;-;-;-;-;-;-;-;-;-;-;-;-;-
1514001452827;-;-;8.807556;-0.5612488;-0.056777954;-;-;-;-;-;-;-;-;-;-;-;-;-;-;-
1514001452847;-;-;9.379776;-0.9036255;-0.35246277;-;-;-;-;-;-;-;-;-;-;-;-;-;-;-
1514001452868;-;-;9.620392;-0.8174286;-1.2850037;-;-;-;-;-;-;-;-;-;-;-;-;-;-;-
1514001452888;-;-;9.811935;-0.83418274;-1.3173218;-;-;-;-;-;-;-;-;-;-;-;-;-;-;-
1514001452909;-;-;9.896927;-1.0149536;-0.98213196;-;-;-;-;-;-;-;-;-;-;-;-;-;-;-
1514001452929;-;-;9.446808;-1.1262817;-0.7199707;-;-;-;-;-;-;-;-;-;-;-;-;-;-;-
1514001452950;-;-;9.266052;-1.2352142;-0.33091736;-;-;-;-;-;-;-;-;-;-;-;-;-;-;-
1514001452970;-;-;8.818329;-0.7503967;0.21975708;-;-;-;-;-;-;-;-;-;-;-;-;-;-;-
1514001452991;-;-;8.966782;-0.3864746;0.31552124;-;-;-;-;-;-;-;-;-;-;-;-;-;-;-
1514001453011;-;-;8.314362;-0.05607605;0.6447296;-;-;-;-;-;-;-;-;-;-;-;-;-;-;-
1514001453032;-;-;8.622009;-0.32661438;0.34544373;-;-;-;-;-;-;-;-;-;-;-;-;-;-;-
1514001453052;-;-;9.427658;0.21208191;0.48789978;-;-;-;-;-;-;-;-;-;-;-;-;-;-;-
1514001453073;-;-;9.786789;0.18933105;0.46276855;-;-;-;-;-;-;-;-;-;-;-;-;-;-;-
1514001453094;-;-;9.956772;0.008575439;-0.47935486;-;-;-;-;-;-;-;-;-;-;-;-;-;-;-
1514001453115;-;-;10.141129;0.30065918;-0.73672485;-;-;-;-;-;-;-;-;-;-;-;-;-;-;-
1514001453135;-;-;9.841858;0.47782898;-0.77622986;-;-;-;-;-;-;-;-;-;-;-;-;-;-;-
1514001453155;-;-;9.15831;0.5520477;-0.81573486;-;-;-;-;-;-;-;-;-;-;-;-;-;-;-
1514001453176;-;-;8.575317;0.5257263;-0.37161255;-;-;-;-;-;-;-;-;-;-;-;-;-;-;-
1514001453196;-;-;8.498703;0.32699585;-0.39315796;-;-;-;-;-;-;-;-;-;-;-;-;-;-;-
1514001453216;-;-;8.788406;-0.095581055;0.04736328;-;-;-;-;-;-;-;-;-;-;-;-;-;-;-
1514001453237;-;-;9.515045;-0.085998535;-0.34048462;-;-;-;-;-;-;-;-;-;-;-;-;-;-;-
1514001453257;-;-;9.585678;0.20729065;-0.4051361;-;-;-;-;-;-;-;-;-;-;-;-;-;-;-
1514001453278;-;-;9.626373;-0.05607605;-0.48654175;-;-;-;-;-;-;-;-;-;-;-;-;-;-;-
1514001453298;-;-;9.650314;0.14863586;-1.124588;-;-;-;-;-;-;-;-;-;-;-;-;-;-;-
1514001453319;-;-;9.234924;0.14624023;-0.61343384;-;-;-;-;-;-;-;-;-;-;-;-;-;-;-
1514001453339;-;-;9.208588;-0.062057495;-0.159729;-;-;-;-;-;-;-;-;-;-;-;-;-;-;-
1514001453359;-;-;9.507858;0.060043335;-0.37161255;-;-;-;-;-;-;-;-;-;-;-;-;-;-;-
1514001453380;-;-;9.227737;0.25875854;-0.51646423;-;-;-;-;-;-;-;-;-;-;-;-;-;-;-
1514001453400;-;-;9.07811;0.3102417;-0.31654358;-;-;-;-;-;-;-;-;-;-;-;-;-;-;-
1514001453420;-;-;9.357025;0.115112305;-0.35365295;-;-;-;-;-;-;-;-;-;-;-;-;-;-;-
1514001453440;-;-;9.407303;0.48143005;-0.4817505;-;-;-;-;-;-;-;-;-;-;-;-;-;-;-
1514001453461;-;-;9.208588;0.20489502;-0.38478088;-;-;-;-;-;-;-;-;-;-;-;-;-;-;-
1514001453481;-;-;9.214569;-0.03213501;-0.48294067;-;-;-;-;-;-;-;-;-;-;-;-;-;-;-
1514001453502;-;-;9.3701935;-0.08001709;-0.5619507;-;-;-;-;-;-;-;-;-;-;-;-;-;-;-
1514001453523;-;-;9.628769;0.30665588;-0.20402527;-;-;-;-;-;-;-;-;-;-;-;-;-;-;-
1514001453543;-;-;9.473145;0.41677856;-0.20402527;-;-;-;-;-;-;-;-;-;-;-;-;-;-;-
1514001453564;-;-;9.145142;0.21087646;-0.41830444;-;-;-;-;-;-;-;-;-;-;-;-;-;-;-
1514001453584;-;-;9.096069;0.26834106;0.019836426;-;-;-;-;-;-;-;-;-;-;-;-;-;-;-
1514001453605;-;-;9.214569;0.6526184;0.32629395;-;-;-;-;-;-;-;-;-;-;-;-;-;-;-
1514001453624;-;-;9.039795;0.45030212;-0.2291565;-;-;-;-;-;-;-;-;-;-;-;-;-;-;-
1514001453645;-;-;8.934448;0.26834106;-0.57032776;-;-;-;-;-;-;-;-;-;-;-;-;-;-;-
1514001453665;-;-;9.090073;0.4862213;0.028213501;-;-;-;-;-;-;-;-;-;-;-;-;-;-;-
1514001453686;-;-;9.505478;0.94111633;0.2640381;-;-;-;-;-;-;-;-;-;-;-;-;-;-;-
1514001453706;-;-;9.324707;1.006958;-0.29260254;-;-;-;-;-;-;-;-;-;-;-;-;-;-;-
1514001453727;-;-;9.070923;0.65979004;-0.6409607;-;-;-;-;-;-;-;-;-;-;-;-;-;-;-
1514001453746;-;-;8.923676;0.6789551;-0.54878235;-;-;-;-;-;-;-;-;-;-;-;-;-;-;-
1514001453766;-;-;9.082901;0.5472717;-0.33929443;-;-;-;-;-;-;-;-;-;-;-;-;-;-;-
1514001453787;-;-;9.2756195;0.33537292;-0.3009796;-;-;-;-;-;-;-;-;-;-;-;-;-;-;-
1514001453807;-;-;9.608414;0.3138275;-0.061569214;-;-;-;-;-;-;-;-;-;-;-;-;-;-;-
1514001453827;-;-;9.6467285;0.5460663;-0.06636047;-;-;-;-;-;-;-;-;-;-;-;-;-;-;-
1514001453848;-;-;9.313934;0.78549194;-0.16810608;-;-;-;-;-;-;-;-;-;-;-;-;-;-;-
1514001453868;-;-;9.092468;0.76753235;-0.1489563;-;-;-;-;-;-;-;-;-;-;-;-;-;-;-
1514001453889;-;-;8.972763;0.55085754;-0.012481689;-;-;-;-;-;-;-;-;-;-;-;-;-;-;-
1514001453909;-;-;9.172684;0.338974;0.034194946;-;-;-;-;-;-;-;-;-;-;-;-;-;-;-
1514001453929;-;-;9.280411;0.117507935;0.15750122;-;-;-;-;-;-;-;-;-;-;-;-;-;-;-
1514001453950;-;-;9.100845;-0.21528625;0.30474854;-;-;-;-;-;-;-;-;-;-;-;-;-;-;-
1514001453970;-;-;9.318726;-0.54927063;0.3717804;-;-;-;-;-;-;-;-;-;-;-;-;-;-;-
1514001453990;-;-;9.801147;-0.878479;0.23890686;-;-;-;-;-;-;-;-;-;-;-;-;-;-;-
1514001454011;-;-;9.708984;-0.5744171;0.176651;-;-;-;-;-;-;-;-;-;-;-;-;-;-;-
1514001454032;-;-;8.763275;0.31143188;0.41249084;-;-;-;-;-;-;-;-;-;-;-;-;-;-;-
1514001454052;-;-;8.580109;0.5185394;0.5740967;-;-;-;-;-;-;-;-;-;-;-;-;-;-;-
1514001454072;-;-;8.771652;0.1845398;0.5860596;-;-;-;-;-;-;-;-;-;-;-;-;-;-;-
1514001454093;-;-;9.281616;-0.10395813;0.38015747;-;-;-;-;-;-;-;-;-;-;-;-;-;-;-
1514001454112;-;-;9.656311;0.15342712;0.2915802;-;-;-;-;-;-;-;-;-;-;-;-;-;-;-
1514001454133;-;-;9.729324;0.49339294;0.55255127;-;-;-;-;-;-;-;-;-;-;-;-;-;-;-
1514001454153;-;-;9.61441;0.39881897;0.6854248;-;-;-;-;-;-;-;-;-;-;-;-;-;-;-
1514001454174;-;-;9.594055;-0.09677124;0.36938477;-;-;-;-;-;-;-;-;-;-;-;-;-;-;-
1514001454194;-;-;9.489914;-0.32661438;0.024627686;-;-;-;-;-;-;-;-;-;-;-;-;-;-;-
1514001454214;-;-;9.319916;-0.17219543;-0.17648315;-;-;-;-;-;-;-;-;-;-;-;-;-;-;-
1514001454235;-;-;9.201401;0.14743042;-0.1381836;-;-;-;-;-;-;-;-;-;-;-;-;-;-;-
1514001454255;-;-;9.118805;0.2527771;-0.078323364;-;-;-;-;-;-;-;-;-;-;-;-;-;-;-
1514001454276;-;-;9.164291;0.20370483;0.036590576;-;-;-;-;-;-;-;-;-;-;-;-;-;-;-
1514001454296;-;-;9.216965;0.18334961;0.16947937;-;-;-;-;-;-;-;-;-;-;-;-;-;-;-
1514001454317;-;-;9.21936;0.15222168;0.18623352;-;-;-;-;-;-;-;-;-;-;-;-;-;-;-
1514001454337;-;-;9.3151245;0.12828064;0.12876892;-;-;-;-;-;-;-;-;-;-;-;-;-;-;-
1514001454358;-;-;9.357025;0.062438965;0.074905396;-;-;-;-;-;-;-;-;-;-;-;-;-;-;-
1514001454378;-;-;9.383362;-0.13627625;-0.032836914;-;-;-;-;-;-;-;-;-;-;-;-;-;-;-
1514001454399;-;-;9.424072;-0.22845459;-0.26268005;-;-;-;-;-;-;-;-;-;-;-;-;-;-;-
1514001454419;-;-;9.412094;-0.21887207;-0.2758484;-;-;-;-;-;-;-;-;-;-;-;-;-;-;-
1514001454440;-;-;9.300766;-0.014175415;-0.20162964;-;-;-;-;-;-;-;-;-;-;-;-;-;-;-
1514001454460;-;-;9.252884;0.04927063;-0.056777954;-;-;-;-;-;-;-;-;-;-;-;-;-;-;-
1514001454481;-;-;9.327103;-0.03691101;0.08328247;-;-;-;-;-;-;-;-;-;-;-;-;-;-;-
1514001454501;-;-;9.39534;-0.14465332;0.06652832;-;-;-;-;-;-;-;-;-;-;-;-;-;-;-
1514001454522;-;-;9.367798;-0.20809937;0.1826477;-;-;-;-;-;-;-;-;-;-;-;-;-;-;-
1514001454543;-;-;9.346252;-0.1817627;0.3418579;-;-;-;-;-;-;-;-;-;-;-;-;-;-;-
1514001454563;-;-;9.324707;-0.2033081;0.49150085;-;-;-;-;-;-;-;-;-;-;-;-;-;-;-
1514001454584;-;-;9.286407;-0.26675415;0.52500916;-;-;-;-;-;-;-;-;-;-;-;-;-;-;-
1514001454603;-;-;9.321121;-0.27394104;0.48789978;-;-;-;-;-;-;-;-;-;-;-;-;-;-;-
1514001454624;-;-;9.318726;-0.30387878;0.5226135;-;-;-;-;-;-;-;-;-;-;-;-;-;-;-
1514001454644;-;-;9.258865;-0.3002777;0.5489502;-;-;-;-;-;-;-;-;-;-;-;-;-;-;-
1514001454664;-;-;9.254074;-0.2787323;0.58966064;-;-;-;-;-;-;-;-;-;-;-;-;-;-;-
1514001454685;-;-;9.337875;-0.23683167;0.60043335;-;-;-;-;-;-;-;-;-;-;-;-;-;-;-
1514001454705;-;-;9.31633;-0.2320404;0.40888977;-;-;-;-;-;-;-;-;-;-;-;-;-;-;-
1514001454726;-;-;9.269638;-0.26914978;0.33946228;-;-;-;-;-;-;-;-;-;-;-;-;-;-;-
1514001454746;-;-;9.303162;-0.2571869;0.37538147;-;-;-;-;-;-;-;-;-;-;-;-;-;-;-
1514001454766;-;-;9.285202;-0.27394104;0.55255127;-;-;-;-;-;-;-;-;-;-;-;-;-;-;-
1514001454787;-;-;9.261261;-0.19972229;0.6997833;-;-;-;-;-;-;-;-;-;-;-;-;-;-;-
1514001454808;-;-;9.221756;-0.24880981;0.70936584;-;-;-;-;-;-;-;-;-;-;-;-;-;-;-
1514001454828;-;-;9.133179;-0.26437378;0.70817566;-;-;-;-;-;-;-;-;-;-;-;-;-;-;-
1514001454848;-;-;9.208588;-0.22605896;0.81710815;-;-;-;-;-;-;-;-;-;-;-;-;-;-;-
1514001454868;-;-;9.239716;-0.112335205;0.7225342;-;-;-;-;-;-;-;-;-;-;-;-;-;-;-
1514001454889;-;-;9.240906;0.007369995;0.69140625;-;-;-;-;-;-;-;-;-;-;-;-;-;-;-
1514001454909;-;-;9.23732;0.067230225;0.6710663;-;-;-;-;-;-;-;-;-;-;-;-;-;-;-
1514001454930;-;-;9.260071;0.031311035;0.65071106;-;-;-;-;-;-;-;-;-;-;-;-;-;-;-
1514001454950;-;-;9.188232;-0.0010070801;0.6495056;-;-;-;-;-;-;-;-;-;-;-;-;-;-;-
1514001454971;-;-;9.212173;-0.050079346;0.71295166;-;-;-;-;-;-;-;-;-;-;-;-;-;-;-
1514001454992;-;-;9.254074;-0.09437561;0.7931671;-;-;-;-;-;-;-;-;-;-;-;-;-;-;-
1514001455012;-;-;9.264847;-0.095581055;0.7321167;-;-;-;-;-;-;-;-;-;-;-;-;-;-;-
1514001455033;-;-;9.289993;-0.03453064;0.65908813;-;-;-;-;-;-;-;-;-;-;-;-;-;-;-
1514001455054;-;-;9.291183;0.0037841797;0.60043335;-;-;-;-;-;-;-;-;-;-;-;-;-;-;-
1514001455074;-;-;9.286407;0.012161255;0.5513458;-;-;-;-;-;-;-;-;-;-;-;-;-;-;-
1514001455094;-;-;9.292389;-0.02255249;0.51423645;-;-;-;-;-;-;-;-;-;-;-;-;-;-;-
1514001455114;-;-;9.303162;-0.06086731;0.52500916;-;-;-;-;-;-;-;-;-;-;-;-;-;-;-
1514001455135;-;-;9.300766;-0.090789795;0.57888794;-;-;-;-;-;-;-;-;-;-;-;-;-;-;-
1514001455155;-;-;9.29837;-0.1482544;0.56811523;-;-;-;-;-;-;-;-;-;-;-;-;-;-;-
1514001455176;-;-;9.252884;-0.22845459;0.56211853;-;-;-;-;-;-;-;-;-;-;-;-;-;-;-
1514001455196;-;-;9.274429;-0.23683167;0.56451416;-;-;-;-;-;-;-;-;-;-;-;-;-;-;-
1514001455217;-;-;9.280411;-0.28231812;0.5118408;-;-;-;-;-;-;-;-;-;-;-;-;-;-;-
1514001455237;-;-;9.2708435;-0.27633667;0.52500916;-;-;-;-;-;-;-;-;-;-;-;-;-;-;-
1514001455258;-;-;9.294785;-0.28471375;0.54296875;-;-;-;-;-;-;-;-;-;-;-;-;-;-;-
1514001455278;-;-;9.295975;-0.26556396;0.54776;-;-;-;-;-;-;-;-;-;-;-;-;-;-;-
1514001455299;-;-;9.360626;-0.289505;0.5190277;-;-;-;-;-;-;-;-;-;-;-;-;-;-;-
1514001455320;-;-;9.418076;-0.32781982;0.48310852;-;-;-;-;-;-;-;-;-;-;-;-;-;-;-
1514001455340;-;-;9.309143;-0.34936523;0.46516418;-;-;-;-;-;-;-;-;-;-;-;-;-;-;-
1514001455360;-;-;9.276825;-0.42118835;0.57170105;-;-;-;-;-;-;-;-;-;-;-;-;-;-;-
1514001455381;-;-;9.31633;-0.37091064;0.59085083;-;-;-;-;-;-;-;-;-;-;-;-;-;-;-
1514001455400;-;-;9.182251;-0.26197815;0.5381775;-;-;-;-;-;-;-;-;-;-;-;-;-;-;-
1514001455420;-;-;9.173874;-0.15663147;0.56451416;-;-;-;-;-;-;-;-;-;-;-;-;-;-;-
1514001455441;-;-;9.25647;-0.10395813;0.7117615;-;-;-;-;-;-;-;-;-;-;-;-;-;-;-
1514001455461;-;-;9.269638;-0.15782166;0.8027344;-;-;-;-;-;-;-;-;-;-;-;-;-;-;-
1514001455482;-;-;9.304352;-0.20451355;0.75245667;-;-;-;-;-;-;-;-;-;-;-;-;-;-;-
1514001455502;-;-;9.319916;-0.16142273;0.71894836;-;-;-;-;-;-;-;-;-;-;-;-;-;-;-
1514001455523;-;-;9.269638;-0.1015625;0.6854248;-;-;-;-;-;-;-;-;-;-;-;-;-;-;-
1514001455543;-;-;9.267242;-0.15065002;0.79196167;-;-;-;-;-;-;-;-;-;-;-;-;-;-;-
1514001455563;-;-;9.25528;-0.1769867;0.7692261;-;-;-;-;-;-;-;-;-;-;-;-;-;-;-
1514001455584;-;-;9.220566;-0.21647644;0.82788086;-;-;-;-;-;-;-;-;-;-;-;-;-;-;-
1514001455604;-;-;9.251678;-0.1769867;0.83984375;-;-;-;-;-;-;-;-;-;-;-;-;-;-;-
1514001455625;-;-;9.292389;-0.16261292;0.77879333;-;-;-;-;-;-;-;-;-;-;-;-;-;-;-
1514001455645;-;-;9.300766;-0.083602905;0.71655273;-;-;-;-;-;-;-;-;-;-;-;-;-;-;-
1514001455666;-;-;9.288788;-0.04888916;0.72372437;-;-;-;-;-;-;-;-;-;-;-;-;-;-;-
1514001455687;-;-;9.257675;-0.06803894;0.7979584;-;-;-;-;-;-;-;-;-;-;-;-;-;-;-
1514001455707;-;-;9.25647;-0.119522095;0.75845337;-;-;-;-;-;-;-;-;-;-;-;-;-;-;-
1514001455728;-;-;9.263657;-0.1590271;0.72732544;-;-;-;-;-;-;-;-;-;-;-;-;-;-;-
1514001455747;-;-;9.260071;-0.066848755;0.6961975;-;-;-;-;-;-;-;-;-;-;-;-;-;-;-
1514001455767;-;-;9.188232;-0.01776123;0.70098877;-;-;-;-;-;-;-;-;-;-;-;-;-;-;-
1514001455788;-;-;9.141556;-0.097976685;0.79556274;-;-;-;-;-;-;-;-;-;-;-;-;-;-;-
1514001455809;-;-;9.23851;-0.13269043;0.7907715;-;-;-;-;-;-;-;-;-;-;-;-;-;-;-
1514001455829;-;-;9.278015;-0.11114502;0.7117615;-;-;-;-;-;-;-;-;-;-;-;-;-;-;-
1514001455850;-;-;9.3103485;-0.07762146;0.6926117;-;-;-;-;-;-;-;-;-;-;-;-;-;-;-
1514001455869;-;-;9.33548;-0.057266235;0.7141571;-;-;-;-;-;-;-;-;-;-;-;-;-;-;-
1514001455890;-;-;9.352234;0.02053833;0.6650696;-;-;-;-;-;-;-;-;-;-;-;-;-;-;-
1514001455911;-;-;9.15831;0.112716675;0.7512665;-;-;-;-;-;-;-;-;-;-;-;-;-;-;-
1514001455931;-;-;9.102051;0.02772522;0.89012146;-;-;-;-;-;-;-;-;-;-;-;-;-;-;-
1514001455951;-;-;9.200211;-0.02973938;0.84703064;-;-;-;-;-;-;-;-;-;-;-;-;-;-;-
1514001455972;-;-;9.292389;-0.083602905;0.7835846;-;-;-;-;-;-;-;-;-;-;-;-;-;-;-
1514001455992;-;-;9.300766;-0.105148315;0.8147125;-;-;-;-;-;-;-;-;-;-;-;-;-;-;-
1514001456013;-;-;9.321121;-0.24520874;0.8147125;-;-;-;-;-;-;-;-;-;-;-;-;-;-;-
1514001456034;-;-;9.3151245;-0.4547119;0.6746521;-;-;-;-;-;-;-;-;-;-;-;-;-;-;-
1514001456054;-;-;9.301956;-0.5732269;0.55015564;-;-;-;-;-;-;-;-;-;-;-;-;-;-;-
1514001456074;-;-;9.325912;-0.60913086;0.5920563;-;-;-;-;-;-;-;-;-;-;-;-;-;-;-
1514001456095;-;-;9.3498535;-0.46548462;0.43403625;-;-;-;-;-;-;-;-;-;-;-;-;-;-;-
1514001456115;-;-;9.305557;-0.38526917;0.42684937;-;-;-;-;-;-;-;-;-;-;-;-;-;-;-
1514001456135;-;-;9.31752;-0.30148315;0.45916748;-;-;-;-;-;-;-;-;-;-;-;-;-;-;-
1514001456156;-;-;9.313934;-0.36372375;0.5561371;-;-;-;-;-;-;-;-;-;-;-;-;-;-;-
1514001456176;-;-;9.305557;-0.49661255;0.48310852;-;-;-;-;-;-;-;-;-;-;-;-;-;-;-
1514001456197;-;-;9.29718;-0.5756073;0.31671143;-;-;-;-;-;-;-;-;-;-;-;-;-;-;-
1514001456217;-;-;9.285202;-0.63067627;0.27243042;-;-;-;-;-;-;-;-;-;-;-;-;-;-;-
1514001456238;-;-;9.353439;-0.621109;0.26643372;-;-;-;-;-;-;-;-;-;-;-;-;-;-;-
1514001456258;-;-;9.419281;-0.6043396;0.26882935;-;-;-;-;-;-;-;-;-;-;-;-;-;-;-
1514001456278;-;-;9.397736;-0.55766296;0.22094727;-;-;-;-;-;-;-;-;-;-;-;-;-;-;-
1514001456299;-;-;9.3498535;-0.542099;0.27243042;-;-;-;-;-;-;-;-;-;-;-;-;-;-;-
1514001456319;-;-;9.463577;-0.5133667;0.16229248;-;-;-;-;-;-;-;-;-;-;-;-;-;-;-
1514001456340;-;-;9.543777;-0.4846344;0.10243225;-;-;-;-;-;-;-;-;-;-;-;-;-;-;-
1514001456360;-;-;9.458786;-0.4343567;0.13954163;-;-;-;-;-;-;-;-;-;-;-;-;-;-;-
1514001456381;-;-;9.209793;-0.4259796;0.46516418;-;-;-;-;-;-;-;-;-;-;-;-;-;-;-
1514001456401;-;-;9.109222;-0.43914795;0.69740295;-;-;-;-;-;-;-;-;-;-;-;-;-;-;-
1514001456422;-;-;9.096069;-0.3768921;0.76322937;-;-;-;-;-;-;-;-;-;-;-;-;-;-;-
1514001456442;-;-;9.165497;-0.30148315;0.686615;-;-;-;-;-;-;-;-;-;-;-;-;-;-;-
1514001456463;-;-;9.25647;-0.24760437;0.5776825;-;-;-;-;-;-;-;-;-;-;-;-;-;-;-
1514001456483;-;-;9.228943;-0.25837708;0.54296875;-;-;-;-;-;-;-;-;-;-;-;-;-;-;-
1514001456504;-;-;9.21817;-0.23803711;0.60162354;-;-;-;-;-;-;-;-;-;-;-;-;-;-;-
1514001456524;-;-;9.252884;-0.23564148;0.61479187;-;-;-;-;-;-;-;-;-;-;-;-;-;-;-
1514001456545;-;-;9.282806;-0.26316833;0.59324646;-;-;-;-;-;-;-;-;-;-;-;-;-;-;-
1514001456565;-;-;9.266052;-0.26675415;0.5154419;-;-;-;-;-;-;-;-;-;-;-;-;-;-;-
1514001456585;-;-;9.240906;-0.2966919;0.5262146;-;-;-;-;-;-;-;-;-;-;-;-;-;-;-
1514001456606;-;-;9.249298;-0.39126587;0.54296875;-;-;-;-;-;-;-;-;-;-;-;-;-;-;-
1514001456626;-;-;9.267242;-0.47505188;0.51065063;-;-;-;-;-;-;-;-;-;-;-;-;-;-;-
1514001456647;-;-;9.239716;-0.45710754;0.46516418;-;-;-;-;-;-;-;-;-;-;-;-;-;-;-
1514001456668;-;-;9.268448;-0.33738708;0.4867096;-;-;-;-;-;-;-;-;-;-;-;-;-;-;-
1514001456688;-;-;9.251678;-0.24162292;0.46875;-;-;-;-;-;-;-;-;-;-;-;-;-;-;-
1514001456708;-;-;9.322311;-0.13388062;0.48191833;-;-;-;-;-;-;-;-;-;-;-;-;-;-;-
1514001456729;-;-;9.367798;-0.071640015;0.55374146;-;-;-;-;-;-;-;-;-;-;-;-;-;-;-
1514001456749;-;-;9.427658;-0.28112793;0.4795227;-;-;-;-;-;-;-;-;-;-;-;-;-;-;-
1514001456770;-;-;9.3893585;-0.4954071;0.24967957;-;-;-;-;-;-;-;-;-;-;-;-;-;-;-
1514001456790;-;-;9.324707;-0.7491913;0.350235;-;-;-;-;-;-;-;-;-;-;-;-;-;-;-
1514001456811;-;-;9.359421;-0.8473511;0.5860596;-;-;-;-;-;-;-;-;-;-;-;-;-;-;-
1514001456831;-;-;9.309143;-0.8174286;0.8027344;-;-;-;-;-;-;-;-;-;-;-;-;-;-;-
1514001456851;-;-;9.287598;-0.8138428;0.77760315;-;-;-;-;-;-;-;-;-;-;-;-;-;-;-
1514001456872;-;-;9.329498;-0.77433777;0.67225647;-;-;-;-;-;-;-;-;-;-;-;-;-;-;-
1514001456892;-;-;9.379776;-0.7420044;0.65789795;-;-;-;-;-;-;-;-;-;-;-;-;-;-;-
1514001456913;-;-;9.319916;-0.680954;0.6279602;-;-;-;-;-;-;-;-;-;-;-;-;-;-;-
1514001456933;-;-;9.299576;-0.5277252;0.60762024;-;-;-;-;-;-;-;-;-;-;-;-;-;-;-
1514001456954;-;-;9.273239;-0.3768921;0.62197876;-;-;-;-;-;-;-;-;-;-;-;-;-;-;-
1514001456974;-;-;9.274429;-0.31105042;0.587265;-;-;-;-;-;-;-;-;-;-;-;-;-;-;-
1514001456996;-;-;9.252884;-0.3086548;0.58247375;-;-;-;-;-;-;-;-;-;-;-;-;-;-;-
1514001457017;-;-;9.257675;-0.32781982;0.6136017;-;-;-;-;-;-;-;-;-;-;-;-;-;-;-
1514001457038;-;-;9.245697;-0.16261292;0.5597229;-;-;-;-;-;-;-;-;-;-;-;-;-;-;-
1514001457058;-;-;9.1918335;-0.0728302;0.5094452;-;-;-;-;-;-;-;-;-;-;-;-;-;-;-
1514001457078;-;-;9.169083;0.0037841797;0.6100006;-;-;-;-;-;-;-;-;-;-;-;-;-;-;-
1514001457099;-;-;9.251678;-0.033325195;0.66867065;-;-;-;-;-;-;-;-;-;-;-;-;-;-;-
1514001457119;-;-;9.278015;-0.09197998;0.68063354;-;-;-;-;-;-;-;-;-;-;-;-;-;-;-
1514001457139;-;-;9.221756;-0.17338562;0.7069702;-;-;-;-;-;-;-;-;-;-;-;-;-;-;-
1514001457160;-;-;9.240906;-0.23564148;0.77041626;-;-;-;-;-;-;-;-;-;-;-;-;-;-;-
1514001457181;-;-;9.213379;-0.2859192;0.82429504;-;-;-;-;-;-;-;-;-;-;-;-;-;-;-
1514001457200;-;-;9.25647;-0.4092102;0.89730835;-;-;-;-;-;-;-;-;-;-;-;-;-;-;-
1514001457221;-;-;9.258865;-0.44631958;0.92604065;-;-;-;-;-;-;-;-;-;-;-;-;-;-;-
1514001457240;-;-;9.257675;-0.50019836;0.9427948;-;-;-;-;-;-;-;-;-;-;-;-;-;-;-
1514001457260;-;-;9.260071;-0.4954071;1.0206146;-;-;-;-;-;-;-;-;-;-;-;-;-;-;-
1514001457281;-;-;9.171478;-0.58877563;1.0062408;-;-;-;-;-;-;-;-;-;-;-;-;-;-;-
1514001457301;-;-;9.108032;-0.59477234;1.0038605;-;-;-;-;-;-;-;-;-;-;-;-;-;-;-
1514001457322;-;-;9.185837;-0.56243896;0.93562317;-;-;-;-;-;-;-;-;-;-;-;-;-;-;-
1514001457342;-;-;9.268448;-0.4834442;0.8925171;-;-;-;-;-;-;-;-;-;-;-;-;-;-;-
1514001457363;-;-;9.155914;-0.44033813;0.87457275;-;-;-;-;-;-;-;-;-;-;-;-;-;-;-
1514001457382;-;-;9.153519;-0.4343567;0.95835876;-;-;-;-;-;-;-;-;-;-;-;-;-;-;-
1514001457403;-;-;9.306747;-0.36132813;0.9523773;-;-;-;-;-;-;-;-;-;-;-;-;-;-;-
1514001457423;-;-;9.276825;-0.34098816;0.73091125;-;-;-;-;-;-;-;-;-;-;-;-;-;-;-
1514001457443;-;-;9.285202;-0.3397827;0.5561371;-;-;-;-;-;-;-;-;-;-;-;-;-;-;-
1514001457464;-;-;9.272034;-0.29309082;0.5381775;-;-;-;-;-;-;-;-;-;-;-;-;-;-;-
1514001457484;-;-;9.269638;-0.28352356;0.6531067;-;-;-;-;-;-;-;-;-;-;-;-;-;-;-
1514001457505;-;-;9.2313385;-0.30986023;0.6159973;-;-;-;-;-;-;-;-;-;-;-;-;-;-;-
1514001457525;-;-;9.300766;-0.31704712;0.5669098;-;-;-;-;-;-;-;-;-;-;-;-;-;-;-
1514001457546;-;-;9.31633;-0.27394104;0.6088104;-;-;-;-;-;-;-;-;-;-;-;-;-;-;-
1514001457566;-;-;9.342667;-0.30148315;0.5585327;-;-;-;-;-;-;-;-;-;-;-;-;-;-;-
1514001457587;-;-;9.329498;-0.33021545;0.46395874;-;-;-;-;-;-;-;-;-;-;-;-;-;-;-
1514001457607;-;-;9.336685;-0.3397827;0.39572144;-;-;-;-;-;-;-;-;-;-;-;-;-;-;-
1514001457628;-;-;9.288788;-0.32781982;0.39692688;-;-;-;-;-;-;-;-;-;-;-;-;-;-;-
1514001457647;-;-;9.279221;-0.21170044;0.4112854;-;-;-;-;-;-;-;-;-;-;-;-;-;-;-
1514001457668;-;-;9.282806;-0.22605896;0.3789673;-;-;-;-;-;-;-;-;-;-;-;-;-;-;-
1514001457688;-;-;9.305557;-0.22247314;0.41368103;-;-;-;-;-;-;-;-;-;-;-;-;-;-;-
1514001457708;-;-;9.273239;-0.2571869;0.350235;-;-;-;-;-;-;-;-;-;-;-;-;-;-;-
1514001457729;-;-;9.243301;-0.30986023;0.29756165;-;-;-;-;-;-;-;-;-;-;-;-;-;-;-
1514001457750;-;-;9.25647;-0.45111084;0.30714417;-;-;-;-;-;-;-;-;-;-;-;-;-;-;-
1514001457770;-;-;9.333084;-0.4163971;0.20059204;-;-;-;-;-;-;-;-;-;-;-;-;-;-;-
1514001457791;-;-;9.337875;-0.3541565;0.16947937;-;-;-;-;-;-;-;-;-;-;-;-;-;-;-
1514001457811;-;-;9.348648;-0.37210083;0.113204956;-;-;-;-;-;-;-;-;-;-;-;-;-;-;-
1514001457831;-;-;9.325912;-0.49061584;0.074905396;-;-;-;-;-;-;-;-;-;-;-;-;-;-;-
1514001457852;-;-;9.360626;-0.5612488;0.07130432;-;-;-;-;-;-;-;-;-;-;-;-;-;-;-
1514001457872;-;-;9.3498535;-0.62350464;0.15031433;-;-;-;-;-;-;-;-;-;-;-;-;-;-;-
1514001457893;-;-;9.306747;-0.5672302;0.15631104;-;-;-;-;-;-;-;-;-;-;-;-;-;-;-
1514001457913;-;-;9.295975;-0.5384979;0.10961914;-;-;-;-;-;-;-;-;-;-;-;-;-;-;-
1514001457934;-;-;9.210983;-0.5145569;0.23890686;-;-;-;-;-;-;-;-;-;-;-;-;-;-;-
1514001457953;-;-;9.257675;-0.4343567;0.25805664;-;-;-;-;-;-;-;-;-;-;-;-;-;-;-
1514001457974;-;-;9.304352;-0.44154358;0.21376038;-;-;-;-;-;-;-;-;-;-;-;-;-;-;-
1514001457993;-;-;9.340271;-0.4774475;0.17066956;-;-;-;-;-;-;-;-;-;-;-;-;-;-;-
1514001458014;-;-;9.2708435;-0.45948792;0.09286499;-;-;-;-;-;-;-;-;-;-;-;-;-;-;-
1514001458033;-;-;9.258865;-0.37809753;0.106033325;-;-;-;-;-;-;-;-;-;-;-;-;-;-;-
1514001458054;-;-;9.279221;-0.30506897;0.13954163;-;-;-;-;-;-;-;-;-;-;-;-;-;-;-
1514001458075;-;-;9.248093;-0.34457397;-0.024459839;-;-;-;-;-;-;-;-;-;-;-;-;-;-;-
1514001458094;-;-;9.17746;-0.43196106;-0.1489563;-;-;-;-;-;-;-;-;-;-;-;-;-;-;-
1514001458115;-;-;9.175064;-0.3972473;-0.11903381;-;-;-;-;-;-;-;-;-;-;-;-;-;-;-
1514001458134;-;-;9.226547;-0.46548462;-0.028045654;-;-;-;-;-;-;-;-;-;-;-;-;-;-;-
1514001458155;-;-;9.294785;-0.46548462;0.077301025;-;-;-;-;-;-;-;-;-;-;-;-;-;-;-
1514001458175;-;-;9.382172;-0.50857544;0.13476563;-;-;-;-;-;-;-;-;-;-;-;-;-;-;-
1514001458195;-;-;9.385757;-0.5528717;0.20658875;-;-;-;-;-;-;-;-;-;-;-;-;-;-;-
1514001458216;-;-;9.443222;-0.65701294;0.30714417;-;-;-;-;-;-;-;-;-;-;-;-;-;-;-
1514001458237;-;-;9.471954;-0.75756836;0.110809326;-;-;-;-;-;-;-;-;-;-;-;-;-;-;-
1514001458257;-;-;9.470749;-0.78271484;-0.16810608;-;-;-;-;-;-;-;-;-;-;-;-;-;-;-
1514001458278;-;-;9.412094;-0.6222992;-0.36083984;-;-;-;-;-;-;-;-;-;-;-;-;-;-;-
1514001458298;-;-;9.287598;-0.34457397;-0.30577087;-;-;-;-;-;-;-;-;-;-;-;-;-;-;-
1514001458319;-;-;9.159515;-0.33021545;-0.26507568;-;-;-;-;-;-;-;-;-;-;-;-;-;-;-
1514001458339;-;-;9.12001;-0.47146606;-0.24472046;-;-;-;-;-;-;-;-;-;-;-;-;-;-;-
1514001458360;-;-;9.284012;-0.51097107;-0.17050171;-;-;-;-;-;-;-;-;-;-;-;-;-;-;-
1514001458380;-;-;9.365402;-0.51815796;-0.1884613;-;-;-;-;-;-;-;-;-;-;-;-;-;-;-
1514001458401;-;-;9.357025;-0.5792084;-0.3764038;-;-;-;-;-;-;-;-;-;-;-;-;-;-;-
1514001458421;-;-;9.424072;-0.5337219;-0.5392151;-;-;-;-;-;-;-;-;-;-;-;-;-;-;-
1514001458442;-;-;9.4133;-0.43315125;-0.6086426;-;-;-;-;-;-;-;-;-;-;-;-;-;-;-
1514001458461;-;-;9.403717;-0.30387878;-0.71517944;-;-;-;-;-;-;-;-;-;-;-;-;-;-;-
1514001458481;-;-;9.289993;-0.19493103;-0.72595215;-;-;-;-;-;-;-;-;-;-;-;-;-;-;-
1514001458502;-;-;9.199005;-0.11352539;-0.60983276;-;-;-;-;-;-;-;-;-;-;-;-;-;-;-
1514001458522;-;-;9.181061;0.007369995;-0.5248413;-;-;-;-;-;-;-;-;-;-;-;-;-;-;-
1514001458543;-;-;9.263657;-0.0045928955;-0.4637909;-;-;-;-;-;-;-;-;-;-;-;-;-;-;-
1514001458563;-;-;9.365402;-0.015365601;-0.4015503;-;-;-;-;-;-;-;-;-;-;-;-;-;-;-
1514001458584;-;-;9.402527;-0.097976685;-0.44943237;-;-;-;-;-;-;-;-;-;-;-;-;-;-;-
1514001458604;-;-;9.340271;-0.14465332;-0.46020508;-;-;-;-;-;-;-;-;-;-;-;-;-;-;-
1514001458624;-;-;9.225342;-0.12669373;-0.48654175;-;-;-;-;-;-;-;-;-;-;-;-;-;-;-
1514001458645;-;-;9.216965;-0.06086731;-0.5212555;-;-;-;-;-;-;-;-;-;-;-;-;-;-;-
1514001458665;-;-;9.224152;0.038497925;-0.5631561;-;-;-;-;-;-;-;-;-;-;-;-;-;-;-
1514001458686;-;-;9.206192;0.05166626;-0.6481476;-;-;-;-;-;-;-;-;-;-;-;-;-;-;-
1514001458706;-;-;9.246902;0.04208374;-0.57751465;-;-;-;-;-;-;-;-;-;-;-;-;-;-;-
1514001458727;-;-;9.37738;-0.033325195;-0.67567444;-;-;-;-;-;-;-;-;-;-;-;-;-;-;-
1514001458747;-;-;9.391739;-0.09916687;-0.8073578;-;-;-;-;-;-;-;-;-;-;-;-;-;-;-
1514001458768;-;-;9.309143;-0.13867188;-0.7893982;-;-;-;-;-;-;-;-;-;-;-;-;-;-;-
1514001458789;-;-;9.3103485;-0.1769867;-0.6289978;-;-;-;-;-;-;-;-;-;-;-;-;-;-;-
1514001458808;-;-;9.292389;-0.16381836;-0.511673;-;-;-;-;-;-;-;-;-;-;-;-;-;-;-
1514001458829;-;-;9.279221;-0.13627625;-0.5224457;-;-;-;-;-;-;-;-;-;-;-;-;-;-;-
1514001458848;-;-;9.266052;-0.1530304;-0.57632446;-;-;-;-;-;-;-;-;-;-;-;-;-;-;-
1514001458869;-;-;9.329498;-0.17459106;-0.6912384;-;-;-;-;-;-;-;-;-;-;-;-;-;-;-
1514001458888;-;-;9.319916;-0.23683167;-0.78341675;-;-;-;-;-;-;-;-;-;-;-;-;-;-;-
1514001458908;-;-;9.264847;-0.20211792;-0.79299927;-;-;-;-;-;-;-;-;-;-;-;-;-;-;-
1514001458929;-;-;9.25647;-0.24162292;-0.7415161;-;-;-;-;-;-;-;-;-;-;-;-;-;-;-
1514001458949;-;-;9.240906;-0.23683167;-0.748703;-;-;-;-;-;-;-;-;-;-;-;-;-;-;-
1514001458970;-;-;9.31752;-0.28352356;-0.73313904;-;-;-;-;-;-;-;-;-;-;-;-;-;-;-
1514001458990;-;-;9.337875;-0.25837708;-0.75468445;-;-;-;-;-;-;-;-;-;-;-;-;-;-;-
1514001459010;-;-;9.397736;-0.22845459;-0.8384857;-;-;-;-;-;-;-;-;-;-;-;-;-;-;-
1514001459030;-;-;9.3151245;-0.14944458;-0.7989807;-;-;-;-;-;-;-;-;-;-;-;-;-;-;-
1514001459051;-;-;9.233734;-0.117126465;-0.6996155;-;-;-;-;-;-;-;-;-;-;-;-;-;-;-
1514001459071;-;-;9.25528;-0.071640015;-0.6289978;-;-;-;-;-;-;-;-;-;-;-;-;-;-;-
1514001459092;-;-;9.21936;-0.05607605;-0.5416107;-;-;-;-;-;-;-;-;-;-;-;-;-;-;-
1514001459111;-;-;9.272034;-0.021362305;-0.44943237;-;-;-;-;-;-;-;-;-;-;-;-;-;-;-
1514001459132;-;-;9.313934;1.9836426E-4;-0.42907715;-;-;-;-;-;-;-;-;-;-;-;-;-;-;-
1514001459152;-;-;9.3498535;0.024139404;-0.412323;-;-;-;-;-;-;-;-;-;-;-;-;-;-;-
1514001459172;-;-;9.359421;0.0025787354;-0.43147278;-;-;-;-;-;-;-;-;-;-;-;-;-;-;-
1514001459193;-;-;9.39534;-0.0440979;-0.41949463;-;-;-;-;-;-;-;-;-;-;-;-;-;-;-
1514001459214;-;-;9.373795;-0.03691101;-0.46020508;-;-;-;-;-;-;-;-;-;-;-;-;-;-;-
1514001459233;-;-;9.325912;-0.05607605;-0.43147278;-;-;-;-;-;-;-;-;-;-;-;-;-;-;-
1514001459254;-;-;9.172684;-0.023742676;-0.39915466;-;-;-;-;-;-;-;-;-;-;-;-;-;-;-
1514001459273;-;-;9.115219;-0.02973938;-0.34288025;-;-;-;-;-;-;-;-;-;-;-;-;-;-;-
1514001459294;-;-;9.081696;-0.085998535;-0.21838379;-;-;-;-;-;-;-;-;-;-;-;-;-;-;-
1514001459314;-;-;9.081696;-0.13148499;-0.12501526;-;-;-;-;-;-;-;-;-;-;-;-;-;-;-
1514001459335;-;-;9.15831;-0.19134521;-0.054382324;-;-;-;-;-;-;-;-;-;-;-;-;-;-;-
1514001459355;-;-;9.324707;-0.32063293;-0.01966858;-;-;-;-;-;-;-;-;-;-;-;-;-;-;-
1514001459376;-;-;9.516251;-0.47146606;-0.14297485;-;-;-;-;-;-;-;-;-;-;-;-;-;-;-
1514001459396;-;-;9.4887085;-0.44752502;-0.18367004;-;-;-;-;-;-;-;-;-;-;-;-;-;-;-
1514001459417;-;-;9.422867;-0.32302856;-0.13339233;-;-;-;-;-;-;-;-;-;-;-;-;-;-;-
1514001459438;-;-;9.318726;-0.21170044;-0.03163147;-;-;-;-;-;-;-;-;-;-;-;-;-;-;-
1514001459458;-;-;9.233734;-0.095581055;0.09046936;-;-;-;-;-;-;-;-;-;-;-;-;-;-;-
1514001459479;-;-;9.146347;-0.038116455;0.18025208;-;-;-;-;-;-;-;-;-;-;-;-;-;-;-
1514001459499;-;-;9.1918335;-0.03213501;0.15989685;-;-;-;-;-;-;-;-;-;-;-;-;-;-;-
1514001459520;-;-;9.288788;-0.018966675;0.038986206;-;-;-;-;-;-;-;-;-;-;-;-;-;-;-
1514001459540;-;-;9.360626;0.062438965;-0.022064209;-;-;-;-;-;-;-;-;-;-;-;-;-;-;-
1514001459561;-;-;9.37738;0.060043335;-0.0627594;-;-;-;-;-;-;-;-;-;-;-;-;-;-;-
1514001459580;-;-;9.3893585;0.046875;-0.12620544;-;-;-;-;-;-;-;-;-;-;-;-;-;-;-
1514001459601;-;-;9.360626;-0.06086731;-0.06994629;-;-;-;-;-;-;-;-;-;-;-;-;-;-;-
1514001459621;-;-;9.321121;-0.05847168;-0.05796814;-;-;-;-;-;-;-;-;-;-;-;-;-;-;-
1514001459641;-;-;9.286407;-0.10395813;-0.0041046143;-;-;-;-;-;-;-;-;-;-;-;-;-;-;-
1514001459662;-;-;9.2708435;-0.117126465;0.074905396;-;-;-;-;-;-;-;-;-;-;-;-;-;-;-
1514001459683;-;-;9.263657;-0.08480835;0.053359985;-;-;-;-;-;-;-;-;-;-;-;-;-;-;-
1514001459703;-;-;9.258865;-0.07762146;0.079696655;-;-;-;-;-;-;-;-;-;-;-;-;-;-;-
1514001459724;-;-;9.257675;-0.05128479;0.117996216;-;-;-;-;-;-;-;-;-;-;-;-;-;-;-
1514001459744;-;-;9.149933;0.057647705;0.22094727;-;-;-;-;-;-;-;-;-;-;-;-;-;-;-
1514001459764;-;-;9.201401;0.048080444;0.24609375;-;-;-;-;-;-;-;-;-;-;-;-;-;-;-
1514001459785;-;-;9.292389;-0.074035645;0.15870667;-;-;-;-;-;-;-;-;-;-;-;-;-;-;-
1514001459805;-;-;9.367798;-0.22964478;0.14553833;-;-;-;-;-;-;-;-;-;-;-;-;-;-;-
1514001459825;-;-;9.358231;-0.27275085;0.20179749;-;-;-;-;-;-;-;-;-;-;-;-;-;-;-
1514001459846;-;-;9.339081;-0.25120544;0.21975708;-;-;-;-;-;-;-;-;-;-;-;-;-;-;-
1514001459867;-;-;9.279221;-0.18655396;0.20298767;-;-;-;-;-;-;-;-;-;-;-;-;-;-;-
1514001459886;-;-;9.208588;-0.18894958;0.25086975;-;-;-;-;-;-;-;-;-;-;-;-;-;-;-
1514001459907;-;-;9.221756;-0.25239563;0.17546082;-;-;-;-;-;-;-;-;-;-;-;-;-;-;-
1514001459927;-;-;9.346252;-0.28710938;0.062927246;-;-;-;-;-;-;-;-;-;-;-;-;-;-;-
1514001459948;-;-;9.337875;-0.20690918;0.04019165;-;-;-;-;-;-;-;-;-;-;-;-;-;-;-
1514001459968;-;-;9.273239;-0.10395813;0.096450806;-;-;-;-;-;-;-;-;-;-;-;-;-;-;-
1514001459989;-;-;9.353439;-0.01776123;0.16708374;-;-;-;-;-;-;-;-;-;-;-;-;-;-;-
1514001460009;-;-;9.343857;-0.0105896;0.06413269;-;-;-;-;-;-;-;-;-;-;-;-;-;-;-
1514001460030;-;-;9.243301;-0.038116455;-0.024459839;-;-;-;-;-;-;-;-;-;-;-;-;-;-;-
1514001460050;-;-;9.213379;-0.059661865;0.11680603;-;-;-;-;-;-;-;-;-;-;-;-;-;-;-
1514001460071;-;-;9.188232;-0.13986206;0.22932434;-;-;-;-;-;-;-;-;-;-;-;-;-;-;-
1514001460090;-;-;9.287598;-0.12310791;0.255661;-;-;-;-;-;-;-;-;-;-;-;-;-;-;-
1514001460110;-;-;9.347458;-0.097976685;0.22692871;-;-;-;-;-;-;-;-;-;-;-;-;-;-;-
1514001460131;-;-;9.365402;-0.06324768;0.060531616;-;-;-;-;-;-;-;-;-;-;-;-;-;-;-
1514001460151;-;-;9.39534;-0.03691101;0.007858276;-;-;-;-;-;-;-;-;-;-;-;-;-;-;-
1514001460172;-;-;9.41449;-0.14225769;-0.056777954;-;-;-;-;-;-;-;-;-;-;-;-;-;-;-
1514001460192;-;-;9.430054;-0.06564331;-0.19683838;-;-;-;-;-;-;-;-;-;-;-;-;-;-;-
1514001460213;-;-;9.385757;-0.13627625;-0.10107422;-;-;-;-;-;-;-;-;-;-;-;-;-;-;-
1514001460233;-;-;9.392944;0.0049743652;-0.1956482;-;-;-;-;-;-;-;-;-;-;-;-;-;-;-
1514001460254;-;-;9.103241;-0.09197998;-0.159729;-;-;-;-;-;-;-;-;-;-;-;-;-;-;-
1514001460274;-;-;9.199005;0.12348938;-0.05796814;-;-;-;-;-;-;-;-;-;-;-;-;-;-;-
1514001460295;-;-;9.281616;0.17855835;-0.15733337;-;-;-;-;-;-;-;-;-;-;-;-;-;-;-
1514001460315;-;-;9.245697;-0.012969971;-0.2459259;-;-;-;-;-;-;-;-;-;-;-;-;-;-;-
1514001460336;-;-;9.323517;-0.34098816;-0.28063965;-;-;-;-;-;-;-;-;-;-;-;-;-;-;-
1514001460356;-;-;9.392944;-0.45710754;-0.511673;-;-;-;-;-;-;-;-;-;-;-;-;-;-;-
1514001460377;-;-;9.471954;-0.22486877;-0.5966644;-;-;-;-;-;-;-;-;-;-;-;-;-;-;-
1514001460397;-;-;9.445618;0.21687317;-0.535614;-;-;-;-;-;-;-;-;-;-;-;-;-;-;-
1514001460418;-;-;9.467163;0.64782715;-0.49971008;-;-;-;-;-;-;-;-;-;-;-;-;-;-;-
1514001460438;-;-;9.4887085;1.2032776;-0.25190735;-;-;-;-;-;-;-;-;-;-;-;-;-;-;-
1514001460459;-;-;9.4133;1.121872;0.33946228;-;-;-;-;-;-;-;-;-;-;-;-;-;-;-
1514001460479;-;-;9.178665;0.6633911;0.36460876;-;-;-;-;-;-;-;-;-;-;-;-;-;-;-
1514001460500;-;-;9.222961;0.47065735;0.3885498;-;-;-;-;-;-;-;-;-;-;-;-;-;-;-
1514001460520;-;-;9.190628;0.64901733;0.08088684;-;-;-;-;-;-;-;-;-;-;-;-;-;-;-
1514001460541;-;-;9.21936;0.54248047;0.017440796;-;-;-;-;-;-;-;-;-;-;-;-;-;-;-
1514001460561;-;-;9.165497;0.6107178;-0.16810608;-;-;-;-;-;-;-;-;-;-;-;-;-;-;-
1514001460581;-;-;8.891357;0.5185394;0.034194946;-;-;-;-;-;-;-;-;-;-;-;-;-;-;-
1514001460602;-;-;9.030228;0.25756836;0.10243225;-;-;-;-;-;-;-;-;-;-;-;-;-;-;-
1514001460621;-;-;9.232529;-0.045303345;0.04736328;-;-;-;-;-;-;-;-;-;-;-;-;-;-;-
1514001460642;-;-;9.656311;-0.34217834;-0.04840088;-;-;-;-;-;-;-;-;-;-;-;-;-;-;-
1514001460661;-;-;9.843048;-0.30506897;-0.32373047;-;-;-;-;-;-;-;-;-;-;-;-;-;-;-
1514001460682;-;-;9.578491;-0.112335205;-0.48893738;-;-;-;-;-;-;-;-;-;-;-;-;-;-;-
1514001460702;-;-;9.189438;0.007369995;-0.3368988;-;-;-;-;-;-;-;-;-;-;-;-;-;-;-
1514001460723;-;-;8.875793;0.110321045;-0.35964966;-;-;-;-;-;-;-;-;-;-;-;-;-;-;-
1514001460743;-;-;8.611237;-0.026138306;0.07130432;-;-;-;-;-;-;-;-;-;-;-;-;-;-;-
1514001460764;-;-;8.819534;-0.37809753;0.6770477;-;-;-;-;-;-;-;-;-;-;-;-;-;-;-
1514001460784;-;-;9.185837;-0.6330719;1.0613098;-;-;-;-;-;-;-;-;-;-;-;-;-;-;-
1514001460804;-;-;9.521027;-0.5792084;1.4024811;-;-;-;-;-;-;-;-;-;-;-;-;-;-;-
1514001460825;-;-;9.610809;-0.14346313;1.3617859;-;-;-;-;-;-;-;-;-;-;-;-;-;-;-
1514001460845;-;-;9.663483;0.51493835;0.6555023;-;-;-;-;-;-;-;-;-;-;-;-;-;-;-
1514001460866;-;-;9.33429;0.6502228;0.38015747;-;-;-;-;-;-;-;-;-;-;-;-;-;-;-
1514001460885;-;-;8.8051605;0.536499;0.13237;-;-;-;-;-;-;-;-;-;-;-;-;-;-;-
1514001460906;-;-;8.705811;0.074417114;0.51423645;-;-;-;-;-;-;-;-;-;-;-;-;-;-;-
1514001460926;-;-;9.849045;-0.85095215;0.40649414;-;-;-;-;-;-;-;-;-;-;-;-;-;-;-
1514001460946;-;-;10.317108;-0.759964;-0.6038513;-;-;-;-;-;-;-;-;-;-;-;-;-;-;-
1514001460967;-;-;10.216553;-0.04888916;-0.5834961;-;-;-;-;-;-;-;-;-;-;-;-;-;-;-
1514001460987;-;-;9.135559;0.42515564;0.01625061;-;-;-;-;-;-;-;-;-;-;-;-;-;-;-
1514001461008;-;-;8.64476;0.57958984;0.22573853;-;-;-;-;-;-;-;-;-;-;-;-;-;-;-
1514001461029;-;-;8.40773;0.754364;0.52381897;-;-;-;-;-;-;-;-;-;-;-;-;-;-;-
1514001461048;-;-;8.7417145;0.5161438;0.25926208;-;-;-;-;-;-;-;-;-;-;-;-;-;-;-
1514001461070;-;-;9.355835;-0.06564331;-0.40393066;-;-;-;-;-;-;-;-;-;-;-;-;-;-;-
1514001461089;-;-;9.846649;0.02053833;-0.47576904;-;-;-;-;-;-;-;-;-;-;-;-;-;-;-
1514001461109;-;-;9.913681;0.5484619;-0.45899963;-;-;-;-;-;-;-;-;-;-;-;-;-;-;-
1514001461130;-;-;9.471954;0.4084015;-0.014877319;-;-;-;-;-;-;-;-;-;-;-;-;-;-;-
1514001461150;-;-;9.279221;-0.009384155;0.32748413;-;-;-;-;-;-;-;-;-;-;-;-;-;-;-
1514001461171;-;-;9.318726;-0.34217834;0.41607666;-;-;-;-;-;-;-;-;-;-;-;-;-;-;-
1514001461191;-;-;9.286407;-0.23803711;0.47833252;-;-;-;-;-;-;-;-;-;-;-;-;-;-;-
1514001461211;-;-;8.930862;0.0756073;0.57888794;-;-;-;-;-;-;-;-;-;-;-;-;-;-;-
1514001461232;-;-;8.872208;0.2013092;0.48789978;-;-;-;-;-;-;-;-;-;-;-;-;-;-;-
1514001461251;-;-;9.142746;0.3497467;0.25805664;-;-;-;-;-;-;-;-;-;-;-;-;-;-;-
1514001461271;-;-;9.515045;0.39164734;0.1946106;-;-;-;-;-;-;-;-;-;-;-;-;-;-;-
1514001461292;-;-;9.8993225;0.3796692;0.17306519;-;-;-;-;-;-;-;-;-;-;-;-;-;-;-
1514001461313;-;-;10.021423;0.20610046;0.23171997;-;-;-;-;-;-;-;-;-;-;-;-;-;-;-
1514001461332;-;-;9.6622925;0.06124878;0.36579895;-;-;-;-;-;-;-;-;-;-;-;-;-;-;-
1514001461353;-;-;9.252884;0.014556885;0.61120605;-;-;-;-;-;-;-;-;-;-;-;-;-;-;-
1514001461373;-;-;9.203796;0.15461731;1.0062408;-;-;-;-;-;-;-;-;-;-;-;-;-;-;-
1514001461394;-;-;9.187042;0.59036255;0.99786377;-;-;-;-;-;-;-;-;-;-;-;-;-;-;-
1514001461414;-;-;9.465973;0.6957092;0.8889313;-;-;-;-;-;-;-;-;-;-;-;-;-;-;-
1514001461435;-;-;9.653915;0.82618713;0.7069702;-;-;-;-;-;-;-;-;-;-;-;-;-;-;-
1514001461455;-;-;9.249298;0.9818115;0.5800781;-;-;-;-;-;-;-;-;-;-;-;-;-;-;-
1514001461476;-;-;7.884598;0.64064026;0.25086975;-;-;-;-;-;-;-;-;-;-;-;-;-;-;-
1514001461496;-;-;7.8642426;0.28988647;0.14912415;-;-;-;-;-;-;-;-;-;-;-;-;-;-;-
1514001461517;-;-;8.777634;0.41319275;-0.19683838;-;-;-;-;-;-;-;-;-;-;-;-;-;-;-
1514001461537;-;-;9.31752;0.15222168;-0.8241272;-;-;-;-;-;-;-;-;-;-;-;-;-;-;-
1514001461557;-;-;9.257675;0.086380005;-0.9043274;-;-;-;-;-;-;-;-;-;-;-;-;-;-;-
1514001461578;-;-;8.023453;0.556839;-0.98931885;-;-;-;-;-;-;-;-;-;-;-;-;-;-;-
1514001461599;-;-;8.364639;1.0871582;0.76802063;-;-;-;-;-;-;-;-;-;-;-;-;-;-;-
1514001461618;-;-;9.877762;1.8509064;1.3162994;-;-;-;-;-;-;-;-;-;-;-;-;-;-;-
1514001461639;-;-;10.54335;2.4003754;1.6658478;-;-;-;-;-;-;-;-;-;-;-;-;-;-;-
1514001461660;-;-;9.667084;1.3624878;1.8549957;-;-;-;-;-;-;-;-;-;-;-;-;-;-;-
1514001461680;-;-;8.927277;0.17616272;1.801117;-;-;-;-;-;-;-;-;-;-;-;-;-;-;-
1514001461700;-;-;8.928467;-0.210495;0.9930725;-;-;-;-;-;-;-;-;-;-;-;-;-;-;-
1514001461721;-;-;8.915298;-0.0045928955;-0.25309753;-;-;-;-;-;-;-;-;-;-;-;-;-;-;-
1514001461742;-;-;8.975159;0.41079712;-0.94262695;-;-;-;-;-;-;-;-;-;-;-;-;-;-;-
1514001461762;-;-;9.455185;0.58677673;-1.7087708;-;-;-;-;-;-;-;-;-;-;-;-;-;-;-
1514001461782;-;-;9.937622;0.7735138;-1.2838135;-;-;-;-;-;-;-;-;-;-;-;-;-;-;-
1514001461802;-;-;9.641937;0.79745483;-0.9330597;-;-;-;-;-;-;-;-;-;-;-;-;-;-;-
1514001461823;-;-;9.617996;0.83218384;0.13476563;-;-;-;-;-;-;-;-;-;-;-;-;-;-;-
1514001461844;-;-;9.2708435;0.73760986;0.5118408;-;-;-;-;-;-;-;-;-;-;-;-;-;-;-
1514001461864;-;-;8.601654;0.6107178;0.089263916;-;-;-;-;-;-;-;-;-;-;-;-;-;-;-
1514001461885;-;-;8.068954;0.50057983;-0.31056213;-;-;-;-;-;-;-;-;-;-;-;-;-;-;-
1514001461905;-;-;9.301956;-0.2715454;-0.8971405;-;-;-;-;-;-;-;-;-;-;-;-;-;-;-
1514001461925;-;-;10.862976;-1.0257263;-1.0683289;-;-;-;-;-;-;-;-;-;-;-;-;-;-;-
1514001461946;-;-;11.603989;-1.4794312;-1.5495605;-;-;-;-;-;-;-;-;-;-;-;-;-;-;-
1514001461966;-;-;10.386536;-0.60913086;-2.175644;-;-;-;-;-;-;-;-;-;-;-;-;-;-;-
1514001461987;-;-;8.98233;0.7950592;-1.2371216;-;-;-;-;-;-;-;-;-;-;-;-;-;-;-
1514001462006;-;-;8.515472;1.2906647;-0.17887878;-;-;-;-;-;-;-;-;-;-;-;-;-;-;-
1514001462026;-;-;7.8570557;0.90519714;-0.05319214;-;-;-;-;-;-;-;-;-;-;-;-;-;-;-
1514001462047;-;-;6.9424744;0.34016418;-0.27703857;-;-;-;-;-;-;-;-;-;-;-;-;-;-;-
1514001462067;-;-;7.4596252;0.069625854;-0.4637909;-;-;-;-;-;-;-;-;-;-;-;-;-;-;-
1514001462087;-;-;9.319916;-0.23085022;-1.1425476;-;-;-;-;-;-;-;-;-;-;-;-;-;-;-
1514001462107;-;-;10.161484;-0.19613647;-2.3145142;-;-;-;-;-;-;-;-;-;-;-;-;-;-;-
1514001462128;-;-;10.040573;-0.11831665;-3.0220032;-;-;-;-;-;-;-;-;-;-;-;-;-;-;-
1514001462148;-;-;9.655106;0.02772522;-2.8627777;-;-;-;-;-;-;-;-;-;-;-;-;-;-;-
1514001462168;-;-;9.579697;0.067230225;-1.8105316;-;-;-;-;-;-;-;-;-;-;-;-;-;-;-
1514001462189;-;-;9.6072235;-0.05607605;-0.98213196;-;-;-;-;-;-;-;-;-;-;-;-;-;-;-
1514001462208;-;-;9.439636;-0.03453064;-0.7391205;-;-;-;-;-;-;-;-;-;-;-;-;-;-;-
1514001462229;-;-;9.225342;0.12709045;-1.1581116;-;-;-;-;-;-;-;-;-;-;-;-;-;-;-
1514001462249;-;-;9.213379;0.29588318;-1.5758972;-;-;-;-;-;-;-;-;-;-;-;-;-;-;-
1514001462270;-;-;9.379776;0.4981842;-1.6525116;-;-;-;-;-;-;-;-;-;-;-;-;-;-;-
1514001462290;-;-;9.404907;0.6538086;-1.5124512;-;-;-;-;-;-;-;-;-;-;-;-;-;-;-
1514001462311;-;-;9.200211;0.59754944;-1.432251;-;-;-;-;-;-;-;-;-;-;-;-;-;-;-
1514001462331;-;-;9.062546;0.47424316;-1.3903503;-;-;-;-;-;-;-;-;-;-;-;-;-;-;-
1514001462351;-;-;9.00029;0.33418274;-1.1305847;-;-;-;-;-;-;-;-;-;-;-;-;-;-;-
