TimeStamp[ms];Prox[Cm];Lux[lux];AccX[m/s^2];AccY[m/s^2];AccZ[m/s^2];GyroX[rad/s];GyroY[rad/s];GyroZ[rad/s];MagnX[uT];MagnY[uT];MagnZ[uT];OrienYaw[degrees];OrienPitch[degrees];OrienRoll[degrees];Press[Pa];Temp[C°];Batt[%];Lat;Lng;Speed[m/s]
1514002435050;-;-;8.799179;-0.54689026;3.3022919;-;-;-;-;-;-;-;-;-;-;-;-;-;-;-
1514002435081;-;-;8.477158;-0.49061584;3.0329437;-;-;-;-;-;-;-;-;-;-;-;-;-;-;-
1514002435088;-;-;8.612427;-0.4379425;2.9287872;-;-;-;-;-;-;-;-;-;-;-;-;-;-;-
1514002435109;-;-;8.788406;-0.4259796;3.0317383;-;-;-;-;-;-;-;-;-;-;-;-;-;-;-
1514002435130;-;-;8.887772;-0.3936615;3.2053223;-;-;-;-;-;-;-;-;-;-;-;-;-;-;-
1514002435151;-;-;8.827911;-0.41160583;3.026947;-;-;-;-;-;-;-;-;-;-;-;-;-;-;-
1514002435171;-;-;8.734543;-0.43675232;2.821045;-;-;-;-;-;-;-;-;-;-;-;-;-;-;-
1514002435191;-;-;8.892548;-0.57681274;2.927597;-;-;-;-;-;-;-;-;-;-;-;-;-;-;-
1514002435211;-;-;8.896149;-0.56243896;2.6331024;-;-;-;-;-;-;-;-;-;-;-;-;-;-;-
1514002435231;-;-;8.8003845;-0.5564575;2.1027985;-;-;-;-;-;-;-;-;-;-;-;-;-;-;-
1514002435252;-;-;9.288788;-0.36013794;1.9806824;-;-;-;-;-;-;-;-;-;-;-;-;-;-;-
1514002435273;-;-;9.57251;-0.1985321;1.7939453;-;-;-;-;-;-;-;-;-;-;-;-;-;-;-
1514002435294;-;-;9.505478;0.07321167;1.4850922;-;-;-;-;-;-;-;-;-;-;-;-;-;-;-
1514002435325;-;-;8.8207245;0.8154144;0.8410492;-;-;-;-;-;-;-;-;-;-;-;-;-;-;-
1514002435336;-;-;9.141556;0.5855713;0.721344;-;-;-;-;-;-;-;-;-;-;-;-;-;-;-
1514002435358;-;-;8.916504;0.76753235;0.19102478;-;-;-;-;-;-;-;-;-;-;-;-;-;-;-
1514002435378;-;-;8.538208;1.6653595;0.04498291;-;-;-;-;-;-;-;-;-;-;-;-;-;-;-
1514002435398;-;-;9.130783;1.1290588;-0.08670044;-;-;-;-;-;-;-;-;-;-;-;-;-;-;-
1514002435418;-;-;9.420471;1.0500488;-0.0914917;-;-;-;-;-;-;-;-;-;-;-;-;-;-;-
1514002435439;-;-;8.383789;0.596344;-0.035232544;-;-;-;-;-;-;-;-;-;-;-;-;-;-;-
1514002435460;-;-;8.6423645;0.04927063;0.26882935;-;-;-;-;-;-;-;-;-;-;-;-;-;-;-
1514002435481;-;-;9.543777;-0.39126587;0.4005127;-;-;-;-;-;-;-;-;-;-;-;-;-;-;-
1514002435502;-;-;10.58046;-0.7910919;-0.09509277;-;-;-;-;-;-;-;-;-;-;-;-;-;-;-
1514002435521;-;-;9.463577;0.46107483;-0.05079651;-;-;-;-;-;-;-;-;-;-;-;-;-;-;-
1514002435541;-;-;9.064941;1.3253784;-0.788208;-;-;-;-;-;-;-;-;-;-;-;-;-;-;-
1514002435562;-;-;9.419281;1.6629639;-0.47816467;-;-;-;-;-;-;-;-;-;-;-;-;-;-;-
1514002435583;-;-;9.23732;1.3122101;-0.4015503;-;-;-;-;-;-;-;-;-;-;-;-;-;-;-
1514002435603;-;-;9.261261;1.1446228;0.019836426;-;-;-;-;-;-;-;-;-;-;-;-;-;-;-
1514002435624;-;-;9.184647;0.46347046;0.12997437;-;-;-;-;-;-;-;-;-;-;-;-;-;-;-
1514002435644;-;-;8.9991;-0.20570374;0.05215454;-;-;-;-;-;-;-;-;-;-;-;-;-;-;-
1514002435664;-;-;8.626801;-0.53012085;0.25926208;-;-;-;-;-;-;-;-;-;-;-;-;-;-;-
1514002435684;-;-;9.226547;-0.42956543;0.029418945;-;-;-;-;-;-;-;-;-;-;-;-;-;-;-
1514002435705;-;-;9.444412;-0.11114502;0.0138549805;-;-;-;-;-;-;-;-;-;-;-;-;-;-;-
1514002435726;-;-;10.005859;0.12348938;-0.2854309;-;-;-;-;-;-;-;-;-;-;-;-;-;-;-
1514002435746;-;-;9.263657;0.8237915;-0.6122284;-;-;-;-;-;-;-;-;-;-;-;-;-;-;-
1514002435766;-;-;8.797989;0.89323425;-0.73672485;-;-;-;-;-;-;-;-;-;-;-;-;-;-;-
1514002435787;-;-;9.495895;0.76634216;-0.2674713;-;-;-;-;-;-;-;-;-;-;-;-;-;-;-
1514002435807;-;-;9.847839;0.7579498;-0.5463867;-;-;-;-;-;-;-;-;-;-;-;-;-;-;-
1514002435828;-;-;9.197815;0.75556946;-0.9797363;-;-;-;-;-;-;-;-;-;-;-;-;-;-;-
1514002435849;-;-;9.402527;1.5540314;-0.69363403;-;-;-;-;-;-;-;-;-;-;-;-;-;-;-
1514002435869;-;-;10.167465;0.6538086;-1.1928253;-;-;-;-;-;-;-;-;-;-;-;-;-;-;-
1514002435890;-;-;9.550964;-0.035720825;-1.5543518;-;-;-;-;-;-;-;-;-;-;-;-;-;-;-
1514002435911;-;-;8.890167;0.30186462;-1.6405487;-;-;-;-;-;-;-;-;-;-;-;-;-;-;-
1514002435930;-;-;8.375412;0.46466064;-0.77264404;-;-;-;-;-;-;-;-;-;-;-;-;-;-;-
1514002435951;-;-;9.367798;0.031311035;-0.7403259;-;-;-;-;-;-;-;-;-;-;-;-;-;-;-
1514002435971;-;-;8.747711;2.160965;-2.0355835;-;-;-;-;-;-;-;-;-;-;-;-;-;-;-
1514002435992;-;-;9.55336;-1.1322632;-1.6321564;-;-;-;-;-;-;-;-;-;-;-;-;-;-;-
1514002436012;-;-;9.306747;-0.8090515;-1.3388672;-;-;-;-;-;-;-;-;-;-;-;-;-;-;-
1514002436033;-;-;9.032608;-0.05368042;-1.6680756;-;-;-;-;-;-;-;-;-;-;-;-;-;-;-
1514002436053;-;-;8.236542;0.48980713;-2.0439606;-;-;-;-;-;-;-;-;-;-;-;-;-;-;-
1514002436076;-;-;9.068527;0.117507935;-2.4581604;-;-;-;-;-;-;-;-;-;-;-;-;-;-;-
1514002436094;-;-;9.481522;0.30065918;-2.16008;-;-;-;-;-;-;-;-;-;-;-;-;-;-;-
1514002436115;-;-;8.691437;0.033706665;-1.5842743;-;-;-;-;-;-;-;-;-;-;-;-;-;-;-
1514002436136;-;-;8.58371;0.62986755;-2.0032654;-;-;-;-;-;-;-;-;-;-;-;-;-;-;-
1514002436156;-;-;7.174713;1.279892;-2.2414856;-;-;-;-;-;-;-;-;-;-;-;-;-;-;-
1514002436176;-;-;9.311539;0.457489;-1.7937775;-;-;-;-;-;-;-;-;-;-;-;-;-;-;-
1514002436197;-;-;9.63356;-0.04888916;-1.9194641;-;-;-;-;-;-;-;-;-;-;-;-;-;-;-
1514002436218;-;-;8.497513;0.47184753;-1.8691864;-;-;-;-;-;-;-;-;-;-;-;-;-;-;-
1514002436239;-;-;8.174301;0.36889648;-2.547943;-;-;-;-;-;-;-;-;-;-;-;-;-;-;-
1514002436259;-;-;9.201401;0.0013885498;-2.8855286;-;-;-;-;-;-;-;-;-;-;-;-;-;-;-
1514002436279;-;-;9.628769;-0.37330627;-2.2331085;-;-;-;-;-;-;-;-;-;-;-;-;-;-;-
1514002436300;-;-;9.561737;-0.46069336;-2.3743591;-;-;-;-;-;-;-;-;-;-;-;-;-;-;-
1514002436321;-;-;10.289566;-0.8066559;-1.6441345;-;-;-;-;-;-;-;-;-;-;-;-;-;-;-
1514002436342;-;-;5.908188;0.21566772;-2.9453888;-;-;-;-;-;-;-;-;-;-;-;-;-;-;-
1514002436363;-;-;7.7852325;-0.72883606;-2.4940796;-;-;-;-;-;-;-;-;-;-;-;-;-;-;-
1514002436383;-;-;10.566101;-0.20092773;-1.416687;-;-;-;-;-;-;-;-;-;-;-;-;-;-;-
1514002436404;-;-;9.9436035;0.24081421;-2.0643158;-;-;-;-;-;-;-;-;-;-;-;-;-;-;-
1514002436425;-;-;9.069733;0.55804443;-1.90271;-;-;-;-;-;-;-;-;-;-;-;-;-;-;-
1514002436445;-;-;9.115219;0.38446045;-1.3245087;-;-;-;-;-;-;-;-;-;-;-;-;-;-;-
1514002436466;-;-;9.385757;-0.021362305;-2.302536;-;-;-;-;-;-;-;-;-;-;-;-;-;-;-
1514002436486;-;-;9.046982;-0.064453125;-1.9757233;-;-;-;-;-;-;-;-;-;-;-;-;-;-;-
1514002436507;-;-;9.085281;0.16897583;-2.1852264;-;-;-;-;-;-;-;-;-;-;-;-;-;-;-
1514002436527;-;-;8.766861;0.35932922;-2.0092468;-;-;-;-;-;-;-;-;-;-;-;-;-;-;-
1514002436548;-;-;8.825516;0.36531067;-1.9960785;-;-;-;-;-;-;-;-;-;-;-;-;-;-;-
1514002436569;-;-;9.181061;0.0061798096;-2.0667114;-;-;-;-;-;-;-;-;-;-;-;-;-;-;-
1514002436589;-;-;9.343857;-0.15663147;-2.0355835;-;-;-;-;-;-;-;-;-;-;-;-;-;-;-
1514002436609;-;-;9.224152;-0.1769867;-1.926651;-;-;-;-;-;-;-;-;-;-;-;-;-;-;-
1514002436630;-;-;9.050568;-0.085998535;-1.8596191;-;-;-;-;-;-;-;-;-;-;-;-;-;-;-
1514002436650;-;-;8.947617;0.062438965;-1.7806091;-;-;-;-;-;-;-;-;-;-;-;-;-;-;-
1514002436671;-;-;8.914108;0.14863586;-1.6968079;-;-;-;-;-;-;-;-;-;-;-;-;-;-;-
1514002436692;-;-;9.043396;0.13546753;-1.7219391;-;-;-;-;-;-;-;-;-;-;-;-;-;-;-
1514002436711;-;-;9.055359;0.095962524;-1.7674408;-;-;-;-;-;-;-;-;-;-;-;-;-;-;-
1514002436731;-;-;9.200211;-0.023742676;-1.8260956;-;-;-;-;-;-;-;-;-;-;-;-;-;-;-
1514002436752;-;-;9.269638;-0.040512085;-1.8392639;-;-;-;-;-;-;-;-;-;-;-;-;-;-;-
1514002436771;-;-;9.226547;-0.10635376;-1.7782135;-;-;-;-;-;-;-;-;-;-;-;-;-;-;-
1514002436791;-;-;9.111618;-0.102752686;-1.7255402;-;-;-;-;-;-;-;-;-;-;-;-;-;-;-
1514002436812;-;-;9.110428;-0.06803894;-1.6884308;-;-;-;-;-;-;-;-;-;-;-;-;-;-;-
1514002436833;-;-;9.110428;-0.02973938;-1.8260956;-;-;-;-;-;-;-;-;-;-;-;-;-;-;-
1514002436853;-;-;9.049377;0.02293396;-1.7830048;-;-;-;-;-;-;-;-;-;-;-;-;-;-;-
1514002436874;-;-;9.038605;0.038497925;-1.8009491;-;-;-;-;-;-;-;-;-;-;-;-;-;-;-
1514002436894;-;-;9.146347;0.1438446;-1.7494812;-;-;-;-;-;-;-;-;-;-;-;-;-;-;-
1514002436915;-;-;9.136765;0.036102295;-1.8296814;-;-;-;-;-;-;-;-;-;-;-;-;-;-;-
1514002436935;-;-;9.141556;-0.023742676;-1.7949677;-;-;-;-;-;-;-;-;-;-;-;-;-;-;-
1514002436956;-;-;9.149933;-0.08720398;-1.8117218;-;-;-;-;-;-;-;-;-;-;-;-;-;-;-
1514002436977;-;-;9.145142;-0.0440979;-1.8464508;-;-;-;-;-;-;-;-;-;-;-;-;-;-;-
1514002436997;-;-;9.092468;0.06364441;-1.8775635;-;-;-;-;-;-;-;-;-;-;-;-;-;-;-
1514002437017;-;-;9.019455;0.17137146;-1.8667908;-;-;-;-;-;-;-;-;-;-;-;-;-;-;-
1514002437038;-;-;9.046982;0.1953125;-1.7806091;-;-;-;-;-;-;-;-;-;-;-;-;-;-;-
1514002437057;-;-;9.133179;0.08279419;-1.8248901;-;-;-;-;-;-;-;-;-;-;-;-;-;-;-
1514002437077;-;-;9.221756;-0.10635376;-1.926651;-;-;-;-;-;-;-;-;-;-;-;-;-;-;-
1514002437098;-;-;9.21817;-0.15663147;-1.9230652;-;-;-;-;-;-;-;-;-;-;-;-;-;-;-
1514002437119;-;-;9.068527;-0.15423584;-1.8500366;-;-;-;-;-;-;-;-;-;-;-;-;-;-;-
1514002437138;-;-;9.06134;-0.023742676;-1.7147675;-;-;-;-;-;-;-;-;-;-;-;-;-;-;-
1514002437159;-;-;9.0972595;0.0061798096;-1.6812439;-;-;-;-;-;-;-;-;-;-;-;-;-;-;-
1514002437179;-;-;9.069733;-0.19613647;-1.6968079;-;-;-;-;-;-;-;-;-;-;-;-;-;-;-
1514002437200;-;-;9.165497;-0.22845459;-1.6836395;-;-;-;-;-;-;-;-;-;-;-;-;-;-;-
1514002437220;-;-;9.23732;-0.31584167;-1.737503;-;-;-;-;-;-;-;-;-;-;-;-;-;-;-
1514002437241;-;-;9.196625;-0.28831482;-1.6812439;-;-;-;-;-;-;-;-;-;-;-;-;-;-;-
1514002437262;-;-;9.121201;-0.16021729;-1.5615387;-;-;-;-;-;-;-;-;-;-;-;-;-;-;-
1514002437282;-;-;9.072113;-0.15782166;-1.590271;-;-;-;-;-;-;-;-;-;-;-;-;-;-;-
1514002437302;-;-;9.12001;-0.20690918;-1.7303314;-;-;-;-;-;-;-;-;-;-;-;-;-;-;-
1514002437323;-;-;9.181061;-0.20690918;-1.7315216;-;-;-;-;-;-;-;-;-;-;-;-;-;-;-
1514002437342;-;-;9.195419;-0.21887207;-1.7123718;-;-;-;-;-;-;-;-;-;-;-;-;-;-;-
1514002437363;-;-;9.170288;-0.15542603;-1.6692657;-;-;-;-;-;-;-;-;-;-;-;-;-;-;-
1514002437383;-;-;9.123596;-0.16261292;-1.6596985;-;-;-;-;-;-;-;-;-;-;-;-;-;-;-
1514002437404;-;-;9.160706;-0.22247314;-1.6070251;-;-;-;-;-;-;-;-;-;-;-;-;-;-;-
1514002437425;-;-;9.1128235;-0.33021545;-1.629776;-;-;-;-;-;-;-;-;-;-;-;-;-;-;-
1514002437445;-;-;9.084091;-0.33021545;-1.6321564;-;-;-;-;-;-;-;-;-;-;-;-;-;-;-
1514002437465;-;-;9.07811;-0.26316833;-1.6333618;-;-;-;-;-;-;-;-;-;-;-;-;-;-;-
1514002437486;-;-;9.136765;-0.19972229;-1.5543518;-;-;-;-;-;-;-;-;-;-;-;-;-;-;-
1514002437506;-;-;9.128387;-0.1769867;-1.5363922;-;-;-;-;-;-;-;-;-;-;-;-;-;-;-
1514002437527;-;-;9.108032;-0.21647644;-1.5651245;-;-;-;-;-;-;-;-;-;-;-;-;-;-;-
1514002437547;-;-;9.1128235;-0.25360107;-1.5830841;-;-;-;-;-;-;-;-;-;-;-;-;-;-;-
1514002437568;-;-;9.154724;-0.3182373;-1.6656799;-;-;-;-;-;-;-;-;-;-;-;-;-;-;-
1514002437588;-;-;9.163101;-0.23803711;-1.6836395;-;-;-;-;-;-;-;-;-;-;-;-;-;-;-
1514002437608;-;-;9.134369;-0.12550354;-1.7087708;-;-;-;-;-;-;-;-;-;-;-;-;-;-;-
1514002437629;-;-;9.151123;-0.062057495;-1.6166077;-;-;-;-;-;-;-;-;-;-;-;-;-;-;-
1514002437650;-;-;9.15831;-0.069244385;-1.6082153;-;-;-;-;-;-;-;-;-;-;-;-;-;-;-
1514002437669;-;-;9.201401;-0.062057495;-1.590271;-;-;-;-;-;-;-;-;-;-;-;-;-;-;-
1514002437690;-;-;9.159515;-0.088394165;-1.5998383;-;-;-;-;-;-;-;-;-;-;-;-;-;-;-
1514002437710;-;-;9.17746;-0.19493103;-1.6201935;-;-;-;-;-;-;-;-;-;-;-;-;-;-;-
1514002437730;-;-;9.196625;-0.22845459;-1.5339966;-;-;-;-;-;-;-;-;-;-;-;-;-;-;-
1514002437751;-;-;9.225342;-0.20570374;-1.5687103;-;-;-;-;-;-;-;-;-;-;-;-;-;-;-
1514002437771;-;-;9.135559;-0.19972229;-1.5435791;-;-;-;-;-;-;-;-;-;-;-;-;-;-;-
1514002437792;-;-;9.100845;-0.1877594;-1.5878754;-;-;-;-;-;-;-;-;-;-;-;-;-;-;-
1514002437813;-;-;9.1128235;-0.23683167;-1.5926514;-;-;-;-;-;-;-;-;-;-;-;-;-;-;-
1514002437833;-;-;9.1128235;-0.24401855;-1.5998383;-;-;-;-;-;-;-;-;-;-;-;-;-;-;-
1514002437853;-;-;9.153519;-0.15663147;-1.6201935;-;-;-;-;-;-;-;-;-;-;-;-;-;-;-
1514002437873;-;-;9.117615;-0.1590271;-1.6285706;-;-;-;-;-;-;-;-;-;-;-;-;-;-;-
1514002437894;-;-;9.155914;-0.25479126;-1.5866699;-;-;-;-;-;-;-;-;-;-;-;-;-;-;-
1514002437913;-;-;9.155914;-0.30506897;-1.5603333;-;-;-;-;-;-;-;-;-;-;-;-;-;-;-
1514002437934;-;-;9.179855;-0.289505;-1.5651245;-;-;-;-;-;-;-;-;-;-;-;-;-;-;-
1514002437955;-;-;9.15831;-0.24760437;-1.5663147;-;-;-;-;-;-;-;-;-;-;-;-;-;-;-
1514002437975;-;-;9.146347;-0.2212677;-1.5256195;-;-;-;-;-;-;-;-;-;-;-;-;-;-;-
1514002437996;-;-;9.179855;-0.24760437;-1.516037;-;-;-;-;-;-;-;-;-;-;-;-;-;-;-
1514002438016;-;-;9.0972595;-0.2966919;-1.5244293;-;-;-;-;-;-;-;-;-;-;-;-;-;-;-
1514002438037;-;-;9.090073;-0.24281311;-1.550766;-;-;-;-;-;-;-;-;-;-;-;-;-;-;-
1514002438057;-;-;9.052963;-0.14346313;-1.495697;-;-;-;-;-;-;-;-;-;-;-;-;-;-;-
1514002438078;-;-;9.164291;-0.16740417;-1.5471649;-;-;-;-;-;-;-;-;-;-;-;-;-;-;-
1514002438098;-;-;9.209793;-0.16619873;-1.5471649;-;-;-;-;-;-;-;-;-;-;-;-;-;-;-
1514002438119;-;-;9.197815;-0.18655396;-1.5663147;-;-;-;-;-;-;-;-;-;-;-;-;-;-;-
1514002438139;-;-;9.154724;-0.2033081;-1.5771027;-;-;-;-;-;-;-;-;-;-;-;-;-;-;-
1514002438159;-;-;9.121201;-0.20570374;-1.5603333;-;-;-;-;-;-;-;-;-;-;-;-;-;-;-
1514002438180;-;-;9.100845;-0.17817688;-1.5771027;-;-;-;-;-;-;-;-;-;-;-;-;-;-;-
1514002438200;-;-;9.147537;-0.17578125;-1.5591431;-;-;-;-;-;-;-;-;-;-;-;-;-;-;-
1514002438221;-;-;9.114014;-0.13627625;-1.5663147;-;-;-;-;-;-;-;-;-;-;-;-;-;-;-
1514002438241;-;-;9.195419;-0.1697998;-1.5639343;-;-;-;-;-;-;-;-;-;-;-;-;-;-;-
1514002438262;-;-;9.163101;-0.21768188;-1.5675201;-;-;-;-;-;-;-;-;-;-;-;-;-;-;-
1514002438282;-;-;9.169083;-0.25479126;-1.5483704;-;-;-;-;-;-;-;-;-;-;-;-;-;-;-
1514002438303;-;-;9.09845;-0.20451355;-1.5782928;-;-;-;-;-;-;-;-;-;-;-;-;-;-;-
1514002438324;-;-;9.175064;-0.18415833;-1.5878754;-;-;-;-;-;-;-;-;-;-;-;-;-;-;-
1514002438344;-;-;9.159515;-0.19613647;-1.5878754;-;-;-;-;-;-;-;-;-;-;-;-;-;-;-
1514002438364;-;-;9.155914;-0.22845459;-1.6213837;-;-;-;-;-;-;-;-;-;-;-;-;-;-;-
1514002438385;-;-;9.13916;-0.1985321;-1.6429291;-;-;-;-;-;-;-;-;-;-;-;-;-;-;-
1514002438405;-;-;9.15712;-0.16619873;-1.7351074;-;-;-;-;-;-;-;-;-;-;-;-;-;-;-
1514002438426;-;-;9.193024;-0.18655396;-1.7806091;-;-;-;-;-;-;-;-;-;-;-;-;-;-;-
1514002438446;-;-;9.153519;-0.26437378;-1.777008;-;-;-;-;-;-;-;-;-;-;-;-;-;-;-
1514002438467;-;-;9.100845;-0.3182373;-1.7590485;-;-;-;-;-;-;-;-;-;-;-;-;-;-;-
1514002438488;-;-;9.055359;-0.31225586;-1.7075806;-;-;-;-;-;-;-;-;-;-;-;-;-;-;-
1514002438508;-;-;9.081696;-0.24520874;-1.7027893;-;-;-;-;-;-;-;-;-;-;-;-;-;-;-
1514002438529;-;-;9.023041;-0.17578125;-1.7063904;-;-;-;-;-;-;-;-;-;-;-;-;-;-;-
1514002438549;-;-;9.117615;-0.15542603;-1.7327118;-;-;-;-;-;-;-;-;-;-;-;-;-;-;-
1514002438569;-;-;9.1918335;-0.21887207;-1.729126;-;-;-;-;-;-;-;-;-;-;-;-;-;-;-
1514002438590;-;-;9.184647;-0.29788208;-1.7949677;-;-;-;-;-;-;-;-;-;-;-;-;-;-;-
1514002438611;-;-;9.159515;-0.368515;-1.7806091;-;-;-;-;-;-;-;-;-;-;-;-;-;-;-
1514002438631;-;-;9.131973;-0.38526917;-1.7183533;-;-;-;-;-;-;-;-;-;-;-;-;-;-;-
1514002438651;-;-;9.0733185;-0.3481598;-1.7099762;-;-;-;-;-;-;-;-;-;-;-;-;-;-;-
1514002438672;-;-;9.015854;-0.3146515;-1.7303314;-;-;-;-;-;-;-;-;-;-;-;-;-;-;-
1514002438693;-;-;9.063736;-0.21528625;-1.7267303;-;-;-;-;-;-;-;-;-;-;-;-;-;-;-
1514002438714;-;-;9.170288;-0.1697998;-1.7578583;-;-;-;-;-;-;-;-;-;-;-;-;-;-;-
1514002438735;-;-;9.15831;-0.23683167;-1.8380585;-;-;-;-;-;-;-;-;-;-;-;-;-;-;-
1514002438755;-;-;9.134369;-0.33859253;-1.8368683;-;-;-;-;-;-;-;-;-;-;-;-;-;-;-
1514002438775;-;-;9.131973;-0.3697052;-1.7231445;-;-;-;-;-;-;-;-;-;-;-;-;-;-;-
1514002438796;-;-;9.15712;-0.25120544;-1.6082153;-;-;-;-;-;-;-;-;-;-;-;-;-;-;-
1514002438817;-;-;9.048172;-0.16500854;-1.6944122;-;-;-;-;-;-;-;-;-;-;-;-;-;-;-
1514002438837;-;-;9.082901;-0.21170044;-1.7387085;-;-;-;-;-;-;-;-;-;-;-;-;-;-;-
1514002438857;-;-;9.147537;-0.22247314;-1.8045502;-;-;-;-;-;-;-;-;-;-;-;-;-;-;-
1514002438878;-;-;9.220566;-0.21768188;-1.8835602;-;-;-;-;-;-;-;-;-;-;-;-;-;-;-
1514002438898;-;-;9.169083;-0.21528625;-1.9470062;-;-;-;-;-;-;-;-;-;-;-;-;-;-;-
1514002438919;-;-;9.134369;-0.066848755;-1.8153229;-;-;-;-;-;-;-;-;-;-;-;-;-;-;-
1514002438940;-;-;9.116409;-0.026138306;-1.8057404;-;-;-;-;-;-;-;-;-;-;-;-;-;-;-
1514002438960;-;-;9.14035;-0.18655396;-1.8907318;-;-;-;-;-;-;-;-;-;-;-;-;-;-;-
1514002438980;-;-;9.12001;-0.26437378;-1.926651;-;-;-;-;-;-;-;-;-;-;-;-;-;-;-
1514002439000;-;-;9.153519;-0.21409607;-1.74469;-;-;-;-;-;-;-;-;-;-;-;-;-;-;-
1514002439020;-;-;9.07811;-0.13627625;-1.6273804;-;-;-;-;-;-;-;-;-;-;-;-;-;-;-
1514002439040;-;-;9.084091;-0.12310791;-1.618988;-;-;-;-;-;-;-;-;-;-;-;-;-;-;-
1514002439061;-;-;9.127182;-0.1769867;-1.6680756;-;-;-;-;-;-;-;-;-;-;-;-;-;-;-
1514002439081;-;-;9.072113;-0.109939575;-1.6812439;-;-;-;-;-;-;-;-;-;-;-;-;-;-;-
1514002439102;-;-;9.108032;-0.107543945;-1.6513214;-;-;-;-;-;-;-;-;-;-;-;-;-;-;-
1514002439122;-;-;9.130783;-0.069244385;-1.6441345;-;-;-;-;-;-;-;-;-;-;-;-;-;-;-
1514002439143;-;-;9.106842;-0.01776123;-1.6249847;-;-;-;-;-;-;-;-;-;-;-;-;-;-;-
1514002439163;-;-;9.175064;0.007369995;-1.697998;-;-;-;-;-;-;-;-;-;-;-;-;-;-;-
1514002439184;-;-;9.325912;0.014556885;-1.7578583;-;-;-;-;-;-;-;-;-;-;-;-;-;-;-
1514002439204;-;-;9.323517;-0.0021972656;-1.7207489;-;-;-;-;-;-;-;-;-;-;-;-;-;-;-
1514002439225;-;-;9.187042;0.0013885498;-1.618988;-;-;-;-;-;-;-;-;-;-;-;-;-;-;-
1514002439245;-;-;9.037399;0.06602478;-1.516037;-;-;-;-;-;-;-;-;-;-;-;-;-;-;-
1514002439265;-;-;9.036209;0.083984375;-1.5339966;-;-;-;-;-;-;-;-;-;-;-;-;-;-;-
1514002439286;-;-;9.212173;0.16059875;-1.6130066;-;-;-;-;-;-;-;-;-;-;-;-;-;-;-
1514002439306;-;-;9.190628;0.098358154;-1.6788483;-;-;-;-;-;-;-;-;-;-;-;-;-;-;-
1514002439327;-;-;9.135559;-0.050079346;-1.7027893;-;-;-;-;-;-;-;-;-;-;-;-;-;-;-
1514002439347;-;-;9.221756;-0.13508606;-1.6309662;-;-;-;-;-;-;-;-;-;-;-;-;-;-;-
1514002439368;-;-;9.21817;-0.0440979;-1.6058197;-;-;-;-;-;-;-;-;-;-;-;-;-;-;-
1514002439388;-;-;9.148727;-0.016571045;-1.6369476;-;-;-;-;-;-;-;-;-;-;-;-;-;-;-
1514002439409;-;-;9.175064;-0.042907715;-1.6704712;-;-;-;-;-;-;-;-;-;-;-;-;-;-;-
1514002439430;-;-;9.1523285;-0.05847168;-1.6118164;-;-;-;-;-;-;-;-;-;-;-;-;-;-;-
1514002439449;-;-;9.137955;-0.090789795;-1.5878754;-;-;-;-;-;-;-;-;-;-;-;-;-;-;-
1514002439469;-;-;9.184647;-0.16381836;-1.5962524;-;-;-;-;-;-;-;-;-;-;-;-;-;-;-
1514002439489;-;-;9.161896;-0.20809937;-1.610611;-;-;-;-;-;-;-;-;-;-;-;-;-;-;-
1514002439510;-;-;9.160706;-0.16381836;-1.610611;-;-;-;-;-;-;-;-;-;-;-;-;-;-;-
1514002439530;-;-;9.0733185;-0.109939575;-1.5782928;-;-;-;-;-;-;-;-;-;-;-;-;-;-;-
1514002439551;-;-;9.133179;-0.01776123;-1.5100555;-;-;-;-;-;-;-;-;-;-;-;-;-;-;-
1514002439570;-;-;9.109222;-0.03691101;-1.5339966;-;-;-;-;-;-;-;-;-;-;-;-;-;-;-
1514002439591;-;-;9.213379;0.046875;-1.5519562;-;-;-;-;-;-;-;-;-;-;-;-;-;-;-
1514002439610;-;-;9.159515;0.046875;-1.6417389;-;-;-;-;-;-;-;-;-;-;-;-;-;-;-
1514002439631;-;-;9.161896;0.16419983;-1.6752625;-;-;-;-;-;-;-;-;-;-;-;-;-;-;-
1514002439650;-;-;9.167892;0.1438446;-1.6848297;-;-;-;-;-;-;-;-;-;-;-;-;-;-;-
1514002439670;-;-;9.23613;0.24320984;-1.6130066;-;-;-;-;-;-;-;-;-;-;-;-;-;-;-
1514002439691;-;-;9.272034;0.3222046;-1.4083099;-;-;-;-;-;-;-;-;-;-;-;-;-;-;-
1514002439711;-;-;9.196625;0.41438293;-1.2526855;-;-;-;-;-;-;-;-;-;-;-;-;-;-;-
1514002439731;-;-;9.116409;0.299469;-1.2897949;-;-;-;-;-;-;-;-;-;-;-;-;-;-;-
1514002439752;-;-;8.984726;0.10194397;-1.234726;-;-;-;-;-;-;-;-;-;-;-;-;-;-;-
1514002439772;-;-;9.208588;0.07081604;-1.1281891;-;-;-;-;-;-;-;-;-;-;-;-;-;-;-
1514002439793;-;-;9.031418;0.091171265;-1.1521301;-;-;-;-;-;-;-;-;-;-;-;-;-;-;-
1514002439813;-;-;9.085281;0.24081421;-1.0551605;-;-;-;-;-;-;-;-;-;-;-;-;-;-;-
1514002439834;-;-;8.990723;0.3174286;-1.0156555;-;-;-;-;-;-;-;-;-;-;-;-;-;-;-
1514002439855;-;-;9.102051;0.34376526;-1.0228424;-;-;-;-;-;-;-;-;-;-;-;-;-;-;-
1514002439875;-;-;9.23851;0.20848083;-1.064743;-;-;-;-;-;-;-;-;-;-;-;-;-;-;-
1514002439896;-;-;9.331894;0.0049743652;-1.1664886;-;-;-;-;-;-;-;-;-;-;-;-;-;-;-
1514002439915;-;-;9.367798;-0.04170227;-1.1832428;-;-;-;-;-;-;-;-;-;-;-;-;-;-;-
1514002439936;-;-;9.348648;0.083984375;-1.1700745;-;-;-;-;-;-;-;-;-;-;-;-;-;-;-
1514002439956;-;-;9.189438;0.25398254;-1.124588;-;-;-;-;-;-;-;-;-;-;-;-;-;-;-
1514002439975;-;-;8.984726;0.3210144;-1.1365662;-;-;-;-;-;-;-;-;-;-;-;-;-;-;-
1514002439995;-;-;9.093674;0.2803192;-1.143753;-;-;-;-;-;-;-;-;-;-;-;-;-;-;-
1514002440015;-;-;8.983536;0.20370483;-1.2287445;-;-;-;-;-;-;-;-;-;-;-;-;-;-;-
1514002440036;-;-;9.026627;0.2013092;-1.3161316;-;-;-;-;-;-;-;-;-;-;-;-;-;-;-
1514002440057;-;-;9.205002;0.122299194;-1.2909851;-;-;-;-;-;-;-;-;-;-;-;-;-;-;-
1514002440077;-;-;9.184647;0.1043396;-1.3233032;-;-;-;-;-;-;-;-;-;-;-;-;-;-;-
1514002440097;-;-;9.202606;0.10913086;-1.3113403;-;-;-;-;-;-;-;-;-;-;-;-;-;-;-
1514002440117;-;-;9.261261;0.13546753;-1.3664093;-;-;-;-;-;-;-;-;-;-;-;-;-;-;-
1514002440138;-;-;9.379776;0.057647705;-1.3448639;-;-;-;-;-;-;-;-;-;-;-;-;-;-;-
1514002440158;-;-;9.252884;0.02053833;-1.3628082;-;-;-;-;-;-;-;-;-;-;-;-;-;-;-
1514002440178;-;-;9.196625;0.0181427;-1.3364716;-;-;-;-;-;-;-;-;-;-;-;-;-;-;-
1514002440199;-;-;9.087677;0.062438965;-1.2873993;-;-;-;-;-;-;-;-;-;-;-;-;-;-;-
1514002440220;-;-;9.0793;0.064834595;-1.2215576;-;-;-;-;-;-;-;-;-;-;-;-;-;-;-
1514002440240;-;-;9.201401;0.107925415;-1.2167664;-;-;-;-;-;-;-;-;-;-;-;-;-;-;-
1514002440260;-;-;9.197815;0.091171265;-1.3041534;-;-;-;-;-;-;-;-;-;-;-;-;-;-;-
1514002440281;-;-;9.254074;0.0756073;-1.3089447;-;-;-;-;-;-;-;-;-;-;-;-;-;-;-
1514002440302;-;-;9.142746;0.15940857;-1.2658539;-;-;-;-;-;-;-;-;-;-;-;-;-;-;-
1514002440322;-;-;9.116409;0.22883606;-1.2730255;-;-;-;-;-;-;-;-;-;-;-;-;-;-;-
1514002440343;-;-;9.288788;0.23960876;-1.1820526;-;-;-;-;-;-;-;-;-;-;-;-;-;-;-
1514002440363;-;-;9.386963;0.1618042;-1.1473389;-;-;-;-;-;-;-;-;-;-;-;-;-;-;-
1514002440383;-;-;9.206192;0.2192688;-1.164093;-;-;-;-;-;-;-;-;-;-;-;-;-;-;-
1514002440404;-;-;9.082901;0.24081421;-1.2251434;-;-;-;-;-;-;-;-;-;-;-;-;-;-;-
1514002440425;-;-;9.074509;0.24559021;-1.2778168;-;-;-;-;-;-;-;-;-;-;-;-;-;-;-
1514002440445;-;-;9.166687;0.19172668;-1.282608;-;-;-;-;-;-;-;-;-;-;-;-;-;-;-
1514002440466;-;-;9.355835;0.23362732;-1.2012024;-;-;-;-;-;-;-;-;-;-;-;-;-;-;-
1514002440487;-;-;9.13916;0.24919128;-1.203598;-;-;-;-;-;-;-;-;-;-;-;-;-;-;-
1514002440507;-;-;9.13916;0.22644043;-1.1329651;-;-;-;-;-;-;-;-;-;-;-;-;-;-;-
1514002440526;-;-;9.161896;0.24559021;-1.164093;-;-;-;-;-;-;-;-;-;-;-;-;-;-;-
1514002440547;-;-;9.111618;0.3461609;-1.2622528;-;-;-;-;-;-;-;-;-;-;-;-;-;-;-
1514002440568;-;-;9.074509;0.43354797;-1.3436584;-;-;-;-;-;-;-;-;-;-;-;-;-;-;-
1514002440588;-;-;9.110428;0.46466064;-1.4466095;-;-;-;-;-;-;-;-;-;-;-;-;-;-;-
1514002440608;-;-;9.215775;0.536499;-1.4059143;-;-;-;-;-;-;-;-;-;-;-;-;-;-;-
1514002440629;-;-;9.148727;0.4874115;-1.3352814;-;-;-;-;-;-;-;-;-;-;-;-;-;-;-
1514002440649;-;-;9.099655;0.45988464;-1.274231;-;-;-;-;-;-;-;-;-;-;-;-;-;-;-
1514002440669;-;-;9.109222;0.46228027;-1.2514801;-;-;-;-;-;-;-;-;-;-;-;-;-;-;-
1514002440690;-;-;9.17627;0.40960693;-1.3089447;-;-;-;-;-;-;-;-;-;-;-;-;-;-;-
1514002440710;-;-;9.227737;0.3461609;-1.3185272;-;-;-;-;-;-;-;-;-;-;-;-;-;-;-
1514002440731;-;-;9.21817;0.31622314;-1.2790222;-;-;-;-;-;-;-;-;-;-;-;-;-;-;-
1514002440751;-;-;9.17746;0.36410522;-1.2263489;-;-;-;-;-;-;-;-;-;-;-;-;-;-;-
1514002440772;-;-;9.09845;0.4000244;-1.2227478;-;-;-;-;-;-;-;-;-;-;-;-;-;-;-
1514002440792;-;-;9.0733185;0.3569336;-1.2646484;-;-;-;-;-;-;-;-;-;-;-;-;-;-;-
1514002440813;-;-;9.099655;0.29826355;-1.2646484;-;-;-;-;-;-;-;-;-;-;-;-;-;-;-
1514002440834;-;-;9.121201;0.26594543;-1.2730255;-;-;-;-;-;-;-;-;-;-;-;-;-;-;-
1514002440854;-;-;9.189438;0.2743225;-1.322113;-;-;-;-;-;-;-;-;-;-;-;-;-;-;-
1514002440874;-;-;9.25647;0.23242188;-1.3089447;-;-;-;-;-;-;-;-;-;-;-;-;-;-;-
1514002440895;-;-;9.225342;0.12588501;-1.2634583;-;-;-;-;-;-;-;-;-;-;-;-;-;-;-
1514002440916;-;-;9.21936;0.1043396;-1.2897949;-;-;-;-;-;-;-;-;-;-;-;-;-;-;-
1514002440936;-;-;9.149933;0.088775635;-1.3328857;-;-;-;-;-;-;-;-;-;-;-;-;-;-;-
1514002440957;-;-;9.133179;0.20729065;-1.3568268;-;-;-;-;-;-;-;-;-;-;-;-;-;-;-
1514002440977;-;-;9.213379;0.30665588;-1.4262543;-;-;-;-;-;-;-;-;-;-;-;-;-;-;-
1514002440998;-;-;9.1523285;0.36531067;-1.3197174;-;-;-;-;-;-;-;-;-;-;-;-;-;-;-
1514002441018;-;-;9.222961;0.2695465;-1.2921906;-;-;-;-;-;-;-;-;-;-;-;-;-;-;-
1514002441039;-;-;9.197815;0.1797638;-1.3041534;-;-;-;-;-;-;-;-;-;-;-;-;-;-;-
1514002441058;-;-;9.172684;0.09475708;-1.2407074;-;-;-;-;-;-;-;-;-;-;-;-;-;-;-
1514002441079;-;-;9.291183;0.13665771;-1.2323303;-;-;-;-;-;-;-;-;-;-;-;-;-;-;-
1514002441098;-;-;9.163101;0.122299194;-1.2012024;-;-;-;-;-;-;-;-;-;-;-;-;-;-;-
1514002441119;-;-;9.122391;0.12348938;-1.2215576;-;-;-;-;-;-;-;-;-;-;-;-;-;-;-
1514002441140;-;-;9.214569;0.14025879;-1.2850037;-;-;-;-;-;-;-;-;-;-;-;-;-;-;-
1514002441160;-;-;9.220566;0.19891357;-1.337677;-;-;-;-;-;-;-;-;-;-;-;-;-;-;-
1514002441180;-;-;9.21936;0.29467773;-1.3520355;-;-;-;-;-;-;-;-;-;-;-;-;-;-;-
1514002441200;-;-;9.041;0.4191742;-1.401123;-;-;-;-;-;-;-;-;-;-;-;-;-;-;-
1514002441221;-;-;9.163101;0.3509369;-1.456192;-;-;-;-;-;-;-;-;-;-;-;-;-;-;-
1514002441241;-;-;9.201401;0.19293213;-1.492096;-;-;-;-;-;-;-;-;-;-;-;-;-;-;-
1514002441262;-;-;9.21936;0.10913086;-1.3951416;-;-;-;-;-;-;-;-;-;-;-;-;-;-;-
1514002441281;-;-;9.146347;0.10913086;-1.337677;-;-;-;-;-;-;-;-;-;-;-;-;-;-;-
1514002441302;-;-;9.149933;0.16659546;-1.3664093;-;-;-;-;-;-;-;-;-;-;-;-;-;-;-
1514002441321;-;-;9.137955;0.18693542;-1.3759766;-;-;-;-;-;-;-;-;-;-;-;-;-;-;-
1514002441342;-;-;9.185837;0.17616272;-1.3843689;-;-;-;-;-;-;-;-;-;-;-;-;-;-;-
1514002441362;-;-;9.239716;0.16299438;-1.3807678;-;-;-;-;-;-;-;-;-;-;-;-;-;-;-
1514002441383;-;-;9.153519;0.057647705;-1.3209229;-;-;-;-;-;-;-;-;-;-;-;-;-;-;-
1514002441403;-;-;9.213379;0.0025787354;-1.2682495;-;-;-;-;-;-;-;-;-;-;-;-;-;-;-
1514002441424;-;-;9.173874;-0.05128479;-1.3017578;-;-;-;-;-;-;-;-;-;-;-;-;-;-;-
1514002441444;-;-;9.202606;-0.0105896;-1.2538757;-;-;-;-;-;-;-;-;-;-;-;-;-;-;-
1514002441464;-;-;9.122391;-0.021362305;-1.2909851;-;-;-;-;-;-;-;-;-;-;-;-;-;-;-
1514002441485;-;-;9.200211;0.013366699;-1.2670441;-;-;-;-;-;-;-;-;-;-;-;-;-;-;-
1514002441505;-;-;9.185837;0.05166626;-1.3077545;-;-;-;-;-;-;-;-;-;-;-;-;-;-;-
1514002441525;-;-;9.173874;0.112716675;-1.3197174;-;-;-;-;-;-;-;-;-;-;-;-;-;-;-
1514002441546;-;-;9.214569;0.1558075;-1.2730255;-;-;-;-;-;-;-;-;-;-;-;-;-;-;-
1514002441565;-;-;9.165497;0.09475708;-1.2083893;-;-;-;-;-;-;-;-;-;-;-;-;-;-;-
1514002441585;-;-;9.183456;0.0049743652;-1.2634583;-;-;-;-;-;-;-;-;-;-;-;-;-;-;-
1514002441606;-;-;9.146347;0.0061798096;-1.3484497;-;-;-;-;-;-;-;-;-;-;-;-;-;-;-
1514002441627;-;-;9.153519;0.010971069;-1.4226685;-;-;-;-;-;-;-;-;-;-;-;-;-;-;-
1514002441647;-;-;9.190628;0.09236145;-1.3891449;-;-;-;-;-;-;-;-;-;-;-;-;-;-;-
1514002441667;-;-;9.209793;0.14025879;-1.3472595;-;-;-;-;-;-;-;-;-;-;-;-;-;-;-
1514002441688;-;-;9.159515;0.10194397;-1.3699951;-;-;-;-;-;-;-;-;-;-;-;-;-;-;-
1514002441707;-;-;9.145142;0.11392212;-1.4885101;-;-;-;-;-;-;-;-;-;-;-;-;-;-;-
1514002441728;-;-;9.134369;0.20249939;-1.492096;-;-;-;-;-;-;-;-;-;-;-;-;-;-;-
1514002441748;-;-;9.134369;0.28271484;-1.4130859;-;-;-;-;-;-;-;-;-;-;-;-;-;-;-
1514002441769;-;-;9.135559;0.25756836;-1.4154816;-;-;-;-;-;-;-;-;-;-;-;-;-;-;-
1514002441789;-;-;9.207397;0.15940857;-1.3783722;-;-;-;-;-;-;-;-;-;-;-;-;-;-;-
1514002441810;-;-;9.257675;0.083984375;-1.313736;-;-;-;-;-;-;-;-;-;-;-;-;-;-;-
1514002441830;-;-;9.161896;1.9836426E-4;-1.3269043;-;-;-;-;-;-;-;-;-;-;-;-;-;-;-
1514002441851;-;-;9.155914;-0.081207275;-1.3412628;-;-;-;-;-;-;-;-;-;-;-;-;-;-;-
1514002441870;-;-;9.163101;-0.08480835;-1.3699951;-;-;-;-;-;-;-;-;-;-;-;-;-;-;-
1514002441891;-;-;9.257675;-0.02015686;-1.3185272;-;-;-;-;-;-;-;-;-;-;-;-;-;-;-
1514002441911;-;-;9.205002;0.06842041;-1.3412628;-;-;-;-;-;-;-;-;-;-;-;-;-;-;-
1514002441932;-;-;9.173874;0.040893555;-1.3508453;-;-;-;-;-;-;-;-;-;-;-;-;-;-;-
1514002441952;-;-;9.096069;-0.021362305;-1.2897949;-;-;-;-;-;-;-;-;-;-;-;-;-;-;-
1514002441973;-;-;9.102051;0.009765625;-1.2287445;-;-;-;-;-;-;-;-;-;-;-;-;-;-;-
1514002441993;-;-;9.207397;0.010971069;-1.2562714;-;-;-;-;-;-;-;-;-;-;-;-;-;-;-
1514002442014;-;-;9.215775;-0.02255249;-1.3245087;-;-;-;-;-;-;-;-;-;-;-;-;-;-;-
1514002442033;-;-;9.153519;0.02053833;-1.3316956;-;-;-;-;-;-;-;-;-;-;-;-;-;-;-
1514002442054;-;-;9.125992;0.15461731;-1.3472595;-;-;-;-;-;-;-;-;-;-;-;-;-;-;-
1514002442073;-;-;9.202606;0.13546753;-1.4071045;-;-;-;-;-;-;-;-;-;-;-;-;-;-;-
1514002442094;-;-;9.203796;0.083984375;-1.361618;-;-;-;-;-;-;-;-;-;-;-;-;-;-;-
1514002442115;-;-;9.233734;-0.009384155;-1.3652039;-;-;-;-;-;-;-;-;-;-;-;-;-;-;-
1514002442135;-;-;9.224152;-0.10395813;-1.353241;-;-;-;-;-;-;-;-;-;-;-;-;-;-;-
1514002442156;-;-;9.187042;-0.08001709;-1.2873993;-;-;-;-;-;-;-;-;-;-;-;-;-;-;-
1514002442176;-;-;9.183456;-0.121917725;-1.2909851;-;-;-;-;-;-;-;-;-;-;-;-;-;-;-
1514002442197;-;-;9.17746;-0.22964478;-1.2215576;-;-;-;-;-;-;-;-;-;-;-;-;-;-;-
1514002442218;-;-;9.2313385;-0.26675415;-1.2909851;-;-;-;-;-;-;-;-;-;-;-;-;-;-;-
1514002442237;-;-;9.321121;-0.26437378;-1.3005676;-;-;-;-;-;-;-;-;-;-;-;-;-;-;-
1514002442258;-;-;9.312744;-0.20809937;-1.313736;-;-;-;-;-;-;-;-;-;-;-;-;-;-;-
1514002442278;-;-;9.2313385;-0.15782166;-1.2538757;-;-;-;-;-;-;-;-;-;-;-;-;-;-;-
1514002442299;-;-;9.154724;-0.15663147;-1.2179718;-;-;-;-;-;-;-;-;-;-;-;-;-;-;-
1514002442318;-;-;9.147537;-0.19013977;-1.2203674;-;-;-;-;-;-;-;-;-;-;-;-;-;-;-
1514002442338;-;-;9.128387;-0.12789917;-1.2574768;-;-;-;-;-;-;-;-;-;-;-;-;-;-;-
1514002442359;-;-;9.172684;-0.066848755;-1.322113;-;-;-;-;-;-;-;-;-;-;-;-;-;-;-
1514002442378;-;-;9.200211;-0.052474976;-1.4394226;-;-;-;-;-;-;-;-;-;-;-;-;-;-;-
1514002442398;-;-;9.210983;-0.028533936;-1.4765472;-;-;-;-;-;-;-;-;-;-;-;-;-;-;-
1514002442419;-;-;9.321121;-0.047698975;-1.5471649;-;-;-;-;-;-;-;-;-;-;-;-;-;-;-
1514002442439;-;-;9.227737;-0.057266235;-1.5591431;-;-;-;-;-;-;-;-;-;-;-;-;-;-;-
1514002442459;-;-;9.17746;-0.02734375;-1.3867645;-;-;-;-;-;-;-;-;-;-;-;-;-;-;-
1514002442480;-;-;9.122391;-0.02255249;-1.3544312;-;-;-;-;-;-;-;-;-;-;-;-;-;-;-
1514002442501;-;-;9.1128235;1.9836426E-4;-1.3903503;-;-;-;-;-;-;-;-;-;-;-;-;-;-;-
1514002442521;-;-;9.151123;-0.059661865;-1.4274597;-;-;-;-;-;-;-;-;-;-;-;-;-;-;-
1514002442542;-;-;9.188232;-0.12310791;-1.4059143;-;-;-;-;-;-;-;-;-;-;-;-;-;-;-
1514002442562;-;-;9.146347;-0.19732666;-1.3963318;-;-;-;-;-;-;-;-;-;-;-;-;-;-;-
1514002442583;-;-;9.166687;-0.1925354;-1.3269043;-;-;-;-;-;-;-;-;-;-;-;-;-;-;-
1514002442603;-;-;9.142746;-0.064453125;-1.3472595;-;-;-;-;-;-;-;-;-;-;-;-;-;-;-
1514002442624;-;-;9.133179;-0.02255249;-1.3580322;-;-;-;-;-;-;-;-;-;-;-;-;-;-;-
1514002442644;-;-;9.116409;-0.0105896;-1.4071045;-;-;-;-;-;-;-;-;-;-;-;-;-;-;-
1514002442665;-;-;9.166687;0.008575439;-1.4597778;-;-;-;-;-;-;-;-;-;-;-;-;-;-;-
1514002442686;-;-;9.17746;-0.0069885254;-1.5184326;-;-;-;-;-;-;-;-;-;-;-;-;-;-;-
1514002442706;-;-;9.128387;-0.08001709;-1.5016785;-;-;-;-;-;-;-;-;-;-;-;-;-;-;-
1514002442727;-;-;9.128387;-0.100372314;-1.4933014;-;-;-;-;-;-;-;-;-;-;-;-;-;-;-
1514002442746;-;-;9.122391;-0.035720825;-1.4358368;-;-;-;-;-;-;-;-;-;-;-;-;-;-;-
1514002442767;-;-;9.172684;-0.04888916;-1.4418182;-;-;-;-;-;-;-;-;-;-;-;-;-;-;-
1514002442787;-;-;9.1918335;-0.03453064;-1.4214783;-;-;-;-;-;-;-;-;-;-;-;-;-;-;-
1514002442808;-;-;9.173874;-0.03213501;-1.4059143;-;-;-;-;-;-;-;-;-;-;-;-;-;-;-
1514002442828;-;-;9.151123;-0.13388062;-1.4490051;-;-;-;-;-;-;-;-;-;-;-;-;-;-;-
1514002442848;-;-;9.136765;-0.119522095;-1.492096;-;-;-;-;-;-;-;-;-;-;-;-;-;-;-
1514002442867;-;-;9.121201;-0.16381836;-1.4849243;-;-;-;-;-;-;-;-;-;-;-;-;-;-;-
1514002442888;-;-;9.179855;-0.22605896;-1.4250641;-;-;-;-;-;-;-;-;-;-;-;-;-;-;-
1514002442908;-;-;9.137955;-0.22964478;-1.4382324;-;-;-;-;-;-;-;-;-;-;-;-;-;-;-
1514002442929;-;-;9.075714;-0.1590271;-1.4813232;-;-;-;-;-;-;-;-;-;-;-;-;-;-;-
1514002442950;-;-;9.09845;-0.081207275;-1.5040741;-;-;-;-;-;-;-;-;-;-;-;-;-;-;-
1514002442970;-;-;9.074509;-0.02494812;-1.5136566;-;-;-;-;-;-;-;-;-;-;-;-;-;-;-
1514002442991;-;-;9.096069;0.09475708;-1.4047089;-;-;-;-;-;-;-;-;-;-;-;-;-;-;-
1514002443012;-;-;9.0972595;0.1330719;-1.452591;-;-;-;-;-;-;-;-;-;-;-;-;-;-;-
1514002443032;-;-;9.035004;0.08758545;-1.4490051;-;-;-;-;-;-;-;-;-;-;-;-;-;-;-
1514002443052;-;-;9.106842;0.04447937;-1.5208282;-;-;-;-;-;-;-;-;-;-;-;-;-;-;-
1514002443073;-;-;9.161896;0.18095398;-1.7051849;-;-;-;-;-;-;-;-;-;-;-;-;-;-;-
1514002443094;-;-;9.245697;0.3569336;-2.0068512;-;-;-;-;-;-;-;-;-;-;-;-;-;-;-
1514002443113;-;-;9.364212;0.19293213;-2.2211304;-;-;-;-;-;-;-;-;-;-;-;-;-;-;-
1514002443134;-;-;9.398926;-0.047698975;-2.1804352;-;-;-;-;-;-;-;-;-;-;-;-;-;-;-
1514002443154;-;-;9.406113;-0.23085022;-1.9649506;-;-;-;-;-;-;-;-;-;-;-;-;-;-;-
1514002443175;-;-;9.342667;-0.3361969;-1.7434998;-;-;-;-;-;-;-;-;-;-;-;-;-;-;-
1514002443195;-;-;9.175064;-0.4846344;-1.5375977;-;-;-;-;-;-;-;-;-;-;-;-;-;-;-
1514002443216;-;-;9.043396;-0.6438446;-1.2838135;-;-;-;-;-;-;-;-;-;-;-;-;-;-;-
1514002443236;-;-;8.991913;-0.7276459;-1.0802917;-;-;-;-;-;-;-;-;-;-;-;-;-;-;-
1514002443257;-;-;9.030228;-0.7551727;-0.946228;-;-;-;-;-;-;-;-;-;-;-;-;-;-;-
1514002443277;-;-;9.026627;-0.6067352;-1.064743;-;-;-;-;-;-;-;-;-;-;-;-;-;-;-
1514002443297;-;-;9.122391;-0.37809753;-1.2502899;-;-;-;-;-;-;-;-;-;-;-;-;-;-;-
1514002443318;-;-;9.160706;-0.16740417;-1.447815;-;-;-;-;-;-;-;-;-;-;-;-;-;-;-
1514002443338;-;-;9.260071;-0.05128479;-1.6704712;-;-;-;-;-;-;-;-;-;-;-;-;-;-;-
1514002443359;-;-;9.329498;0.06842041;-1.8201141;-;-;-;-;-;-;-;-;-;-;-;-;-;-;-
1514002443378;-;-;9.333084;0.21566772;-1.7830048;-;-;-;-;-;-;-;-;-;-;-;-;-;-;-
1514002443399;-;-;9.319916;0.28271484;-1.8177185;-;-;-;-;-;-;-;-;-;-;-;-;-;-;-
1514002443418;-;-;9.209793;0.24559021;-1.7806091;-;-;-;-;-;-;-;-;-;-;-;-;-;-;-
1514002443438;-;-;9.184647;-0.05607605;-1.595047;-;-;-;-;-;-;-;-;-;-;-;-;-;-;-
1514002443459;-;-;9.269638;-0.17098999;-1.5483704;-;-;-;-;-;-;-;-;-;-;-;-;-;-;-
1514002443479;-;-;9.2708435;-0.24281311;-1.4514008;-;-;-;-;-;-;-;-;-;-;-;-;-;-;-
1514002443500;-;-;9.21817;-0.28471375;-1.4358368;-;-;-;-;-;-;-;-;-;-;-;-;-;-;-
1514002443521;-;-;9.129578;-0.23324585;-1.3999176;-;-;-;-;-;-;-;-;-;-;-;-;-;-;-
1514002443541;-;-;9.025436;-0.24520874;-1.1688843;-;-;-;-;-;-;-;-;-;-;-;-;-;-;-
1514002443562;-;-;9.212173;-0.16619873;-1.2407074;-;-;-;-;-;-;-;-;-;-;-;-;-;-;-
1514002443581;-;-;9.47554;-0.2320404;-1.006073;-;-;-;-;-;-;-;-;-;-;-;-;-;-;-
1514002443602;-;-;8.954803;-0.19134521;-1.2251434;-;-;-;-;-;-;-;-;-;-;-;-;-;-;-
1514002443622;-;-;9.184647;-0.04649353;-1.1772614;-;-;-;-;-;-;-;-;-;-;-;-;-;-;-
1514002443643;-;-;9.188232;-0.14225769;-1.1868439;-;-;-;-;-;-;-;-;-;-;-;-;-;-;-
1514002443663;-;-;9.262466;-0.29429626;-0.9809418;-;-;-;-;-;-;-;-;-;-;-;-;-;-;-
1514002443684;-;-;9.142746;-0.054870605;-0.9797363;-;-;-;-;-;-;-;-;-;-;-;-;-;-;-
1514002443704;-;-;8.958389;0.18814087;-1.0431824;-;-;-;-;-;-;-;-;-;-;-;-;-;-;-
1514002443725;-;-;9.074509;0.091171265;-1.0132599;-;-;-;-;-;-;-;-;-;-;-;-;-;-;-
1514002443747;-;-;9.234924;-0.15423584;-1.0240326;-;-;-;-;-;-;-;-;-;-;-;-;-;-;-
1514002443768;-;-;9.477936;-0.26437378;-1.3867645;-;-;-;-;-;-;-;-;-;-;-;-;-;-;-
1514002443787;-;-;9.106842;-0.078811646;-1.4071045;-;-;-;-;-;-;-;-;-;-;-;-;-;-;-
1514002443807;-;-;8.709396;0.7591553;-1.3604279;-;-;-;-;-;-;-;-;-;-;-;-;-;-;-
1514002443828;-;-;8.985931;1.1721497;-1.4310455;-;-;-;-;-;-;-;-;-;-;-;-;-;-;-
1514002443849;-;-;9.458786;1.0045624;-1.5890656;-;-;-;-;-;-;-;-;-;-;-;-;-;-;-
1514002443870;-;-;9.445618;0.62986755;-1.480133;-;-;-;-;-;-;-;-;-;-;-;-;-;-;-
1514002443889;-;-;9.064941;0.46347046;-1.2897949;-;-;-;-;-;-;-;-;-;-;-;-;-;-;-
1514002443910;-;-;8.932053;0.77711487;-1.3688049;-;-;-;-;-;-;-;-;-;-;-;-;-;-;-
1514002443932;-;-;8.955994;1.0416718;-1.5100555;-;-;-;-;-;-;-;-;-;-;-;-;-;-;-
1514002443952;-;-;9.360626;0.67056274;-1.4514008;-;-;-;-;-;-;-;-;-;-;-;-;-;-;-
1514002443972;-;-;9.239716;0.44311523;-1.4585876;-;-;-;-;-;-;-;-;-;-;-;-;-;-;-
1514002443993;-;-;8.996704;0.5448761;-1.610611;-;-;-;-;-;-;-;-;-;-;-;-;-;-;-
1514002444014;-;-;9.037399;0.6095123;-1.7901764;-;-;-;-;-;-;-;-;-;-;-;-;-;-;-
1514002444035;-;-;9.195419;0.34735107;-1.7949677;-;-;-;-;-;-;-;-;-;-;-;-;-;-;-
1514002444055;-;-;9.430054;-0.18894958;-1.5339966;-;-;-;-;-;-;-;-;-;-;-;-;-;-;-
1514002444074;-;-;9.446808;-0.41760254;-1.3592224;-;-;-;-;-;-;-;-;-;-;-;-;-;-;-
1514002444094;-;-;9.225342;-0.39245605;-1.3125305;-;-;-;-;-;-;-;-;-;-;-;-;-;-;-
1514002444115;-;-;9.09845;-0.31704712;-1.258667;-;-;-;-;-;-;-;-;-;-;-;-;-;-;-
1514002444136;-;-;8.984726;-0.0728302;-1.2323303;-;-;-;-;-;-;-;-;-;-;-;-;-;-;-
1514002444155;-;-;9.108032;0.1953125;-1.2454987;-;-;-;-;-;-;-;-;-;-;-;-;-;-;-
1514002444176;-;-;9.1918335;0.18574524;-1.1329651;-;-;-;-;-;-;-;-;-;-;-;-;-;-;-
1514002444195;-;-;9.220566;-0.01776123;-0.92826843;-;-;-;-;-;-;-;-;-;-;-;-;-;-;-
1514002444216;-;-;9.175064;-0.30986023;-1.0132599;-;-;-;-;-;-;-;-;-;-;-;-;-;-;-
1514002444236;-;-;9.15712;-0.41041565;-1.3149261;-;-;-;-;-;-;-;-;-;-;-;-;-;-;-
1514002444257;-;-;9.267242;-0.17098999;-1.4418182;-;-;-;-;-;-;-;-;-;-;-;-;-;-;-
1514002444277;-;-;9.151123;0.24081421;-1.3795776;-;-;-;-;-;-;-;-;-;-;-;-;-;-;-
1514002444298;-;-;9.094864;0.38206482;-1.5100555;-;-;-;-;-;-;-;-;-;-;-;-;-;-;-
1514002444318;-;-;9.1918335;0.42396545;-1.5292053;-;-;-;-;-;-;-;-;-;-;-;-;-;-;-
1514002444339;-;-;9.262466;0.4945984;-1.5471649;-;-;-;-;-;-;-;-;-;-;-;-;-;-;-
1514002444359;-;-;9.130783;0.4981842;-1.5232239;-;-;-;-;-;-;-;-;-;-;-;-;-;-;-
1514002444380;-;-;9.115219;0.4072113;-1.452591;-;-;-;-;-;-;-;-;-;-;-;-;-;-;-
1514002444400;-;-;9.155914;0.36650085;-1.4681549;-;-;-;-;-;-;-;-;-;-;-;-;-;-;-
1514002444421;-;-;9.149933;0.4467163;-1.5387878;-;-;-;-;-;-;-;-;-;-;-;-;-;-;-
1514002444442;-;-;9.09845;0.36531067;-1.3867645;-;-;-;-;-;-;-;-;-;-;-;-;-;-;-
1514002444463;-;-;9.043396;0.30065918;-1.3233032;-;-;-;-;-;-;-;-;-;-;-;-;-;-;-
1514002444483;-;-;9.048172;0.1618042;-1.3245087;-;-;-;-;-;-;-;-;-;-;-;-;-;-;-
1514002444503;-;-;9.141556;0.13665771;-1.3723907;-;-;-;-;-;-;-;-;-;-;-;-;-;-;-
1514002444524;-;-;9.171478;0.19891357;-1.3843689;-;-;-;-;-;-;-;-;-;-;-;-;-;-;-
1514002444545;-;-;9.175064;0.30545044;-1.392746;-;-;-;-;-;-;-;-;-;-;-;-;-;-;-
1514002444565;-;-;9.127182;0.28988647;-1.361618;-;-;-;-;-;-;-;-;-;-;-;-;-;-;-
1514002444586;-;-;9.0972595;0.22883606;-1.3029633;-;-;-;-;-;-;-;-;-;-;-;-;-;-;-
1514002444606;-;-;9.076904;0.2240448;-1.3209229;-;-;-;-;-;-;-;-;-;-;-;-;-;-;-
1514002444629;-;-;9.096069;0.32939148;-1.3795776;-;-;-;-;-;-;-;-;-;-;-;-;-;-;-
1514002444648;-;-;9.142746;0.38804626;-1.4789276;-;-;-;-;-;-;-;-;-;-;-;-;-;-;-
1514002444669;-;-;9.226547;0.3210144;-1.3795776;-;-;-;-;-;-;-;-;-;-;-;-;-;-;-
1514002444688;-;-;9.2313385;0.13786316;-1.2514801;-;-;-;-;-;-;-;-;-;-;-;-;-;-;-
1514002444708;-;-;9.194229;0.048080444;-1.2119751;-;-;-;-;-;-;-;-;-;-;-;-;-;-;-
1514002444728;-;-;9.160706;0.064834595;-1.3316956;-;-;-;-;-;-;-;-;-;-;-;-;-;-;-
1514002444749;-;-;9.125992;0.02532959;-1.4549866;-;-;-;-;-;-;-;-;-;-;-;-;-;-;-
1514002444769;-;-;9.163101;-0.0728302;-1.3831635;-;-;-;-;-;-;-;-;-;-;-;-;-;-;-
1514002444789;-;-;9.194229;-0.13148499;-1.2454987;-;-;-;-;-;-;-;-;-;-;-;-;-;-;-
1514002444809;-;-;9.195419;0.069625854;-1.1916351;-;-;-;-;-;-;-;-;-;-;-;-;-;-;-
1514002444830;-;-;9.131973;0.35333252;-1.3699951;-;-;-;-;-;-;-;-;-;-;-;-;-;-;-
1514002444850;-;-;9.090073;0.4299469;-1.4537964;-;-;-;-;-;-;-;-;-;-;-;-;-;-;-
1514002444870;-;-;9.092468;0.26715088;-1.4035187;-;-;-;-;-;-;-;-;-;-;-;-;-;-;-
1514002444891;-;-;9.115219;0.18214417;-1.392746;-;-;-;-;-;-;-;-;-;-;-;-;-;-;-
1514002444911;-;-;9.163101;0.26475525;-1.4370422;-;-;-;-;-;-;-;-;-;-;-;-;-;-;-
1514002444932;-;-;9.172684;0.5376892;-1.6177979;-;-;-;-;-;-;-;-;-;-;-;-;-;-;-
1514002444952;-;-;9.181061;0.6430359;-1.7638397;-;-;-;-;-;-;-;-;-;-;-;-;-;-;-
1514002444973;-;-;9.17746;0.596344;-1.8296814;-;-;-;-;-;-;-;-;-;-;-;-;-;-;-
1514002444993;-;-;9.169083;0.4694519;-1.8332825;-;-;-;-;-;-;-;-;-;-;-;-;-;-;-
1514002445014;-;-;9.17627;0.41438293;-1.7877808;-;-;-;-;-;-;-;-;-;-;-;-;-;-;-
1514002445033;-;-;9.123596;0.3174286;-1.7734222;-;-;-;-;-;-;-;-;-;-;-;-;-;-;-
1514002445053;-;-;9.1523285;0.23123169;-1.697998;-;-;-;-;-;-;-;-;-;-;-;-;-;-;-
1514002445074;-;-;9.137955;0.08758545;-1.7279358;-;-;-;-;-;-;-;-;-;-;-;-;-;-;-
1514002445094;-;-;8.983536;0.06364441;-1.7387085;-;-;-;-;-;-;-;-;-;-;-;-;-;-;-
1514002445115;-;-;8.989517;0.036102295;-1.7351074;-;-;-;-;-;-;-;-;-;-;-;-;-;-;-
1514002445136;-;-;9.147537;0.048080444;-1.7877808;-;-;-;-;-;-;-;-;-;-;-;-;-;-;-
1514002445156;-;-;9.306747;0.16539001;-1.8739777;-;-;-;-;-;-;-;-;-;-;-;-;-;-;-
1514002445177;-;-;9.260071;0.28390503;-1.8356628;-;-;-;-;-;-;-;-;-;-;-;-;-;-;-
1514002445197;-;-;9.084091;0.34854126;-1.8656006;-;-;-;-;-;-;-;-;-;-;-;-;-;-;-
1514002445218;-;-;8.975159;0.42755127;-1.8883362;-;-;-;-;-;-;-;-;-;-;-;-;-;-;-
1514002445239;-;-;8.942825;0.4359436;-1.8500366;-;-;-;-;-;-;-;-;-;-;-;-;-;-;-
1514002445258;-;-;8.957199;0.35333252;-1.8189087;-;-;-;-;-;-;-;-;-;-;-;-;-;-;-
1514002445278;-;-;9.006287;0.21447754;-1.9326324;-;-;-;-;-;-;-;-;-;-;-;-;-;-;-
1514002445299;-;-;9.121201;0.11869812;-1.9733429;-;-;-;-;-;-;-;-;-;-;-;-;-;-;-
1514002445320;-;-;9.121201;0.112716675;-1.9338379;-;-;-;-;-;-;-;-;-;-;-;-;-;-;-
1514002445340;-;-;9.108032;0.11631775;-1.9362335;-;-;-;-;-;-;-;-;-;-;-;-;-;-;-
1514002445360;-;-;9.117615;0.16059875;-1.9781189;-;-;-;-;-;-;-;-;-;-;-;-;-;-;-
1514002445381;-;-;9.087677;0.16539001;-1.9948883;-;-;-;-;-;-;-;-;-;-;-;-;-;-;-
1514002445402;-;-;9.103241;0.16778564;-1.9062958;-;-;-;-;-;-;-;-;-;-;-;-;-;-;-
1514002445422;-;-;9.084091;0.15940857;-1.8201141;-;-;-;-;-;-;-;-;-;-;-;-;-;-;-
1514002445442;-;-;9.058945;0.21087646;-1.8356628;-;-;-;-;-;-;-;-;-;-;-;-;-;-;-
1514002445463;-;-;9.024231;0.21687317;-1.9338379;-;-;-;-;-;-;-;-;-;-;-;-;-;-;-
1514002445484;-;-;9.051773;0.22644043;-1.926651;-;-;-;-;-;-;-;-;-;-;-;-;-;-;-
1514002445504;-;-;9.030228;0.23123169;-1.9589691;-;-;-;-;-;-;-;-;-;-;-;-;-;-;-
1514002445524;-;-;9.049377;0.17137146;-2.0248108;-;-;-;-;-;-;-;-;-;-;-;-;-;-;-
1514002445544;-;-;9.122391;0.1845398;-2.00206;-;-;-;-;-;-;-;-;-;-;-;-;-;-;-
1514002445564;-;-;9.117615;0.18095398;-1.9398193;-;-;-;-;-;-;-;-;-;-;-;-;-;-;-
1514002445585;-;-;9.133179;0.2348175;-1.9494019;-;-;-;-;-;-;-;-;-;-;-;-;-;-;-
1514002445606;-;-;9.128387;0.20489502;-1.9721375;-;-;-;-;-;-;-;-;-;-;-;-;-;-;-
1514002445626;-;-;9.1128235;0.12348938;-1.9075012;-;-;-;-;-;-;-;-;-;-;-;-;-;-;-
1514002445646;-;-;9.109222;0.08279419;-1.8512268;-;-;-;-;-;-;-;-;-;-;-;-;-;-;-
1514002445667;-;-;9.111618;0.110321045;-1.8572235;-;-;-;-;-;-;-;-;-;-;-;-;-;-;-
1514002445687;-;-;9.056564;0.14503479;-1.8428497;-;-;-;-;-;-;-;-;-;-;-;-;-;-;-
1514002445707;-;-;9.036209;0.14624023;-1.8440552;-;-;-;-;-;-;-;-;-;-;-;-;-;-;-
1514002445728;-;-;9.056564;0.16539001;-1.8440552;-;-;-;-;-;-;-;-;-;-;-;-;-;-;-
1514002445747;-;-;9.075714;0.13426208;-1.8392639;-;-;-;-;-;-;-;-;-;-;-;-;-;-;-
1514002445768;-;-;9.067337;0.12588501;-1.871582;-;-;-;-;-;-;-;-;-;-;-;-;-;-;-
1514002445788;-;-;9.067337;0.13546753;-1.8835602;-;-;-;-;-;-;-;-;-;-;-;-;-;-;-
1514002445808;-;-;9.093674;0.21687317;-1.9158783;-;-;-;-;-;-;-;-;-;-;-;-;-;-;-
1514002445829;-;-;9.072113;0.27552795;-1.8979187;-;-;-;-;-;-;-;-;-;-;-;-;-;-;-
1514002445849;-;-;9.055359;0.33657837;-1.8536224;-;-;-;-;-;-;-;-;-;-;-;-;-;-;-
1514002445870;-;-;9.055359;0.27552795;-1.8835602;-;-;-;-;-;-;-;-;-;-;-;-;-;-;-
1514002445890;-;-;9.075714;0.28630066;-1.9122772;-;-;-;-;-;-;-;-;-;-;-;-;-;-;-
1514002445910;-;-;9.106842;0.26834106;-1.8488312;-;-;-;-;-;-;-;-;-;-;-;-;-;-;-
1514002445931;-;-;9.147537;0.19891357;-1.8189087;-;-;-;-;-;-;-;-;-;-;-;-;-;-;-
1514002445951;-;-;9.127182;0.21566772;-1.7949677;-;-;-;-;-;-;-;-;-;-;-;-;-;-;-
1514002445972;-;-;9.106842;0.20610046;-1.7542725;-;-;-;-;-;-;-;-;-;-;-;-;-;-;-
1514002445991;-;-;9.072113;0.22045898;-1.7303314;-;-;-;-;-;-;-;-;-;-;-;-;-;-;-
1514002446012;-;-;9.088882;0.20249939;-1.7614441;-;-;-;-;-;-;-;-;-;-;-;-;-;-;-
1514002446031;-;-;9.081696;0.21447754;-1.8643951;-;-;-;-;-;-;-;-;-;-;-;-;-;-;-
1514002446052;-;-;9.091278;0.22164917;-1.8344727;-;-;-;-;-;-;-;-;-;-;-;-;-;-;-
1514002446072;-;-;9.166687;0.1558075;-1.7315216;-;-;-;-;-;-;-;-;-;-;-;-;-;-;-
1514002446093;-;-;9.110428;0.0756073;-1.674057;-;-;-;-;-;-;-;-;-;-;-;-;-;-;-
1514002446113;-;-;9.109222;0.08279419;-1.6884308;-;-;-;-;-;-;-;-;-;-;-;-;-;-;-
1514002446134;-;-;9.092468;0.11392212;-1.6836395;-;-;-;-;-;-;-;-;-;-;-;-;-;-;-
1514002446155;-;-;9.087677;0.22164917;-1.6872253;-;-;-;-;-;-;-;-;-;-;-;-;-;-;-
1514002446175;-;-;9.039795;0.20489502;-1.6848297;-;-;-;-;-;-;-;-;-;-;-;-;-;-;-
1514002446196;-;-;9.122391;0.21566772;-1.7626495;-;-;-;-;-;-;-;-;-;-;-;-;-;-;-
1514002446215;-;-;9.175064;0.25517273;-1.7411041;-;-;-;-;-;-;-;-;-;-;-;-;-;-;-
1514002446235;-;-;9.189438;0.2348175;-1.7147675;-;-;-;-;-;-;-;-;-;-;-;-;-;-;-
1514002446256;-;-;9.099655;0.24081421;-1.697998;-;-;-;-;-;-;-;-;-;-;-;-;-;-;-
1514002446276;-;-;9.014664;0.30784607;-1.6704712;-;-;-;-;-;-;-;-;-;-;-;-;-;-;-
1514002446297;-;-;9.051773;0.2886963;-1.7243347;-;-;-;-;-;-;-;-;-;-;-;-;-;-;-
1514002446318;-;-;9.105637;0.23362732;-1.7422943;-;-;-;-;-;-;-;-;-;-;-;-;-;-;-
1514002446338;-;-;9.23851;0.122299194;-1.7806091;-;-;-;-;-;-;-;-;-;-;-;-;-;-;-
1514002446358;-;-;9.208588;0.09715271;-1.7782135;-;-;-;-;-;-;-;-;-;-;-;-;-;-;-
1514002446379;-;-;9.123596;0.17018127;-1.7051849;-;-;-;-;-;-;-;-;-;-;-;-;-;-;-
1514002446403;-;-;9.06015;0.21087646;-1.7147675;-;-;-;-;-;-;-;-;-;-;-;-;-;-;-
1514002446420;-;-;9.054169;0.19891357;-1.7171631;-;-;-;-;-;-;-;-;-;-;-;-;-;-;-
1514002446440;-;-;9.116409;0.100753784;-1.7207489;-;-;-;-;-;-;-;-;-;-;-;-;-;-;-
1514002446461;-;-;9.125992;0.115112305;-1.7147675;-;-;-;-;-;-;-;-;-;-;-;-;-;-;-
1514002446481;-;-;9.151123;0.045684814;-1.7458801;-;-;-;-;-;-;-;-;-;-;-;-;-;-;-
1514002446502;-;-;9.103241;0.098358154;-1.7339172;-;-;-;-;-;-;-;-;-;-;-;-;-;-;-
1514002446523;-;-;9.0793;0.124694824;-1.7123718;-;-;-;-;-;-;-;-;-;-;-;-;-;-;-
1514002446542;-;-;9.134369;0.14624023;-1.689621;-;-;-;-;-;-;-;-;-;-;-;-;-;-;-
1514002446563;-;-;9.178665;0.17855835;-1.6369476;-;-;-;-;-;-;-;-;-;-;-;-;-;-;-
1514002446584;-;-;9.179855;0.19651794;-1.590271;-;-;-;-;-;-;-;-;-;-;-;-;-;-;-
1514002446604;-;-;9.142746;0.1725769;-1.6417389;-;-;-;-;-;-;-;-;-;-;-;-;-;-;-
1514002446625;-;-;9.102051;0.16659546;-1.6213837;-;-;-;-;-;-;-;-;-;-;-;-;-;-;-
1514002446646;-;-;9.081696;0.105529785;-1.610611;-;-;-;-;-;-;-;-;-;-;-;-;-;-;-
1514002446666;-;-;9.110428;0.110321045;-1.6644897;-;-;-;-;-;-;-;-;-;-;-;-;-;-;-
1514002446686;-;-;9.178665;0.12709045;-1.6034393;-;-;-;-;-;-;-;-;-;-;-;-;-;-;-
1514002446707;-;-;9.149933;0.12948608;-1.571106;-;-;-;-;-;-;-;-;-;-;-;-;-;-;-
1514002446728;-;-;9.159515;0.16419983;-1.5974426;-;-;-;-;-;-;-;-;-;-;-;-;-;-;-
1514002446748;-;-;9.134369;0.18574524;-1.5782928;-;-;-;-;-;-;-;-;-;-;-;-;-;-;-
1514002446769;-;-;9.092468;0.17137146;-1.6417389;-;-;-;-;-;-;-;-;-;-;-;-;-;-;-
1514002446789;-;-;9.103241;0.19770813;-1.634552;-;-;-;-;-;-;-;-;-;-;-;-;-;-;-
1514002446810;-;-;9.173874;0.24919128;-1.6333618;-;-;-;-;-;-;-;-;-;-;-;-;-;-;-
1514002446831;-;-;9.187042;0.23960876;-1.5830841;-;-;-;-;-;-;-;-;-;-;-;-;-;-;-
1514002446853;-;-;9.115219;0.26115417;-1.5806885;-;-;-;-;-;-;-;-;-;-;-;-;-;-;-
1514002446873;-;-;9.068527;0.259964;-1.6118164;-;-;-;-;-;-;-;-;-;-;-;-;-;-;-
1514002446893;-;-;9.103241;0.2515869;-1.653717;-;-;-;-;-;-;-;-;-;-;-;-;-;-;-
1514002446914;-;-;9.179855;0.20968628;-1.6201935;-;-;-;-;-;-;-;-;-;-;-;-;-;-;-
1514002446934;-;-;9.179855;0.15820313;-1.5890656;-;-;-;-;-;-;-;-;-;-;-;-;-;-;-
1514002446955;-;-;9.171478;0.13067627;-1.531601;-;-;-;-;-;-;-;-;-;-;-;-;-;-;-
1514002446976;-;-;9.141556;0.095962524;-1.4573822;-;-;-;-;-;-;-;-;-;-;-;-;-;-;-
1514002446996;-;-;9.141556;0.10673523;-1.4705505;-;-;-;-;-;-;-;-;-;-;-;-;-;-;-
1514002447017;-;-;9.103241;0.12348938;-1.5100555;-;-;-;-;-;-;-;-;-;-;-;-;-;-;-
1514002447037;-;-;9.096069;0.117507935;-1.5890656;-;-;-;-;-;-;-;-;-;-;-;-;-;-;-
1514002447060;-;-;9.163101;0.15342712;-1.6046295;-;-;-;-;-;-;-;-;-;-;-;-;-;-;-
1514002447078;-;-;9.220566;0.105529785;-1.5519562;-;-;-;-;-;-;-;-;-;-;-;-;-;-;-
1514002447099;-;-;9.160706;0.16419983;-1.5531616;-;-;-;-;-;-;-;-;-;-;-;-;-;-;-
1514002447119;-;-;9.12001;0.15940857;-1.535202;-;-;-;-;-;-;-;-;-;-;-;-;-;-;-
1514002447140;-;-;9.137955;0.1953125;-1.5076599;-;-;-;-;-;-;-;-;-;-;-;-;-;-;-
1514002447160;-;-;9.09845;0.23242188;-1.5399933;-;-;-;-;-;-;-;-;-;-;-;-;-;-;-
1514002447180;-;-;9.116409;0.18334961;-1.5040741;-;-;-;-;-;-;-;-;-;-;-;-;-;-;-
1514002447201;-;-;9.118805;0.14503479;-1.5028687;-;-;-;-;-;-;-;-;-;-;-;-;-;-;-
1514002447222;-;-;9.169083;0.14624023;-1.48732;-;-;-;-;-;-;-;-;-;-;-;-;-;-;-
1514002447243;-;-;9.148727;0.17616272;-1.4753418;-;-;-;-;-;-;-;-;-;-;-;-;-;-;-
1514002447262;-;-;9.184647;0.14743042;-1.48732;-;-;-;-;-;-;-;-;-;-;-;-;-;-;-
1514002447283;-;-;9.169083;0.19293213;-1.5124512;-;-;-;-;-;-;-;-;-;-;-;-;-;-;-
1514002447303;-;-;9.141556;0.2013092;-1.5064697;-;-;-;-;-;-;-;-;-;-;-;-;-;-;-
1514002447324;-;-;9.142746;0.15820313;-1.5220337;-;-;-;-;-;-;-;-;-;-;-;-;-;-;-
1514002447343;-;-;9.15831;0.1845398;-1.5064697;-;-;-;-;-;-;-;-;-;-;-;-;-;-;-
1514002447363;-;-;9.134369;0.19412231;-1.5842743;-;-;-;-;-;-;-;-;-;-;-;-;-;-;-
1514002447384;-;-;9.133179;0.2240448;-1.571106;-;-;-;-;-;-;-;-;-;-;-;-;-;-;-
1514002447404;-;-;9.146347;0.23123169;-1.5471649;-;-;-;-;-;-;-;-;-;-;-;-;-;-;-
1514002447425;-;-;9.155914;0.21087646;-1.5459747;-;-;-;-;-;-;-;-;-;-;-;-;-;-;-
1514002447446;-;-;9.14035;0.19172668;-1.5495605;-;-;-;-;-;-;-;-;-;-;-;-;-;-;-
1514002447466;-;-;9.182251;0.19770813;-1.6070251;-;-;-;-;-;-;-;-;-;-;-;-;-;-;-
1514002447486;-;-;9.17627;0.11392212;-1.574707;-;-;-;-;-;-;-;-;-;-;-;-;-;-;-
1514002447507;-;-;9.143951;0.15461731;-1.5663147;-;-;-;-;-;-;-;-;-;-;-;-;-;-;-
1514002447526;-;-;9.058945;0.1953125;-1.5411835;-;-;-;-;-;-;-;-;-;-;-;-;-;-;-
1514002447546;-;-;8.995499;0.32460022;-1.6788483;-;-;-;-;-;-;-;-;-;-;-;-;-;-;-
1514002447567;-;-;9.0182495;0.4359436;-1.8488312;-;-;-;-;-;-;-;-;-;-;-;-;-;-;-
1514002447587;-;-;9.021835;0.57240295;-1.8763733;-;-;-;-;-;-;-;-;-;-;-;-;-;-;-
1514002447607;-;-;8.988327;0.5855713;-1.8656006;-;-;-;-;-;-;-;-;-;-;-;-;-;-;-
1514002447628;-;-;9.0182495;0.4407196;-1.926651;-;-;-;-;-;-;-;-;-;-;-;-;-;-;-
1514002447648;-;-;9.06134;0.29588318;-2.0547333;-;-;-;-;-;-;-;-;-;-;-;-;-;-;-
1514002447669;-;-;9.108032;0.38446045;-2.0822754;-;-;-;-;-;-;-;-;-;-;-;-;-;-;-
1514002447690;-;-;9.054169;0.55085754;-2.1576843;-;-;-;-;-;-;-;-;-;-;-;-;-;-;-
1514002447710;-;-;8.944031;0.6549988;-2.3121185;-;-;-;-;-;-;-;-;-;-;-;-;-;-;-
1514002447730;-;-;8.84108;0.67056274;-2.2738037;-;-;-;-;-;-;-;-;-;-;-;-;-;-;-
1514002447751;-;-;8.710602;0.82499695;-2.151703;-;-;-;-;-;-;-;-;-;-;-;-;-;-;-
1514002447772;-;-;8.708206;0.72802734;-2.1959991;-;-;-;-;-;-;-;-;-;-;-;-;-;-;-
1514002447793;-;-;8.797989;0.48382568;-2.263031;-;-;-;-;-;-;-;-;-;-;-;-;-;-;-
1514002447812;-;-;8.916504;0.24679565;-2.4019012;-;-;-;-;-;-;-;-;-;-;-;-;-;-;-
1514002447833;-;-;8.92009;0.14743042;-2.5108337;-;-;-;-;-;-;-;-;-;-;-;-;-;-;-
1514002447853;-;-;8.92009;0.17497253;-2.5299835;-;-;-;-;-;-;-;-;-;-;-;-;-;-;-
1514002447874;-;-;9.017059;0.093566895;-2.5335846;-;-;-;-;-;-;-;-;-;-;-;-;-;-;-
1514002447895;-;-;9.035004;0.067230225;-2.6365356;-;-;-;-;-;-;-;-;-;-;-;-;-;-;-
1514002447915;-;-;8.996704;0.20848083;-2.8148956;-;-;-;-;-;-;-;-;-;-;-;-;-;-;-
1514002447936;-;-;8.914108;0.46107483;-2.8939056;-;-;-;-;-;-;-;-;-;-;-;-;-;-;-
1514002447956;-;-;8.717773;0.675354;-2.693985;-;-;-;-;-;-;-;-;-;-;-;-;-;-;-
1514002447977;-;-;8.811157;0.60113525;-2.6724396;-;-;-;-;-;-;-;-;-;-;-;-;-;-;-
1514002447997;-;-;8.847061;0.44911194;-2.752655;-;-;-;-;-;-;-;-;-;-;-;-;-;-;-
1514002448018;-;-;8.8207245;0.576004;-2.7454681;-;-;-;-;-;-;-;-;-;-;-;-;-;-;-
1514002448038;-;-;8.8997345;0.7531738;-2.709549;-;-;-;-;-;-;-;-;-;-;-;-;-;-;-
1514002448059;-;-;9.006287;0.74838257;-2.9142609;-;-;-;-;-;-;-;-;-;-;-;-;-;-;-
1514002448079;-;-;9.093674;0.5185394;-3.0196075;-;-;-;-;-;-;-;-;-;-;-;-;-;-;-
1514002448099;-;-;9.044586;0.41079712;-2.89151;-;-;-;-;-;-;-;-;-;-;-;-;-;-;-
1514002448120;-;-;8.96199;0.3102417;-2.7394867;-;-;-;-;-;-;-;-;-;-;-;-;-;-;-
1514002448140;-;-;8.97995;0.26235962;-2.6880035;-;-;-;-;-;-;-;-;-;-;-;-;-;-;-
1514002448161;-;-;8.851852;0.21806335;-2.5754852;-;-;-;-;-;-;-;-;-;-;-;-;-;-;-
1514002448180;-;-;8.818329;0.18095398;-2.4270325;-;-;-;-;-;-;-;-;-;-;-;-;-;-;-
1514002448202;-;-;8.865021;0.02772522;-2.3588104;-;-;-;-;-;-;-;-;-;-;-;-;-;-;-
1514002448221;-;-;8.990723;0.0037841797;-2.4773102;-;-;-;-;-;-;-;-;-;-;-;-;-;-;-
1514002448241;-;-;9.142746;0.046875;-2.6317444;-;-;-;-;-;-;-;-;-;-;-;-;-;-;-
1514002448261;-;-;9.143951;0.06842041;-2.658081;-;-;-;-;-;-;-;-;-;-;-;-;-;-;-
1514002448282;-;-;9.149933;0.12709045;-2.5646973;-;-;-;-;-;-;-;-;-;-;-;-;-;-;-
1514002448302;-;-;9.051773;0.17376709;-2.570694;-;-;-;-;-;-;-;-;-;-;-;-;-;-;-
1514002448323;-;-;9.001495;0.22644043;-2.725113;-;-;-;-;-;-;-;-;-;-;-;-;-;-;-
1514002448343;-;-;9.006287;0.259964;-2.8065186;-;-;-;-;-;-;-;-;-;-;-;-;-;-;-
1514002448364;-;-;8.950012;0.19651794;-2.7382813;-;-;-;-;-;-;-;-;-;-;-;-;-;-;-
1514002448385;-;-;8.932053;0.26235962;-2.6269531;-;-;-;-;-;-;-;-;-;-;-;-;-;-;-
1514002448405;-;-;8.923676;0.30903625;-2.6209717;-;-;-;-;-;-;-;-;-;-;-;-;-;-;-
1514002448426;-;-;8.832703;0.41319275;-2.5958252;-;-;-;-;-;-;-;-;-;-;-;-;-;-;-
1514002448447;-;-;8.7812195;0.5077667;-2.6113892;-;-;-;-;-;-;-;-;-;-;-;-;-;-;-
1514002448467;-;-;8.759674;0.4909973;-2.6245575;-;-;-;-;-;-;-;-;-;-;-;-;-;-;-
1514002448488;-;-;8.833893;0.47543335;-2.603012;-;-;-;-;-;-;-;-;-;-;-;-;-;-;-
1514002448507;-;-;8.887772;0.47903442;-2.5850525;-;-;-;-;-;-;-;-;-;-;-;-;-;-;-
1514002448527;-;-;8.863831;0.556839;-2.768219;-;-;-;-;-;-;-;-;-;-;-;-;-;-;-
1514002448548;-;-;8.832703;0.50297546;-2.867569;-;-;-;-;-;-;-;-;-;-;-;-;-;-;-
1514002448567;-;-;8.763275;0.56163025;-2.843628;-;-;-;-;-;-;-;-;-;-;-;-;-;-;-
1514002448588;-;-;8.8051605;0.6549988;-2.8651733;-;-;-;-;-;-;-;-;-;-;-;-;-;-;-
1514002448608;-;-;8.874603;0.69810486;-2.946579;-;-;-;-;-;-;-;-;-;-;-;-;-;-;-
1514002448629;-;-;8.851852;0.769928;-2.9441833;-;-;-;-;-;-;-;-;-;-;-;-;-;-;-
1514002448649;-;-;8.72377;0.86450195;-2.8699646;-;-;-;-;-;-;-;-;-;-;-;-;-;-;-
1514002448670;-;-;8.641159;0.8501282;-2.8615875;-;-;-;-;-;-;-;-;-;-;-;-;-;-;-
1514002448690;-;-;8.576523;0.74838257;-2.7742004;-;-;-;-;-;-;-;-;-;-;-;-;-;-;-
1514002448710;-;-;8.653137;0.7076721;-2.8328552;-;-;-;-;-;-;-;-;-;-;-;-;-;-;-
1514002448731;-;-;8.774048;0.6957092;-2.8687744;-;-;-;-;-;-;-;-;-;-;-;-;-;-;-
1514002448751;-;-;8.807556;0.73521423;-2.8939056;-;-;-;-;-;-;-;-;-;-;-;-;-;-;-
1514002448772;-;-;8.885376;0.71965027;-2.9741058;-;-;-;-;-;-;-;-;-;-;-;-;-;-;-
1514002448792;-;-;8.916504;0.7040863;-2.89151;-;-;-;-;-;-;-;-;-;-;-;-;-;-;-
1514002448812;-;-;8.83989;0.71725464;-2.9022827;-;-;-;-;-;-;-;-;-;-;-;-;-;-;-
1514002448833;-;-;8.747711;0.6957092;-2.907074;-;-;-;-;-;-;-;-;-;-;-;-;-;-;-
1514002448853;-;-;8.72496;0.69091797;-2.8412323;-;-;-;-;-;-;-;-;-;-;-;-;-;-;-
1514002448874;-;-;8.806366;0.7292328;-2.772995;-;-;-;-;-;-;-;-;-;-;-;-;-;-;-
1514002448894;-;-;8.797989;0.64782715;-2.7825775;-;-;-;-;-;-;-;-;-;-;-;-;-;-;-
1514002448915;-;-;8.874603;0.65141296;-2.8819427;-;-;-;-;-;-;-;-;-;-;-;-;-;-;-
1514002448934;-;-;8.881775;0.6250763;-3.0076294;-;-;-;-;-;-;-;-;-;-;-;-;-;-;-
1514002448955;-;-;8.7812195;0.6250763;-2.895111;-;-;-;-;-;-;-;-;-;-;-;-;-;-;-
1514002448976;-;-;8.702209;0.51135254;-2.697586;-;-;-;-;-;-;-;-;-;-;-;-;-;-;-
1514002448996;-;-;8.655533;0.54248047;-2.6987762;-;-;-;-;-;-;-;-;-;-;-;-;-;-;-
1514002449015;-;-;8.769257;0.47065735;-2.709549;-;-;-;-;-;-;-;-;-;-;-;-;-;-;-
1514002449036;-;-;8.896149;0.4658661;-2.761032;-;-;-;-;-;-;-;-;-;-;-;-;-;-;-
1514002449056;-;-;8.879379;0.48501587;-2.7047577;-;-;-;-;-;-;-;-;-;-;-;-;-;-;-
1514002449077;-;-;8.72377;0.48860168;-2.522812;-;-;-;-;-;-;-;-;-;-;-;-;-;-;-
1514002449097;-;-;8.844666;0.52093506;-2.4533691;-;-;-;-;-;-;-;-;-;-;-;-;-;-;-
1514002449118;-;-;8.96199;0.42156982;-2.7634277;-;-;-;-;-;-;-;-;-;-;-;-;-;-;-
1514002449138;-;-;9.003891;0.31861877;-2.7897644;-;-;-;-;-;-;-;-;-;-;-;-;-;-;-
1514002449159;-;-;8.9787445;0.31503296;-2.7382813;-;-;-;-;-;-;-;-;-;-;-;-;-;-;-
1514002449180;-;-;8.966782;0.39404297;-2.6532898;-;-;-;-;-;-;-;-;-;-;-;-;-;-;-
1514002449200;-;-;8.872208;0.42515564;-2.5934296;-;-;-;-;-;-;-;-;-;-;-;-;-;-;-
1514002449221;-;-;8.838684;0.4862213;-2.5718842;-;-;-;-;-;-;-;-;-;-;-;-;-;-;-
1514002449240;-;-;8.830307;0.60472107;-2.7299042;-;-;-;-;-;-;-;-;-;-;-;-;-;-;-
1514002449260;-;-;8.871002;0.6526184;-2.8113098;-;-;-;-;-;-;-;-;-;-;-;-;-;-;-
1514002449281;-;-;8.857834;0.57240295;-2.8244781;-;-;-;-;-;-;-;-;-;-;-;-;-;-;-
1514002449301;-;-;8.891357;0.5089569;-2.7418823;-;-;-;-;-;-;-;-;-;-;-;-;-;-;-
1514002449322;-;-;8.795593;0.50297546;-2.6604767;-;-;-;-;-;-;-;-;-;-;-;-;-;-;-
1514002449342;-;-;8.754883;0.5640259;-2.6413116;-;-;-;-;-;-;-;-;-;-;-;-;-;-;-
1514002449363;-;-;8.782425;0.50057983;-2.693985;-;-;-;-;-;-;-;-;-;-;-;-;-;-;-
1514002449383;-;-;8.855438;0.44311523;-2.7322998;-;-;-;-;-;-;-;-;-;-;-;-;-;-;-
1514002449404;-;-;8.994308;0.42156982;-2.7406769;-;-;-;-;-;-;-;-;-;-;-;-;-;-;-
1514002449424;-;-;8.957199;0.4909973;-2.6209717;-;-;-;-;-;-;-;-;-;-;-;-;-;-;-
1514002449445;-;-;8.879379;0.5089569;-2.515625;-;-;-;-;-;-;-;-;-;-;-;-;-;-;-
1514002449466;-;-;8.837494;0.55085754;-2.3707733;-;-;-;-;-;-;-;-;-;-;-;-;-;-;-
1514002449486;-;-;8.97995;0.4479065;-2.3647919;-;-;-;-;-;-;-;-;-;-;-;-;-;-;-
1514002449507;-;-;9.051773;0.17855835;-2.436615;-;-;-;-;-;-;-;-;-;-;-;-;-;-;-
1514002449527;-;-;9.068527;0.046875;-2.3228912;-;-;-;-;-;-;-;-;-;-;-;-;-;-;-
1514002449548;-;-;9.0733185;0.045684814;-2.3396454;-;-;-;-;-;-;-;-;-;-;-;-;-;-;-
1514002449568;-;-;8.958389;0.28630066;-2.4485931;-;-;-;-;-;-;-;-;-;-;-;-;-;-;-
1514002449588;-;-;8.832703;0.42037964;-2.551529;-;-;-;-;-;-;-;-;-;-;-;-;-;-;-
1514002449607;-;-;8.964386;0.43354797;-2.5216064;-;-;-;-;-;-;-;-;-;-;-;-;-;-;-
1514002449628;-;-;9.096069;0.20249939;-2.5287933;-;-;-;-;-;-;-;-;-;-;-;-;-;-;-
1514002449649;-;-;9.035004;-0.026138306;-2.444992;-;-;-;-;-;-;-;-;-;-;-;-;-;-;-
1514002449669;-;-;8.997894;0.04208374;-2.4473877;-;-;-;-;-;-;-;-;-;-;-;-;-;-;-
1514002449690;-;-;8.918884;0.2815094;-2.4809113;-;-;-;-;-;-;-;-;-;-;-;-;-;-;-
1514002449709;-;-;8.844666;0.41079712;-2.5192108;-;-;-;-;-;-;-;-;-;-;-;-;-;-;-
1514002449729;-;-;8.797989;0.42156982;-2.5252075;-;-;-;-;-;-;-;-;-;-;-;-;-;-;-
1514002449750;-;-;8.845871;0.3138275;-2.483307;-;-;-;-;-;-;-;-;-;-;-;-;-;-;-
1514002449770;-;-;8.837494;0.21566772;-2.4030914;-;-;-;-;-;-;-;-;-;-;-;-;-;-;-
1514002449791;-;-;8.850662;0.08518982;-2.3707733;-;-;-;-;-;-;-;-;-;-;-;-;-;-;-
1514002449811;-;-;8.865021;0.11869812;-2.345642;-;-;-;-;-;-;-;-;-;-;-;-;-;-;-
1514002449832;-;-;8.983536;0.012161255;-2.5766754;-;-;-;-;-;-;-;-;-;-;-;-;-;-;-
1514002449851;-;-;9.228943;-0.08720398;-2.6125946;-;-;-;-;-;-;-;-;-;-;-;-;-;-;-
1514002449871;-;-;9.1523285;-0.00340271;-2.5216064;-;-;-;-;-;-;-;-;-;-;-;-;-;-;-
1514002449892;-;-;8.985931;0.012161255;-2.4749146;-;-;-;-;-;-;-;-;-;-;-;-;-;-;-
1514002449912;-;-;8.802765;0.093566895;-2.4222565;-;-;-;-;-;-;-;-;-;-;-;-;-;-;-
1514002449933;-;-;8.703415;0.1725769;-2.4318237;-;-;-;-;-;-;-;-;-;-;-;-;-;-;-
1514002449952;-;-;8.857834;0.12709045;-2.625763;-;-;-;-;-;-;-;-;-;-;-;-;-;-;-
1514002449973;-;-;9.14035;0.03730774;-2.752655;-;-;-;-;-;-;-;-;-;-;-;-;-;-;-
1514002449993;-;-;9.200211;0.07081604;-2.6173706;-;-;-;-;-;-;-;-;-;-;-;-;-;-;-
1514002450013;-;-;9.216965;0.13186646;-2.673645;-;-;-;-;-;-;-;-;-;-;-;-;-;-;-
1514002450034;-;-;9.15712;0.09475708;-2.630539;-;-;-;-;-;-;-;-;-;-;-;-;-;-;-
1514002450054;-;-;9.003891;0.1618042;-2.4988708;-;-;-;-;-;-;-;-;-;-;-;-;-;-;-
1514002450075;-;-;8.964386;0.1558075;-2.3851318;-;-;-;-;-;-;-;-;-;-;-;-;-;-;-
1514002450095;-;-;8.911713;0.14503479;-2.3767548;-;-;-;-;-;-;-;-;-;-;-;-;-;-;-
1514002450116;-;-;8.88298;0.2707367;-2.4174652;-;-;-;-;-;-;-;-;-;-;-;-;-;-;-
1514002450136;-;-;8.786011;0.46826172;-2.4928741;-;-;-;-;-;-;-;-;-;-;-;-;-;-;-
1514002450157;-;-;8.64595;0.72683716;-2.5024567;-;-;-;-;-;-;-;-;-;-;-;-;-;-;-
1514002450177;-;-;8.710602;0.7040863;-2.5455475;-;-;-;-;-;-;-;-;-;-;-;-;-;-;-
1514002450198;-;-;8.892548;0.6669769;-2.6245575;-;-;-;-;-;-;-;-;-;-;-;-;-;-;-
1514002450218;-;-;8.960785;0.5819855;-2.5934296;-;-;-;-;-;-;-;-;-;-;-;-;-;-;-
1514002450239;-;-;9.003891;0.5747986;-2.4976654;-;-;-;-;-;-;-;-;-;-;-;-;-;-;-
1514002450260;-;-;8.957199;0.38685608;-2.4090881;-;-;-;-;-;-;-;-;-;-;-;-;-;-;-
1514002450280;-;-;8.942825;0.24081421;-2.4066925;-;-;-;-;-;-;-;-;-;-;-;-;-;-;-
1514002450301;-;-;8.84227;0.22045898;-2.3085175;-;-;-;-;-;-;-;-;-;-;-;-;-;-;-
1514002450321;-;-;8.958389;0.25875854;-2.2486725;-;-;-;-;-;-;-;-;-;-;-;-;-;-;-
1514002450342;-;-;9.024231;0.3509369;-2.2738037;-;-;-;-;-;-;-;-;-;-;-;-;-;-;-
1514002450362;-;-;8.976349;0.3102417;-2.2989502;-;-;-;-;-;-;-;-;-;-;-;-;-;-;-
1514002450383;-;-;8.923676;0.2240448;-2.286972;-;-;-;-;-;-;-;-;-;-;-;-;-;-;-
1514002450403;-;-;8.98114;-0.0105896;-2.187622;-;-;-;-;-;-;-;-;-;-;-;-;-;-;-
1514002450424;-;-;9.082901;-0.14346313;-2.0702972;-;-;-;-;-;-;-;-;-;-;-;-;-;-;-
1514002450444;-;-;9.110428;-0.19013977;-2.0715027;-;-;-;-;-;-;-;-;-;-;-;-;-;-;-
1514002450465;-;-;9.0577545;-0.2272644;-2.1253662;-;-;-;-;-;-;-;-;-;-;-;-;-;-;-
