TimeStamp[ms];Prox[Cm];Lux[lux];AccX[m/s^2];AccY[m/s^2];AccZ[m/s^2];GyroX[rad/s];GyroY[rad/s];GyroZ[rad/s];MagnX[uT];MagnY[uT];MagnZ[uT];OrienYaw[degrees];OrienPitch[degrees];OrienRoll[degrees];Press[Pa];Temp[C°];Batt[%];Lat;Lng;Speed[m/s]
1514002827306;-;-;8.8003845;-3.000946;1.6083832;-;-;-;-;-;-;-;-;-;-;-;-;-;-;-
1514002827339;-;-;8.4687805;-3.0320587;1.6275482;-;-;-;-;-;-;-;-;-;-;-;-;-;-;-
1514002827348;-;-;8.514267;-3.108673;1.7005615;-;-;-;-;-;-;-;-;-;-;-;-;-;-;-
1514002827368;-;-;8.627991;-3.084732;1.631134;-;-;-;-;-;-;-;-;-;-;-;-;-;-;-
1514002827388;-;-;8.735733;-3.012909;1.5389557;-;-;-;-;-;-;-;-;-;-;-;-;-;-;-
1514002827409;-;-;8.875793;-2.8955994;1.528183;-;-;-;-;-;-;-;-;-;-;-;-;-;-;-
1514002827429;-;-;8.946426;-2.8836212;1.5329742;-;-;-;-;-;-;-;-;-;-;-;-;-;-;-
1514002827450;-;-;8.874603;-2.8177795;1.5030518;-;-;-;-;-;-;-;-;-;-;-;-;-;-;-
1514002827471;-;-;8.747711;-2.834549;1.6263428;-;-;-;-;-;-;-;-;-;-;-;-;-;-;-
1514002827493;-;-;8.830307;-2.8058167;1.4814911;-;-;-;-;-;-;-;-;-;-;-;-;-;-;-
1514002827512;-;-;8.783615;-2.8776398;1.2767944;-;-;-;-;-;-;-;-;-;-;-;-;-;-;-
1514002827533;-;-;8.601654;-2.8692627;1.2540436;-;-;-;-;-;-;-;-;-;-;-;-;-;-;-
1514002827553;-;-;8.589691;-2.997345;1.4599457;-;-;-;-;-;-;-;-;-;-;-;-;-;-;-
1514002827588;-;-;8.891357;-3.0703735;1.2097473;-;-;-;-;-;-;-;-;-;-;-;-;-;-;-
1514002827594;-;-;9.023041;-3.1218414;1.0493469;-;-;-;-;-;-;-;-;-;-;-;-;-;-;-
1514002827614;-;-;8.730942;-2.9159393;1.5940247;-;-;-;-;-;-;-;-;-;-;-;-;-;-;-
1514002827635;-;-;9.046982;-2.6501923;2.156662;-;-;-;-;-;-;-;-;-;-;-;-;-;-;-
1514002827655;-;-;9.025436;-2.676529;1.9208374;-;-;-;-;-;-;-;-;-;-;-;-;-;-;-
1514002827679;-;-;8.76207;-2.918335;1.3043213;-;-;-;-;-;-;-;-;-;-;-;-;-;-;-
1514002827700;-;-;8.672287;-3.1589508;1.1510925;-;-;-;-;-;-;-;-;-;-;-;-;-;-;-
1514002827720;-;-;8.672287;-3.2786713;1.04216;-;-;-;-;-;-;-;-;-;-;-;-;-;-;-
1514002827741;-;-;9.13916;-3.170929;1.6574707;-;-;-;-;-;-;-;-;-;-;-;-;-;-;-
1514002827760;-;-;8.859039;-2.897995;1.4790955;-;-;-;-;-;-;-;-;-;-;-;-;-;-;-
1514002827780;-;-;9.037399;-2.5615997;1.6287384;-;-;-;-;-;-;-;-;-;-;-;-;-;-;-
1514002827801;-;-;8.859039;-2.0265045;1.8693542;-;-;-;-;-;-;-;-;-;-;-;-;-;-;-
1514002827822;-;-;9.133179;-1.7080688;1.4407959;-;-;-;-;-;-;-;-;-;-;-;-;-;-;-
1514002827842;-;-;8.72377;-1.5931549;3.1861725;-;-;-;-;-;-;-;-;-;-;-;-;-;-;-
1514002827863;-;-;8.837494;-1.5356903;3.5117798;-;-;-;-;-;-;-;-;-;-;-;-;-;-;-
1514002827883;-;-;8.290421;-1.8732758;0.9212494;-;-;-;-;-;-;-;-;-;-;-;-;-;-;-
1514002827904;-;-;8.449631;-2.4023895;1.7376709;-;-;-;-;-;-;-;-;-;-;-;-;-;-;-
1514002827925;-;-;8.410126;-2.281479;1.5233917;-;-;-;-;-;-;-;-;-;-;-;-;-;-;-
1514002827945;-;-;8.970367;-2.5173187;3.3441925;-;-;-;-;-;-;-;-;-;-;-;-;-;-;-
1514002827965;-;-;9.4096985;-2.4897766;2.7073212;-;-;-;-;-;-;-;-;-;-;-;-;-;-;-
1514002827986;-;-;8.972763;-2.4490814;0.9284363;-;-;-;-;-;-;-;-;-;-;-;-;-;-;-
1514002828005;-;-;8.878189;-2.281479;0.860199;-;-;-;-;-;-;-;-;-;-;-;-;-;-;-
1514002828025;-;-;9.3546295;-1.8481293;1.7771759;-;-;-;-;-;-;-;-;-;-;-;-;-;-;-
1514002828046;-;-;10.5278015;-2.0300903;2.5253754;-;-;-;-;-;-;-;-;-;-;-;-;-;-;-
1514002828066;-;-;10.343445;-1.2112732;1.291153;-;-;-;-;-;-;-;-;-;-;-;-;-;-;-
1514002828087;-;-;8.643555;-0.7156677;1.3450317;-;-;-;-;-;-;-;-;-;-;-;-;-;-;-
1514002828107;-;-;8.466385;-1.3285828;1.8214722;-;-;-;-;-;-;-;-;-;-;-;-;-;-;-
1514002828128;-;-;8.338303;-1.7427826;3.149063;-;-;-;-;-;-;-;-;-;-;-;-;-;-;-
1514002828148;-;-;8.369415;-1.3154297;2.5983887;-;-;-;-;-;-;-;-;-;-;-;-;-;-;-
1514002828168;-;-;9.093674;-1.601532;2.508606;-;-;-;-;-;-;-;-;-;-;-;-;-;-;-
1514002828188;-;-;9.556946;-0.9826355;0.98350525;-;-;-;-;-;-;-;-;-;-;-;-;-;-;-
1514002828209;-;-;9.585678;-1.1418457;1.9471741;-;-;-;-;-;-;-;-;-;-;-;-;-;-;-
1514002828230;-;-;8.876999;-1.3680878;2.10997;-;-;-;-;-;-;-;-;-;-;-;-;-;-;-
1514002828250;-;-;8.7261505;-1.4878082;2.5074158;-;-;-;-;-;-;-;-;-;-;-;-;-;-;-
1514002828271;-;-;8.654327;-1.3621063;2.307495;-;-;-;-;-;-;-;-;-;-;-;-;-;-;-
1514002828290;-;-;8.707001;-1.1681824;2.1614532;-;-;-;-;-;-;-;-;-;-;-;-;-;-;-
1514002828311;-;-;8.989517;-1.2435913;2.8186646;-;-;-;-;-;-;-;-;-;-;-;-;-;-;-
1514002828332;-;-;8.84227;-1.1717682;2.5253754;-;-;-;-;-;-;-;-;-;-;-;-;-;-;-
1514002828352;-;-;8.917694;-1.036499;2.3027039;-;-;-;-;-;-;-;-;-;-;-;-;-;-;-
1514002828372;-;-;8.520264;-1.0496674;2.6319122;-;-;-;-;-;-;-;-;-;-;-;-;-;-;-
1514002828393;-;-;8.364639;-0.8162384;2.7133179;-;-;-;-;-;-;-;-;-;-;-;-;-;-;-
1514002828413;-;-;8.614822;-0.8246155;2.7288818;-;-;-;-;-;-;-;-;-;-;-;-;-;-;-
1514002828433;-;-;8.675873;-0.9586792;2.247635;-;-;-;-;-;-;-;-;-;-;-;-;-;-;-
1514002828453;-;-;8.782425;-0.8593292;2.2236938;-;-;-;-;-;-;-;-;-;-;-;-;-;-;-
1514002828473;-;-;8.859039;-0.98023987;2.3589783;-;-;-;-;-;-;-;-;-;-;-;-;-;-;-
1514002828494;-;-;9.081696;-1.0700226;2.3039093;-;-;-;-;-;-;-;-;-;-;-;-;-;-;-
1514002828514;-;-;9.385757;-1.3166199;2.093216;-;-;-;-;-;-;-;-;-;-;-;-;-;-;-
1514002828535;-;-;9.274429;-1.4207611;2.0525208;-;-;-;-;-;-;-;-;-;-;-;-;-;-;-
1514002828554;-;-;9.287598;-1.0963593;1.9220276;-;-;-;-;-;-;-;-;-;-;-;-;-;-;-
1514002828574;-;-;9.945999;-1.1382446;2.0453339;-;-;-;-;-;-;-;-;-;-;-;-;-;-;-
1514002828595;-;-;9.272034;-1.0795898;1.8956909;-;-;-;-;-;-;-;-;-;-;-;-;-;-;-
1514002828615;-;-;9.254074;-1.1562042;2.0561066;-;-;-;-;-;-;-;-;-;-;-;-;-;-;-
1514002828636;-;-;9.239716;-1.1454315;2.0046234;-;-;-;-;-;-;-;-;-;-;-;-;-;-;-
1514002828656;-;-;8.994308;-1.1226959;1.7328949;-;-;-;-;-;-;-;-;-;-;-;-;-;-;-
1514002828676;-;-;8.905716;-1.1047363;1.864563;-;-;-;-;-;-;-;-;-;-;-;-;-;-;-
1514002828697;-;-;9.331894;-1.0843811;2.0010376;-;-;-;-;-;-;-;-;-;-;-;-;-;-;-
1514002828717;-;-;9.486313;-0.9682617;2.1135712;-;-;-;-;-;-;-;-;-;-;-;-;-;-;-
1514002828738;-;-;8.787216;-0.98023987;1.9028778;-;-;-;-;-;-;-;-;-;-;-;-;-;-;-
1514002828758;-;-;8.542999;-0.9084015;1.7664032;-;-;-;-;-;-;-;-;-;-;-;-;-;-;-
1514002828779;-;-;8.780029;-1.052063;1.9794922;-;-;-;-;-;-;-;-;-;-;-;-;-;-;-
1514002828799;-;-;9.036209;-0.957489;1.9890747;-;-;-;-;-;-;-;-;-;-;-;-;-;-;-
1514002828820;-;-;9.030228;-1.0891724;2.5684662;-;-;-;-;-;-;-;-;-;-;-;-;-;-;-
1514002828840;-;-;9.111618;-1.067627;2.2069397;-;-;-;-;-;-;-;-;-;-;-;-;-;-;-
1514002828861;-;-;9.058945;-1.1681824;2.165039;-;-;-;-;-;-;-;-;-;-;-;-;-;-;-
1514002828881;-;-;9.025436;-1.131073;2.283554;-;-;-;-;-;-;-;-;-;-;-;-;-;-;-
1514002828902;-;-;8.993118;-1.0975494;2.3817139;-;-;-;-;-;-;-;-;-;-;-;-;-;-;-
1514002828921;-;-;8.697433;-1.0736084;2.1554718;-;-;-;-;-;-;-;-;-;-;-;-;-;-;-
1514002828942;-;-;8.610046;-0.6510315;1.9208374;-;-;-;-;-;-;-;-;-;-;-;-;-;-;-
1514002828963;-;-;9.467163;-1.225647;2.0513153;-;-;-;-;-;-;-;-;-;-;-;-;-;-;-
1514002828983;-;-;8.059372;-0.87368774;1.9292145;-;-;-;-;-;-;-;-;-;-;-;-;-;-;-
1514002829003;-;-;8.076126;-1.2567596;2.2057495;-;-;-;-;-;-;-;-;-;-;-;-;-;-;-
1514002829024;-;-;8.349075;-1.2902832;1.6347198;-;-;-;-;-;-;-;-;-;-;-;-;-;-;-
1514002829044;-;-;10.002274;-0.8892517;0.4005127;-;-;-;-;-;-;-;-;-;-;-;-;-;-;-
1514002829065;-;-;10.4823;-0.9862213;2.7312775;-;-;-;-;-;-;-;-;-;-;-;-;-;-;-
1514002829085;-;-;6.9388885;-0.54089355;-3.9868622;-;-;-;-;-;-;-;-;-;-;-;-;-;-;-
1514002829106;-;-;9.776016;-1.1454315;2.6809845;-;-;-;-;-;-;-;-;-;-;-;-;-;-;-
1514002829127;-;-;10.363785;-1.1382446;1.7939453;-;-;-;-;-;-;-;-;-;-;-;-;-;-;-
1514002829148;-;-;10.575684;-1.6745453;1.8322449;-;-;-;-;-;-;-;-;-;-;-;-;-;-;-
1514002829187;-;-;8.83989;-1.2471924;-0.8720093;-;-;-;-;-;-;-;-;-;-;-;-;-;-;-
1514002829188;-;-;8.83989;-1.2471924;-0.8720093;-;-;-;-;-;-;-;-;-;-;-;-;-;-;-
1514002829209;-;-;8.8003845;-0.58639526;-1.1856384;-;-;-;-;-;-;-;-;-;-;-;-;-;-;-
1514002829254;-;-;9.702988;0.47065735;-0.75109863;-;-;-;-;-;-;-;-;-;-;-;-;-;-;-
1514002829255;-;-;9.702988;0.47065735;-0.75109863;-;-;-;-;-;-;-;-;-;-;-;-;-;-;-
1514002829270;-;-;10.107605;1.0380707;0.31193542;-;-;-;-;-;-;-;-;-;-;-;-;-;-;-
1514002829290;-;-;8.661514;1.2164459;-2.9609375;-;-;-;-;-;-;-;-;-;-;-;-;-;-;-
1514002829311;-;-;11.062897;-0.30387878;-0.9007416;-;-;-;-;-;-;-;-;-;-;-;-;-;-;-
1514002829331;-;-;9.23851;-0.62709045;-1.3412628;-;-;-;-;-;-;-;-;-;-;-;-;-;-;-
1514002829352;-;-;8.796783;-0.14704895;-0.8863678;-;-;-;-;-;-;-;-;-;-;-;-;-;-;-
1514002829372;-;-;9.038605;0.08279419;-1.1652985;-;-;-;-;-;-;-;-;-;-;-;-;-;-;-
1514002829392;-;-;9.151123;0.15461731;-1.1126251;-;-;-;-;-;-;-;-;-;-;-;-;-;-;-
1514002829413;-;-;9.925659;-0.37449646;-1.4933014;-;-;-;-;-;-;-;-;-;-;-;-;-;-;-
1514002829434;-;-;9.333084;-0.7312317;-2.483307;-;-;-;-;-;-;-;-;-;-;-;-;-;-;-
1514002829454;-;-;9.251678;-0.72406006;-0.46020508;-;-;-;-;-;-;-;-;-;-;-;-;-;-;-
1514002829474;-;-;8.537018;-0.39485168;-1.4645691;-;-;-;-;-;-;-;-;-;-;-;-;-;-;-
1514002829494;-;-;9.127182;-0.32781982;-0.99650574;-;-;-;-;-;-;-;-;-;-;-;-;-;-;-
1514002829515;-;-;9.048172;-0.27035522;-1.3412628;-;-;-;-;-;-;-;-;-;-;-;-;-;-;-
1514002829535;-;-;9.0182495;-0.3182373;-1.064743;-;-;-;-;-;-;-;-;-;-;-;-;-;-;-
1514002829556;-;-;9.402527;-0.38168335;-1.1281891;-;-;-;-;-;-;-;-;-;-;-;-;-;-;-
1514002829576;-;-;9.384567;-0.3984375;-1.3688049;-;-;-;-;-;-;-;-;-;-;-;-;-;-;-
1514002829596;-;-;9.543777;-0.68574524;-1.4095001;-;-;-;-;-;-;-;-;-;-;-;-;-;-;-
1514002829617;-;-;9.503082;-0.76116943;-1.0910797;-;-;-;-;-;-;-;-;-;-;-;-;-;-;-
1514002829637;-;-;8.844666;-0.79348755;-1.3424683;-;-;-;-;-;-;-;-;-;-;-;-;-;-;-
1514002829657;-;-;9.975937;-0.8820648;-0.88038635;-;-;-;-;-;-;-;-;-;-;-;-;-;-;-
1514002829678;-;-;8.412521;-0.095581055;-0.8863678;-;-;-;-;-;-;-;-;-;-;-;-;-;-;-
1514002829697;-;-;8.695038;-0.076416016;-0.26626587;-;-;-;-;-;-;-;-;-;-;-;-;-;-;-
1514002829718;-;-;8.985931;-0.33499146;-1.5411835;-;-;-;-;-;-;-;-;-;-;-;-;-;-;-
1514002829739;-;-;9.817917;-0.84495544;-1.9362335;-;-;-;-;-;-;-;-;-;-;-;-;-;-;-
1514002829758;-;-;10.307526;-0.79467773;-1.7003937;-;-;-;-;-;-;-;-;-;-;-;-;-;-;-
1514002829779;-;-;9.744888;-0.5349121;-1.0000916;-;-;-;-;-;-;-;-;-;-;-;-;-;-;-
1514002829800;-;-;9.644333;-0.4954071;-1.8201141;-;-;-;-;-;-;-;-;-;-;-;-;-;-;-
1514002829820;-;-;8.422089;0.30665588;-1.155716;-;-;-;-;-;-;-;-;-;-;-;-;-;-;-
1514002829841;-;-;8.261688;0.48262024;-1.7434998;-;-;-;-;-;-;-;-;-;-;-;-;-;-;-
1514002829861;-;-;7.909729;-0.33021545;-1.0503693;-;-;-;-;-;-;-;-;-;-;-;-;-;-;-
1514002829882;-;-;8.695038;0.15461731;-1.8260956;-;-;-;-;-;-;-;-;-;-;-;-;-;-;-
1514002829902;-;-;9.442017;0.095962524;-0.9629822;-;-;-;-;-;-;-;-;-;-;-;-;-;-;-
1514002829922;-;-;9.627579;0.38685608;-1.5435791;-;-;-;-;-;-;-;-;-;-;-;-;-;-;-
1514002829943;-;-;9.224152;0.33657837;-1.3807678;-;-;-;-;-;-;-;-;-;-;-;-;-;-;-
1514002829963;-;-;9.203796;-0.0045928955;-1.0671387;-;-;-;-;-;-;-;-;-;-;-;-;-;-;-
1514002829983;-;-;8.704605;-0.13388062;-1.6201935;-;-;-;-;-;-;-;-;-;-;-;-;-;-;-
1514002830004;-;-;8.519058;-0.04649353;-1.9182739;-;-;-;-;-;-;-;-;-;-;-;-;-;-;-
1514002830024;-;-;10.519409;-0.31225586;-1.8967285;-;-;-;-;-;-;-;-;-;-;-;-;-;-;-
1514002830045;-;-;9.865799;-0.52893066;-1.1066284;-;-;-;-;-;-;-;-;-;-;-;-;-;-;-
1514002830065;-;-;9.799957;-0.3433838;-1.3903503;-;-;-;-;-;-;-;-;-;-;-;-;-;-;-
1514002830086;-;-;8.777634;0.014556885;-1.4154816;-;-;-;-;-;-;-;-;-;-;-;-;-;-;-
1514002830106;-;-;9.197815;0.27192688;-1.6956024;-;-;-;-;-;-;-;-;-;-;-;-;-;-;-
1514002830126;-;-;7.8247375;0.6562042;-1.2754211;-;-;-;-;-;-;-;-;-;-;-;-;-;-;-
1514002830147;-;-;9.305557;0.19172668;-1.753067;-;-;-;-;-;-;-;-;-;-;-;-;-;-;-
1514002830167;-;-;9.207397;0.25517273;-1.1210022;-;-;-;-;-;-;-;-;-;-;-;-;-;-;-
1514002830188;-;-;8.8051605;-0.2859192;-0.6732788;-;-;-;-;-;-;-;-;-;-;-;-;-;-;-
1514002830208;-;-;9.612015;-0.17219543;-1.6225891;-;-;-;-;-;-;-;-;-;-;-;-;-;-;-
1514002830228;-;-;9.7413025;-0.21528625;-2.5192108;-;-;-;-;-;-;-;-;-;-;-;-;-;-;-
1514002830249;-;-;9.995087;0.32341003;-2.014038;-;-;-;-;-;-;-;-;-;-;-;-;-;-;-
1514002830269;-;-;9.984314;-0.5325165;-1.4107056;-;-;-;-;-;-;-;-;-;-;-;-;-;-;-
1514002830289;-;-;10.422455;-0.085998535;-1.0192413;-;-;-;-;-;-;-;-;-;-;-;-;-;-;-
1514002830310;-;-;10.2907715;-0.62709045;-0.55955505;-;-;-;-;-;-;-;-;-;-;-;-;-;-;-
1514002830330;-;-;8.859039;-0.6797638;-2.3683777;-;-;-;-;-;-;-;-;-;-;-;-;-;-;-
1514002830350;-;-;9.674255;0.8166199;-0.98573303;-;-;-;-;-;-;-;-;-;-;-;-;-;-;-
1514002830371;-;-;8.378998;0.41558838;-2.9884796;-;-;-;-;-;-;-;-;-;-;-;-;-;-;-
1514002830391;-;-;10.137543;-1.1083221;-3.0662842;-;-;-;-;-;-;-;-;-;-;-;-;-;-;-
1514002830411;-;-;10.660675;-0.75398254;-0.47816467;-;-;-;-;-;-;-;-;-;-;-;-;-;-;-
1514002830432;-;-;9.233734;-0.11831665;-1.9529877;-;-;-;-;-;-;-;-;-;-;-;-;-;-;-
1514002830453;-;-;9.248093;-0.083602905;-1.9565735;-;-;-;-;-;-;-;-;-;-;-;-;-;-;-
1514002830473;-;-;9.124786;-0.8138428;-1.4705505;-;-;-;-;-;-;-;-;-;-;-;-;-;-;-
1514002830493;-;-;8.608841;-0.98023987;-1.0024872;-;-;-;-;-;-;-;-;-;-;-;-;-;-;-
1514002830513;-;-;7.4763794;0.4802246;-2.9166565;-;-;-;-;-;-;-;-;-;-;-;-;-;-;-
1514002830534;-;-;9.243301;0.48501587;-2.2809906;-;-;-;-;-;-;-;-;-;-;-;-;-;-;-
1514002830554;-;-;9.813126;1.6067047;-2.9645386;-;-;-;-;-;-;-;-;-;-;-;-;-;-;-
1514002830575;-;-;10.847427;1.9179535;-2.1505127;-;-;-;-;-;-;-;-;-;-;-;-;-;-;-
1514002830596;-;-;10.174652;1.1075134;-0.22796631;-;-;-;-;-;-;-;-;-;-;-;-;-;-;-
1514002830615;-;-;7.1603546;-0.7886963;-1.0336151;-;-;-;-;-;-;-;-;-;-;-;-;-;-;-
1514002830636;-;-;9.846649;-4.3548584;1.7245026;-;-;-;-;-;-;-;-;-;-;-;-;-;-;-
1514002830656;-;-;11.192184;-4.9989014;-1.7207489;-;-;-;-;-;-;-;-;-;-;-;-;-;-;-
1514002830677;-;-;12.41922;-1.882843;-3.6193542;-;-;-;-;-;-;-;-;-;-;-;-;-;-;-
1514002830697;-;-;9.319916;0.20610046;-1.5459747;-;-;-;-;-;-;-;-;-;-;-;-;-;-;-
1514002830717;-;-;11.044937;1.2439728;-1.5842743;-;-;-;-;-;-;-;-;-;-;-;-;-;-;-
1514002830738;-;-;8.677078;1.674942;-1.6968079;-;-;-;-;-;-;-;-;-;-;-;-;-;-;-
1514002830758;-;-;6.2876587;1.0117493;-2.6616669;-;-;-;-;-;-;-;-;-;-;-;-;-;-;-
1514002830779;-;-;6.92572;0.033706665;-1.7602539;-;-;-;-;-;-;-;-;-;-;-;-;-;-;-
1514002830799;-;-;7.806778;-0.5253296;-1.8452454;-;-;-;-;-;-;-;-;-;-;-;-;-;-;-
1514002830820;-;-;9.536591;-0.95988464;-2.306137;-;-;-;-;-;-;-;-;-;-;-;-;-;-;-
1514002830840;-;-;9.719757;-0.7216644;-3.0291748;-;-;-;-;-;-;-;-;-;-;-;-;-;-;-
1514002830861;-;-;9.467163;-0.48223877;-2.6880035;-;-;-;-;-;-;-;-;-;-;-;-;-;-;-
1514002830881;-;-;8.98114;-0.32182312;-2.1924133;-;-;-;-;-;-;-;-;-;-;-;-;-;-;-
1514002830901;-;-;8.82312;-0.03213501;-1.9769287;-;-;-;-;-;-;-;-;-;-;-;-;-;-;-
1514002830922;-;-;8.801575;0.1043396;-1.7853851;-;-;-;-;-;-;-;-;-;-;-;-;-;-;-
1514002830942;-;-;8.830307;0.2132721;-1.8057404;-;-;-;-;-;-;-;-;-;-;-;-;-;-;-
1514002830963;-;-;9.074509;0.17376709;-1.9122772;-;-;-;-;-;-;-;-;-;-;-;-;-;-;-
1514002830983;-;-;9.359421;-0.17936707;-1.9206696;-;-;-;-;-;-;-;-;-;-;-;-;-;-;-
1514002831004;-;-;9.659897;-0.4954071;-1.9924927;-;-;-;-;-;-;-;-;-;-;-;-;-;-;-
1514002831024;-;-;9.643143;-0.5612488;-2.096634;-;-;-;-;-;-;-;-;-;-;-;-;-;-;-
1514002831045;-;-;9.482727;-0.43315125;-2.0918427;-;-;-;-;-;-;-;-;-;-;-;-;-;-;-
1514002831065;-;-;9.175064;-0.29908752;-2.084671;-;-;-;-;-;-;-;-;-;-;-;-;-;-;-
1514002831086;-;-;8.705811;-0.22366333;-1.9039001;-;-;-;-;-;-;-;-;-;-;-;-;-;-;-
1514002831106;-;-;8.660324;-0.13627625;-1.8883362;-;-;-;-;-;-;-;-;-;-;-;-;-;-;-
1514002831127;-;-;8.817139;-0.04649353;-1.7985535;-;-;-;-;-;-;-;-;-;-;-;-;-;-;-
1514002831148;-;-;8.969162;-0.102752686;-1.9757233;-;-;-;-;-;-;-;-;-;-;-;-;-;-;-
1514002831168;-;-;9.093674;-0.46788025;-2.2019806;-;-;-;-;-;-;-;-;-;-;-;-;-;-;-
1514002831188;-;-;9.175064;-1.0053711;-1.8883362;-;-;-;-;-;-;-;-;-;-;-;-;-;-;-
1514002831208;-;-;9.104446;-1.3597107;-1.7099762;-;-;-;-;-;-;-;-;-;-;-;-;-;-;-
1514002831229;-;-;9.075714;-1.5871582;-1.6525116;-;-;-;-;-;-;-;-;-;-;-;-;-;-;-
1514002831248;-;-;9.0182495;-1.5835724;-1.7470856;-;-;-;-;-;-;-;-;-;-;-;-;-;-;-
1514002831268;-;-;8.987122;-1.4231567;-1.7315216;-;-;-;-;-;-;-;-;-;-;-;-;-;-;-
1514002831289;-;-;9.085281;-1.2830963;-1.6884308;-;-;-;-;-;-;-;-;-;-;-;-;-;-;-
1514002831309;-;-;9.214569;-1.0101624;-1.6489258;-;-;-;-;-;-;-;-;-;-;-;-;-;-;-
1514002831330;-;-;9.225342;-0.73483276;-1.7231445;-;-;-;-;-;-;-;-;-;-;-;-;-;-;-
1514002831350;-;-;9.067337;-0.48703003;-1.7398987;-;-;-;-;-;-;-;-;-;-;-;-;-;-;-
1514002831371;-;-;8.891357;-0.5432892;-1.8548279;-;-;-;-;-;-;-;-;-;-;-;-;-;-;-
1514002831391;-;-;8.733337;-0.67378235;-2.0619202;-;-;-;-;-;-;-;-;-;-;-;-;-;-;-
1514002831410;-;-;8.915298;-0.7910919;-2.1924133;-;-;-;-;-;-;-;-;-;-;-;-;-;-;-
1514002831431;-;-;9.15831;-0.65701294;-2.388733;-;-;-;-;-;-;-;-;-;-;-;-;-;-;-
1514002831450;-;-;9.337875;-0.3541565;-2.5970306;-;-;-;-;-;-;-;-;-;-;-;-;-;-;-
1514002831471;-;-;9.392944;-0.14346313;-2.6927948;-;-;-;-;-;-;-;-;-;-;-;-;-;-;-
1514002831492;-;-;9.1523285;0.1797638;-2.5587158;-;-;-;-;-;-;-;-;-;-;-;-;-;-;-
1514002831512;-;-;8.795593;0.35932922;-2.5060425;-;-;-;-;-;-;-;-;-;-;-;-;-;-;-
1514002831533;-;-;8.568146;0.32341003;-2.3073273;-;-;-;-;-;-;-;-;-;-;-;-;-;-;-
1514002831552;-;-;8.711792;0.03251648;-2.1217804;-;-;-;-;-;-;-;-;-;-;-;-;-;-;-
1514002831573;-;-;8.950012;-0.28831482;-1.990097;-;-;-;-;-;-;-;-;-;-;-;-;-;-;-
1514002831593;-;-;9.133179;-0.5349121;-1.8548279;-;-;-;-;-;-;-;-;-;-;-;-;-;-;-
1514002831614;-;-;9.173874;-0.5851898;-2.014038;-;-;-;-;-;-;-;-;-;-;-;-;-;-;-
1514002831635;-;-;8.865021;-0.28831482;-2.3240814;-;-;-;-;-;-;-;-;-;-;-;-;-;-;-
1514002831654;-;-;8.332306;0.04927063;-2.6161804;-;-;-;-;-;-;-;-;-;-;-;-;-;-;-
1514002831675;-;-;8.339493;0.36889648;-2.5754852;-;-;-;-;-;-;-;-;-;-;-;-;-;-;-
1514002831695;-;-;9.261261;0.119903564;-2.3552094;-;-;-;-;-;-;-;-;-;-;-;-;-;-;-
1514002831716;-;-;10.375763;-0.7480011;-1.8548279;-;-;-;-;-;-;-;-;-;-;-;-;-;-;-
1514002831735;-;-;10.435623;-1.4782257;-1.5842743;-;-;-;-;-;-;-;-;-;-;-;-;-;-;-
1514002831755;-;-;9.640747;-1.8888397;-1.7518768;-;-;-;-;-;-;-;-;-;-;-;-;-;-;-
1514002831776;-;-;8.880585;-1.6949005;-1.8153229;-;-;-;-;-;-;-;-;-;-;-;-;-;-;-
1514002831796;-;-;8.1922455;-0.85453796;-1.5471649;-;-;-;-;-;-;-;-;-;-;-;-;-;-;-
1514002831817;-;-;8.055786;-0.13627625;-1.7806091;-;-;-;-;-;-;-;-;-;-;-;-;-;-;-
1514002831837;-;-;8.635178;0.1438446;-2.357605;-;-;-;-;-;-;-;-;-;-;-;-;-;-;-
1514002831858;-;-;9.431244;-0.01776123;-2.8651733;-;-;-;-;-;-;-;-;-;-;-;-;-;-;-
1514002831878;-;-;9.79277;-0.31584167;-2.6233673;-;-;-;-;-;-;-;-;-;-;-;-;-;-;-
1514002831899;-;-;9.639542;-0.4152069;-2.2881775;-;-;-;-;-;-;-;-;-;-;-;-;-;-;-
1514002831918;-;-;9.056564;-0.6246948;-1.8727875;-;-;-;-;-;-;-;-;-;-;-;-;-;-;-
1514002831938;-;-;8.738129;-0.7910919;-1.5687103;-;-;-;-;-;-;-;-;-;-;-;-;-;-;-
1514002831959;-;-;8.6818695;-0.8820648;-1.4980927;-;-;-;-;-;-;-;-;-;-;-;-;-;-;-
1514002831980;-;-;8.855438;-0.94551086;-1.6369476;-;-;-;-;-;-;-;-;-;-;-;-;-;-;-
1514002832001;-;-;8.97995;-0.8593292;-1.7710266;-;-;-;-;-;-;-;-;-;-;-;-;-;-;-
1514002832021;-;-;9.284012;-0.8593292;-1.693222;-;-;-;-;-;-;-;-;-;-;-;-;-;-;-
1514002832042;-;-;9.155914;-0.6294861;-2.1433258;-;-;-;-;-;-;-;-;-;-;-;-;-;-;-
1514002832063;-;-;9.123596;-0.49780273;-2.2761993;-;-;-;-;-;-;-;-;-;-;-;-;-;-;-
1514002832083;-;-;9.035004;-0.36611938;-2.3935242;-;-;-;-;-;-;-;-;-;-;-;-;-;-;-
1514002832104;-;-;9.106842;-0.20930481;-2.4414063;-;-;-;-;-;-;-;-;-;-;-;-;-;-;-
1514002832124;-;-;9.054169;-0.17098999;-2.3145142;-;-;-;-;-;-;-;-;-;-;-;-;-;-;-
1514002832145;-;-;8.997894;-0.17459106;-2.2654266;-;-;-;-;-;-;-;-;-;-;-;-;-;-;-
1514002832165;-;-;8.969162;-0.20451355;-2.230713;-;-;-;-;-;-;-;-;-;-;-;-;-;-;-
1514002832186;-;-;8.8997345;-0.22007751;-2.2342987;-;-;-;-;-;-;-;-;-;-;-;-;-;-;-
1514002832207;-;-;8.922485;-0.2787323;-2.076294;-;-;-;-;-;-;-;-;-;-;-;-;-;-;-
1514002832227;-;-;8.984726;-0.41041565;-2.0643158;-;-;-;-;-;-;-;-;-;-;-;-;-;-;-
1514002832248;-;-;9.06015;-0.39126587;-2.0954437;-;-;-;-;-;-;-;-;-;-;-;-;-;-;-
1514002832267;-;-;9.023041;-0.42237854;-1.9841156;-;-;-;-;-;-;-;-;-;-;-;-;-;-;-
1514002832288;-;-;9.092468;-0.4379425;-2.0164337;-;-;-;-;-;-;-;-;-;-;-;-;-;-;-
1514002832307;-;-;9.0182495;-0.35176086;-2.0092468;-;-;-;-;-;-;-;-;-;-;-;-;-;-;-
1514002832328;-;-;8.994308;-0.289505;-2.0523376;-;-;-;-;-;-;-;-;-;-;-;-;-;-;-
1514002832348;-;-;9.00029;-0.3086548;-2.0523376;-;-;-;-;-;-;-;-;-;-;-;-;-;-;-
1514002832369;-;-;9.008667;-0.30267334;-2.0870667;-;-;-;-;-;-;-;-;-;-;-;-;-;-;-
1514002832389;-;-;9.035004;-0.34217834;-2.0463562;-;-;-;-;-;-;-;-;-;-;-;-;-;-;-
1514002832409;-;-;8.985931;-0.32302856;-2.0750885;-;-;-;-;-;-;-;-;-;-;-;-;-;-;-
1514002832430;-;-;9.003891;-0.2799225;-2.115799;-;-;-;-;-;-;-;-;-;-;-;-;-;-;-
1514002832451;-;-;9.044586;-0.24520874;-2.076294;-;-;-;-;-;-;-;-;-;-;-;-;-;-;-
1514002832471;-;-;9.029022;-0.2320404;-2.093048;-;-;-;-;-;-;-;-;-;-;-;-;-;-;-
1514002832492;-;-;9.076904;-0.27035522;-2.1648712;-;-;-;-;-;-;-;-;-;-;-;-;-;-;-
1514002832511;-;-;9.123596;-0.32421875;-2.1134033;-;-;-;-;-;-;-;-;-;-;-;-;-;-;-
1514002832532;-;-;9.115219;-0.3577423;-2.1349487;-;-;-;-;-;-;-;-;-;-;-;-;-;-;-
1514002832551;-;-;9.027832;-0.28112793;-2.168457;-;-;-;-;-;-;-;-;-;-;-;-;-;-;-
1514002832571;-;-;8.938049;-0.27394104;-2.1301575;-;-;-;-;-;-;-;-;-;-;-;-;-;-;-
1514002832592;-;-;8.940445;-0.32901;-2.1014252;-;-;-;-;-;-;-;-;-;-;-;-;-;-;-
1514002832612;-;-;9.044586;-0.43077087;-2.0786743;-;-;-;-;-;-;-;-;-;-;-;-;-;-;-
1514002832633;-;-;9.067337;-0.44273376;-2.0631256;-;-;-;-;-;-;-;-;-;-;-;-;-;-;-
1514002832654;-;-;9.105637;-0.3972473;-2.1349487;-;-;-;-;-;-;-;-;-;-;-;-;-;-;-
1514002832674;-;-;9.090073;-0.3876648;-2.1469116;-;-;-;-;-;-;-;-;-;-;-;-;-;-;-
1514002832694;-;-;9.050568;-0.44154358;-2.1110077;-;-;-;-;-;-;-;-;-;-;-;-;-;-;-
1514002832715;-;-;9.051773;-0.51934814;-2.0667114;-;-;-;-;-;-;-;-;-;-;-;-;-;-;-
1514002832735;-;-;9.086487;-0.5432892;-2.1301575;-;-;-;-;-;-;-;-;-;-;-;-;-;-;-
1514002832756;-;-;9.054169;-0.4092102;-2.1110077;-;-;-;-;-;-;-;-;-;-;-;-;-;-;-
1514002832777;-;-;9.023041;-0.3182373;-2.0870667;-;-;-;-;-;-;-;-;-;-;-;-;-;-;-
1514002832797;-;-;8.987122;-0.26675415;-2.1169891;-;-;-;-;-;-;-;-;-;-;-;-;-;-;-
1514002832817;-;-;9.009872;-0.33021545;-2.2259216;-;-;-;-;-;-;-;-;-;-;-;-;-;-;-
1514002832838;-;-;9.002686;-0.33380127;-2.1732483;-;-;-;-;-;-;-;-;-;-;-;-;-;-;-
1514002832858;-;-;9.014664;-0.32661438;-2.2283173;-;-;-;-;-;-;-;-;-;-;-;-;-;-;-
1514002832879;-;-;9.039795;-0.30506897;-2.2438812;-;-;-;-;-;-;-;-;-;-;-;-;-;-;-
1514002832900;-;-;9.038605;-0.33499146;-2.203186;-;-;-;-;-;-;-;-;-;-;-;-;-;-;-
1514002832920;-;-;9.067337;-0.35176086;-2.1696625;-;-;-;-;-;-;-;-;-;-;-;-;-;-;-
1514002832941;-;-;9.021835;-0.368515;-2.1696625;-;-;-;-;-;-;-;-;-;-;-;-;-;-;-
1514002832960;-;-;9.003891;-0.41400146;-2.1672668;-;-;-;-;-;-;-;-;-;-;-;-;-;-;-
1514002832980;-;-;8.958389;-0.30625916;-2.1612854;-;-;-;-;-;-;-;-;-;-;-;-;-;-;-
1514002833001;-;-;9.030228;-0.29309082;-2.1780396;-;-;-;-;-;-;-;-;-;-;-;-;-;-;-
1514002833022;-;-;9.0733185;-0.28352356;-2.144516;-;-;-;-;-;-;-;-;-;-;-;-;-;-;-
1514002833041;-;-;9.088882;-0.39604187;-2.1193848;-;-;-;-;-;-;-;-;-;-;-;-;-;-;-
1514002833062;-;-;9.054169;-0.38526917;-2.0906525;-;-;-;-;-;-;-;-;-;-;-;-;-;-;-
1514002833082;-;-;9.030228;-0.37091064;-2.036789;-;-;-;-;-;-;-;-;-;-;-;-;-;-;-
1514002833102;-;-;9.046982;-0.3864746;-2.0643158;-;-;-;-;-;-;-;-;-;-;-;-;-;-;-
1514002833123;-;-;9.063736;-0.3146515;-2.0116425;-;-;-;-;-;-;-;-;-;-;-;-;-;-;-
1514002833143;-;-;9.043396;-0.3541565;-2.0667114;-;-;-;-;-;-;-;-;-;-;-;-;-;-;-
1514002833164;-;-;9.043396;-0.3182373;-2.0834656;-;-;-;-;-;-;-;-;-;-;-;-;-;-;-
1514002833185;-;-;9.027832;-0.2966919;-2.144516;-;-;-;-;-;-;-;-;-;-;-;-;-;-;-
1514002833205;-;-;9.045776;-0.25360107;-2.1014252;-;-;-;-;-;-;-;-;-;-;-;-;-;-;-
1514002833226;-;-;9.062546;-0.17459106;-2.0786743;-;-;-;-;-;-;-;-;-;-;-;-;-;-;-
1514002833246;-;-;9.074509;-0.13867188;-1.9769287;-;-;-;-;-;-;-;-;-;-;-;-;-;-;-
1514002833267;-;-;9.07811;-0.25598145;-1.9589691;-;-;-;-;-;-;-;-;-;-;-;-;-;-;-
1514002833287;-;-;9.0793;-0.32063293;-2.0331879;-;-;-;-;-;-;-;-;-;-;-;-;-;-;-
1514002833308;-;-;9.023041;-0.3002777;-2.0679016;-;-;-;-;-;-;-;-;-;-;-;-;-;-;-
1514002833328;-;-;8.98233;-0.2272644;-2.1469116;-;-;-;-;-;-;-;-;-;-;-;-;-;-;-
1514002833348;-;-;8.958389;-0.24281311;-2.1493073;-;-;-;-;-;-;-;-;-;-;-;-;-;-;-
1514002833368;-;-;9.035004;-0.26556396;-2.223526;-;-;-;-;-;-;-;-;-;-;-;-;-;-;-
1514002833389;-;-;9.017059;-0.22366333;-2.144516;-;-;-;-;-;-;-;-;-;-;-;-;-;-;-
1514002833409;-;-;9.0577545;-0.22366333;-2.1277618;-;-;-;-;-;-;-;-;-;-;-;-;-;-;-
1514002833429;-;-;9.081696;-0.25239563;-2.1181793;-;-;-;-;-;-;-;-;-;-;-;-;-;-;-
1514002833450;-;-;9.068527;-0.25;-2.1062164;-;-;-;-;-;-;-;-;-;-;-;-;-;-;-
1514002833471;-;-;9.043396;-0.3074646;-2.096634;-;-;-;-;-;-;-;-;-;-;-;-;-;-;-
1514002833491;-;-;9.002686;-0.35534668;-2.1121979;-;-;-;-;-;-;-;-;-;-;-;-;-;-;-
1514002833511;-;-;8.98233;-0.33859253;-2.0822754;-;-;-;-;-;-;-;-;-;-;-;-;-;-;-
1514002833531;-;-;8.972763;-0.31344604;-2.06073;-;-;-;-;-;-;-;-;-;-;-;-;-;-;-
1514002833552;-;-;8.977554;-0.31704712;-1.9984741;-;-;-;-;-;-;-;-;-;-;-;-;-;-;-
1514002833573;-;-;9.030228;-0.33380127;-1.9470062;-;-;-;-;-;-;-;-;-;-;-;-;-;-;-
1514002833592;-;-;9.06134;-0.38168335;-1.9673462;-;-;-;-;-;-;-;-;-;-;-;-;-;-;-
1514002833613;-;-;9.074509;-0.3876648;-2.0116425;-;-;-;-;-;-;-;-;-;-;-;-;-;-;-
1514002833634;-;-;9.058945;-0.32063293;-1.9912872;-;-;-;-;-;-;-;-;-;-;-;-;-;-;-
1514002833654;-;-;9.055359;-0.25837708;-1.9458008;-;-;-;-;-;-;-;-;-;-;-;-;-;-;-
1514002833675;-;-;9.074509;-0.32063293;-1.8727875;-;-;-;-;-;-;-;-;-;-;-;-;-;-;-
1514002833695;-;-;9.0793;-0.30986023;-1.9565735;-;-;-;-;-;-;-;-;-;-;-;-;-;-;-
1514002833715;-;-;9.088882;-0.2679596;-1.9338379;-;-;-;-;-;-;-;-;-;-;-;-;-;-;-
1514002833736;-;-;9.039795;-0.22366333;-1.9410095;-;-;-;-;-;-;-;-;-;-;-;-;-;-;-
1514002833757;-;-;9.088882;-0.28231812;-1.9410095;-;-;-;-;-;-;-;-;-;-;-;-;-;-;-
1514002833777;-;-;9.100845;-0.34098816;-1.9278412;-;-;-;-;-;-;-;-;-;-;-;-;-;-;-
1514002833798;-;-;9.048172;-0.34576416;-1.8691864;-;-;-;-;-;-;-;-;-;-;-;-;-;-;-
1514002833818;-;-;9.052963;-0.28231812;-1.8656006;-;-;-;-;-;-;-;-;-;-;-;-;-;-;-
1514002833839;-;-;9.075714;-0.29071045;-1.9494019;-;-;-;-;-;-;-;-;-;-;-;-;-;-;-
1514002833860;-;-;9.12001;-0.3254242;-1.9625702;-;-;-;-;-;-;-;-;-;-;-;-;-;-;-
1514002833880;-;-;9.068527;-0.34217834;-1.9637604;-;-;-;-;-;-;-;-;-;-;-;-;-;-;-
1514002833900;-;-;9.055359;-0.29548645;-1.9494019;-;-;-;-;-;-;-;-;-;-;-;-;-;-;-
1514002833921;-;-;9.019455;-0.22964478;-1.9242554;-;-;-;-;-;-;-;-;-;-;-;-;-;-;-
1514002833941;-;-;9.024231;-0.27035522;-1.9649506;-;-;-;-;-;-;-;-;-;-;-;-;-;-;-
1514002833961;-;-;9.050568;-0.30506897;-1.9577789;-;-;-;-;-;-;-;-;-;-;-;-;-;-;-
1514002833982;-;-;9.0793;-0.30148315;-1.9290466;-;-;-;-;-;-;-;-;-;-;-;-;-;-;-
1514002834003;-;-;9.049377;-0.35653687;-1.9589691;-;-;-;-;-;-;-;-;-;-;-;-;-;-;-
1514002834023;-;-;9.042191;-0.41160583;-1.9841156;-;-;-;-;-;-;-;-;-;-;-;-;-;-;-
1514002834044;-;-;9.050568;-0.3864746;-1.9948883;-;-;-;-;-;-;-;-;-;-;-;-;-;-;-
1514002834063;-;-;9.075714;-0.32063293;-1.9721375;-;-;-;-;-;-;-;-;-;-;-;-;-;-;-
1514002834084;-;-;9.09845;-0.28231812;-1.9589691;-;-;-;-;-;-;-;-;-;-;-;-;-;-;-
1514002834104;-;-;9.062546;-0.29548645;-1.9553833;-;-;-;-;-;-;-;-;-;-;-;-;-;-;-
1514002834125;-;-;9.091278;-0.3194275;-1.9793243;-;-;-;-;-;-;-;-;-;-;-;-;-;-;-
1514002834145;-;-;9.048172;-0.29071045;-1.9601746;-;-;-;-;-;-;-;-;-;-;-;-;-;-;-
1514002834166;-;-;9.014664;-0.29429626;-1.9829102;-;-;-;-;-;-;-;-;-;-;-;-;-;-;-
1514002834186;-;-;9.032608;-0.31225586;-2.0224152;-;-;-;-;-;-;-;-;-;-;-;-;-;-;-
1514002834207;-;-;9.068527;-0.2775421;-2.0188293;-;-;-;-;-;-;-;-;-;-;-;-;-;-;-
1514002834226;-;-;9.076904;-0.32781982;-1.9362335;-;-;-;-;-;-;-;-;-;-;-;-;-;-;-
1514002834247;-;-;9.074509;-0.33738708;-1.9541779;-;-;-;-;-;-;-;-;-;-;-;-;-;-;-
1514002834268;-;-;9.046982;-0.37091064;-1.9589691;-;-;-;-;-;-;-;-;-;-;-;-;-;-;-
1514002834288;-;-;9.103241;-0.42956543;-1.9996796;-;-;-;-;-;-;-;-;-;-;-;-;-;-;-
1514002834308;-;-;9.090073;-0.34217834;-2.0152283;-;-;-;-;-;-;-;-;-;-;-;-;-;-;-
1514002834329;-;-;9.052963;-0.2571869;-1.926651;-;-;-;-;-;-;-;-;-;-;-;-;-;-;-
1514002834349;-;-;9.075714;-0.28471375;-1.9338379;-;-;-;-;-;-;-;-;-;-;-;-;-;-;-
1514002834370;-;-;9.069733;-0.32901;-1.9326324;-;-;-;-;-;-;-;-;-;-;-;-;-;-;-
1514002834391;-;-;9.055359;-0.36013794;-1.9278412;-;-;-;-;-;-;-;-;-;-;-;-;-;-;-
1514002834411;-;-;9.106842;-0.33380127;-1.9745331;-;-;-;-;-;-;-;-;-;-;-;-;-;-;-
1514002834431;-;-;9.076904;-0.3469696;-1.9829102;-;-;-;-;-;-;-;-;-;-;-;-;-;-;-
1514002834452;-;-;9.067337;-0.36013794;-1.9721375;-;-;-;-;-;-;-;-;-;-;-;-;-;-;-
1514002834471;-;-;9.032608;-0.36372375;-1.9888916;-;-;-;-;-;-;-;-;-;-;-;-;-;-;-
1514002834491;-;-;9.035004;-0.32901;-1.9529877;-;-;-;-;-;-;-;-;-;-;-;-;-;-;-
1514002834511;-;-;9.108032;-0.33140564;-1.9805145;-;-;-;-;-;-;-;-;-;-;-;-;-;-;-
1514002834532;-;-;9.074509;-0.31704712;-1.9972839;-;-;-;-;-;-;-;-;-;-;-;-;-;-;-
1514002834553;-;-;9.041;-0.27275085;-1.9565735;-;-;-;-;-;-;-;-;-;-;-;-;-;-;-
1514002834573;-;-;9.066132;-0.289505;-1.9458008;-;-;-;-;-;-;-;-;-;-;-;-;-;-;-
1514002834594;-;-;9.051773;-0.33259583;-1.9601746;-;-;-;-;-;-;-;-;-;-;-;-;-;-;-
1514002834614;-;-;9.06015;-0.3002777;-1.9541779;-;-;-;-;-;-;-;-;-;-;-;-;-;-;-
1514002834635;-;-;9.050568;-0.30506897;-1.9410095;-;-;-;-;-;-;-;-;-;-;-;-;-;-;-
1514002834655;-;-;9.038605;-0.32421875;-1.9757233;-;-;-;-;-;-;-;-;-;-;-;-;-;-;-
1514002834676;-;-;9.07811;-0.3146515;-1.950592;-;-;-;-;-;-;-;-;-;-;-;-;-;-;-
1514002834696;-;-;9.075714;-0.35534668;-1.9673462;-;-;-;-;-;-;-;-;-;-;-;-;-;-;-
1514002834717;-;-;9.075714;-0.3194275;-1.9326324;-;-;-;-;-;-;-;-;-;-;-;-;-;-;-
1514002834737;-;-;9.055359;-0.33499146;-1.9398193;-;-;-;-;-;-;-;-;-;-;-;-;-;-;-
1514002834758;-;-;9.063736;-0.32421875;-1.9589691;-;-;-;-;-;-;-;-;-;-;-;-;-;-;-
1514002834778;-;-;9.041;-0.31584167;-1.9302368;-;-;-;-;-;-;-;-;-;-;-;-;-;-;-
1514002834798;-;-;9.063736;-0.32421875;-1.9075012;-;-;-;-;-;-;-;-;-;-;-;-;-;-;-
1514002834819;-;-;9.072113;-0.33380127;-1.9374237;-;-;-;-;-;-;-;-;-;-;-;-;-;-;-
1514002834840;-;-;9.084091;-0.33738708;-1.9529877;-;-;-;-;-;-;-;-;-;-;-;-;-;-;-
1514002834860;-;-;9.087677;-0.3577423;-1.9362335;-;-;-;-;-;-;-;-;-;-;-;-;-;-;-
1514002834881;-;-;9.081696;-0.3864746;-1.9015045;-;-;-;-;-;-;-;-;-;-;-;-;-;-;-
1514002834901;-;-;9.07811;-0.39964294;-1.8967285;-;-;-;-;-;-;-;-;-;-;-;-;-;-;-
1514002834922;-;-;9.080505;-0.4343567;-1.8584137;-;-;-;-;-;-;-;-;-;-;-;-;-;-;-
1514002834942;-;-;9.092468;-0.38049316;-1.8572235;-;-;-;-;-;-;-;-;-;-;-;-;-;-;-
1514002834963;-;-;9.051773;-0.42477417;-1.9158783;-;-;-;-;-;-;-;-;-;-;-;-;-;-;-
1514002834983;-;-;9.0577545;-0.32661438;-1.98172;-;-;-;-;-;-;-;-;-;-;-;-;-;-;-
1514002835003;-;-;9.026627;-0.2775421;-1.9613647;-;-;-;-;-;-;-;-;-;-;-;-;-;-;-
1514002835024;-;-;9.090073;-0.25837708;-1.9218597;-;-;-;-;-;-;-;-;-;-;-;-;-;-;-
1514002835044;-;-;9.0972595;-0.35295105;-1.9434052;-;-;-;-;-;-;-;-;-;-;-;-;-;-;-
1514002835065;-;-;9.054169;-0.3481598;-1.98172;-;-;-;-;-;-;-;-;-;-;-;-;-;-;-
1514002835085;-;-;9.090073;-0.3481598;-1.9709473;-;-;-;-;-;-;-;-;-;-;-;-;-;-;-
1514002835106;-;-;9.050568;-0.3146515;-1.9494019;-;-;-;-;-;-;-;-;-;-;-;-;-;-;-
1514002835126;-;-;9.074509;-0.3697052;-1.9458008;-;-;-;-;-;-;-;-;-;-;-;-;-;-;-
1514002835147;-;-;9.048172;-0.36372375;-1.9481964;-;-;-;-;-;-;-;-;-;-;-;-;-;-;-
1514002835168;-;-;9.087677;-0.36132813;-1.9398193;-;-;-;-;-;-;-;-;-;-;-;-;-;-;-
1514002835188;-;-;9.046982;-0.3074646;-1.9134827;-;-;-;-;-;-;-;-;-;-;-;-;-;-;-
1514002835208;-;-;9.072113;-0.30148315;-1.9134827;-;-;-;-;-;-;-;-;-;-;-;-;-;-;-
1514002835229;-;-;9.038605;-0.32661438;-1.9170685;-;-;-;-;-;-;-;-;-;-;-;-;-;-;-
1514002835249;-;-;9.070923;-0.3397827;-1.9086914;-;-;-;-;-;-;-;-;-;-;-;-;-;-;-
1514002835270;-;-;9.055359;-0.36132813;-1.9158783;-;-;-;-;-;-;-;-;-;-;-;-;-;-;-
1514002835291;-;-;9.106842;-0.31704712;-1.9494019;-;-;-;-;-;-;-;-;-;-;-;-;-;-;-
1514002835312;-;-;9.118805;-0.3397827;-1.9637604;-;-;-;-;-;-;-;-;-;-;-;-;-;-;-
1514002835332;-;-;9.111618;-0.3397827;-1.9170685;-;-;-;-;-;-;-;-;-;-;-;-;-;-;-
1514002835353;-;-;9.037399;-0.32901;-2.00206;-;-;-;-;-;-;-;-;-;-;-;-;-;-;-
1514002835373;-;-;9.045776;-0.3361969;-1.9410095;-;-;-;-;-;-;-;-;-;-;-;-;-;-;-
1514002835394;-;-;9.069733;-0.3397827;-1.9290466;-;-;-;-;-;-;-;-;-;-;-;-;-;-;-
1514002835414;-;-;9.048172;-0.30625916;-1.9494019;-;-;-;-;-;-;-;-;-;-;-;-;-;-;-
1514002835435;-;-;9.055359;-0.32182312;-1.9410095;-;-;-;-;-;-;-;-;-;-;-;-;-;-;-
1514002835455;-;-;9.074509;-0.3086548;-1.926651;-;-;-;-;-;-;-;-;-;-;-;-;-;-;-
1514002835475;-;-;9.06134;-0.27035522;-1.9565735;-;-;-;-;-;-;-;-;-;-;-;-;-;-;-
1514002835496;-;-;9.085281;-0.2799225;-1.9996796;-;-;-;-;-;-;-;-;-;-;-;-;-;-;-
1514002835517;-;-;9.011063;-0.3254242;-1.8883362;-;-;-;-;-;-;-;-;-;-;-;-;-;-;-
1514002835536;-;-;9.06134;-0.33140564;-1.9865112;-;-;-;-;-;-;-;-;-;-;-;-;-;-;-
1514002835557;-;-;9.0793;-0.33859253;-2.0391846;-;-;-;-;-;-;-;-;-;-;-;-;-;-;-
1514002835578;-;-;9.031418;-0.34098816;-2.0319977;-;-;-;-;-;-;-;-;-;-;-;-;-;-;-
1514002835598;-;-;9.026627;-0.32661438;-1.9314423;-;-;-;-;-;-;-;-;-;-;-;-;-;-;-
1514002835619;-;-;9.033813;-0.3577423;-1.9577789;-;-;-;-;-;-;-;-;-;-;-;-;-;-;-
1514002835639;-;-;9.067337;-0.3768921;-1.9745331;-;-;-;-;-;-;-;-;-;-;-;-;-;-;-
1514002835659;-;-;9.056564;-0.37449646;-1.9960785;-;-;-;-;-;-;-;-;-;-;-;-;-;-;-
1514002835680;-;-;9.050568;-0.29190063;-2.0319977;-;-;-;-;-;-;-;-;-;-;-;-;-;-;-
1514002835700;-;-;9.06134;-0.22964478;-2.041565;-;-;-;-;-;-;-;-;-;-;-;-;-;-;-
1514002835721;-;-;9.038605;-0.3649292;-1.9745331;-;-;-;-;-;-;-;-;-;-;-;-;-;-;-
1514002835742;-;-;9.064941;-0.3984375;-2.0427704;-;-;-;-;-;-;-;-;-;-;-;-;-;-;-
1514002835763;-;-;9.044586;-0.37928772;-2.00206;-;-;-;-;-;-;-;-;-;-;-;-;-;-;-
1514002835784;-;-;9.06015;-0.3649292;-1.9793243;-;-;-;-;-;-;-;-;-;-;-;-;-;-;-
1514002835805;-;-;9.041;-0.3433838;-1.9912872;-;-;-;-;-;-;-;-;-;-;-;-;-;-;-
1514002835825;-;-;9.103241;-0.3182373;-1.9996796;-;-;-;-;-;-;-;-;-;-;-;-;-;-;-
1514002835845;-;-;9.0793;-0.30267334;-1.9697418;-;-;-;-;-;-;-;-;-;-;-;-;-;-;-
1514002835866;-;-;9.086487;-0.26197815;-2.0272064;-;-;-;-;-;-;-;-;-;-;-;-;-;-;-
1514002835886;-;-;9.070923;-0.23564148;-2.0702972;-;-;-;-;-;-;-;-;-;-;-;-;-;-;-
1514002835907;-;-;9.035004;-0.22845459;-2.0679016;-;-;-;-;-;-;-;-;-;-;-;-;-;-;-
1514002835927;-;-;9.002686;-0.27633667;-2.0619202;-;-;-;-;-;-;-;-;-;-;-;-;-;-;-
1514002835947;-;-;9.030228;-0.3002777;-2.0044556;-;-;-;-;-;-;-;-;-;-;-;-;-;-;-
1514002835968;-;-;9.011063;-0.3002777;-1.9649506;-;-;-;-;-;-;-;-;-;-;-;-;-;-;-
1514002835990;-;-;9.037399;-0.28231812;-2.014038;-;-;-;-;-;-;-;-;-;-;-;-;-;-;-
1514002836010;-;-;9.069733;-0.30267334;-2.0104523;-;-;-;-;-;-;-;-;-;-;-;-;-;-;-
1514002836030;-;-;9.038605;-0.3194275;-1.9984741;-;-;-;-;-;-;-;-;-;-;-;-;-;-;-
1514002836050;-;-;8.875793;-0.3074646;-2.1552887;-;-;-;-;-;-;-;-;-;-;-;-;-;-;-
1514002836070;-;-;9.036209;-0.35653687;-1.9565735;-;-;-;-;-;-;-;-;-;-;-;-;-;-;-
1514002836091;-;-;9.054169;-0.34457397;-2.041565;-;-;-;-;-;-;-;-;-;-;-;-;-;-;-
1514002836111;-;-;9.037399;-0.33021545;-2.0283966;-;-;-;-;-;-;-;-;-;-;-;-;-;-;-
1514002836132;-;-;9.054169;-0.2787323;-1.966156;-;-;-;-;-;-;-;-;-;-;-;-;-;-;-
1514002836153;-;-;9.072113;-0.26316833;-1.9577789;-;-;-;-;-;-;-;-;-;-;-;-;-;-;-
1514002836172;-;-;9.088882;-0.22605896;-2.0331879;-;-;-;-;-;-;-;-;-;-;-;-;-;-;-
1514002836193;-;-;9.093674;-0.24043274;-2.0942383;-;-;-;-;-;-;-;-;-;-;-;-;-;-;-
1514002836213;-;-;9.050568;-0.19732666;-2.076294;-;-;-;-;-;-;-;-;-;-;-;-;-;-;-
1514002836233;-;-;9.044586;-0.21768188;-2.0511475;-;-;-;-;-;-;-;-;-;-;-;-;-;-;-
1514002836254;-;-;9.009872;-0.22964478;-1.990097;-;-;-;-;-;-;-;-;-;-;-;-;-;-;-
1514002836274;-;-;9.039795;-0.26914978;-1.950592;-;-;-;-;-;-;-;-;-;-;-;-;-;-;-
1514002836295;-;-;9.055359;-0.33859253;-1.9805145;-;-;-;-;-;-;-;-;-;-;-;-;-;-;-
1514002836316;-;-;9.035004;-0.3541565;-1.9924927;-;-;-;-;-;-;-;-;-;-;-;-;-;-;-
1514002836336;-;-;9.033813;-0.23803711;-2.029602;-;-;-;-;-;-;-;-;-;-;-;-;-;-;-
1514002836356;-;-;9.051773;-0.20092773;-2.0032654;-;-;-;-;-;-;-;-;-;-;-;-;-;-;-
1514002836377;-;-;9.052963;-0.24641418;-1.9769287;-;-;-;-;-;-;-;-;-;-;-;-;-;-;-
1514002836396;-;-;9.06134;-0.2679596;-2.012848;-;-;-;-;-;-;-;-;-;-;-;-;-;-;-
1514002836417;-;-;9.051773;-0.27394104;-2.0331879;-;-;-;-;-;-;-;-;-;-;-;-;-;-;-
1514002836437;-;-;9.0577545;-0.24641418;-2.017624;-;-;-;-;-;-;-;-;-;-;-;-;-;-;-
1514002836457;-;-;9.039795;-0.22247314;-2.0331879;-;-;-;-;-;-;-;-;-;-;-;-;-;-;-
1514002836478;-;-;9.042191;-0.22247314;-1.9841156;-;-;-;-;-;-;-;-;-;-;-;-;-;-;-
1514002836499;-;-;9.043396;-0.2320404;-2.0403748;-;-;-;-;-;-;-;-;-;-;-;-;-;-;-
1514002836519;-;-;9.068527;-0.29429626;-2.0391846;-;-;-;-;-;-;-;-;-;-;-;-;-;-;-
1514002836539;-;-;9.039795;-0.24520874;-2.06073;-;-;-;-;-;-;-;-;-;-;-;-;-;-;-
1514002836560;-;-;9.026627;-0.27514648;-1.9972839;-;-;-;-;-;-;-;-;-;-;-;-;-;-;-
1514002836580;-;-;9.030228;-0.27514648;-2.0116425;-;-;-;-;-;-;-;-;-;-;-;-;-;-;-
1514002836601;-;-;9.06015;-0.32063293;-2.00206;-;-;-;-;-;-;-;-;-;-;-;-;-;-;-
1514002836621;-;-;9.066132;-0.33859253;-2.0080566;-;-;-;-;-;-;-;-;-;-;-;-;-;-;-
1514002836644;-;-;9.06134;-0.3086548;-2.0092468;-;-;-;-;-;-;-;-;-;-;-;-;-;-;-
1514002836665;-;-;9.0182495;-0.2799225;-2.0248108;-;-;-;-;-;-;-;-;-;-;-;-;-;-;-
1514002836684;-;-;9.032608;-0.25479126;-2.0092468;-;-;-;-;-;-;-;-;-;-;-;-;-;-;-
1514002836705;-;-;9.072113;-0.27633667;-1.9960785;-;-;-;-;-;-;-;-;-;-;-;-;-;-;-
1514002836725;-;-;9.087677;-0.27394104;-1.9924927;-;-;-;-;-;-;-;-;-;-;-;-;-;-;-
1514002836745;-;-;9.096069;-0.3002777;-1.9984741;-;-;-;-;-;-;-;-;-;-;-;-;-;-;-
1514002836766;-;-;9.068527;-0.27275085;-1.9853058;-;-;-;-;-;-;-;-;-;-;-;-;-;-;-
1514002836787;-;-;9.062546;-0.29908752;-1.9601746;-;-;-;-;-;-;-;-;-;-;-;-;-;-;-
1514002836806;-;-;9.086487;-0.29190063;-1.9230652;-;-;-;-;-;-;-;-;-;-;-;-;-;-;-
1514002836827;-;-;9.039795;-0.2966919;-1.942215;-;-;-;-;-;-;-;-;-;-;-;-;-;-;-
1514002836847;-;-;9.052963;-0.26437378;-1.9386139;-;-;-;-;-;-;-;-;-;-;-;-;-;-;-
1514002836868;-;-;9.074509;-0.25598145;-1.9577789;-;-;-;-;-;-;-;-;-;-;-;-;-;-;-
1514002836888;-;-;9.092468;-0.27394104;-1.9386139;-;-;-;-;-;-;-;-;-;-;-;-;-;-;-
1514002836909;-;-;9.069733;-0.2571869;-1.8931274;-;-;-;-;-;-;-;-;-;-;-;-;-;-;-
1514002836929;-;-;9.0577545;-0.3146515;-1.871582;-;-;-;-;-;-;-;-;-;-;-;-;-;-;-
1514002836950;-;-;9.070923;-0.33499146;-1.9290466;-;-;-;-;-;-;-;-;-;-;-;-;-;-;-
1514002836969;-;-;9.0793;-0.31105042;-1.9877014;-;-;-;-;-;-;-;-;-;-;-;-;-;-;-
1514002836990;-;-;9.054169;-0.24401855;-1.9757233;-;-;-;-;-;-;-;-;-;-;-;-;-;-;-
1514002837010;-;-;9.036209;-0.23085022;-1.9733429;-;-;-;-;-;-;-;-;-;-;-;-;-;-;-
1514002837031;-;-;9.050568;-0.29788208;-1.9757233;-;-;-;-;-;-;-;-;-;-;-;-;-;-;-
1514002837051;-;-;9.096069;-0.3481598;-1.9517822;-;-;-;-;-;-;-;-;-;-;-;-;-;-;-
1514002837072;-;-;9.0793;-0.2799225;-1.9577789;-;-;-;-;-;-;-;-;-;-;-;-;-;-;-
1514002837092;-;-;9.106842;-0.29548645;-1.9601746;-;-;-;-;-;-;-;-;-;-;-;-;-;-;-
1514002837113;-;-;9.063736;-0.34098816;-1.9410095;-;-;-;-;-;-;-;-;-;-;-;-;-;-;-
1514002837133;-;-;9.069733;-0.32421875;-1.9086914;-;-;-;-;-;-;-;-;-;-;-;-;-;-;-
1514002837154;-;-;9.0577545;-0.34936523;-1.9386139;-;-;-;-;-;-;-;-;-;-;-;-;-;-;-
1514002837173;-;-;9.0577545;-0.29788208;-1.9470062;-;-;-;-;-;-;-;-;-;-;-;-;-;-;-
1514002837193;-;-;9.070923;-0.24760437;-1.942215;-;-;-;-;-;-;-;-;-;-;-;-;-;-;-
1514002837214;-;-;9.042191;-0.22964478;-1.9146729;-;-;-;-;-;-;-;-;-;-;-;-;-;-;-
1514002837234;-;-;9.050568;-0.26316833;-1.9374237;-;-;-;-;-;-;-;-;-;-;-;-;-;-;-
1514002837255;-;-;9.050568;-0.28112793;-1.9458008;-;-;-;-;-;-;-;-;-;-;-;-;-;-;-
1514002837275;-;-;9.049377;-0.29548645;-1.9206696;-;-;-;-;-;-;-;-;-;-;-;-;-;-;-
1514002837296;-;-;9.081696;-0.32781982;-1.9003143;-;-;-;-;-;-;-;-;-;-;-;-;-;-;-
1514002837316;-;-;9.099655;-0.29190063;-1.8907318;-;-;-;-;-;-;-;-;-;-;-;-;-;-;-
1514002837336;-;-;9.093674;-0.24520874;-1.9122772;-;-;-;-;-;-;-;-;-;-;-;-;-;-;-
1514002837357;-;-;9.055359;-0.2212677;-1.942215;-;-;-;-;-;-;-;-;-;-;-;-;-;-;-
1514002837378;-;-;9.066132;-0.26437378;-1.9374237;-;-;-;-;-;-;-;-;-;-;-;-;-;-;-
1514002837399;-;-;9.081696;-0.28471375;-1.9326324;-;-;-;-;-;-;-;-;-;-;-;-;-;-;-
1514002837418;-;-;9.074509;-0.2787323;-1.9218597;-;-;-;-;-;-;-;-;-;-;-;-;-;-;-
1514002837439;-;-;9.068527;-0.25958252;-1.9278412;-;-;-;-;-;-;-;-;-;-;-;-;-;-;-
1514002837459;-;-;9.070923;-0.289505;-1.9122772;-;-;-;-;-;-;-;-;-;-;-;-;-;-;-
1514002837480;-;-;9.051773;-0.30625916;-1.8727875;-;-;-;-;-;-;-;-;-;-;-;-;-;-;-
1514002837501;-;-;9.049377;-0.27035522;-1.9410095;-;-;-;-;-;-;-;-;-;-;-;-;-;-;-
1514002837521;-;-;9.074509;-0.32182312;-1.9230652;-;-;-;-;-;-;-;-;-;-;-;-;-;-;-
1514002837541;-;-;9.050568;-0.2679596;-1.9374237;-;-;-;-;-;-;-;-;-;-;-;-;-;-;-
1514002837562;-;-;9.067337;-0.28831482;-1.863205;-;-;-;-;-;-;-;-;-;-;-;-;-;-;-
1514002837582;-;-;9.06015;-0.32901;-1.8560181;-;-;-;-;-;-;-;-;-;-;-;-;-;-;-
1514002837602;-;-;9.055359;-0.3074646;-1.9290466;-;-;-;-;-;-;-;-;-;-;-;-;-;-;-
1514002837623;-;-;9.052963;-0.27633667;-1.926651;-;-;-;-;-;-;-;-;-;-;-;-;-;-;-
1514002837644;-;-;9.049377;-0.21289063;-1.9218597;-;-;-;-;-;-;-;-;-;-;-;-;-;-;-
1514002837663;-;-;9.07811;-0.23803711;-1.8835602;-;-;-;-;-;-;-;-;-;-;-;-;-;-;-
1514002837684;-;-;9.066132;-0.26437378;-1.9230652;-;-;-;-;-;-;-;-;-;-;-;-;-;-;-
1514002837705;-;-;9.068527;-0.2715454;-1.8895416;-;-;-;-;-;-;-;-;-;-;-;-;-;-;-
1514002837725;-;-;9.075714;-0.26197815;-1.9039001;-;-;-;-;-;-;-;-;-;-;-;-;-;-;-
1514002837745;-;-;9.062546;-0.25239563;-1.8991089;-;-;-;-;-;-;-;-;-;-;-;-;-;-;-
1514002837766;-;-;9.090073;-0.2799225;-1.9206696;-;-;-;-;-;-;-;-;-;-;-;-;-;-;-
1514002837786;-;-;9.06015;-0.2392273;-1.90271;-;-;-;-;-;-;-;-;-;-;-;-;-;-;-
1514002837807;-;-;9.038605;-0.2679596;-1.9051056;-;-;-;-;-;-;-;-;-;-;-;-;-;-;-
1514002837827;-;-;9.070923;-0.26316833;-1.9278412;-;-;-;-;-;-;-;-;-;-;-;-;-;-;-
1514002837848;-;-;9.084091;-0.2679596;-1.9146729;-;-;-;-;-;-;-;-;-;-;-;-;-;-;-
1514002837869;-;-;9.027832;-0.25598145;-1.9075012;-;-;-;-;-;-;-;-;-;-;-;-;-;-;-
1514002837889;-;-;9.0577545;-0.3086548;-1.8787689;-;-;-;-;-;-;-;-;-;-;-;-;-;-;-
1514002837910;-;-;9.07811;-0.31225586;-1.9218597;-;-;-;-;-;-;-;-;-;-;-;-;-;-;-
1514002837930;-;-;9.069733;-0.30986023;-1.9206696;-;-;-;-;-;-;-;-;-;-;-;-;-;-;-
1514002837951;-;-;9.041;-0.27275085;-1.9170685;-;-;-;-;-;-;-;-;-;-;-;-;-;-;-
1514002837970;-;-;9.067337;-0.27035522;-1.9625702;-;-;-;-;-;-;-;-;-;-;-;-;-;-;-
1514002837991;-;-;9.102051;-0.32063293;-1.9434052;-;-;-;-;-;-;-;-;-;-;-;-;-;-;-
1514002838011;-;-;9.0733185;-0.29429626;-1.9182739;-;-;-;-;-;-;-;-;-;-;-;-;-;-;-
1514002838032;-;-;9.051773;-0.24760437;-1.9242554;-;-;-;-;-;-;-;-;-;-;-;-;-;-;-
1514002838052;-;-;9.067337;-0.25837708;-1.9003143;-;-;-;-;-;-;-;-;-;-;-;-;-;-;-
1514002838073;-;-;9.062546;-0.28831482;-1.926651;-;-;-;-;-;-;-;-;-;-;-;-;-;-;-
1514002838093;-;-;9.072113;-0.2966919;-1.9302368;-;-;-;-;-;-;-;-;-;-;-;-;-;-;-
1514002838113;-;-;9.039795;-0.26437378;-1.9062958;-;-;-;-;-;-;-;-;-;-;-;-;-;-;-
1514002838134;-;-;9.062546;-0.25598145;-1.8955231;-;-;-;-;-;-;-;-;-;-;-;-;-;-;-
1514002838155;-;-;9.050568;-0.28352356;-1.8883362;-;-;-;-;-;-;-;-;-;-;-;-;-;-;-
1514002838175;-;-;9.069733;-0.289505;-1.9170685;-;-;-;-;-;-;-;-;-;-;-;-;-;-;-
1514002838196;-;-;9.044586;-0.29190063;-1.9015045;-;-;-;-;-;-;-;-;-;-;-;-;-;-;-
1514002838218;-;-;9.0733185;-0.33021545;-1.863205;-;-;-;-;-;-;-;-;-;-;-;-;-;-;-
1514002838237;-;-;9.058945;-0.24641418;-1.90271;-;-;-;-;-;-;-;-;-;-;-;-;-;-;-
1514002838257;-;-;9.068527;-0.2799225;-1.9697418;-;-;-;-;-;-;-;-;-;-;-;-;-;-;-
1514002838279;-;-;9.043396;-0.29190063;-1.9553833;-;-;-;-;-;-;-;-;-;-;-;-;-;-;-
1514002838299;-;-;9.064941;-0.23324585;-1.9948883;-;-;-;-;-;-;-;-;-;-;-;-;-;-;-
1514002838319;-;-;9.094864;-0.21887207;-1.9062958;-;-;-;-;-;-;-;-;-;-;-;-;-;-;-
1514002838340;-;-;9.108032;-0.28231812;-1.9051056;-;-;-;-;-;-;-;-;-;-;-;-;-;-;-
1514002838360;-;-;9.085281;-0.3002777;-1.9984741;-;-;-;-;-;-;-;-;-;-;-;-;-;-;-
1514002838381;-;-;9.039795;-0.26675415;-1.9960785;-;-;-;-;-;-;-;-;-;-;-;-;-;-;-
1514002838401;-;-;9.075714;-0.24641418;-2.0068512;-;-;-;-;-;-;-;-;-;-;-;-;-;-;-
1514002838422;-;-;9.035004;-0.24520874;-1.9697418;-;-;-;-;-;-;-;-;-;-;-;-;-;-;-
1514002838442;-;-;9.087677;-0.27514648;-1.9494019;-;-;-;-;-;-;-;-;-;-;-;-;-;-;-
1514002838463;-;-;9.054169;-0.3361969;-1.9685516;-;-;-;-;-;-;-;-;-;-;-;-;-;-;-
1514002838482;-;-;9.035004;-0.3254242;-1.98172;-;-;-;-;-;-;-;-;-;-;-;-;-;-;-
1514002838502;-;-;9.030228;-0.2966919;-2.0307922;-;-;-;-;-;-;-;-;-;-;-;-;-;-;-
1514002838523;-;-;9.068527;-0.26914978;-2.0044556;-;-;-;-;-;-;-;-;-;-;-;-;-;-;-
1514002838543;-;-;9.084091;-0.30506897;-2.0080566;-;-;-;-;-;-;-;-;-;-;-;-;-;-;-
1514002838564;-;-;9.036209;-0.2799225;-1.9553833;-;-;-;-;-;-;-;-;-;-;-;-;-;-;-
1514002838585;-;-;9.044586;-0.29071045;-2.0116425;-;-;-;-;-;-;-;-;-;-;-;-;-;-;-
1514002838605;-;-;9.048172;-0.28112793;-2.0331879;-;-;-;-;-;-;-;-;-;-;-;-;-;-;-
1514002838625;-;-;9.041;-0.29309082;-2.012848;-;-;-;-;-;-;-;-;-;-;-;-;-;-;-
1514002838646;-;-;9.058945;-0.2966919;-1.9553833;-;-;-;-;-;-;-;-;-;-;-;-;-;-;-
1514002838668;-;-;9.068527;-0.2859192;-2.0224152;-;-;-;-;-;-;-;-;-;-;-;-;-;-;-
1514002838688;-;-;9.082901;-0.2787323;-2.0188293;-;-;-;-;-;-;-;-;-;-;-;-;-;-;-
1514002838708;-;-;9.042191;-0.29071045;-1.9458008;-;-;-;-;-;-;-;-;-;-;-;-;-;-;-
1514002838729;-;-;9.029022;-0.2679596;-1.9805145;-;-;-;-;-;-;-;-;-;-;-;-;-;-;-
1514002838749;-;-;9.036209;-0.28352356;-1.9972839;-;-;-;-;-;-;-;-;-;-;-;-;-;-;-
1514002838770;-;-;9.032608;-0.32302856;-1.9865112;-;-;-;-;-;-;-;-;-;-;-;-;-;-;-
1514002838791;-;-;9.066132;-0.26675415;-1.9805145;-;-;-;-;-;-;-;-;-;-;-;-;-;-;-
1514002838811;-;-;9.074509;-0.29071045;-1.9948883;-;-;-;-;-;-;-;-;-;-;-;-;-;-;-
1514002838832;-;-;9.068527;-0.30625916;-2.0164337;-;-;-;-;-;-;-;-;-;-;-;-;-;-;-
1514002838852;-;-;9.049377;-0.31584167;-1.9865112;-;-;-;-;-;-;-;-;-;-;-;-;-;-;-
1514002838873;-;-;9.044586;-0.31105042;-1.9362335;-;-;-;-;-;-;-;-;-;-;-;-;-;-;-
1514002838894;-;-;9.054169;-0.29548645;-1.98172;-;-;-;-;-;-;-;-;-;-;-;-;-;-;-
1514002838915;-;-;9.052963;-0.32661438;-2.06073;-;-;-;-;-;-;-;-;-;-;-;-;-;-;-
1514002838936;-;-;9.013458;-0.25120544;-1.9960785;-;-;-;-;-;-;-;-;-;-;-;-;-;-;-
1514002838957;-;-;9.035004;-0.23085022;-2.005661;-;-;-;-;-;-;-;-;-;-;-;-;-;-;-
1514002838977;-;-;9.062546;-0.26316833;-1.9529877;-;-;-;-;-;-;-;-;-;-;-;-;-;-;-
1514002838998;-;-;9.044586;-0.32063293;-1.9781189;-;-;-;-;-;-;-;-;-;-;-;-;-;-;-
1514002839018;-;-;9.06134;-0.30387878;-2.0092468;-;-;-;-;-;-;-;-;-;-;-;-;-;-;-
1514002839039;-;-;9.0793;-0.33738708;-1.9757233;-;-;-;-;-;-;-;-;-;-;-;-;-;-;-
1514002839058;-;-;9.082901;-0.30506897;-1.98172;-;-;-;-;-;-;-;-;-;-;-;-;-;-;-
1514002839078;-;-;9.070923;-0.31225586;-1.9685516;-;-;-;-;-;-;-;-;-;-;-;-;-;-;-
1514002839099;-;-;9.069733;-0.29548645;-1.9529877;-;-;-;-;-;-;-;-;-;-;-;-;-;-;-
1514002839120;-;-;9.069733;-0.30267334;-1.9853058;-;-;-;-;-;-;-;-;-;-;-;-;-;-;-
1514002839140;-;-;9.050568;-0.27035522;-1.9733429;-;-;-;-;-;-;-;-;-;-;-;-;-;-;-
1514002839160;-;-;9.030228;-0.23683167;-2.0080566;-;-;-;-;-;-;-;-;-;-;-;-;-;-;-
1514002839181;-;-;9.031418;-0.26316833;-1.9805145;-;-;-;-;-;-;-;-;-;-;-;-;-;-;-
1514002839201;-;-;9.056564;-0.26914978;-1.9673462;-;-;-;-;-;-;-;-;-;-;-;-;-;-;-
1514002839222;-;-;9.06134;-0.34098816;-1.9374237;-;-;-;-;-;-;-;-;-;-;-;-;-;-;-
1514002839243;-;-;9.082901;-0.31344604;-1.9841156;-;-;-;-;-;-;-;-;-;-;-;-;-;-;-
1514002839263;-;-;9.064941;-0.2715454;-2.014038;-;-;-;-;-;-;-;-;-;-;-;-;-;-;-
1514002839283;-;-;9.045776;-0.30506897;-1.9625702;-;-;-;-;-;-;-;-;-;-;-;-;-;-;-
1514002839304;-;-;9.076904;-0.27275085;-1.9601746;-;-;-;-;-;-;-;-;-;-;-;-;-;-;-
1514002839325;-;-;9.076904;-0.32302856;-1.9601746;-;-;-;-;-;-;-;-;-;-;-;-;-;-;-
1514002839345;-;-;9.069733;-0.2859192;-1.9338379;-;-;-;-;-;-;-;-;-;-;-;-;-;-;-
1514002839366;-;-;9.067337;-0.28471375;-1.9170685;-;-;-;-;-;-;-;-;-;-;-;-;-;-;-
1514002839386;-;-;9.068527;-0.31105042;-1.9470062;-;-;-;-;-;-;-;-;-;-;-;-;-;-;-
1514002839406;-;-;9.069733;-0.29071045;-1.9362335;-;-;-;-;-;-;-;-;-;-;-;-;-;-;-
1514002839427;-;-;9.072113;-0.28471375;-1.8979187;-;-;-;-;-;-;-;-;-;-;-;-;-;-;-
1514002839447;-;-;9.064941;-0.2799225;-1.9410095;-;-;-;-;-;-;-;-;-;-;-;-;-;-;-
1514002839468;-;-;9.070923;-0.26316833;-1.9649506;-;-;-;-;-;-;-;-;-;-;-;-;-;-;-
1514002839489;-;-;9.075714;-0.30387878;-1.9494019;-;-;-;-;-;-;-;-;-;-;-;-;-;-;-
1514002839509;-;-;9.036209;-0.28112793;-1.9182739;-;-;-;-;-;-;-;-;-;-;-;-;-;-;-
1514002839529;-;-;9.082901;-0.30506897;-1.8775635;-;-;-;-;-;-;-;-;-;-;-;-;-;-;-
1514002839550;-;-;9.064941;-0.32901;-1.9075012;-;-;-;-;-;-;-;-;-;-;-;-;-;-;-
1514002839570;-;-;9.081696;-0.3146515;-1.9075012;-;-;-;-;-;-;-;-;-;-;-;-;-;-;-
1514002839590;-;-;9.064941;-0.23324585;-1.8751678;-;-;-;-;-;-;-;-;-;-;-;-;-;-;-
1514002839611;-;-;9.100845;-0.23085022;-1.8703918;-;-;-;-;-;-;-;-;-;-;-;-;-;-;-
1514002839632;-;-;9.084091;-0.25360107;-1.8260956;-;-;-;-;-;-;-;-;-;-;-;-;-;-;-
1514002839652;-;-;9.0793;-0.27633667;-1.8703918;-;-;-;-;-;-;-;-;-;-;-;-;-;-;-
1514002839673;-;-;9.104446;-0.2966919;-1.8955231;-;-;-;-;-;-;-;-;-;-;-;-;-;-;-
1514002839692;-;-;9.080505;-0.27394104;-1.8931274;-;-;-;-;-;-;-;-;-;-;-;-;-;-;-
1514002839713;-;-;9.067337;-0.2607727;-1.8955231;-;-;-;-;-;-;-;-;-;-;-;-;-;-;-
1514002839733;-;-;9.074509;-0.2571869;-1.8847504;-;-;-;-;-;-;-;-;-;-;-;-;-;-;-
1514002839753;-;-;9.044586;-0.28231812;-1.9075012;-;-;-;-;-;-;-;-;-;-;-;-;-;-;-
1514002839774;-;-;9.041;-0.26675415;-1.8991089;-;-;-;-;-;-;-;-;-;-;-;-;-;-;-
1514002839794;-;-;9.070923;-0.21409607;-1.8931274;-;-;-;-;-;-;-;-;-;-;-;-;-;-;-
1514002839815;-;-;9.118805;-0.23324585;-1.9458008;-;-;-;-;-;-;-;-;-;-;-;-;-;-;-
1514002839835;-;-;9.082901;-0.22964478;-1.9434052;-;-;-;-;-;-;-;-;-;-;-;-;-;-;-
1514002839855;-;-;9.0577545;-0.2775421;-1.950592;-;-;-;-;-;-;-;-;-;-;-;-;-;-;-
1514002839875;-;-;9.051773;-0.30267334;-1.9745331;-;-;-;-;-;-;-;-;-;-;-;-;-;-;-
1514002839896;-;-;9.069733;-0.31584167;-1.9326324;-;-;-;-;-;-;-;-;-;-;-;-;-;-;-
1514002839916;-;-;9.121201;-0.2775421;-1.9170685;-;-;-;-;-;-;-;-;-;-;-;-;-;-;-
1514002839937;-;-;9.104446;-0.2679596;-1.8703918;-;-;-;-;-;-;-;-;-;-;-;-;-;-;-
1514002839957;-;-;9.094864;-0.31704712;-1.8943329;-;-;-;-;-;-;-;-;-;-;-;-;-;-;-
1514002839978;-;-;9.069733;-0.2679596;-1.9075012;-;-;-;-;-;-;-;-;-;-;-;-;-;-;-
1514002839997;-;-;9.070923;-0.28112793;-1.8751678;-;-;-;-;-;-;-;-;-;-;-;-;-;-;-
1514002840018;-;-;9.068527;-0.28710938;-1.8847504;-;-;-;-;-;-;-;-;-;-;-;-;-;-;-
1514002840038;-;-;9.099655;-0.26914978;-1.8380585;-;-;-;-;-;-;-;-;-;-;-;-;-;-;-
1514002840058;-;-;9.082901;-0.29190063;-1.8679962;-;-;-;-;-;-;-;-;-;-;-;-;-;-;-
1514002840079;-;-;9.058945;-0.2272644;-1.8823547;-;-;-;-;-;-;-;-;-;-;-;-;-;-;-
1514002840100;-;-;9.096069;-0.26197815;-1.8500366;-;-;-;-;-;-;-;-;-;-;-;-;-;-;-
1514002840121;-;-;9.069733;-0.22007751;-1.9194641;-;-;-;-;-;-;-;-;-;-;-;-;-;-;-
1514002840141;-;-;9.074509;-0.25;-1.8811646;-;-;-;-;-;-;-;-;-;-;-;-;-;-;-
1514002840161;-;-;9.092468;-0.27394104;-1.8811646;-;-;-;-;-;-;-;-;-;-;-;-;-;-;-
1514002840182;-;-;9.076904;-0.30387878;-1.8237;-;-;-;-;-;-;-;-;-;-;-;-;-;-;-
1514002840203;-;-;9.054169;-0.3002777;-1.8596191;-;-;-;-;-;-;-;-;-;-;-;-;-;-;-
1514002840224;-;-;9.051773;-0.3086548;-1.8691864;-;-;-;-;-;-;-;-;-;-;-;-;-;-;-
1514002840244;-;-;9.046982;-0.26197815;-1.8979187;-;-;-;-;-;-;-;-;-;-;-;-;-;-;-
1514002840264;-;-;9.076904;-0.18894958;-1.9314423;-;-;-;-;-;-;-;-;-;-;-;-;-;-;-
1514002840285;-;-;9.102051;-0.23683167;-1.8835602;-;-;-;-;-;-;-;-;-;-;-;-;-;-;-
1514002840306;-;-;9.087677;-0.25;-1.8847504;-;-;-;-;-;-;-;-;-;-;-;-;-;-;-
1514002840326;-;-;9.049377;-0.30625916;-1.9158783;-;-;-;-;-;-;-;-;-;-;-;-;-;-;-
1514002840347;-;-;9.104446;-0.3086548;-1.90271;-;-;-;-;-;-;-;-;-;-;-;-;-;-;-
1514002840367;-;-;9.091278;-0.26914978;-1.8608093;-;-;-;-;-;-;-;-;-;-;-;-;-;-;-
1514002840388;-;-;9.06015;-0.35176086;-1.8979187;-;-;-;-;-;-;-;-;-;-;-;-;-;-;-
1514002840408;-;-;9.0793;-0.32661438;-1.887146;-;-;-;-;-;-;-;-;-;-;-;-;-;-;-
1514002840428;-;-;9.0793;-0.28231812;-1.8512268;-;-;-;-;-;-;-;-;-;-;-;-;-;-;-
1514002840449;-;-;9.030228;-0.2679596;-1.8572235;-;-;-;-;-;-;-;-;-;-;-;-;-;-;-
1514002840470;-;-;9.069733;-0.26914978;-1.8931274;-;-;-;-;-;-;-;-;-;-;-;-;-;-;-
1514002840490;-;-;9.088882;-0.2320404;-1.8727875;-;-;-;-;-;-;-;-;-;-;-;-;-;-;-
1514002840510;-;-;9.081696;-0.25837708;-1.887146;-;-;-;-;-;-;-;-;-;-;-;-;-;-;-
1514002840530;-;-;9.069733;-0.2715454;-1.8656006;-;-;-;-;-;-;-;-;-;-;-;-;-;-;-
1514002840551;-;-;9.055359;-0.28831482;-1.8895416;-;-;-;-;-;-;-;-;-;-;-;-;-;-;-
1514002840572;-;-;9.0972595;-0.29309082;-1.8727875;-;-;-;-;-;-;-;-;-;-;-;-;-;-;-
1514002840592;-;-;9.115219;-0.27394104;-1.8811646;-;-;-;-;-;-;-;-;-;-;-;-;-;-;-
1514002840613;-;-;9.076904;-0.24401855;-1.8727875;-;-;-;-;-;-;-;-;-;-;-;-;-;-;-
1514002840632;-;-;9.050568;-0.2392273;-1.8452454;-;-;-;-;-;-;-;-;-;-;-;-;-;-;-
1514002840652;-;-;9.076904;-0.2320404;-1.8572235;-;-;-;-;-;-;-;-;-;-;-;-;-;-;-
1514002840673;-;-;9.074509;-0.29548645;-1.887146;-;-;-;-;-;-;-;-;-;-;-;-;-;-;-
1514002840692;-;-;9.085281;-0.2787323;-1.8727875;-;-;-;-;-;-;-;-;-;-;-;-;-;-;-
1514002840712;-;-;9.070923;-0.3397827;-1.8260956;-;-;-;-;-;-;-;-;-;-;-;-;-;-;-
1514002840733;-;-;9.093674;-0.3002777;-1.8596191;-;-;-;-;-;-;-;-;-;-;-;-;-;-;-
1514002840753;-;-;9.055359;-0.2859192;-1.8500366;-;-;-;-;-;-;-;-;-;-;-;-;-;-;-
1514002840774;-;-;9.0577545;-0.28112793;-1.9098969;-;-;-;-;-;-;-;-;-;-;-;-;-;-;-
1514002840794;-;-;9.066132;-0.26437378;-1.9086914;-;-;-;-;-;-;-;-;-;-;-;-;-;-;-
1514002840815;-;-;9.093674;-0.29429626;-1.8727875;-;-;-;-;-;-;-;-;-;-;-;-;-;-;-
1514002840835;-;-;9.108032;-0.32421875;-1.8991089;-;-;-;-;-;-;-;-;-;-;-;-;-;-;-
1514002840856;-;-;9.062546;-0.3254242;-1.8584137;-;-;-;-;-;-;-;-;-;-;-;-;-;-;-
1514002840876;-;-;9.058945;-0.32781982;-1.8488312;-;-;-;-;-;-;-;-;-;-;-;-;-;-;-
1514002840897;-;-;9.036209;-0.30387878;-1.90271;-;-;-;-;-;-;-;-;-;-;-;-;-;-;-
1514002840918;-;-;9.074509;-0.30986023;-1.9709473;-;-;-;-;-;-;-;-;-;-;-;-;-;-;-
1514002840937;-;-;9.074509;-0.26675415;-1.9697418;-;-;-;-;-;-;-;-;-;-;-;-;-;-;-
1514002840957;-;-;9.058945;-0.19374084;-1.9314423;-;-;-;-;-;-;-;-;-;-;-;-;-;-;-
1514002840979;-;-;9.068527;-0.22007751;-1.9098969;-;-;-;-;-;-;-;-;-;-;-;-;-;-;-
1514002841000;-;-;9.067337;-0.3254242;-1.9577789;-;-;-;-;-;-;-;-;-;-;-;-;-;-;-
1514002841020;-;-;9.063736;-0.3361969;-1.9601746;-;-;-;-;-;-;-;-;-;-;-;-;-;-;-
1514002841041;-;-;9.064941;-0.29429626;-1.9745331;-;-;-;-;-;-;-;-;-;-;-;-;-;-;-
1514002841061;-;-;9.050568;-0.27275085;-1.9529877;-;-;-;-;-;-;-;-;-;-;-;-;-;-;-
1514002841082;-;-;9.052963;-0.289505;-1.9649506;-;-;-;-;-;-;-;-;-;-;-;-;-;-;-
1514002841102;-;-;9.037399;-0.29908752;-1.9841156;-;-;-;-;-;-;-;-;-;-;-;-;-;-;-
1514002841122;-;-;9.06134;-0.31704712;-1.9948883;-;-;-;-;-;-;-;-;-;-;-;-;-;-;-
1514002841143;-;-;9.031418;-0.29071045;-1.9972839;-;-;-;-;-;-;-;-;-;-;-;-;-;-;-
1514002841164;-;-;9.050568;-0.289505;-2.0092468;-;-;-;-;-;-;-;-;-;-;-;-;-;-;-
1514002841184;-;-;9.066132;-0.28471375;-1.9936829;-;-;-;-;-;-;-;-;-;-;-;-;-;-;-
1514002841205;-;-;9.067337;-0.32901;-1.9853058;-;-;-;-;-;-;-;-;-;-;-;-;-;-;-
1514002841226;-;-;9.0577545;-0.32182312;-2.0307922;-;-;-;-;-;-;-;-;-;-;-;-;-;-;-
1514002841246;-;-;9.036209;-0.36013794;-2.0188293;-;-;-;-;-;-;-;-;-;-;-;-;-;-;-
1514002841267;-;-;9.007477;-0.3086548;-1.9470062;-;-;-;-;-;-;-;-;-;-;-;-;-;-;-
1514002841288;-;-;9.069733;-0.25837708;-2.0391846;-;-;-;-;-;-;-;-;-;-;-;-;-;-;-
1514002841308;-;-;9.068527;-0.2571869;-2.0559387;-;-;-;-;-;-;-;-;-;-;-;-;-;-;-
1514002841329;-;-;9.023041;-0.27514648;-2.012848;-;-;-;-;-;-;-;-;-;-;-;-;-;-;-
1514002841349;-;-;9.030228;-0.2787323;-2.0152283;-;-;-;-;-;-;-;-;-;-;-;-;-;-;-
1514002841370;-;-;9.042191;-0.29071045;-2.0511475;-;-;-;-;-;-;-;-;-;-;-;-;-;-;-
1514002841390;-;-;9.056564;-0.28471375;-2.0260162;-;-;-;-;-;-;-;-;-;-;-;-;-;-;-
1514002841411;-;-;9.021835;-0.3002777;-2.0248108;-;-;-;-;-;-;-;-;-;-;-;-;-;-;-
1514002841432;-;-;9.033813;-0.31105042;-2.0331879;-;-;-;-;-;-;-;-;-;-;-;-;-;-;-
1514002841451;-;-;9.008667;-0.30387878;-2.0786743;-;-;-;-;-;-;-;-;-;-;-;-;-;-;-
1514002841471;-;-;9.055359;-0.33499146;-2.0439606;-;-;-;-;-;-;-;-;-;-;-;-;-;-;-
1514002841492;-;-;9.054169;-0.29788208;-2.0487518;-;-;-;-;-;-;-;-;-;-;-;-;-;-;-
1514002841513;-;-;9.062546;-0.3002777;-2.0379791;-;-;-;-;-;-;-;-;-;-;-;-;-;-;-
1514002841533;-;-;9.064941;-0.2775421;-2.029602;-;-;-;-;-;-;-;-;-;-;-;-;-;-;-
1514002841553;-;-;9.045776;-0.29071045;-2.0116425;-;-;-;-;-;-;-;-;-;-;-;-;-;-;-
1514002841574;-;-;9.029022;-0.2799225;-2.0343933;-;-;-;-;-;-;-;-;-;-;-;-;-;-;-
1514002841594;-;-;9.042191;-0.31584167;-2.0750885;-;-;-;-;-;-;-;-;-;-;-;-;-;-;-
1514002841615;-;-;9.039795;-0.3074646;-2.0331879;-;-;-;-;-;-;-;-;-;-;-;-;-;-;-
1514002841636;-;-;9.014664;-0.23324585;-2.0092468;-;-;-;-;-;-;-;-;-;-;-;-;-;-;-
1514002841657;-;-;9.062546;-0.25120544;-2.0152283;-;-;-;-;-;-;-;-;-;-;-;-;-;-;-
1514002841677;-;-;9.068527;-0.27275085;-1.9865112;-;-;-;-;-;-;-;-;-;-;-;-;-;-;-
1514002841697;-;-;9.050568;-0.31344604;-2.0439606;-;-;-;-;-;-;-;-;-;-;-;-;-;-;-
1514002841718;-;-;9.029022;-0.3194275;-2.0487518;-;-;-;-;-;-;-;-;-;-;-;-;-;-;-
1514002841737;-;-;9.042191;-0.29309082;-2.057129;-;-;-;-;-;-;-;-;-;-;-;-;-;-;-
1514002841758;-;-;9.043396;-0.27633667;-2.0559387;-;-;-;-;-;-;-;-;-;-;-;-;-;-;-
1514002841778;-;-;9.044586;-0.29071045;-2.0152283;-;-;-;-;-;-;-;-;-;-;-;-;-;-;-
1514002841798;-;-;9.052963;-0.289505;-2.0236206;-;-;-;-;-;-;-;-;-;-;-;-;-;-;-
1514002841819;-;-;9.012268;-0.24520874;-2.0343933;-;-;-;-;-;-;-;-;-;-;-;-;-;-;-
1514002841839;-;-;9.029022;-0.27275085;-2.0667114;-;-;-;-;-;-;-;-;-;-;-;-;-;-;-
1514002841860;-;-;9.049377;-0.27035522;-2.0307922;-;-;-;-;-;-;-;-;-;-;-;-;-;-;-
1514002841881;-;-;9.062546;-0.29908752;-1.9996796;-;-;-;-;-;-;-;-;-;-;-;-;-;-;-
1514002841902;-;-;9.037399;-0.2679596;-2.0236206;-;-;-;-;-;-;-;-;-;-;-;-;-;-;-
1514002841922;-;-;9.06015;-0.28471375;-1.9877014;-;-;-;-;-;-;-;-;-;-;-;-;-;-;-
1514002841943;-;-;9.045776;-0.26556396;-2.0008698;-;-;-;-;-;-;-;-;-;-;-;-;-;-;-
1514002841963;-;-;9.031418;-0.28710938;-2.0152283;-;-;-;-;-;-;-;-;-;-;-;-;-;-;-
1514002841984;-;-;9.0577545;-0.29309082;-1.9924927;-;-;-;-;-;-;-;-;-;-;-;-;-;-;-
1514002842005;-;-;9.026627;-0.2571869;-1.9841156;-;-;-;-;-;-;-;-;-;-;-;-;-;-;-
1514002842025;-;-;9.082901;-0.25;-1.9888916;-;-;-;-;-;-;-;-;-;-;-;-;-;-;-
1514002842045;-;-;9.058945;-0.24520874;-2.0080566;-;-;-;-;-;-;-;-;-;-;-;-;-;-;-
1514002842066;-;-;9.070923;-0.2715454;-1.9709473;-;-;-;-;-;-;-;-;-;-;-;-;-;-;-
1514002842087;-;-;9.072113;-0.2799225;-1.9338379;-;-;-;-;-;-;-;-;-;-;-;-;-;-;-
1514002842107;-;-;9.06134;-0.28710938;-1.9637604;-;-;-;-;-;-;-;-;-;-;-;-;-;-;-
1514002842128;-;-;9.064941;-0.2607727;-1.9458008;-;-;-;-;-;-;-;-;-;-;-;-;-;-;-
1514002842148;-;-;9.064941;-0.24162292;-1.9039001;-;-;-;-;-;-;-;-;-;-;-;-;-;-;-
1514002842168;-;-;9.0577545;-0.2392273;-1.9805145;-;-;-;-;-;-;-;-;-;-;-;-;-;-;-
1514002842189;-;-;9.093674;-0.22605896;-1.9865112;-;-;-;-;-;-;-;-;-;-;-;-;-;-;-
1514002842209;-;-;9.117615;-0.26437378;-1.9326324;-;-;-;-;-;-;-;-;-;-;-;-;-;-;-
1514002842230;-;-;9.055359;-0.3146515;-1.9194641;-;-;-;-;-;-;-;-;-;-;-;-;-;-;-
1514002842249;-;-;9.046982;-0.27394104;-1.8428497;-;-;-;-;-;-;-;-;-;-;-;-;-;-;-
1514002842270;-;-;9.029022;-0.3074646;-1.8955231;-;-;-;-;-;-;-;-;-;-;-;-;-;-;-
1514002842290;-;-;9.038605;-0.30506897;-1.9218597;-;-;-;-;-;-;-;-;-;-;-;-;-;-;-
1514002842310;-;-;9.037399;-0.2715454;-1.9170685;-;-;-;-;-;-;-;-;-;-;-;-;-;-;-
1514002842331;-;-;9.056564;-0.1877594;-1.8859406;-;-;-;-;-;-;-;-;-;-;-;-;-;-;-
1514002842351;-;-;9.0733185;-0.22366333;-1.8093262;-;-;-;-;-;-;-;-;-;-;-;-;-;-;-
1514002842372;-;-;9.072113;-0.31225586;-1.8691864;-;-;-;-;-;-;-;-;-;-;-;-;-;-;-
1514002842392;-;-;9.07811;-0.33140564;-1.9733429;-;-;-;-;-;-;-;-;-;-;-;-;-;-;-
1514002842413;-;-;9.085281;-0.32901;-1.966156;-;-;-;-;-;-;-;-;-;-;-;-;-;-;-
1514002842433;-;-;9.082901;-0.25598145;-1.9553833;-;-;-;-;-;-;-;-;-;-;-;-;-;-;-
1514002842453;-;-;9.052963;-0.29548645;-1.9517822;-;-;-;-;-;-;-;-;-;-;-;-;-;-;-
1514002842474;-;-;9.052963;-0.26556396;-1.9410095;-;-;-;-;-;-;-;-;-;-;-;-;-;-;-
1514002842494;-;-;9.062546;-0.25837708;-1.9577789;-;-;-;-;-;-;-;-;-;-;-;-;-;-;-
1514002842515;-;-;9.06015;-0.24401855;-1.9829102;-;-;-;-;-;-;-;-;-;-;-;-;-;-;-
1514002842535;-;-;9.032608;-0.22247314;-2.00206;-;-;-;-;-;-;-;-;-;-;-;-;-;-;-
1514002842556;-;-;9.049377;-0.19374084;-1.9936829;-;-;-;-;-;-;-;-;-;-;-;-;-;-;-
1514002842576;-;-;9.066132;-0.2272644;-1.9494019;-;-;-;-;-;-;-;-;-;-;-;-;-;-;-
1514002842596;-;-;9.0733185;-0.28471375;-1.9709473;-;-;-;-;-;-;-;-;-;-;-;-;-;-;-
1514002842617;-;-;9.090073;-0.28710938;-1.9338379;-;-;-;-;-;-;-;-;-;-;-;-;-;-;-
1514002842638;-;-;9.067337;-0.28710938;-1.9494019;-;-;-;-;-;-;-;-;-;-;-;-;-;-;-
1514002842658;-;-;9.046982;-0.26197815;-1.9374237;-;-;-;-;-;-;-;-;-;-;-;-;-;-;-
1514002842679;-;-;9.039795;-0.25837708;-1.9075012;-;-;-;-;-;-;-;-;-;-;-;-;-;-;-
1514002842698;-;-;9.0577545;-0.28231812;-1.9146729;-;-;-;-;-;-;-;-;-;-;-;-;-;-;-
