TimeStamp[ms];Prox[Cm];Lux[lux];AccX[m/s^2];AccY[m/s^2];AccZ[m/s^2];GyroX[rad/s];GyroY[rad/s];GyroZ[rad/s];MagnX[uT];MagnY[uT];MagnZ[uT];OrienYaw[degrees];OrienPitch[degrees];OrienRoll[degrees];Press[Pa];Temp[C°];Batt[%];Lat;Lng;Speed[m/s]
1514004012638;-;-;8.903336;-2.2276154;2.244049;-;-;-;-;-;-;-;-;-;-;-;-;-;-;-
1514004012639;-;-;8.534622;-2.3102112;1.8214722;-;-;-;-;-;-;-;-;-;-;-;-;-;-;-
1514004012652;-;-;8.661514;-2.5460358;1.844223;-;-;-;-;-;-;-;-;-;-;-;-;-;-;-
1514004012671;-;-;8.929672;-2.040863;1.0960236;-;-;-;-;-;-;-;-;-;-;-;-;-;-;-
1514004012692;-;-;8.704605;-2.6166687;1.8729553;-;-;-;-;-;-;-;-;-;-;-;-;-;-;-
1514004012712;-;-;8.608841;-2.638214;1.5305786;-;-;-;-;-;-;-;-;-;-;-;-;-;-;-
1514004012732;-;-;9.542587;-1.7667236;0.26882935;-;-;-;-;-;-;-;-;-;-;-;-;-;-;-
1514004012753;-;-;8.797989;-1.530899;1.0912476;-;-;-;-;-;-;-;-;-;-;-;-;-;-;-
1514004012773;-;-;8.490326;-0.9467163;2.026184;-;-;-;-;-;-;-;-;-;-;-;-;-;-;-
1514004012793;-;-;8.396957;-0.838974;0.19940186;-;-;-;-;-;-;-;-;-;-;-;-;-;-;-
1514004012814;-;-;8.118027;-2.119873;-0.35125732;-;-;-;-;-;-;-;-;-;-;-;-;-;-;-
1514004012833;-;-;9.884949;-2.427536;0.6782379;-;-;-;-;-;-;-;-;-;-;-;-;-;-;-
1514004012854;-;-;9.33429;-2.7986298;1.2061615;-;-;-;-;-;-;-;-;-;-;-;-;-;-;-
1514004012888;-;-;10.087265;-1.9666443;1.3366547;-;-;-;-;-;-;-;-;-;-;-;-;-;-;-
1514004012895;-;-;9.13916;-1.8553162;1.1882019;-;-;-;-;-;-;-;-;-;-;-;-;-;-;-
1514004012915;-;-;8.893753;-1.6518097;0.09764099;-;-;-;-;-;-;-;-;-;-;-;-;-;-;-
1514004012936;-;-;8.195847;-1.5572357;0.5058594;-;-;-;-;-;-;-;-;-;-;-;-;-;-;-
1514004012956;-;-;11.398087;-1.7344055;1.1139832;-;-;-;-;-;-;-;-;-;-;-;-;-;-;-
1514004012978;-;-;9.301956;-2.245575;1.8346405;-;-;-;-;-;-;-;-;-;-;-;-;-;-;-
1514004013002;-;-;8.633987;-1.6134949;-0.4159088;-;-;-;-;-;-;-;-;-;-;-;-;-;-;-
1514004013021;-;-;8.7213745;-1.6913147;0.17785645;-;-;-;-;-;-;-;-;-;-;-;-;-;-;-
1514004013041;-;-;8.401749;-1.1741638;0.92485046;-;-;-;-;-;-;-;-;-;-;-;-;-;-;-
1514004013062;-;-;9.094864;-1.3657074;1.6694489;-;-;-;-;-;-;-;-;-;-;-;-;-;-;-
1514004013082;-;-;8.298798;-1.0245209;0.2843933;-;-;-;-;-;-;-;-;-;-;-;-;-;-;-
1514004013103;-;-;9.3498535;-0.55526733;1.1343384;-;-;-;-;-;-;-;-;-;-;-;-;-;-;-
1514004013123;-;-;9.461182;-0.38287354;1.0720825;-;-;-;-;-;-;-;-;-;-;-;-;-;-;-
1514004013144;-;-;8.367035;-0.40802002;1.1451111;-;-;-;-;-;-;-;-;-;-;-;-;-;-;-
1514004013164;-;-;9.41449;-0.86531067;1.6000061;-;-;-;-;-;-;-;-;-;-;-;-;-;-;-
1514004013185;-;-;8.774048;-1.2531738;1.0684967;-;-;-;-;-;-;-;-;-;-;-;-;-;-;-
1514004013205;-;-;8.201828;-0.7982788;1.1451111;-;-;-;-;-;-;-;-;-;-;-;-;-;-;-
1514004013225;-;-;9.866989;-0.6354675;0.8266754;-;-;-;-;-;-;-;-;-;-;-;-;-;-;-
1514004013246;-;-;8.866211;-0.6713867;1.1666565;-;-;-;-;-;-;-;-;-;-;-;-;-;-;-
1514004013265;-;-;8.626801;-0.6103363;0.96435547;-;-;-;-;-;-;-;-;-;-;-;-;-;-;-
1514004013286;-;-;8.843475;-1.4016113;1.3282623;-;-;-;-;-;-;-;-;-;-;-;-;-;-;-
1514004013305;-;-;8.92009;-1.2711334;2.0752563;-;-;-;-;-;-;-;-;-;-;-;-;-;-;-
1514004013326;-;-;7.593704;-1.7308197;2.8701324;-;-;-;-;-;-;-;-;-;-;-;-;-;-;-
1514004013346;-;-;7.7409363;-1.7930603;2.8306274;-;-;-;-;-;-;-;-;-;-;-;-;-;-;-
1514004013366;-;-;9.902908;-1.0400848;1.6790161;-;-;-;-;-;-;-;-;-;-;-;-;-;-;-
1514004013387;-;-;10.429626;-1.0939636;1.3917084;-;-;-;-;-;-;-;-;-;-;-;-;-;-;-
1514004013407;-;-;10.161484;-0.3182373;1.9387817;-;-;-;-;-;-;-;-;-;-;-;-;-;-;-
1514004013428;-;-;9.147537;-0.064453125;1.9387817;-;-;-;-;-;-;-;-;-;-;-;-;-;-;-
1514004013448;-;-;7.3782196;0.4012146;1.9902649;-;-;-;-;-;-;-;-;-;-;-;-;-;-;-
1514004013469;-;-;7.2788696;-0.22007751;1.5030518;-;-;-;-;-;-;-;-;-;-;-;-;-;-;-
1514004013490;-;-;6.9795837;-0.20930481;0.46276855;-;-;-;-;-;-;-;-;-;-;-;-;-;-;-
1514004013510;-;-;9.155914;-0.35295105;-0.26626587;-;-;-;-;-;-;-;-;-;-;-;-;-;-;-
1514004013531;-;-;11.2161255;0.1797638;-1.2550812;-;-;-;-;-;-;-;-;-;-;-;-;-;-;-
1514004013551;-;-;11.546524;0.5879669;-2.5646973;-;-;-;-;-;-;-;-;-;-;-;-;-;-;-
1514004013572;-;-;11.258026;0.6861267;-0.6768799;-;-;-;-;-;-;-;-;-;-;-;-;-;-;-
1514004013592;-;-;11.70694;-0.8928528;-2.562317;-;-;-;-;-;-;-;-;-;-;-;-;-;-;-
1514004013612;-;-;11.909256;-1.7308197;-5.563446;-;-;-;-;-;-;-;-;-;-;-;-;-;-;-
1514004013633;-;-;9.623978;-1.9247437;0.6483154;-;-;-;-;-;-;-;-;-;-;-;-;-;-;-
1514004013653;-;-;6.838333;-2.5855408;-0.74272156;-;-;-;-;-;-;-;-;-;-;-;-;-;-;-
1514004013674;-;-;8.630386;-3.2367706;-0.3955536;-;-;-;-;-;-;-;-;-;-;-;-;-;-;-
1514004013694;-;-;8.9787445;-2.7567291;-1.5363922;-;-;-;-;-;-;-;-;-;-;-;-;-;-;-
1514004013715;-;-;10.076492;-1.7236328;-2.1469116;-;-;-;-;-;-;-;-;-;-;-;-;-;-;-
1514004013735;-;-;9.45639;-1.2400055;-2.0343933;-;-;-;-;-;-;-;-;-;-;-;-;-;-;-
1514004013756;-;-;8.317947;-0.27514648;-1.634552;-;-;-;-;-;-;-;-;-;-;-;-;-;-;-
1514004013776;-;-;7.2321777;-0.8868561;-1.3005676;-;-;-;-;-;-;-;-;-;-;-;-;-;-;-
1514004013796;-;-;7.766083;-1.9055939;-1.8512268;-;-;-;-;-;-;-;-;-;-;-;-;-;-;-
1514004013816;-;-;9.577301;-3.297821;-1.48732;-;-;-;-;-;-;-;-;-;-;-;-;-;-;-
1514004013836;-;-;10.551743;-3.5803375;-1.7111664;-;-;-;-;-;-;-;-;-;-;-;-;-;-;-
1514004013857;-;-;8.10965;-2.4071808;-2.0283966;-;-;-;-;-;-;-;-;-;-;-;-;-;-;-
1514004013877;-;-;7.473984;-1.269928;-1.9350281;-;-;-;-;-;-;-;-;-;-;-;-;-;-;-
1514004013897;-;-;8.179077;-0.3864746;-1.9529877;-;-;-;-;-;-;-;-;-;-;-;-;-;-;-
1514004013918;-;-;8.98114;0.12948608;-1.9565735;-;-;-;-;-;-;-;-;-;-;-;-;-;-;-
1514004013938;-;-;9.639542;0.09475708;-1.6596985;-;-;-;-;-;-;-;-;-;-;-;-;-;-;-
1514004013959;-;-;9.98671;-0.30506897;-1.3364716;-;-;-;-;-;-;-;-;-;-;-;-;-;-;-
1514004013979;-;-;9.5737;-1.0269165;-1.4466095;-;-;-;-;-;-;-;-;-;-;-;-;-;-;-
1514004013999;-;-;8.88298;-1.5799866;-1.1688843;-;-;-;-;-;-;-;-;-;-;-;-;-;-;-
1514004014020;-;-;8.352661;-1.9642487;-0.9366455;-;-;-;-;-;-;-;-;-;-;-;-;-;-;-
1514004014041;-;-;8.244919;-1.9331207;-0.7630615;-;-;-;-;-;-;-;-;-;-;-;-;-;-;-
1514004014062;-;-;8.277252;-1.5524445;-0.5823059;-;-;-;-;-;-;-;-;-;-;-;-;-;-;-
1514004014081;-;-;8.047409;-1.3046417;-0.88397217;-;-;-;-;-;-;-;-;-;-;-;-;-;-;-
1514004014101;-;-;7.671509;-1.3525391;-0.91389465;-;-;-;-;-;-;-;-;-;-;-;-;-;-;-
1514004014122;-;-;7.193863;-1.7415924;-0.88157654;-;-;-;-;-;-;-;-;-;-;-;-;-;-;-
1514004014142;-;-;6.6587677;-2.2096558;-0.82292175;-;-;-;-;-;-;-;-;-;-;-;-;-;-;-
1514004014163;-;-;6.454056;-2.4813995;-0.7558899;-;-;-;-;-;-;-;-;-;-;-;-;-;-;-
1514004014183;-;-;6.3858185;-2.6513824;-0.26148987;-;-;-;-;-;-;-;-;-;-;-;-;-;-;-
1514004014204;-;-;6.8479004;-2.3975983;0.6064148;-;-;-;-;-;-;-;-;-;-;-;-;-;-;-
1514004014224;-;-;7.4057617;-2.1773376;0.63035583;-;-;-;-;-;-;-;-;-;-;-;-;-;-;-
1514004014244;-;-;8.004303;-2.0145264;-0.025650024;-;-;-;-;-;-;-;-;-;-;-;-;-;-;-
1514004014265;-;-;8.036621;-1.6913147;-0.614624;-;-;-;-;-;-;-;-;-;-;-;-;-;-;-
1514004014284;-;-;8.26767;-1.5656128;-0.41830444;-;-;-;-;-;-;-;-;-;-;-;-;-;-;-
1514004014305;-;-;8.924881;-1.5632172;0.13835144;-;-;-;-;-;-;-;-;-;-;-;-;-;-;-
1514004014325;-;-;9.382172;-2.0073395;0.25805664;-;-;-;-;-;-;-;-;-;-;-;-;-;-;-
1514004014345;-;-;9.054169;-2.3425293;-0.6253967;-;-;-;-;-;-;-;-;-;-;-;-;-;-;-
1514004014366;-;-;7.6655273;-2.0181274;-1.7985535;-;-;-;-;-;-;-;-;-;-;-;-;-;-;-
1514004014386;-;-;7.094513;-1.1262817;-4.930176;-;-;-;-;-;-;-;-;-;-;-;-;-;-;-
1514004014406;-;-;9.020645;-0.05368042;-4.8667297;-;-;-;-;-;-;-;-;-;-;-;-;-;-;-
1514004014427;-;-;12.568848;1.8892212;-2.2486725;-;-;-;-;-;-;-;-;-;-;-;-;-;-;-
1514004014447;-;-;14.2795105;3.244339;-2.4222565;-;-;-;-;-;-;-;-;-;-;-;-;-;-;-
1514004014468;-;-;13.471466;0.793869;-1.5088654;-;-;-;-;-;-;-;-;-;-;-;-;-;-;-
1514004014489;-;-;12.83461;-1.6230774;-1.9230652;-;-;-;-;-;-;-;-;-;-;-;-;-;-;-
1514004014509;-;-;14.217255;0.5819855;-4.9684753;-;-;-;-;-;-;-;-;-;-;-;-;-;-;-
1514004014529;-;-;14.7499695;2.1202545;-2.108612;-;-;-;-;-;-;-;-;-;-;-;-;-;-;-
1514004014550;-;-;15.039673;1.6737366;-1.6010437;-;-;-;-;-;-;-;-;-;-;-;-;-;-;-
1514004014570;-;-;13.200928;-0.22247314;-3.381134;-;-;-;-;-;-;-;-;-;-;-;-;-;-;-
1514004014591;-;-;10.995865;-1.5404816;-4.3687286;-;-;-;-;-;-;-;-;-;-;-;-;-;-;-
1514004014612;-;-;7.621231;-1.6697693;-3.2243042;-;-;-;-;-;-;-;-;-;-;-;-;-;-;-
1514004014632;-;-;5.240204;-1.0867767;-1.0240326;-;-;-;-;-;-;-;-;-;-;-;-;-;-;-
1514004014652;-;-;1.9385986;-0.33021545;1.2887573;-;-;-;-;-;-;-;-;-;-;-;-;-;-;-
1514004014673;-;-;0.07710266;-0.05128479;1.6873932;-;-;-;-;-;-;-;-;-;-;-;-;-;-;-
1514004014693;-;-;1.896698;-0.23324585;1.5688782;-;-;-;-;-;-;-;-;-;-;-;-;-;-;-
1514004014713;-;-;4.3699036;-0.54689026;1.370163;-;-;-;-;-;-;-;-;-;-;-;-;-;-;-
1514004014734;-;-;6.473221;-0.33859253;0.26643372;-;-;-;-;-;-;-;-;-;-;-;-;-;-;-
1514004014754;-;-;7.4332886;-0.14704895;-0.50808716;-;-;-;-;-;-;-;-;-;-;-;-;-;-;-
1514004014774;-;-;8.944031;-0.047698975;-1.0527649;-;-;-;-;-;-;-;-;-;-;-;-;-;-;-
1514004014795;-;-;9.620392;0.27671814;-1.5962524;-;-;-;-;-;-;-;-;-;-;-;-;-;-;-
1514004014815;-;-;8.6651;0.62628174;-1.5914612;-;-;-;-;-;-;-;-;-;-;-;-;-;-;-
1514004014836;-;-;6.9975433;1.2368011;-1.2993622;-;-;-;-;-;-;-;-;-;-;-;-;-;-;-
1514004014856;-;-;6.624054;2.3309479;-1.0024872;-;-;-;-;-;-;-;-;-;-;-;-;-;-;-
1514004014877;-;-;6.795227;1.8880157;-0.1669159;-;-;-;-;-;-;-;-;-;-;-;-;-;-;-
1514004014897;-;-;7.869034;0.3138275;-3.741455;-;-;-;-;-;-;-;-;-;-;-;-;-;-;-
1514004014917;-;-;8.618423;-0.18415833;-6.1859283;-;-;-;-;-;-;-;-;-;-;-;-;-;-;-
1514004014938;-;-;8.264084;-2.0336761;-8.314377;-;-;-;-;-;-;-;-;-;-;-;-;-;-;-
1514004014959;-;-;10.971924;-4.9905243;-6.808426;-;-;-;-;-;-;-;-;-;-;-;-;-;-;-
1514004014979;-;-;16.938263;-8.611755;-5.8938446;-;-;-;-;-;-;-;-;-;-;-;-;-;-;-
1514004014998;-;-;28.851822;-9.379089;-2.0619202;-;-;-;-;-;-;-;-;-;-;-;-;-;-;-
1514004015018;-;-;24.627243;-4.563156;-0.75349426;-;-;-;-;-;-;-;-;-;-;-;-;-;-;-
1514004015039;-;-;12.921997;-0.29190063;-0.64216614;-;-;-;-;-;-;-;-;-;-;-;-;-;-;-
1514004015060;-;-;8.575317;-0.7815094;0.8805542;-;-;-;-;-;-;-;-;-;-;-;-;-;-;-
1514004015080;-;-;5.9381104;-1.1849365;1.0206146;-;-;-;-;-;-;-;-;-;-;-;-;-;-;-
1514004015101;-;-;5.289276;-1.9115753;-1.3580322;-;-;-;-;-;-;-;-;-;-;-;-;-;-;-
1514004015120;-;-;4.5159607;-2.2312012;-2.97052;-;-;-;-;-;-;-;-;-;-;-;-;-;-;-
1514004015141;-;-;5.6531982;-1.5440674;-2.515625;-;-;-;-;-;-;-;-;-;-;-;-;-;-;-
1514004015162;-;-;7.542221;-0.94911194;-1.9721375;-;-;-;-;-;-;-;-;-;-;-;-;-;-;-
1514004015182;-;-;7.485962;-0.91319275;-1.590271;-;-;-;-;-;-;-;-;-;-;-;-;-;-;-
1514004015202;-;-;7.1399994;-1.6553955;-1.1054382;-;-;-;-;-;-;-;-;-;-;-;-;-;-;-
1514004015223;-;-;7.284851;-2.4251404;-0.7199707;-;-;-;-;-;-;-;-;-;-;-;-;-;-;-
1514004015243;-;-;6.778473;-2.7387695;-0.9438324;-;-;-;-;-;-;-;-;-;-;-;-;-;-;-
1514004015264;-;-;6.791641;-3.1350098;-1.6860352;-;-;-;-;-;-;-;-;-;-;-;-;-;-;-
1514004015284;-;-;6.673126;-3.1900787;-2.1540985;-;-;-;-;-;-;-;-;-;-;-;-;-;-;-
1514004015305;-;-;6.1691437;-2.5053406;-1.6848297;-;-;-;-;-;-;-;-;-;-;-;-;-;-;-
1514004015325;-;-;5.521515;-1.4902039;-0.37161255;-;-;-;-;-;-;-;-;-;-;-;-;-;-;-
1514004015346;-;-;5.739395;-1.0484619;0.47354126;-;-;-;-;-;-;-;-;-;-;-;-;-;-;-
1514004015366;-;-;6.941284;-1.4411163;0.10722351;-;-;-;-;-;-;-;-;-;-;-;-;-;-;-
1514004015387;-;-;8.061768;-2.0588226;-1.3544312;-;-;-;-;-;-;-;-;-;-;-;-;-;-;-
1514004015407;-;-;9.069733;-2.447876;-2.6054077;-;-;-;-;-;-;-;-;-;-;-;-;-;-;-
1514004015428;-;-;9.366608;-2.2587433;-2.8256683;-;-;-;-;-;-;-;-;-;-;-;-;-;-;-
1514004015449;-;-;8.874603;-1.230423;-1.579483;-;-;-;-;-;-;-;-;-;-;-;-;-;-;-
1514004015469;-;-;8.519058;-0.9036255;-1.0898743;-;-;-;-;-;-;-;-;-;-;-;-;-;-;-
1514004015489;-;-;7.7684784;-0.93115234;-2.5371704;-;-;-;-;-;-;-;-;-;-;-;-;-;-;-
1514004015510;-;-;8.7213745;-0.08001709;-5.0319366;-;-;-;-;-;-;-;-;-;-;-;-;-;-;-
1514004015530;-;-;10.940796;1.8437195;-3.8695374;-;-;-;-;-;-;-;-;-;-;-;-;-;-;-
1514004015551;-;-;13.520554;3.8764038;-1.4238739;-;-;-;-;-;-;-;-;-;-;-;-;-;-;-
1514004015572;-;-;16.806595;1.4654388;-2.3216858;-;-;-;-;-;-;-;-;-;-;-;-;-;-;-
1514004015592;-;-;17.24472;-3.0619965;-2.7358856;-;-;-;-;-;-;-;-;-;-;-;-;-;-;-
1514004015612;-;-;17.514069;-1.7475739;-5.832794;-;-;-;-;-;-;-;-;-;-;-;-;-;-;-
1514004015632;-;-;14.321411;1.5516357;-3.4601288;-;-;-;-;-;-;-;-;-;-;-;-;-;-;-
1514004015653;-;-;10.687012;2.6804962;-2.9082794;-;-;-;-;-;-;-;-;-;-;-;-;-;-;-
1514004015673;-;-;8.206619;2.1406097;-2.365982;-;-;-;-;-;-;-;-;-;-;-;-;-;-;-
1514004015694;-;-;6.7796783;1.2320099;-2.4557648;-;-;-;-;-;-;-;-;-;-;-;-;-;-;-
1514004015714;-;-;5.150421;0.57958984;-2.1768494;-;-;-;-;-;-;-;-;-;-;-;-;-;-;-
1514004015733;-;-;4.209503;-0.21768188;-1.7674408;-;-;-;-;-;-;-;-;-;-;-;-;-;-;-
1514004015753;-;-;4.003601;-1.1190948;-0.77983093;-;-;-;-;-;-;-;-;-;-;-;-;-;-;-
1514004015774;-;-;4.5782013;-1.8313751;-0.030441284;-;-;-;-;-;-;-;-;-;-;-;-;-;-;-
1514004015793;-;-;7.4811707;-1.3190155;-0.04121399;-;-;-;-;-;-;-;-;-;-;-;-;-;-;-
1514004015813;-;-;6.941284;-0.20930481;-0.92108154;-;-;-;-;-;-;-;-;-;-;-;-;-;-;-
1514004015833;-;-;5.695099;0.49339294;-0.8767853;-;-;-;-;-;-;-;-;-;-;-;-;-;-;-
1514004015854;-;-;4.581787;0.26115417;-0.9258728;-;-;-;-;-;-;-;-;-;-;-;-;-;-;-
1514004015874;-;-;5.312027;-0.20211792;-0.7965851;-;-;-;-;-;-;-;-;-;-;-;-;-;-;-
1514004015895;-;-;7.1411896;-0.3146515;-0.6325836;-;-;-;-;-;-;-;-;-;-;-;-;-;-;-
1514004015916;-;-;7.3303375;-0.210495;-0.6601105;-;-;-;-;-;-;-;-;-;-;-;-;-;-;-
1514004015936;-;-;7.5625763;0.17018127;-0.7307434;-;-;-;-;-;-;-;-;-;-;-;-;-;-;-
1514004015956;-;-;8.490326;0.34376526;-1.2526855;-;-;-;-;-;-;-;-;-;-;-;-;-;-;-
1514004015976;-;-;9.092468;0.46347046;-1.7566681;-;-;-;-;-;-;-;-;-;-;-;-;-;-;-
1514004015997;-;-;7.9671936;0.5771942;-3.0603027;-;-;-;-;-;-;-;-;-;-;-;-;-;-;-
1514004016018;-;-;6.715027;0.11152649;-5.7908936;-;-;-;-;-;-;-;-;-;-;-;-;-;-;-
1514004016038;-;-;7.502716;-0.9646759;-6.5091553;-;-;-;-;-;-;-;-;-;-;-;-;-;-;-
1514004016059;-;-;10.301544;-4.547592;-3.7618103;-;-;-;-;-;-;-;-;-;-;-;-;-;-;-
1514004016079;-;-;17.492523;-7.6002045;-4.7111053;-;-;-;-;-;-;-;-;-;-;-;-;-;-;-
1514004016100;-;-;26.736542;-5.8883514;-2.2953491;-;-;-;-;-;-;-;-;-;-;-;-;-;-;-
1514004016120;-;-;21.501617;-3.8856049;-1.9924927;-;-;-;-;-;-;-;-;-;-;-;-;-;-;-
1514004016141;-;-;16.344513;-2.5843506;-3.448166;-;-;-;-;-;-;-;-;-;-;-;-;-;-;-
1514004016162;-;-;15.772293;-3.5970917;-0.50090027;-;-;-;-;-;-;-;-;-;-;-;-;-;-;-
1514004016182;-;-;8.844666;-2.2276154;-0.5224457;-;-;-;-;-;-;-;-;-;-;-;-;-;-;-
1514004016203;-;-;4.975647;-0.85214233;-1.6992035;-;-;-;-;-;-;-;-;-;-;-;-;-;-;-
1514004016223;-;-;4.8367767;-0.7480011;-3.120163;-;-;-;-;-;-;-;-;-;-;-;-;-;-;-
1514004016243;-;-;5.4808197;-0.08480835;-2.7299042;-;-;-;-;-;-;-;-;-;-;-;-;-;-;-
1514004016264;-;-;5.4652557;0.38206482;-2.6125946;-;-;-;-;-;-;-;-;-;-;-;-;-;-;-
1514004016284;-;-;5.4640503;0.14982605;-2.642517;-;-;-;-;-;-;-;-;-;-;-;-;-;-;-
1514004016305;-;-;5.4089966;-0.74560547;-1.1916351;-;-;-;-;-;-;-;-;-;-;-;-;-;-;-
1514004016325;-;-;4.985214;-2.7507477;-1.1904297;-;-;-;-;-;-;-;-;-;-;-;-;-;-;-
1514004016345;-;-;4.55307;-3.0871277;-1.0755157;-;-;-;-;-;-;-;-;-;-;-;-;-;-;-
1514004016366;-;-;4.8475494;-2.7591248;-1.1892395;-;-;-;-;-;-;-;-;-;-;-;-;-;-;-
1514004016386;-;-;5.5717926;-2.0348816;-0.8289032;-;-;-;-;-;-;-;-;-;-;-;-;-;-;-
1514004016407;-;-;6.561798;-1.7320099;-0.78700256;-;-;-;-;-;-;-;-;-;-;-;-;-;-;-
1514004016427;-;-;8.024658;-2.0205078;-0.7893982;-;-;-;-;-;-;-;-;-;-;-;-;-;-;-
1514004016448;-;-;9.130783;-2.4466858;-0.3261261;-;-;-;-;-;-;-;-;-;-;-;-;-;-;-
1514004016468;-;-;8.74411;-2.1486053;-0.6253967;-;-;-;-;-;-;-;-;-;-;-;-;-;-;-
1514004016489;-;-;8.751297;-2.064804;0.22932434;-;-;-;-;-;-;-;-;-;-;-;-;-;-;-
1514004016509;-;-;8.7764435;-1.9594574;-1.8308868;-;-;-;-;-;-;-;-;-;-;-;-;-;-;-
1514004016530;-;-;8.238937;-2.2156372;-3.4613342;-;-;-;-;-;-;-;-;-;-;-;-;-;-;-
1514004016550;-;-;7.837906;-1.6075134;-3.326065;-;-;-;-;-;-;-;-;-;-;-;-;-;-;-
1514004016571;-;-;6.3271637;-1.2639465;-3.1428986;-;-;-;-;-;-;-;-;-;-;-;-;-;-;-
1514004016591;-;-;6.521103;-0.9287567;-3.2410736;-;-;-;-;-;-;-;-;-;-;-;-;-;-;-
1514004016611;-;-;9.462372;0.1510315;-1.5543518;-;-;-;-;-;-;-;-;-;-;-;-;-;-;-
1514004016632;-;-;13.320633;2.2782745;-2.4222565;-;-;-;-;-;-;-;-;-;-;-;-;-;-;-
1514004016653;-;-;15.368866;3.5675507;-3.0471344;-;-;-;-;-;-;-;-;-;-;-;-;-;-;-
1514004016673;-;-;16.56717;-0.35055542;-1.8679962;-;-;-;-;-;-;-;-;-;-;-;-;-;-;-
1514004016693;-;-;18.990097;-1.4207611;-5.349167;-;-;-;-;-;-;-;-;-;-;-;-;-;-;-
1514004016714;-;-;20.648087;0.94470215;-5.637665;-;-;-;-;-;-;-;-;-;-;-;-;-;-;-
1514004016734;-;-;14.281906;1.3852386;-3.4074707;-;-;-;-;-;-;-;-;-;-;-;-;-;-;-
1514004016754;-;-;9.82988;0.20610046;-1.6429291;-;-;-;-;-;-;-;-;-;-;-;-;-;-;-
1514004016775;-;-;6.7808685;-0.30387878;-1.3340912;-;-;-;-;-;-;-;-;-;-;-;-;-;-;-
1514004016796;-;-;4.15683;0.11869812;-1.689621;-;-;-;-;-;-;-;-;-;-;-;-;-;-;-
1514004016816;-;-;3.2494202;0.08039856;-1.7626495;-;-;-;-;-;-;-;-;-;-;-;-;-;-;-
1514004016837;-;-;2.892685;-0.3074646;-0.5978699;-;-;-;-;-;-;-;-;-;-;-;-;-;-;-
1514004016857;-;-;3.6073608;-0.39006042;0.53578186;-;-;-;-;-;-;-;-;-;-;-;-;-;-;-
1514004016877;-;-;6.5474396;0.0061798096;-0.2507019;-;-;-;-;-;-;-;-;-;-;-;-;-;-;-
1514004016898;-;-;6.3211823;-0.057266235;-1.5172424;-;-;-;-;-;-;-;-;-;-;-;-;-;-;-
1514004016918;-;-;6.1847076;-0.3697052;-1.140152;-;-;-;-;-;-;-;-;-;-;-;-;-;-;-
1514004016939;-;-;6.7772827;-1.0747986;-1.2024078;-;-;-;-;-;-;-;-;-;-;-;-;-;-;-
1514004016959;-;-;8.607651;-1.4770355;-2.0942383;-;-;-;-;-;-;-;-;-;-;-;-;-;-;-
1514004016979;-;-;9.165497;-0.28831482;-3.393097;-;-;-;-;-;-;-;-;-;-;-;-;-;-;-
1514004017000;-;-;7.0609894;1.8018341;-1.832077;-;-;-;-;-;-;-;-;-;-;-;-;-;-;-
1514004017020;-;-;6.6767273;2.097519;-1.2407074;-;-;-;-;-;-;-;-;-;-;-;-;-;-;-
1514004017040;-;-;6.347519;0.9973755;-1.74469;-;-;-;-;-;-;-;-;-;-;-;-;-;-;-
1514004017061;-;-;7.095703;-0.5049896;-2.1385345;-;-;-;-;-;-;-;-;-;-;-;-;-;-;-
1514004017081;-;-;7.882202;-0.92396545;-1.3113403;-;-;-;-;-;-;-;-;-;-;-;-;-;-;-
1514004017102;-;-;8.948822;0.08758545;-0.9689636;-;-;-;-;-;-;-;-;-;-;-;-;-;-;-
1514004017121;-;-;8.531036;0.3222046;-2.9585571;-;-;-;-;-;-;-;-;-;-;-;-;-;-;-
1514004017141;-;-;8.578918;-2.0360718;-6.737793;-;-;-;-;-;-;-;-;-;-;-;-;-;-;-
1514004017162;-;-;11.189789;-5.5256195;-6.576187;-;-;-;-;-;-;-;-;-;-;-;-;-;-;-
1514004017182;-;-;15.726807;-9.541901;-3.3332367;-;-;-;-;-;-;-;-;-;-;-;-;-;-;-
1514004017202;-;-;20.352402;-6.1840363;0.45558167;-;-;-;-;-;-;-;-;-;-;-;-;-;-;-
1514004017222;-;-;15.348526;-0.7851105;-0.032836914;-;-;-;-;-;-;-;-;-;-;-;-;-;-;-
1514004017243;-;-;14.499771;-0.77433777;-2.207962;-;-;-;-;-;-;-;-;-;-;-;-;-;-;-
1514004017264;-;-;19.179245;-1.7092743;-3.2518463;-;-;-;-;-;-;-;-;-;-;-;-;-;-;-
1514004017284;-;-;14.582382;-1.5656128;-2.2917633;-;-;-;-;-;-;-;-;-;-;-;-;-;-;-
1514004017304;-;-;10.751648;-1.1047363;-2.828064;-;-;-;-;-;-;-;-;-;-;-;-;-;-;-
1514004017323;-;-;8.161133;-0.16381836;-2.7837677;-;-;-;-;-;-;-;-;-;-;-;-;-;-;-
1514004017343;-;-;4.609329;0.31503296;-2.0619202;-;-;-;-;-;-;-;-;-;-;-;-;-;-;-
1514004017364;-;-;3.0554962;-0.20211792;-1.7411041;-;-;-;-;-;-;-;-;-;-;-;-;-;-;-
1514004017384;-;-;1.4154663;-1.107132;-1.4250641;-;-;-;-;-;-;-;-;-;-;-;-;-;-;-
1514004017405;-;-;0.8157196;-2.071991;-1.5890656;-;-;-;-;-;-;-;-;-;-;-;-;-;-;-
1514004017425;-;-;3.292511;-2.7974396;-1.8129272;-;-;-;-;-;-;-;-;-;-;-;-;-;-;-
1514004017446;-;-;5.616089;-2.7184296;-1.6441345;-;-;-;-;-;-;-;-;-;-;-;-;-;-;-
1514004017466;-;-;7.3075867;-2.5963135;-1.2359161;-;-;-;-;-;-;-;-;-;-;-;-;-;-;-
1514004017486;-;-;7.367447;-2.423935;-1.531601;-;-;-;-;-;-;-;-;-;-;-;-;-;-;-
1514004017507;-;-;7.20105;-2.377243;-1.5531616;-;-;-;-;-;-;-;-;-;-;-;-;-;-;-
1514004017527;-;-;7.2261963;-3.1026917;-0.15733337;-;-;-;-;-;-;-;-;-;-;-;-;-;-;-
1514004017548;-;-;7.6511536;-2.9410858;-0.37161255;-;-;-;-;-;-;-;-;-;-;-;-;-;-;-
1514004017569;-;-;8.175491;-2.3389435;-0.9162903;-;-;-;-;-;-;-;-;-;-;-;-;-;-;-
1514004017589;-;-;8.315552;-1.8062286;-0.46858215;-;-;-;-;-;-;-;-;-;-;-;-;-;-;-
1514004017610;-;-;10.254852;-1.6147003;-0.28422546;-;-;-;-;-;-;-;-;-;-;-;-;-;-;-
1514004017629;-;-;10.189011;-1.289093;-1.9206696;-;-;-;-;-;-;-;-;-;-;-;-;-;-;-
1514004017650;-;-;7.557785;-0.64624023;-4.365143;-;-;-;-;-;-;-;-;-;-;-;-;-;-;-
1514004017669;-;-;5.686722;-0.91200256;-4.180786;-;-;-;-;-;-;-;-;-;-;-;-;-;-;-
1514004017689;-;-;6.4851837;0.2743225;-4.152054;-;-;-;-;-;-;-;-;-;-;-;-;-;-;-
1514004017710;-;-;9.679047;3.5076904;-1.5878754;-;-;-;-;-;-;-;-;-;-;-;-;-;-;-
1514004017731;-;-;11.850586;5.7917633;-2.7897644;-;-;-;-;-;-;-;-;-;-;-;-;-;-;-
1514004017751;-;-;16.173325;3.6824799;-3.0435486;-;-;-;-;-;-;-;-;-;-;-;-;-;-;-
1514004017771;-;-;16.045227;-4.6792755;-0.09030151;-;-;-;-;-;-;-;-;-;-;-;-;-;-;-
1514004017791;-;-;18.369995;-6.037979;-5.4676666;-;-;-;-;-;-;-;-;-;-;-;-;-;-;-
1514004017812;-;-;18.870392;-1.9666443;-4.022766;-;-;-;-;-;-;-;-;-;-;-;-;-;-;-
1514004017832;-;-;15.908768;1.2846832;-1.6225891;-;-;-;-;-;-;-;-;-;-;-;-;-;-;-
1514004017852;-;-;12.406052;2.449463;-2.8053284;-;-;-;-;-;-;-;-;-;-;-;-;-;-;-
1514004017873;-;-;8.299988;3.2060242;-2.4821014;-;-;-;-;-;-;-;-;-;-;-;-;-;-;-
1514004017894;-;-;4.635666;2.4434814;-1.9960785;-;-;-;-;-;-;-;-;-;-;-;-;-;-;-
1514004017914;-;-;3.059082;0.9506836;-1.155716;-;-;-;-;-;-;-;-;-;-;-;-;-;-;-
1514004017935;-;-;3.004013;-0.80784607;0.46276855;-;-;-;-;-;-;-;-;-;-;-;-;-;-;-
1514004017954;-;-;2.125351;-1.601532;0.78837585;-;-;-;-;-;-;-;-;-;-;-;-;-;-;-
1514004017974;-;-;3.5714417;-1.8565063;-0.05558777;-;-;-;-;-;-;-;-;-;-;-;-;-;-;-
1514004017995;-;-;7.04303;-0.6905365;-1.7051849;-;-;-;-;-;-;-;-;-;-;-;-;-;-;-
1514004018015;-;-;6.956848;0.076812744;-2.4198608;-;-;-;-;-;-;-;-;-;-;-;-;-;-;-
1514004018036;-;-;8.345474;0.14743042;-2.069107;-;-;-;-;-;-;-;-;-;-;-;-;-;-;-
1514004018057;-;-;10.014236;0.30545044;-1.9302368;-;-;-;-;-;-;-;-;-;-;-;-;-;-;-
1514004018077;-;-;9.226547;0.94111633;-1.2706451;-;-;-;-;-;-;-;-;-;-;-;-;-;-;-
1514004018098;-;-;7.161545;0.5245209;-0.5894928;-;-;-;-;-;-;-;-;-;-;-;-;-;-;-
1514004018118;-;-;5.766922;0.41319275;0.28918457;-;-;-;-;-;-;-;-;-;-;-;-;-;-;-
1514004018139;-;-;5.1444244;0.37368774;0.21736145;-;-;-;-;-;-;-;-;-;-;-;-;-;-;-
1514004018159;-;-;5.7800903;-0.08001709;-1.3807678;-;-;-;-;-;-;-;-;-;-;-;-;-;-;-
1514004018180;-;-;7.1399994;-0.4044342;-3.0674896;-;-;-;-;-;-;-;-;-;-;-;-;-;-;-
1514004018199;-;-;7.9516296;-0.5097656;-2.1744537;-;-;-;-;-;-;-;-;-;-;-;-;-;-;-
1514004018220;-;-;7.8355103;-0.31105042;-1.1018524;-;-;-;-;-;-;-;-;-;-;-;-;-;-;-
1514004018240;-;-;6.9939575;-0.47625732;-2.717926;-;-;-;-;-;-;-;-;-;-;-;-;-;-;-
1514004018261;-;-;7.3075867;-1.1813507;-4.3328247;-;-;-;-;-;-;-;-;-;-;-;-;-;-;-
1514004018281;-;-;10.252457;-3.2379608;-4.84877;-;-;-;-;-;-;-;-;-;-;-;-;-;-;-
1514004018302;-;-;15.334152;-5.5531616;-2.9561615;-;-;-;-;-;-;-;-;-;-;-;-;-;-;-
1514004018322;-;-;19.619781;-4.2722626;-3.930603;-;-;-;-;-;-;-;-;-;-;-;-;-;-;-
1514004018343;-;-;22.844772;-5.2838135;-1.6644897;-;-;-;-;-;-;-;-;-;-;-;-;-;-;-
1514004018362;-;-;19.581467;-6.0715027;-3.3069;-;-;-;-;-;-;-;-;-;-;-;-;-;-;-
1514004018383;-;-;19.344437;-4.305786;-1.4382324;-;-;-;-;-;-;-;-;-;-;-;-;-;-;-
1514004018402;-;-;11.936783;-1.5273132;-0.68167114;-;-;-;-;-;-;-;-;-;-;-;-;-;-;-
1514004018422;-;-;4.684738;0.28390503;-1.9003143;-;-;-;-;-;-;-;-;-;-;-;-;-;-;-
1514004018443;-;-;4.292099;-0.25;-1.7087708;-;-;-;-;-;-;-;-;-;-;-;-;-;-;-
1514004018464;-;-;7.099304;-0.6139221;-0.7858124;-;-;-;-;-;-;-;-;-;-;-;-;-;-;-
1514004018483;-;-;7.5865173;-1.4255524;-2.3707733;-;-;-;-;-;-;-;-;-;-;-;-;-;-;-
1514004018504;-;-;6.146408;-1.5727997;-3.5738678;-;-;-;-;-;-;-;-;-;-;-;-;-;-;-
1514004018524;-;-;3.438568;-2.265915;-1.7889862;-;-;-;-;-;-;-;-;-;-;-;-;-;-;-
1514004018545;-;-;2.9070435;-1.7727203;-0.49971008;-;-;-;-;-;-;-;-;-;-;-;-;-;-;-
1514004018565;-;-;2.4246216;-1.4902039;-0.29260254;-;-;-;-;-;-;-;-;-;-;-;-;-;-;-
1514004018586;-;-;3.0937958;-1.9427032;-0.4458313;-;-;-;-;-;-;-;-;-;-;-;-;-;-;-
1514004018605;-;-;5.221039;-2.6310425;0.4807129;-;-;-;-;-;-;-;-;-;-;-;-;-;-;-
1514004018626;-;-;6.123657;-3.6306152;-0.3249359;-;-;-;-;-;-;-;-;-;-;-;-;-;-;-
1514004018647;-;-;7.324356;-5.064743;-0.31414795;-;-;-;-;-;-;-;-;-;-;-;-;-;-;-
1514004018667;-;-;8.40892;-5.621399;0.06413269;-;-;-;-;-;-;-;-;-;-;-;-;-;-;-
1514004018687;-;-;10.726517;-3.6270294;0.6830292;-;-;-;-;-;-;-;-;-;-;-;-;-;-;-
1514004018708;-;-;10.772003;-3.4738007;0.2616577;-;-;-;-;-;-;-;-;-;-;-;-;-;-;-
1514004018728;-;-;10.471527;-3.6473694;-0.15135193;-;-;-;-;-;-;-;-;-;-;-;-;-;-;-
1514004018748;-;-;10.306335;-2.2599335;0.19102478;-;-;-;-;-;-;-;-;-;-;-;-;-;-;-
1514004018769;-;-;9.773621;0.18334961;-0.95700073;-;-;-;-;-;-;-;-;-;-;-;-;-;-;-
1514004018790;-;-;7.593704;0.4012146;-3.7187042;-;-;-;-;-;-;-;-;-;-;-;-;-;-;-
1514004018810;-;-;6.1727448;-0.47984314;-7.651184;-;-;-;-;-;-;-;-;-;-;-;-;-;-;-
1514004018830;-;-;8.532227;0.5783844;-5.5059814;-;-;-;-;-;-;-;-;-;-;-;-;-;-;-
1514004018850;-;-;13.946716;3.6621246;-3.456543;-;-;-;-;-;-;-;-;-;-;-;-;-;-;-
1514004018871;-;-;14.964249;2.691269;-4.325638;-;-;-;-;-;-;-;-;-;-;-;-;-;-;-
1514004018892;-;-;16.618637;-0.61750793;-6.8431396;-;-;-;-;-;-;-;-;-;-;-;-;-;-;-
1514004018912;-;-;22.996796;-3.0188904;-5.5969543;-;-;-;-;-;-;-;-;-;-;-;-;-;-;-
1514004018933;-;-;20.065094;-2.3497162;-5.7789154;-;-;-;-;-;-;-;-;-;-;-;-;-;-;-
1514004018953;-;-;11.930801;-0.8317871;-1.8368683;-;-;-;-;-;-;-;-;-;-;-;-;-;-;-
1514004018974;-;-;9.012268;-0.6426544;-1.1892395;-;-;-;-;-;-;-;-;-;-;-;-;-;-;-
1514004018994;-;-;7.4416656;0.10673523;-1.5208282;-;-;-;-;-;-;-;-;-;-;-;-;-;-;-
1514004019015;-;-;4.682358;-0.12908936;-1.7794037;-;-;-;-;-;-;-;-;-;-;-;-;-;-;-
1514004019035;-;-;3.5870056;-1.3704834;-1.377182;-;-;-;-;-;-;-;-;-;-;-;-;-;-;-
1514004019056;-;-;2.3491974;-3.6389923;0.14672852;-;-;-;-;-;-;-;-;-;-;-;-;-;-;-
1514004019076;-;-;4.861923;-3.416336;-0.6002655;-;-;-;-;-;-;-;-;-;-;-;-;-;-;-
1514004019096;-;-;5.672348;-1.6278687;-2.1983948;-;-;-;-;-;-;-;-;-;-;-;-;-;-;-
1514004019117;-;-;5.8567047;-0.3481598;-2.836441;-;-;-;-;-;-;-;-;-;-;-;-;-;-;-
1514004019136;-;-;8.675873;0.5233307;-2.7945404;-;-;-;-;-;-;-;-;-;-;-;-;-;-;-
1514004019156;-;-;9.79277;1.4546661;-2.8448334;-;-;-;-;-;-;-;-;-;-;-;-;-;-;-
1514004019177;-;-;9.446808;2.2220154;-2.7993317;-;-;-;-;-;-;-;-;-;-;-;-;-;-;-
1514004019196;-;-;8.952408;2.5703735;-2.1959991;-;-;-;-;-;-;-;-;-;-;-;-;-;-;-
1514004019217;-;-;9.537796;2.1980743;-1.2407074;-;-;-;-;-;-;-;-;-;-;-;-;-;-;-
1514004019237;-;-;9.726929;0.9650574;-0.3368988;-;-;-;-;-;-;-;-;-;-;-;-;-;-;-
1514004019257;-;-;10.026215;-1.4878082;0.11680603;-;-;-;-;-;-;-;-;-;-;-;-;-;-;-
1514004019278;-;-;10.788757;-3.3097992;1.5892334;-;-;-;-;-;-;-;-;-;-;-;-;-;-;-
1514004019298;-;-;10.348236;-3.2164154;1.8825226;-;-;-;-;-;-;-;-;-;-;-;-;-;-;-
1514004019319;-;-;9.858612;-3.076355;0.9427948;-;-;-;-;-;-;-;-;-;-;-;-;-;-;-
1514004019340;-;-;10.897705;-2.7232056;-2.2043762;-;-;-;-;-;-;-;-;-;-;-;-;-;-;-
1514004019360;-;-;12.225281;-2.660965;-7.1508026;-;-;-;-;-;-;-;-;-;-;-;-;-;-;-
1514004019381;-;-;12.942352;-2.851303;-8.010315;-;-;-;-;-;-;-;-;-;-;-;-;-;-;-
1514004019400;-;-;11.095215;-3.1781158;-7.5254974;-;-;-;-;-;-;-;-;-;-;-;-;-;-;-
1514004019421;-;-;7.566162;-3.5719604;-5.8028564;-;-;-;-;-;-;-;-;-;-;-;-;-;-;-
1514004019441;-;-;6.8395233;-2.166565;-5.7238464;-;-;-;-;-;-;-;-;-;-;-;-;-;-;-
1514004019461;-;-;7.367447;-0.26437378;-5.3371887;-;-;-;-;-;-;-;-;-;-;-;-;-;-;-
1514004019482;-;-;8.453217;1.3158112;-5.010376;-;-;-;-;-;-;-;-;-;-;-;-;-;-;-
1514004019502;-;-;9.030228;2.4757996;-4.6081543;-;-;-;-;-;-;-;-;-;-;-;-;-;-;-
1514004019523;-;-;8.826721;3.2730713;-4.1580505;-;-;-;-;-;-;-;-;-;-;-;-;-;-;-
1514004019542;-;-;7.8642426;2.0292816;-3.7797546;-;-;-;-;-;-;-;-;-;-;-;-;-;-;-
1514004019562;-;-;7.145981;-0.03213501;-3.935379;-;-;-;-;-;-;-;-;-;-;-;-;-;-;-
1514004019583;-;-;6.913742;-2.4155579;-2.6556854;-;-;-;-;-;-;-;-;-;-;-;-;-;-;-
1514004019604;-;-;7.1711273;-3.776657;-1.416687;-;-;-;-;-;-;-;-;-;-;-;-;-;-;-
1514004019624;-;-;8.483139;-3.27388;-1.4968872;-;-;-;-;-;-;-;-;-;-;-;-;-;-;-
1514004019645;-;-;8.516663;-1.5763855;-2.1217804;-;-;-;-;-;-;-;-;-;-;-;-;-;-;-
1514004019665;-;-;7.253723;-0.68455505;-1.7434998;-;-;-;-;-;-;-;-;-;-;-;-;-;-;-
1514004019686;-;-;6.0614166;-1.0807953;-1.6680756;-;-;-;-;-;-;-;-;-;-;-;-;-;-;-
1514004019706;-;-;6.3894196;-2.2371826;-1.8380585;-;-;-;-;-;-;-;-;-;-;-;-;-;-;-
1514004019727;-;-;7.633209;-2.4766083;-1.4633789;-;-;-;-;-;-;-;-;-;-;-;-;-;-;-
1514004019747;-;-;8.18985;-1.6661682;-1.5914612;-;-;-;-;-;-;-;-;-;-;-;-;-;-;-
1514004019768;-;-;8.210205;-0.7503967;-1.7339172;-;-;-;-;-;-;-;-;-;-;-;-;-;-;-
1514004019788;-;-;8.689041;-0.102752686;-1.5615387;-;-;-;-;-;-;-;-;-;-;-;-;-;-;-
1514004019809;-;-;9.428848;-0.12550354;-0.8576355;-;-;-;-;-;-;-;-;-;-;-;-;-;-;-
1514004019829;-;-;10.138733;-1.0352936;-1.5004883;-;-;-;-;-;-;-;-;-;-;-;-;-;-;-
1514004019850;-;-;10.704971;-1.8313751;-2.6688538;-;-;-;-;-;-;-;-;-;-;-;-;-;-;-
1514004019870;-;-;11.332245;-2.8285522;-1.579483;-;-;-;-;-;-;-;-;-;-;-;-;-;-;-
1514004019890;-;-;12.571243;-2.8955994;-0.2004242;-;-;-;-;-;-;-;-;-;-;-;-;-;-;-
1514004019911;-;-;11.398087;-2.332962;-1.1928253;-;-;-;-;-;-;-;-;-;-;-;-;-;-;-
1514004019931;-;-;9.184647;-2.5604095;-4.448944;-;-;-;-;-;-;-;-;-;-;-;-;-;-;-
1514004019951;-;-;7.119644;-3.2631073;-7.87146;-;-;-;-;-;-;-;-;-;-;-;-;-;-;-
1514004019971;-;-;6.4803925;-3.6868744;-7.7505493;-;-;-;-;-;-;-;-;-;-;-;-;-;-;-
1514004019992;-;-;8.917694;-3.5276642;-3.5690765;-;-;-;-;-;-;-;-;-;-;-;-;-;-;-
1514004020011;-;-;11.86615;-2.693283;-1.8643951;-;-;-;-;-;-;-;-;-;-;-;-;-;-;-
1514004020031;-;-;15.593918;-5.246704;-3.0052338;-;-;-;-;-;-;-;-;-;-;-;-;-;-;-
1514004020052;-;-;18.070724;-7.2686005;-4.598572;-;-;-;-;-;-;-;-;-;-;-;-;-;-;-
1514004020072;-;-;15.153397;-4.573929;-4.0191803;-;-;-;-;-;-;-;-;-;-;-;-;-;-;-
1514004020093;-;-;7.9516296;-1.5344849;-2.9298248;-;-;-;-;-;-;-;-;-;-;-;-;-;-;-
1514004020113;-;-;3.2817383;-0.878479;-2.093048;-;-;-;-;-;-;-;-;-;-;-;-;-;-;-
1514004020133;-;-;0.63494873;-1.4399261;-2.6042023;-;-;-;-;-;-;-;-;-;-;-;-;-;-;-
1514004020153;-;-;1.0575256;-2.0516357;-3.7582092;-;-;-;-;-;-;-;-;-;-;-;-;-;-;-
1514004020173;-;-;5.5825653;-2.3592987;-3.8503876;-;-;-;-;-;-;-;-;-;-;-;-;-;-;-
1514004020194;-;-;9.427658;-1.7391968;-4.0251617;-;-;-;-;-;-;-;-;-;-;-;-;-;-;-
1514004020214;-;-;10.661865;-0.38407898;-4.839203;-;-;-;-;-;-;-;-;-;-;-;-;-;-;-
1514004020234;-;-;9.305557;0.8561249;-4.4956207;-;-;-;-;-;-;-;-;-;-;-;-;-;-;-
1514004020255;-;-;7.8247375;1.4738159;-4.089813;-;-;-;-;-;-;-;-;-;-;-;-;-;-;-
1514004020276;-;-;6.4720154;1.5288849;-3.4421844;-;-;-;-;-;-;-;-;-;-;-;-;-;-;-
1514004020296;-;-;4.9540863;1.4846039;-2.6173706;-;-;-;-;-;-;-;-;-;-;-;-;-;-;-
1514004020316;-;-;3.734253;1.2272186;-2.2019806;-;-;-;-;-;-;-;-;-;-;-;-;-;-;-
1514004020337;-;-;3.7474213;1.1889191;-2.1648712;-;-;-;-;-;-;-;-;-;-;-;-;-;-;-
1514004020356;-;-;6.965225;1.4869843;-2.2019806;-;-;-;-;-;-;-;-;-;-;-;-;-;-;-
1514004020376;-;-;9.529419;2.1046906;-3.8827057;-;-;-;-;-;-;-;-;-;-;-;-;-;-;-
1514004020397;-;-;11.454346;2.7678833;-3.1345215;-;-;-;-;-;-;-;-;-;-;-;-;-;-;-
1514004020419;-;-;11.967911;2.7164154;-3.2853546;-;-;-;-;-;-;-;-;-;-;-;-;-;-;-
1514004020438;-;-;12.300705;2.813385;-1.5986481;-;-;-;-;-;-;-;-;-;-;-;-;-;-;-
1514004020458;-;-;12.520966;1.7455597;0.95835876;-;-;-;-;-;-;-;-;-;-;-;-;-;-;-
1514004020479;-;-;13.277542;-0.636673;1.9004822;-;-;-;-;-;-;-;-;-;-;-;-;-;-;-
1514004020499;-;-;11.365768;-2.0624084;-1.6094208;-;-;-;-;-;-;-;-;-;-;-;-;-;-;-
1514004020520;-;-;10.270416;-2.6884918;-3.5894165;-;-;-;-;-;-;-;-;-;-;-;-;-;-;-
1514004020540;-;-;10.545746;-3.0727692;-5.8339844;-;-;-;-;-;-;-;-;-;-;-;-;-;-;-
1514004020561;-;-;10.581665;-2.3856354;-7.9408875;-;-;-;-;-;-;-;-;-;-;-;-;-;-;-
1514004020581;-;-;8.66391;-2.2036743;-7.1579742;-;-;-;-;-;-;-;-;-;-;-;-;-;-;-
1514004020602;-;-;6.594116;-2.0312958;-5.3515625;-;-;-;-;-;-;-;-;-;-;-;-;-;-;-
1514004020622;-;-;7.9121246;-2.8225708;-3.5223846;-;-;-;-;-;-;-;-;-;-;-;-;-;-;-
1514004020643;-;-;9.967545;-3.0655823;-3.5942078;-;-;-;-;-;-;-;-;-;-;-;-;-;-;-
1514004020662;-;-;10.4930725;-1.2819061;-3.62294;-;-;-;-;-;-;-;-;-;-;-;-;-;-;-
1514004020682;-;-;9.489914;0.038497925;-2.9693298;-;-;-;-;-;-;-;-;-;-;-;-;-;-;-
1514004020703;-;-;8.305969;-0.05607605;-3.4194336;-;-;-;-;-;-;-;-;-;-;-;-;-;-;-
1514004020724;-;-;7.2070313;-0.56843567;-3.614563;-;-;-;-;-;-;-;-;-;-;-;-;-;-;-
1514004020744;-;-;6.29126;-0.70610046;-3.3524017;-;-;-;-;-;-;-;-;-;-;-;-;-;-;-
1514004020765;-;-;4.3411713;-1.0951538;-2.895111;-;-;-;-;-;-;-;-;-;-;-;-;-;-;-
1514004020784;-;-;3.7414246;-2.0911407;-2.3252869;-;-;-;-;-;-;-;-;-;-;-;-;-;-;-
1514004020804;-;-;6.1296387;-3.0380554;-2.3635864;-;-;-;-;-;-;-;-;-;-;-;-;-;-;-
1514004020825;-;-;8.996704;-2.5161133;-2.4725342;-;-;-;-;-;-;-;-;-;-;-;-;-;-;-
1514004020845;-;-;10.610397;-1.9522858;-2.3588104;-;-;-;-;-;-;-;-;-;-;-;-;-;-;-
1514004020866;-;-;10.950378;-1.7499695;-2.4330292;-;-;-;-;-;-;-;-;-;-;-;-;-;-;-
1514004020886;-;-;10.312317;-1.3525391;-2.0858612;-;-;-;-;-;-;-;-;-;-;-;-;-;-;-
1514004020907;-;-;9.366608;-1.3776703;-1.7626495;-;-;-;-;-;-;-;-;-;-;-;-;-;-;-
1514004020927;-;-;8.031845;-2.475418;-1.9805145;-;-;-;-;-;-;-;-;-;-;-;-;-;-;-
1514004020948;-;-;7.6415863;-3.2140198;-2.7742004;-;-;-;-;-;-;-;-;-;-;-;-;-;-;-
1514004020968;-;-;7.142395;-2.5137177;-2.8711548;-;-;-;-;-;-;-;-;-;-;-;-;-;-;-
1514004020989;-;-;6.1284485;-0.9467163;-2.2726135;-;-;-;-;-;-;-;-;-;-;-;-;-;-;-
1514004021009;-;-;5.7776947;-0.1530304;-0.9809418;-;-;-;-;-;-;-;-;-;-;-;-;-;-;-
1514004021029;-;-;6.6312256;-0.5432892;-0.38957214;-;-;-;-;-;-;-;-;-;-;-;-;-;-;-
1514004021050;-;-;7.236969;-1.8720703;-0.56674194;-;-;-;-;-;-;-;-;-;-;-;-;-;-;-
1514004021070;-;-;7.1627502;-2.6633606;-0.9629822;-;-;-;-;-;-;-;-;-;-;-;-;-;-;-
1514004021091;-;-;7.0298615;-3.51091;-1.8500366;-;-;-;-;-;-;-;-;-;-;-;-;-;-;-
1514004021110;-;-;7.580536;-3.1960602;-2.0978394;-;-;-;-;-;-;-;-;-;-;-;-;-;-;-
1514004021130;-;-;7.937271;-2.5915375;-1.1569061;-;-;-;-;-;-;-;-;-;-;-;-;-;-;-
1514004021151;-;-;8.545395;-2.0923462;-1.2048035;-;-;-;-;-;-;-;-;-;-;-;-;-;-;-
1514004021171;-;-;8.831497;-0.973053;-1.9936829;-;-;-;-;-;-;-;-;-;-;-;-;-;-;-
1514004021191;-;-;9.476746;-0.021362305;-1.5830841;-;-;-;-;-;-;-;-;-;-;-;-;-;-;-
1514004021212;-;-;9.9986725;-0.29309082;-0.5128784;-;-;-;-;-;-;-;-;-;-;-;-;-;-;-
1514004021232;-;-;8.995499;-0.76475525;-1.3161316;-;-;-;-;-;-;-;-;-;-;-;-;-;-;-
1514004021253;-;-;7.256119;-0.5899811;-2.816101;-;-;-;-;-;-;-;-;-;-;-;-;-;-;-
1514004021274;-;-;5.2042847;-0.38887024;-4.2957153;-;-;-;-;-;-;-;-;-;-;-;-;-;-;-
1514004021295;-;-;4.857132;-0.22366333;-7.330368;-;-;-;-;-;-;-;-;-;-;-;-;-;-;-
1514004021315;-;-;7.6343994;0.59036255;-6.2409973;-;-;-;-;-;-;-;-;-;-;-;-;-;-;-
1514004021335;-;-;10.85939;2.5117035;-4.0467224;-;-;-;-;-;-;-;-;-;-;-;-;-;-;-
1514004021356;-;-;14.55484;2.3357391;-2.1062164;-;-;-;-;-;-;-;-;-;-;-;-;-;-;-
1514004021376;-;-;18.50528;-1.1717682;-5.788498;-;-;-;-;-;-;-;-;-;-;-;-;-;-;-
1514004021396;-;-;23.937714;-4.827713;-6.895813;-;-;-;-;-;-;-;-;-;-;-;-;-;-;-
1514004021417;-;-;20.247055;-4.424286;-3.836029;-;-;-;-;-;-;-;-;-;-;-;-;-;-;-
1514004021436;-;-;12.605957;-1.4542847;-2.0858612;-;-;-;-;-;-;-;-;-;-;-;-;-;-;-
1514004021456;-;-;8.991913;-0.074035645;-1.7877808;-;-;-;-;-;-;-;-;-;-;-;-;-;-;-
1514004021477;-;-;4.65123;1.1003265;-1.6573029;-;-;-;-;-;-;-;-;-;-;-;-;-;-;-
1514004021496;-;-;2.2558289;1.169754;-1.0946655;-;-;-;-;-;-;-;-;-;-;-;-;-;-;-
1514004021516;-;-;1.6165771;0.31503296;-0.52604675;-;-;-;-;-;-;-;-;-;-;-;-;-;-;-
1514004021537;-;-;2.825653;-0.62709045;-0.24353027;-;-;-;-;-;-;-;-;-;-;-;-;-;-;-
1514004021556;-;-;4.683548;-0.90960693;-0.3476715;-;-;-;-;-;-;-;-;-;-;-;-;-;-;-
1514004021576;-;-;7.669113;-0.60913086;-1.6920166;-;-;-;-;-;-;-;-;-;-;-;-;-;-;-
1514004021596;-;-;7.8247375;0.3138275;-2.6796265;-;-;-;-;-;-;-;-;-;-;-;-;-;-;-
1514004021617;-;-;7.209427;1.1865234;-2.4378052;-;-;-;-;-;-;-;-;-;-;-;-;-;-;-
1514004021637;-;-;6.959244;1.374466;-1.74469;-;-;-;-;-;-;-;-;-;-;-;-;-;-;-
1514004021658;-;-;6.968811;0.8848419;-1.1281891;-;-;-;-;-;-;-;-;-;-;-;-;-;-;-
1514004021679;-;-;6.6539764;-0.16381836;-0.6038513;-;-;-;-;-;-;-;-;-;-;-;-;-;-;-
1514004021699;-;-;6.917343;-0.8377838;-0.31176758;-;-;-;-;-;-;-;-;-;-;-;-;-;-;-
1514004021719;-;-;7.924103;-0.67855835;-0.1884613;-;-;-;-;-;-;-;-;-;-;-;-;-;-;-
1514004021740;-;-;8.5633545;-0.14465332;-0.65652466;-;-;-;-;-;-;-;-;-;-;-;-;-;-;-
1514004021760;-;-;8.210205;-0.16021729;-2.266632;-;-;-;-;-;-;-;-;-;-;-;-;-;-;-
1514004021782;-;-;7.930084;-0.5361023;-2.357605;-;-;-;-;-;-;-;-;-;-;-;-;-;-;-
1514004021802;-;-;7.7098236;-0.9754486;-1.4765472;-;-;-;-;-;-;-;-;-;-;-;-;-;-;-
1514004021822;-;-;8.104858;-0.8533478;-1.440628;-;-;-;-;-;-;-;-;-;-;-;-;-;-;-
1514004021845;-;-;7.8606567;-0.33259583;-4.8691254;-;-;-;-;-;-;-;-;-;-;-;-;-;-;-
1514004021866;-;-;7.157959;-0.8270111;-7.2022705;-;-;-;-;-;-;-;-;-;-;-;-;-;-;-
1514004021885;-;-;9.555756;-3.3816223;-6.6037292;-;-;-;-;-;-;-;-;-;-;-;-;-;-;-
1514004021905;-;-;16.855667;-6.392334;-6.1500244;-;-;-;-;-;-;-;-;-;-;-;-;-;-;-
1514004021926;-;-;20.32965;-3.400772;-3.1476898;-;-;-;-;-;-;-;-;-;-;-;-;-;-;-
1514004021945;-;-;16.294235;0.14624023;-3.772583;-;-;-;-;-;-;-;-;-;-;-;-;-;-;-
1514004021966;-;-;12.935165;-2.0121307;-1.5040741;-;-;-;-;-;-;-;-;-;-;-;-;-;-;-
1514004021986;-;-;12.985443;-5.194031;-1.0767059;-;-;-;-;-;-;-;-;-;-;-;-;-;-;-
1514004022007;-;-;13.334991;-5.7434998;-1.4238739;-;-;-;-;-;-;-;-;-;-;-;-;-;-;-
1514004022026;-;-;10.363785;-3.5970917;-1.8069458;-;-;-;-;-;-;-;-;-;-;-;-;-;-;-
1514004022047;-;-;8.698624;-1.3369751;-2.0092468;-;-;-;-;-;-;-;-;-;-;-;-;-;-;-
1514004022068;-;-;7.3387146;0.103149414;-2.1313477;-;-;-;-;-;-;-;-;-;-;-;-;-;-;-
1514004022088;-;-;5.6747437;1.0045624;-1.6908264;-;-;-;-;-;-;-;-;-;-;-;-;-;-;-
1514004022108;-;-;4.4632874;0.6178894;-1.5926514;-;-;-;-;-;-;-;-;-;-;-;-;-;-;-
1514004022129;-;-;3.873108;-0.704895;-1.6357574;-;-;-;-;-;-;-;-;-;-;-;-;-;-;-
1514004022149;-;-;4.2106934;-2.4035797;-1.2861938;-;-;-;-;-;-;-;-;-;-;-;-;-;-;-
1514004022168;-;-;5.0893707;-3.6437836;-2.0224152;-;-;-;-;-;-;-;-;-;-;-;-;-;-;-
1514004022188;-;-;6.1056976;-3.6605377;-2.721527;-;-;-;-;-;-;-;-;-;-;-;-;-;-;-
1514004022209;-;-;7.288437;-2.9949493;-2.132553;-;-;-;-;-;-;-;-;-;-;-;-;-;-;-
1514004022229;-;-;7.3075867;-2.3521118;-2.0990295;-;-;-;-;-;-;-;-;-;-;-;-;-;-;-
1514004022250;-;-;5.944092;-1.324997;-1.2969818;-;-;-;-;-;-;-;-;-;-;-;-;-;-;-
1514004022271;-;-;5.4915924;-0.86291504;0.66267395;-;-;-;-;-;-;-;-;-;-;-;-;-;-;-
1514004022290;-;-;6.7294006;-1.1250763;1.888504;-;-;-;-;-;-;-;-;-;-;-;-;-;-;-
1514004022311;-;-;7.829529;-2.1761322;2.2392578;-;-;-;-;-;-;-;-;-;-;-;-;-;-;-
1514004022330;-;-;8.881775;-3.7802582;0.8135071;-;-;-;-;-;-;-;-;-;-;-;-;-;-;-
1514004022351;-;-;9.655106;-4.3859863;-1.021637;-;-;-;-;-;-;-;-;-;-;-;-;-;-;-
1514004022371;-;-;9.049377;-3.0500183;-1.6417389;-;-;-;-;-;-;-;-;-;-;-;-;-;-;-
1514004022392;-;-;7.890579;-2.2599335;-2.788559;-;-;-;-;-;-;-;-;-;-;-;-;-;-;-
1514004022412;-;-;8.206619;-0.9287567;-6.444504;-;-;-;-;-;-;-;-;-;-;-;-;-;-;-
1514004022433;-;-;10.471527;1.6186676;-5.772934;-;-;-;-;-;-;-;-;-;-;-;-;-;-;-
1514004022453;-;-;12.942352;4.1002655;-2.7538452;-;-;-;-;-;-;-;-;-;-;-;-;-;-;-
1514004022473;-;-;16.249939;3.9949188;-2.388733;-;-;-;-;-;-;-;-;-;-;-;-;-;-;-
1514004022494;-;-;19.247482;2.0400543;-3.3954926;-;-;-;-;-;-;-;-;-;-;-;-;-;-;-
1514004022515;-;-;18.100647;-1.9857941;-4.1305084;-;-;-;-;-;-;-;-;-;-;-;-;-;-;-
1514004022534;-;-;16.294235;-3.000946;-3.5247803;-;-;-;-;-;-;-;-;-;-;-;-;-;-;-
1514004022555;-;-;12.352173;-1.1741638;-1.8512268;-;-;-;-;-;-;-;-;-;-;-;-;-;-;-
1514004022574;-;-;8.9392395;0.68733215;-2.0104523;-;-;-;-;-;-;-;-;-;-;-;-;-;-;-
1514004022595;-;-;6.206253;2.572754;-2.4857025;-;-;-;-;-;-;-;-;-;-;-;-;-;-;-
1514004022615;-;-;4.300476;2.7223969;-1.8260956;-;-;-;-;-;-;-;-;-;-;-;-;-;-;-
1514004022636;-;-;3.2793427;1.655777;-1.2921906;-;-;-;-;-;-;-;-;-;-;-;-;-;-;-
1514004022656;-;-;3.636078;-0.023742676;-0.65652466;-;-;-;-;-;-;-;-;-;-;-;-;-;-;-
1514004022677;-;-;4.9732513;-1.0005798;-0.16931152;-;-;-;-;-;-;-;-;-;-;-;-;-;-;-
1514004022698;-;-;7.451248;-0.7910919;-1.2730255;-;-;-;-;-;-;-;-;-;-;-;-;-;-;-
1514004022718;-;-;7.4608154;0.016952515;-1.693222;-;-;-;-;-;-;-;-;-;-;-;-;-;-;-
1514004022738;-;-;6.858673;0.31982422;-0.98931885;-;-;-;-;-;-;-;-;-;-;-;-;-;-;-
1514004022758;-;-;6.2266083;-0.21409607;-0.3189392;-;-;-;-;-;-;-;-;-;-;-;-;-;-;-
1514004022779;-;-;6.987961;-1.2400055;-1.4753418;-;-;-;-;-;-;-;-;-;-;-;-;-;-;-
1514004022799;-;-;6.8550873;-0.74320984;-2.9094696;-;-;-;-;-;-;-;-;-;-;-;-;-;-;-
1514004022820;-;-;6.3211823;0.03251648;-2.6401215;-;-;-;-;-;-;-;-;-;-;-;-;-;-;-
1514004022841;-;-;6.475601;0.1797638;-0.023254395;-;-;-;-;-;-;-;-;-;-;-;-;-;-;-
1514004022861;-;-;7.6631317;0.59754944;1.0684967;-;-;-;-;-;-;-;-;-;-;-;-;-;-;-
1514004022880;-;-;9.331894;1.0141296;-1.1150208;-;-;-;-;-;-;-;-;-;-;-;-;-;-;-
1514004022901;-;-;9.568924;0.71606445;-4.0670624;-;-;-;-;-;-;-;-;-;-;-;-;-;-;-
1514004022921;-;-;7.7098236;-0.40322876;-4.7482147;-;-;-;-;-;-;-;-;-;-;-;-;-;-;-
1514004022941;-;-;6.7329865;-1.5943451;-3.223114;-;-;-;-;-;-;-;-;-;-;-;-;-;-;-
1514004022961;-;-;5.873459;-1.9846039;-2.7071533;-;-;-;-;-;-;-;-;-;-;-;-;-;-;-
1514004022982;-;-;8.5633545;-3.8963776;-4.5099945;-;-;-;-;-;-;-;-;-;-;-;-;-;-;-
1514004023002;-;-;15.178528;-6.421051;-6.167984;-;-;-;-;-;-;-;-;-;-;-;-;-;-;-
1514004023023;-;-;21.147278;-3.0715637;-2.3995056;-;-;-;-;-;-;-;-;-;-;-;-;-;-;-
1514004023042;-;-;20.515213;-2.3988037;-1.7794037;-;-;-;-;-;-;-;-;-;-;-;-;-;-;-
1514004023063;-;-;17.684067;-3.3349304;-4.165222;-;-;-;-;-;-;-;-;-;-;-;-;-;-;-
1514004023083;-;-;17.7547;-4.5811157;-2.4964752;-;-;-;-;-;-;-;-;-;-;-;-;-;-;-
1514004023103;-;-;13.191345;-3.1254425;-1.0156555;-;-;-;-;-;-;-;-;-;-;-;-;-;-;-
1514004023124;-;-;8.989517;-1.5811768;-1.4980927;-;-;-;-;-;-;-;-;-;-;-;-;-;-;-
1514004023147;-;-;5.510742;-0.5504761;-1.8943329;-;-;-;-;-;-;-;-;-;-;-;-;-;-;-
1514004023166;-;-;3.7007294;0.30186462;-1.9960785;-;-;-;-;-;-;-;-;-;-;-;-;-;-;-
1514004023187;-;-;4.1209106;1.0177307;-1.4765472;-;-;-;-;-;-;-;-;-;-;-;-;-;-;-
1514004023207;-;-;4.3842773;0.41438293;-2.2965546;-;-;-;-;-;-;-;-;-;-;-;-;-;-;-
1514004023227;-;-;4.090988;-1.107132;-1.8955231;-;-;-;-;-;-;-;-;-;-;-;-;-;-;-
1514004023248;-;-;4.4872284;-2.0336761;-1.3807678;-;-;-;-;-;-;-;-;-;-;-;-;-;-;-
1514004023268;-;-;4.5363007;-2.0336761;-2.005661;-;-;-;-;-;-;-;-;-;-;-;-;-;-;-
1514004023289;-;-;5.7322083;-1.9043884;-1.7566681;-;-;-;-;-;-;-;-;-;-;-;-;-;-;-
1514004023309;-;-;7.217804;-2.1390228;-1.7159576;-;-;-;-;-;-;-;-;-;-;-;-;-;-;-
1514004023329;-;-;7.4320984;-2.2515564;-1.1162109;-;-;-;-;-;-;-;-;-;-;-;-;-;-;-
1514004023349;-;-;7.383011;-1.9798126;-0.063964844;-;-;-;-;-;-;-;-;-;-;-;-;-;-;-
1514004023368;-;-;7.7253876;-2.3425293;1.1415253;-;-;-;-;-;-;-;-;-;-;-;-;-;-;-
1514004023389;-;-;7.9743805;-3.1362152;0.76802063;-;-;-;-;-;-;-;-;-;-;-;-;-;-;-
1514004023409;-;-;7.545822;-4.0340424;-1.2993622;-;-;-;-;-;-;-;-;-;-;-;-;-;-;-
1514004023429;-;-;7.4177246;-3.5540009;-1.7123718;-;-;-;-;-;-;-;-;-;-;-;-;-;-;-
1514004023450;-;-;6.7820587;-1.9750214;-2.0702972;-;-;-;-;-;-;-;-;-;-;-;-;-;-;-
1514004023471;-;-;8.4448395;-0.32182312;-5.5694275;-;-;-;-;-;-;-;-;-;-;-;-;-;-;-
1514004023491;-;-;11.094025;1.3158112;-5.6412506;-;-;-;-;-;-;-;-;-;-;-;-;-;-;-
1514004023512;-;-;15.767502;5.522415;-4.4549255;-;-;-;-;-;-;-;-;-;-;-;-;-;-;-
1514004023531;-;-;15.991364;5.2949677;-1.9697418;-;-;-;-;-;-;-;-;-;-;-;-;-;-;-
1514004023551;-;-;16.808975;-0.2607727;-2.286972;-;-;-;-;-;-;-;-;-;-;-;-;-;-;-
1514004023572;-;-;19.085861;-3.538437;-2.6556854;-;-;-;-;-;-;-;-;-;-;-;-;-;-;-
1514004023593;-;-;15.942276;-2.3102112;-1.0156555;-;-;-;-;-;-;-;-;-;-;-;-;-;-;-
1514004023612;-;-;12.202545;-1.2759247;-0.59547424;-;-;-;-;-;-;-;-;-;-;-;-;-;-;-
1514004023633;-;-;8.890167;-0.0728302;-1.8260956;-;-;-;-;-;-;-;-;-;-;-;-;-;-;-
1514004023653;-;-;7.7050323;1.1936951;-1.8584137;-;-;-;-;-;-;-;-;-;-;-;-;-;-;-
1514004023674;-;-;6.7341766;1.611496;-1.3975372;-;-;-;-;-;-;-;-;-;-;-;-;-;-;-
1514004023694;-;-;4.8236084;0.6681671;-0.73553467;-;-;-;-;-;-;-;-;-;-;-;-;-;-;-
1514004023715;-;-;3.7713623;-0.641449;-0.3943634;-;-;-;-;-;-;-;-;-;-;-;-;-;-;-
1514004023735;-;-;4.07901;-2.1150818;0.06173706;-;-;-;-;-;-;-;-;-;-;-;-;-;-;-
1514004023756;-;-;6.7377777;-2.416748;-0.30697632;-;-;-;-;-;-;-;-;-;-;-;-;-;-;-
1514004023776;-;-;8.519058;-0.957489;-1.3125305;-;-;-;-;-;-;-;-;-;-;-;-;-;-;-
1514004023797;-;-;8.292801;0.8297882;-1.5962524;-;-;-;-;-;-;-;-;-;-;-;-;-;-;-
1514004023817;-;-;8.370621;1.659378;-1.6273804;-;-;-;-;-;-;-;-;-;-;-;-;-;-;-
1514004023837;-;-;8.194641;1.1206818;-2.0631256;-;-;-;-;-;-;-;-;-;-;-;-;-;-;-
1514004023858;-;-;8.668701;0.115112305;-1.5040741;-;-;-;-;-;-;-;-;-;-;-;-;-;-;-
1514004023878;-;-;7.9624023;0.2803192;-1.0336151;-;-;-;-;-;-;-;-;-;-;-;-;-;-;-
1514004023899;-;-;6.651581;0.88604736;-1.6453247;-;-;-;-;-;-;-;-;-;-;-;-;-;-;-
1514004023919;-;-;5.20549;0.7364044;-2.0319977;-;-;-;-;-;-;-;-;-;-;-;-;-;-;-
1514004023940;-;-;5.3407593;-0.463089;-0.34169006;-;-;-;-;-;-;-;-;-;-;-;-;-;-;-
1514004023960;-;-;7.9899445;-1.4542847;0.15270996;-;-;-;-;-;-;-;-;-;-;-;-;-;-;-
1514004023981;-;-;9.947205;-1.1621857;-1.5926514;-;-;-;-;-;-;-;-;-;-;-;-;-;-;-
1514004024001;-;-;9.032608;0.03012085;-2.6197662;-;-;-;-;-;-;-;-;-;-;-;-;-;-;-
1514004024022;-;-;7.719391;1.1446228;-2.349228;-;-;-;-;-;-;-;-;-;-;-;-;-;-;-
1514004024042;-;-;6.5091248;1.0955353;-2.105011;-;-;-;-;-;-;-;-;-;-;-;-;-;-;-
1514004024062;-;-;6.474411;-0.2966919;-3.077057;-;-;-;-;-;-;-;-;-;-;-;-;-;-;-
1514004024083;-;-;11.028183;-5.512451;-5.9213715;-;-;-;-;-;-;-;-;-;-;-;-;-;-;-
1514004024102;-;-;15.907562;-8.843994;-1.7255402;-;-;-;-;-;-;-;-;-;-;-;-;-;-;-
1514004024122;-;-;18.644135;-4.372818;0.44241333;-;-;-;-;-;-;-;-;-;-;-;-;-;-;-
1514004024143;-;-;15.7938385;-0.35176086;-1.7482758;-;-;-;-;-;-;-;-;-;-;-;-;-;-;-
1514004024164;-;-;17.344086;-2.480194;-3.1105804;-;-;-;-;-;-;-;-;-;-;-;-;-;-;-
1514004024184;-;-;20.191986;-3.6401978;-1.74469;-;-;-;-;-;-;-;-;-;-;-;-;-;-;-
1514004024204;-;-;14.1214905;-2.2587433;-1.887146;-;-;-;-;-;-;-;-;-;-;-;-;-;-;-
1514004024225;-;-;10.373367;-1.6338501;-1.7207489;-;-;-;-;-;-;-;-;-;-;-;-;-;-;-
1514004024245;-;-;5.1994934;-0.7803192;-1.7794037;-;-;-;-;-;-;-;-;-;-;-;-;-;-;-
1514004024265;-;-;3.1967468;-0.34936523;-0.26268005;-;-;-;-;-;-;-;-;-;-;-;-;-;-;-
1514004024286;-;-;2.5479126;0.081588745;-0.5535736;-;-;-;-;-;-;-;-;-;-;-;-;-;-;-
1514004024306;-;-;1.7925568;0.30903625;-1.5435791;-;-;-;-;-;-;-;-;-;-;-;-;-;-;-
1514004024327;-;-;3.5032043;-1.2268372;-1.3544312;-;-;-;-;-;-;-;-;-;-;-;-;-;-;-
1514004024347;-;-;5.8243866;-2.1079102;-1.5172424;-;-;-;-;-;-;-;-;-;-;-;-;-;-;-
1514004024367;-;-;6.6384125;-2.558014;-1.3508453;-;-;-;-;-;-;-;-;-;-;-;-;-;-;-
1514004024388;-;-;9.401321;-3.2762756;-0.91389465;-;-;-;-;-;-;-;-;-;-;-;-;-;-;-
1514004024408;-;-;11.493851;-3.6234283;-1.2299347;-;-;-;-;-;-;-;-;-;-;-;-;-;-;-
1514004024429;-;-;10.5278015;-3.170929;-3.326065;-;-;-;-;-;-;-;-;-;-;-;-;-;-;-
1514004024450;-;-;8.514267;-2.716034;-2.9166565;-;-;-;-;-;-;-;-;-;-;-;-;-;-;-
1514004024470;-;-;5.4724426;-1.6063232;-1.480133;-;-;-;-;-;-;-;-;-;-;-;-;-;-;-
1514004024491;-;-;3.5307465;-1.9833984;0.3825531;-;-;-;-;-;-;-;-;-;-;-;-;-;-;-
1514004024511;-;-;3.292511;-3.3876038;1.2779846;-;-;-;-;-;-;-;-;-;-;-;-;-;-;-
1514004024531;-;-;4.5662384;-3.8616486;2.0094147;-;-;-;-;-;-;-;-;-;-;-;-;-;-;-
1514004024552;-;-;8.10965;-3.349289;2.706131;-;-;-;-;-;-;-;-;-;-;-;-;-;-;-
1514004024572;-;-;9.9831085;-3.012909;-1.7554626;-;-;-;-;-;-;-;-;-;-;-;-;-;-;-
1514004024593;-;-;8.256897;-2.4825897;-8.2617035;-;-;-;-;-;-;-;-;-;-;-;-;-;-;-
1514004024613;-;-;5.886627;-0.23683167;-8.058197;-;-;-;-;-;-;-;-;-;-;-;-;-;-;-
1514004024634;-;-;11.135925;4.0930786;-0.4446411;-;-;-;-;-;-;-;-;-;-;-;-;-;-;-
1514004024654;-;-;15.826157;6.8559875;3.0868073;-;-;-;-;-;-;-;-;-;-;-;-;-;-;-
1514004024675;-;-;15.971008;5.133362;-4.2011414;-;-;-;-;-;-;-;-;-;-;-;-;-;-;-
1514004024694;-;-;23.979614;1.7659149;-7.560211;-;-;-;-;-;-;-;-;-;-;-;-;-;-;-
1514004024715;-;-;25.079758;-1.7332153;-5.5730133;-;-;-;-;-;-;-;-;-;-;-;-;-;-;-
1514004024735;-;-;14.442322;-1.5273132;-2.614975;-;-;-;-;-;-;-;-;-;-;-;-;-;-;-
1514004024755;-;-;10.181839;-1.052063;-1.4490051;-;-;-;-;-;-;-;-;-;-;-;-;-;-;-
1514004024776;-;-;7.525467;0.37487793;-1.7782135;-;-;-;-;-;-;-;-;-;-;-;-;-;-;-
1514004024795;-;-;5.715454;1.6174774;-2.148117;-;-;-;-;-;-;-;-;-;-;-;-;-;-;-
1514004024815;-;-;4.1448517;1.7850647;-1.492096;-;-;-;-;-;-;-;-;-;-;-;-;-;-;-
1514004024836;-;-;2.1828003;0.8297882;-1.4657593;-;-;-;-;-;-;-;-;-;-;-;-;-;-;-
1514004024856;-;-;0.8707886;-0.45829773;-0.21838379;-;-;-;-;-;-;-;-;-;-;-;-;-;-;-
1514004024877;-;-;0.62298584;-1.4530945;0.26045227;-;-;-;-;-;-;-;-;-;-;-;-;-;-;-
1514004024897;-;-;5.866287;-2.0540314;-0.630188;-;-;-;-;-;-;-;-;-;-;-;-;-;-;-
1514004024916;-;-;8.835098;-1.641037;-2.021225;-;-;-;-;-;-;-;-;-;-;-;-;-;-;-
1514004024936;-;-;7.264496;-0.00340271;-1.9733429;-;-;-;-;-;-;-;-;-;-;-;-;-;-;-
1514004024957;-;-;5.2749176;1.2176361;-1.8548279;-;-;-;-;-;-;-;-;-;-;-;-;-;-;-
1514004024977;-;-;5.7693176;1.3229828;-2.4749146;-;-;-;-;-;-;-;-;-;-;-;-;-;-;-
1514004024997;-;-;7.6020813;1.4163666;-1.579483;-;-;-;-;-;-;-;-;-;-;-;-;-;-;-
1514004025017;-;-;7.93367;1.6031036;-0.2758484;-;-;-;-;-;-;-;-;-;-;-;-;-;-;-
1514004025038;-;-;8.243729;0.8704834;-0.906723;-;-;-;-;-;-;-;-;-;-;-;-;-;-;-
1514004025059;-;-;8.988327;-0.3194275;-2.0260162;-;-;-;-;-;-;-;-;-;-;-;-;-;-;-
1514004025079;-;-;8.217392;-0.8605194;-2.820877;-;-;-;-;-;-;-;-;-;-;-;-;-;-;-
1514004025099;-;-;7.335129;-0.63786316;-3.6037903;-;-;-;-;-;-;-;-;-;-;-;-;-;-;-
1514004025120;-;-;5.7884674;-1.0017853;-3.7630005;-;-;-;-;-;-;-;-;-;-;-;-;-;-;-
1514004025139;-;-;5.806427;-2.9291077;-4.966095;-;-;-;-;-;-;-;-;-;-;-;-;-;-;-
1514004025159;-;-;10.368576;-5.856018;-2.5539246;-;-;-;-;-;-;-;-;-;-;-;-;-;-;-
1514004025180;-;-;16.624634;-7.4338074;-2.0523376;-;-;-;-;-;-;-;-;-;-;-;-;-;-;-
1514004025201;-;-;24.326782;-5.760254;-2.1373444;-;-;-;-;-;-;-;-;-;-;-;-;-;-;-
1514004025222;-;-;24.372269;-5.018051;-4.7326508;-;-;-;-;-;-;-;-;-;-;-;-;-;-;-
1514004025242;-;-;21.239456;-3.440277;-3.5762482;-;-;-;-;-;-;-;-;-;-;-;-;-;-;-
1514004025263;-;-;18.337677;-3.4330902;-3.559494;-;-;-;-;-;-;-;-;-;-;-;-;-;-;-
1514004025283;-;-;7.5637665;-1.3082428;-2.9178467;-;-;-;-;-;-;-;-;-;-;-;-;-;-;-
1514004025303;-;-;3.0064087;-0.13508606;-2.5455475;-;-;-;-;-;-;-;-;-;-;-;-;-;-;-
1514004025324;-;-;2.0415497;0.062438965;-2.120575;-;-;-;-;-;-;-;-;-;-;-;-;-;-;-
1514004025345;-;-;3.0973969;0.4514923;-1.1389618;-;-;-;-;-;-;-;-;-;-;-;-;-;-;-
1514004025366;-;-;4.2813263;-0.26437378;-2.1505127;-;-;-;-;-;-;-;-;-;-;-;-;-;-;-
1514004025386;-;-;4.4489136;-1.1023407;-3.1105804;-;-;-;-;-;-;-;-;-;-;-;-;-;-;-
1514004025406;-;-;3.5115814;-2.54245;-1.5603333;-;-;-;-;-;-;-;-;-;-;-;-;-;-;-
1514004025426;-;-;2.9788818;-2.8560944;-1.0336151;-;-;-;-;-;-;-;-;-;-;-;-;-;-;-
1514004025447;-;-;3.0854187;-2.250351;-1.5375977;-;-;-;-;-;-;-;-;-;-;-;-;-;-;-
1514004025467;-;-;4.0407104;-1.546463;-0.77622986;-;-;-;-;-;-;-;-;-;-;-;-;-;-;-
1514004025487;-;-;5.687912;-1.5739899;0.51423645;-;-;-;-;-;-;-;-;-;-;-;-;-;-;-
1514004025508;-;-;8.316742;-3.27388;2.5313568;-;-;-;-;-;-;-;-;-;-;-;-;-;-;-
1514004025528;-;-;11.043747;-4.9174957;1.6814117;-;-;-;-;-;-;-;-;-;-;-;-;-;-;-
1514004025548;-;-;13.044098;-5.135376;-2.191208;-;-;-;-;-;-;-;-;-;-;-;-;-;-;-
1514004025568;-;-;10.451187;-3.1840973;-2.2247314;-;-;-;-;-;-;-;-;-;-;-;-;-;-;-
1514004025589;-;-;8.299988;-1.3788757;0.72612;-;-;-;-;-;-;-;-;-;-;-;-;-;-;-
1514004025609;-;-;7.581726;0.07321167;1.3665771;-;-;-;-;-;-;-;-;-;-;-;-;-;-;-
1514004025629;-;-;7.964798;1.0572357;-0.9079132;-;-;-;-;-;-;-;-;-;-;-;-;-;-;-
1514004025649;-;-;7.241745;0.378479;-5.1061554;-;-;-;-;-;-;-;-;-;-;-;-;-;-;-
1514004025670;-;-;6.466034;-0.39006042;-8.660339;-;-;-;-;-;-;-;-;-;-;-;-;-;-;-
1514004025690;-;-;8.80397;0.73760986;-5.8890533;-;-;-;-;-;-;-;-;-;-;-;-;-;-;-
1514004025711;-;-;13.761169;3.6405792;-1.7219391;-;-;-;-;-;-;-;-;-;-;-;-;-;-;-
1514004025731;-;-;14.346542;1.7647247;-2.0667114;-;-;-;-;-;-;-;-;-;-;-;-;-;-;-
1514004025751;-;-;17.575134;-4.510483;-3.183609;-;-;-;-;-;-;-;-;-;-;-;-;-;-;-
1514004025771;-;-;22.595764;-9.42099;-3.057907;-;-;-;-;-;-;-;-;-;-;-;-;-;-;-
1514004025792;-;-;21.6333;-7.8731384;-7.077774;-;-;-;-;-;-;-;-;-;-;-;-;-;-;-
1514004025812;-;-;12.558075;-1.1454315;-3.1417084;-;-;-;-;-;-;-;-;-;-;-;-;-;-;-
1514004025833;-;-;12.649063;1.2056732;-2.4390106;-;-;-;-;-;-;-;-;-;-;-;-;-;-;-
1514004025852;-;-;8.659119;1.8078156;-3.3092957;-;-;-;-;-;-;-;-;-;-;-;-;-;-;-
1514004025872;-;-;3.3655396;1.4187622;-3.001648;-;-;-;-;-;-;-;-;-;-;-;-;-;-;-
1514004025893;-;-;1.6058044;-0.41281128;-2.3312683;-;-;-;-;-;-;-;-;-;-;-;-;-;-;-
1514004025913;-;-;2.454544;-1.3226013;-0.9079132;-;-;-;-;-;-;-;-;-;-;-;-;-;-;-
1514004025933;-;-;6.466034;-1.0137482;-0.5344238;-;-;-;-;-;-;-;-;-;-;-;-;-;-;-
1514004025954;-;-;6.218231;-0.720459;-1.3328857;-;-;-;-;-;-;-;-;-;-;-;-;-;-;-
1514004025975;-;-;5.110916;-0.4056244;-1.1748657;-;-;-;-;-;-;-;-;-;-;-;-;-;-;-
1514004025995;-;-;4.6536255;0.18214417;-0.7965851;-;-;-;-;-;-;-;-;-;-;-;-;-;-;-
1514004026015;-;-;5.447296;0.86569214;-1.2095795;-;-;-;-;-;-;-;-;-;-;-;-;-;-;-
1514004026036;-;-;7.711014;1.4654388;-4.11734;-;-;-;-;-;-;-;-;-;-;-;-;-;-;-
1514004026056;-;-;9.430054;2.3010254;-6.5618286;-;-;-;-;-;-;-;-;-;-;-;-;-;-;-
1514004026077;-;-;9.330688;3.8979492;-4.2801514;-;-;-;-;-;-;-;-;-;-;-;-;-;-;-
1514004026098;-;-;11.272385;2.813385;1.1415253;-;-;-;-;-;-;-;-;-;-;-;-;-;-;-
1514004026117;-;-;12.018188;-0.21289063;-1.1078339;-;-;-;-;-;-;-;-;-;-;-;-;-;-;-
1514004026138;-;-;11.571671;-2.5137177;-9.641968;-;-;-;-;-;-;-;-;-;-;-;-;-;-;-
1514004026157;-;-;12.668213;-6.13974;-4.481262;-;-;-;-;-;-;-;-;-;-;-;-;-;-;-
1514004026178;-;-;12.99382;-10.735413;-3.5056305;-;-;-;-;-;-;-;-;-;-;-;-;-;-;-
1514004026197;-;-;15.803421;-11.706253;-8.259308;-;-;-;-;-;-;-;-;-;-;-;-;-;-;-
1514004026218;-;-;13.1805725;-5.9398193;-6.361908;-;-;-;-;-;-;-;-;-;-;-;-;-;-;-
1514004026238;-;-;9.538986;1.7934418;-6.96286;-;-;-;-;-;-;-;-;-;-;-;-;-;-;-
1514004026259;-;-;7.1292267;5.1513214;-6.0758057;-;-;-;-;-;-;-;-;-;-;-;-;-;-;-
1514004026279;-;-;6.1475983;4.4151;-5.42218;-;-;-;-;-;-;-;-;-;-;-;-;-;-;-
1514004026299;-;-;9.182251;-0.17098999;-4.334015;-;-;-;-;-;-;-;-;-;-;-;-;-;-;-
1514004026319;-;-;9.912491;-3.8676453;-3.36557;-;-;-;-;-;-;-;-;-;-;-;-;-;-;-
1514004026340;-;-;8.74292;-5.033615;-2.5646973;-;-;-;-;-;-;-;-;-;-;-;-;-;-;-
1514004026360;-;-;6.752136;-4.570343;-2.0008698;-;-;-;-;-;-;-;-;-;-;-;-;-;-;-
1514004026380;-;-;4.762558;-3.3744354;-1.7758179;-;-;-;-;-;-;-;-;-;-;-;-;-;-;-
1514004026401;-;-;3.1117554;-2.451477;-2.2893677;-;-;-;-;-;-;-;-;-;-;-;-;-;-;-
1514004026420;-;-;3.6444702;-1.1418457;-1.5423737;-;-;-;-;-;-;-;-;-;-;-;-;-;-;-
1514004026441;-;-;6.9005737;-1.6829376;-2.0487518;-;-;-;-;-;-;-;-;-;-;-;-;-;-;-
1514004026461;-;-;7.827133;-1.4866028;-1.753067;-;-;-;-;-;-;-;-;-;-;-;-;-;-;-
1514004026482;-;-;7.861847;-1.5201263;-1.4130859;-;-;-;-;-;-;-;-;-;-;-;-;-;-;-
1514004026502;-;-;7.8367157;-2.1929016;-1.526825;-;-;-;-;-;-;-;-;-;-;-;-;-;-;-
1514004026522;-;-;7.762497;-3.124237;-1.5256195;-;-;-;-;-;-;-;-;-;-;-;-;-;-;-
1514004026542;-;-;8.4292755;-2.890808;-2.1672668;-;-;-;-;-;-;-;-;-;-;-;-;-;-;-
1514004026563;-;-;9.346252;-1.8301697;-2.3611908;-;-;-;-;-;-;-;-;-;-;-;-;-;-;-
1514004026583;-;-;9.944809;-1.1250763;-1.2443085;-;-;-;-;-;-;-;-;-;-;-;-;-;-;-
1514004026604;-;-;10.378159;-1.4710388;-1.0898743;-;-;-;-;-;-;-;-;-;-;-;-;-;-;-
1514004026624;-;-;10.3697815;-2.495758;-0.7858124;-;-;-;-;-;-;-;-;-;-;-;-;-;-;-
1514004026644;-;-;9.280411;-4.218399;-0.95339966;-;-;-;-;-;-;-;-;-;-;-;-;-;-;-
1514004026665;-;-;9.6467285;-6.685623;-7.6380157;-;-;-;-;-;-;-;-;-;-;-;-;-;-;-
1514004026685;-;-;13.317032;-5.279022;-6.598938;-;-;-;-;-;-;-;-;-;-;-;-;-;-;-
1514004026705;-;-;10.999451;-1.7631378;-5.8806763;-;-;-;-;-;-;-;-;-;-;-;-;-;-;-
1514004026726;-;-;7.7457275;1.5336761;-5.128891;-;-;-;-;-;-;-;-;-;-;-;-;-;-;-
1514004026746;-;-;7.0777435;3.228775;-5.6532288;-;-;-;-;-;-;-;-;-;-;-;-;-;-;-
1514004026767;-;-;9.819107;1.9155579;-4.3160553;-;-;-;-;-;-;-;-;-;-;-;-;-;-;-
1514004026787;-;-;11.799118;-2.1174774;-4.8152466;-;-;-;-;-;-;-;-;-;-;-;-;-;-;-
1514004026808;-;-;12.429993;-4.7104034;-2.9753113;-;-;-;-;-;-;-;-;-;-;-;-;-;-;-
1514004026828;-;-;10.874954;-4.7822266;-2.761032;-;-;-;-;-;-;-;-;-;-;-;-;-;-;-
1514004026848;-;-;9.085281;-3.143402;-3.4529572;-;-;-;-;-;-;-;-;-;-;-;-;-;-;-
1514004026869;-;-;6.806015;-0.87968445;-3.3559875;-;-;-;-;-;-;-;-;-;-;-;-;-;-;-
1514004026888;-;-;5.113312;0.8501282;-3.1824036;-;-;-;-;-;-;-;-;-;-;-;-;-;-;-
1514004026909;-;-;3.6803741;1.674942;-2.934616;-;-;-;-;-;-;-;-;-;-;-;-;-;-;-
1514004026929;-;-;3.2362518;1.3134155;-2.2438812;-;-;-;-;-;-;-;-;-;-;-;-;-;-;-
1514004026949;-;-;5.414978;-0.09916687;-1.5220337;-;-;-;-;-;-;-;-;-;-;-;-;-;-;-
1514004026970;-;-;9.285202;-0.49421692;-2.3300781;-;-;-;-;-;-;-;-;-;-;-;-;-;-;-
1514004026990;-;-;9.961563;0.39762878;-2.8137054;-;-;-;-;-;-;-;-;-;-;-;-;-;-;-
1514004027010;-;-;9.440826;1.6378326;-2.5694885;-;-;-;-;-;-;-;-;-;-;-;-;-;-;-
1514004027031;-;-;8.5047;1.9909668;-1.6405487;-;-;-;-;-;-;-;-;-;-;-;-;-;-;-
1514004027051;-;-;8.459198;1.1709595;-0.85284424;-;-;-;-;-;-;-;-;-;-;-;-;-;-;-
1514004027072;-;-;8.143173;-0.5313263;-0.49850464;-;-;-;-;-;-;-;-;-;-;-;-;-;-;-
1514004027093;-;-;9.173874;-1.2471924;-1.9206696;-;-;-;-;-;-;-;-;-;-;-;-;-;-;-
1514004027113;-;-;9.121201;0.04208374;-2.0858612;-;-;-;-;-;-;-;-;-;-;-;-;-;-;-
1514004027133;-;-;9.080505;1.0356903;-1.9685516;-;-;-;-;-;-;-;-;-;-;-;-;-;-;-
1514004027154;-;-;8.945221;1.5312805;-1.4202728;-;-;-;-;-;-;-;-;-;-;-;-;-;-;-
1514004027174;-;-;7.987549;1.892807;-0.80856323;-;-;-;-;-;-;-;-;-;-;-;-;-;-;-
1514004027195;-;-;7.3339233;1.8173981;-0.55596924;-;-;-;-;-;-;-;-;-;-;-;-;-;-;-
1514004027216;-;-;8.022263;1.9047852;-1.658493;-;-;-;-;-;-;-;-;-;-;-;-;-;-;-
1514004027235;-;-;8.26886;1.145813;-5.400635;-;-;-;-;-;-;-;-;-;-;-;-;-;-;-
1514004027256;-;-;14.181351;-2.815384;-10.758865;-;-;-;-;-;-;-;-;-;-;-;-;-;-;-
1514004027276;-;-;17.997711;-5.6908264;-3.3823242;-;-;-;-;-;-;-;-;-;-;-;-;-;-;-
1514004027297;-;-;14.6553955;-5.8296967;-7.9265137;-;-;-;-;-;-;-;-;-;-;-;-;-;-;-
1514004027317;-;-;11.801514;-4.9881287;-4.8607483;-;-;-;-;-;-;-;-;-;-;-;-;-;-;-
1514004027337;-;-;9.916077;-3.938263;-1.4502106;-;-;-;-;-;-;-;-;-;-;-;-;-;-;-
1514004027357;-;-;8.654327;-2.62146;-2.365982;-;-;-;-;-;-;-;-;-;-;-;-;-;-;-
1514004027378;-;-;8.213791;-0.20570374;-3.010025;-;-;-;-;-;-;-;-;-;-;-;-;-;-;-
1514004027399;-;-;9.085281;1.8042297;-2.9334106;-;-;-;-;-;-;-;-;-;-;-;-;-;-;-
1514004027419;-;-;8.735733;0.9650574;-3.1979675;-;-;-;-;-;-;-;-;-;-;-;-;-;-;-
1514004027441;-;-;7.884598;-0.44992065;-2.4162598;-;-;-;-;-;-;-;-;-;-;-;-;-;-;-
1514004027461;-;-;6.2074585;-1.7056732;-1.768631;-;-;-;-;-;-;-;-;-;-;-;-;-;-;-
1514004027481;-;-;4.5590515;-2.5256958;-0.7187805;-;-;-;-;-;-;-;-;-;-;-;-;-;-;-
1514004027502;-;-;3.4493408;-2.423935;-0.37998962;-;-;-;-;-;-;-;-;-;-;-;-;-;-;-
1514004027521;-;-;6.489975;-2.182129;-0.38957214;-;-;-;-;-;-;-;-;-;-;-;-;-;-;-
1514004027542;-;-;8.009094;-1.8553162;-1.629776;-;-;-;-;-;-;-;-;-;-;-;-;-;-;-
1514004027562;-;-;8.649536;-1.6147003;-1.9194641;-;-;-;-;-;-;-;-;-;-;-;-;-;-;-
1514004027583;-;-;9.125992;-1.6877136;-1.6788483;-;-;-;-;-;-;-;-;-;-;-;-;-;-;-
1514004027603;-;-;10.777985;-1.2986603;-1.0563507;-;-;-;-;-;-;-;-;-;-;-;-;-;-;-
1514004027624;-;-;11.965515;-0.48104858;-1.0336151;-;-;-;-;-;-;-;-;-;-;-;-;-;-;-
1514004027645;-;-;10.949173;-0.03213501;-1.7267303;-;-;-;-;-;-;-;-;-;-;-;-;-;-;-
1514004027664;-;-;8.850662;-0.08241272;-1.8213043;-;-;-;-;-;-;-;-;-;-;-;-;-;-;-
1514004027685;-;-;6.8634644;-0.20570374;-0.97135925;-;-;-;-;-;-;-;-;-;-;-;-;-;-;-
1514004027705;-;-;5.605316;-0.3002777;-0.42907715;-;-;-;-;-;-;-;-;-;-;-;-;-;-;-
1514004027726;-;-;5.3311768;-0.96347046;0.7823944;-;-;-;-;-;-;-;-;-;-;-;-;-;-;-
1514004027746;-;-;5.4760284;-1.724823;0.77041626;-;-;-;-;-;-;-;-;-;-;-;-;-;-;-
1514004027767;-;-;5.8279724;-2.7256012;-0.18247986;-;-;-;-;-;-;-;-;-;-;-;-;-;-;-
1514004027787;-;-;5.5837708;-2.9913635;-0.9809418;-;-;-;-;-;-;-;-;-;-;-;-;-;-;-
1514004027808;-;-;6.260132;-2.6597595;0.54296875;-;-;-;-;-;-;-;-;-;-;-;-;-;-;-
1514004027828;-;-;7.845093;-2.4646454;1.3222809;-;-;-;-;-;-;-;-;-;-;-;-;-;-;-
1514004027848;-;-;9.206192;-2.6717377;1.0744781;-;-;-;-;-;-;-;-;-;-;-;-;-;-;-
1514004027869;-;-;8.674683;-2.8596802;-0.86361694;-;-;-;-;-;-;-;-;-;-;-;-;-;-;-
1514004027889;-;-;8.7764435;-3.064392;-1.3867645;-;-;-;-;-;-;-;-;-;-;-;-;-;-;-
1514004027910;-;-;9.213379;-3.598297;-5.187988E-4;-;-;-;-;-;-;-;-;-;-;-;-;-;-;-
1514004027930;-;-;8.855438;-3.9167175;-0.27824402;-;-;-;-;-;-;-;-;-;-;-;-;-;-;-
1514004027950;-;-;6.6419983;-3.5300598;-3.0196075;-;-;-;-;-;-;-;-;-;-;-;-;-;-;-
1514004027971;-;-;6.0578156;-1.4818115;-5.958481;-;-;-;-;-;-;-;-;-;-;-;-;-;-;-
