TimeStamp[ms];Prox[Cm];Lux[lux];AccX[m/s^2];AccY[m/s^2];AccZ[m/s^2];GyroX[rad/s];GyroY[rad/s];GyroZ[rad/s];MagnX[uT];MagnY[uT];MagnZ[uT];OrienYaw[degrees];OrienPitch[degrees];OrienRoll[degrees];Press[Pa];Temp[C°];Batt[%];Lat;Lng;Speed[m/s]
1514004067215;-;-;9.329498;0.014556885;1.212143;-;-;-;-;-;-;-;-;-;-;-;-;-;-;-
1514004067240;-;-;8.649536;-0.38168335;0.8949127;-;-;-;-;-;-;-;-;-;-;-;-;-;-;-
1514004067255;-;-;8.72496;-0.38049316;1.033783;-;-;-;-;-;-;-;-;-;-;-;-;-;-;-
1514004067275;-;-;9.076904;-0.6067352;0.41726685;-;-;-;-;-;-;-;-;-;-;-;-;-;-;-
1514004067295;-;-;9.081696;-0.38887024;0.80033875;-;-;-;-;-;-;-;-;-;-;-;-;-;-;-
1514004067316;-;-;9.658707;0.08758545;1.2624207;-;-;-;-;-;-;-;-;-;-;-;-;-;-;-
1514004067335;-;-;8.985931;0.56881714;0.09286499;-;-;-;-;-;-;-;-;-;-;-;-;-;-;-
1514004067355;-;-;9.141556;0.8154144;-0.059173584;-;-;-;-;-;-;-;-;-;-;-;-;-;-;-
1514004067376;-;-;9.203796;0.7244415;0.45558167;-;-;-;-;-;-;-;-;-;-;-;-;-;-;-
1514004067397;-;-;9.021835;1.1158905;0.7728119;-;-;-;-;-;-;-;-;-;-;-;-;-;-;-
1514004067417;-;-;9.267242;0.95547485;0.7835846;-;-;-;-;-;-;-;-;-;-;-;-;-;-;-
1514004067438;-;-;9.358231;0.6681671;0.923645;-;-;-;-;-;-;-;-;-;-;-;-;-;-;-
1514004067458;-;-;7.7816467;1.6186676;1.1475067;-;-;-;-;-;-;-;-;-;-;-;-;-;-;-
1514004067491;-;-;9.194229;0.9614563;0.89372253;-;-;-;-;-;-;-;-;-;-;-;-;-;-;-
1514004067498;-;-;9.242111;0.9075928;1.2672119;-;-;-;-;-;-;-;-;-;-;-;-;-;-;-
1514004067519;-;-;9.65152;1.556427;0.12397766;-;-;-;-;-;-;-;-;-;-;-;-;-;-;-
1514004067538;-;-;10.236893;1.2822876;1.0601196;-;-;-;-;-;-;-;-;-;-;-;-;-;-;-
1514004067561;-;-;9.244507;1.125473;-0.37161255;-;-;-;-;-;-;-;-;-;-;-;-;-;-;-
1514004067582;-;-;8.654327;0.5819855;-1.5232239;-;-;-;-;-;-;-;-;-;-;-;-;-;-;-
1514004067602;-;-;7.7816467;-0.6905365;0.5944519;-;-;-;-;-;-;-;-;-;-;-;-;-;-;-
1514004067623;-;-;8.577713;0.9459076;0.7428894;-;-;-;-;-;-;-;-;-;-;-;-;-;-;-
1514004067643;-;-;8.235352;1.1925049;0.4759369;-;-;-;-;-;-;-;-;-;-;-;-;-;-;-
1514004067664;-;-;9.595245;2.1992645;-1.0228424;-;-;-;-;-;-;-;-;-;-;-;-;-;-;-
1514004067684;-;-;10.483505;1.9430847;1.5724792;-;-;-;-;-;-;-;-;-;-;-;-;-;-;-
1514004067704;-;-;10.246475;1.1266632;1.622757;-;-;-;-;-;-;-;-;-;-;-;-;-;-;-
1514004067724;-;-;7.5194855;0.34136963;-0.24232483;-;-;-;-;-;-;-;-;-;-;-;-;-;-;-
1514004067744;-;-;7.9899445;1.5193176;-1.2083893;-;-;-;-;-;-;-;-;-;-;-;-;-;-;-
1514004067765;-;-;9.525818;1.2978516;-0.42668152;-;-;-;-;-;-;-;-;-;-;-;-;-;-;-
1514004067785;-;-;10.637924;1.9502716;-0.8851776;-;-;-;-;-;-;-;-;-;-;-;-;-;-;-
1514004067806;-;-;9.263657;3.007309;-0.7163849;-;-;-;-;-;-;-;-;-;-;-;-;-;-;-
1514004067827;-;-;9.808334;3.2898254;-0.14775085;-;-;-;-;-;-;-;-;-;-;-;-;-;-;-
1514004067847;-;-;9.579697;3.2395477;0.1251831;-;-;-;-;-;-;-;-;-;-;-;-;-;-;-
1514004067868;-;-;10.613983;2.189682;-1.4262543;-;-;-;-;-;-;-;-;-;-;-;-;-;-;-
1514004067887;-;-;11.825455;1.4259338;-2.71315;-;-;-;-;-;-;-;-;-;-;-;-;-;-;-
1514004067908;-;-;11.918823;1.5001526;-2.4318237;-;-;-;-;-;-;-;-;-;-;-;-;-;-;-
1514004067929;-;-;8.906921;-0.14704895;-2.4749146;-;-;-;-;-;-;-;-;-;-;-;-;-;-;-
1514004067949;-;-;9.499481;0.3282013;-2.8963013;-;-;-;-;-;-;-;-;-;-;-;-;-;-;-
1514004067969;-;-;9.197815;0.11392212;-3.0591125;-;-;-;-;-;-;-;-;-;-;-;-;-;-;-
1514004067989;-;-;7.901352;-0.704895;-2.9441833;-;-;-;-;-;-;-;-;-;-;-;-;-;-;-
1514004068009;-;-;6.604889;-0.9910126;-1.9158783;-;-;-;-;-;-;-;-;-;-;-;-;-;-;-
1514004068029;-;-;6.331955;-2.0157318;-1.9685516;-;-;-;-;-;-;-;-;-;-;-;-;-;-;-
1514004068050;-;-;8.420898;-2.9997406;-1.9494019;-;-;-;-;-;-;-;-;-;-;-;-;-;-;-
1514004068070;-;-;9.179855;-2.3975983;-2.1732483;-;-;-;-;-;-;-;-;-;-;-;-;-;-;-
1514004068091;-;-;10.172256;-0.79348755;-3.077057;-;-;-;-;-;-;-;-;-;-;-;-;-;-;-
1514004068111;-;-;10.218948;-0.5253296;-2.3276825;-;-;-;-;-;-;-;-;-;-;-;-;-;-;-
1514004068132;-;-;9.974731;-1.052063;-1.887146;-;-;-;-;-;-;-;-;-;-;-;-;-;-;-
1514004068151;-;-;7.6104584;-1.324997;-1.9529877;-;-;-;-;-;-;-;-;-;-;-;-;-;-;-
1514004068171;-;-;7.497925;-2.1186829;-2.4641418;-;-;-;-;-;-;-;-;-;-;-;-;-;-;-
1514004068192;-;-;7.83432;-2.309021;-2.3983002;-;-;-;-;-;-;-;-;-;-;-;-;-;-;-
1514004068212;-;-;7.9791718;-1.8517303;-2.3683777;-;-;-;-;-;-;-;-;-;-;-;-;-;-;-
1514004068233;-;-;7.478775;-1.3800659;-2.1505127;-;-;-;-;-;-;-;-;-;-;-;-;-;-;-
1514004068254;-;-;7.552994;-1.0664215;-1.863205;-;-;-;-;-;-;-;-;-;-;-;-;-;-;-
1514004068275;-;-;8.058182;-0.7276459;-1.8260956;-;-;-;-;-;-;-;-;-;-;-;-;-;-;-
1514004068295;-;-;8.382584;-0.27633667;-2.2259216;-;-;-;-;-;-;-;-;-;-;-;-;-;-;-
1514004068315;-;-;8.5047;0.60832214;-1.8512268;-;-;-;-;-;-;-;-;-;-;-;-;-;-;-
1514004068336;-;-;8.888962;1.4343262;-1.3340912;-;-;-;-;-;-;-;-;-;-;-;-;-;-;-
1514004068355;-;-;9.626373;1.0129395;-1.3735962;-;-;-;-;-;-;-;-;-;-;-;-;-;-;-
1514004068376;-;-;10.79715;-0.1817627;-1.950592;-;-;-;-;-;-;-;-;-;-;-;-;-;-;-
1514004068396;-;-;10.060928;-0.6713867;-2.603012;-;-;-;-;-;-;-;-;-;-;-;-;-;-;-
1514004068417;-;-;7.8558655;-1.953476;-2.0750885;-;-;-;-;-;-;-;-;-;-;-;-;-;-;-
1514004068437;-;-;8.358643;-2.6621552;1.1558838;-;-;-;-;-;-;-;-;-;-;-;-;-;-;-
1514004068457;-;-;11.278381;-1.4075928;1.4036865;-;-;-;-;-;-;-;-;-;-;-;-;-;-;-
1514004068478;-;-;12.59639;-1.5668182;-2.0283966;-;-;-;-;-;-;-;-;-;-;-;-;-;-;-
1514004068498;-;-;11.37175;-2.341339;-6.4696503;-;-;-;-;-;-;-;-;-;-;-;-;-;-;-
1514004068519;-;-;11.310699;-2.4658356;-5.4269714;-;-;-;-;-;-;-;-;-;-;-;-;-;-;-
1514004068539;-;-;10.380554;-2.222824;-3.9222107;-;-;-;-;-;-;-;-;-;-;-;-;-;-;-
1514004068560;-;-;8.164719;-1.2184601;-3.8025055;-;-;-;-;-;-;-;-;-;-;-;-;-;-;-
1514004068581;-;-;7.035858;0.08758545;-5.0630493;-;-;-;-;-;-;-;-;-;-;-;-;-;-;-
1514004068601;-;-;7.3734283;1.3217926;-5.6280823;-;-;-;-;-;-;-;-;-;-;-;-;-;-;-
1514004068620;-;-;8.562149;2.529663;-3.5583038;-;-;-;-;-;-;-;-;-;-;-;-;-;-;-
1514004068641;-;-;9.79158;1.758728;-3.6289215;-;-;-;-;-;-;-;-;-;-;-;-;-;-;-
1514004068661;-;-;11.412445;0.64782715;-3.1476898;-;-;-;-;-;-;-;-;-;-;-;-;-;-;-
1514004068682;-;-;13.123108;0.33059692;-3.5642853;-;-;-;-;-;-;-;-;-;-;-;-;-;-;-
1514004068703;-;-;12.865738;0.49699402;-3.8839111;-;-;-;-;-;-;-;-;-;-;-;-;-;-;-
1514004068722;-;-;9.584473;0.35333252;-3.2530365;-;-;-;-;-;-;-;-;-;-;-;-;-;-;-
1514004068742;-;-;6.0254974;0.3605194;-1.3412628;-;-;-;-;-;-;-;-;-;-;-;-;-;-;-
1514004068763;-;-;3.1153412;0.32460022;0.40171814;-;-;-;-;-;-;-;-;-;-;-;-;-;-;-
1514004068783;-;-;2.3061066;-0.090789795;1.0134277;-;-;-;-;-;-;-;-;-;-;-;-;-;-;-
1514004068803;-;-;2.4509583;-0.82221985;0.24609375;-;-;-;-;-;-;-;-;-;-;-;-;-;-;-
1514004068824;-;-;5.0965424;-1.1657867;-1.3269043;-;-;-;-;-;-;-;-;-;-;-;-;-;-;-
1514004068845;-;-;7.391388;-1.3920441;-1.8667908;-;-;-;-;-;-;-;-;-;-;-;-;-;-;-
1514004068865;-;-;8.768051;-1.8050385;-1.3328857;-;-;-;-;-;-;-;-;-;-;-;-;-;-;-
1514004068886;-;-;8.878189;-1.8696747;-1.0312195;-;-;-;-;-;-;-;-;-;-;-;-;-;-;-
1514004068906;-;-;6.924515;-1.5692139;-0.8396759;-;-;-;-;-;-;-;-;-;-;-;-;-;-;-
1514004068926;-;-;5.130066;-0.5037842;0.13954163;-;-;-;-;-;-;-;-;-;-;-;-;-;-;-
1514004068947;-;-;4.233444;1.1601868;0.43522644;-;-;-;-;-;-;-;-;-;-;-;-;-;-;-
1514004068968;-;-;4.23822;2.5536041;-0.42668152;-;-;-;-;-;-;-;-;-;-;-;-;-;-;-
1514004068988;-;-;5.759735;3.9410553;-2.3384552;-;-;-;-;-;-;-;-;-;-;-;-;-;-;-
1514004069008;-;-;6.858673;2.7798615;-2.8807373;-;-;-;-;-;-;-;-;-;-;-;-;-;-;-
1514004069028;-;-;9.331894;1.477417;-1.792572;-;-;-;-;-;-;-;-;-;-;-;-;-;-;-
1514004069049;-;-;11.158661;1.2571411;-1.2933807;-;-;-;-;-;-;-;-;-;-;-;-;-;-;-
1514004069069;-;-;10.374573;1.8425293;-4.4716797;-;-;-;-;-;-;-;-;-;-;-;-;-;-;-
1514004069090;-;-;7.988739;1.027298;-7.883423;-;-;-;-;-;-;-;-;-;-;-;-;-;-;-
1514004069109;-;-;8.400543;-1.9546814;-10.117218;-;-;-;-;-;-;-;-;-;-;-;-;-;-;-
1514004069130;-;-;10.485901;-6.0152435;-10.020248;-;-;-;-;-;-;-;-;-;-;-;-;-;-;-
1514004069151;-;-;19.389938;-7.8264465;-5.029541;-;-;-;-;-;-;-;-;-;-;-;-;-;-;-
1514004069171;-;-;27.787598;-3.2547302;1.7532349;-;-;-;-;-;-;-;-;-;-;-;-;-;-;-
1514004069190;-;-;15.353302;-0.9826355;0.14193726;-;-;-;-;-;-;-;-;-;-;-;-;-;-;-
1514004069210;-;-;12.335419;-4.332123;-1.5004883;-;-;-;-;-;-;-;-;-;-;-;-;-;-;-
1514004069230;-;-;10.465546;-4.1776886;0.9751282;-;-;-;-;-;-;-;-;-;-;-;-;-;-;-
1514004069251;-;-;9.685028;-3.4175262;0.72612;-;-;-;-;-;-;-;-;-;-;-;-;-;-;-
1514004069272;-;-;8.003113;-2.22641;-3.5702667;-;-;-;-;-;-;-;-;-;-;-;-;-;-;-
1514004069292;-;-;5.473633;-1.1645813;-4.8691254;-;-;-;-;-;-;-;-;-;-;-;-;-;-;-
1514004069313;-;-;3.066269;0.15461731;-3.7630005;-;-;-;-;-;-;-;-;-;-;-;-;-;-;-
1514004069333;-;-;1.2550507;1.3756561;-1.9685516;-;-;-;-;-;-;-;-;-;-;-;-;-;-;-
1514004069352;-;-;1.7123413;2.074768;-0.0627594;-;-;-;-;-;-;-;-;-;-;-;-;-;-;-
1514004069373;-;-;4.834381;-0.27035522;-0.86242676;-;-;-;-;-;-;-;-;-;-;-;-;-;-;-
1514004069392;-;-;7.174713;-1.5548401;-2.570694;-;-;-;-;-;-;-;-;-;-;-;-;-;-;-
1514004069413;-;-;8.661514;-1.9522858;-3.0399475;-;-;-;-;-;-;-;-;-;-;-;-;-;-;-
1514004069432;-;-;8.849457;-1.700882;-2.859192;-;-;-;-;-;-;-;-;-;-;-;-;-;-;-
1514004069453;-;-;7.4919434;-1.131073;-2.5994263;-;-;-;-;-;-;-;-;-;-;-;-;-;-;-
1514004069472;-;-;6.5749664;-1.2711334;-0.6373749;-;-;-;-;-;-;-;-;-;-;-;-;-;-;-
1514004069493;-;-;7.679886;-1.4423218;1.7352753;-;-;-;-;-;-;-;-;-;-;-;-;-;-;-
1514004069514;-;-;8.6028595;-1.5117493;2.093216;-;-;-;-;-;-;-;-;-;-;-;-;-;-;-
1514004069534;-;-;6.7976227;-1.4087982;-1.2407074;-;-;-;-;-;-;-;-;-;-;-;-;-;-;-
1514004069555;-;-;5.549057;-1.4183655;-2.373169;-;-;-;-;-;-;-;-;-;-;-;-;-;-;-
1514004069575;-;-;5.308441;-1.6506042;-3.3284607;-;-;-;-;-;-;-;-;-;-;-;-;-;-;-
1514004069596;-;-;7.3650513;-1.3357697;-3.567871;-;-;-;-;-;-;-;-;-;-;-;-;-;-;-
1514004069615;-;-;10.835449;-0.10395813;-4.9972076;-;-;-;-;-;-;-;-;-;-;-;-;-;-;-
1514004069636;-;-;15.340134;1.9454803;-3.950943;-;-;-;-;-;-;-;-;-;-;-;-;-;-;-
1514004069656;-;-;18.52562;3.2383423;-1.5890656;-;-;-;-;-;-;-;-;-;-;-;-;-;-;-
1514004069677;-;-;20.90306;3.6190338;-2.4114685;-;-;-;-;-;-;-;-;-;-;-;-;-;-;-
1514004069697;-;-;21.444153;0.7866821;-5.9369354;-;-;-;-;-;-;-;-;-;-;-;-;-;-;-
1514004069717;-;-;16.886795;1.789856;-4.6320953;-;-;-;-;-;-;-;-;-;-;-;-;-;-;-
1514004069738;-;-;11.230499;2.8600616;-2.3851318;-;-;-;-;-;-;-;-;-;-;-;-;-;-;-
1514004069758;-;-;5.3850555;2.394394;-2.2989502;-;-;-;-;-;-;-;-;-;-;-;-;-;-;-
1514004069779;-;-;2.9238129;0.7842865;-1.531601;-;-;-;-;-;-;-;-;-;-;-;-;-;-;-
1514004069799;-;-;2.7131195;-0.09437561;-0.60266113;-;-;-;-;-;-;-;-;-;-;-;-;-;-;-
1514004069820;-;-;2.9549408;-0.8976288;0.2808075;-;-;-;-;-;-;-;-;-;-;-;-;-;-;-
1514004069840;-;-;3.794098;-1.7739105;0.49388123;-;-;-;-;-;-;-;-;-;-;-;-;-;-;-
1514004069861;-;-;4.703903;-1.2591553;0.42086792;-;-;-;-;-;-;-;-;-;-;-;-;-;-;-
1514004069881;-;-;7.111267;-0.07522583;0.055755615;-;-;-;-;-;-;-;-;-;-;-;-;-;-;-
1514004069901;-;-;7.53743;0.37249756;-1.8679962;-;-;-;-;-;-;-;-;-;-;-;-;-;-;-
1514004069922;-;-;7.5637665;0.41319275;-2.3827515;-;-;-;-;-;-;-;-;-;-;-;-;-;-;-
1514004069941;-;-;6.513916;0.32341003;-1.9733429;-;-;-;-;-;-;-;-;-;-;-;-;-;-;-
1514004069962;-;-;5.521515;0.16539001;-1.5531616;-;-;-;-;-;-;-;-;-;-;-;-;-;-;-
1514004069982;-;-;5.5083466;0.28390503;-0.7965851;-;-;-;-;-;-;-;-;-;-;-;-;-;-;-
1514004070003;-;-;6.031479;0.97702026;0.15750122;-;-;-;-;-;-;-;-;-;-;-;-;-;-;-
1514004070022;-;-;6.6982727;2.2770844;0.41368103;-;-;-;-;-;-;-;-;-;-;-;-;-;-;-
1514004070043;-;-;8.100067;3.094696;-1.0312195;-;-;-;-;-;-;-;-;-;-;-;-;-;-;-
1514004070063;-;-;8.528641;3.7052155;-3.4158478;-;-;-;-;-;-;-;-;-;-;-;-;-;-;-
1514004070084;-;-;6.992752;2.45784;-5.5658417;-;-;-;-;-;-;-;-;-;-;-;-;-;-;-
1514004070104;-;-;6.2744904;-0.13269043;-5.6412506;-;-;-;-;-;-;-;-;-;-;-;-;-;-;-
1514004070125;-;-;7.1376038;-2.5532227;-4.5770264;-;-;-;-;-;-;-;-;-;-;-;-;-;-;-
1514004070145;-;-;12.020584;-4.9151;-5.0163727;-;-;-;-;-;-;-;-;-;-;-;-;-;-;-
1514004070165;-;-;18.721954;-5.2694397;-5.4976044;-;-;-;-;-;-;-;-;-;-;-;-;-;-;-
1514004070186;-;-;26.888565;-6.824478;0.587265;-;-;-;-;-;-;-;-;-;-;-;-;-;-;-
1514004070206;-;-;25.027084;-8.253815;-2.199585;-;-;-;-;-;-;-;-;-;-;-;-;-;-;-
1514004070225;-;-;22.652039;-5.5854797;-2.1852264;-;-;-;-;-;-;-;-;-;-;-;-;-;-;-
1514004070245;-;-;14.708069;-1.0257263;0.33348083;-;-;-;-;-;-;-;-;-;-;-;-;-;-;-
1514004070266;-;-;7.1723175;0.92674255;0.6351471;-;-;-;-;-;-;-;-;-;-;-;-;-;-;-
1514004070287;-;-;3.905426;1.3074188;-1.8536224;-;-;-;-;-;-;-;-;-;-;-;-;-;-;-
1514004070307;-;-;1.4681396;1.8664703;-2.0547333;-;-;-;-;-;-;-;-;-;-;-;-;-;-;-
1514004070328;-;-;2.114563;1.4917755;-1.1210022;-;-;-;-;-;-;-;-;-;-;-;-;-;-;-
1514004070347;-;-;4.8834686;-0.11592102;-2.093048;-;-;-;-;-;-;-;-;-;-;-;-;-;-;-
1514004070368;-;-;7.525467;-1.5763855;-3.1057892;-;-;-;-;-;-;-;-;-;-;-;-;-;-;-
1514004070388;-;-;5.355118;-1.858902;-3.1788177;-;-;-;-;-;-;-;-;-;-;-;-;-;-;-
1514004070409;-;-;4.099365;-1.8373566;-3.3476105;-;-;-;-;-;-;-;-;-;-;-;-;-;-;-
1514004070430;-;-;3.3930664;-1.6793365;-2.2414856;-;-;-;-;-;-;-;-;-;-;-;-;-;-;-
1514004070450;-;-;3.263794;-1.6697693;-0.9450226;-;-;-;-;-;-;-;-;-;-;-;-;-;-;-
1514004070470;-;-;5.231827;-1.2292328;-0.1381836;-;-;-;-;-;-;-;-;-;-;-;-;-;-;-
1514004070491;-;-;6.9508514;-0.89045715;-0.2399292;-;-;-;-;-;-;-;-;-;-;-;-;-;-;-
1514004070511;-;-;7.8881836;-1.1406403;-0.6589203;-;-;-;-;-;-;-;-;-;-;-;-;-;-;-
1514004070532;-;-;9.6622925;-2.4766083;0.40649414;-;-;-;-;-;-;-;-;-;-;-;-;-;-;-
1514004070553;-;-;10.675034;-3.8832092;-0.67567444;-;-;-;-;-;-;-;-;-;-;-;-;-;-;-
1514004070572;-;-;9.898117;-4.1226196;-2.2211304;-;-;-;-;-;-;-;-;-;-;-;-;-;-;-
1514004070593;-;-;7.4129333;-1.700882;-2.4821014;-;-;-;-;-;-;-;-;-;-;-;-;-;-;-
1514004070613;-;-;5.158798;0.35932922;-5.1300964;-;-;-;-;-;-;-;-;-;-;-;-;-;-;-
1514004070634;-;-;8.000717;1.6150818;-5.525131;-;-;-;-;-;-;-;-;-;-;-;-;-;-;-
1514004070654;-;-;12.368942;3.2730713;-1.6393433;-;-;-;-;-;-;-;-;-;-;-;-;-;-;-
1514004070675;-;-;15.894394;4.023651;-0.14057922;-;-;-;-;-;-;-;-;-;-;-;-;-;-;-
1514004070696;-;-;17.79419;3.790207;-3.346405;-;-;-;-;-;-;-;-;-;-;-;-;-;-;-
1514004070716;-;-;28.702179;2.1441956;-7.0586243;-;-;-;-;-;-;-;-;-;-;-;-;-;-;-
1514004070737;-;-;24.033493;-0.7671509;-5.543091;-;-;-;-;-;-;-;-;-;-;-;-;-;-;-
1514004070757;-;-;12.857346;-0.71447754;-2.1971893;-;-;-;-;-;-;-;-;-;-;-;-;-;-;-
1514004070777;-;-;6.261322;-0.31225586;-1.8344727;-;-;-;-;-;-;-;-;-;-;-;-;-;-;-
1514004070798;-;-;2.6784058;0.5556488;-1.8488312;-;-;-;-;-;-;-;-;-;-;-;-;-;-;-
1514004070819;-;-;3.244629;1.5348816;-0.5535736;-;-;-;-;-;-;-;-;-;-;-;-;-;-;-
1514004070839;-;-;4.434555;0.49220276;-0.48294067;-;-;-;-;-;-;-;-;-;-;-;-;-;-;-
1514004070860;-;-;3.263794;-0.89404297;-0.12501526;-;-;-;-;-;-;-;-;-;-;-;-;-;-;-
1514004070881;-;-;3.0638733;-1.858902;0.53338623;-;-;-;-;-;-;-;-;-;-;-;-;-;-;-
1514004070901;-;-;3.8144531;-2.2419739;0.77760315;-;-;-;-;-;-;-;-;-;-;-;-;-;-;-
1514004070923;-;-;8.456802;-1.2400055;-1.9314423;-;-;-;-;-;-;-;-;-;-;-;-;-;-;-
1514004070943;-;-;8.021072;-0.12071228;-2.8256683;-;-;-;-;-;-;-;-;-;-;-;-;-;-;-
1514004070963;-;-;6.9819794;0.5640259;-2.79216;-;-;-;-;-;-;-;-;-;-;-;-;-;-;-
1514004070984;-;-;5.197098;0.8118286;-2.3169098;-;-;-;-;-;-;-;-;-;-;-;-;-;-;-
1514004071005;-;-;5.470047;1.6043091;-1.0719147;-;-;-;-;-;-;-;-;-;-;-;-;-;-;-
1514004071025;-;-;6.5270844;3.2826385;-0.3368988;-;-;-;-;-;-;-;-;-;-;-;-;-;-;-
1514004071045;-;-;7.2465363;4.59346;-1.0096741;-;-;-;-;-;-;-;-;-;-;-;-;-;-;-
1514004071066;-;-;7.9037476;4.6269836;-2.6868134;-;-;-;-;-;-;-;-;-;-;-;-;-;-;-
1514004071086;-;-;8.794388;2.833725;-3.8455963;-;-;-;-;-;-;-;-;-;-;-;-;-;-;-
1514004071107;-;-;9.6072235;1.3397522;-3.199173;-;-;-;-;-;-;-;-;-;-;-;-;-;-;-
1514004071128;-;-;8.377808;0.61550903;-3.9760895;-;-;-;-;-;-;-;-;-;-;-;-;-;-;-
1514004071148;-;-;6.6539764;-0.75398254;-4.744629;-;-;-;-;-;-;-;-;-;-;-;-;-;-;-
1514004071169;-;-;6.5594025;-3.384018;-4.958908;-;-;-;-;-;-;-;-;-;-;-;-;-;-;-
1514004071189;-;-;9.181061;-6.6520996;-4.8846893;-;-;-;-;-;-;-;-;-;-;-;-;-;-;-
1514004071209;-;-;16.186493;-8.340012;-1.6560974;-;-;-;-;-;-;-;-;-;-;-;-;-;-;-
1514004071230;-;-;21.083832;-4.101074;-0.75468445;-;-;-;-;-;-;-;-;-;-;-;-;-;-;-
1514004071250;-;-;21.605759;-2.4622498;-1.0635376;-;-;-;-;-;-;-;-;-;-;-;-;-;-;-
1514004071270;-;-;21.448944;-2.4035797;-3.408661;-;-;-;-;-;-;-;-;-;-;-;-;-;-;-
1514004071291;-;-;17.508087;-2.250351;-0.7522888;-;-;-;-;-;-;-;-;-;-;-;-;-;-;-
1514004071312;-;-;12.26239;-2.3760529;-0.06994629;-;-;-;-;-;-;-;-;-;-;-;-;-;-;-
1514004071332;-;-;7.901352;-1.7846832;-1.3053589;-;-;-;-;-;-;-;-;-;-;-;-;-;-;-
1514004071352;-;-;5.387436;-1.4973755;-1.6070251;-;-;-;-;-;-;-;-;-;-;-;-;-;-;-
1514004071372;-;-;4.0742188;-0.52653503;-1.025238;-;-;-;-;-;-;-;-;-;-;-;-;-;-;-
1514004071393;-;-;3.481659;0.7435913;-0.64456177;-;-;-;-;-;-;-;-;-;-;-;-;-;-;-
1514004071413;-;-;2.9609222;0.9135742;-1.0934601;-;-;-;-;-;-;-;-;-;-;-;-;-;-;-
1514004071434;-;-;2.6137543;-0.4379425;-2.1301575;-;-;-;-;-;-;-;-;-;-;-;-;-;-;-
1514004071454;-;-;2.652069;-1.6949005;-2.7837677;-;-;-;-;-;-;-;-;-;-;-;-;-;-;-
1514004071474;-;-;4.4393463;-1.9977722;-2.7718048;-;-;-;-;-;-;-;-;-;-;-;-;-;-;-
1514004071495;-;-;7.1076813;-1.404007;-2.9717255;-;-;-;-;-;-;-;-;-;-;-;-;-;-;-
1514004071515;-;-;7.3530884;-1.131073;-2.7263184;-;-;-;-;-;-;-;-;-;-;-;-;-;-;-
1514004071536;-;-;7.0693665;-1.0747986;-1.5244293;-;-;-;-;-;-;-;-;-;-;-;-;-;-;-
1514004071556;-;-;6.7772827;-1.2471924;0.7345123;-;-;-;-;-;-;-;-;-;-;-;-;-;-;-
1514004071577;-;-;6.9029694;-2.3353577;2.378128;-;-;-;-;-;-;-;-;-;-;-;-;-;-;-
1514004071597;-;-;8.18866;-3.5923004;1.7879486;-;-;-;-;-;-;-;-;-;-;-;-;-;-;-
1514004071617;-;-;8.359848;-3.8843994;-0.2962036;-;-;-;-;-;-;-;-;-;-;-;-;-;-;-
1514004071638;-;-;7.446457;-3.2762756;-1.3113403;-;-;-;-;-;-;-;-;-;-;-;-;-;-;-
1514004071659;-;-;5.9536743;-2.1952972;-3.0231934;-;-;-;-;-;-;-;-;-;-;-;-;-;-;-
1514004071679;-;-;6.2589264;-0.2212677;-6.58696;-;-;-;-;-;-;-;-;-;-;-;-;-;-;-
1514004071700;-;-;9.548569;3.5088959;-3.827652;-;-;-;-;-;-;-;-;-;-;-;-;-;-;-
1514004071720;-;-;14.271133;8.412216;-2.349228;-;-;-;-;-;-;-;-;-;-;-;-;-;-;-
1514004071741;-;-;17.716385;6.249054;-4.37352;-;-;-;-;-;-;-;-;-;-;-;-;-;-;-
1514004071761;-;-;23.07341;1.651001;-2.4162598;-;-;-;-;-;-;-;-;-;-;-;-;-;-;-
1514004071782;-;-;24.363892;-1.8708801;-1.2299347;-;-;-;-;-;-;-;-;-;-;-;-;-;-;-
1514004071803;-;-;15.313797;-1.6937103;0.1658783;-;-;-;-;-;-;-;-;-;-;-;-;-;-;-
1514004071823;-;-;9.556946;-1.5919495;-0.84806824;-;-;-;-;-;-;-;-;-;-;-;-;-;-;-
1514004071844;-;-;7.748123;-0.68455505;-0.84207153;-;-;-;-;-;-;-;-;-;-;-;-;-;-;-
1514004071864;-;-;8.10965;0.86450195;-0.32014465;-;-;-;-;-;-;-;-;-;-;-;-;-;-;-
1514004071884;-;-;7.653549;1.695282;-1.1581116;-;-;-;-;-;-;-;-;-;-;-;-;-;-;-
1514004071905;-;-;6.269699;1.5659943;-1.3592224;-;-;-;-;-;-;-;-;-;-;-;-;-;-;-
1514004071925;-;-;4.2418213;0.7124634;-0.7283478;-;-;-;-;-;-;-;-;-;-;-;-;-;-;-
1514004071946;-;-;3.3344116;-0.35534668;-0.18725586;-;-;-;-;-;-;-;-;-;-;-;-;-;-;-
1514004071967;-;-;3.6803741;-1.0532532;-0.35246277;-;-;-;-;-;-;-;-;-;-;-;-;-;-;-
1514004071987;-;-;4.684738;-0.17936707;-0.41949463;-;-;-;-;-;-;-;-;-;-;-;-;-;-;-
1514004072008;-;-;4.6691895;1.0045624;-1.3041534;-;-;-;-;-;-;-;-;-;-;-;-;-;-;-
1514004072027;-;-;5.30365;1.4043884;-1.1605072;-;-;-;-;-;-;-;-;-;-;-;-;-;-;-
1514004072047;-;-;6.51033;0.21208191;-0.96777344;-;-;-;-;-;-;-;-;-;-;-;-;-;-;-
1514004072068;-;-;7.5865173;0.19412231;-0.04121399;-;-;-;-;-;-;-;-;-;-;-;-;-;-;-
1514004072089;-;-;7.8175507;0.76034546;0.22932434;-;-;-;-;-;-;-;-;-;-;-;-;-;-;-
1514004072109;-;-;7.4404755;1.185318;-1.0120697;-;-;-;-;-;-;-;-;-;-;-;-;-;-;-
1514004072129;-;-;6.376251;1.4427032;-3.235077;-;-;-;-;-;-;-;-;-;-;-;-;-;-;-
1514004072149;-;-;5.7693176;1.0775757;-5.6735687;-;-;-;-;-;-;-;-;-;-;-;-;-;-;-
1514004072170;-;-;6.78685;-0.9539032;-5.923767;-;-;-;-;-;-;-;-;-;-;-;-;-;-;-
1514004072191;-;-;10.320694;-3.1577606;-5.0762177;-;-;-;-;-;-;-;-;-;-;-;-;-;-;-
1514004072211;-;-;16.92749;-5.286209;-4.792511;-;-;-;-;-;-;-;-;-;-;-;-;-;-;-
1514004072232;-;-;23.069824;-3.9131317;-4.7625885;-;-;-;-;-;-;-;-;-;-;-;-;-;-;-
1514004072252;-;-;23.339172;-0.89523315;-0.11543274;-;-;-;-;-;-;-;-;-;-;-;-;-;-;-
1514004072272;-;-;16.261902;-1.4937897;-1.4789276;-;-;-;-;-;-;-;-;-;-;-;-;-;-;-
1514004072293;-;-;15.856094;-2.7220154;-0.21479797;-;-;-;-;-;-;-;-;-;-;-;-;-;-;-
1514004072314;-;-;10.912064;-2.317398;-0.372818;-;-;-;-;-;-;-;-;-;-;-;-;-;-;-
1514004072334;-;-;8.276047;-1.2028961;-0.6840515;-;-;-;-;-;-;-;-;-;-;-;-;-;-;-
1514004072355;-;-;6.2876587;-1.3381653;-1.7985535;-;-;-;-;-;-;-;-;-;-;-;-;-;-;-
1514004072375;-;-;5.905792;-1.4686584;-1.5830841;-;-;-;-;-;-;-;-;-;-;-;-;-;-;-
1514004072396;-;-;6.4803925;-0.9323425;-1.6704712;-;-;-;-;-;-;-;-;-;-;-;-;-;-;-
1514004072416;-;-;5.652008;-0.28112793;-2.3671875;-;-;-;-;-;-;-;-;-;-;-;-;-;-;-
1514004072437;-;-;4.8164215;0.0013885498;-1.9733429;-;-;-;-;-;-;-;-;-;-;-;-;-;-;-
1514004072458;-;-;4.521942;-0.26316833;-1.392746;-;-;-;-;-;-;-;-;-;-;-;-;-;-;-
1514004072478;-;-;3.916214;-1.3393707;-1.5675201;-;-;-;-;-;-;-;-;-;-;-;-;-;-;-
1514004072499;-;-;3.5546875;-2.6597595;-2.0044556;-;-;-;-;-;-;-;-;-;-;-;-;-;-;-
1514004072519;-;-;4.204712;-2.985382;-1.2969818;-;-;-;-;-;-;-;-;-;-;-;-;-;-;-
1514004072539;-;-;5.416168;-2.811798;-0.69363403;-;-;-;-;-;-;-;-;-;-;-;-;-;-;-
1514004072560;-;-;7.4332886;-2.0707855;-0.22077942;-;-;-;-;-;-;-;-;-;-;-;-;-;-;-
1514004072580;-;-;8.677078;-1.6051178;0.36579895;-;-;-;-;-;-;-;-;-;-;-;-;-;-;-
1514004072601;-;-;9.689819;-1.6769409;0.18383789;-;-;-;-;-;-;-;-;-;-;-;-;-;-;-
1514004072621;-;-;8.338303;-2.511322;-1.1030426;-;-;-;-;-;-;-;-;-;-;-;-;-;-;-
1514004072641;-;-;6.888611;-3.021286;-3.073471;-;-;-;-;-;-;-;-;-;-;-;-;-;-;-
1514004072662;-;-;5.264145;-1.1238861;-4.456131;-;-;-;-;-;-;-;-;-;-;-;-;-;-;-
1514004072683;-;-;5.271332;1.6976776;-5.8615265;-;-;-;-;-;-;-;-;-;-;-;-;-;-;-
1514004072702;-;-;8.959595;2.6996613;-2.7933502;-;-;-;-;-;-;-;-;-;-;-;-;-;-;-
1514004072723;-;-;12.59639;3.706421;-0.38598633;-;-;-;-;-;-;-;-;-;-;-;-;-;-;-
1514004072743;-;-;15.723206;2.4087524;0.053359985;-;-;-;-;-;-;-;-;-;-;-;-;-;-;-
1514004072764;-;-;23.318817;2.9749908;-4.4226074;-;-;-;-;-;-;-;-;-;-;-;-;-;-;-
1514004072783;-;-;28.582474;1.477417;-4.2095184;-;-;-;-;-;-;-;-;-;-;-;-;-;-;-
1514004072803;-;-;19.348038;-1.5177307;-3.9533386;-;-;-;-;-;-;-;-;-;-;-;-;-;-;-
1514004072824;-;-;8.806366;-1.0927582;-1.8500366;-;-;-;-;-;-;-;-;-;-;-;-;-;-;-
1514004072844;-;-;2.8435974;-0.6546173;-1.3185272;-;-;-;-;-;-;-;-;-;-;-;-;-;-;-
1514004072865;-;-;2.5622864;-0.28831482;-0.66371155;-;-;-;-;-;-;-;-;-;-;-;-;-;-;-
1514004072886;-;-;4.9935913;0.5628357;-1.6620941;-;-;-;-;-;-;-;-;-;-;-;-;-;-;-
1514004072906;-;-;4.80925;0.29348755;-2.625763;-;-;-;-;-;-;-;-;-;-;-;-;-;-;-
1514004072927;-;-;5.016342;0.28988647;-1.9565735;-;-;-;-;-;-;-;-;-;-;-;-;-;-;-
1514004072947;-;-;4.782913;0.6035309;-0.83369446;-;-;-;-;-;-;-;-;-;-;-;-;-;-;-
1514004072968;-;-;4.411804;0.8273926;0.26882935;-;-;-;-;-;-;-;-;-;-;-;-;-;-;-
1514004072989;-;-;4.9493103;0.8992157;0.9212494;-;-;-;-;-;-;-;-;-;-;-;-;-;-;-
1514004073009;-;-;6.0302887;0.22164917;0.012649536;-;-;-;-;-;-;-;-;-;-;-;-;-;-;-
1514004073030;-;-;7.178299;-0.030929565;-1.1976166;-;-;-;-;-;-;-;-;-;-;-;-;-;-;-
1514004073050;-;-;8.564545;-0.48703003;-1.5088654;-;-;-;-;-;-;-;-;-;-;-;-;-;-;-
1514004073071;-;-;10.617584;0.4586792;-1.2167664;-;-;-;-;-;-;-;-;-;-;-;-;-;-;-
1514004073091;-;-;9.793976;2.921112;-1.8117218;-;-;-;-;-;-;-;-;-;-;-;-;-;-;-
1514004073112;-;-;8.214996;4.4713593;-1.3065491;-;-;-;-;-;-;-;-;-;-;-;-;-;-;-
1514004073133;-;-;8.115631;2.3010254;-0.78222656;-;-;-;-;-;-;-;-;-;-;-;-;-;-;-
1514004073153;-;-;8.673492;-1.7032776;-3.156067;-;-;-;-;-;-;-;-;-;-;-;-;-;-;-
1514004073173;-;-;8.837494;-3.9167175;-4.756592;-;-;-;-;-;-;-;-;-;-;-;-;-;-;-
1514004073194;-;-;12.501816;-6.349228;-5.7669525;-;-;-;-;-;-;-;-;-;-;-;-;-;-;-
1514004073214;-;-;14.23642;-6.673645;-6.8826447;-;-;-;-;-;-;-;-;-;-;-;-;-;-;-
1514004073235;-;-;20.548721;-7.0423584;-6.066223;-;-;-;-;-;-;-;-;-;-;-;-;-;-;-
1514004073255;-;-;26.050598;-4.334503;-6.378662;-;-;-;-;-;-;-;-;-;-;-;-;-;-;-
1514004073275;-;-;20.626541;1.2763062;-5.3312073;-;-;-;-;-;-;-;-;-;-;-;-;-;-;-
1514004073296;-;-;11.997833;3.4083405;-2.5299835;-;-;-;-;-;-;-;-;-;-;-;-;-;-;-
1514004073316;-;-;6.956848;1.7371826;-1.195221;-;-;-;-;-;-;-;-;-;-;-;-;-;-;-
1514004073337;-;-;6.419342;-2.1450195;-1.7183533;-;-;-;-;-;-;-;-;-;-;-;-;-;-;-
1514004073358;-;-;6.664749;-3.9861603;-1.1928253;-;-;-;-;-;-;-;-;-;-;-;-;-;-;-
1514004073378;-;-;5.073807;-1.3920441;-0.5834961;-;-;-;-;-;-;-;-;-;-;-;-;-;-;-
1514004073399;-;-;2.4078522;-0.5540619;-1.4394226;-;-;-;-;-;-;-;-;-;-;-;-;-;-;-
1514004073419;-;-;0.69480896;-0.42118835;-1.614212;-;-;-;-;-;-;-;-;-;-;-;-;-;-;-
1514004073439;-;-;1.462143;-0.5133667;0.5585327;-;-;-;-;-;-;-;-;-;-;-;-;-;-;-
1514004073460;-;-;4.6895294;-0.7300415;0.80033875;-;-;-;-;-;-;-;-;-;-;-;-;-;-;-
1514004073481;-;-;6.88501;-0.8461609;0.53938293;-;-;-;-;-;-;-;-;-;-;-;-;-;-;-
1514004073501;-;-;7.130417;-2.2120514;-1.0671387;-;-;-;-;-;-;-;-;-;-;-;-;-;-;-
1514004073522;-;-;9.744888;-4.348877;-1.8907318;-;-;-;-;-;-;-;-;-;-;-;-;-;-;-
1514004073542;-;-;12.7651825;-6.004471;1.3593903;-;-;-;-;-;-;-;-;-;-;-;-;-;-;-
1514004073563;-;-;15.124664;-6.1373444;3.3310242;-;-;-;-;-;-;-;-;-;-;-;-;-;-;-
1514004073584;-;-;14.281906;-5.4035187;-1.3077545;-;-;-;-;-;-;-;-;-;-;-;-;-;-;-
1514004073604;-;-;13.837784;-3.855667;-4.9158173;-;-;-;-;-;-;-;-;-;-;-;-;-;-;-
1514004073625;-;-;10.915649;-1.3908386;-6.4708405;-;-;-;-;-;-;-;-;-;-;-;-;-;-;-
1514004073645;-;-;8.035431;1.3158112;-9.779633;-;-;-;-;-;-;-;-;-;-;-;-;-;-;-
1514004073665;-;-;6.37265;2.6804962;-7.817581;-;-;-;-;-;-;-;-;-;-;-;-;-;-;-
1514004073685;-;-;8.7656555;2.387207;-5.413803;-;-;-;-;-;-;-;-;-;-;-;-;-;-;-
1514004073706;-;-;12.212112;-0.14346313;-5.571823;-;-;-;-;-;-;-;-;-;-;-;-;-;-;-
1514004073727;-;-;15.726807;-3.6473694;-4.5423126;-;-;-;-;-;-;-;-;-;-;-;-;-;-;-
1514004073748;-;-;17.293808;-5.4262695;-3.9461517;-;-;-;-;-;-;-;-;-;-;-;-;-;-;-
1514004073768;-;-;11.264008;-3.0488281;-4.160446;-;-;-;-;-;-;-;-;-;-;-;-;-;-;-
1514004073789;-;-;6.7892456;-0.7420044;-2.8963013;-;-;-;-;-;-;-;-;-;-;-;-;-;-;-
1514004073809;-;-;2.8088837;0.5448761;-2.2450714;-;-;-;-;-;-;-;-;-;-;-;-;-;-;-
1514004073829;-;-;0.342865;0.7256317;-2.365982;-;-;-;-;-;-;-;-;-;-;-;-;-;-;-
1514004073850;-;-;0.4733429;0.15820313;-2.3707733;-;-;-;-;-;-;-;-;-;-;-;-;-;-;-
1514004073870;-;-;6.1763306;-0.22007751;-2.4988708;-;-;-;-;-;-;-;-;-;-;-;-;-;-;-
1514004073891;-;-;9.75087;-0.16142273;-3.2793732;-;-;-;-;-;-;-;-;-;-;-;-;-;-;-
1514004073911;-;-;10.931213;0.80584717;-5.0163727;-;-;-;-;-;-;-;-;-;-;-;-;-;-;-
1514004073931;-;-;8.340698;2.1525726;-4.4273987;-;-;-;-;-;-;-;-;-;-;-;-;-;-;-
1514004073952;-;-;6.928116;2.6146545;-2.8137054;-;-;-;-;-;-;-;-;-;-;-;-;-;-;-
1514004073973;-;-;5.675949;2.8038025;-1.7015991;-;-;-;-;-;-;-;-;-;-;-;-;-;-;-
1514004073992;-;-;6.221817;2.5332642;-1.124588;-;-;-;-;-;-;-;-;-;-;-;-;-;-;-
1514004074013;-;-;8.175491;1.9550629;-1.7949677;-;-;-;-;-;-;-;-;-;-;-;-;-;-;-
1514004074033;-;-;8.613632;2.315384;-2.3037415;-;-;-;-;-;-;-;-;-;-;-;-;-;-;-
1514004074053;-;-;9.306747;2.7990112;-3.6013947;-;-;-;-;-;-;-;-;-;-;-;-;-;-;-
1514004074074;-;-;8.699814;2.8085938;-4.1580505;-;-;-;-;-;-;-;-;-;-;-;-;-;-;-
1514004074094;-;-;9.892136;1.8940125;-0.9869232;-;-;-;-;-;-;-;-;-;-;-;-;-;-;-
1514004074115;-;-;11.599197;-0.074035645;1.1319427;-;-;-;-;-;-;-;-;-;-;-;-;-;-;-
1514004074136;-;-;13.397247;-1.2531738;-2.012848;-;-;-;-;-;-;-;-;-;-;-;-;-;-;-
1514004074156;-;-;11.727295;-2.5460358;-4.5925903;-;-;-;-;-;-;-;-;-;-;-;-;-;-;-
1514004074177;-;-;11.287949;-5.9960938;-3.2099457;-;-;-;-;-;-;-;-;-;-;-;-;-;-;-
1514004074197;-;-;10.585251;-6.7323;-5.5371094;-;-;-;-;-;-;-;-;-;-;-;-;-;-;-
1514004074218;-;-;9.506668;-4.8887634;-3.4613342;-;-;-;-;-;-;-;-;-;-;-;-;-;-;-
1514004074237;-;-;7.604477;-3.021286;-3.9449615;-;-;-;-;-;-;-;-;-;-;-;-;-;-;-
1514004074258;-;-;7.2465363;-1.5356903;-4.457321;-;-;-;-;-;-;-;-;-;-;-;-;-;-;-
1514004074278;-;-;7.511093;0.3102417;-4.8499756;-;-;-;-;-;-;-;-;-;-;-;-;-;-;-
1514004074299;-;-;9.548569;2.137024;-5.048691;-;-;-;-;-;-;-;-;-;-;-;-;-;-;-
1514004074319;-;-;11.454346;2.3979797;-4.761383;-;-;-;-;-;-;-;-;-;-;-;-;-;-;-
1514004074340;-;-;10.902481;0.26715088;-4.7266693;-;-;-;-;-;-;-;-;-;-;-;-;-;-;-
1514004074359;-;-;9.230133;-2.0660095;-4.0946045;-;-;-;-;-;-;-;-;-;-;-;-;-;-;-
1514004074379;-;-;7.185486;-3.704834;-3.2638092;-;-;-;-;-;-;-;-;-;-;-;-;-;-;-
1514004074400;-;-;5.280899;-3.7503204;-2.8077087;-;-;-;-;-;-;-;-;-;-;-;-;-;-;-
1514004074420;-;-;3.6313019;-2.918335;-2.4222565;-;-;-;-;-;-;-;-;-;-;-;-;-;-;-
1514004074441;-;-;5.486801;-1.4866028;-2.7107544;-;-;-;-;-;-;-;-;-;-;-;-;-;-;-
1514004074461;-;-;7.5290527;-1.1238861;-2.7753906;-;-;-;-;-;-;-;-;-;-;-;-;-;-;-
1514004074481;-;-;8.677078;-0.8461609;-2.187622;-;-;-;-;-;-;-;-;-;-;-;-;-;-;-
1514004074502;-;-;9.082901;-0.74560547;-1.9649506;-;-;-;-;-;-;-;-;-;-;-;-;-;-;-
1514004074521;-;-;8.918884;-0.7384186;-1.5938568;-;-;-;-;-;-;-;-;-;-;-;-;-;-;-
1514004074541;-;-;8.404144;-1.052063;-1.7339172;-;-;-;-;-;-;-;-;-;-;-;-;-;-;-
1514004074562;-;-;8.477158;-1.1538086;-1.8129272;-;-;-;-;-;-;-;-;-;-;-;-;-;-;-
1514004074583;-;-;8.745316;-0.89404297;-2.1552887;-;-;-;-;-;-;-;-;-;-;-;-;-;-;-
1514004074603;-;-;8.806366;-0.50738525;-2.5754852;-;-;-;-;-;-;-;-;-;-;-;-;-;-;-
1514004074624;-;-;7.8199463;-1.8253937;-1.5615387;-;-;-;-;-;-;-;-;-;-;-;-;-;-;-
1514004074643;-;-;9.629974;-3.6389923;1.2432709;-;-;-;-;-;-;-;-;-;-;-;-;-;-;-
1514004074663;-;-;11.642288;-4.2566986;0.52500916;-;-;-;-;-;-;-;-;-;-;-;-;-;-;-
1514004074684;-;-;13.2200775;-3.265503;-4.0479126;-;-;-;-;-;-;-;-;-;-;-;-;-;-;-
1514004074704;-;-;11.495056;-2.2563477;-7.512329;-;-;-;-;-;-;-;-;-;-;-;-;-;-;-
1514004074724;-;-;10.253662;-2.0863495;-7.0801697;-;-;-;-;-;-;-;-;-;-;-;-;-;-;-
1514004074745;-;-;8.948822;0.0049743652;-7.2345886;-;-;-;-;-;-;-;-;-;-;-;-;-;-;-
1514004074765;-;-;6.427719;2.3345337;-5.661606;-;-;-;-;-;-;-;-;-;-;-;-;-;-;-
1514004074786;-;-;5.782486;3.1030731;-3.3308563;-;-;-;-;-;-;-;-;-;-;-;-;-;-;-
1514004074806;-;-;9.048172;-0.37928772;-3.3990784;-;-;-;-;-;-;-;-;-;-;-;-;-;-;-
1514004074827;-;-;11.660248;-2.5101318;-3.472107;-;-;-;-;-;-;-;-;-;-;-;-;-;-;-
1514004074847;-;-;12.723282;-2.8369446;-3.8611603;-;-;-;-;-;-;-;-;-;-;-;-;-;-;-
1514004074868;-;-;10.964737;-0.8856659;-3.9832764;-;-;-;-;-;-;-;-;-;-;-;-;-;-;-
1514004074887;-;-;9.367798;1.1936951;-3.5295715;-;-;-;-;-;-;-;-;-;-;-;-;-;-;-
1514004074908;-;-;7.8869934;2.3500977;-2.9142609;-;-;-;-;-;-;-;-;-;-;-;-;-;-;-
1514004074927;-;-;6.2242126;2.6362152;-2.7478638;-;-;-;-;-;-;-;-;-;-;-;-;-;-;-
1514004074947;-;-;5.2665405;2.0137177;-2.4150696;-;-;-;-;-;-;-;-;-;-;-;-;-;-;-
1514004074967;-;-;5.055847;0.97224426;-1.7722168;-;-;-;-;-;-;-;-;-;-;-;-;-;-;-
1514004074988;-;-;5.612503;0.3210144;-1.650116;-;-;-;-;-;-;-;-;-;-;-;-;-;-;-
1514004075008;-;-;7.6631317;-0.07522583;-1.298172;-;-;-;-;-;-;-;-;-;-;-;-;-;-;-
1514004075028;-;-;9.12001;-0.10874939;-1.0659332;-;-;-;-;-;-;-;-;-;-;-;-;-;-;-
1514004075049;-;-;9.527023;0.41079712;-0.46020508;-;-;-;-;-;-;-;-;-;-;-;-;-;-;-
1514004075069;-;-;9.531799;0.8896332;-0.5416107;-;-;-;-;-;-;-;-;-;-;-;-;-;-;-
1514004075090;-;-;8.924881;1.2774963;-1.2838135;-;-;-;-;-;-;-;-;-;-;-;-;-;-;-
1514004075110;-;-;8.165909;1.3924255;-1.6118164;-;-;-;-;-;-;-;-;-;-;-;-;-;-;-
1514004075131;-;-;8.736938;1.0213165;-2.9214478;-;-;-;-;-;-;-;-;-;-;-;-;-;-;-
1514004075151;-;-;7.9899445;1.3182068;-4.4908447;-;-;-;-;-;-;-;-;-;-;-;-;-;-;-
1514004075172;-;-;8.478363;2.5990906;-2.096634;-;-;-;-;-;-;-;-;-;-;-;-;-;-;-
1514004075191;-;-;10.078888;3.024063;-0.09388733;-;-;-;-;-;-;-;-;-;-;-;-;-;-;-
1514004075212;-;-;11.37175;1.9095612;-1.0276337;-;-;-;-;-;-;-;-;-;-;-;-;-;-;-
1514004075232;-;-;11.236481;0.14863586;-4.658432;-;-;-;-;-;-;-;-;-;-;-;-;-;-;-
1514004075253;-;-;11.286758;-1.8541107;-4.9636993;-;-;-;-;-;-;-;-;-;-;-;-;-;-;-
1514004075272;-;-;13.081207;-2.5280914;-2.725113;-;-;-;-;-;-;-;-;-;-;-;-;-;-;-
1514004075293;-;-;12.548508;-2.2012787;-2.5922394;-;-;-;-;-;-;-;-;-;-;-;-;-;-;-
1514004075313;-;-;9.123596;-2.5005493;-4.5614624;-;-;-;-;-;-;-;-;-;-;-;-;-;-;-
1514004075333;-;-;6.1607666;-3.8568726;-4.5686493;-;-;-;-;-;-;-;-;-;-;-;-;-;-;-
1514004075354;-;-;4.6021423;-3.0141144;-2.9525604;-;-;-;-;-;-;-;-;-;-;-;-;-;-;-
1514004075374;-;-;6.2553406;-0.40802002;-3.7761688;-;-;-;-;-;-;-;-;-;-;-;-;-;-;-
1514004075395;-;-;9.172684;2.6385956;-5.0032043;-;-;-;-;-;-;-;-;-;-;-;-;-;-;-
1514004075415;-;-;11.495056;4.3013763;-4.519577;-;-;-;-;-;-;-;-;-;-;-;-;-;-;-
1514004075436;-;-;11.937973;1.7790833;-3.551117;-;-;-;-;-;-;-;-;-;-;-;-;-;-;-
1514004075456;-;-;10.121979;-0.81503296;-2.665268;-;-;-;-;-;-;-;-;-;-;-;-;-;-;-
1514004075477;-;-;7.9073334;-2.222824;-1.535202;-;-;-;-;-;-;-;-;-;-;-;-;-;-;-
1514004075498;-;-;5.93692;-3.1852875;-1.0084686;-;-;-;-;-;-;-;-;-;-;-;-;-;-;-
1514004075517;-;-;5.011551;-3.4055634;-0.5643463;-;-;-;-;-;-;-;-;-;-;-;-;-;-;-
1514004075538;-;-;5.277313;-2.550827;-0.5248413;-;-;-;-;-;-;-;-;-;-;-;-;-;-;-
1514004075559;-;-;6.060211;-0.89164734;-0.94862366;-;-;-;-;-;-;-;-;-;-;-;-;-;-;-
1514004075579;-;-;6.9891663;0.091171265;-1.8955231;-;-;-;-;-;-;-;-;-;-;-;-;-;-;-
1514004075600;-;-;7.4991302;0.39283752;-1.4693604;-;-;-;-;-;-;-;-;-;-;-;-;-;-;-
1514004075619;-;-;7.846283;0.6825409;-1.361618;-;-;-;-;-;-;-;-;-;-;-;-;-;-;-
1514004075640;-;-;7.6068726;0.75675964;-1.5280151;-;-;-;-;-;-;-;-;-;-;-;-;-;-;-
1514004075660;-;-;7.4799805;0.43115234;-0.8755951;-;-;-;-;-;-;-;-;-;-;-;-;-;-;-
1514004075681;-;-;7.5553894;-0.4152069;-0.654129;-;-;-;-;-;-;-;-;-;-;-;-;-;-;-
1514004075702;-;-;6.624054;-1.5727997;-0.5404053;-;-;-;-;-;-;-;-;-;-;-;-;-;-;-
1514004075722;-;-;5.553833;-2.2515564;-0.72236633;-;-;-;-;-;-;-;-;-;-;-;-;-;-;-
1514004075742;-;-;5.4293365;-2.502945;-0.40393066;-;-;-;-;-;-;-;-;-;-;-;-;-;-;-
1514004075763;-;-;6.2553406;-2.159378;-0.37521362;-;-;-;-;-;-;-;-;-;-;-;-;-;-;-
1514004075782;-;-;7.0777435;-1.2615509;-1.3161316;-;-;-;-;-;-;-;-;-;-;-;-;-;-;-
1514004075803;-;-;7.2345734;-0.67378235;-3.010025;-;-;-;-;-;-;-;-;-;-;-;-;-;-;-
1514004075822;-;-;7.564972;-0.89404297;-5.701111;-;-;-;-;-;-;-;-;-;-;-;-;-;-;-
1514004075843;-;-;9.995087;0.22045898;-6.876663;-;-;-;-;-;-;-;-;-;-;-;-;-;-;-
1514004075863;-;-;14.538086;3.362854;-2.9824982;-;-;-;-;-;-;-;-;-;-;-;-;-;-;-
1514004075884;-;-;15.677719;3.3424988;-2.7239227;-;-;-;-;-;-;-;-;-;-;-;-;-;-;-
1514004075903;-;-;17.012497;0.7507782;-1.1150208;-;-;-;-;-;-;-;-;-;-;-;-;-;-;-
1514004075924;-;-;18.78659;1.1601868;-3.638504;-;-;-;-;-;-;-;-;-;-;-;-;-;-;-
1514004075944;-;-;20.564285;2.9247131;-4.7039185;-;-;-;-;-;-;-;-;-;-;-;-;-;-;-
1514004075964;-;-;15.617874;1.9071808;-2.8256683;-;-;-;-;-;-;-;-;-;-;-;-;-;-;-
1514004075985;-;-;9.82869;1.161377;-2.0595245;-;-;-;-;-;-;-;-;-;-;-;-;-;-;-
1514004076005;-;-;5.707062;0.3964386;-1.3017578;-;-;-;-;-;-;-;-;-;-;-;-;-;-;-
1514004076025;-;-;2.5419312;0.40600586;-0.8025665;-;-;-;-;-;-;-;-;-;-;-;-;-;-;-
1514004076046;-;-;1.0096436;0.055252075;-0.7403259;-;-;-;-;-;-;-;-;-;-;-;-;-;-;-
1514004076066;-;-;0.33807373;-0.6534271;-0.38478088;-;-;-;-;-;-;-;-;-;-;-;-;-;-;-
1514004076087;-;-;2.3731384;-0.8317871;0.6602783;-;-;-;-;-;-;-;-;-;-;-;-;-;-;-
1514004076106;-;-;6.908966;-0.28112793;0.94758606;-;-;-;-;-;-;-;-;-;-;-;-;-;-;-
1514004076127;-;-;7.1627502;0.71006775;-1.3520355;-;-;-;-;-;-;-;-;-;-;-;-;-;-;-
1514004076147;-;-;7.4608154;0.8908386;-2.5263977;-;-;-;-;-;-;-;-;-;-;-;-;-;-;-
1514004076168;-;-;9.208588;0.44911194;-2.915451;-;-;-;-;-;-;-;-;-;-;-;-;-;-;-
1514004076188;-;-;10.417664;0.20370483;-2.5886536;-;-;-;-;-;-;-;-;-;-;-;-;-;-;-
1514004076209;-;-;8.537018;0.47782898;-1.3747864;-;-;-;-;-;-;-;-;-;-;-;-;-;-;-
1514004076229;-;-;6.858673;0.43952942;-0.43865967;-;-;-;-;-;-;-;-;-;-;-;-;-;-;-
1514004076249;-;-;5.901001;0.52093506;-0.8372803;-;-;-;-;-;-;-;-;-;-;-;-;-;-;-
1514004076270;-;-;5.947693;0.9590759;-1.4262543;-;-;-;-;-;-;-;-;-;-;-;-;-;-;-
1514004076289;-;-;6.521103;1.2894745;-1.6321564;-;-;-;-;-;-;-;-;-;-;-;-;-;-;-
1514004076310;-;-;6.922119;1.4283295;-1.5280151;-;-;-;-;-;-;-;-;-;-;-;-;-;-;-
1514004076330;-;-;7.3506927;1.6186676;-2.278595;-;-;-;-;-;-;-;-;-;-;-;-;-;-;-
1514004076351;-;-;6.8036194;1.1781464;-6.863495;-;-;-;-;-;-;-;-;-;-;-;-;-;-;-
1514004076371;-;-;6.5510254;-0.45350647;-7.386627;-;-;-;-;-;-;-;-;-;-;-;-;-;-;-
1514004076392;-;-;8.944031;-3.2607117;-4.2873383;-;-;-;-;-;-;-;-;-;-;-;-;-;-;-
1514004076412;-;-;13.208099;-5.605835;-6.7306213;-;-;-;-;-;-;-;-;-;-;-;-;-;-;-
1514004076433;-;-;20.48648;-7.5535126;-4.914612;-;-;-;-;-;-;-;-;-;-;-;-;-;-;-
1514004076454;-;-;26.521057;-7.223114;-2.3983002;-;-;-;-;-;-;-;-;-;-;-;-;-;-;-
1514004076473;-;-;22.790894;-1.9247437;-4.226288;-;-;-;-;-;-;-;-;-;-;-;-;-;-;-
1514004076494;-;-;15.808212;0.40242004;-1.7782135;-;-;-;-;-;-;-;-;-;-;-;-;-;-;-
1514004076513;-;-;11.253235;0.6095123;-1.0862885;-;-;-;-;-;-;-;-;-;-;-;-;-;-;-
1514004076534;-;-;7.4093475;-0.3577423;-2.0427704;-;-;-;-;-;-;-;-;-;-;-;-;-;-;-
1514004076554;-;-;5.6544037;-1.9642487;-1.3233032;-;-;-;-;-;-;-;-;-;-;-;-;-;-;-
1514004076575;-;-;5.403;-2.3257751;-1.8584137;-;-;-;-;-;-;-;-;-;-;-;-;-;-;-
1514004076595;-;-;5.406601;-1.1897278;-2.507248;-;-;-;-;-;-;-;-;-;-;-;-;-;-;-
1514004076615;-;-;4.4058228;0.21447754;-2.2283173;-;-;-;-;-;-;-;-;-;-;-;-;-;-;-
1514004076636;-;-;3.1356964;1.1027222;-1.4466095;-;-;-;-;-;-;-;-;-;-;-;-;-;-;-
1514004076656;-;-;4.7026978;0.50057983;-1.6596985;-;-;-;-;-;-;-;-;-;-;-;-;-;-;-
1514004076676;-;-;6.1116943;-0.9910126;-2.586258;-;-;-;-;-;-;-;-;-;-;-;-;-;-;-
1514004076697;-;-;6.0422516;-2.0827637;-2.5527344;-;-;-;-;-;-;-;-;-;-;-;-;-;-;-
1514004076718;-;-;5.150421;-2.9506683;-2.2355042;-;-;-;-;-;-;-;-;-;-;-;-;-;-;-
1514004076738;-;-;5.392227;-2.8656616;-0.6732788;-;-;-;-;-;-;-;-;-;-;-;-;-;-;-
1514004076759;-;-;6.023102;-2.0001678;0.9200592;-;-;-;-;-;-;-;-;-;-;-;-;-;-;-
1514004076779;-;-;6.3175964;-1.9211578;1.1139832;-;-;-;-;-;-;-;-;-;-;-;-;-;-;-
1514004076800;-;-;6.600113;-3.498932;-0.33210754;-;-;-;-;-;-;-;-;-;-;-;-;-;-;-
1514004076819;-;-;8.235352;-4.3512726;-1.7231445;-;-;-;-;-;-;-;-;-;-;-;-;-;-;-
1514004076839;-;-;9.819107;-2.5951233;-2.3312683;-;-;-;-;-;-;-;-;-;-;-;-;-;-;-
1514004076860;-;-;8.827911;-0.13148499;-3.997635;-;-;-;-;-;-;-;-;-;-;-;-;-;-;-
1514004076880;-;-;9.1918335;1.4474792;-8.411346;-;-;-;-;-;-;-;-;-;-;-;-;-;-;-
1514004076901;-;-;11.472305;1.7323914;-6.602524;-;-;-;-;-;-;-;-;-;-;-;-;-;-;-
1514004076921;-;-;14.37648;2.023285;-3.8623657;-;-;-;-;-;-;-;-;-;-;-;-;-;-;-
1514004076942;-;-;15.671738;1.758728;-1.7315216;-;-;-;-;-;-;-;-;-;-;-;-;-;-;-
1514004076962;-;-;16.160156;2.449463;-2.4006958;-;-;-;-;-;-;-;-;-;-;-;-;-;-;-
1514004076983;-;-;18.535202;4.1996155;-4.160446;-;-;-;-;-;-;-;-;-;-;-;-;-;-;-
1514004077004;-;-;18.067139;1.9371033;-3.5642853;-;-;-;-;-;-;-;-;-;-;-;-;-;-;-
1514004077023;-;-;13.100357;0.076812744;-2.515625;-;-;-;-;-;-;-;-;-;-;-;-;-;-;-
1514004077044;-;-;9.770035;-0.30387878;-1.4992828;-;-;-;-;-;-;-;-;-;-;-;-;-;-;-
1514004077063;-;-;7.2585144;0.6669769;-1.440628;-;-;-;-;-;-;-;-;-;-;-;-;-;-;-
1514004077083;-;-;4.928955;1.382843;-1.0814972;-;-;-;-;-;-;-;-;-;-;-;-;-;-;-
1514004077103;-;-;3.2673798;0.12948608;-0.3009796;-;-;-;-;-;-;-;-;-;-;-;-;-;-;-
1514004077123;-;-;3.5187683;-0.93833923;0.8302765;-;-;-;-;-;-;-;-;-;-;-;-;-;-;-
1514004077144;-;-;5.6891174;-1.2962646;1.1115875;-;-;-;-;-;-;-;-;-;-;-;-;-;-;-
1514004077164;-;-;5.5777893;-1.2076874;-0.3476715;-;-;-;-;-;-;-;-;-;-;-;-;-;-;-
1514004077185;-;-;5.276108;-1.036499;-0.8372803;-;-;-;-;-;-;-;-;-;-;-;-;-;-;-
1514004077205;-;-;5.2845;-0.4451294;-1.0372009;-;-;-;-;-;-;-;-;-;-;-;-;-;-;-
1514004077226;-;-;5.221039;-0.0440979;-1.4944916;-;-;-;-;-;-;-;-;-;-;-;-;-;-;-
1514004077246;-;-;4.3663177;0.27911377;-1.3520355;-;-;-;-;-;-;-;-;-;-;-;-;-;-;-
1514004077267;-;-;4.3423767;0.6214905;-0.3548584;-;-;-;-;-;-;-;-;-;-;-;-;-;-;-
1514004077287;-;-;6.375046;0.93392944;-0.58470154;-;-;-;-;-;-;-;-;-;-;-;-;-;-;-
1514004077308;-;-;9.031418;1.5600128;-1.495697;-;-;-;-;-;-;-;-;-;-;-;-;-;-;-
1514004077327;-;-;9.895721;2.4087524;-2.0248108;-;-;-;-;-;-;-;-;-;-;-;-;-;-;-
1514004077348;-;-;10.563705;2.6972656;-3.317688;-;-;-;-;-;-;-;-;-;-;-;-;-;-;-
1514004077369;-;-;10.098038;2.239975;-5.5454865;-;-;-;-;-;-;-;-;-;-;-;-;-;-;-
1514004077389;-;-;8.819534;-0.39126587;-6.1703796;-;-;-;-;-;-;-;-;-;-;-;-;-;-;-
1514004077409;-;-;9.805939;-2.8692627;-4.3795166;-;-;-;-;-;-;-;-;-;-;-;-;-;-;-
1514004077430;-;-;12.716095;-6.338455;-2.2127533;-;-;-;-;-;-;-;-;-;-;-;-;-;-;-
1514004077451;-;-;16.981369;-4.716385;-2.9429932;-;-;-;-;-;-;-;-;-;-;-;-;-;-;-
1514004077470;-;-;21.367538;-2.04805;-2.618576;-;-;-;-;-;-;-;-;-;-;-;-;-;-;-
1514004077491;-;-;20.377533;-1.3166199;-4.3088837;-;-;-;-;-;-;-;-;-;-;-;-;-;-;-
1514004077511;-;-;17.85884;0.09954834;-1.7877808;-;-;-;-;-;-;-;-;-;-;-;-;-;-;-
1514004077532;-;-;12.687363;0.29467773;-0.04600525;-;-;-;-;-;-;-;-;-;-;-;-;-;-;-
1514004077551;-;-;7.556595;-0.10635376;-0.60505676;-;-;-;-;-;-;-;-;-;-;-;-;-;-;-
1514004077572;-;-;4.6691895;-1.0867767;-0.34648132;-;-;-;-;-;-;-;-;-;-;-;-;-;-;-
1514004077592;-;-;2.628128;-2.0037537;0.40649414;-;-;-;-;-;-;-;-;-;-;-;-;-;-;-
1514004077613;-;-;2.3085022;-2.324585;-0.2578888;-;-;-;-;-;-;-;-;-;-;-;-;-;-;-
1514004077633;-;-;2.6616516;-2.2946472;-2.1816254;-;-;-;-;-;-;-;-;-;-;-;-;-;-;-
1514004077654;-;-;3.881485;-2.1797333;-2.8376465;-;-;-;-;-;-;-;-;-;-;-;-;-;-;-
1514004077674;-;-;5.4173737;-1.7667236;-1.7219391;-;-;-;-;-;-;-;-;-;-;-;-;-;-;-
1514004077695;-;-;7.3291473;-0.77552795;-1.3699951;-;-;-;-;-;-;-;-;-;-;-;-;-;-;-
1514004077715;-;-;8.479553;-0.39245605;-1.7985535;-;-;-;-;-;-;-;-;-;-;-;-;-;-;-
1514004077736;-;-;8.244919;-0.5780029;-2.5096436;-;-;-;-;-;-;-;-;-;-;-;-;-;-;-
1514004077756;-;-;8.146759;-1.4375305;-2.0080566;-;-;-;-;-;-;-;-;-;-;-;-;-;-;-
1514004077776;-;-;8.10965;-2.4825897;0.1946106;-;-;-;-;-;-;-;-;-;-;-;-;-;-;-
1514004077797;-;-;7.502716;-3.1960602;1.9782867;-;-;-;-;-;-;-;-;-;-;-;-;-;-;-
1514004077818;-;-;6.898178;-3.1888885;-0.10107422;-;-;-;-;-;-;-;-;-;-;-;-;-;-;-
1514004077838;-;-;5.9620514;-2.2407837;-2.1672668;-;-;-;-;-;-;-;-;-;-;-;-;-;-;-
1514004077859;-;-;6.05542;-1.0867767;-1.5938568;-;-;-;-;-;-;-;-;-;-;-;-;-;-;-
1514004077879;-;-;7.5206757;0.083984375;-3.0220032;-;-;-;-;-;-;-;-;-;-;-;-;-;-;-
1514004077899;-;-;11.720108;1.5947266;-5.895035;-;-;-;-;-;-;-;-;-;-;-;-;-;-;-
1514004077920;-;-;14.368088;3.4478455;-5.9501038;-;-;-;-;-;-;-;-;-;-;-;-;-;-;-
1514004077940;-;-;16.47499;4.208008;-3.0914307;-;-;-;-;-;-;-;-;-;-;-;-;-;-;-
1514004077961;-;-;16.422318;0.77471924;-2.5718842;-;-;-;-;-;-;-;-;-;-;-;-;-;-;-
1514004077981;-;-;16.07277;-1.2435913;-4.014389;-;-;-;-;-;-;-;-;-;-;-;-;-;-;-
1514004078003;-;-;14.6949005;-0.3361969;-3.2183228;-;-;-;-;-;-;-;-;-;-;-;-;-;-;-
1514004078023;-;-;11.824249;2.5548096;-2.4006958;-;-;-;-;-;-;-;-;-;-;-;-;-;-;-
1514004078045;-;-;10.344635;3.0348358;-2.3947144;-;-;-;-;-;-;-;-;-;-;-;-;-;-;-
1514004078064;-;-;9.00029;2.2220154;-1.9158783;-;-;-;-;-;-;-;-;-;-;-;-;-;-;-
1514004078085;-;-;7.332733;1.145813;-1.7722168;-;-;-;-;-;-;-;-;-;-;-;-;-;-;-
1514004078106;-;-;5.696289;-0.1302948;-1.0072784;-;-;-;-;-;-;-;-;-;-;-;-;-;-;-
1514004078126;-;-;4.509964;-1.2364197;-0.50927734;-;-;-;-;-;-;-;-;-;-;-;-;-;-;-
1514004078147;-;-;4.4441223;-1.6386414;0.15031433;-;-;-;-;-;-;-;-;-;-;-;-;-;-;-
1514004078167;-;-;6.376251;-0.641449;-0.06994629;-;-;-;-;-;-;-;-;-;-;-;-;-;-;-
1514004078188;-;-;6.746155;0.5460663;-1.0575562;-;-;-;-;-;-;-;-;-;-;-;-;-;-;-
1514004078208;-;-;6.5342712;1.185318;-0.84207153;-;-;-;-;-;-;-;-;-;-;-;-;-;-;-
1514004078228;-;-;6.8371277;1.0955353;-0.81214905;-;-;-;-;-;-;-;-;-;-;-;-;-;-;-
1514004078249;-;-;7.34111;0.5197296;-1.3508453;-;-;-;-;-;-;-;-;-;-;-;-;-;-;-
1514004078268;-;-;6.6192627;0.30186462;-1.6848297;-;-;-;-;-;-;-;-;-;-;-;-;-;-;-
1514004078289;-;-;5.3647003;0.73760986;-1.104248;-;-;-;-;-;-;-;-;-;-;-;-;-;-;-
1514004078310;-;-;5.1121063;1.9203491;0.10482788;-;-;-;-;-;-;-;-;-;-;-;-;-;-;-
1514004078330;-;-;5.727417;2.9857635;-0.8684082;-;-;-;-;-;-;-;-;-;-;-;-;-;-;-
1514004078350;-;-;6.612076;2.5356445;-2.6006165;-;-;-;-;-;-;-;-;-;-;-;-;-;-;-
1514004078371;-;-;7.995926;0.8154144;-2.2965546;-;-;-;-;-;-;-;-;-;-;-;-;-;-;-
1514004078391;-;-;9.823898;-0.43196106;-2.5898438;-;-;-;-;-;-;-;-;-;-;-;-;-;-;-
1514004078412;-;-;9.617996;-0.878479;-4.441757;-;-;-;-;-;-;-;-;-;-;-;-;-;-;-
1514004078432;-;-;10.353012;-2.1318512;-7.5494385;-;-;-;-;-;-;-;-;-;-;-;-;-;-;-
1514004078453;-;-;13.2117;-4.096283;-5.532318;-;-;-;-;-;-;-;-;-;-;-;-;-;-;-
1514004078473;-;-;15.645401;-3.1410065;-2.39711;-;-;-;-;-;-;-;-;-;-;-;-;-;-;-
1514004078493;-;-;17.129807;-1.1346588;-3.1860046;-;-;-;-;-;-;-;-;-;-;-;-;-;-;-
1514004078514;-;-;19.127762;-1.6051178;-1.0946655;-;-;-;-;-;-;-;-;-;-;-;-;-;-;-
1514004078535;-;-;20.6445;-2.1581879;-5.9800262;-;-;-;-;-;-;-;-;-;-;-;-;-;-;-
1514004078555;-;-;17.837296;-1.9738312;-2.7861633;-;-;-;-;-;-;-;-;-;-;-;-;-;-;-
1514004078575;-;-;11.308304;-1.1969147;-0.46499634;-;-;-;-;-;-;-;-;-;-;-;-;-;-;-
1514004078595;-;-;6.754532;-0.49899292;-0.87319946;-;-;-;-;-;-;-;-;-;-;-;-;-;-;-
1514004078616;-;-;2.4677124;0.08998108;-1.8404541;-;-;-;-;-;-;-;-;-;-;-;-;-;-;-
1514004078636;-;-;1.9218292;0.1797638;-1.7746124;-;-;-;-;-;-;-;-;-;-;-;-;-;-;-
1514004078657;-;-;3.7007294;-0.32421875;-2.6054077;-;-;-;-;-;-;-;-;-;-;-;-;-;-;-
1514004078677;-;-;4.4477234;-0.47027588;-3.314087;-;-;-;-;-;-;-;-;-;-;-;-;-;-;-
1514004078698;-;-;5.0570374;-0.8377838;-2.6269531;-;-;-;-;-;-;-;-;-;-;-;-;-;-;-
1514004078718;-;-;5.604126;-1.214859;-2.5455475;-;-;-;-;-;-;-;-;-;-;-;-;-;-;-
1514004078739;-;-;6.201477;-1.230423;-2.8544006;-;-;-;-;-;-;-;-;-;-;-;-;-;-;-
1514004078759;-;-;6.1248627;-0.9371338;-2.6113892;-;-;-;-;-;-;-;-;-;-;-;-;-;-;-
1514004078780;-;-;5.387436;-0.5564575;-1.7111664;-;-;-;-;-;-;-;-;-;-;-;-;-;-;-
1514004078800;-;-;5.6974945;-0.8641205;0.12397766;-;-;-;-;-;-;-;-;-;-;-;-;-;-;-
1514004078821;-;-;7.3818207;-1.8050385;1.0960236;-;-;-;-;-;-;-;-;-;-;-;-;-;-;-
1514004078841;-;-;8.396957;-2.4023895;0.44241333;-;-;-;-;-;-;-;-;-;-;-;-;-;-;-
1514004078862;-;-;7.6810913;-3.6389923;-1.697998;-;-;-;-;-;-;-;-;-;-;-;-;-;-;-
1514004078882;-;-;7.881012;-3.5480194;-2.5252075;-;-;-;-;-;-;-;-;-;-;-;-;-;-;-
1514004078903;-;-;6.0147247;-1.740387;-2.6616669;-;-;-;-;-;-;-;-;-;-;-;-;-;-;-
1514004078924;-;-;5.3108215;0.7687378;-5.9812317;-;-;-;-;-;-;-;-;-;-;-;-;-;-;-
1514004078944;-;-;7.738556;3.2862396;-6.614502;-;-;-;-;-;-;-;-;-;-;-;-;-;-;-
1514004078964;-;-;11.079651;4.221176;-4.097;-;-;-;-;-;-;-;-;-;-;-;-;-;-;-
1514004078985;-;-;16.897568;1.9347076;-3.998825;-;-;-;-;-;-;-;-;-;-;-;-;-;-;-
1514004079005;-;-;23.193115;2.248352;-5.0163727;-;-;-;-;-;-;-;-;-;-;-;-;-;-;-
1514004079025;-;-;28.398117;2.9330902;-7.575775;-;-;-;-;-;-;-;-;-;-;-;-;-;-;-
1514004079046;-;-;19.980103;-0.4259796;-4.9565125;-;-;-;-;-;-;-;-;-;-;-;-;-;-;-
1514004079066;-;-;11.188599;-1.348938;-3.140503;-;-;-;-;-;-;-;-;-;-;-;-;-;-;-
1514004079086;-;-;4.588974;-0.30148315;-2.8184967;-;-;-;-;-;-;-;-;-;-;-;-;-;-;-
1514004079106;-;-;2.5060272;1.6677551;-2.0738983;-;-;-;-;-;-;-;-;-;-;-;-;-;-;-
1514004079127;-;-;4.67157;2.1322327;-0.6900482;-;-;-;-;-;-;-;-;-;-;-;-;-;-;-
1514004079146;-;-;5.932129;0.80345154;-0.53800964;-;-;-;-;-;-;-;-;-;-;-;-;-;-;-
1514004079167;-;-;6.0219116;-1.2615509;-0.0053100586;-;-;-;-;-;-;-;-;-;-;-;-;-;-;-
1514004079187;-;-;4.659607;-2.590332;-0.09269714;-;-;-;-;-;-;-;-;-;-;-;-;-;-;-
1514004079208;-;-;4.6536255;-2.456253;-1.1497345;-;-;-;-;-;-;-;-;-;-;-;-;-;-;-
1514004079229;-;-;4.5554657;-1.5368805;-1.7267303;-;-;-;-;-;-;-;-;-;-;-;-;-;-;-
1514004079250;-;-;4.007187;-0.463089;-1.9721375;-;-;-;-;-;-;-;-;-;-;-;-;-;-;-
1514004079270;-;-;3.9940186;0.0013885498;-2.0403748;-;-;-;-;-;-;-;-;-;-;-;-;-;-;-
1514004079291;-;-;4.6931305;0.28271484;-2.5335846;-;-;-;-;-;-;-;-;-;-;-;-;-;-;-
1514004079311;-;-;5.9381104;1.1278534;-3.096222;-;-;-;-;-;-;-;-;-;-;-;-;-;-;-
1514004079332;-;-;7.8474884;2.2698975;-2.2007904;-;-;-;-;-;-;-;-;-;-;-;-;-;-;-
1514004079352;-;-;9.029022;3.3412933;-2.3671875;-;-;-;-;-;-;-;-;-;-;-;-;-;-;-
1514004079373;-;-;8.789597;1.8281708;-4.756592;-;-;-;-;-;-;-;-;-;-;-;-;-;-;-
1514004079393;-;-;8.967972;-0.2392273;-5.5059814;-;-;-;-;-;-;-;-;-;-;-;-;-;-;-
1514004079414;-;-;8.311966;-0.32781982;-5.7681427;-;-;-;-;-;-;-;-;-;-;-;-;-;-;-
1514004079434;-;-;9.147537;-0.56243896;-6.370285;-;-;-;-;-;-;-;-;-;-;-;-;-;-;-
1514004079455;-;-;10.890518;-0.8605194;-4.666809;-;-;-;-;-;-;-;-;-;-;-;-;-;-;-
1514004079476;-;-;14.266342;0.119903564;-5.121704;-;-;-;-;-;-;-;-;-;-;-;-;-;-;-
1514004079496;-;-;19.447388;0.62028503;-5.7549744;-;-;-;-;-;-;-;-;-;-;-;-;-;-;-
1514004079516;-;-;21.94574;-2.4706268;-3.8168793;-;-;-;-;-;-;-;-;-;-;-;-;-;-;-
1514004079537;-;-;20.508026;-4.9318695;-5.285721;-;-;-;-;-;-;-;-;-;-;-;-;-;-;-
1514004079557;-;-;12.957916;-3.1050873;-2.855606;-;-;-;-;-;-;-;-;-;-;-;-;-;-;-
1514004079578;-;-;8.548981;-2.2132416;0.36698914;-;-;-;-;-;-;-;-;-;-;-;-;-;-;-
1514004079599;-;-;5.766922;-1.6110992;0.35144043;-;-;-;-;-;-;-;-;-;-;-;-;-;-;-
1514004079619;-;-;4.837967;-1.661377;-0.58470154;-;-;-;-;-;-;-;-;-;-;-;-;-;-;-
1514004079639;-;-;4.451309;-1.5249176;-1.8129272;-;-;-;-;-;-;-;-;-;-;-;-;-;-;-
1514004079660;-;-;4.426178;-0.7910919;-3.5714722;-;-;-;-;-;-;-;-;-;-;-;-;-;-;-
1514004079680;-;-;4.924164;-0.05368042;-5.231842;-;-;-;-;-;-;-;-;-;-;-;-;-;-;-
1514004079701;-;-;5.545456;-0.050079346;-3.9796753;-;-;-;-;-;-;-;-;-;-;-;-;-;-;-
1514004079720;-;-;5.608902;-0.18894958;-1.9613647;-;-;-;-;-;-;-;-;-;-;-;-;-;-;-
1514004079741;-;-;6.5522156;-0.7515869;-1.6716614;-;-;-;-;-;-;-;-;-;-;-;-;-;-;-
1514004079761;-;-;6.9951477;-1.9917908;-1.614212;-;-;-;-;-;-;-;-;-;-;-;-;-;-;-
1514004079782;-;-;6.5474396;-2.8237762;-1.2610626;-;-;-;-;-;-;-;-;-;-;-;-;-;-;-
1514004079801;-;-;6.438492;-3.5851288;-0.95700073;-;-;-;-;-;-;-;-;-;-;-;-;-;-;-
1514004079822;-;-;7.229782;-4.2052307;0.077301025;-;-;-;-;-;-;-;-;-;-;-;-;-;-;-
1514004079842;-;-;7.9671936;-3.5097046;0.9859009;-;-;-;-;-;-;-;-;-;-;-;-;-;-;-
1514004079863;-;-;8.100067;-2.1497955;0.6279602;-;-;-;-;-;-;-;-;-;-;-;-;-;-;-
1514004079882;-;-;9.69342;-2.3150024;-0.26028442;-;-;-;-;-;-;-;-;-;-;-;-;-;-;-
1514004079903;-;-;10.326675;-2.3437347;-0.21598816;-;-;-;-;-;-;-;-;-;-;-;-;-;-;-
1514004079923;-;-;9.489914;-1.5404816;-0.33929443;-;-;-;-;-;-;-;-;-;-;-;-;-;-;-
1514004079942;-;-;7.4811707;0.048080444;-1.7518768;-;-;-;-;-;-;-;-;-;-;-;-;-;-;-
1514004079963;-;-;5.6184845;0.16059875;-3.6492767;-;-;-;-;-;-;-;-;-;-;-;-;-;-;-
1514004079982;-;-;6.0063477;-0.53970337;-7.2405853;-;-;-;-;-;-;-;-;-;-;-;-;-;-;-
1514004080003;-;-;9.422867;0.517334;-5.286911;-;-;-;-;-;-;-;-;-;-;-;-;-;-;-
1514004080023;-;-;12.865738;4.461792;-4.1544495;-;-;-;-;-;-;-;-;-;-;-;-;-;-;-
1514004080043;-;-;13.850952;5.038788;-4.804474;-;-;-;-;-;-;-;-;-;-;-;-;-;-;-
1514004080064;-;-;17.875595;1.374466;-7.484787;-;-;-;-;-;-;-;-;-;-;-;-;-;-;-
1514004080084;-;-;24.045456;-0.973053;-6.5486603;-;-;-;-;-;-;-;-;-;-;-;-;-;-;-
1514004080104;-;-;18.765045;-0.7671509;-4.586609;-;-;-;-;-;-;-;-;-;-;-;-;-;-;-
1514004080125;-;-;13.452316;-0.33738708;-3.370346;-;-;-;-;-;-;-;-;-;-;-;-;-;-;-
1514004080145;-;-;10.81749;0.4371338;-2.7705994;-;-;-;-;-;-;-;-;-;-;-;-;-;-;-
1514004080165;-;-;8.021072;1.2212372;-2.1744537;-;-;-;-;-;-;-;-;-;-;-;-;-;-;-
1514004080186;-;-;5.2425995;-0.48703003;-1.9577789;-;-;-;-;-;-;-;-;-;-;-;-;-;-;-
1514004080206;-;-;4.053879;-2.2036743;-1.5292053;-;-;-;-;-;-;-;-;-;-;-;-;-;-;-
1514004080227;-;-;4.422577;-2.3952026;-0.051986694;-;-;-;-;-;-;-;-;-;-;-;-;-;-;-
1514004080248;-;-;5.754959;-0.1530304;0.021026611;-;-;-;-;-;-;-;-;-;-;-;-;-;-;-
1514004080268;-;-;4.7673492;1.540863;-0.9845276;-;-;-;-;-;-;-;-;-;-;-;-;-;-;-
1514004080288;-;-;4.992401;1.6222687;-1.1712799;-;-;-;-;-;-;-;-;-;-;-;-;-;-;-
1514004080309;-;-;6.3666687;1.2104645;-1.3412628;-;-;-;-;-;-;-;-;-;-;-;-;-;-;-
1514004080329;-;-;8.138382;1.3325653;-1.887146;-;-;-;-;-;-;-;-;-;-;-;-;-;-;-
1514004080350;-;-;8.558563;1.8066101;-3.3212738;-;-;-;-;-;-;-;-;-;-;-;-;-;-;-
1514004080370;-;-;8.906921;2.4865723;-4.2933197;-;-;-;-;-;-;-;-;-;-;-;-;-;-;-
1514004080391;-;-;9.481522;2.679306;0.106033325;-;-;-;-;-;-;-;-;-;-;-;-;-;-;-
1514004080411;-;-;11.474701;1.5635986;2.9072418;-;-;-;-;-;-;-;-;-;-;-;-;-;-;-
1514004080432;-;-;11.4292145;0.8046417;-0.9953003;-;-;-;-;-;-;-;-;-;-;-;-;-;-;-
1514004080452;-;-;9.798767;0.14263916;-6.504364;-;-;-;-;-;-;-;-;-;-;-;-;-;-;-
1514004080473;-;-;10.7061615;-3.3014069;-5.3204346;-;-;-;-;-;-;-;-;-;-;-;-;-;-;-
1514004080493;-;-;11.322662;-5.74469;-5.6520233;-;-;-;-;-;-;-;-;-;-;-;-;-;-;-
1514004080514;-;-;13.168594;-8.484863;-7.987564;-;-;-;-;-;-;-;-;-;-;-;-;-;-;-
1514004080535;-;-;15.816589;-6.3743744;-6.6288605;-;-;-;-;-;-;-;-;-;-;-;-;-;-;-
1514004080554;-;-;13.344574;-0.16500854;-6.3475494;-;-;-;-;-;-;-;-;-;-;-;-;-;-;-
1514004080574;-;-;10.270416;2.9462585;-5.9177856;-;-;-;-;-;-;-;-;-;-;-;-;-;-;-
1514004080595;-;-;8.128799;3.3005981;-5.769348;-;-;-;-;-;-;-;-;-;-;-;-;-;-;-
1514004080615;-;-;6.683899;1.7455597;-5.128891;-;-;-;-;-;-;-;-;-;-;-;-;-;-;-
1514004080637;-;-;6.3020325;-0.32302856;-3.5858307;-;-;-;-;-;-;-;-;-;-;-;-;-;-;-
1514004080657;-;-;6.149994;-1.759552;-2.3671875;-;-;-;-;-;-;-;-;-;-;-;-;-;-;-
1514004080677;-;-;5.2126617;-3.1122742;-2.041565;-;-;-;-;-;-;-;-;-;-;-;-;-;-;-
1514004080698;-;-;4.367508;-3.01651;-1.8093262;-;-;-;-;-;-;-;-;-;-;-;-;-;-;-
1514004080718;-;-;3.6803741;-1.9953766;-1.9051056;-;-;-;-;-;-;-;-;-;-;-;-;-;-;-
1514004080739;-;-;4.1687927;-0.85095215;-1.8368683;-;-;-;-;-;-;-;-;-;-;-;-;-;-;-
1514004080759;-;-;6.149994;-1.2005005;-2.115799;-;-;-;-;-;-;-;-;-;-;-;-;-;-;-
1514004080780;-;-;7.1016846;-1.1262817;-1.9302368;-;-;-;-;-;-;-;-;-;-;-;-;-;-;-
1514004080800;-;-;8.159927;-1.1873322;-1.3448639;-;-;-;-;-;-;-;-;-;-;-;-;-;-;-
1514004080820;-;-;9.17746;-1.6290588;-1.0384064;-;-;-;-;-;-;-;-;-;-;-;-;-;-;-
1514004080841;-;-;10.308731;-1.8660889;-1.2443085;-;-;-;-;-;-;-;-;-;-;-;-;-;-;-
1514004080860;-;-;11.284363;-2.1737366;-1.7482758;-;-;-;-;-;-;-;-;-;-;-;-;-;-;-
1514004080880;-;-;11.2556305;-2.30542;-2.563507;-;-;-;-;-;-;-;-;-;-;-;-;-;-;-
1514004080901;-;-;11.046143;-1.8648987;-2.4557648;-;-;-;-;-;-;-;-;-;-;-;-;-;-;-
1514004080922;-;-;10.368576;-0.81144714;-1.3292999;-;-;-;-;-;-;-;-;-;-;-;-;-;-;-
1514004080941;-;-;8.795593;-1.0053711;0.03540039;-;-;-;-;-;-;-;-;-;-;-;-;-;-;-
1514004080962;-;-;8.311966;-1.7320099;-0.012481689;-;-;-;-;-;-;-;-;-;-;-;-;-;-;-
1514004080982;-;-;8.707001;-3.03685;-4.603363;-;-;-;-;-;-;-;-;-;-;-;-;-;-;-
1514004081002;-;-;10.277603;-3.3002167;-8.744141;-;-;-;-;-;-;-;-;-;-;-;-;-;-;-
1514004081023;-;-;10.0776825;-1.151413;-9.179886;-;-;-;-;-;-;-;-;-;-;-;-;-;-;-
1514004081044;-;-;8.367035;2.12146;-6.729416;-;-;-;-;-;-;-;-;-;-;-;-;-;-;-
1514004081064;-;-;8.400543;3.494522;-3.097412;-;-;-;-;-;-;-;-;-;-;-;-;-;-;-
1514004081085;-;-;10.70137;0.6071167;-3.3404236;-;-;-;-;-;-;-;-;-;-;-;-;-;-;-
1514004081105;-;-;13.058472;-4.4566193;-4.780533;-;-;-;-;-;-;-;-;-;-;-;-;-;-;-
1514004081125;-;-;14.23761;-4.8720093;-5.642456;-;-;-;-;-;-;-;-;-;-;-;-;-;-;-
1514004081147;-;-;10.818695;-1.9259491;-3.7223053;-;-;-;-;-;-;-;-;-;-;-;-;-;-;-
1514004081167;-;-;7.581726;0.39762878;-3.195572;-;-;-;-;-;-;-;-;-;-;-;-;-;-;-
1514004081187;-;-;4.3423767;1.0596313;-2.836441;-;-;-;-;-;-;-;-;-;-;-;-;-;-;-
1514004081208;-;-;2.0247803;0.5532532;-2.5766754;-;-;-;-;-;-;-;-;-;-;-;-;-;-;-
1514004081228;-;-;2.6209412;-1.0317078;-2.4414063;-;-;-;-;-;-;-;-;-;-;-;-;-;-;-
1514004081249;-;-;6.4612427;-1.0424805;-2.9537659;-;-;-;-;-;-;-;-;-;-;-;-;-;-;-
1514004081269;-;-;10.38414;0.43473816;-3.2877502;-;-;-;-;-;-;-;-;-;-;-;-;-;-;-
1514004081290;-;-;11.843414;1.7635193;-3.891098;-;-;-;-;-;-;-;-;-;-;-;-;-;-;-
1514004081310;-;-;10.025009;2.4841766;-3.935379;-;-;-;-;-;-;-;-;-;-;-;-;-;-;-
1514004081331;-;-;7.1328125;3.3760223;-3.1081848;-;-;-;-;-;-;-;-;-;-;-;-;-;-;-
1514004081351;-;-;5.8674774;3.1054688;-1.2239532;-;-;-;-;-;-;-;-;-;-;-;-;-;-;-
1514004081372;-;-;6.5594025;1.1158905;0.07849121;-;-;-;-;-;-;-;-;-;-;-;-;-;-;-
1514004081392;-;-;7.6391907;-0.8688965;-0.85284424;-;-;-;-;-;-;-;-;-;-;-;-;-;-;-
1514004081413;-;-;8.48793;-0.84376526;-3.2362823;-;-;-;-;-;-;-;-;-;-;-;-;-;-;-
1514004081434;-;-;7.7840424;1.595932;-3.820465;-;-;-;-;-;-;-;-;-;-;-;-;-;-;-
1514004081455;-;-;8.049789;2.4590302;-0.6110382;-;-;-;-;-;-;-;-;-;-;-;-;-;-;-
1514004081475;-;-;8.951218;0.8213959;1.504242;-;-;-;-;-;-;-;-;-;-;-;-;-;-;-
1514004081495;-;-;11.084442;-1.9008026;-4.120941;-;-;-;-;-;-;-;-;-;-;-;-;-;-;-
1514004081516;-;-;12.400055;-2.4778137;-11.584854;-;-;-;-;-;-;-;-;-;-;-;-;-;-;-
1514004081537;-;-;16.076355;-4.245926;-7.405777;-;-;-;-;-;-;-;-;-;-;-;-;-;-;-
1514004081556;-;-;13.113525;-3.3409119;-4.6919556;-;-;-;-;-;-;-;-;-;-;-;-;-;-;-
1514004081577;-;-;10.457169;-2.5376587;-6.279312;-;-;-;-;-;-;-;-;-;-;-;-;-;-;-
1514004081597;-;-;7.7409363;-1.641037;-5.358734;-;-;-;-;-;-;-;-;-;-;-;-;-;-;-
1514004081617;-;-;6.0482483;-0.5708313;-4.044327;-;-;-;-;-;-;-;-;-;-;-;-;-;-;-
1514004081637;-;-;6.4049835;0.23362732;-3.6983643;-;-;-;-;-;-;-;-;-;-;-;-;-;-;-
1514004081658;-;-;8.114441;0.14263916;-3.970108;-;-;-;-;-;-;-;-;-;-;-;-;-;-;-
1514004081678;-;-;9.798767;-0.17817688;-4.337616;-;-;-;-;-;-;-;-;-;-;-;-;-;-;-
1514004081699;-;-;10.027405;-1.2866974;-3.9557343;-;-;-;-;-;-;-;-;-;-;-;-;-;-;-
1514004081720;-;-;8.714188;-2.7519379;-3.1345215;-;-;-;-;-;-;-;-;-;-;-;-;-;-;-
1514004081740;-;-;7.343506;-3.1805115;-2.4509735;-;-;-;-;-;-;-;-;-;-;-;-;-;-;-
1514004081760;-;-;4.190338;-2.4837952;-1.4226685;-;-;-;-;-;-;-;-;-;-;-;-;-;-;-
1514004081781;-;-;2.3934937;-1.4662628;-1.713562;-;-;-;-;-;-;-;-;-;-;-;-;-;-;-
1514004081800;-;-;2.6604462;-0.52653503;-2.247467;-;-;-;-;-;-;-;-;-;-;-;-;-;-;-
1514004081821;-;-;5.838745;-0.7922821;-2.6844177;-;-;-;-;-;-;-;-;-;-;-;-;-;-;-
1514004081841;-;-;8.103668;-1.0568542;-2.3552094;-;-;-;-;-;-;-;-;-;-;-;-;-;-;-
1514004081862;-;-;10.635529;-1.5356903;-1.7051849;-;-;-;-;-;-;-;-;-;-;-;-;-;-;-
1514004081882;-;-;13.238037;-1.8170013;-1.1832428;-;-;-;-;-;-;-;-;-;-;-;-;-;-;-
1514004081903;-;-;14.466263;-2.0695953;-1.5411835;-;-;-;-;-;-;-;-;-;-;-;-;-;-;-
1514004081923;-;-;12.423996;-2.0983276;-2.5216064;-;-;-;-;-;-;-;-;-;-;-;-;-;-;-
1514004081944;-;-;8.84108;-3.8281403;-2.8711548;-;-;-;-;-;-;-;-;-;-;-;-;-;-;-
1514004081964;-;-;6.2122498;-5.1976166;-0.43026733;-;-;-;-;-;-;-;-;-;-;-;-;-;-;-
1514004081984;-;-;8.717773;-3.949051;0.95477295;-;-;-;-;-;-;-;-;-;-;-;-;-;-;-
1514004082005;-;-;10.816299;-1.1322632;-0.94143677;-;-;-;-;-;-;-;-;-;-;-;-;-;-;-
1514004082025;-;-;10.396118;2.3070068;-6.2422028;-;-;-;-;-;-;-;-;-;-;-;-;-;-;-
1514004082045;-;-;10.071701;1.8844299;-7.7864532;-;-;-;-;-;-;-;-;-;-;-;-;-;-;-
1514004082065;-;-;9.036209;-0.03691101;-8.734558;-;-;-;-;-;-;-;-;-;-;-;-;-;-;-
1514004082086;-;-;7.157959;0.3569336;-7.199875;-;-;-;-;-;-;-;-;-;-;-;-;-;-;-
1514004082105;-;-;6.454056;1.6665497;-4.0203857;-;-;-;-;-;-;-;-;-;-;-;-;-;-;-
1514004082126;-;-;7.2633057;1.6533813;-3.341629;-;-;-;-;-;-;-;-;-;-;-;-;-;-;-
1514004082146;-;-;8.686661;-0.0069885254;-4.0634766;-;-;-;-;-;-;-;-;-;-;-;-;-;-;-
1514004082166;-;-;10.907272;-1.4638672;-2.5575256;-;-;-;-;-;-;-;-;-;-;-;-;-;-;-
1514004082186;-;-;12.576035;-0.8688965;-2.6317444;-;-;-;-;-;-;-;-;-;-;-;-;-;-;-
1514004082207;-;-;10.748062;0.7759094;-3.2530365;-;-;-;-;-;-;-;-;-;-;-;-;-;-;-
1514004082227;-;-;9.408508;0.44551086;-3.001648;-;-;-;-;-;-;-;-;-;-;-;-;-;-;-
1514004082247;-;-;7.4883575;-0.21528625;-2.1229706;-;-;-;-;-;-;-;-;-;-;-;-;-;-;-
1514004082267;-;-;4.9253693;-1.0652313;-1.3675995;-;-;-;-;-;-;-;-;-;-;-;-;-;-;-
1514004082288;-;-;3.9341583;-0.8641205;-0.4925232;-;-;-;-;-;-;-;-;-;-;-;-;-;-;-
1514004082308;-;-;4.1759796;-0.21170044;0.10961914;-;-;-;-;-;-;-;-;-;-;-;-;-;-;-
1514004082328;-;-;5.288086;-0.06086731;0.41607666;-;-;-;-;-;-;-;-;-;-;-;-;-;-;-
1514004082349;-;-;6.1128845;-0.6031494;0.14672852;-;-;-;-;-;-;-;-;-;-;-;-;-;-;-
1514004082369;-;-;5.924942;-1.8732758;-0.2578888;-;-;-;-;-;-;-;-;-;-;-;-;-;-;-
1514004082390;-;-;6.03627;-2.3401337;-0.28063965;-;-;-;-;-;-;-;-;-;-;-;-;-;-;-
1514004082410;-;-;6.7186127;-1.5237122;-0.89834595;-;-;-;-;-;-;-;-;-;-;-;-;-;-;-
1514004082430;-;-;7.0538025;0.06842041;-1.4346466;-;-;-;-;-;-;-;-;-;-;-;-;-;-;-
1514004082451;-;-;6.2397766;1.4271393;-1.5052643;-;-;-;-;-;-;-;-;-;-;-;-;-;-;-
1514004082471;-;-;5.7920685;2.292633;-1.1257935;-;-;-;-;-;-;-;-;-;-;-;-;-;-;-
1514004082492;-;-;6.9149475;2.6050873;-2.2905731;-;-;-;-;-;-;-;-;-;-;-;-;-;-;-
1514004082512;-;-;8.46759;2.3536987;-3.895874;-;-;-;-;-;-;-;-;-;-;-;-;-;-;-
1514004082533;-;-;7.475189;2.2196198;-3.8288422;-;-;-;-;-;-;-;-;-;-;-;-;-;-;-
1514004082552;-;-;5.4137726;1.422348;-5.1420593;-;-;-;-;-;-;-;-;-;-;-;-;-;-;-
1514004082573;-;-;5.411392;-0.8138428;-7.1867065;-;-;-;-;-;-;-;-;-;-;-;-;-;-;-
1514004082593;-;-;8.967972;-3.0775604;-6.7485657;-;-;-;-;-;-;-;-;-;-;-;-;-;-;-
1514004082614;-;-;14.913971;-4.3787994;-6.5390778;-;-;-;-;-;-;-;-;-;-;-;-;-;-;-
1514004082635;-;-;20.467316;-1.6386414;-5.3323975;-;-;-;-;-;-;-;-;-;-;-;-;-;-;-
