TimeStamp[ms];Prox[Cm];Lux[lux];AccX[m/s^2];AccY[m/s^2];AccZ[m/s^2];GyroX[rad/s];GyroY[rad/s];GyroZ[rad/s];MagnX[uT];MagnY[uT];MagnZ[uT];OrienYaw[degrees];OrienPitch[degrees];OrienRoll[degrees];Press[Pa];Temp[C°];Batt[%];Lat;Lng;Speed[m/s]
1514004113743;-;-;7.6906586;-1.2866974;3.6386719;-;-;-;-;-;-;-;-;-;-;-;-;-;-;-
1514004113744;-;-;7.6906586;-1.2866974;3.6386719;-;-;-;-;-;-;-;-;-;-;-;-;-;-;-
1514004113757;-;-;8.490326;-1.5332947;3.6817627;-;-;-;-;-;-;-;-;-;-;-;-;-;-;-
1514004113778;-;-;9.274429;-1.1765594;2.2739716;-;-;-;-;-;-;-;-;-;-;-;-;-;-;-
1514004113798;-;-;8.562149;-1.2424011;3.2340546;-;-;-;-;-;-;-;-;-;-;-;-;-;-;-
1514004113819;-;-;8.404144;-1.146637;2.6833801;-;-;-;-;-;-;-;-;-;-;-;-;-;-;-
1514004113840;-;-;7.6786957;-1.190918;1.8861237;-;-;-;-;-;-;-;-;-;-;-;-;-;-;-
1514004113860;-;-;8.290421;-1.9283447;1.0792694;-;-;-;-;-;-;-;-;-;-;-;-;-;-;-
1514004113881;-;-;8.867416;-1.5668182;1.8681641;-;-;-;-;-;-;-;-;-;-;-;-;-;-;-
1514004113901;-;-;10.637924;-1.2974701;2.1710205;-;-;-;-;-;-;-;-;-;-;-;-;-;-;-
1514004113921;-;-;10.342239;-0.8270111;1.1989746;-;-;-;-;-;-;-;-;-;-;-;-;-;-;-
1514004113941;-;-;9.055359;-0.50019836;0.28918457;-;-;-;-;-;-;-;-;-;-;-;-;-;-;-
1514004113963;-;-;8.643555;-0.30267334;0.27841187;-;-;-;-;-;-;-;-;-;-;-;-;-;-;-
1514004113984;-;-;9.062546;0.4191742;0.42086792;-;-;-;-;-;-;-;-;-;-;-;-;-;-;-
1514004114004;-;-;8.100067;-0.13748169;-0.53681946;-;-;-;-;-;-;-;-;-;-;-;-;-;-;-
1514004114025;-;-;8.411316;-0.35055542;-1.0802917;-;-;-;-;-;-;-;-;-;-;-;-;-;-;-
1514004114045;-;-;9.919662;-0.71687317;-1.3256989;-;-;-;-;-;-;-;-;-;-;-;-;-;-;-
1514004114066;-;-;10.624756;-0.9287567;-0.6373749;-;-;-;-;-;-;-;-;-;-;-;-;-;-;-
1514004114085;-;-;10.940796;-0.68574524;-3.906662;-;-;-;-;-;-;-;-;-;-;-;-;-;-;-
1514004114106;-;-;9.675461;-0.88087463;0.63275146;-;-;-;-;-;-;-;-;-;-;-;-;-;-;-
1514004114126;-;-;9.357025;0.064834595;-0.8348999;-;-;-;-;-;-;-;-;-;-;-;-;-;-;-
1514004114147;-;-;9.341461;0.048080444;-0.9917145;-;-;-;-;-;-;-;-;-;-;-;-;-;-;-
1514004114167;-;-;9.373795;0.46228027;-1.2251434;-;-;-;-;-;-;-;-;-;-;-;-;-;-;-
1514004114187;-;-;8.368225;0.69810486;-1.2466888;-;-;-;-;-;-;-;-;-;-;-;-;-;-;-
1514004114208;-;-;8.620819;0.54966736;-0.88038635;-;-;-;-;-;-;-;-;-;-;-;-;-;-;-
1514004114229;-;-;8.84108;0.54966736;-1.1676941;-;-;-;-;-;-;-;-;-;-;-;-;-;-;-
1514004114250;-;-;9.522232;0.5771942;-1.1569061;-;-;-;-;-;-;-;-;-;-;-;-;-;-;-
1514004114269;-;-;9.273239;0.25875854;-0.38119507;-;-;-;-;-;-;-;-;-;-;-;-;-;-;-
1514004114290;-;-;9.523422;-0.15542603;-0.535614;-;-;-;-;-;-;-;-;-;-;-;-;-;-;-
1514004114310;-;-;9.220566;0.2743225;-0.8396759;-;-;-;-;-;-;-;-;-;-;-;-;-;-;-
1514004114331;-;-;9.351044;0.11631775;-0.33091736;-;-;-;-;-;-;-;-;-;-;-;-;-;-;-
1514004114351;-;-;9.372589;0.51374817;-2.211563;-;-;-;-;-;-;-;-;-;-;-;-;-;-;-
1514004114372;-;-;10.295563;0.75556946;-2.0798798;-;-;-;-;-;-;-;-;-;-;-;-;-;-;-
1514004114391;-;-;8.969162;0.28271484;-1.377182;-;-;-;-;-;-;-;-;-;-;-;-;-;-;-
1514004114412;-;-;7.6942596;1.2284241;-0.91270447;-;-;-;-;-;-;-;-;-;-;-;-;-;-;-
1514004114433;-;-;8.085709;0.6430359;-1.1988068;-;-;-;-;-;-;-;-;-;-;-;-;-;-;-
1514004114453;-;-;9.625183;0.41079712;-2.8244781;-;-;-;-;-;-;-;-;-;-;-;-;-;-;-
1514004114474;-;-;8.8997345;-0.3469696;0.20777893;-;-;-;-;-;-;-;-;-;-;-;-;-;-;-
1514004114494;-;-;8.103668;0.5484619;-1.3065491;-;-;-;-;-;-;-;-;-;-;-;-;-;-;-
1514004114515;-;-;9.47554;0.44551086;-1.7758179;-;-;-;-;-;-;-;-;-;-;-;-;-;-;-
1514004114535;-;-;8.465195;1.224823;-0.9402313;-;-;-;-;-;-;-;-;-;-;-;-;-;-;-
1514004114556;-;-;9.546173;0.92674255;-1.0563507;-;-;-;-;-;-;-;-;-;-;-;-;-;-;-
1514004114575;-;-;9.049377;0.8202057;-0.7127838;-;-;-;-;-;-;-;-;-;-;-;-;-;-;-
1514004114596;-;-;9.720947;0.3030548;-1.8560181;-;-;-;-;-;-;-;-;-;-;-;-;-;-;-
1514004114615;-;-;9.729324;-0.8126373;-0.48414612;-;-;-;-;-;-;-;-;-;-;-;-;-;-;-
1514004114636;-;-;8.434067;0.30065918;-0.496109;-;-;-;-;-;-;-;-;-;-;-;-;-;-;-
1514004114656;-;-;9.546173;-0.47027588;-2.2953491;-;-;-;-;-;-;-;-;-;-;-;-;-;-;-
1514004114677;-;-;9.2708435;1.837738;-0.85284424;-;-;-;-;-;-;-;-;-;-;-;-;-;-;-
1514004114697;-;-;10.057327;1.3134155;-2.3803558;-;-;-;-;-;-;-;-;-;-;-;-;-;-;-
1514004114718;-;-;9.906494;-0.7480011;-4.6560364;-;-;-;-;-;-;-;-;-;-;-;-;-;-;-
1514004114737;-;-;8.1371765;-0.92396545;-5.3766937;-;-;-;-;-;-;-;-;-;-;-;-;-;-;-
1514004114758;-;-;6.667145;-0.82580566;-3.6373138;-;-;-;-;-;-;-;-;-;-;-;-;-;-;-
1514004114778;-;-;6.6551666;-1.5512543;-2.3647919;-;-;-;-;-;-;-;-;-;-;-;-;-;-;-
1514004114799;-;-;8.796783;-2.3545074;-3.104599;-;-;-;-;-;-;-;-;-;-;-;-;-;-;-
1514004114820;-;-;10.010651;-0.9646759;-3.5846405;-;-;-;-;-;-;-;-;-;-;-;-;-;-;-
1514004114840;-;-;10.7456665;-0.9395294;-4.43338;-;-;-;-;-;-;-;-;-;-;-;-;-;-;-
1514004114860;-;-;10.094437;-1.1729736;-1.9278412;-;-;-;-;-;-;-;-;-;-;-;-;-;-;-
1514004114881;-;-;7.5865173;-0.54689026;-0.8312988;-;-;-;-;-;-;-;-;-;-;-;-;-;-;-
1514004114901;-;-;7.4177246;-1.4997711;-3.729477;-;-;-;-;-;-;-;-;-;-;-;-;-;-;-
1514004114922;-;-;11.439987;-4.314163;-0.0627594;-;-;-;-;-;-;-;-;-;-;-;-;-;-;-
1514004114942;-;-;10.643906;-6.186432;-3.2338867;-;-;-;-;-;-;-;-;-;-;-;-;-;-;-
1514004114963;-;-;8.891357;-4.371628;-2.3204956;-;-;-;-;-;-;-;-;-;-;-;-;-;-;-
1514004114984;-;-;7.858261;-2.332962;-1.6034393;-;-;-;-;-;-;-;-;-;-;-;-;-;-;-
1514004115004;-;-;8.26767;-0.99938965;-1.2562714;-;-;-;-;-;-;-;-;-;-;-;-;-;-;-
1514004115024;-;-;8.291611;-0.38287354;-0.961792;-;-;-;-;-;-;-;-;-;-;-;-;-;-;-
1514004115045;-;-;8.401749;-0.7707367;-0.9689636;-;-;-;-;-;-;-;-;-;-;-;-;-;-;-
1514004115065;-;-;8.253296;-1.7571564;-0.9976959;-;-;-;-;-;-;-;-;-;-;-;-;-;-;-
1514004115086;-;-;8.03064;-2.4071808;-1.0599518;-;-;-;-;-;-;-;-;-;-;-;-;-;-;-
1514004115106;-;-;8.078522;-2.7830658;-0.9258728;-;-;-;-;-;-;-;-;-;-;-;-;-;-;-
1514004115127;-;-;8.691437;-3.1625519;-0.81214905;-;-;-;-;-;-;-;-;-;-;-;-;-;-;-
1514004115147;-;-;9.123596;-3.0236816;-0.89234924;-;-;-;-;-;-;-;-;-;-;-;-;-;-;-
1514004115167;-;-;9.747284;-2.5807648;-0.8600311;-;-;-;-;-;-;-;-;-;-;-;-;-;-;-
1514004115188;-;-;10.333862;-1.9175568;-1.4705505;-;-;-;-;-;-;-;-;-;-;-;-;-;-;-
1514004115209;-;-;11.218521;-1.906784;-1.9206696;-;-;-;-;-;-;-;-;-;-;-;-;-;-;-
1514004115228;-;-;12.936356;-2.4658356;-2.0475616;-;-;-;-;-;-;-;-;-;-;-;-;-;-;-
1514004115249;-;-;13.940735;-2.590332;-3.4924622;-;-;-;-;-;-;-;-;-;-;-;-;-;-;-
1514004115269;-;-;12.89566;-3.5540009;-6.1823425;-;-;-;-;-;-;-;-;-;-;-;-;-;-;-
1514004115289;-;-;14.444702;-3.7108154;-3.0758667;-;-;-;-;-;-;-;-;-;-;-;-;-;-;-
1514004115310;-;-;13.239227;-3.4594269;-1.2658539;-;-;-;-;-;-;-;-;-;-;-;-;-;-;-
1514004115330;-;-;8.8207245;-3.6198425;-4.4070435;-;-;-;-;-;-;-;-;-;-;-;-;-;-;-
1514004115351;-;-;5.3383636;-2.8201752;-7.4345093;-;-;-;-;-;-;-;-;-;-;-;-;-;-;-
1514004115371;-;-;4.1448517;-2.088745;-8.121643;-;-;-;-;-;-;-;-;-;-;-;-;-;-;-
1514004115391;-;-;4.9313507;-0.5444946;-5.070236;-;-;-;-;-;-;-;-;-;-;-;-;-;-;-
1514004115412;-;-;6.8000183;-0.27633667;-2.4545746;-;-;-;-;-;-;-;-;-;-;-;-;-;-;-
1514004115432;-;-;9.518631;-0.4487152;-2.9657288;-;-;-;-;-;-;-;-;-;-;-;-;-;-;-
1514004115453;-;-;11.473511;-1.0736084;-4.263397;-;-;-;-;-;-;-;-;-;-;-;-;-;-;-
1514004115472;-;-;11.218521;-2.1126862;-5.4940033;-;-;-;-;-;-;-;-;-;-;-;-;-;-;-
1514004115493;-;-;9.691025;-2.4538574;-4.183182;-;-;-;-;-;-;-;-;-;-;-;-;-;-;-
1514004115514;-;-;7.827133;-1.3573151;-2.3037415;-;-;-;-;-;-;-;-;-;-;-;-;-;-;-
1514004115534;-;-;5.7956543;-0.16021729;-2.7993317;-;-;-;-;-;-;-;-;-;-;-;-;-;-;-
1514004115555;-;-;5.2904816;0.7076721;-3.4780884;-;-;-;-;-;-;-;-;-;-;-;-;-;-;-
1514004115575;-;-;4.6811523;0.92196655;-3.0136108;-;-;-;-;-;-;-;-;-;-;-;-;-;-;-
1514004115595;-;-;6.1296387;0.3605194;-2.231903;-;-;-;-;-;-;-;-;-;-;-;-;-;-;-
1514004115616;-;-;6.850296;-0.095581055;-1.7698364;-;-;-;-;-;-;-;-;-;-;-;-;-;-;-
1514004115637;-;-;6.3223724;-0.5540619;-2.1576843;-;-;-;-;-;-;-;-;-;-;-;-;-;-;-
1514004115656;-;-;6.6455994;-0.18415833;-2.6329346;-;-;-;-;-;-;-;-;-;-;-;-;-;-;-
1514004115677;-;-;7.605667;0.88246155;-2.3947144;-;-;-;-;-;-;-;-;-;-;-;-;-;-;-
1514004115698;-;-;8.229355;1.3505249;-2.4461975;-;-;-;-;-;-;-;-;-;-;-;-;-;-;-
1514004115718;-;-;8.717773;1.5420532;-2.6903992;-;-;-;-;-;-;-;-;-;-;-;-;-;-;-
1514004115738;-;-;9.240906;1.9406891;-2.6125946;-;-;-;-;-;-;-;-;-;-;-;-;-;-;-
1514004115759;-;-;10.241684;2.4961395;-3.0794525;-;-;-;-;-;-;-;-;-;-;-;-;-;-;-
1514004115780;-;-;11.267609;2.9929504;-3.2889557;-;-;-;-;-;-;-;-;-;-;-;-;-;-;-
1514004115799;-;-;11.680603;2.8672485;-3.2171173;-;-;-;-;-;-;-;-;-;-;-;-;-;-;-
1514004115820;-;-;11.544128;1.758728;-2.1947937;-;-;-;-;-;-;-;-;-;-;-;-;-;-;-
1514004115840;-;-;10.044159;0.37010193;-3.903061;-;-;-;-;-;-;-;-;-;-;-;-;-;-;-
1514004115861;-;-;9.8993225;0.13186646;-5.7118835;-;-;-;-;-;-;-;-;-;-;-;-;-;-;-
1514004115881;-;-;11.252045;2.2303925;-6.777298;-;-;-;-;-;-;-;-;-;-;-;-;-;-;-
1514004115902;-;-;9.369003;2.624237;-7.9720154;-;-;-;-;-;-;-;-;-;-;-;-;-;-;-
1514004115921;-;-;9.9591675;0.64064026;-7.1615753;-;-;-;-;-;-;-;-;-;-;-;-;-;-;-
1514004115942;-;-;7.7169952;-0.636673;-5.464081;-;-;-;-;-;-;-;-;-;-;-;-;-;-;-
1514004115963;-;-;6.2194214;-2.1246643;-4.993622;-;-;-;-;-;-;-;-;-;-;-;-;-;-;-
1514004115982;-;-;6.5043335;-2.7040558;-5.1935425;-;-;-;-;-;-;-;-;-;-;-;-;-;-;-
1514004116002;-;-;7.758896;-0.8497467;-4.457321;-;-;-;-;-;-;-;-;-;-;-;-;-;-;-
1514004116023;-;-;7.490753;0.95188904;-2.9417877;-;-;-;-;-;-;-;-;-;-;-;-;-;-;-
1514004116043;-;-;6.8634644;1.8126068;-3.3715515;-;-;-;-;-;-;-;-;-;-;-;-;-;-;-
1514004116064;-;-;6.53067;1.0428619;-4.125717;-;-;-;-;-;-;-;-;-;-;-;-;-;-;-
1514004116085;-;-;6.814392;-0.85214233;-3.661255;-;-;-;-;-;-;-;-;-;-;-;-;-;-;-
1514004116106;-;-;7.0585938;-2.772293;-2.8819427;-;-;-;-;-;-;-;-;-;-;-;-;-;-;-
1514004116126;-;-;6.5905304;-4.3620453;-2.625763;-;-;-;-;-;-;-;-;-;-;-;-;-;-;-
1514004116146;-;-;6.3295593;-4.2291718;-2.6999817;-;-;-;-;-;-;-;-;-;-;-;-;-;-;-
1514004116166;-;-;6.6934814;-3.1505737;-3.1668396;-;-;-;-;-;-;-;-;-;-;-;-;-;-;-
1514004116187;-;-;6.3774414;-1.937912;-3.6037903;-;-;-;-;-;-;-;-;-;-;-;-;-;-;-
1514004116208;-;-;6.300827;-0.62350464;-3.3727417;-;-;-;-;-;-;-;-;-;-;-;-;-;-;-
1514004116228;-;-;6.727005;0.30426025;-2.7155457;-;-;-;-;-;-;-;-;-;-;-;-;-;-;-
1514004116248;-;-;7.177109;-0.10874939;-2.4342194;-;-;-;-;-;-;-;-;-;-;-;-;-;-;-
1514004116269;-;-;8.304779;-2.332962;-2.8544006;-;-;-;-;-;-;-;-;-;-;-;-;-;-;-
1514004116289;-;-;9.481522;-3.1745148;-3.3883057;-;-;-;-;-;-;-;-;-;-;-;-;-;-;-
1514004116309;-;-;11.314285;-3.3792267;-4.5614624;-;-;-;-;-;-;-;-;-;-;-;-;-;-;-
1514004116330;-;-;13.633072;-2.9602356;-5.211487;-;-;-;-;-;-;-;-;-;-;-;-;-;-;-
1514004116351;-;-;14.406403;-1.906784;-5.3599396;-;-;-;-;-;-;-;-;-;-;-;-;-;-;-
1514004116371;-;-;12.77475;-1.3824615;-7.5614014;-;-;-;-;-;-;-;-;-;-;-;-;-;-;-
1514004116391;-;-;10.10881;-3.218811;-9.069748;-;-;-;-;-;-;-;-;-;-;-;-;-;-;-
1514004116412;-;-;12.464706;-5.2251587;-2.9417877;-;-;-;-;-;-;-;-;-;-;-;-;-;-;-
1514004116432;-;-;14.692505;-1.9594574;-2.3432465;-;-;-;-;-;-;-;-;-;-;-;-;-;-;-
1514004116452;-;-;7.2238007;-1.1669769;-9.273254;-;-;-;-;-;-;-;-;-;-;-;-;-;-;-
1514004116473;-;-;4.679962;-1.0724182;-9.606049;-;-;-;-;-;-;-;-;-;-;-;-;-;-;-
1514004116494;-;-;7.719391;-0.5600586;-5.224655;-;-;-;-;-;-;-;-;-;-;-;-;-;-;-
1514004116514;-;-;8.157532;-1.3321838;-2.860382;-;-;-;-;-;-;-;-;-;-;-;-;-;-;-
1514004116535;-;-;7.7026367;-0.8461609;-1.495697;-;-;-;-;-;-;-;-;-;-;-;-;-;-;-
1514004116555;-;-;5.892624;-0.08001709;-2.8244781;-;-;-;-;-;-;-;-;-;-;-;-;-;-;-
1514004116575;-;-;4.9816284;0.103149414;-3.9964294;-;-;-;-;-;-;-;-;-;-;-;-;-;-;-
1514004116596;-;-;4.9074097;-0.20451355;-3.7821503;-;-;-;-;-;-;-;-;-;-;-;-;-;-;-
1514004116617;-;-;4.5662384;0.20489502;-3.4541473;-;-;-;-;-;-;-;-;-;-;-;-;-;-;-
1514004116637;-;-;4.1532288;1.2020874;-3.4385834;-;-;-;-;-;-;-;-;-;-;-;-;-;-;-
1514004116657;-;-;4.3651123;1.8940125;-3.7953186;-;-;-;-;-;-;-;-;-;-;-;-;-;-;-
1514004116678;-;-;5.9225464;1.1996918;-3.7941284;-;-;-;-;-;-;-;-;-;-;-;-;-;-;-
1514004116698;-;-;6.825165;0.19293213;-4.172409;-;-;-;-;-;-;-;-;-;-;-;-;-;-;-
1514004116719;-;-;6.4301147;-1.1609955;-4.602173;-;-;-;-;-;-;-;-;-;-;-;-;-;-;-
1514004116740;-;-;7.2034454;-1.5368805;-4.0311584;-;-;-;-;-;-;-;-;-;-;-;-;-;-;-
1514004116760;-;-;8.351471;0.13665771;-2.3540192;-;-;-;-;-;-;-;-;-;-;-;-;-;-;-
1514004116781;-;-;9.213379;1.2439728;-1.8224945;-;-;-;-;-;-;-;-;-;-;-;-;-;-;-
1514004116801;-;-;9.7413025;1.8892212;-2.2989502;-;-;-;-;-;-;-;-;-;-;-;-;-;-;-
1514004116821;-;-;12.094803;1.9335022;-3.7594147;-;-;-;-;-;-;-;-;-;-;-;-;-;-;-
1514004116842;-;-;13.075226;2.6385956;-4.8739166;-;-;-;-;-;-;-;-;-;-;-;-;-;-;-
1514004116862;-;-;11.965515;3.0264587;-3.8336334;-;-;-;-;-;-;-;-;-;-;-;-;-;-;-
1514004116883;-;-;9.431244;3.2191925;-8.687881;-;-;-;-;-;-;-;-;-;-;-;-;-;-;-
1514004116903;-;-;8.395752;3.5005188;-7.7110443;-;-;-;-;-;-;-;-;-;-;-;-;-;-;-
1514004116924;-;-;9.596451;2.5631866;-4.492035;-;-;-;-;-;-;-;-;-;-;-;-;-;-;-
1514004116944;-;-;9.467163;0.13786316;-6.342758;-;-;-;-;-;-;-;-;-;-;-;-;-;-;-
1514004116965;-;-;8.727356;-0.2859192;-7.6847076;-;-;-;-;-;-;-;-;-;-;-;-;-;-;-
1514004116985;-;-;6.299637;-0.35055542;-6.689911;-;-;-;-;-;-;-;-;-;-;-;-;-;-;-
1514004117006;-;-;6.6060944;-1.6374359;-3.381134;-;-;-;-;-;-;-;-;-;-;-;-;-;-;-
1514004117027;-;-;8.338303;-1.9319305;-0.9953003;-;-;-;-;-;-;-;-;-;-;-;-;-;-;-
1514004117047;-;-;7.890579;-0.25360107;-1.9553833;-;-;-;-;-;-;-;-;-;-;-;-;-;-;-
1514004117066;-;-;6.600113;0.6669769;-3.8575745;-;-;-;-;-;-;-;-;-;-;-;-;-;-;-
1514004117086;-;-;6.3822327;0.25875854;-4.3483887;-;-;-;-;-;-;-;-;-;-;-;-;-;-;-
1514004117107;-;-;5.9752197;-0.5600586;-3.9724884;-;-;-;-;-;-;-;-;-;-;-;-;-;-;-
1514004117128;-;-;4.928955;-1.9702301;-3.267395;-;-;-;-;-;-;-;-;-;-;-;-;-;-;-
1514004117148;-;-;4.525528;-3.2307892;-3.0782623;-;-;-;-;-;-;-;-;-;-;-;-;-;-;-
1514004117169;-;-;4.3938446;-3.4306946;-2.211563;-;-;-;-;-;-;-;-;-;-;-;-;-;-;-
1514004117189;-;-;5.0702057;-2.8560944;-2.7670135;-;-;-;-;-;-;-;-;-;-;-;-;-;-;-
1514004117210;-;-;5.9979706;-2.4993591;-3.8539886;-;-;-;-;-;-;-;-;-;-;-;-;-;-;-
1514004117230;-;-;7.2022552;-2.1797333;-4.851166;-;-;-;-;-;-;-;-;-;-;-;-;-;-;-
1514004117251;-;-;8.485535;-2.135437;-5.6568146;-;-;-;-;-;-;-;-;-;-;-;-;-;-;-
1514004117272;-;-;10.509842;-1.5632172;-4.828415;-;-;-;-;-;-;-;-;-;-;-;-;-;-;-
1514004117292;-;-;12.53772;-1.3501434;-4.0993805;-;-;-;-;-;-;-;-;-;-;-;-;-;-;-
1514004117313;-;-;13.247604;-3.902359;-4.697937;-;-;-;-;-;-;-;-;-;-;-;-;-;-;-
1514004117333;-;-;15.942276;-3.320572;-4.6452637;-;-;-;-;-;-;-;-;-;-;-;-;-;-;-
1514004117354;-;-;16.03685;-1.0400848;-4.1460724;-;-;-;-;-;-;-;-;-;-;-;-;-;-;-
1514004117373;-;-;10.915649;-0.71806335;-7.242981;-;-;-;-;-;-;-;-;-;-;-;-;-;-;-
1514004117394;-;-;7.632004;-3.0703735;-10.26326;-;-;-;-;-;-;-;-;-;-;-;-;-;-;-
1514004117415;-;-;9.378571;-3.53125;-4.9002533;-;-;-;-;-;-;-;-;-;-;-;-;-;-;-
1514004117435;-;-;10.262039;-2.1294556;-1.8823547;-;-;-;-;-;-;-;-;-;-;-;-;-;-;-
1514004117455;-;-;7.3423157;-2.79982;-9.91011;-;-;-;-;-;-;-;-;-;-;-;-;-;-;-
1514004117476;-;-;9.212173;-3.3588715;-8.2617035;-;-;-;-;-;-;-;-;-;-;-;-;-;-;-
1514004117496;-;-;9.878967;-2.2312012;-3.1081848;-;-;-;-;-;-;-;-;-;-;-;-;-;-;-
1514004117517;-;-;7.198654;-1.1023407;0.5968323;-;-;-;-;-;-;-;-;-;-;-;-;-;-;-
1514004117537;-;-;4.070633;-0.5169525;0.12159729;-;-;-;-;-;-;-;-;-;-;-;-;-;-;-
1514004117558;-;-;1.7159424;-0.26437378;-2.1062164;-;-;-;-;-;-;-;-;-;-;-;-;-;-;-
1514004117578;-;-;2.6424866;0.19891357;-2.9848938;-;-;-;-;-;-;-;-;-;-;-;-;-;-;-
1514004117598;-;-;4.7338257;1.1278534;-3.0028381;-;-;-;-;-;-;-;-;-;-;-;-;-;-;-
1514004117619;-;-;4.8559265;2.5224762;-3.3559875;-;-;-;-;-;-;-;-;-;-;-;-;-;-;-
1514004117640;-;-;4.4453278;3.2000427;-4.5842133;-;-;-;-;-;-;-;-;-;-;-;-;-;-;-
1514004117659;-;-;4.9708557;2.61586;-4.262192;-;-;-;-;-;-;-;-;-;-;-;-;-;-;-
1514004117680;-;-;7.312378;1.0967407;-3.0591125;-;-;-;-;-;-;-;-;-;-;-;-;-;-;-
1514004117700;-;-;8.423294;-0.74560547;-3.6217499;-;-;-;-;-;-;-;-;-;-;-;-;-;-;-
1514004117721;-;-;10.545746;-1.4016113;-3.7043457;-;-;-;-;-;-;-;-;-;-;-;-;-;-;-
1514004117740;-;-;9.875381;1.1470184;-0.8492584;-;-;-;-;-;-;-;-;-;-;-;-;-;-;-
1514004117761;-;-;9.667084;2.6685333;0.75845337;-;-;-;-;-;-;-;-;-;-;-;-;-;-;-
1514004117781;-;-;10.283585;2.8157654;0.079696655;-;-;-;-;-;-;-;-;-;-;-;-;-;-;-
1514004117802;-;-;11.000656;3.0803375;-1.188034;-;-;-;-;-;-;-;-;-;-;-;-;-;-;-
1514004117823;-;-;10.969528;3.0911102;-1.480133;-;-;-;-;-;-;-;-;-;-;-;-;-;-;-
1514004117843;-;-;9.422867;1.8090057;-2.7993317;-;-;-;-;-;-;-;-;-;-;-;-;-;-;-
1514004117864;-;-;8.838684;2.4458618;-10.793579;-;-;-;-;-;-;-;-;-;-;-;-;-;-;-
1514004117883;-;-;13.449921;3.6417694;-6.610901;-;-;-;-;-;-;-;-;-;-;-;-;-;-;-
1514004117904;-;-;10.880936;2.430313;-7.101715;-;-;-;-;-;-;-;-;-;-;-;-;-;-;-
1514004117924;-;-;10.342239;-0.8126373;-7.8307495;-;-;-;-;-;-;-;-;-;-;-;-;-;-;-
1514004117945;-;-;6.8395233;-0.8688965;-7.167557;-;-;-;-;-;-;-;-;-;-;-;-;-;-;-
1514004117966;-;-;5.901001;-1.9798126;-4.7111053;-;-;-;-;-;-;-;-;-;-;-;-;-;-;-
1514004117986;-;-;8.331116;-2.921936;-1.3807678;-;-;-;-;-;-;-;-;-;-;-;-;-;-;-
1514004118006;-;-;9.045776;-2.6621552;-1.7099762;-;-;-;-;-;-;-;-;-;-;-;-;-;-;-
1514004118027;-;-;7.1160583;-0.6402588;-3.1105804;-;-;-;-;-;-;-;-;-;-;-;-;-;-;-
1514004118048;-;-;6.027893;-0.00819397;-4.186783;-;-;-;-;-;-;-;-;-;-;-;-;-;-;-
1514004118068;-;-;5.4018097;-0.2859192;-4.266983;-;-;-;-;-;-;-;-;-;-;-;-;-;-;-
1514004118089;-;-;4.7362213;-1.1717682;-2.4138641;-;-;-;-;-;-;-;-;-;-;-;-;-;-;-
1514004118109;-;-;4.3974457;-2.7698975;-2.1349487;-;-;-;-;-;-;-;-;-;-;-;-;-;-;-
1514004118130;-;-;3.84198;-3.6844788;-3.1452942;-;-;-;-;-;-;-;-;-;-;-;-;-;-;-
1514004118150;-;-;4.647629;-3.447464;-3.678009;-;-;-;-;-;-;-;-;-;-;-;-;-;-;-
1514004118171;-;-;5.170761;-2.0145264;-4.061081;-;-;-;-;-;-;-;-;-;-;-;-;-;-;-
1514004118192;-;-;6.647995;-0.9622803;-3.9856567;-;-;-;-;-;-;-;-;-;-;-;-;-;-;-
1514004118212;-;-;7.511093;-0.112335205;-3.6564636;-;-;-;-;-;-;-;-;-;-;-;-;-;-;-
1514004118232;-;-;7.2357635;-0.88446045;-3.28656;-;-;-;-;-;-;-;-;-;-;-;-;-;-;-
1514004118252;-;-;9.910095;-2.3197937;-2.606598;-;-;-;-;-;-;-;-;-;-;-;-;-;-;-
1514004118273;-;-;12.700531;-2.775879;-2.7047577;-;-;-;-;-;-;-;-;-;-;-;-;-;-;-
1514004118294;-;-;14.132263;-3.8197632;-3.0399475;-;-;-;-;-;-;-;-;-;-;-;-;-;-;-
1514004118313;-;-;14.649414;-3.6461792;-4.5650635;-;-;-;-;-;-;-;-;-;-;-;-;-;-;-
1514004118334;-;-;13.998184;-2.7615204;-5.5347137;-;-;-;-;-;-;-;-;-;-;-;-;-;-;-
1514004118355;-;-;12.131912;-3.2702942;-8.472397;-;-;-;-;-;-;-;-;-;-;-;-;-;-;-
1514004118375;-;-;11.892487;-4.2997894;-5.2294464;-;-;-;-;-;-;-;-;-;-;-;-;-;-;-
1514004118396;-;-;12.5125885;-3.7850342;-2.0643158;-;-;-;-;-;-;-;-;-;-;-;-;-;-;-
1514004118416;-;-;9.196625;-2.7339935;-6.681534;-;-;-;-;-;-;-;-;-;-;-;-;-;-;-
1514004118437;-;-;4.5602417;-2.5711823;-9.578522;-;-;-;-;-;-;-;-;-;-;-;-;-;-;-
1514004118458;-;-;5.5143433;-1.6972961;-8.402969;-;-;-;-;-;-;-;-;-;-;-;-;-;-;-
1514004118478;-;-;8.933258;-0.7551727;-4.4896393;-;-;-;-;-;-;-;-;-;-;-;-;-;-;-
1514004118498;-;-;8.888962;0.40361023;-2.4857025;-;-;-;-;-;-;-;-;-;-;-;-;-;-;-
1514004118519;-;-;7.1567535;0.71965027;-2.7191315;-;-;-;-;-;-;-;-;-;-;-;-;-;-;-
1514004118540;-;-;6.1033173;0.02053833;-2.4473877;-;-;-;-;-;-;-;-;-;-;-;-;-;-;-
1514004118560;-;-;6.0638123;-1.170578;-2.1852264;-;-;-;-;-;-;-;-;-;-;-;-;-;-;-
1514004118581;-;-;5.8758545;-1.7607422;-2.5587158;-;-;-;-;-;-;-;-;-;-;-;-;-;-;-
1514004118601;-;-;4.3603363;-0.53730774;-2.9537659;-;-;-;-;-;-;-;-;-;-;-;-;-;-;-
1514004118622;-;-;3.5666504;0.9578705;-3.326065;-;-;-;-;-;-;-;-;-;-;-;-;-;-;-
1514004118642;-;-;3.8802948;2.0639954;-3.6971588;-;-;-;-;-;-;-;-;-;-;-;-;-;-;-
1514004118663;-;-;5.376663;2.0173035;-3.9629211;-;-;-;-;-;-;-;-;-;-;-;-;-;-;-
1514004118682;-;-;7.399765;1.1781464;-3.8707428;-;-;-;-;-;-;-;-;-;-;-;-;-;-;-
1514004118703;-;-;7.590103;0.27911377;-3.7498322;-;-;-;-;-;-;-;-;-;-;-;-;-;-;-
1514004118724;-;-;6.3738556;-0.09197998;-3.8372192;-;-;-;-;-;-;-;-;-;-;-;-;-;-;-
1514004118744;-;-;7.0849304;0.32939148;-3.3488007;-;-;-;-;-;-;-;-;-;-;-;-;-;-;-
1514004118764;-;-;8.617218;1.4833984;-3.195572;-;-;-;-;-;-;-;-;-;-;-;-;-;-;-
1514004118785;-;-;9.336685;1.7695007;-2.1564941;-;-;-;-;-;-;-;-;-;-;-;-;-;-;-
1514004118805;-;-;8.748901;1.7359924;-1.401123;-;-;-;-;-;-;-;-;-;-;-;-;-;-;-
1514004118825;-;-;9.47554;1.6378326;-1.1616974;-;-;-;-;-;-;-;-;-;-;-;-;-;-;-
1514004118846;-;-;11.541733;1.8281708;-1.6644897;-;-;-;-;-;-;-;-;-;-;-;-;-;-;-
1514004118866;-;-;11.98587;1.8844299;-3.247055;-;-;-;-;-;-;-;-;-;-;-;-;-;-;-
1514004118887;-;-;11.649475;2.2076416;-7.0753784;-;-;-;-;-;-;-;-;-;-;-;-;-;-;-
1514004118907;-;-;14.15741;3.1545563;-7.8475037;-;-;-;-;-;-;-;-;-;-;-;-;-;-;-
1514004118928;-;-;15.054031;3.1485596;-5.1240997;-;-;-;-;-;-;-;-;-;-;-;-;-;-;-
1514004118948;-;-;11.741653;0.9028015;-5.9213715;-;-;-;-;-;-;-;-;-;-;-;-;-;-;-
1514004118969;-;-;9.287598;1.161377;-5.7394104;-;-;-;-;-;-;-;-;-;-;-;-;-;-;-
1514004118990;-;-;4.9265594;1.5576172;-5.5143585;-;-;-;-;-;-;-;-;-;-;-;-;-;-;-
1514004119010;-;-;3.208725;-0.107543945;-4.8296204;-;-;-;-;-;-;-;-;-;-;-;-;-;-;-
1514004119031;-;-;4.7769165;-2.2886658;-3.487671;-;-;-;-;-;-;-;-;-;-;-;-;-;-;-
1514004119051;-;-;9.345062;-2.341339;-4.378311;-;-;-;-;-;-;-;-;-;-;-;-;-;-;-
1514004119072;-;-;8.722565;-0.6510315;-3.820465;-;-;-;-;-;-;-;-;-;-;-;-;-;-;-
1514004119092;-;-;7.8678436;0.40481567;-3.4385834;-;-;-;-;-;-;-;-;-;-;-;-;-;-;-
1514004119113;-;-;7.548218;0.31861877;-4.1927643;-;-;-;-;-;-;-;-;-;-;-;-;-;-;-
1514004119133;-;-;6.1475983;-1.1238861;-4.1616364;-;-;-;-;-;-;-;-;-;-;-;-;-;-;-
1514004119154;-;-;4.9576874;-2.827362;-3.5475311;-;-;-;-;-;-;-;-;-;-;-;-;-;-;-
1514004119175;-;-;3.8467712;-3.8820038;-2.8017273;-;-;-;-;-;-;-;-;-;-;-;-;-;-;-
1514004119195;-;-;3.2422333;-3.6054688;-1.98172;-;-;-;-;-;-;-;-;-;-;-;-;-;-;-
1514004119216;-;-;5.22464;-2.341339;-2.5646973;-;-;-;-;-;-;-;-;-;-;-;-;-;-;-
1514004119235;-;-;6.498352;-1.3345795;-4.0275574;-;-;-;-;-;-;-;-;-;-;-;-;-;-;-
1514004119255;-;-;6.8036194;-1.1035309;-4.258606;-;-;-;-;-;-;-;-;-;-;-;-;-;-;-
1514004119276;-;-;7.633209;-1.491394;-3.6720276;-;-;-;-;-;-;-;-;-;-;-;-;-;-;-
1514004119296;-;-;8.72496;-2.2515564;-2.8771515;-;-;-;-;-;-;-;-;-;-;-;-;-;-;-
1514004119317;-;-;9.384567;-2.966217;-2.4402008;-;-;-;-;-;-;-;-;-;-;-;-;-;-;-
1514004119338;-;-;9.855026;-3.2846527;-2.7538452;-;-;-;-;-;-;-;-;-;-;-;-;-;-;-
1514004119359;-;-;10.760025;-3.139801;-3.0315704;-;-;-;-;-;-;-;-;-;-;-;-;-;-;-
1514004119379;-;-;12.337814;-3.1098785;-4.073044;-;-;-;-;-;-;-;-;-;-;-;-;-;-;-
1514004119399;-;-;12.665817;-3.4510498;-4.8930664;-;-;-;-;-;-;-;-;-;-;-;-;-;-;-
1514004119419;-;-;12.986633;-2.3389435;-4.780533;-;-;-;-;-;-;-;-;-;-;-;-;-;-;-
1514004119440;-;-;11.520187;0.021743774;-6.0782013;-;-;-;-;-;-;-;-;-;-;-;-;-;-;-
1514004119461;-;-;7.4799805;-0.4271698;-9.619217;-;-;-;-;-;-;-;-;-;-;-;-;-;-;-
1514004119481;-;-;5.8830414;-1.8349609;-4.8978577;-;-;-;-;-;-;-;-;-;-;-;-;-;-;-
1514004119501;-;-;7.062195;-2.4849854;-3.836029;-;-;-;-;-;-;-;-;-;-;-;-;-;-;-
1514004119522;-;-;8.126404;-3.0332642;-7.4907684;-;-;-;-;-;-;-;-;-;-;-;-;-;-;-
1514004119542;-;-;8.40773;-2.2922516;-8.298813;-;-;-;-;-;-;-;-;-;-;-;-;-;-;-
1514004119563;-;-;8.709396;-1.7116699;-7.7242126;-;-;-;-;-;-;-;-;-;-;-;-;-;-;-
1514004119584;-;-;9.124786;-1.530899;-5.903412;-;-;-;-;-;-;-;-;-;-;-;-;-;-;-
1514004119604;-;-;10.078888;-1.0077667;-4.155655;-;-;-;-;-;-;-;-;-;-;-;-;-;-;-
1514004119625;-;-;8.791992;-0.06086731;-3.7306824;-;-;-;-;-;-;-;-;-;-;-;-;-;-;-
1514004119645;-;-;7.8798065;-0.13986206;-4.0395355;-;-;-;-;-;-;-;-;-;-;-;-;-;-;-
1514004119666;-;-;7.177109;-0.5792084;-4.2717743;-;-;-;-;-;-;-;-;-;-;-;-;-;-;-
1514004119686;-;-;6.2038727;-0.36611938;-4.5770264;-;-;-;-;-;-;-;-;-;-;-;-;-;-;-
1514004119707;-;-;5.3802643;0.6214905;-4.3567657;-;-;-;-;-;-;-;-;-;-;-;-;-;-;-
1514004119727;-;-;5.0450745;1.8796387;-4.685974;-;-;-;-;-;-;-;-;-;-;-;-;-;-;-
1514004119748;-;-;5.1647797;2.7451477;-4.4154205;-;-;-;-;-;-;-;-;-;-;-;-;-;-;-
1514004119768;-;-;5.1791534;1.9047852;-4.5291443;-;-;-;-;-;-;-;-;-;-;-;-;-;-;-
1514004119789;-;-;5.802841;1.0895538;-4.2143097;-;-;-;-;-;-;-;-;-;-;-;-;-;-;-
1514004119809;-;-;6.8443146;0.8668976;-3.5164032;-;-;-;-;-;-;-;-;-;-;-;-;-;-;-
1514004119830;-;-;6.7677;0.94470215;-3.041153;-;-;-;-;-;-;-;-;-;-;-;-;-;-;-
1514004119850;-;-;6.43132;0.9889984;-3.0794525;-;-;-;-;-;-;-;-;-;-;-;-;-;-;-
1514004119871;-;-;5.9776154;0.54248047;-2.242691;-;-;-;-;-;-;-;-;-;-;-;-;-;-;-
1514004119892;-;-;6.098526;0.13546753;-1.3089447;-;-;-;-;-;-;-;-;-;-;-;-;-;-;-
1514004119913;-;-;6.481598;-0.02494812;-0.377594;-;-;-;-;-;-;-;-;-;-;-;-;-;-;-
1514004119933;-;-;7.001129;0.17855835;-0.12980652;-;-;-;-;-;-;-;-;-;-;-;-;-;-;-
1514004119953;-;-;7.707428;0.42755127;-0.19085693;-;-;-;-;-;-;-;-;-;-;-;-;-;-;-
1514004119973;-;-;8.10965;0.1905365;-0.54519653;-;-;-;-;-;-;-;-;-;-;-;-;-;-;-
1514004119994;-;-;8.830307;-0.50019836;-0.5523834;-;-;-;-;-;-;-;-;-;-;-;-;-;-;-
1514004120014;-;-;9.426468;-1.2124786;-1.313736;-;-;-;-;-;-;-;-;-;-;-;-;-;-;-
1514004120035;-;-;10.142334;-1.3824615;0.6052246;-;-;-;-;-;-;-;-;-;-;-;-;-;-;-
1514004120055;-;-;11.105988;-2.032486;-0.032836914;-;-;-;-;-;-;-;-;-;-;-;-;-;-;-
1514004120076;-;-;14.502167;-1.858902;-5.1193237;-;-;-;-;-;-;-;-;-;-;-;-;-;-;-
1514004120096;-;-;15.337738;3.8704224;-10.283615;-;-;-;-;-;-;-;-;-;-;-;-;-;-;-
1514004120116;-;-;12.171417;9.06105;-10.661896;-;-;-;-;-;-;-;-;-;-;-;-;-;-;-
1514004120137;-;-;9.278015;7.3216553;-7.4907684;-;-;-;-;-;-;-;-;-;-;-;-;-;-;-
1514004120157;-;-;6.7413635;0.68852234;-6.7832947;-;-;-;-;-;-;-;-;-;-;-;-;-;-;-
1514004120178;-;-;6.039856;-3.6784973;-6.2685394;-;-;-;-;-;-;-;-;-;-;-;-;-;-;-
1514004120197;-;-;5.6663666;-5.234726;-6.2445984;-;-;-;-;-;-;-;-;-;-;-;-;-;-;-
1514004120218;-;-;6.4049835;-3.0081177;-3.6169586;-;-;-;-;-;-;-;-;-;-;-;-;-;-;-
1514004120239;-;-;8.048599;0.22045898;-2.309723;-;-;-;-;-;-;-;-;-;-;-;-;-;-;-
1514004120259;-;-;10.737289;1.1877136;-4.7877197;-;-;-;-;-;-;-;-;-;-;-;-;-;-;-
1514004120279;-;-;11.023392;0.57121277;-6.3008575;-;-;-;-;-;-;-;-;-;-;-;-;-;-;-
1514004120300;-;-;9.374985;-0.14225769;-5.3288116;-;-;-;-;-;-;-;-;-;-;-;-;-;-;-
1514004120320;-;-;6.37265;-0.9251709;-4.3759155;-;-;-;-;-;-;-;-;-;-;-;-;-;-;-
1514004120340;-;-;4.8128357;-1.1885223;-4.705124;-;-;-;-;-;-;-;-;-;-;-;-;-;-;-
1514004120361;-;-;4.5710144;-1.1933136;-4.369934;-;-;-;-;-;-;-;-;-;-;-;-;-;-;-
1514004120382;-;-;7.2992096;-1.4339294;-3.598999;-;-;-;-;-;-;-;-;-;-;-;-;-;-;-
1514004120401;-;-;9.640747;-2.9351044;-5.3994446;-;-;-;-;-;-;-;-;-;-;-;-;-;-;-
1514004120421;-;-;8.473572;-2.6418152;-5.270157;-;-;-;-;-;-;-;-;-;-;-;-;-;-;-
1514004120441;-;-;5.723831;-1.4842072;-3.2398682;-;-;-;-;-;-;-;-;-;-;-;-;-;-;-
1514004120462;-;-;4.8475494;-2.1282501;-2.1469116;-;-;-;-;-;-;-;-;-;-;-;-;-;-;-
1514004120483;-;-;5.3862457;-3.467804;-1.9039001;-;-;-;-;-;-;-;-;-;-;-;-;-;-;-
1514004120503;-;-;6.937683;-4.247116;-2.1385345;-;-;-;-;-;-;-;-;-;-;-;-;-;-;-
1514004120524;-;-;9.799957;-4.053192;-2.7083588;-;-;-;-;-;-;-;-;-;-;-;-;-;-;-
1514004120544;-;-;10.725311;-2.5675964;-2.4485931;-;-;-;-;-;-;-;-;-;-;-;-;-;-;-
1514004120564;-;-;10.313507;-2.0372772;-1.6273804;-;-;-;-;-;-;-;-;-;-;-;-;-;-;-
1514004120585;-;-;9.31633;-2.5244904;-1.5842743;-;-;-;-;-;-;-;-;-;-;-;-;-;-;-
1514004120605;-;-;8.629196;-3.601883;-1.3388672;-;-;-;-;-;-;-;-;-;-;-;-;-;-;-
1514004120626;-;-;8.180283;-3.7084198;-1.4382324;-;-;-;-;-;-;-;-;-;-;-;-;-;-;-
1514004120646;-;-;7.9624023;-2.7698975;-1.6429291;-;-;-;-;-;-;-;-;-;-;-;-;-;-;-
1514004120667;-;-;8.935654;-2.1581879;-1.6321564;-;-;-;-;-;-;-;-;-;-;-;-;-;-;-
1514004120687;-;-;9.608414;-1.8182068;-6.4756317;-;-;-;-;-;-;-;-;-;-;-;-;-;-;-
1514004120708;-;-;10.408081;2.2172241;-12.382126;-;-;-;-;-;-;-;-;-;-;-;-;-;-;-
1514004120728;-;-;12.062485;6.1078033;-9.902939;-;-;-;-;-;-;-;-;-;-;-;-;-;-;-
1514004120749;-;-;12.846573;6.6093903;-5.2845154;-;-;-;-;-;-;-;-;-;-;-;-;-;-;-
1514004120768;-;-;9.992691;2.6385956;-6.8431396;-;-;-;-;-;-;-;-;-;-;-;-;-;-;-
1514004120788;-;-;11.208939;-1.6829376;-5.8579254;-;-;-;-;-;-;-;-;-;-;-;-;-;-;-
1514004120809;-;-;11.186203;-2.9362946;-6.4193726;-;-;-;-;-;-;-;-;-;-;-;-;-;-;-
1514004120830;-;-;9.695816;-1.8206024;-5.1947327;-;-;-;-;-;-;-;-;-;-;-;-;-;-;-
1514004120850;-;-;7.4021606;-0.6546173;-3.473297;-;-;-;-;-;-;-;-;-;-;-;-;-;-;-
1514004120870;-;-;7.2201996;0.39283752;-1.9541779;-;-;-;-;-;-;-;-;-;-;-;-;-;-;-
1514004120891;-;-;8.298798;0.71006775;-1.1928253;-;-;-;-;-;-;-;-;-;-;-;-;-;-;-
1514004120911;-;-;7.6966553;1.2930603;-1.5411835;-;-;-;-;-;-;-;-;-;-;-;-;-;-;-
1514004120931;-;-;5.940506;1.8580933;-1.4190826;-;-;-;-;-;-;-;-;-;-;-;-;-;-;-
1514004120952;-;-;4.7757263;1.4079895;-0.9438324;-;-;-;-;-;-;-;-;-;-;-;-;-;-;-
1514004120972;-;-;5.1671753;0.12588501;-1.0862885;-;-;-;-;-;-;-;-;-;-;-;-;-;-;-
1514004120993;-;-;6.398987;-0.8377838;-1.8823547;-;-;-;-;-;-;-;-;-;-;-;-;-;-;-
1514004121013;-;-;7.683487;-0.47505188;-2.0427704;-;-;-;-;-;-;-;-;-;-;-;-;-;-;-
1514004121034;-;-;8.331116;0.22883606;-1.9098969;-;-;-;-;-;-;-;-;-;-;-;-;-;-;-
1514004121055;-;-;8.145569;1.2499695;-1.361618;-;-;-;-;-;-;-;-;-;-;-;-;-;-;-
1514004121074;-;-;7.770874;1.9682312;-0.6685028;-;-;-;-;-;-;-;-;-;-;-;-;-;-;-
1514004121095;-;-;8.58371;1.8030243;-0.72236633;-;-;-;-;-;-;-;-;-;-;-;-;-;-;-
1514004121115;-;-;8.613632;1.3517151;-1.6812439;-;-;-;-;-;-;-;-;-;-;-;-;-;-;-
1514004121136;-;-;8.205414;1.2966461;-1.4214783;-;-;-;-;-;-;-;-;-;-;-;-;-;-;-
1514004121155;-;-;9.1128235;0.68852234;-0.7810211;-;-;-;-;-;-;-;-;-;-;-;-;-;-;-
1514004121176;-;-;11.660248;0.56521606;-0.40753174;-;-;-;-;-;-;-;-;-;-;-;-;-;-;-
1514004121196;-;-;14.443512;3.2622986;-0.58709717;-;-;-;-;-;-;-;-;-;-;-;-;-;-;-
1514004121216;-;-;15.883621;6.743454;-4.7027283;-;-;-;-;-;-;-;-;-;-;-;-;-;-;-
1514004121237;-;-;18.03122;8.035126;-5.7621613;-;-;-;-;-;-;-;-;-;-;-;-;-;-;-
1514004121258;-;-;14.235214;7.2163086;-4.8188477;-;-;-;-;-;-;-;-;-;-;-;-;-;-;-
1514004121279;-;-;10.317108;4.8364716;-5.6316833;-;-;-;-;-;-;-;-;-;-;-;-;-;-;-
1514004121298;-;-;5.1049347;3.4885406;-7.0598145;-;-;-;-;-;-;-;-;-;-;-;-;-;-;-
1514004121318;-;-;3.9389496;1.2296143;-7.1424255;-;-;-;-;-;-;-;-;-;-;-;-;-;-;-
1514004121339;-;-;6.236191;-0.6833496;-7.943283;-;-;-;-;-;-;-;-;-;-;-;-;-;-;-
1514004121359;-;-;9.088882;-1.4087982;-7.63562;-;-;-;-;-;-;-;-;-;-;-;-;-;-;-
1514004121380;-;-;10.854599;-0.8760834;-6.571396;-;-;-;-;-;-;-;-;-;-;-;-;-;-;-
1514004121401;-;-;9.960373;-0.4666748;-6.425354;-;-;-;-;-;-;-;-;-;-;-;-;-;-;-
1514004121421;-;-;8.786011;-1.052063;-5.5526733;-;-;-;-;-;-;-;-;-;-;-;-;-;-;-
1514004121441;-;-;7.394989;-0.7527771;-3.9078522;-;-;-;-;-;-;-;-;-;-;-;-;-;-;-
1514004121462;-;-;5.6184845;-0.112335205;-2.7406769;-;-;-;-;-;-;-;-;-;-;-;-;-;-;-
1514004121482;-;-;4.1867523;-0.13388062;-2.7957458;-;-;-;-;-;-;-;-;-;-;-;-;-;-;-
1514004121503;-;-;2.8819122;-0.6246948;-2.9633331;-;-;-;-;-;-;-;-;-;-;-;-;-;-;-
1514004121524;-;-;2.9130402;-1.783493;-3.0160065;-;-;-;-;-;-;-;-;-;-;-;-;-;-;-
1514004121544;-;-;5.368286;-3.1062775;-3.662445;-;-;-;-;-;-;-;-;-;-;-;-;-;-;-
1514004121565;-;-;7.315979;-3.3457031;-3.1716309;-;-;-;-;-;-;-;-;-;-;-;-;-;-;-
1514004121584;-;-;7.930084;-2.3892212;-2.389923;-;-;-;-;-;-;-;-;-;-;-;-;-;-;-
1514004121604;-;-;8.516663;-1.5991364;-2.2414856;-;-;-;-;-;-;-;-;-;-;-;-;-;-;-
1514004121625;-;-;8.254501;-1.724823;-2.6916046;-;-;-;-;-;-;-;-;-;-;-;-;-;-;-
1514004121646;-;-;8.110855;-1.8062286;-3.278183;-;-;-;-;-;-;-;-;-;-;-;-;-;-;-
1514004121665;-;-;8.207809;-1.7284241;-2.4653473;-;-;-;-;-;-;-;-;-;-;-;-;-;-;-
1514004121686;-;-;9.049377;-2.0995178;-3.0076294;-;-;-;-;-;-;-;-;-;-;-;-;-;-;-
1514004121706;-;-;10.295563;-3.3552856;-4.7913055;-;-;-;-;-;-;-;-;-;-;-;-;-;-;-
1514004121727;-;-;12.839401;-4.3752136;-5.3323975;-;-;-;-;-;-;-;-;-;-;-;-;-;-;-
1514004121747;-;-;13.800674;-2.8644714;-5.539505;-;-;-;-;-;-;-;-;-;-;-;-;-;-;-
1514004121767;-;-;12.404846;-1.9235535;-6.085373;-;-;-;-;-;-;-;-;-;-;-;-;-;-;-
1514004121787;-;-;10.97551;-1.6577911;-9.528244;-;-;-;-;-;-;-;-;-;-;-;-;-;-;-
1514004121808;-;-;10.027405;-1.7164459;-9.803574;-;-;-;-;-;-;-;-;-;-;-;-;-;-;-
1514004121830;-;-;10.528992;-0.76594543;-5.867508;-;-;-;-;-;-;-;-;-;-;-;-;-;-;-
1514004121848;-;-;8.315552;-0.53012085;-6.050659;-;-;-;-;-;-;-;-;-;-;-;-;-;-;-
1514004121869;-;-;4.49321;-0.67736816;-7.7984314;-;-;-;-;-;-;-;-;-;-;-;-;-;-;-
1514004121889;-;-;5.8674774;-1.661377;-5.0606537;-;-;-;-;-;-;-;-;-;-;-;-;-;-;-
1514004121909;-;-;7.4991302;-2.2886658;-2.8256683;-;-;-;-;-;-;-;-;-;-;-;-;-;-;-
1514004121929;-;-;7.5122986;-2.2707062;-1.4813232;-;-;-;-;-;-;-;-;-;-;-;-;-;-;-
1514004121950;-;-;5.842346;-2.289856;-1.9075012;-;-;-;-;-;-;-;-;-;-;-;-;-;-;-
1514004121970;-;-;4.8511353;-1.922348;-2.8855286;-;-;-;-;-;-;-;-;-;-;-;-;-;-;-
1514004121991;-;-;4.972046;-1.3106384;-3.4601288;-;-;-;-;-;-;-;-;-;-;-;-;-;-;-
1514004122011;-;-;5.253372;-0.085998535;-3.6839905;-;-;-;-;-;-;-;-;-;-;-;-;-;-;-
1514004122032;-;-;5.3311768;2.0855408;-3.440979;-;-;-;-;-;-;-;-;-;-;-;-;-;-;-
1514004122052;-;-;5.1599884;3.3520813;-3.6744232;-;-;-;-;-;-;-;-;-;-;-;-;-;-;-
1514004122072;-;-;5.3419495;3.094696;-3.7701874;-;-;-;-;-;-;-;-;-;-;-;-;-;-;-
1514004122093;-;-;7.0214844;1.3146057;-3.875534;-;-;-;-;-;-;-;-;-;-;-;-;-;-;-
1514004122114;-;-;7.9468384;0.3904419;-4.6201324;-;-;-;-;-;-;-;-;-;-;-;-;-;-;-
1514004122134;-;-;8.344284;0.24440002;-3.982071;-;-;-;-;-;-;-;-;-;-;-;-;-;-;-
1514004122155;-;-;8.481949;2.5416412;-1.579483;-;-;-;-;-;-;-;-;-;-;-;-;-;-;-
1514004122175;-;-;8.036621;3.960205;-0.7582855;-;-;-;-;-;-;-;-;-;-;-;-;-;-;-
1514004122196;-;-;8.697433;2.5033264;-0.7379303;-;-;-;-;-;-;-;-;-;-;-;-;-;-;-
1514004122217;-;-;9.764038;1.1422272;-1.447815;-;-;-;-;-;-;-;-;-;-;-;-;-;-;-
1514004122236;-;-;11.722504;1.4403076;-2.3145142;-;-;-;-;-;-;-;-;-;-;-;-;-;-;-
1514004122257;-;-;12.542511;2.490158;-2.781372;-;-;-;-;-;-;-;-;-;-;-;-;-;-;-
1514004122278;-;-;11.762009;2.2184143;-2.682022;-;-;-;-;-;-;-;-;-;-;-;-;-;-;-
1514004122298;-;-;10.952759;1.616272;-8.203049;-;-;-;-;-;-;-;-;-;-;-;-;-;-;-
1514004122317;-;-;13.143463;1.1865234;-5.559845;-;-;-;-;-;-;-;-;-;-;-;-;-;-;-
1514004122338;-;-;10.633133;1.8664703;-6.6767426;-;-;-;-;-;-;-;-;-;-;-;-;-;-;-
1514004122359;-;-;10.689407;1.4031982;-6.6528015;-;-;-;-;-;-;-;-;-;-;-;-;-;-;-
1514004122380;-;-;7.248932;0.57121277;-7.013138;-;-;-;-;-;-;-;-;-;-;-;-;-;-;-
1514004122400;-;-;5.6304474;-1.4483032;-5.5814056;-;-;-;-;-;-;-;-;-;-;-;-;-;-;-
1514004122420;-;-;5.3491364;-3.2463531;-5.6292877;-;-;-;-;-;-;-;-;-;-;-;-;-;-;-
1514004122441;-;-;7.066971;-2.3616943;-4.5052032;-;-;-;-;-;-;-;-;-;-;-;-;-;-;-
1514004122463;-;-;8.179077;-0.94192505;-4.3005066;-;-;-;-;-;-;-;-;-;-;-;-;-;-;-
1514004122481;-;-;7.8319244;0.8740692;-4.1149445;-;-;-;-;-;-;-;-;-;-;-;-;-;-;-
1514004122502;-;-;7.4332886;1.8305664;-4.105377;-;-;-;-;-;-;-;-;-;-;-;-;-;-;-
1514004122522;-;-;7.1172485;1.5312805;-4.1532593;-;-;-;-;-;-;-;-;-;-;-;-;-;-;-
1514004122542;-;-;5.8997955;-0.5528717;-3.199173;-;-;-;-;-;-;-;-;-;-;-;-;-;-;-
1514004122563;-;-;4.65123;-2.7220154;-2.522812;-;-;-;-;-;-;-;-;-;-;-;-;-;-;-
1514004122587;-;-;3.9976044;-4.2794495;-2.06073;-;-;-;-;-;-;-;-;-;-;-;-;-;-;-
1514004122607;-;-;5.277313;-3.9586182;-2.5563202;-;-;-;-;-;-;-;-;-;-;-;-;-;-;-
1514004122628;-;-;6.663559;-2.787857;-3.100998;-;-;-;-;-;-;-;-;-;-;-;-;-;-;-
1514004122648;-;-;6.948456;-1.2567596;-2.8184967;-;-;-;-;-;-;-;-;-;-;-;-;-;-;-
1514004122669;-;-;6.584549;-1.1382446;-3.1189575;-;-;-;-;-;-;-;-;-;-;-;-;-;-;-
1514004122689;-;-;7.1759186;-2.2072601;-3.4589386;-;-;-;-;-;-;-;-;-;-;-;-;-;-;-
1514004122709;-;-;9.303162;-3.3804169;-4.426193;-;-;-;-;-;-;-;-;-;-;-;-;-;-;-
1514004122730;-;-;12.553284;-3.0356598;-4.4872437;-;-;-;-;-;-;-;-;-;-;-;-;-;-;-
1514004122749;-;-;12.908829;-2.3197937;-4.685974;-;-;-;-;-;-;-;-;-;-;-;-;-;-;-
1514004122769;-;-;13.271545;-1.2663422;-5.4868317;-;-;-;-;-;-;-;-;-;-;-;-;-;-;-
1514004122790;-;-;13.161423;-0.86291504;-6.3990173;-;-;-;-;-;-;-;-;-;-;-;-;-;-;-
1514004122810;-;-;11.350204;-1.882843;-8.074966;-;-;-;-;-;-;-;-;-;-;-;-;-;-;-
1514004122831;-;-;9.752075;-4.144165;-8.859055;-;-;-;-;-;-;-;-;-;-;-;-;-;-;-
1514004122850;-;-;11.773972;-5.575897;-3.370346;-;-;-;-;-;-;-;-;-;-;-;-;-;-;-
1514004122871;-;-;10.854599;-2.535263;-3.7953186;-;-;-;-;-;-;-;-;-;-;-;-;-;-;-
1514004122891;-;-;6.060211;-1.3022614;-8.807587;-;-;-;-;-;-;-;-;-;-;-;-;-;-;-
1514004122912;-;-;4.5446777;-0.51815796;-8.677109;-;-;-;-;-;-;-;-;-;-;-;-;-;-;-
1514004122932;-;-;7.003525;-0.04170227;-4.4896393;-;-;-;-;-;-;-;-;-;-;-;-;-;-;-
1514004122953;-;-;7.6499634;-0.61750793;-3.6600494;-;-;-;-;-;-;-;-;-;-;-;-;-;-;-
1514004122973;-;-;7.056198;-1.0508575;-2.9836884;-;-;-;-;-;-;-;-;-;-;-;-;-;-;-
1514004122994;-;-;6.403778;-1.348938;-2.5335846;-;-;-;-;-;-;-;-;-;-;-;-;-;-;-
1514004123014;-;-;5.813614;-1.285492;-3.8934937;-;-;-;-;-;-;-;-;-;-;-;-;-;-;-
1514004123035;-;-;5.766922;-0.9610748;-4.6452637;-;-;-;-;-;-;-;-;-;-;-;-;-;-;-
1514004123055;-;-;4.873886;1.4259338;-4.378311;-;-;-;-;-;-;-;-;-;-;-;-;-;-;-
1514004123076;-;-;3.5546875;3.3293304;-4.444153;-;-;-;-;-;-;-;-;-;-;-;-;-;-;-
1514004123096;-;-;3.4481354;3.7004242;-4.480072;-;-;-;-;-;-;-;-;-;-;-;-;-;-;-
1514004123117;-;-;4.3806763;2.2698975;-4.2574005;-;-;-;-;-;-;-;-;-;-;-;-;-;-;-
1514004123138;-;-;7.216614;0.45269775;-4.0826263;-;-;-;-;-;-;-;-;-;-;-;-;-;-;-
1514004123158;-;-;8.256897;-0.4547119;-4.1424866;-;-;-;-;-;-;-;-;-;-;-;-;-;-;-
1514004123178;-;-;7.9109344;-0.26197815;-3.5128021;-;-;-;-;-;-;-;-;-;-;-;-;-;-;-
1514004123199;-;-;9.564133;0.65979004;-2.8340454;-;-;-;-;-;-;-;-;-;-;-;-;-;-;-
1514004123219;-;-;9.9436035;1.8389435;-2.3133087;-;-;-;-;-;-;-;-;-;-;-;-;-;-;-
1514004123240;-;-;9.676651;2.193283;-2.231903;-;-;-;-;-;-;-;-;-;-;-;-;-;-;-
1514004123260;-;-;11.064102;2.0831451;-2.0786743;-;-;-;-;-;-;-;-;-;-;-;-;-;-;-
1514004123281;-;-;12.599976;2.3249664;-2.5204163;-;-;-;-;-;-;-;-;-;-;-;-;-;-;-
1514004123301;-;-;11.778763;2.7642975;-2.7742004;-;-;-;-;-;-;-;-;-;-;-;-;-;-;-
1514004123322;-;-;9.723343;2.29982;-5.40184;-;-;-;-;-;-;-;-;-;-;-;-;-;-;-
1514004123342;-;-;9.817917;2.7295837;-7.8511047;-;-;-;-;-;-;-;-;-;-;-;-;-;-;-
1514004123363;-;-;9.732925;2.8349304;-5.6053467;-;-;-;-;-;-;-;-;-;-;-;-;-;-;-
1514004123383;-;-;9.104446;1.3924255;-5.899826;-;-;-;-;-;-;-;-;-;-;-;-;-;-;-
1514004123404;-;-;8.517868;0.12588501;-6.598938;-;-;-;-;-;-;-;-;-;-;-;-;-;-;-
1514004123424;-;-;6.0817566;0.3509369;-7.167557;-;-;-;-;-;-;-;-;-;-;-;-;-;-;-
1514004123445;-;-;5.8830414;-1.0400848;-6.3918304;-;-;-;-;-;-;-;-;-;-;-;-;-;-;-
1514004123464;-;-;7.3339233;-1.9259491;-3.7366638;-;-;-;-;-;-;-;-;-;-;-;-;-;-;-
1514004123485;-;-;8.728546;-1.3800659;-3.3164825;-;-;-;-;-;-;-;-;-;-;-;-;-;-;-
1514004123505;-;-;7.743332;-0.05368042;-3.4433746;-;-;-;-;-;-;-;-;-;-;-;-;-;-;-
1514004123526;-;-;6.4959564;0.50177;-4.061081;-;-;-;-;-;-;-;-;-;-;-;-;-;-;-
1514004123546;-;-;6.37146;-0.3194275;-3.9413757;-;-;-;-;-;-;-;-;-;-;-;-;-;-;-
1514004123567;-;-;5.5993347;-1.700882;-3.1871948;-;-;-;-;-;-;-;-;-;-;-;-;-;-;-
1514004123587;-;-;4.818817;-2.4143677;-2.749054;-;-;-;-;-;-;-;-;-;-;-;-;-;-;-
1514004123607;-;-;3.9904327;-3.2367706;-2.230713;-;-;-;-;-;-;-;-;-;-;-;-;-;-;-
1514004123628;-;-;4.787689;-2.8776398;-2.0355835;-;-;-;-;-;-;-;-;-;-;-;-;-;-;-
1514004123648;-;-;6.1368256;-2.427536;-2.5036469;-;-;-;-;-;-;-;-;-;-;-;-;-;-;-
1514004123669;-;-;6.4528656;-2.2719116;-3.017212;-;-;-;-;-;-;-;-;-;-;-;-;-;-;-
1514004123689;-;-;7.008316;-2.4263306;-3.449356;-;-;-;-;-;-;-;-;-;-;-;-;-;-;-
1514004123709;-;-;8.5849;-3.364853;-3.8072968;-;-;-;-;-;-;-;-;-;-;-;-;-;-;-
1514004123730;-;-;11.192184;-3.3313446;-3.017212;-;-;-;-;-;-;-;-;-;-;-;-;-;-;-
1514004123750;-;-;11.987061;-3.0344543;-2.4030914;-;-;-;-;-;-;-;-;-;-;-;-;-;-;-
1514004123770;-;-;11.331055;-3.320572;-2.3204956;-;-;-;-;-;-;-;-;-;-;-;-;-;-;-
1514004123791;-;-;12.189377;-2.8369446;-2.9717255;-;-;-;-;-;-;-;-;-;-;-;-;-;-;-
1514004123811;-;-;13.057266;-0.9107971;-3.468521;-;-;-;-;-;-;-;-;-;-;-;-;-;-;-
1514004123832;-;-;12.10437;0.14263916;-7.065796;-;-;-;-;-;-;-;-;-;-;-;-;-;-;-
1514004123852;-;-;11.329849;-0.97424316;-11.182632;-;-;-;-;-;-;-;-;-;-;-;-;-;-;-
1514004123873;-;-;11.568069;-2.8333435;-7.491974;-;-;-;-;-;-;-;-;-;-;-;-;-;-;-
1514004123893;-;-;14.541672;-3.0775604;-2.630539;-;-;-;-;-;-;-;-;-;-;-;-;-;-;-
1514004123914;-;-;10.428436;-2.0671997;-8.238968;-;-;-;-;-;-;-;-;-;-;-;-;-;-;-
1514004123935;-;-;5.7956543;-1.3573151;-10.430847;-;-;-;-;-;-;-;-;-;-;-;-;-;-;-
1514004123954;-;-;6.62883;-0.5600586;-7.4620514;-;-;-;-;-;-;-;-;-;-;-;-;-;-;-
1514004123975;-;-;7.9109344;-0.7408142;-3.176422;-;-;-;-;-;-;-;-;-;-;-;-;-;-;-
1514004123995;-;-;6.624054;-0.957489;-1.8045502;-;-;-;-;-;-;-;-;-;-;-;-;-;-;-
1514004124016;-;-;5.6352386;-0.6031494;-1.432251;-;-;-;-;-;-;-;-;-;-;-;-;-;-;-
1514004124036;-;-;5.236603;-1.0700226;-1.3712006;-;-;-;-;-;-;-;-;-;-;-;-;-;-;-
1514004124057;-;-;5.616089;-2.1689606;-2.3228912;-;-;-;-;-;-;-;-;-;-;-;-;-;-;-
1514004124077;-;-;5.6747437;-2.4383087;-2.9801025;-;-;-;-;-;-;-;-;-;-;-;-;-;-;-
1514004124098;-;-;4.362732;-0.79348755;-3.2326813;-;-;-;-;-;-;-;-;-;-;-;-;-;-;-
1514004124119;-;-;3.284134;1.4427032;-3.6253357;-;-;-;-;-;-;-;-;-;-;-;-;-;-;-
1514004124138;-;-;5.018738;2.6409912;-3.6217499;-;-;-;-;-;-;-;-;-;-;-;-;-;-;-
1514004124159;-;-;6.565384;2.2040558;-3.2889557;-;-;-;-;-;-;-;-;-;-;-;-;-;-;-
1514004124179;-;-;8.060562;0.5819855;-3.998825;-;-;-;-;-;-;-;-;-;-;-;-;-;-;-
1514004124200;-;-;7.015503;-0.4092102;-4.2813416;-;-;-;-;-;-;-;-;-;-;-;-;-;-;-
1514004124220;-;-;6.8993835;0.5472717;-3.235077;-;-;-;-;-;-;-;-;-;-;-;-;-;-;-
1514004124241;-;-;7.143585;2.6936646;-2.0248108;-;-;-;-;-;-;-;-;-;-;-;-;-;-;-
1514004124261;-;-;8.699814;3.44664;-1.0036774;-;-;-;-;-;-;-;-;-;-;-;-;-;-;-
1514004124282;-;-;9.916077;2.754715;-0.8791809;-;-;-;-;-;-;-;-;-;-;-;-;-;-;-
1514004124301;-;-;12.264786;2.967804;-2.0164337;-;-;-;-;-;-;-;-;-;-;-;-;-;-;-
1514004124322;-;-;13.490616;3.8117676;-3.9042664;-;-;-;-;-;-;-;-;-;-;-;-;-;-;-
1514004124343;-;-;12.973465;3.809372;-4.1113586;-;-;-;-;-;-;-;-;-;-;-;-;-;-;-
1514004124362;-;-;11.620743;1.6234589;-4.9648895;-;-;-;-;-;-;-;-;-;-;-;-;-;-;-
1514004124383;-;-;12.044525;1.4199524;-8.504715;-;-;-;-;-;-;-;-;-;-;-;-;-;-;-
1514004124403;-;-;12.937561;1.5193176;-4.4142303;-;-;-;-;-;-;-;-;-;-;-;-;-;-;-
1514004124424;-;-;9.621582;2.2279968;-5.8267975;-;-;-;-;-;-;-;-;-;-;-;-;-;-;-
1514004124444;-;-;7.614044;2.945053;-5.9369354;-;-;-;-;-;-;-;-;-;-;-;-;-;-;-
1514004124465;-;-;4.5315094;3.1629333;-6.639633;-;-;-;-;-;-;-;-;-;-;-;-;-;-;-
1514004124485;-;-;2.6448822;0.77471924;-5.279724;-;-;-;-;-;-;-;-;-;-;-;-;-;-;-
1514004124506;-;-;6.288864;-2.4299164;-3.1177673;-;-;-;-;-;-;-;-;-;-;-;-;-;-;-
1514004124526;-;-;8.853058;-1.7391968;-3.5379486;-;-;-;-;-;-;-;-;-;-;-;-;-;-;-
1514004124547;-;-;7.4320984;0.45628357;-2.8879242;-;-;-;-;-;-;-;-;-;-;-;-;-;-;-
1514004124567;-;-;7.016693;0.809433;-3.3212738;-;-;-;-;-;-;-;-;-;-;-;-;-;-;-
1514004124588;-;-;6.560608;-0.39604187;-4.125717;-;-;-;-;-;-;-;-;-;-;-;-;-;-;-
1514004124608;-;-;5.707062;-2.1689606;-3.2422638;-;-;-;-;-;-;-;-;-;-;-;-;-;-;-
1514004124628;-;-;4.3531494;-3.9274902;-2.7897644;-;-;-;-;-;-;-;-;-;-;-;-;-;-;-
1514004124649;-;-;2.8555756;-4.6278076;-2.5766754;-;-;-;-;-;-;-;-;-;-;-;-;-;-;-
1514004124669;-;-;4.5746155;-3.534851;-2.365982;-;-;-;-;-;-;-;-;-;-;-;-;-;-;-
1514004124689;-;-;7.169922;-2.1785278;-3.3978882;-;-;-;-;-;-;-;-;-;-;-;-;-;-;-
1514004124710;-;-;7.635605;-0.82580566;-3.6600494;-;-;-;-;-;-;-;-;-;-;-;-;-;-;-
1514004124729;-;-;7.193863;-0.5504761;-3.440979;-;-;-;-;-;-;-;-;-;-;-;-;-;-;-
1514004124750;-;-;7.391388;-1.6913147;-3.3943024;-;-;-;-;-;-;-;-;-;-;-;-;-;-;-
1514004124770;-;-;10.064514;-3.5360413;-2.8567963;-;-;-;-;-;-;-;-;-;-;-;-;-;-;-
1514004124791;-;-;12.926788;-3.9478455;-3.111786;-;-;-;-;-;-;-;-;-;-;-;-;-;-;-
1514004124810;-;-;13.325424;-4.0627747;-3.9210205;-;-;-;-;-;-;-;-;-;-;-;-;-;-;-
1514004124831;-;-;13.181763;-3.8616486;-4.4585114;-;-;-;-;-;-;-;-;-;-;-;-;-;-;-
1514004124851;-;-;13.033325;-2.104309;-4.931366;-;-;-;-;-;-;-;-;-;-;-;-;-;-;-
1514004124872;-;-;11.987061;-0.55885315;-7.4740143;-;-;-;-;-;-;-;-;-;-;-;-;-;-;-
1514004124891;-;-;9.25647;-2.5699768;-11.596832;-;-;-;-;-;-;-;-;-;-;-;-;-;-;-
1514004124911;-;-;12.092407;-3.878418;-3.906662;-;-;-;-;-;-;-;-;-;-;-;-;-;-;-
1514004124932;-;-;15.118683;-2.3916168;-1.3628082;-;-;-;-;-;-;-;-;-;-;-;-;-;-;-
1514004124953;-;-;8.431671;-1.2376099;-8.854279;-;-;-;-;-;-;-;-;-;-;-;-;-;-;-
1514004124972;-;-;5.759735;-1.0460815;-10.9934845;-;-;-;-;-;-;-;-;-;-;-;-;-;-;-
1514004124993;-;-;7.956421;-0.10874939;-7.639221;-;-;-;-;-;-;-;-;-;-;-;-;-;-;-
1514004125013;-;-;8.09169;-0.00819397;-4.8451843;-;-;-;-;-;-;-;-;-;-;-;-;-;-;-
1514004125034;-;-;6.908966;-0.54089355;-2.9118652;-;-;-;-;-;-;-;-;-;-;-;-;-;-;-
1514004125054;-;-;6.280487;-0.8162384;-2.551529;-;-;-;-;-;-;-;-;-;-;-;-;-;-;-
1514004125075;-;-;5.3216095;-0.37928772;-2.084671;-;-;-;-;-;-;-;-;-;-;-;-;-;-;-
1514004125095;-;-;4.3759003;-0.5169525;-2.2402954;-;-;-;-;-;-;-;-;-;-;-;-;-;-;-
1514004125116;-;-;3.0638733;-0.6869507;-2.4078827;-;-;-;-;-;-;-;-;-;-;-;-;-;-;-
1514004125137;-;-;1.7494507;0.39283752;-2.737091;-;-;-;-;-;-;-;-;-;-;-;-;-;-;-
1514004125157;-;-;1.6872101;1.9263306;-2.800537;-;-;-;-;-;-;-;-;-;-;-;-;-;-;-
1514004125177;-;-;3.616928;2.4291077;-3.3404236;-;-;-;-;-;-;-;-;-;-;-;-;-;-;-
1514004125198;-;-;6.858673;1.4881897;-4.184387;-;-;-;-;-;-;-;-;-;-;-;-;-;-;-
1514004125218;-;-;9.765244;0.30186462;-5.0989685;-;-;-;-;-;-;-;-;-;-;-;-;-;-;-
1514004125239;-;-;10.68222;-0.1590271;-4.634491;-;-;-;-;-;-;-;-;-;-;-;-;-;-;-
1514004125259;-;-;9.790375;0.56521606;-3.7773743;-;-;-;-;-;-;-;-;-;-;-;-;-;-;-
1514004125279;-;-;9.108032;1.2104645;-2.8077087;-;-;-;-;-;-;-;-;-;-;-;-;-;-;-
1514004125300;-;-;9.020645;1.4642487;-2.0882568;-;-;-;-;-;-;-;-;-;-;-;-;-;-;-
1514004125320;-;-;9.3701935;1.164978;-1.7087708;-;-;-;-;-;-;-;-;-;-;-;-;-;-;-
1514004125341;-;-;9.154724;1.1518097;-1.4777374;-;-;-;-;-;-;-;-;-;-;-;-;-;-;-
1514004125361;-;-;9.700592;1.4247437;-1.4346466;-;-;-;-;-;-;-;-;-;-;-;-;-;-;-
1514004125382;-;-;10.731308;2.1250458;-1.674057;-;-;-;-;-;-;-;-;-;-;-;-;-;-;-
1514004125402;-;-;11.224503;3.1222382;-2.7143402;-;-;-;-;-;-;-;-;-;-;-;-;-;-;-
1514004125423;-;-;10.62117;2.710434;-3.6480865;-;-;-;-;-;-;-;-;-;-;-;-;-;-;-
1514004125443;-;-;10.679825;3.0408325;-6.7701263;-;-;-;-;-;-;-;-;-;-;-;-;-;-;-
1514004125464;-;-;12.198944;3.391571;-4.615341;-;-;-;-;-;-;-;-;-;-;-;-;-;-;-
1514004125484;-;-;12.805878;2.8995667;-4.2023315;-;-;-;-;-;-;-;-;-;-;-;-;-;-;-
1514004125505;-;-;10.013046;2.77388;-6.6276703;-;-;-;-;-;-;-;-;-;-;-;-;-;-;-
1514004125525;-;-;4.9732513;3.4059448;-8.639984;-;-;-;-;-;-;-;-;-;-;-;-;-;-;-
1514004125546;-;-;3.2913208;2.3309479;-7.3195953;-;-;-;-;-;-;-;-;-;-;-;-;-;-;-
1514004125566;-;-;6.5558167;-0.083602905;-3.9282074;-;-;-;-;-;-;-;-;-;-;-;-;-;-;-
1514004125587;-;-;9.415695;-1.9857941;-2.6473083;-;-;-;-;-;-;-;-;-;-;-;-;-;-;-
1514004125608;-;-;10.554138;-1.9953766;-3.7677917;-;-;-;-;-;-;-;-;-;-;-;-;-;-;-
1514004125628;-;-;9.208588;-0.7551727;-4.3292236;-;-;-;-;-;-;-;-;-;-;-;-;-;-;-
1514004125648;-;-;8.055786;0.30784607;-3.3978882;-;-;-;-;-;-;-;-;-;-;-;-;-;-;-
1514004125669;-;-;6.275696;0.61909485;-3.1931763;-;-;-;-;-;-;-;-;-;-;-;-;-;-;-
1514004125689;-;-;5.1288757;-0.1769867;-3.2135315;-;-;-;-;-;-;-;-;-;-;-;-;-;-;-
1514004125710;-;-;4.466873;-1.3716888;-3.2614136;-;-;-;-;-;-;-;-;-;-;-;-;-;-;-
1514004125730;-;-;3.988037;-2.281479;-2.4402008;-;-;-;-;-;-;-;-;-;-;-;-;-;-;-
1514004125751;-;-;4.4632874;-2.2910614;-1.7494812;-;-;-;-;-;-;-;-;-;-;-;-;-;-;-
1514004125771;-;-;6.814392;-2.2072601;-2.8220825;-;-;-;-;-;-;-;-;-;-;-;-;-;-;-
1514004125792;-;-;7.628418;-1.7559509;-3.6121674;-;-;-;-;-;-;-;-;-;-;-;-;-;-;-
1514004125812;-;-;7.0095215;-1.6278687;-3.073471;-;-;-;-;-;-;-;-;-;-;-;-;-;-;-
1514004125833;-;-;5.9704285;-1.6793365;-2.7538452;-;-;-;-;-;-;-;-;-;-;-;-;-;-;-
1514004125853;-;-;6.3427277;-2.0265045;-2.3827515;-;-;-;-;-;-;-;-;-;-;-;-;-;-;-
1514004125874;-;-;7.2465363;-2.1521912;-2.2259216;-;-;-;-;-;-;-;-;-;-;-;-;-;-;-
1514004125894;-;-;7.6786957;-1.7631378;-1.9601746;-;-;-;-;-;-;-;-;-;-;-;-;-;-;-
1514004125915;-;-;8.258087;-1.5584412;-1.7985535;-;-;-;-;-;-;-;-;-;-;-;-;-;-;-
1514004125934;-;-;8.951218;-1.617096;-1.7075806;-;-;-;-;-;-;-;-;-;-;-;-;-;-;-
1514004125955;-;-;9.511459;-1.3393707;-1.3256989;-;-;-;-;-;-;-;-;-;-;-;-;-;-;-
1514004125975;-;-;10.16507;-1.0029755;-0.9366455;-;-;-;-;-;-;-;-;-;-;-;-;-;-;-
1514004125996;-;-;10.7851715;-0.67497253;-1.1545258;-;-;-;-;-;-;-;-;-;-;-;-;-;-;-
1514004126015;-;-;10.494278;-0.2787323;-1.4813232;-;-;-;-;-;-;-;-;-;-;-;-;-;-;-
1514004126036;-;-;7.8786163;-2.04924;-2.8304596;-;-;-;-;-;-;-;-;-;-;-;-;-;-;-
1514004126056;-;-;5.437729;-5.428665;-3.8647614;-;-;-;-;-;-;-;-;-;-;-;-;-;-;-
1514004126076;-;-;11.011429;-4.0914917;-0.17170715;-;-;-;-;-;-;-;-;-;-;-;-;-;-;-
1514004126097;-;-;14.618286;-0.17578125;-2.4414063;-;-;-;-;-;-;-;-;-;-;-;-;-;-;-
1514004126117;-;-;11.764404;1.7563324;-8.948837;-;-;-;-;-;-;-;-;-;-;-;-;-;-;-
1514004126138;-;-;11.125153;2.6900787;-10.359024;-;-;-;-;-;-;-;-;-;-;-;-;-;-;-
1514004126158;-;-;11.712921;0.48860168;-6.124878;-;-;-;-;-;-;-;-;-;-;-;-;-;-;-
1514004126179;-;-;8.908112;0.31861877;-4.8978577;-;-;-;-;-;-;-;-;-;-;-;-;-;-;-
1514004126199;-;-;7.884598;1.2212372;-6.2098694;-;-;-;-;-;-;-;-;-;-;-;-;-;-;-
1514004126219;-;-;7.772064;1.932312;-5.9764404;-;-;-;-;-;-;-;-;-;-;-;-;-;-;-
1514004126240;-;-;7.466812;1.5468445;-5.5023956;-;-;-;-;-;-;-;-;-;-;-;-;-;-;-
1514004126260;-;-;6.999939;1.1266632;-4.4704895;-;-;-;-;-;-;-;-;-;-;-;-;-;-;-
1514004126281;-;-;6.5270844;0.92196655;-3.9689026;-;-;-;-;-;-;-;-;-;-;-;-;-;-;-
1514004126302;-;-;7.588913;0.64782715;-3.927002;-;-;-;-;-;-;-;-;-;-;-;-;-;-;-
1514004126322;-;-;8.764465;0.41319275;-3.9916534;-;-;-;-;-;-;-;-;-;-;-;-;-;-;-
1514004126343;-;-;8.128799;-0.11352539;-3.346405;-;-;-;-;-;-;-;-;-;-;-;-;-;-;-
1514004126363;-;-;7.0107117;-0.3649292;-2.3121185;-;-;-;-;-;-;-;-;-;-;-;-;-;-;-
1514004126384;-;-;6.0578156;-0.097976685;-1.4466095;-;-;-;-;-;-;-;-;-;-;-;-;-;-;-
1514004126404;-;-;5.5310974;0.22164917;-1.104248;-;-;-;-;-;-;-;-;-;-;-;-;-;-;-
1514004126425;-;-;5.632843;0.92315674;-0.90312195;-;-;-;-;-;-;-;-;-;-;-;-;-;-;-
1514004126445;-;-;5.9740295;1.4391022;-0.803772;-;-;-;-;-;-;-;-;-;-;-;-;-;-;-
1514004126466;-;-;7.4045563;1.0943451;-0.4230957;-;-;-;-;-;-;-;-;-;-;-;-;-;-;-
1514004126485;-;-;8.887772;0.67655945;-0.89953613;-;-;-;-;-;-;-;-;-;-;-;-;-;-;-
1514004126505;-;-;9.421677;0.36410522;-1.5184326;-;-;-;-;-;-;-;-;-;-;-;-;-;-;-
1514004126526;-;-;8.58609;0.01574707;-1.7219391;-;-;-;-;-;-;-;-;-;-;-;-;-;-;-
1514004126546;-;-;9.067337;-0.8892517;-0.57032776;-;-;-;-;-;-;-;-;-;-;-;-;-;-;-
1514004126567;-;-;11.103607;-1.7332153;0.3598175;-;-;-;-;-;-;-;-;-;-;-;-;-;-;-
1514004126588;-;-;12.556885;-1.9091797;-1.0934601;-;-;-;-;-;-;-;-;-;-;-;-;-;-;-
1514004126607;-;-;12.564056;0.4909973;-5.7597656;-;-;-;-;-;-;-;-;-;-;-;-;-;-;-
1514004126628;-;-;10.30394;3.6585388;-9.883774;-;-;-;-;-;-;-;-;-;-;-;-;-;-;-
1514004126647;-;-;8.473572;4.9609833;-5.6831512;-;-;-;-;-;-;-;-;-;-;-;-;-;-;-
1514004126667;-;-;8.459198;1.8305664;-5.77652;-;-;-;-;-;-;-;-;-;-;-;-;-;-;-
1514004126688;-;-;9.427658;-1.4231567;-8.097702;-;-;-;-;-;-;-;-;-;-;-;-;-;-;-
1514004126708;-;-;9.361816;-1.2986603;-8.671112;-;-;-;-;-;-;-;-;-;-;-;-;-;-;-
1514004126728;-;-;10.892914;1.5624084;-5.367111;-;-;-;-;-;-;-;-;-;-;-;-;-;-;-
1514004126749;-;-;10.671448;2.9977264;-4.475281;-;-;-;-;-;-;-;-;-;-;-;-;-;-;-
1514004126768;-;-;11.052124;0.96984863;-5.4544983;-;-;-;-;-;-;-;-;-;-;-;-;-;-;-
1514004126788;-;-;10.110001;-0.76116943;-5.516754;-;-;-;-;-;-;-;-;-;-;-;-;-;-;-
1514004126808;-;-;7.9264984;-1.9510803;-5.1707916;-;-;-;-;-;-;-;-;-;-;-;-;-;-;-
1514004126829;-;-;5.027115;-2.4287262;-4.7865295;-;-;-;-;-;-;-;-;-;-;-;-;-;-;-
1514004126848;-;-;4.0167694;-2.6501923;-4.302902;-;-;-;-;-;-;-;-;-;-;-;-;-;-;-
1514004126868;-;-;3.6277008;-3.146988;-3.2554321;-;-;-;-;-;-;-;-;-;-;-;-;-;-;-
1514004126889;-;-;6.419342;-3.6246338;-1.6154022;-;-;-;-;-;-;-;-;-;-;-;-;-;-;-
1514004126909;-;-;7.087326;-3.139801;-2.7167358;-;-;-;-;-;-;-;-;-;-;-;-;-;-;-
1514004126929;-;-;6.704254;-2.5041504;-2.045166;-;-;-;-;-;-;-;-;-;-;-;-;-;-;-
1514004126950;-;-;7.3973694;-1.775116;-1.5435791;-;-;-;-;-;-;-;-;-;-;-;-;-;-;-
1514004126970;-;-;7.9911346;-1.2639465;-1.4753418;-;-;-;-;-;-;-;-;-;-;-;-;-;-;-
1514004126991;-;-;7.8367157;-1.0568542;-1.7734222;-;-;-;-;-;-;-;-;-;-;-;-;-;-;-
1514004127011;-;-;7.8319244;-1.3058472;-1.0767059;-;-;-;-;-;-;-;-;-;-;-;-;-;-;-
1514004127032;-;-;8.548981;-3.6557617;-1.4262543;-;-;-;-;-;-;-;-;-;-;-;-;-;-;-
1514004127053;-;-;10.166275;-5.973343;-2.954956;-;-;-;-;-;-;-;-;-;-;-;-;-;-;-
1514004127073;-;-;12.1367035;-6.0068665;-2.7622223;-;-;-;-;-;-;-;-;-;-;-;-;-;-;-
1514004127092;-;-;10.9982605;-3.7096252;-1.1425476;-;-;-;-;-;-;-;-;-;-;-;-;-;-;-
1514004127112;-;-;9.2708435;-1.0927582;-5.843567;-;-;-;-;-;-;-;-;-;-;-;-;-;-;-
1514004127133;-;-;9.141556;3.0887146;-11.48909;-;-;-;-;-;-;-;-;-;-;-;-;-;-;-
1514004127154;-;-;11.21373;7.051117;-7.649994;-;-;-;-;-;-;-;-;-;-;-;-;-;-;-
1514004127174;-;-;12.020584;6.352005;-4.3675385;-;-;-;-;-;-;-;-;-;-;-;-;-;-;-
1514004127195;-;-;11.425613;0.5676117;-6.09256;-;-;-;-;-;-;-;-;-;-;-;-;-;-;-
1514004127214;-;-;12.844177;-2.7411652;-4.045517;-;-;-;-;-;-;-;-;-;-;-;-;-;-;-
1514004127234;-;-;13.485825;-3.9861603;-3.7713776;-;-;-;-;-;-;-;-;-;-;-;-;-;-;-
1514004127255;-;-;11.961914;-2.38443;-4.736252;-;-;-;-;-;-;-;-;-;-;-;-;-;-;-
1514004127275;-;-;8.553772;-0.21887207;-4.0646667;-;-;-;-;-;-;-;-;-;-;-;-;-;-;-
1514004127296;-;-;6.4684296;1.6821136;-2.270218;-;-;-;-;-;-;-;-;-;-;-;-;-;-;-
1514004127315;-;-;4.774521;3.220398;-0.8935547;-;-;-;-;-;-;-;-;-;-;-;-;-;-;-
1514004127336;-;-;4.1280975;3.141388;-0.97735596;-;-;-;-;-;-;-;-;-;-;-;-;-;-;-
1514004127356;-;-;4.106552;2.1166687;-1.1988068;-;-;-;-;-;-;-;-;-;-;-;-;-;-;-
1514004127377;-;-;5.0534515;0.6669769;-1.3747864;-;-;-;-;-;-;-;-;-;-;-;-;-;-;-
1514004127397;-;-;6.7341766;-0.68814087;-1.1616974;-;-;-;-;-;-;-;-;-;-;-;-;-;-;-
1514004127418;-;-;7.8726196;-1.2352142;-1.4490051;-;-;-;-;-;-;-;-;-;-;-;-;-;-;-
1514004127438;-;-;8.074936;-1.4183655;-1.5854797;-;-;-;-;-;-;-;-;-;-;-;-;-;-;-
1514004127459;-;-;7.3782196;-0.41879272;-1.2095795;-;-;-;-;-;-;-;-;-;-;-;-;-;-;-
1514004127479;-;-;8.059372;2.0304718;0.053359985;-;-;-;-;-;-;-;-;-;-;-;-;-;-;-
1514004127500;-;-;9.1128235;3.024063;-0.50808716;-;-;-;-;-;-;-;-;-;-;-;-;-;-;-
1514004127520;-;-;9.426468;2.545227;-1.1964111;-;-;-;-;-;-;-;-;-;-;-;-;-;-;-
1514004127540;-;-;11.129929;1.540863;-0.60983276;-;-;-;-;-;-;-;-;-;-;-;-;-;-;-
1514004127561;-;-;13.797073;1.224823;0.3933258;-;-;-;-;-;-;-;-;-;-;-;-;-;-;-
1514004127581;-;-;15.736374;2.3656616;-0.5320282;-;-;-;-;-;-;-;-;-;-;-;-;-;-;-
1514004127602;-;-;16.546814;3.5867004;-5.6640015;-;-;-;-;-;-;-;-;-;-;-;-;-;-;-
1514004127622;-;-;17.008896;4.4641876;-5.5933685;-;-;-;-;-;-;-;-;-;-;-;-;-;-;-
1514004127642;-;-;11.406464;4.679657;-6.0386963;-;-;-;-;-;-;-;-;-;-;-;-;-;-;-
1514004127663;-;-;8.285629;4.3372955;-6.053055;-;-;-;-;-;-;-;-;-;-;-;-;-;-;-
1514004127683;-;-;5.082184;3.335312;-6.868286;-;-;-;-;-;-;-;-;-;-;-;-;-;-;-
1514004127704;-;-;5.011551;0.9782257;-8.053406;-;-;-;-;-;-;-;-;-;-;-;-;-;-;-
1514004127724;-;-;8.061768;-1.0855713;-7.1531982;-;-;-;-;-;-;-;-;-;-;-;-;-;-;-
1514004127745;-;-;10.581665;-2.1773376;-4.3591614;-;-;-;-;-;-;-;-;-;-;-;-;-;-;-
1514004127765;-;-;10.20697;-1.9486847;-3.0399475;-;-;-;-;-;-;-;-;-;-;-;-;-;-;-
1514004127785;-;-;7.707428;-0.973053;-3.6971588;-;-;-;-;-;-;-;-;-;-;-;-;-;-;-
1514004127806;-;-;5.87706;-0.00579834;-3.484085;-;-;-;-;-;-;-;-;-;-;-;-;-;-;-
1514004127826;-;-;4.563843;0.2886963;-2.5934296;-;-;-;-;-;-;-;-;-;-;-;-;-;-;-
1514004127847;-;-;3.66362;-0.621109;-1.3256989;-;-;-;-;-;-;-;-;-;-;-;-;-;-;-
1514004127867;-;-;3.1716156;-2.5628052;-1.1497345;-;-;-;-;-;-;-;-;-;-;-;-;-;-;-
1514004127888;-;-;3.7917023;-4.443451;-2.4006958;-;-;-;-;-;-;-;-;-;-;-;-;-;-;-
1514004127908;-;-;6.1559753;-4.324936;-3.847992;-;-;-;-;-;-;-;-;-;-;-;-;-;-;-
1514004127929;-;-;7.075363;-2.502945;-4.022766;-;-;-;-;-;-;-;-;-;-;-;-;-;-;-
1514004127948;-;-;8.034241;-0.66300964;-3.6097717;-;-;-;-;-;-;-;-;-;-;-;-;-;-;-
1514004127969;-;-;7.845093;0.040893555;-3.1668396;-;-;-;-;-;-;-;-;-;-;-;-;-;-;-
1514004127989;-;-;8.914108;-0.58758545;-3.408661;-;-;-;-;-;-;-;-;-;-;-;-;-;-;-
1514004128010;-;-;8.666306;-1.5297089;-3.010025;-;-;-;-;-;-;-;-;-;-;-;-;-;-;-
1514004128030;-;-;9.459976;-1.9941711;-1.8512268;-;-;-;-;-;-;-;-;-;-;-;-;-;-;-
1514004128051;-;-;9.781998;-2.0995178;-2.286972;-;-;-;-;-;-;-;-;-;-;-;-;-;-;-
1514004128071;-;-;10.283585;-2.731598;-3.1895905;-;-;-;-;-;-;-;-;-;-;-;-;-;-;-
1514004128090;-;-;11.444778;-3.179306;-3.7797546;-;-;-;-;-;-;-;-;-;-;-;-;-;-;-
1514004128110;-;-;12.684967;-3.0021362;-4.457321;-;-;-;-;-;-;-;-;-;-;-;-;-;-;-
1514004128131;-;-;13.09198;-2.0707855;-6.6695557;-;-;-;-;-;-;-;-;-;-;-;-;-;-;-
1514004128151;-;-;11.411255;-2.5436401;-10.780411;-;-;-;-;-;-;-;-;-;-;-;-;-;-;-
1514004128172;-;-;13.396042;-3.8401031;-8.20784;-;-;-;-;-;-;-;-;-;-;-;-;-;-;-
1514004128191;-;-;13.491821;-3.2523346;-2.3037415;-;-;-;-;-;-;-;-;-;-;-;-;-;-;-
1514004128212;-;-;8.356247;-2.5927277;-6.437332;-;-;-;-;-;-;-;-;-;-;-;-;-;-;-
1514004128231;-;-;5.6496124;-2.0468445;-9.556976;-;-;-;-;-;-;-;-;-;-;-;-;-;-;-
1514004128252;-;-;6.7401733;-1.6134949;-6.6803436;-;-;-;-;-;-;-;-;-;-;-;-;-;-;-
1514004128272;-;-;6.8203735;-1.2388;-3.7953186;-;-;-;-;-;-;-;-;-;-;-;-;-;-;-
1514004128293;-;-;6.1033173;-1.4925995;-2.1313477;-;-;-;-;-;-;-;-;-;-;-;-;-;-;-
1514004128313;-;-;5.593338;-1.2819061;-1.4657593;-;-;-;-;-;-;-;-;-;-;-;-;-;-;-
1514004128334;-;-;5.0486603;-0.48942566;-2.1852264;-;-;-;-;-;-;-;-;-;-;-;-;-;-;-
1514004128354;-;-;5.4413147;-0.4774475;-3.2937317;-;-;-;-;-;-;-;-;-;-;-;-;-;-;-
1514004128375;-;-;4.975647;-0.30267334;-3.6947632;-;-;-;-;-;-;-;-;-;-;-;-;-;-;-
1514004128395;-;-;4.09816;1.0081482;-4.2526093;-;-;-;-;-;-;-;-;-;-;-;-;-;-;-
1514004128415;-;-;4.568619;2.1585693;-4.4908447;-;-;-;-;-;-;-;-;-;-;-;-;-;-;-
1514004128436;-;-;6.5234985;2.5548096;-4.417816;-;-;-;-;-;-;-;-;-;-;-;-;-;-;-
1514004128456;-;-;8.219788;1.3026428;-4.1927643;-;-;-;-;-;-;-;-;-;-;-;-;-;-;-
1514004128477;-;-;8.570541;0.21208191;-4.460907;-;-;-;-;-;-;-;-;-;-;-;-;-;-;-
1514004128497;-;-;7.604477;0.6238861;-3.001648;-;-;-;-;-;-;-;-;-;-;-;-;-;-;-
1514004128518;-;-;8.110855;1.5552216;-1.8596191;-;-;-;-;-;-;-;-;-;-;-;-;-;-;-
1514004128538;-;-;9.421677;1.6258545;-1.2263489;-;-;-;-;-;-;-;-;-;-;-;-;-;-;-
1514004128559;-;-;9.817917;0.8716736;-1.1281891;-;-;-;-;-;-;-;-;-;-;-;-;-;-;-
1514004128579;-;-;11.234085;1.0009613;-1.9314423;-;-;-;-;-;-;-;-;-;-;-;-;-;-;-
1514004128600;-;-;11.914032;1.8161926;-2.8615875;-;-;-;-;-;-;-;-;-;-;-;-;-;-;-
1514004128621;-;-;11.302322;2.7020416;-2.7658234;-;-;-;-;-;-;-;-;-;-;-;-;-;-;-
1514004128641;-;-;9.985504;2.9199219;-8.429306;-;-;-;-;-;-;-;-;-;-;-;-;-;-;-
1514004128661;-;-;11.673416;3.690857;-8.387405;-;-;-;-;-;-;-;-;-;-;-;-;-;-;-
1514004128682;-;-;10.703766;4.106247;-7.620056;-;-;-;-;-;-;-;-;-;-;-;-;-;-;-
1514004128702;-;-;9.31633;1.9227295;-7.132843;-;-;-;-;-;-;-;-;-;-;-;-;-;-;-
1514004128723;-;-;7.408142;0.4694519;-7.029892;-;-;-;-;-;-;-;-;-;-;-;-;-;-;-
1514004128742;-;-;4.952896;-0.18536377;-6.816803;-;-;-;-;-;-;-;-;-;-;-;-;-;-;-
1514004128762;-;-;4.0682373;-1.4878082;-5.2653656;-;-;-;-;-;-;-;-;-;-;-;-;-;-;-
1514004128782;-;-;6.153595;-2.574768;-2.271408;-;-;-;-;-;-;-;-;-;-;-;-;-;-;-
1514004128803;-;-;7.778061;-1.3405609;-2.737091;-;-;-;-;-;-;-;-;-;-;-;-;-;-;-
1514004128823;-;-;7.9025574;0.4514923;-3.6756134;-;-;-;-;-;-;-;-;-;-;-;-;-;-;-
1514004128844;-;-;7.185486;0.83935547;-4.03833;-;-;-;-;-;-;-;-;-;-;-;-;-;-;-
1514004128863;-;-;5.6268616;-0.29190063;-3.1824036;-;-;-;-;-;-;-;-;-;-;-;-;-;-;-
1514004128883;-;-;3.7282562;-2.032486;-1.950592;-;-;-;-;-;-;-;-;-;-;-;-;-;-;-
1514004128904;-;-;2.7646027;-3.7742615;-1.6573029;-;-;-;-;-;-;-;-;-;-;-;-;-;-;-
1514004128925;-;-;3.7282562;-4.594284;-2.0715027;-;-;-;-;-;-;-;-;-;-;-;-;-;-;-
1514004128945;-;-;7.145981;-3.4761963;-2.5371704;-;-;-;-;-;-;-;-;-;-;-;-;-;-;-
1514004128965;-;-;8.441254;-1.9606628;-3.6923676;-;-;-;-;-;-;-;-;-;-;-;-;-;-;-
1514004128985;-;-;8.575317;-1.067627;-5.070236;-;-;-;-;-;-;-;-;-;-;-;-;-;-;-
1514004129005;-;-;8.736938;-1.5608215;-5.24382;-;-;-;-;-;-;-;-;-;-;-;-;-;-;-
1514004129026;-;-;11.308304;-1.9738312;-4.4788666;-;-;-;-;-;-;-;-;-;-;-;-;-;-;-
1514004129046;-;-;11.879318;-1.2435913;-3.7498322;-;-;-;-;-;-;-;-;-;-;-;-;-;-;-
1514004129066;-;-;10.846222;-2.142624;-3.1907806;-;-;-;-;-;-;-;-;-;-;-;-;-;-;-
1514004129087;-;-;11.454346;-2.6645508;-3.8970795;-;-;-;-;-;-;-;-;-;-;-;-;-;-;-
1514004129106;-;-;13.130295;-2.080368;-4.8032837;-;-;-;-;-;-;-;-;-;-;-;-;-;-;-
1514004129127;-;-;12.239655;-2.281479;-7.266922;-;-;-;-;-;-;-;-;-;-;-;-;-;-;-
1514004129146;-;-;10.728912;-3.8209534;-10.276428;-;-;-;-;-;-;-;-;-;-;-;-;-;-;-
