TimeStamp[ms];Prox[Cm];Lux[lux];AccX[m/s^2];AccY[m/s^2];AccZ[m/s^2];GyroX[rad/s];GyroY[rad/s];GyroZ[rad/s];MagnX[uT];MagnY[uT];MagnZ[uT];OrienYaw[degrees];OrienPitch[degrees];OrienRoll[degrees];Press[Pa];Temp[C°];Batt[%];Lat;Lng;Speed[m/s]
1514004174380;-;-;9.020645;-1.5931549;0.19221497;-;-;-;-;-;-;-;-;-;-;-;-;-;-;-
1514004174380;-;-;9.020645;-1.5931549;0.19221497;-;-;-;-;-;-;-;-;-;-;-;-;-;-;-
1514004174387;-;-;8.917694;-1.783493;0.15151978;-;-;-;-;-;-;-;-;-;-;-;-;-;-;-
1514004174407;-;-;8.853058;-1.9450989;-0.18247986;-;-;-;-;-;-;-;-;-;-;-;-;-;-;-
1514004174428;-;-;9.099655;-1.5847626;0.4472046;-;-;-;-;-;-;-;-;-;-;-;-;-;-;-
1514004174448;-;-;9.222961;-0.7851105;-1.3017578;-;-;-;-;-;-;-;-;-;-;-;-;-;-;-
1514004174469;-;-;9.410904;-0.8856659;-0.051986694;-;-;-;-;-;-;-;-;-;-;-;-;-;-;-
1514004174489;-;-;9.3498535;-1.0688171;-0.19923401;-;-;-;-;-;-;-;-;-;-;-;-;-;-;-
1514004174509;-;-;9.109222;-1.4087982;-0.30577087;-;-;-;-;-;-;-;-;-;-;-;-;-;-;-
1514004174530;-;-;9.254074;-1.3860474;-0.5140686;-;-;-;-;-;-;-;-;-;-;-;-;-;-;-
1514004174551;-;-;8.867416;-1.2471924;-0.28901672;-;-;-;-;-;-;-;-;-;-;-;-;-;-;-
1514004174570;-;-;8.728546;-1.186142;-0.33929443;-;-;-;-;-;-;-;-;-;-;-;-;-;-;-
1514004174590;-;-;8.474762;-1.5105438;-0.13339233;-;-;-;-;-;-;-;-;-;-;-;-;-;-;-
1514004174617;-;-;8.759674;-2.0528412;-0.26986694;-;-;-;-;-;-;-;-;-;-;-;-;-;-;-
1514004174631;-;-;9.185837;-1.6374359;-1.0384064;-;-;-;-;-;-;-;-;-;-;-;-;-;-;-
1514004174652;-;-;8.753693;-1.7822876;0.23052979;-;-;-;-;-;-;-;-;-;-;-;-;-;-;-
1514004174672;-;-;9.9783325;-1.1226959;-1.5495605;-;-;-;-;-;-;-;-;-;-;-;-;-;-;-
1514004174693;-;-;9.324707;-1.3537292;0.074905396;-;-;-;-;-;-;-;-;-;-;-;-;-;-;-
1514004174714;-;-;9.963959;-1.3525391;-0.8935547;-;-;-;-;-;-;-;-;-;-;-;-;-;-;-
1514004174733;-;-;9.96994;-1.6386414;-0.7283478;-;-;-;-;-;-;-;-;-;-;-;-;-;-;-
1514004174753;-;-;10.054947;-2.0300903;-3.8887024;-;-;-;-;-;-;-;-;-;-;-;-;-;-;-
1514004174774;-;-;9.676651;-1.1813507;0.61239624;-;-;-;-;-;-;-;-;-;-;-;-;-;-;-
1514004174794;-;-;9.210983;-0.6222992;-0.49971008;-;-;-;-;-;-;-;-;-;-;-;-;-;-;-
1514004174814;-;-;7.9276886;-0.60913086;-1.2945862;-;-;-;-;-;-;-;-;-;-;-;-;-;-;-
1514004174835;-;-;8.3502655;-0.42358398;-1.377182;-;-;-;-;-;-;-;-;-;-;-;-;-;-;-
1514004174856;-;-;9.234924;-0.35295105;-1.2897949;-;-;-;-;-;-;-;-;-;-;-;-;-;-;-
1514004174876;-;-;8.4448395;-0.51934814;-1.7207489;-;-;-;-;-;-;-;-;-;-;-;-;-;-;-
1514004174897;-;-;9.178665;0.30186462;-2.0272064;-;-;-;-;-;-;-;-;-;-;-;-;-;-;-
1514004174917;-;-;8.884171;-0.026138306;-1.2071991;-;-;-;-;-;-;-;-;-;-;-;-;-;-;-
1514004174937;-;-;8.783615;-1.9594574;-1.8739777;-;-;-;-;-;-;-;-;-;-;-;-;-;-;-
1514004174958;-;-;9.477936;1.8173981;-1.6860352;-;-;-;-;-;-;-;-;-;-;-;-;-;-;-
1514004174977;-;-;9.252884;1.1829224;-1.5375977;-;-;-;-;-;-;-;-;-;-;-;-;-;-;-
1514004174998;-;-;9.146347;1.3505249;-2.0164337;-;-;-;-;-;-;-;-;-;-;-;-;-;-;-
1514004175019;-;-;10.900085;1.853302;-1.0934601;-;-;-;-;-;-;-;-;-;-;-;-;-;-;-
1514004175039;-;-;9.73053;1.6677551;-1.0156555;-;-;-;-;-;-;-;-;-;-;-;-;-;-;-
1514004175059;-;-;8.593277;2.5631866;-0.6086426;-;-;-;-;-;-;-;-;-;-;-;-;-;-;-
1514004175080;-;-;10.531387;2.0855408;-0.028045654;-;-;-;-;-;-;-;-;-;-;-;-;-;-;-
1514004175100;-;-;9.178665;1.7814789;-0.36083984;-;-;-;-;-;-;-;-;-;-;-;-;-;-;-
1514004175121;-;-;7.825943;1.2475739;0.14553833;-;-;-;-;-;-;-;-;-;-;-;-;-;-;-
1514004175141;-;-;8.797989;0.83695984;0.1251831;-;-;-;-;-;-;-;-;-;-;-;-;-;-;-
1514004175162;-;-;8.884171;0.71965027;0.29397583;-;-;-;-;-;-;-;-;-;-;-;-;-;-;-
1514004175182;-;-;9.185837;0.5771942;0.24369812;-;-;-;-;-;-;-;-;-;-;-;-;-;-;-
1514004175203;-;-;8.695038;0.8010559;0.21975708;-;-;-;-;-;-;-;-;-;-;-;-;-;-;-
1514004175223;-;-;8.356247;1.0560303;0.3885498;-;-;-;-;-;-;-;-;-;-;-;-;-;-;-
1514004175244;-;-;8.607651;1.6246643;0.9463959;-;-;-;-;-;-;-;-;-;-;-;-;-;-;-
1514004175265;-;-;8.60405;1.5635986;1.1439209;-;-;-;-;-;-;-;-;-;-;-;-;-;-;-
1514004175285;-;-;8.410126;1.3636932;-0.17408752;-;-;-;-;-;-;-;-;-;-;-;-;-;-;-
1514004175306;-;-;9.037399;0.33299255;-1.1233978;-;-;-;-;-;-;-;-;-;-;-;-;-;-;-
1514004175325;-;-;8.09169;-0.7982788;-1.3592224;-;-;-;-;-;-;-;-;-;-;-;-;-;-;-
1514004175345;-;-;10.179443;-1.779892;-1.8404541;-;-;-;-;-;-;-;-;-;-;-;-;-;-;-
1514004175366;-;-;12.83461;-0.97784424;-2.4653473;-;-;-;-;-;-;-;-;-;-;-;-;-;-;-
1514004175386;-;-;11.987061;1.6378326;-3.4936523;-;-;-;-;-;-;-;-;-;-;-;-;-;-;-
1514004175407;-;-;6.841919;1.9670258;-3.9006653;-;-;-;-;-;-;-;-;-;-;-;-;-;-;-
1514004175426;-;-;5.908188;-0.16381836;-4.551895;-;-;-;-;-;-;-;-;-;-;-;-;-;-;-
1514004175447;-;-;6.8993835;-3.0081177;-4.9840393;-;-;-;-;-;-;-;-;-;-;-;-;-;-;-
1514004175467;-;-;9.61441;-4.1657257;-5.1540375;-;-;-;-;-;-;-;-;-;-;-;-;-;-;-
1514004175488;-;-;13.186554;-2.2599335;-3.7701874;-;-;-;-;-;-;-;-;-;-;-;-;-;-;-
1514004175508;-;-;14.69371;-0.100372314;-3.0363617;-;-;-;-;-;-;-;-;-;-;-;-;-;-;-
1514004175529;-;-;12.798691;1.0428619;-2.4713287;-;-;-;-;-;-;-;-;-;-;-;-;-;-;-
1514004175549;-;-;9.416885;-0.5756073;-2.8268738;-;-;-;-;-;-;-;-;-;-;-;-;-;-;-
1514004175570;-;-;6.791641;-2.2635193;-2.345642;-;-;-;-;-;-;-;-;-;-;-;-;-;-;-
1514004175590;-;-;4.6177063;-2.909958;-1.5184326;-;-;-;-;-;-;-;-;-;-;-;-;-;-;-
1514004175611;-;-;4.1448517;-2.8764343;-0.97735596;-;-;-;-;-;-;-;-;-;-;-;-;-;-;-
1514004175631;-;-;5.5993347;-2.6190643;-1.7937775;-;-;-;-;-;-;-;-;-;-;-;-;-;-;-
1514004175652;-;-;7.889389;-2.6226501;-3.2099457;-;-;-;-;-;-;-;-;-;-;-;-;-;-;-
1514004175673;-;-;10.181839;-2.5783691;-3.803711;-;-;-;-;-;-;-;-;-;-;-;-;-;-;-
1514004175693;-;-;12.107971;-2.5927277;-3.5307617;-;-;-;-;-;-;-;-;-;-;-;-;-;-;-
1514004175714;-;-;11.186203;-2.265915;-2.9669342;-;-;-;-;-;-;-;-;-;-;-;-;-;-;-
1514004175735;-;-;10.009445;-2.4131622;-2.3755646;-;-;-;-;-;-;-;-;-;-;-;-;-;-;-
1514004175754;-;-;8.547791;-3.0703735;-1.7746124;-;-;-;-;-;-;-;-;-;-;-;-;-;-;-
1514004175775;-;-;7.367447;-3.416336;-1.4023132;-;-;-;-;-;-;-;-;-;-;-;-;-;-;-
1514004175795;-;-;6.814392;-3.1421967;-1.0228424;-;-;-;-;-;-;-;-;-;-;-;-;-;-;-
1514004175816;-;-;6.92572;-2.471817;-0.80856323;-;-;-;-;-;-;-;-;-;-;-;-;-;-;-
1514004175836;-;-;7.0095215;-1.7056732;-0.9234772;-;-;-;-;-;-;-;-;-;-;-;-;-;-;-
1514004175856;-;-;7.3470917;-1.1801453;-1.5938568;-;-;-;-;-;-;-;-;-;-;-;-;-;-;-
1514004175877;-;-;7.4057617;-1.6589966;-2.0307922;-;-;-;-;-;-;-;-;-;-;-;-;-;-;-
1514004175897;-;-;8.186264;-2.3437347;-1.7207489;-;-;-;-;-;-;-;-;-;-;-;-;-;-;-
1514004175918;-;-;9.003891;-2.8369446;-1.4585876;-;-;-;-;-;-;-;-;-;-;-;-;-;-;-
1514004175937;-;-;10.190216;-3.1326141;-1.2610626;-;-;-;-;-;-;-;-;-;-;-;-;-;-;-
1514004175958;-;-;11.677017;-3.131424;-1.3592224;-;-;-;-;-;-;-;-;-;-;-;-;-;-;-
1514004175978;-;-;13.660614;-2.5472412;-2.0643158;-;-;-;-;-;-;-;-;-;-;-;-;-;-;-
1514004175999;-;-;14.577591;-2.9865723;-4.5303497;-;-;-;-;-;-;-;-;-;-;-;-;-;-;-
1514004176019;-;-;14.854111;-4.2734528;-6.236206;-;-;-;-;-;-;-;-;-;-;-;-;-;-;-
1514004176040;-;-;16.935883;-3.4893646;-5.3395844;-;-;-;-;-;-;-;-;-;-;-;-;-;-;-
1514004176059;-;-;14.727219;-2.4993591;-5.101364;-;-;-;-;-;-;-;-;-;-;-;-;-;-;-
1514004176079;-;-;10.142334;-2.2683105;-6.401413;-;-;-;-;-;-;-;-;-;-;-;-;-;-;-
1514004176100;-;-;6.553421;-2.8489075;-8.461624;-;-;-;-;-;-;-;-;-;-;-;-;-;-;-
1514004176120;-;-;4.699112;-2.918335;-9.276855;-;-;-;-;-;-;-;-;-;-;-;-;-;-;-
1514004176141;-;-;4.758972;-2.324585;-6.4086;-;-;-;-;-;-;-;-;-;-;-;-;-;-;-
1514004176161;-;-;6.3977966;-0.8928528;-3.9629211;-;-;-;-;-;-;-;-;-;-;-;-;-;-;-
1514004176181;-;-;7.8235474;0.064834595;-4.0706635;-;-;-;-;-;-;-;-;-;-;-;-;-;-;-
1514004176202;-;-;8.635178;0.05885315;-4.3328247;-;-;-;-;-;-;-;-;-;-;-;-;-;-;-
1514004176222;-;-;8.757278;-1.1574097;-4.4633026;-;-;-;-;-;-;-;-;-;-;-;-;-;-;-
1514004176243;-;-;8.1922455;-2.1138916;-4.076645;-;-;-;-;-;-;-;-;-;-;-;-;-;-;-
1514004176264;-;-;7.1316223;-2.0456543;-3.4062653;-;-;-;-;-;-;-;-;-;-;-;-;-;-;-
1514004176283;-;-;5.8567047;-1.1454315;-3.5056305;-;-;-;-;-;-;-;-;-;-;-;-;-;-;-
1514004176303;-;-;4.581787;-0.22964478;-3.7139282;-;-;-;-;-;-;-;-;-;-;-;-;-;-;-
1514004176324;-;-;4.0658417;0.56881714;-3.6576538;-;-;-;-;-;-;-;-;-;-;-;-;-;-;-
1514004176345;-;-;5.019928;0.7986603;-3.2662048;-;-;-;-;-;-;-;-;-;-;-;-;-;-;-
1514004176365;-;-;5.8710785;0.4766388;-2.9034882;-;-;-;-;-;-;-;-;-;-;-;-;-;-;-
1514004176386;-;-;6.8838196;0.6035309;-2.8077087;-;-;-;-;-;-;-;-;-;-;-;-;-;-;-
1514004176406;-;-;6.7138367;2.137024;-2.0774841;-;-;-;-;-;-;-;-;-;-;-;-;-;-;-
1514004176427;-;-;6.8945923;2.8468933;-0.43865967;-;-;-;-;-;-;-;-;-;-;-;-;-;-;-
1514004176446;-;-;7.415329;2.734375;-0.7858124;-;-;-;-;-;-;-;-;-;-;-;-;-;-;-
1514004176466;-;-;8.102463;2.4386902;-1.6968079;-;-;-;-;-;-;-;-;-;-;-;-;-;-;-
1514004176486;-;-;9.431244;2.160965;-2.4701385;-;-;-;-;-;-;-;-;-;-;-;-;-;-;-
1514004176507;-;-;10.479904;1.5252991;-3.2973328;-;-;-;-;-;-;-;-;-;-;-;-;-;-;-
1514004176527;-;-;11.271194;0.9135742;-2.8711548;-;-;-;-;-;-;-;-;-;-;-;-;-;-;-
1514004176548;-;-;12.268372;0.6633911;-2.0272064;-;-;-;-;-;-;-;-;-;-;-;-;-;-;-
1514004176569;-;-;12.659836;0.5664215;-2.0068512;-;-;-;-;-;-;-;-;-;-;-;-;-;-;-
1514004176589;-;-;11.660248;3.1066742;-6.0231323;-;-;-;-;-;-;-;-;-;-;-;-;-;-;-
1514004176609;-;-;13.204514;5.055542;-4.307678;-;-;-;-;-;-;-;-;-;-;-;-;-;-;-
1514004176630;-;-;12.653839;3.589096;-6.3092346;-;-;-;-;-;-;-;-;-;-;-;-;-;-;-
1514004176651;-;-;11.45195;0.47424316;-6.4828186;-;-;-;-;-;-;-;-;-;-;-;-;-;-;-
1514004176671;-;-;7.973175;-0.109939575;-5.918976;-;-;-;-;-;-;-;-;-;-;-;-;-;-;-
1514004176692;-;-;5.7010803;-1.0233307;-4.3675385;-;-;-;-;-;-;-;-;-;-;-;-;-;-;-
1514004176711;-;-;5.320404;-2.7447662;-3.5223846;-;-;-;-;-;-;-;-;-;-;-;-;-;-;-
1514004176732;-;-;7.2477417;-3.6820831;-4.2370605;-;-;-;-;-;-;-;-;-;-;-;-;-;-;-
1514004176752;-;-;9.540192;-1.7368011;-4.579422;-;-;-;-;-;-;-;-;-;-;-;-;-;-;-
1514004176773;-;-;8.001907;-0.16500854;-2.5323792;-;-;-;-;-;-;-;-;-;-;-;-;-;-;-
1514004176793;-;-;7.7768555;0.081588745;-2.7718048;-;-;-;-;-;-;-;-;-;-;-;-;-;-;-
1514004176814;-;-;7.930084;-0.12908936;-3.4505615;-;-;-;-;-;-;-;-;-;-;-;-;-;-;-
1514004176834;-;-;7.1004944;-0.62828064;-3.1476898;-;-;-;-;-;-;-;-;-;-;-;-;-;-;-
1514004176855;-;-;6.2780914;-1.9103851;-2.39711;-;-;-;-;-;-;-;-;-;-;-;-;-;-;-
1514004176875;-;-;5.023529;-2.5699768;-2.6389313;-;-;-;-;-;-;-;-;-;-;-;-;-;-;-
1514004176895;-;-;4.67157;-2.2970428;-3.0375519;-;-;-;-;-;-;-;-;-;-;-;-;-;-;-
1514004176916;-;-;4.6153107;-1.6134949;-3.6241455;-;-;-;-;-;-;-;-;-;-;-;-;-;-;-
1514004176937;-;-;4.2023163;-1.0233307;-3.496048;-;-;-;-;-;-;-;-;-;-;-;-;-;-;-
1514004176956;-;-;4.508774;-0.71328735;-3.0052338;-;-;-;-;-;-;-;-;-;-;-;-;-;-;-
1514004176977;-;-;5.5598297;-0.8569336;-2.8065186;-;-;-;-;-;-;-;-;-;-;-;-;-;-;-
1514004176997;-;-;7.573349;-1.3680878;-2.468933;-;-;-;-;-;-;-;-;-;-;-;-;-;-;-
1514004177018;-;-;11.290344;-2.4011993;-1.8069458;-;-;-;-;-;-;-;-;-;-;-;-;-;-;-
1514004177037;-;-;13.369705;-3.108673;-1.7602539;-;-;-;-;-;-;-;-;-;-;-;-;-;-;-
1514004177058;-;-;15.517303;-4.6912537;-2.7634277;-;-;-;-;-;-;-;-;-;-;-;-;-;-;-
1514004177078;-;-;14.7344055;-4.0891113;-3.646881;-;-;-;-;-;-;-;-;-;-;-;-;-;-;-
1514004177099;-;-;13.39006;-3.2128296;-3.5403442;-;-;-;-;-;-;-;-;-;-;-;-;-;-;-
1514004177120;-;-;10.941986;-2.6334229;-5.771744;-;-;-;-;-;-;-;-;-;-;-;-;-;-;-
1514004177139;-;-;7.67511;-3.7239838;-8.695053;-;-;-;-;-;-;-;-;-;-;-;-;-;-;-
1514004177160;-;-;10.4823;-4.0436096;-5.5023956;-;-;-;-;-;-;-;-;-;-;-;-;-;-;-
1514004177180;-;-;13.472656;-1.0975494;-4.990036;-;-;-;-;-;-;-;-;-;-;-;-;-;-;-
1514004177200;-;-;7.890579;0.098358154;-10.051376;-;-;-;-;-;-;-;-;-;-;-;-;-;-;-
1514004177220;-;-;5.5358887;1.6737366;-9.767654;-;-;-;-;-;-;-;-;-;-;-;-;-;-;-
1514004177241;-;-;6.983185;1.2918701;-5.899826;-;-;-;-;-;-;-;-;-;-;-;-;-;-;-
1514004177262;-;-;9.279221;-0.11831665;-3.5846405;-;-;-;-;-;-;-;-;-;-;-;-;-;-;-
1514004177283;-;-;9.991501;-1.5033722;-2.014038;-;-;-;-;-;-;-;-;-;-;-;-;-;-;-
1514004177303;-;-;6.6384125;-2.5065308;-1.5435791;-;-;-;-;-;-;-;-;-;-;-;-;-;-;-
1514004177324;-;-;4.332794;-3.1493835;-1.1269836;-;-;-;-;-;-;-;-;-;-;-;-;-;-;-
1514004177344;-;-;3.224289;-3.0536194;-1.0479736;-;-;-;-;-;-;-;-;-;-;-;-;-;-;-
1514004177365;-;-;2.5622864;-1.3345795;-1.9781189;-;-;-;-;-;-;-;-;-;-;-;-;-;-;-
1514004177386;-;-;1.9768982;1.5995178;-3.1536713;-;-;-;-;-;-;-;-;-;-;-;-;-;-;-
1514004177406;-;-;1.833252;3.7267609;-3.2087402;-;-;-;-;-;-;-;-;-;-;-;-;-;-;-
1514004177426;-;-;5.320404;4.368408;-3.36557;-;-;-;-;-;-;-;-;-;-;-;-;-;-;-
1514004177447;-;-;9.128387;3.1042786;-4.211914;-;-;-;-;-;-;-;-;-;-;-;-;-;-;-
1514004177467;-;-;10.309921;1.6150818;-4.1149445;-;-;-;-;-;-;-;-;-;-;-;-;-;-;-
1514004177488;-;-;8.84227;0.809433;-4.662018;-;-;-;-;-;-;-;-;-;-;-;-;-;-;-
1514004177508;-;-;10.215347;0.5556488;-4.6536407;-;-;-;-;-;-;-;-;-;-;-;-;-;-;-
1514004177529;-;-;12.564056;0.35214233;-4.129318;-;-;-;-;-;-;-;-;-;-;-;-;-;-;-
1514004177549;-;-;12.562866;1.1494141;-2.8113098;-;-;-;-;-;-;-;-;-;-;-;-;-;-;-
1514004177569;-;-;13.008194;2.0149078;-2.9358063;-;-;-;-;-;-;-;-;-;-;-;-;-;-;-
1514004177590;-;-;13.405624;2.706833;-3.176422;-;-;-;-;-;-;-;-;-;-;-;-;-;-;-
1514004177611;-;-;11.672226;2.1501923;-2.7263184;-;-;-;-;-;-;-;-;-;-;-;-;-;-;-
1514004177631;-;-;9.195419;0.7447815;-3.393097;-;-;-;-;-;-;-;-;-;-;-;-;-;-;-
1514004177652;-;-;4.9732513;0.77111816;-10.167496;-;-;-;-;-;-;-;-;-;-;-;-;-;-;-
1514004177672;-;-;4.525528;1.4031982;-8.635208;-;-;-;-;-;-;-;-;-;-;-;-;-;-;-
1514004177693;-;-;9.617996;2.2495422;-7.0083466;-;-;-;-;-;-;-;-;-;-;-;-;-;-;-
1514004177713;-;-;10.552933;0.3138275;-8.7513275;-;-;-;-;-;-;-;-;-;-;-;-;-;-;-
1514004177734;-;-;9.816711;-0.80307007;-9.165512;-;-;-;-;-;-;-;-;-;-;-;-;-;-;-
1514004177754;-;-;6.4887695;-1.4016113;-7.7505493;-;-;-;-;-;-;-;-;-;-;-;-;-;-;-
1514004177775;-;-;7.5206757;-2.7543335;-4.175995;-;-;-;-;-;-;-;-;-;-;-;-;-;-;-
1514004177795;-;-;9.085281;-2.0983276;-2.4904785;-;-;-;-;-;-;-;-;-;-;-;-;-;-;-
1514004177816;-;-;5.7010803;-0.23085022;-2.4545746;-;-;-;-;-;-;-;-;-;-;-;-;-;-;-
1514004177836;-;-;2.8316345;1.2308044;-1.4286499;-;-;-;-;-;-;-;-;-;-;-;-;-;-;-
1514004177857;-;-;1.6979828;0.98301697;-1.729126;-;-;-;-;-;-;-;-;-;-;-;-;-;-;-
1514004177878;-;-;1.2466736;-0.7779236;-2.4378052;-;-;-;-;-;-;-;-;-;-;-;-;-;-;-
1514004177898;-;-;1.5124207;-3.2212067;-4.3172607;-;-;-;-;-;-;-;-;-;-;-;-;-;-;-
1514004177919;-;-;3.066269;-4.5847015;-5.057068;-;-;-;-;-;-;-;-;-;-;-;-;-;-;-
1514004177939;-;-;4.860718;-3.2068481;-4.883484;-;-;-;-;-;-;-;-;-;-;-;-;-;-;-
1514004177960;-;-;6.330765;-1.8792572;-5.204315;-;-;-;-;-;-;-;-;-;-;-;-;-;-;-
1514004177980;-;-;7.762497;-1.1095276;-4.7027283;-;-;-;-;-;-;-;-;-;-;-;-;-;-;-
1514004178001;-;-;9.384567;-1.3621063;-4.587799;-;-;-;-;-;-;-;-;-;-;-;-;-;-;-
1514004178021;-;-;12.566452;-2.4215393;-4.5734406;-;-;-;-;-;-;-;-;-;-;-;-;-;-;-
1514004178042;-;-;18.568726;-3.9059448;-4.931366;-;-;-;-;-;-;-;-;-;-;-;-;-;-;-
1514004178062;-;-;18.415497;-3.7610931;-6.2374115;-;-;-;-;-;-;-;-;-;-;-;-;-;-;-
1514004178083;-;-;16.17212;-0.63905334;-6.6252747;-;-;-;-;-;-;-;-;-;-;-;-;-;-;-
1514004178103;-;-;11.33345;1.6785278;-6.1775513;-;-;-;-;-;-;-;-;-;-;-;-;-;-;-
1514004178124;-;-;6.2709045;-0.7623596;-9.874207;-;-;-;-;-;-;-;-;-;-;-;-;-;-;-
1514004178144;-;-;3.749817;-4.2447205;-12.343826;-;-;-;-;-;-;-;-;-;-;-;-;-;-;-
1514004178165;-;-;5.632843;-5.2119904;-4.1269226;-;-;-;-;-;-;-;-;-;-;-;-;-;-;-
1514004178185;-;-;13.714478;-2.9207306;-2.3600006;-;-;-;-;-;-;-;-;-;-;-;-;-;-;-
1514004178206;-;-;9.805939;-2.1055145;-9.015884;-;-;-;-;-;-;-;-;-;-;-;-;-;-;-
1514004178227;-;-;9.515045;-1.3106384;-6.9257355;-;-;-;-;-;-;-;-;-;-;-;-;-;-;-
1514004178246;-;-;8.5849;-0.680954;-3.1812134;-;-;-;-;-;-;-;-;-;-;-;-;-;-;-
1514004178267;-;-;6.2074585;-0.20809937;-1.4382324;-;-;-;-;-;-;-;-;-;-;-;-;-;-;-
1514004178287;-;-;3.4780731;0.0013885498;-2.0008698;-;-;-;-;-;-;-;-;-;-;-;-;-;-;-
1514004178308;-;-;1.3568115;0.13426208;-2.7382813;-;-;-;-;-;-;-;-;-;-;-;-;-;-;-
1514004178328;-;-;2.236679;0.44551086;-3.9365845;-;-;-;-;-;-;-;-;-;-;-;-;-;-;-
1514004178349;-;-;3.861145;1.3182068;-4.349579;-;-;-;-;-;-;-;-;-;-;-;-;-;-;-
1514004178369;-;-;4.1292877;2.2459564;-4.796097;-;-;-;-;-;-;-;-;-;-;-;-;-;-;-
1514004178389;-;-;4.0454865;2.3812256;-4.6560364;-;-;-;-;-;-;-;-;-;-;-;-;-;-;-
1514004178410;-;-;6.0937347;1.4522705;-3.381134;-;-;-;-;-;-;-;-;-;-;-;-;-;-;-
1514004178430;-;-;7.8043976;0.75675964;-3.2362823;-;-;-;-;-;-;-;-;-;-;-;-;-;-;-
1514004178450;-;-;7.803192;0.074417114;-3.310501;-;-;-;-;-;-;-;-;-;-;-;-;-;-;-
1514004178471;-;-;7.462021;0.43234253;-2.1576843;-;-;-;-;-;-;-;-;-;-;-;-;-;-;-
1514004178491;-;-;7.4021606;1.4367065;-0.43026733;-;-;-;-;-;-;-;-;-;-;-;-;-;-;-
1514004178513;-;-;8.655533;1.8209839;-0.12261963;-;-;-;-;-;-;-;-;-;-;-;-;-;-;-
1514004178532;-;-;10.876144;1.6234589;-1.792572;-;-;-;-;-;-;-;-;-;-;-;-;-;-;-
1514004178553;-;-;13.299088;2.2507477;-2.7346954;-;-;-;-;-;-;-;-;-;-;-;-;-;-;-
1514004178572;-;-;13.629486;1.8245697;-1.6704712;-;-;-;-;-;-;-;-;-;-;-;-;-;-;-
1514004178592;-;-;11.516602;0.16778564;-7.5374603;-;-;-;-;-;-;-;-;-;-;-;-;-;-;-
1514004178613;-;-;9.723343;2.2423553;-10.79837;-;-;-;-;-;-;-;-;-;-;-;-;-;-;-
1514004178633;-;-;13.771942;3.5041046;-4.627304;-;-;-;-;-;-;-;-;-;-;-;-;-;-;-
1514004178653;-;-;13.014175;1.9203491;-6.2302246;-;-;-;-;-;-;-;-;-;-;-;-;-;-;-
1514004178674;-;-;8.582504;0.5736084;-7.5985107;-;-;-;-;-;-;-;-;-;-;-;-;-;-;-
1514004178695;-;-;5.8088226;0.53889465;-7.752945;-;-;-;-;-;-;-;-;-;-;-;-;-;-;-
1514004178715;-;-;4.0335236;-0.5672302;-5.1145325;-;-;-;-;-;-;-;-;-;-;-;-;-;-;-
1514004178736;-;-;8.848267;-2.7292023;-1.9098969;-;-;-;-;-;-;-;-;-;-;-;-;-;-;-
1514004178756;-;-;9.601242;-2.348526;-3.3799286;-;-;-;-;-;-;-;-;-;-;-;-;-;-;-
1514004178776;-;-;8.511871;-1.4231567;-4.2849426;-;-;-;-;-;-;-;-;-;-;-;-;-;-;-
1514004178797;-;-;8.1324005;-0.59716797;-4.0467224;-;-;-;-;-;-;-;-;-;-;-;-;-;-;-
1514004178816;-;-;6.4995575;-0.35534668;-4.1748047;-;-;-;-;-;-;-;-;-;-;-;-;-;-;-
1514004178837;-;-;3.936554;-0.9000244;-3.36557;-;-;-;-;-;-;-;-;-;-;-;-;-;-;-
1514004178856;-;-;2.576645;-1.6290588;-2.7586365;-;-;-;-;-;-;-;-;-;-;-;-;-;-;-
1514004178877;-;-;1.7446594;-2.7782745;-2.0978394;-;-;-;-;-;-;-;-;-;-;-;-;-;-;-
1514004178897;-;-;0.6648865;-3.526474;-1.5842743;-;-;-;-;-;-;-;-;-;-;-;-;-;-;-
1514004178918;-;-;3.287735;-2.7866516;-3.3033142;-;-;-;-;-;-;-;-;-;-;-;-;-;-;-
1514004178938;-;-;6.2900543;-1.5488586;-3.6875916;-;-;-;-;-;-;-;-;-;-;-;-;-;-;-
1514004178959;-;-;7.477585;-0.6438446;-3.998825;-;-;-;-;-;-;-;-;-;-;-;-;-;-;-
1514004178979;-;-;8.869812;-0.9862213;-4.662018;-;-;-;-;-;-;-;-;-;-;-;-;-;-;-
1514004179000;-;-;13.111145;-1.6757507;-4.642868;-;-;-;-;-;-;-;-;-;-;-;-;-;-;-
1514004179020;-;-;16.075165;-2.1294556;-2.8376465;-;-;-;-;-;-;-;-;-;-;-;-;-;-;-
1514004179040;-;-;15.291061;-4.3309174;-3.151291;-;-;-;-;-;-;-;-;-;-;-;-;-;-;-
1514004179061;-;-;14.739197;-3.9705963;-3.0315704;-;-;-;-;-;-;-;-;-;-;-;-;-;-;-
1514004179081;-;-;14.729614;-2.684906;-4.028763;-;-;-;-;-;-;-;-;-;-;-;-;-;-;-
1514004179102;-;-;11.123947;-1.8660889;-7.4225464;-;-;-;-;-;-;-;-;-;-;-;-;-;-;-
1514004179123;-;-;7.375824;-4.0352325;-12.076874;-;-;-;-;-;-;-;-;-;-;-;-;-;-;-
1514004179143;-;-;8.748901;-5.07193;-5.887863;-;-;-;-;-;-;-;-;-;-;-;-;-;-;-
1514004179163;-;-;12.013397;-0.96347046;-2.8627777;-;-;-;-;-;-;-;-;-;-;-;-;-;-;-
1514004179184;-;-;5.7956543;-0.71806335;-9.996307;-;-;-;-;-;-;-;-;-;-;-;-;-;-;-
1514004179204;-;-;6.4061737;-1.0053711;-10.116013;-;-;-;-;-;-;-;-;-;-;-;-;-;-;-
1514004179225;-;-;8.927277;-0.6941223;-5.4736633;-;-;-;-;-;-;-;-;-;-;-;-;-;-;-
1514004179246;-;-;7.605667;-0.124313354;-2.7346954;-;-;-;-;-;-;-;-;-;-;-;-;-;-;-
1514004179266;-;-;5.2832947;0.23602295;-1.3041534;-;-;-;-;-;-;-;-;-;-;-;-;-;-;-
1514004179287;-;-;4.4142;-0.41760254;-2.0643158;-;-;-;-;-;-;-;-;-;-;-;-;-;-;-
1514004179308;-;-;4.5913696;-0.8748932;-3.3751373;-;-;-;-;-;-;-;-;-;-;-;-;-;-;-
1514004179328;-;-;4.9493103;-1.1059265;-3.314087;-;-;-;-;-;-;-;-;-;-;-;-;-;-;-
1514004179349;-;-;4.125702;0.0049743652;-3.1716309;-;-;-;-;-;-;-;-;-;-;-;-;-;-;-
1514004179370;-;-;2.2845612;1.6150818;-3.0423431;-;-;-;-;-;-;-;-;-;-;-;-;-;-;-
1514004179390;-;-;3.2398376;1.6450043;-3.0315704;-;-;-;-;-;-;-;-;-;-;-;-;-;-;-
1514004179410;-;-;6.261322;1.2032776;-3.836029;-;-;-;-;-;-;-;-;-;-;-;-;-;-;-
1514004179430;-;-;8.826721;0.84773254;-4.942154;-;-;-;-;-;-;-;-;-;-;-;-;-;-;-
1514004179451;-;-;8.4292755;1.2451782;-4.6608276;-;-;-;-;-;-;-;-;-;-;-;-;-;-;-
1514004179471;-;-;9.448013;1.4678345;-3.1297302;-;-;-;-;-;-;-;-;-;-;-;-;-;-;-
1514004179491;-;-;10.573288;1.916748;-2.5575256;-;-;-;-;-;-;-;-;-;-;-;-;-;-;-
1514004179512;-;-;11.217331;1.5923309;-1.7422943;-;-;-;-;-;-;-;-;-;-;-;-;-;-;-
1514004179532;-;-;12.2994995;2.1860962;-2.6508942;-;-;-;-;-;-;-;-;-;-;-;-;-;-;-
1514004179552;-;-;13.3194275;2.7056427;-4.0155945;-;-;-;-;-;-;-;-;-;-;-;-;-;-;-
1514004179572;-;-;13.56604;2.37883;-3.7773743;-;-;-;-;-;-;-;-;-;-;-;-;-;-;-
1514004179593;-;-;11.425613;1.030899;-2.230713;-;-;-;-;-;-;-;-;-;-;-;-;-;-;-
1514004179612;-;-;8.924881;1.0177307;-8.012711;-;-;-;-;-;-;-;-;-;-;-;-;-;-;-
1514004179633;-;-;6.7222137;2.308197;-9.485138;-;-;-;-;-;-;-;-;-;-;-;-;-;-;-
1514004179652;-;-;10.010651;3.6884613;-5.127701;-;-;-;-;-;-;-;-;-;-;-;-;-;-;-
1514004179672;-;-;12.330627;2.2196198;-6.955673;-;-;-;-;-;-;-;-;-;-;-;-;-;-;-
1514004179693;-;-;8.951218;0.21566772;-8.013901;-;-;-;-;-;-;-;-;-;-;-;-;-;-;-
1514004179713;-;-;5.3778687;-1.0101624;-7.373459;-;-;-;-;-;-;-;-;-;-;-;-;-;-;-
1514004179734;-;-;4.9469147;-3.0811462;-3.5714722;-;-;-;-;-;-;-;-;-;-;-;-;-;-;-
1514004179754;-;-;6.7808685;-2.554428;1.207367;-;-;-;-;-;-;-;-;-;-;-;-;-;-;-
1514004179775;-;-;6.572571;-0.21170044;-2.187622;-;-;-;-;-;-;-;-;-;-;-;-;-;-;-
1514004179795;-;-;5.2234344;0.7040863;-3.2135315;-;-;-;-;-;-;-;-;-;-;-;-;-;-;-
1514004179816;-;-;3.7893066;0.94470215;-2.8723602;-;-;-;-;-;-;-;-;-;-;-;-;-;-;-
1514004179836;-;-;3.1907654;0.58677673;-2.8747559;-;-;-;-;-;-;-;-;-;-;-;-;-;-;-
1514004179857;-;-;2.0678864;-1.5991364;-3.2099457;-;-;-;-;-;-;-;-;-;-;-;-;-;-;-
1514004179877;-;-;2.750229;-4.5883026;-3.0435486;-;-;-;-;-;-;-;-;-;-;-;-;-;-;-
1514004179898;-;-;5.0857697;-5.7985687;-3.0662842;-;-;-;-;-;-;-;-;-;-;-;-;-;-;-
1514004179918;-;-;6.9305115;-3.783844;-3.1249542;-;-;-;-;-;-;-;-;-;-;-;-;-;-;-
1514004179939;-;-;7.7301636;-1.992981;-3.1428986;-;-;-;-;-;-;-;-;-;-;-;-;-;-;-
1514004179959;-;-;8.677078;-1.3872528;-2.2738037;-;-;-;-;-;-;-;-;-;-;-;-;-;-;-
1514004179980;-;-;9.9436035;-1.6290588;-2.3204956;-;-;-;-;-;-;-;-;-;-;-;-;-;-;-
1514004180000;-;-;13.09079;-1.577591;-2.8017273;-;-;-;-;-;-;-;-;-;-;-;-;-;-;-
1514004180022;-;-;11.839813;-1.7942657;-3.4457703;-;-;-;-;-;-;-;-;-;-;-;-;-;-;-
1514004180043;-;-;10.951569;-2.3509216;-2.8089142;-;-;-;-;-;-;-;-;-;-;-;-;-;-;-
1514004180063;-;-;10.212952;-2.8249664;-1.6261749;-;-;-;-;-;-;-;-;-;-;-;-;-;-;-
1514004180083;-;-;10.435623;-3.2990112;-1.5830841;-;-;-;-;-;-;-;-;-;-;-;-;-;-;-
1514004180103;-;-;12.050507;-2.5843506;-2.4821014;-;-;-;-;-;-;-;-;-;-;-;-;-;-;-
1514004180124;-;-;12.989029;-0.76594543;-3.2494507;-;-;-;-;-;-;-;-;-;-;-;-;-;-;-
1514004180144;-;-;10.692993;-1.4483032;-6.7725067;-;-;-;-;-;-;-;-;-;-;-;-;-;-;-
1514004180164;-;-;11.034164;-4.250717;-6.160797;-;-;-;-;-;-;-;-;-;-;-;-;-;-;-
1514004180185;-;-;16.79103;-4.8564453;-0.867218;-;-;-;-;-;-;-;-;-;-;-;-;-;-;-
1514004180206;-;-;12.65744;-3.5240784;-6.1105194;-;-;-;-;-;-;-;-;-;-;-;-;-;-;-
1514004180226;-;-;9.324707;-2.692093;-6.560623;-;-;-;-;-;-;-;-;-;-;-;-;-;-;-
1514004180246;-;-;6.546234;-2.0767822;-6.5498505;-;-;-;-;-;-;-;-;-;-;-;-;-;-;-
1514004180267;-;-;6.149994;-2.2671204;-7.345932;-;-;-;-;-;-;-;-;-;-;-;-;-;-;-
1514004180287;-;-;6.877838;-2.3712616;-5.539505;-;-;-;-;-;-;-;-;-;-;-;-;-;-;-
1514004180308;-;-;7.055008;-1.4447021;-3.5882263;-;-;-;-;-;-;-;-;-;-;-;-;-;-;-
1514004180328;-;-;6.5510254;0.086380005;-3.8791199;-;-;-;-;-;-;-;-;-;-;-;-;-;-;-
1514004180349;-;-;6.0650024;1.3529205;-3.748642;-;-;-;-;-;-;-;-;-;-;-;-;-;-;-
1514004180369;-;-;5.2701263;1.5085449;-4.077835;-;-;-;-;-;-;-;-;-;-;-;-;-;-;-
1514004180390;-;-;4.0335236;1.4367065;-3.3739471;-;-;-;-;-;-;-;-;-;-;-;-;-;-;-
1514004180409;-;-;3.2733612;1.5815582;-3.1548767;-;-;-;-;-;-;-;-;-;-;-;-;-;-;-
1514004180430;-;-;2.8555756;1.4690399;-3.1033936;-;-;-;-;-;-;-;-;-;-;-;-;-;-;-
1514004180450;-;-;3.1919556;0.9207611;-3.2446594;-;-;-;-;-;-;-;-;-;-;-;-;-;-;-
1514004180471;-;-;5.960861;0.2420044;-3.5187988;-;-;-;-;-;-;-;-;-;-;-;-;-;-;-
1514004180490;-;-;7.691864;0.055252075;-3.7462463;-;-;-;-;-;-;-;-;-;-;-;-;-;-;-
1514004180510;-;-;8.265274;0.4191742;-3.6923676;-;-;-;-;-;-;-;-;-;-;-;-;-;-;-
1514004180531;-;-;7.5470123;0.5927582;-3.1788177;-;-;-;-;-;-;-;-;-;-;-;-;-;-;-
1514004180551;-;-;7.406952;-0.26437378;-2.2223358;-;-;-;-;-;-;-;-;-;-;-;-;-;-;-
1514004180571;-;-;7.873825;-1.6314545;-1.3101501;-;-;-;-;-;-;-;-;-;-;-;-;-;-;-
1514004180592;-;-;8.541809;-2.502945;-0.9186859;-;-;-;-;-;-;-;-;-;-;-;-;-;-;-
1514004180613;-;-;9.480331;-2.6106873;-0.84088135;-;-;-;-;-;-;-;-;-;-;-;-;-;-;-
1514004180632;-;-;10.14473;-1.2843018;-1.1138153;-;-;-;-;-;-;-;-;-;-;-;-;-;-;-
1514004180653;-;-;9.887344;0.105529785;-1.4609833;-;-;-;-;-;-;-;-;-;-;-;-;-;-;-
1514004180674;-;-;9.199005;0.8632965;-1.6453247;-;-;-;-;-;-;-;-;-;-;-;-;-;-;-
1514004180694;-;-;7.715805;0.54966736;-1.1114197;-;-;-;-;-;-;-;-;-;-;-;-;-;-;-
1514004180714;-;-;7.758896;-0.59954834;0.8314667;-;-;-;-;-;-;-;-;-;-;-;-;-;-;-
1514004180735;-;-;8.953613;-1.1777496;-1.5459747;-;-;-;-;-;-;-;-;-;-;-;-;-;-;-
1514004180756;-;-;11.386108;0.5532532;-8.297623;-;-;-;-;-;-;-;-;-;-;-;-;-;-;-
1514004180775;-;-;12.528152;3.0827332;-11.435226;-;-;-;-;-;-;-;-;-;-;-;-;-;-;-
1514004180796;-;-;13.799469;5.802536;-6.5187225;-;-;-;-;-;-;-;-;-;-;-;-;-;-;-
1514004180816;-;-;11.23288;6.264618;-4.718292;-;-;-;-;-;-;-;-;-;-;-;-;-;-;-
1514004180837;-;-;5.8507233;1.5875549;-7.6380157;-;-;-;-;-;-;-;-;-;-;-;-;-;-;-
1514004180857;-;-;5.2066803;-1.5081482;-7.582947;-;-;-;-;-;-;-;-;-;-;-;-;-;-;-
1514004180878;-;-;7.059799;-4.4889374;-6.729416;-;-;-;-;-;-;-;-;-;-;-;-;-;-;-
1514004180898;-;-;11.314285;-3.0105133;-5.255783;-;-;-;-;-;-;-;-;-;-;-;-;-;-;-
1514004180919;-;-;10.260834;1.9502716;-7.493164;-;-;-;-;-;-;-;-;-;-;-;-;-;-;-
1514004180939;-;-;8.977554;2.9749908;-7.2381897;-;-;-;-;-;-;-;-;-;-;-;-;-;-;-
1514004180960;-;-;9.25528;0.9494934;-7.244171;-;-;-;-;-;-;-;-;-;-;-;-;-;-;-
1514004180981;-;-;7.782837;-1.2878876;-4.745819;-;-;-;-;-;-;-;-;-;-;-;-;-;-;-
1514004181001;-;-;5.923752;-2.8884125;-4.3447876;-;-;-;-;-;-;-;-;-;-;-;-;-;-;-
1514004181022;-;-;4.2430115;-2.9279175;-4.5973816;-;-;-;-;-;-;-;-;-;-;-;-;-;-;-
1514004181042;-;-;2.8435974;-2.3365479;-4.736252;-;-;-;-;-;-;-;-;-;-;-;-;-;-;-
1514004181063;-;-;4.23584;-1.7463837;-4.1388855;-;-;-;-;-;-;-;-;-;-;-;-;-;-;-
1514004181083;-;-;6.4001923;-2.230011;-4.7865295;-;-;-;-;-;-;-;-;-;-;-;-;-;-;-
1514004181103;-;-;6.798828;-2.684906;-4.641678;-;-;-;-;-;-;-;-;-;-;-;-;-;-;-
1514004181123;-;-;6.5905304;-2.8932037;-3.7127228;-;-;-;-;-;-;-;-;-;-;-;-;-;-;-
1514004181144;-;-;6.6862946;-2.7411652;-2.7550507;-;-;-;-;-;-;-;-;-;-;-;-;-;-;-
1514004181164;-;-;7.2118225;-2.3030243;-2.3719635;-;-;-;-;-;-;-;-;-;-;-;-;-;-;-
1514004181185;-;-;7.9468384;-2.3161926;-2.7945404;-;-;-;-;-;-;-;-;-;-;-;-;-;-;-
1514004181205;-;-;9.43364;-2.495758;-2.670044;-;-;-;-;-;-;-;-;-;-;-;-;-;-;-
1514004181226;-;-;9.977127;-3.0703735;-3.0531158;-;-;-;-;-;-;-;-;-;-;-;-;-;-;-
1514004181246;-;-;9.517441;-4.2399445;-4.9553223;-;-;-;-;-;-;-;-;-;-;-;-;-;-;-
1514004181267;-;-;9.598846;-4.333313;-3.764206;-;-;-;-;-;-;-;-;-;-;-;-;-;-;-
1514004181287;-;-;9.744888;-2.2204285;-2.9274292;-;-;-;-;-;-;-;-;-;-;-;-;-;-;-
1514004181308;-;-;7.8594513;-0.2859192;-7.9133453;-;-;-;-;-;-;-;-;-;-;-;-;-;-;-
1514004181328;-;-;7.588913;2.5045319;-13.12912;-;-;-;-;-;-;-;-;-;-;-;-;-;-;-
1514004181348;-;-;13.68335;4.9059143;-5.2569885;-;-;-;-;-;-;-;-;-;-;-;-;-;-;-
1514004181369;-;-;14.008957;4.225952;-5.230652;-;-;-;-;-;-;-;-;-;-;-;-;-;-;-
1514004181389;-;-;11.167053;1.288269;-5.769348;-;-;-;-;-;-;-;-;-;-;-;-;-;-;-
1514004181410;-;-;10.582855;-2.3114166;-4.6081543;-;-;-;-;-;-;-;-;-;-;-;-;-;-;-
1514004181429;-;-;10.341049;-3.7515259;-5.805252;-;-;-;-;-;-;-;-;-;-;-;-;-;-;-
1514004181450;-;-;9.609619;-2.317398;-5.049881;-;-;-;-;-;-;-;-;-;-;-;-;-;-;-
1514004181470;-;-;7.2106323;0.86569214;-3.661255;-;-;-;-;-;-;-;-;-;-;-;-;-;-;-
1514004181491;-;-;5.2940674;3.402359;-2.2019806;-;-;-;-;-;-;-;-;-;-;-;-;-;-;-
1514004181510;-;-;4.521942;4.796982;-2.2678223;-;-;-;-;-;-;-;-;-;-;-;-;-;-;-
1514004181530;-;-;5.110916;3.0647736;-2.6269531;-;-;-;-;-;-;-;-;-;-;-;-;-;-;-
1514004181551;-;-;5.5562286;1.4259338;-2.5144196;-;-;-;-;-;-;-;-;-;-;-;-;-;-;-
1514004181572;-;-;6.039856;-0.34217834;-2.0152283;-;-;-;-;-;-;-;-;-;-;-;-;-;-;-
1514004181592;-;-;7.2657013;-1.2005005;-1.8859406;-;-;-;-;-;-;-;-;-;-;-;-;-;-;-
1514004181612;-;-;8.021072;-0.9586792;-1.9589691;-;-;-;-;-;-;-;-;-;-;-;-;-;-;-
1514004181633;-;-;7.229782;-0.51934814;-1.4980927;-;-;-;-;-;-;-;-;-;-;-;-;-;-;-
1514004181653;-;-;6.328369;0.38327026;-0.67448425;-;-;-;-;-;-;-;-;-;-;-;-;-;-;-
1514004181673;-;-;6.1990814;1.2020874;-0.80496216;-;-;-;-;-;-;-;-;-;-;-;-;-;-;-
1514004181694;-;-;7.039444;2.0316772;-1.0671387;-;-;-;-;-;-;-;-;-;-;-;-;-;-;-
1514004181714;-;-;7.734955;2.0089264;-0.23155212;-;-;-;-;-;-;-;-;-;-;-;-;-;-;-
1514004181735;-;-;9.979523;1.4570618;0.21017456;-;-;-;-;-;-;-;-;-;-;-;-;-;-;-
1514004181756;-;-;13.560043;1.9406891;-0.07952881;-;-;-;-;-;-;-;-;-;-;-;-;-;-;-
1514004181776;-;-;16.522873;3.8991547;-1.8703918;-;-;-;-;-;-;-;-;-;-;-;-;-;-;-
1514004181796;-;-;15.827362;6.7602234;-4.733856;-;-;-;-;-;-;-;-;-;-;-;-;-;-;-
1514004181816;-;-;16.412735;7.4916534;-6.9006042;-;-;-;-;-;-;-;-;-;-;-;-;-;-;-
1514004181837;-;-;14.247192;5.8791504;-8.382614;-;-;-;-;-;-;-;-;-;-;-;-;-;-;-
1514004181856;-;-;10.259644;4.17807;-7.579361;-;-;-;-;-;-;-;-;-;-;-;-;-;-;-
1514004181877;-;-;5.4963837;3.0647736;-7.125656;-;-;-;-;-;-;-;-;-;-;-;-;-;-;-
1514004181896;-;-;3.0973969;0.6394501;-6.5642242;-;-;-;-;-;-;-;-;-;-;-;-;-;-;-
1514004181917;-;-;5.391037;-1.5991364;-7.4620514;-;-;-;-;-;-;-;-;-;-;-;-;-;-;-
1514004181938;-;-;8.606445;-1.7272186;-7.290863;-;-;-;-;-;-;-;-;-;-;-;-;-;-;-
1514004181958;-;-;9.457581;-0.7408142;-4.4980164;-;-;-;-;-;-;-;-;-;-;-;-;-;-;-
1514004181978;-;-;8.780029;-0.41879272;-4.1352997;-;-;-;-;-;-;-;-;-;-;-;-;-;-;-
1514004181999;-;-;7.683487;-0.48104858;-4.9181976;-;-;-;-;-;-;-;-;-;-;-;-;-;-;-
1514004182019;-;-;6.6467896;0.0061798096;-4.255005;-;-;-;-;-;-;-;-;-;-;-;-;-;-;-
1514004182040;-;-;5.8399506;0.038497925;-4.310074;-;-;-;-;-;-;-;-;-;-;-;-;-;-;-
1514004182060;-;-;5.098938;-0.93473816;-4.057495;-;-;-;-;-;-;-;-;-;-;-;-;-;-;-
1514004182081;-;-;4.872696;-2.535263;-3.8468018;-;-;-;-;-;-;-;-;-;-;-;-;-;-;-
1514004182101;-;-;5.708267;-3.871231;-3.7067413;-;-;-;-;-;-;-;-;-;-;-;-;-;-;-
1514004182122;-;-;6.4217377;-3.4306946;-3.496048;-;-;-;-;-;-;-;-;-;-;-;-;-;-;-
1514004182141;-;-;6.359482;-2.1138916;-3.353592;-;-;-;-;-;-;-;-;-;-;-;-;-;-;-
1514004182162;-;-;6.4564514;0.038497925;-3.3871155;-;-;-;-;-;-;-;-;-;-;-;-;-;-;-
1514004182182;-;-;6.1907043;0.9195709;-3.3871155;-;-;-;-;-;-;-;-;-;-;-;-;-;-;-
1514004182203;-;-;7.2070313;-0.3469696;-4.1783905;-;-;-;-;-;-;-;-;-;-;-;-;-;-;-
1514004182224;-;-;7.5829315;-2.4335175;-4.737442;-;-;-;-;-;-;-;-;-;-;-;-;-;-;-
1514004182244;-;-;8.3502655;-2.574768;-3.5762482;-;-;-;-;-;-;-;-;-;-;-;-;-;-;-
1514004182264;-;-;9.103241;-2.4550629;-3.9461517;-;-;-;-;-;-;-;-;-;-;-;-;-;-;-
1514004182284;-;-;10.426041;-2.269516;-5.7908936;-;-;-;-;-;-;-;-;-;-;-;-;-;-;-
1514004182305;-;-;13.242813;-1.3537292;-6.40979;-;-;-;-;-;-;-;-;-;-;-;-;-;-;-
1514004182326;-;-;13.13269;-0.0010070801;-6.9377136;-;-;-;-;-;-;-;-;-;-;-;-;-;-;-
1514004182346;-;-;8.250916;-1.902008;-12.41684;-;-;-;-;-;-;-;-;-;-;-;-;-;-;-
1514004182367;-;-;10.217743;-4.474579;-11.133545;-;-;-;-;-;-;-;-;-;-;-;-;-;-;-
1514004182386;-;-;14.372879;-3.7802582;-2.9429932;-;-;-;-;-;-;-;-;-;-;-;-;-;-;-
1514004182406;-;-;6.5558167;-2.6442108;-8.769272;-;-;-;-;-;-;-;-;-;-;-;-;-;-;-
1514004182426;-;-;6.268509;-2.4837952;-9.907715;-;-;-;-;-;-;-;-;-;-;-;-;-;-;-
1514004182447;-;-;6.2876587;-1.3501434;-6.1177063;-;-;-;-;-;-;-;-;-;-;-;-;-;-;-
1514004182467;-;-;5.0139465;0.32939148;-3.709137;-;-;-;-;-;-;-;-;-;-;-;-;-;-;-
1514004182488;-;-;4.264557;1.0440674;-1.6237793;-;-;-;-;-;-;-;-;-;-;-;-;-;-;-
1514004182509;-;-;4.4944;0.8441467;-2.3312683;-;-;-;-;-;-;-;-;-;-;-;-;-;-;-
1514004182529;-;-;5.8112183;0.8776703;-3.7618103;-;-;-;-;-;-;-;-;-;-;-;-;-;-;-
1514004182552;-;-;6.644394;-0.07762146;-4.673996;-;-;-;-;-;-;-;-;-;-;-;-;-;-;-
1514004182572;-;-;5.497574;-0.28112793;-4.27417;-;-;-;-;-;-;-;-;-;-;-;-;-;-;-
1514004182592;-;-;4.785309;0.6238861;-4.124527;-;-;-;-;-;-;-;-;-;-;-;-;-;-;-
1514004182612;-;-;5.0881653;0.93273926;-4.4824524;-;-;-;-;-;-;-;-;-;-;-;-;-;-;-
1514004182633;-;-;5.568207;1.0775757;-5.1336823;-;-;-;-;-;-;-;-;-;-;-;-;-;-;-
1514004182653;-;-;6.4995575;1.1506042;-4.5099945;-;-;-;-;-;-;-;-;-;-;-;-;-;-;-
1514004182673;-;-;7.301605;1.4163666;-3.6672363;-;-;-;-;-;-;-;-;-;-;-;-;-;-;-
1514004182694;-;-;7.2154236;2.0699768;-2.547943;-;-;-;-;-;-;-;-;-;-;-;-;-;-;-
1514004182714;-;-;8.491531;2.3656616;-2.2522583;-;-;-;-;-;-;-;-;-;-;-;-;-;-;-
1514004182735;-;-;10.415268;2.0161133;-2.23909;-;-;-;-;-;-;-;-;-;-;-;-;-;-;-
1514004182755;-;-;11.620743;1.6306458;-3.9054565;-;-;-;-;-;-;-;-;-;-;-;-;-;-;-
1514004182775;-;-;12.016983;1.3541107;-4.1376953;-;-;-;-;-;-;-;-;-;-;-;-;-;-;-
1514004182796;-;-;12.194153;1.4738159;-5.4580994;-;-;-;-;-;-;-;-;-;-;-;-;-;-;-
1514004182816;-;-;9.184647;2.4087524;-11.973923;-;-;-;-;-;-;-;-;-;-;-;-;-;-;-
1514004182837;-;-;8.775238;3.9207;-9.977158;-;-;-;-;-;-;-;-;-;-;-;-;-;-;-
1514004182857;-;-;12.317459;4.6688843;-7.769699;-;-;-;-;-;-;-;-;-;-;-;-;-;-;-
1514004182878;-;-;10.449982;2.37883;-8.152771;-;-;-;-;-;-;-;-;-;-;-;-;-;-;-
1514004182899;-;-;6.0925293;0.8800659;-8.570557;-;-;-;-;-;-;-;-;-;-;-;-;-;-;-
1514004182919;-;-;2.470108;-1.2687378;-6.011154;-;-;-;-;-;-;-;-;-;-;-;-;-;-;-
1514004182938;-;-;2.8711395;-3.565979;-2.8376465;-;-;-;-;-;-;-;-;-;-;-;-;-;-;-
1514004182958;-;-;6.383438;-3.6701202;-0.38957214;-;-;-;-;-;-;-;-;-;-;-;-;-;-;-
1514004182979;-;-;6.084152;-0.052474976;-3.6552582;-;-;-;-;-;-;-;-;-;-;-;-;-;-;-
1514004182999;-;-;5.3862457;2.050827;-4.0395355;-;-;-;-;-;-;-;-;-;-;-;-;-;-;-
1514004183020;-;-;5.20549;2.474594;-4.155655;-;-;-;-;-;-;-;-;-;-;-;-;-;-;-
1514004183041;-;-;3.2673798;1.3924255;-4.3172607;-;-;-;-;-;-;-;-;-;-;-;-;-;-;-
1514004183061;-;-;2.7789612;-2.5089264;-3.630127;-;-;-;-;-;-;-;-;-;-;-;-;-;-;-
1514004183082;-;-;5.9105835;-5.7387085;-3.5451355;-;-;-;-;-;-;-;-;-;-;-;-;-;-;-
1514004183102;-;-;7.837906;-5.767441;-3.199173;-;-;-;-;-;-;-;-;-;-;-;-;-;-;-
1514004183123;-;-;7.1998596;-3.3983765;-3.3344421;-;-;-;-;-;-;-;-;-;-;-;-;-;-;-
1514004183144;-;-;6.841919;-1.8517303;-2.6113892;-;-;-;-;-;-;-;-;-;-;-;-;-;-;-
1514004183164;-;-;7.3614655;-1.6589966;-2.2678223;-;-;-;-;-;-;-;-;-;-;-;-;-;-;-
1514004183185;-;-;9.989105;-1.1765594;-2.697586;-;-;-;-;-;-;-;-;-;-;-;-;-;-;-
1514004183205;-;-;11.284363;-0.0021972656;-2.5359802;-;-;-;-;-;-;-;-;-;-;-;-;-;-;-
1514004183226;-;-;11.258026;-1.7918701;-3.448166;-;-;-;-;-;-;-;-;-;-;-;-;-;-;-
1514004183247;-;-;10.897705;-3.562378;-4.405838;-;-;-;-;-;-;-;-;-;-;-;-;-;-;-
1514004183266;-;-;13.006989;-3.692871;-4.460907;-;-;-;-;-;-;-;-;-;-;-;-;-;-;-
1514004183287;-;-;14.392029;-3.4701996;-6.737793;-;-;-;-;-;-;-;-;-;-;-;-;-;-;-
1514004183307;-;-;13.063248;-3.368454;-9.857437;-;-;-;-;-;-;-;-;-;-;-;-;-;-;-
1514004183328;-;-;12.959106;-3.1206512;-6.327194;-;-;-;-;-;-;-;-;-;-;-;-;-;-;-
1514004183348;-;-;12.476669;-2.866867;-4.902649;-;-;-;-;-;-;-;-;-;-;-;-;-;-;-
1514004183369;-;-;8.941635;-2.2467651;-6.4361267;-;-;-;-;-;-;-;-;-;-;-;-;-;-;-
1514004183389;-;-;5.157593;-2.5065308;-8.153961;-;-;-;-;-;-;-;-;-;-;-;-;-;-;-
1514004183410;-;-;4.549469;-2.3425293;-8.034256;-;-;-;-;-;-;-;-;-;-;-;-;-;-;-
1514004183430;-;-;5.8124084;-1.656601;-4.3795166;-;-;-;-;-;-;-;-;-;-;-;-;-;-;-
1514004183450;-;-;5.6184845;-0.6797638;-2.5814667;-;-;-;-;-;-;-;-;-;-;-;-;-;-;-
1514004183471;-;-;6.7401733;0.010971069;-1.9984741;-;-;-;-;-;-;-;-;-;-;-;-;-;-;-
1514004183491;-;-;8.10965;-0.3589325;-3.0136108;-;-;-;-;-;-;-;-;-;-;-;-;-;-;-
1514004183512;-;-;7.7457275;-0.80426025;-4.2418365;-;-;-;-;-;-;-;-;-;-;-;-;-;-;-
1514004183533;-;-;6.549835;-1.0927582;-4.2933197;-;-;-;-;-;-;-;-;-;-;-;-;-;-;-
1514004183553;-;-;4.1161194;-0.13986206;-3.6828003;-;-;-;-;-;-;-;-;-;-;-;-;-;-;-
1514004183573;-;-;3.0183868;1.5887451;-3.8072968;-;-;-;-;-;-;-;-;-;-;-;-;-;-;-
1514004183595;-;-;3.363144;2.2914429;-3.935379;-;-;-;-;-;-;-;-;-;-;-;-;-;-;-
1514004183616;-;-;4.9181824;1.9730072;-4.3986664;-;-;-;-;-;-;-;-;-;-;-;-;-;-;-
1514004183636;-;-;6.2864685;1.0476532;-5.3766937;-;-;-;-;-;-;-;-;-;-;-;-;-;-;-
1514004183656;-;-;6.375046;0.68733215;-4.9325714;-;-;-;-;-;-;-;-;-;-;-;-;-;-;-
1514004183677;-;-;6.363083;0.6346588;-3.6528625;-;-;-;-;-;-;-;-;-;-;-;-;-;-;-
1514004183697;-;-;7.295624;0.8022461;-3.480484;-;-;-;-;-;-;-;-;-;-;-;-;-;-;-
1514004183718;-;-;7.605667;1.798233;-3.0710754;-;-;-;-;-;-;-;-;-;-;-;-;-;-;-
1514004183738;-;-;7.7684784;2.157364;-3.0818481;-;-;-;-;-;-;-;-;-;-;-;-;-;-;-
1514004183759;-;-;8.656723;2.3919983;-3.1321259;-;-;-;-;-;-;-;-;-;-;-;-;-;-;-
1514004183779;-;-;9.499481;2.9510498;-3.7594147;-;-;-;-;-;-;-;-;-;-;-;-;-;-;-
1514004183799;-;-;10.924042;3.2886353;-4.476471;-;-;-;-;-;-;-;-;-;-;-;-;-;-;-
1514004183820;-;-;11.618347;2.4362946;-5.302475;-;-;-;-;-;-;-;-;-;-;-;-;-;-;-
1514004183839;-;-;10.440399;1.7491608;-5.16481;-;-;-;-;-;-;-;-;-;-;-;-;-;-;-
1514004183860;-;-;8.718979;0.6107178;-7.4117584;-;-;-;-;-;-;-;-;-;-;-;-;-;-;-
1514004183880;-;-;9.422867;0.30784607;-8.449646;-;-;-;-;-;-;-;-;-;-;-;-;-;-;-
1514004183901;-;-;9.359421;1.1781464;-7.14122;-;-;-;-;-;-;-;-;-;-;-;-;-;-;-
1514004183921;-;-;8.100067;0.7914734;-7.821167;-;-;-;-;-;-;-;-;-;-;-;-;-;-;-
1514004183942;-;-;9.163101;0.457489;-8.48317;-;-;-;-;-;-;-;-;-;-;-;-;-;-;-
1514004183962;-;-;7.614044;1.4786072;-8.430496;-;-;-;-;-;-;-;-;-;-;-;-;-;-;-
1514004183983;-;-;5.3563232;-0.2859192;-6.393036;-;-;-;-;-;-;-;-;-;-;-;-;-;-;-
1514004184003;-;-;6.8945923;-1.6470184;-5.171997;-;-;-;-;-;-;-;-;-;-;-;-;-;-;-
1514004184023;-;-;8.698624;-1.3357697;-5.0642548;-;-;-;-;-;-;-;-;-;-;-;-;-;-;-
1514004184044;-;-;8.0905;-0.093185425;-3.7366638;-;-;-;-;-;-;-;-;-;-;-;-;-;-;-
1514004184064;-;-;7.2070313;0.88246155;-3.792923;-;-;-;-;-;-;-;-;-;-;-;-;-;-;-
1514004184085;-;-;7.0454254;0.7184448;-4.2178955;-;-;-;-;-;-;-;-;-;-;-;-;-;-;-
1514004184105;-;-;6.43132;-1.0185394;-4.4381714;-;-;-;-;-;-;-;-;-;-;-;-;-;-;-
1514004184126;-;-;4.7422028;-2.511322;-3.0459442;-;-;-;-;-;-;-;-;-;-;-;-;-;-;-
1514004184146;-;-;3.695938;-3.776657;-1.6273804;-;-;-;-;-;-;-;-;-;-;-;-;-;-;-
1514004184167;-;-;4.5937653;-3.972992;-1.9649506;-;-;-;-;-;-;-;-;-;-;-;-;-;-;-
1514004184187;-;-;7.348297;-2.7866516;-4.3723297;-;-;-;-;-;-;-;-;-;-;-;-;-;-;-
1514004184208;-;-;6.4959564;-1.4351349;-4.9086304;-;-;-;-;-;-;-;-;-;-;-;-;-;-;-
1514004184228;-;-;5.359909;-0.581604;-4.857147;-;-;-;-;-;-;-;-;-;-;-;-;-;-;-
1514004184248;-;-;5.7250214;-0.8102417;-4.9337616;-;-;-;-;-;-;-;-;-;-;-;-;-;-;-
1514004184269;-;-;7.8211517;-1.3752747;-5.3910522;-;-;-;-;-;-;-;-;-;-;-;-;-;-;-
1514004184289;-;-;9.380966;-1.2555695;-5.2761383;-;-;-;-;-;-;-;-;-;-;-;-;-;-;-
1514004184310;-;-;9.1918335;-0.99938965;-4.203537;-;-;-;-;-;-;-;-;-;-;-;-;-;-;-
1514004184330;-;-;9.023041;-1.6901093;-3.314087;-;-;-;-;-;-;-;-;-;-;-;-;-;-;-
1514004184351;-;-;10.484695;-2.8477173;-3.8060913;-;-;-;-;-;-;-;-;-;-;-;-;-;-;-
1514004184371;-;-;12.105576;-2.842926;-5.0056;-;-;-;-;-;-;-;-;-;-;-;-;-;-;-
1514004184392;-;-;12.2552185;-2.0743866;-7.1268616;-;-;-;-;-;-;-;-;-;-;-;-;-;-;-
1514004184412;-;-;10.517014;-2.755539;-11.07489;-;-;-;-;-;-;-;-;-;-;-;-;-;-;-
1514004184433;-;-;13.798279;-3.5408325;-9.401352;-;-;-;-;-;-;-;-;-;-;-;-;-;-;-
1514004184454;-;-;15.499359;-3.1577606;-3.856369;-;-;-;-;-;-;-;-;-;-;-;-;-;-;-
1514004184474;-;-;10.06691;-2.5568085;-7.8894043;-;-;-;-;-;-;-;-;-;-;-;-;-;-;-
1514004184494;-;-;4.9648743;-2.1378326;-9.738922;-;-;-;-;-;-;-;-;-;-;-;-;-;-;-
1514004184515;-;-;4.6464386;-0.6582184;-7.5218964;-;-;-;-;-;-;-;-;-;-;-;-;-;-;-
1514004184535;-;-;5.470047;0.3210144;-4.7637787;-;-;-;-;-;-;-;-;-;-;-;-;-;-;-
1514004184556;-;-;5.734604;-1.1717682;-3.8372192;-;-;-;-;-;-;-;-;-;-;-;-;-;-;-
1514004184577;-;-;6.9975433;-1.3633118;-3.847992;-;-;-;-;-;-;-;-;-;-;-;-;-;-;-
1514004184597;-;-;7.6188354;-0.24281311;-3.8168793;-;-;-;-;-;-;-;-;-;-;-;-;-;-;-
1514004184617;-;-;7.458435;-0.69532776;-4.250229;-;-;-;-;-;-;-;-;-;-;-;-;-;-;-
1514004184638;-;-;6.8287506;-1.372879;-4.0395355;-;-;-;-;-;-;-;-;-;-;-;-;-;-;-
1514004184658;-;-;5.0809784;-1.0724182;-3.449356;-;-;-;-;-;-;-;-;-;-;-;-;-;-;-
1514004184679;-;-;3.3811035;0.03730774;-3.3679657;-;-;-;-;-;-;-;-;-;-;-;-;-;-;-
1514004184700;-;-;3.1285095;1.0296936;-3.8432007;-;-;-;-;-;-;-;-;-;-;-;-;-;-;-
1514004184719;-;-;4.6931305;2.114273;-4.1616364;-;-;-;-;-;-;-;-;-;-;-;-;-;-;-
1514004184739;-;-;5.991974;2.2064514;-4.9289856;-;-;-;-;-;-;-;-;-;-;-;-;-;-;-
1514004184759;-;-;6.60849;1.6150818;-5.0798187;-;-;-;-;-;-;-;-;-;-;-;-;-;-;-
1514004184780;-;-;6.7497406;1.0117493;-4.002426;-;-;-;-;-;-;-;-;-;-;-;-;-;-;-
1514004184803;-;-;6.984375;1.4917755;-3.381134;-;-;-;-;-;-;-;-;-;-;-;-;-;-;-
1514004184820;-;-;7.830719;2.2734833;-3.1704407;-;-;-;-;-;-;-;-;-;-;-;-;-;-;-
1514004184841;-;-;8.677078;2.232788;-2.7670135;-;-;-;-;-;-;-;-;-;-;-;-;-;-;-
1514004184862;-;-;10.667862;0.9782257;-3.8336334;-;-;-;-;-;-;-;-;-;-;-;-;-;-;-
1514004184882;-;-;12.513779;1.4810028;-5.215088;-;-;-;-;-;-;-;-;-;-;-;-;-;-;-
1514004184902;-;-;12.570053;2.232788;-5.4437256;-;-;-;-;-;-;-;-;-;-;-;-;-;-;-
1514004184923;-;-;11.807495;1.0105438;-4.8272247;-;-;-;-;-;-;-;-;-;-;-;-;-;-;-
1514004184944;-;-;10.892914;1.6821136;-8.66394;-;-;-;-;-;-;-;-;-;-;-;-;-;-;-
1514004184964;-;-;9.81073;3.9925232;-6.2422028;-;-;-;-;-;-;-;-;-;-;-;-;-;-;-
1514004184985;-;-;9.625183;4.885559;-4.6368866;-;-;-;-;-;-;-;-;-;-;-;-;-;-;-
1514004185005;-;-;7.0777435;2.435089;-4.8068695;-;-;-;-;-;-;-;-;-;-;-;-;-;-;-
1514004185026;-;-;4.3890686;1.0919495;-7.567383;-;-;-;-;-;-;-;-;-;-;-;-;-;-;-
1514004185046;-;-;3.9940186;-0.31704712;-7.31839;-;-;-;-;-;-;-;-;-;-;-;-;-;-;-
1514004185067;-;-;6.0015564;-1.4902039;-6.188324;-;-;-;-;-;-;-;-;-;-;-;-;-;-;-
1514004185088;-;-;8.1922455;-1.8792572;-3.8108826;-;-;-;-;-;-;-;-;-;-;-;-;-;-;-
1514004185108;-;-;8.685455;-0.95269775;-3.5846405;-;-;-;-;-;-;-;-;-;-;-;-;-;-;-
1514004185129;-;-;7.554199;-0.02494812;-4.2969055;-;-;-;-;-;-;-;-;-;-;-;-;-;-;-
1514004185149;-;-;7.4320984;-0.030929565;-4.911026;-;-;-;-;-;-;-;-;-;-;-;-;-;-;-
1514004185169;-;-;5.97641;-0.799469;-4.6129456;-;-;-;-;-;-;-;-;-;-;-;-;-;-;-
1514004185190;-;-;4.387863;-1.9103851;-3.7546234;-;-;-;-;-;-;-;-;-;-;-;-;-;-;-
1514004185211;-;-;3.066269;-2.9039764;-2.9932709;-;-;-;-;-;-;-;-;-;-;-;-;-;-;-
1514004185230;-;-;3.1907654;-3.3349304;-2.460556;-;-;-;-;-;-;-;-;-;-;-;-;-;-;-
1514004185251;-;-;5.399414;-3.2283936;-3.1452942;-;-;-;-;-;-;-;-;-;-;-;-;-;-;-
1514004185271;-;-;7.1878815;-2.5101318;-4.160446;-;-;-;-;-;-;-;-;-;-;-;-;-;-;-
1514004185292;-;-;7.2549133;-1.5428772;-3.7594147;-;-;-;-;-;-;-;-;-;-;-;-;-;-;-
1514004185312;-;-;7.5673676;-0.71328735;-3.7606049;-;-;-;-;-;-;-;-;-;-;-;-;-;-;-
1514004185333;-;-;8.677078;-1.269928;-5.5023956;-;-;-;-;-;-;-;-;-;-;-;-;-;-;-
1514004185353;-;-;9.440826;-1.7020874;-6.473236;-;-;-;-;-;-;-;-;-;-;-;-;-;-;-
1514004185374;-;-;9.942413;-1.3992157;-4.5961914;-;-;-;-;-;-;-;-;-;-;-;-;-;-;-
1514004185394;-;-;10.259644;-3.3636627;-3.78096;-;-;-;-;-;-;-;-;-;-;-;-;-;-;-
1514004185415;-;-;12.950729;-4.3668365;-3.9689026;-;-;-;-;-;-;-;-;-;-;-;-;-;-;-
1514004185435;-;-;15.567596;-3.8053894;-5.602951;-;-;-;-;-;-;-;-;-;-;-;-;-;-;-
1514004185456;-;-;13.218872;-2.4586487;-7.0514374;-;-;-;-;-;-;-;-;-;-;-;-;-;-;-
1514004185477;-;-;8.965576;-3.562378;-10.837875;-;-;-;-;-;-;-;-;-;-;-;-;-;-;-
1514004185497;-;-;10.773193;-4.4254913;-5.769348;-;-;-;-;-;-;-;-;-;-;-;-;-;-;-
1514004185518;-;-;10.161484;-1.7176514;-3.772583;-;-;-;-;-;-;-;-;-;-;-;-;-;-;-
1514004185538;-;-;6.5342712;-0.4547119;-7.979187;-;-;-;-;-;-;-;-;-;-;-;-;-;-;-
1514004185559;-;-;4.166397;-0.43315125;-12.0242;-;-;-;-;-;-;-;-;-;-;-;-;-;-;-
1514004185579;-;-;4.81044;1.5312805;-9.21579;-;-;-;-;-;-;-;-;-;-;-;-;-;-;-
1514004185600;-;-;5.8878326;2.4721985;-6.132065;-;-;-;-;-;-;-;-;-;-;-;-;-;-;-
1514004185620;-;-;5.8830414;0.31143188;-2.728714;-;-;-;-;-;-;-;-;-;-;-;-;-;-;-
1514004185641;-;-;6.730591;-0.21887207;-3.4302063;-;-;-;-;-;-;-;-;-;-;-;-;-;-;-
1514004185660;-;-;7.5434265;-0.71328735;-3.7223053;-;-;-;-;-;-;-;-;-;-;-;-;-;-;-
1514004185680;-;-;7.9743805;-1.8684845;-4.4237976;-;-;-;-;-;-;-;-;-;-;-;-;-;-;-
1514004185700;-;-;6.3427277;-1.7655334;-4.0742493;-;-;-;-;-;-;-;-;-;-;-;-;-;-;-
1514004185721;-;-;3.9940186;0.23960876;-3.7677917;-;-;-;-;-;-;-;-;-;-;-;-;-;-;-
1514004185741;-;-;2.2390747;1.7479553;-4.4357758;-;-;-;-;-;-;-;-;-;-;-;-;-;-;-
1514004185762;-;-;3.1716156;2.4398804;-4.3483887;-;-;-;-;-;-;-;-;-;-;-;-;-;-;-
1514004185782;-;-;5.593338;2.105896;-3.5487213;-;-;-;-;-;-;-;-;-;-;-;-;-;-;-
1514004185803;-;-;7.5075073;1.3912201;-4.041931;-;-;-;-;-;-;-;-;-;-;-;-;-;-;-
1514004185823;-;-;7.110077;0.79745483;-3.6420898;-;-;-;-;-;-;-;-;-;-;-;-;-;-;-
1514004185844;-;-;7.0574036;0.635849;-3.6828003;-;-;-;-;-;-;-;-;-;-;-;-;-;-;-
1514004185865;-;-;8.627991;0.79626465;-3.6947632;-;-;-;-;-;-;-;-;-;-;-;-;-;-;-
1514004185886;-;-;9.79158;0.6573944;-4.3172607;-;-;-;-;-;-;-;-;-;-;-;-;-;-;-
1514004185906;-;-;10.180634;0.730423;-3.9126434;-;-;-;-;-;-;-;-;-;-;-;-;-;-;-
1514004185925;-;-;10.062119;0.7292328;-3.176422;-;-;-;-;-;-;-;-;-;-;-;-;-;-;-
1514004185946;-;-;10.746857;1.6390228;-2.5491486;-;-;-;-;-;-;-;-;-;-;-;-;-;-;-
1514004185966;-;-;11.444778;2.8433075;-2.7083588;-;-;-;-;-;-;-;-;-;-;-;-;-;-;-
1514004185987;-;-;11.331055;3.6657104;-3.1871948;-;-;-;-;-;-;-;-;-;-;-;-;-;-;-
1514004186007;-;-;10.0298;3.572342;-4.507599;-;-;-;-;-;-;-;-;-;-;-;-;-;-;-
1514004186028;-;-;8.365829;3.4514313;-7.683502;-;-;-;-;-;-;-;-;-;-;-;-;-;-;-
1514004186048;-;-;9.25528;2.679306;-4.4118347;-;-;-;-;-;-;-;-;-;-;-;-;-;-;-
1514004186069;-;-;12.966293;0.40242004;-6.2888794;-;-;-;-;-;-;-;-;-;-;-;-;-;-;-
1514004186088;-;-;8.384979;0.57958984;-7.223816;-;-;-;-;-;-;-;-;-;-;-;-;-;-;-
1514004186109;-;-;6.1045074;1.0428619;-7.278885;-;-;-;-;-;-;-;-;-;-;-;-;-;-;-
1514004186129;-;-;5.8411407;0.19651794;-5.9369354;-;-;-;-;-;-;-;-;-;-;-;-;-;-;-
1514004186150;-;-;8.727356;-0.51815796;-3.1740265;-;-;-;-;-;-;-;-;-;-;-;-;-;-;-
1514004186170;-;-;9.21936;-0.45231628;-2.9908752;-;-;-;-;-;-;-;-;-;-;-;-;-;-;-
1514004186191;-;-;8.756088;0.3425598;-2.8963013;-;-;-;-;-;-;-;-;-;-;-;-;-;-;-
1514004186211;-;-;7.790024;1.3888245;-2.6520996;-;-;-;-;-;-;-;-;-;-;-;-;-;-;-
1514004186231;-;-;6.517502;0.63345337;-2.962143;-;-;-;-;-;-;-;-;-;-;-;-;-;-;-
1514004186252;-;-;5.051056;-0.7958832;-2.9609375;-;-;-;-;-;-;-;-;-;-;-;-;-;-;-
1514004186273;-;-;4.5554657;-2.2946472;-2.8771515;-;-;-;-;-;-;-;-;-;-;-;-;-;-;-
1514004186293;-;-;4.5710144;-3.2990112;-2.693985;-;-;-;-;-;-;-;-;-;-;-;-;-;-;-
1514004186314;-;-;5.280899;-3.364853;-1.8739777;-;-;-;-;-;-;-;-;-;-;-;-;-;-;-
1514004186334;-;-;7.0490265;-2.253952;-3.6157532;-;-;-;-;-;-;-;-;-;-;-;-;-;-;-
1514004186355;-;-;6.2900543;-1.4064026;-3.832428;-;-;-;-;-;-;-;-;-;-;-;-;-;-;-
1514004186375;-;-;5.0295105;-0.9550934;-2.4354248;-;-;-;-;-;-;-;-;-;-;-;-;-;-;-
1514004186396;-;-;5.1097107;-0.83418274;-1.3113403;-;-;-;-;-;-;-;-;-;-;-;-;-;-;-
1514004186416;-;-;6.3427277;-1.6685638;-1.5723114;-;-;-;-;-;-;-;-;-;-;-;-;-;-;-
1514004186437;-;-;7.4213104;-2.451477;-2.0439606;-;-;-;-;-;-;-;-;-;-;-;-;-;-;-
1514004186457;-;-;8.474762;-2.3784485;-2.4773102;-;-;-;-;-;-;-;-;-;-;-;-;-;-;-
1514004186478;-;-;8.984726;-1.5560455;-2.6832123;-;-;-;-;-;-;-;-;-;-;-;-;-;-;-
1514004186498;-;-;9.900513;-0.7216644;-2.7310944;-;-;-;-;-;-;-;-;-;-;-;-;-;-;-
1514004186519;-;-;10.697784;-0.44992065;-2.3600006;-;-;-;-;-;-;-;-;-;-;-;-;-;-;-
1514004186540;-;-;10.846222;-0.5540619;-1.8500366;-;-;-;-;-;-;-;-;-;-;-;-;-;-;-
1514004186561;-;-;10.46196;-0.6977234;-2.120575;-;-;-;-;-;-;-;-;-;-;-;-;-;-;-
1514004186581;-;-;9.501877;-1.0089569;-3.1057892;-;-;-;-;-;-;-;-;-;-;-;-;-;-;-
1514004186601;-;-;8.232956;-1.9259491;-5.199524;-;-;-;-;-;-;-;-;-;-;-;-;-;-;-
1514004186621;-;-;6.2421722;-2.8752441;-4.441757;-;-;-;-;-;-;-;-;-;-;-;-;-;-;-
1514004186642;-;-;10.5876465;-0.957489;-3.254242;-;-;-;-;-;-;-;-;-;-;-;-;-;-;-
1514004186662;-;-;12.667007;1.161377;-5.10495;-;-;-;-;-;-;-;-;-;-;-;-;-;-;-
1514004186682;-;-;11.60878;1.7288055;-8.292831;-;-;-;-;-;-;-;-;-;-;-;-;-;-;-
1514004186703;-;-;8.685455;1.1182861;-6.949692;-;-;-;-;-;-;-;-;-;-;-;-;-;-;-
1514004186723;-;-;7.1471863;0.6502228;-5.2533875;-;-;-;-;-;-;-;-;-;-;-;-;-;-;-
1514004186743;-;-;6.3068237;0.74838257;-5.527527;-;-;-;-;-;-;-;-;-;-;-;-;-;-;-
1514004186764;-;-;5.889023;-0.0045928955;-4.9289856;-;-;-;-;-;-;-;-;-;-;-;-;-;-;-
1514004186785;-;-;7.3782196;-0.56243896;-4.554291;-;-;-;-;-;-;-;-;-;-;-;-;-;-;-
1514004186805;-;-;9.57251;-0.6618042;-3.4601288;-;-;-;-;-;-;-;-;-;-;-;-;-;-;-
1514004186826;-;-;11.369354;0.060043335;-4.0874176;-;-;-;-;-;-;-;-;-;-;-;-;-;-;-
1514004186846;-;-;11.11438;1.5731812;-4.8152466;-;-;-;-;-;-;-;-;-;-;-;-;-;-;-
1514004186866;-;-;9.762848;2.442276;-4.3400116;-;-;-;-;-;-;-;-;-;-;-;-;-;-;-
1514004186887;-;-;7.722992;2.4159393;-3.8132782;-;-;-;-;-;-;-;-;-;-;-;-;-;-;-
1514004186906;-;-;5.4449005;1.6318359;-3.1728363;-;-;-;-;-;-;-;-;-;-;-;-;-;-;-
1514004186927;-;-;3.9497223;0.48382568;-2.728714;-;-;-;-;-;-;-;-;-;-;-;-;-;-;-
1514004186946;-;-;3.2147064;0.378479;-2.3755646;-;-;-;-;-;-;-;-;-;-;-;-;-;-;-
1514004186967;-;-;4.2968903;0.96984863;-1.7111664;-;-;-;-;-;-;-;-;-;-;-;-;-;-;-
1514004186987;-;-;7.2429504;1.7683105;-1.7494812;-;-;-;-;-;-;-;-;-;-;-;-;-;-;-
1514004187008;-;-;9.688629;2.442276;-1.555542;-;-;-;-;-;-;-;-;-;-;-;-;-;-;-
1514004187027;-;-;10.277603;2.2016602;-1.863205;-;-;-;-;-;-;-;-;-;-;-;-;-;-;-
1514004187048;-;-;10.051346;1.2332001;-2.2438812;-;-;-;-;-;-;-;-;-;-;-;-;-;-;-
1514004187068;-;-;8.932053;0.754364;-2.06073;-;-;-;-;-;-;-;-;-;-;-;-;-;-;-
1514004187089;-;-;8.064163;0.48143005;-1.274231;-;-;-;-;-;-;-;-;-;-;-;-;-;-;-
1514004187109;-;-;8.964386;-0.34217834;-0.11903381;-;-;-;-;-;-;-;-;-;-;-;-;-;-;-
1514004187130;-;-;9.714966;-1.0077667;-0.4925232;-;-;-;-;-;-;-;-;-;-;-;-;-;-;-
1514004187150;-;-;10.260834;0.8609009;-5.1025543;-;-;-;-;-;-;-;-;-;-;-;-;-;-;-
1514004187171;-;-;8.791992;3.730362;-8.522675;-;-;-;-;-;-;-;-;-;-;-;-;-;-;-
1514004187191;-;-;8.677078;3.0324554;-7.14003;-;-;-;-;-;-;-;-;-;-;-;-;-;-;-
1514004187212;-;-;8.325134;-1.1765594;-7.460846;-;-;-;-;-;-;-;-;-;-;-;-;-;-;-
1514004187233;-;-;10.36618;-4.684067;-8.186295;-;-;-;-;-;-;-;-;-;-;-;-;-;-;-
1514004187252;-;-;9.801147;-5.385559;-8.115662;-;-;-;-;-;-;-;-;-;-;-;-;-;-;-
1514004187273;-;-;11.744049;1.2152557;-3.6732178;-;-;-;-;-;-;-;-;-;-;-;-;-;-;-
1514004187293;-;-;11.19339;4.878372;-3.1943817;-;-;-;-;-;-;-;-;-;-;-;-;-;-;-
1514004187313;-;-;9.910095;3.8584442;-4.6716003;-;-;-;-;-;-;-;-;-;-;-;-;-;-;-
1514004187333;-;-;7.6176453;0.45988464;-4.8068695;-;-;-;-;-;-;-;-;-;-;-;-;-;-;-
1514004187354;-;-;5.358719;-1.7918701;-4.014389;-;-;-;-;-;-;-;-;-;-;-;-;-;-;-
1514004187374;-;-;4.122101;-3.2678986;-3.4385834;-;-;-;-;-;-;-;-;-;-;-;-;-;-;-
1514004187395;-;-;4.3387756;-3.8185577;-3.4972534;-;-;-;-;-;-;-;-;-;-;-;-;-;-;-
1514004187416;-;-;4.6236877;-3.9167175;-3.7474365;-;-;-;-;-;-;-;-;-;-;-;-;-;-;-
1514004187435;-;-;8.017471;-3.5085144;-2.685608;-;-;-;-;-;-;-;-;-;-;-;-;-;-;-
1514004187456;-;-;9.206192;-2.7303925;-3.0746765;-;-;-;-;-;-;-;-;-;-;-;-;-;-;-
1514004187475;-;-;7.949234;-2.135437;-2.7981415;-;-;-;-;-;-;-;-;-;-;-;-;-;-;-
1514004187496;-;-;8.471176;-2.4107666;-1.8272858;-;-;-;-;-;-;-;-;-;-;-;-;-;-;-
1514004187515;-;-;9.278015;-2.7184296;-2.3085175;-;-;-;-;-;-;-;-;-;-;-;-;-;-;-
1514004187535;-;-;10.254852;-1.4111938;-2.017624;-;-;-;-;-;-;-;-;-;-;-;-;-;-;-
1514004187555;-;-;10.34584;0.3569336;-1.610611;-;-;-;-;-;-;-;-;-;-;-;-;-;-;-
1514004187576;-;-;9.242111;0.51493835;-0.8959503;-;-;-;-;-;-;-;-;-;-;-;-;-;-;-
1514004187597;-;-;9.250488;-1.1143036;-1.5411835;-;-;-;-;-;-;-;-;-;-;-;-;-;-;-
1514004187617;-;-;9.161896;-2.230011;-3.3368378;-;-;-;-;-;-;-;-;-;-;-;-;-;-;-
1514004187637;-;-;7.738556;-2.238388;-3.6947632;-;-;-;-;-;-;-;-;-;-;-;-;-;-;-
1514004187658;-;-;7.5685577;-1.6985016;-5.0115814;-;-;-;-;-;-;-;-;-;-;-;-;-;-;-
1514004187677;-;-;8.651932;0.9925842;-7.488373;-;-;-;-;-;-;-;-;-;-;-;-;-;-;-
1514004187697;-;-;8.668701;2.2507477;-9.213409;-;-;-;-;-;-;-;-;-;-;-;-;-;-;-
1514004187719;-;-;12.513779;0.81062317;-4.1149445;-;-;-;-;-;-;-;-;-;-;-;-;-;-;-
1514004187738;-;-;13.32782;-0.33859253;-5.5263367;-;-;-;-;-;-;-;-;-;-;-;-;-;-;-
1514004187759;-;-;12.267181;-0.7300415;-6.5654144;-;-;-;-;-;-;-;-;-;-;-;-;-;-;-
1514004187778;-;-;10.625961;-0.8701019;-4.816452;-;-;-;-;-;-;-;-;-;-;-;-;-;-;-
1514004187800;-;-;9.479141;0.0025787354;-3.4673157;-;-;-;-;-;-;-;-;-;-;-;-;-;-;-
1514004187820;-;-;8.229355;0.48501587;-3.4062653;-;-;-;-;-;-;-;-;-;-;-;-;-;-;-
1514004187840;-;-;8.07373;0.5951538;-3.6157532;-;-;-;-;-;-;-;-;-;-;-;-;-;-;-
1514004187861;-;-;6.8359375;1.2308044;-3.2841644;-;-;-;-;-;-;-;-;-;-;-;-;-;-;-
1514004187881;-;-;5.5861664;1.9670258;-2.9669342;-;-;-;-;-;-;-;-;-;-;-;-;-;-;-
1514004187902;-;-;5.1599884;2.0711823;-2.1552887;-;-;-;-;-;-;-;-;-;-;-;-;-;-;-
1514004187922;-;-;5.2785034;1.6881104;-1.7494812;-;-;-;-;-;-;-;-;-;-;-;-;-;-;-
1514004187943;-;-;6.0542297;0.11869812;-1.7207489;-;-;-;-;-;-;-;-;-;-;-;-;-;-;-
1514004187964;-;-;7.3423157;-1.0927582;-1.90271;-;-;-;-;-;-;-;-;-;-;-;-;-;-;-
1514004187984;-;-;8.173096;-1.3848572;-2.1983948;-;-;-;-;-;-;-;-;-;-;-;-;-;-;-
1514004188005;-;-;7.928894;-0.5205536;-1.8224945;-;-;-;-;-;-;-;-;-;-;-;-;-;-;-
1514004188024;-;-;6.6707306;1.0332947;-1.3496399;-;-;-;-;-;-;-;-;-;-;-;-;-;-;-
1514004188045;-;-;6.3115997;2.521286;-1.1389618;-;-;-;-;-;-;-;-;-;-;-;-;-;-;-
1514004188064;-;-;6.8407288;3.5974731;-1.4370422;-;-;-;-;-;-;-;-;-;-;-;-;-;-;-
1514004188085;-;-;8.26767;4.071533;-1.9182739;-;-;-;-;-;-;-;-;-;-;-;-;-;-;-
1514004188104;-;-;9.737701;4.5587463;-2.1074066;-;-;-;-;-;-;-;-;-;-;-;-;-;-;-
1514004188124;-;-;11.131134;5.2231445;-2.2378998;-;-;-;-;-;-;-;-;-;-;-;-;-;-;-
1514004188145;-;-;13.384079;5.56073;-2.5132294;-;-;-;-;-;-;-;-;-;-;-;-;-;-;-
1514004188165;-;-;14.849335;4.733536;-1.6560974;-;-;-;-;-;-;-;-;-;-;-;-;-;-;-
1514004188186;-;-;14.15741;2.7870483;-4.8368073;-;-;-;-;-;-;-;-;-;-;-;-;-;-;-
1514004188207;-;-;15.064804;2.3261566;-4.5650635;-;-;-;-;-;-;-;-;-;-;-;-;-;-;-
1514004188227;-;-;13.742004;2.1501923;-6.8383484;-;-;-;-;-;-;-;-;-;-;-;-;-;-;-
1514004188248;-;-;10.605606;2.560791;-6.2230377;-;-;-;-;-;-;-;-;-;-;-;-;-;-;-
1514004188268;-;-;6.8718414;2.6721191;-5.661606;-;-;-;-;-;-;-;-;-;-;-;-;-;-;-
1514004188289;-;-;4.149643;1.1434174;-7.2250214;-;-;-;-;-;-;-;-;-;-;-;-;-;-;-
1514004188308;-;-;5.268936;-0.45350647;-8.383804;-;-;-;-;-;-;-;-;-;-;-;-;-;-;-
1514004188328;-;-;7.430893;-1.1394501;-7.3842316;-;-;-;-;-;-;-;-;-;-;-;-;-;-;-
1514004188349;-;-;8.716583;-1.2567596;-5.83638;-;-;-;-;-;-;-;-;-;-;-;-;-;-;-
1514004188369;-;-;8.418503;-1.4770355;-4.2693787;-;-;-;-;-;-;-;-;-;-;-;-;-;-;-
1514004188390;-;-;7.6415863;-1.5356903;-4.302902;-;-;-;-;-;-;-;-;-;-;-;-;-;-;-
1514004188410;-;-;7.1759186;-0.704895;-4.0598907;-;-;-;-;-;-;-;-;-;-;-;-;-;-;-
1514004188431;-;-;6.070984;0.20370483;-3.7821503;-;-;-;-;-;-;-;-;-;-;-;-;-;-;-
1514004188451;-;-;5.152817;-0.60913086;-3.6564636;-;-;-;-;-;-;-;-;-;-;-;-;-;-;-
1514004188472;-;-;4.484833;-2.4191437;-3.361969;-;-;-;-;-;-;-;-;-;-;-;-;-;-;-
1514004188491;-;-;5.0845795;-3.9430542;-3.056717;-;-;-;-;-;-;-;-;-;-;-;-;-;-;-
1514004188512;-;-;6.7365723;-4.063965;-3.669632;-;-;-;-;-;-;-;-;-;-;-;-;-;-;-
1514004188532;-;-;7.475189;-2.6657562;-4.0395355;-;-;-;-;-;-;-;-;-;-;-;-;-;-;-
1514004188553;-;-;7.0142975;-1.2914734;-4.3555603;-;-;-;-;-;-;-;-;-;-;-;-;-;-;-
1514004188573;-;-;7.770874;-0.8246155;-3.243454;-;-;-;-;-;-;-;-;-;-;-;-;-;-;-
1514004188594;-;-;8.575317;-0.88087463;-2.6137848;-;-;-;-;-;-;-;-;-;-;-;-;-;-;-
1514004188614;-;-;8.869812;-1.2483826;-1.887146;-;-;-;-;-;-;-;-;-;-;-;-;-;-;-
1514004188635;-;-;8.8207245;-1.2567596;-1.9924927;-;-;-;-;-;-;-;-;-;-;-;-;-;-;-
1514004188654;-;-;9.239716;-1.1777496;-1.7518768;-;-;-;-;-;-;-;-;-;-;-;-;-;-;-
1514004188675;-;-;9.541382;-2.1701508;-1.8141174;-;-;-;-;-;-;-;-;-;-;-;-;-;-;-
1514004188696;-;-;10.992264;-5.1700897;-2.7705994;-;-;-;-;-;-;-;-;-;-;-;-;-;-;-
1514004188716;-;-;13.440338;-4.8528595;-2.6484985;-;-;-;-;-;-;-;-;-;-;-;-;-;-;-
1514004188736;-;-;14.429153;-2.7208252;-3.1860046;-;-;-;-;-;-;-;-;-;-;-;-;-;-;-
1514004188757;-;-;11.940369;-1.0053711;-6.09375;-;-;-;-;-;-;-;-;-;-;-;-;-;-;-
1514004188776;-;-;9.023041;-2.004959;-9.9735565;-;-;-;-;-;-;-;-;-;-;-;-;-;-;-
1514004188796;-;-;9.755661;-3.783844;-7.7517395;-;-;-;-;-;-;-;-;-;-;-;-;-;-;-
1514004188817;-;-;12.558075;-3.2762756;-5.180374;-;-;-;-;-;-;-;-;-;-;-;-;-;-;-
1514004188837;-;-;9.932831;-2.5532227;-9.391769;-;-;-;-;-;-;-;-;-;-;-;-;-;-;-
1514004188858;-;-;6.6300354;-2.1761322;-11.815903;-;-;-;-;-;-;-;-;-;-;-;-;-;-;-
1514004188878;-;-;8.207809;-1.3034515;-7.0514374;-;-;-;-;-;-;-;-;-;-;-;-;-;-;-
1514004188899;-;-;7.7517242;-0.7096863;-2.1145935;-;-;-;-;-;-;-;-;-;-;-;-;-;-;-
1514004188919;-;-;5.596939;-1.0927582;-0.73672485;-;-;-;-;-;-;-;-;-;-;-;-;-;-;-
1514004188940;-;-;5.3658905;-0.8569336;-0.6804657;-;-;-;-;-;-;-;-;-;-;-;-;-;-;-
1514004188959;-;-;5.6112976;-1.5177307;-1.5495605;-;-;-;-;-;-;-;-;-;-;-;-;-;-;-
1514004188980;-;-;5.85791;-2.6358185;-1.9996796;-;-;-;-;-;-;-;-;-;-;-;-;-;-;-
1514004189000;-;-;5.142044;-1.6673737;-2.5922394;-;-;-;-;-;-;-;-;-;-;-;-;-;-;-
1514004189020;-;-;3.4673004;1.2176361;-2.8077087;-;-;-;-;-;-;-;-;-;-;-;-;-;-;-
1514004189041;-;-;3.58461;3.2167969;-2.9441833;-;-;-;-;-;-;-;-;-;-;-;-;-;-;-
1514004189061;-;-;4.2154846;3.8704224;-3.0686798;-;-;-;-;-;-;-;-;-;-;-;-;-;-;-
1514004189082;-;-;6.094925;3.1234283;-3.6971588;-;-;-;-;-;-;-;-;-;-;-;-;-;-;-
1514004189102;-;-;7.2908325;1.971817;-3.1824036;-;-;-;-;-;-;-;-;-;-;-;-;-;-;-
1514004189123;-;-;7.93367;2.1406097;-2.7981415;-;-;-;-;-;-;-;-;-;-;-;-;-;-;-
1514004189144;-;-;9.233734;2.749939;-2.7658234;-;-;-;-;-;-;-;-;-;-;-;-;-;-;-
1514004189163;-;-;10.906082;2.8444977;-2.3300781;-;-;-;-;-;-;-;-;-;-;-;-;-;-;-
1514004189184;-;-;11.969101;1.9466705;-1.8751678;-;-;-;-;-;-;-;-;-;-;-;-;-;-;-
1514004189204;-;-;12.65863;2.1094818;-2.211563;-;-;-;-;-;-;-;-;-;-;-;-;-;-;-
1514004189224;-;-;13.406815;2.2303925;-2.349228;-;-;-;-;-;-;-;-;-;-;-;-;-;-;-
1514004189245;-;-;12.385696;1.7659149;-1.7506714;-;-;-;-;-;-;-;-;-;-;-;-;-;-;-
1514004189265;-;-;9.135559;1.6043091;-6.346344;-;-;-;-;-;-;-;-;-;-;-;-;-;-;-
1514004189285;-;-;7.901352;3.0683594;-6.911377;-;-;-;-;-;-;-;-;-;-;-;-;-;-;-
1514004189307;-;-;10.192612;2.2315826;-5.8495483;-;-;-;-;-;-;-;-;-;-;-;-;-;-;-
1514004189326;-;-;10.347031;-0.07043457;-6.9305267;-;-;-;-;-;-;-;-;-;-;-;-;-;-;-
1514004189347;-;-;6.6132813;-0.46907043;-6.610901;-;-;-;-;-;-;-;-;-;-;-;-;-;-;-
1514004189366;-;-;4.011978;-0.3864746;-5.8890533;-;-;-;-;-;-;-;-;-;-;-;-;-;-;-
1514004189387;-;-;3.411026;-0.76116943;-4.3986664;-;-;-;-;-;-;-;-;-;-;-;-;-;-;-
1514004189407;-;-;5.6184845;-1.5344849;-3.0136108;-;-;-;-;-;-;-;-;-;-;-;-;-;-;-
1514004189428;-;-;7.564972;-0.45111084;-4.420212;-;-;-;-;-;-;-;-;-;-;-;-;-;-;-
1514004189448;-;-;7.135208;1.4019928;-3.6097717;-;-;-;-;-;-;-;-;-;-;-;-;-;-;-
1514004189469;-;-;7.380615;1.8449249;-4.141281;-;-;-;-;-;-;-;-;-;-;-;-;-;-;-
1514004189489;-;-;7.679886;0.38685608;-4.2562103;-;-;-;-;-;-;-;-;-;-;-;-;-;-;-
1514004189510;-;-;6.7090454;-2.0935364;-3.7713776;-;-;-;-;-;-;-;-;-;-;-;-;-;-;-
1514004189531;-;-;5.343155;-4.4219055;-3.199173;-;-;-;-;-;-;-;-;-;-;-;-;-;-;-
1514004189551;-;-;4.6859436;-5.4585876;-2.5826569;-;-;-;-;-;-;-;-;-;-;-;-;-;-;-
1514004189572;-;-;5.414978;-4.7020264;-2.1983948;-;-;-;-;-;-;-;-;-;-;-;-;-;-;-
1514004189592;-;-;6.269699;-2.8776398;-2.994461;-;-;-;-;-;-;-;-;-;-;-;-;-;-;-
1514004189612;-;-;6.336746;-1.4961853;-3.3188782;-;-;-;-;-;-;-;-;-;-;-;-;-;-;-
1514004189633;-;-;6.154785;-1.2040863;-4.0012207;-;-;-;-;-;-;-;-;-;-;-;-;-;-;-
1514004189653;-;-;7.383011;-2.0073395;-4.784134;-;-;-;-;-;-;-;-;-;-;-;-;-;-;-
1514004189674;-;-;9.359421;-1.388443;-5.7130737;-;-;-;-;-;-;-;-;-;-;-;-;-;-;-
1514004189694;-;-;11.724899;-0.50138855;-5.030731;-;-;-;-;-;-;-;-;-;-;-;-;-;-;-
1514004189715;-;-;11.45195;-1.0472717;-5.6137238;-;-;-;-;-;-;-;-;-;-;-;-;-;-;-
1514004189734;-;-;9.88855;-2.54245;-6.98201;-;-;-;-;-;-;-;-;-;-;-;-;-;-;-
1514004189755;-;-;12.435974;-2.2826843;-6.3762665;-;-;-;-;-;-;-;-;-;-;-;-;-;-;-
1514004189775;-;-;11.583633;-2.4885864;-11.678238;-;-;-;-;-;-;-;-;-;-;-;-;-;-;-
1514004189795;-;-;12.170212;-5.2131805;-12.151093;-;-;-;-;-;-;-;-;-;-;-;-;-;-;-
