TimeStamp[ms];Prox[Cm];Lux[lux];AccX[m/s^2];AccY[m/s^2];AccZ[m/s^2];GyroX[rad/s];GyroY[rad/s];GyroZ[rad/s];MagnX[uT];MagnY[uT];MagnZ[uT];OrienYaw[degrees];OrienPitch[degrees];OrienRoll[degrees];Press[Pa];Temp[C°];Batt[%];Lat;Lng;Speed[m/s]
1514181085489;-;-;8.402939;-0.4451294;2.99823;-;-;-;-;-;-;-;-;-;-;-;-;-;-;-
1514181085494;-;-;8.402939;-0.4451294;2.99823;-;-;-;-;-;-;-;-;-;-;-;-;-;-;-
1514181085514;-;-;8.241333;-0.60913086;2.730072;-;-;-;-;-;-;-;-;-;-;-;-;-;-;-
1514181085534;-;-;8.620819;-0.8677063;2.6929626;-;-;-;-;-;-;-;-;-;-;-;-;-;-;-
1514181085554;-;-;9.024231;-0.5564575;2.5612793;-;-;-;-;-;-;-;-;-;-;-;-;-;-;-
1514181085575;-;-;9.699402;-0.30267334;1.9854736;-;-;-;-;-;-;-;-;-;-;-;-;-;-;-
1514181085595;-;-;8.32991;0.048080444;2.2584076;-;-;-;-;-;-;-;-;-;-;-;-;-;-;-
1514181085616;-;-;8.926071;-0.39126587;2.3793182;-;-;-;-;-;-;-;-;-;-;-;-;-;-;-
1514181085636;-;-;9.306747;-0.4259796;2.28714;-;-;-;-;-;-;-;-;-;-;-;-;-;-;-
1514181085657;-;-;9.090073;-0.17578125;2.1638489;-;-;-;-;-;-;-;-;-;-;-;-;-;-;-
1514181085677;-;-;9.382172;-0.5205536;2.0800476;-;-;-;-;-;-;-;-;-;-;-;-;-;-;-
1514181085697;-;-;9.330688;-0.40083313;1.8166809;-;-;-;-;-;-;-;-;-;-;-;-;-;-;-
1514181085717;-;-;9.244507;-0.5792084;1.923233;-;-;-;-;-;-;-;-;-;-;-;-;-;-;-
1514181085743;-;-;8.678268;-0.8317871;0.9679413;-;-;-;-;-;-;-;-;-;-;-;-;-;-;-
1514181085758;-;-;8.541809;-0.1530304;0.03060913;-;-;-;-;-;-;-;-;-;-;-;-;-;-;-
1514181085779;-;-;6.6851044;-0.38887024;0.8027344;-;-;-;-;-;-;-;-;-;-;-;-;-;-;-
1514181085799;-;-;9.142746;0.9614563;0.6938019;-;-;-;-;-;-;-;-;-;-;-;-;-;-;-
1514181085819;-;-;9.579697;0.88365173;0.012649536;-;-;-;-;-;-;-;-;-;-;-;-;-;-;-
1514181085840;-;-;10.016632;0.08758545;0.33587646;-;-;-;-;-;-;-;-;-;-;-;-;-;-;-
1514181085860;-;-;11.020996;0.41677856;-0.5727234;-;-;-;-;-;-;-;-;-;-;-;-;-;-;-
1514181085881;-;-;11.183807;-0.22964478;-0.18965149;-;-;-;-;-;-;-;-;-;-;-;-;-;-;-
1514181085901;-;-;8.475967;-0.3254242;0.3777771;-;-;-;-;-;-;-;-;-;-;-;-;-;-;-
1514181085921;-;-;8.290421;-0.85572815;-0.03642273;-;-;-;-;-;-;-;-;-;-;-;-;-;-;-
1514181085942;-;-;9.118805;-0.33738708;-0.8504486;-;-;-;-;-;-;-;-;-;-;-;-;-;-;-
1514181085961;-;-;8.260483;-0.08480835;-0.012481689;-;-;-;-;-;-;-;-;-;-;-;-;-;-;-
1514181085982;-;-;8.926071;0.045684814;-0.4051361;-;-;-;-;-;-;-;-;-;-;-;-;-;-;-
1514181086002;-;-;10.234512;-0.2966919;0.42445374;-;-;-;-;-;-;-;-;-;-;-;-;-;-;-
1514181086022;-;-;10.669052;-0.46188354;0.38734436;-;-;-;-;-;-;-;-;-;-;-;-;-;-;-
1514181086043;-;-;11.261612;0.95188904;-1.4466095;-;-;-;-;-;-;-;-;-;-;-;-;-;-;-
1514181086063;-;-;8.775238;0.8046417;0.10722351;-;-;-;-;-;-;-;-;-;-;-;-;-;-;-
1514181086085;-;-;9.981918;0.50177;-0.44943237;-;-;-;-;-;-;-;-;-;-;-;-;-;-;-
1514181086104;-;-;9.80954;-0.00579834;0.08328247;-;-;-;-;-;-;-;-;-;-;-;-;-;-;-
1514181086124;-;-;9.9879;0.83576965;0.13954163;-;-;-;-;-;-;-;-;-;-;-;-;-;-;-
1514181086145;-;-;10.181839;1.5791626;-0.4673767;-;-;-;-;-;-;-;-;-;-;-;-;-;-;-
1514181086166;-;-;8.68306;0.7651367;-0.31295776;-;-;-;-;-;-;-;-;-;-;-;-;-;-;-
1514181086187;-;-;7.9468384;0.6214905;-0.8564453;-;-;-;-;-;-;-;-;-;-;-;-;-;-;-
1514181086207;-;-;9.286407;0.299469;0.24130249;-;-;-;-;-;-;-;-;-;-;-;-;-;-;-
1514181086227;-;-;8.859039;0.4514923;0.007858276;-;-;-;-;-;-;-;-;-;-;-;-;-;-;-
1514181086248;-;-;8.526245;0.42515564;-0.5607605;-;-;-;-;-;-;-;-;-;-;-;-;-;-;-
1514181086271;-;-;9.188232;0.7328186;-1.4358368;-;-;-;-;-;-;-;-;-;-;-;-;-;-;-
1514181086288;-;-;9.21817;-0.14944458;-2.0738983;-;-;-;-;-;-;-;-;-;-;-;-;-;-;-
1514181086309;-;-;9.295975;-0.02015686;-2.5048523;-;-;-;-;-;-;-;-;-;-;-;-;-;-;-
1514181086329;-;-;8.84108;0.28630066;-2.6688538;-;-;-;-;-;-;-;-;-;-;-;-;-;-;-
1514181086349;-;-;9.048172;-0.5061798;-2.1169891;-;-;-;-;-;-;-;-;-;-;-;-;-;-;-
1514181086370;-;-;9.923264;-1.7691193;6.9965363;-;-;-;-;-;-;-;-;-;-;-;-;-;-;-
1514181086390;-;-;6.9736023;-1.522522;-5.4868317;-;-;-;-;-;-;-;-;-;-;-;-;-;-;-
1514181086411;-;-;11.650681;0.1953125;-4.784134;-;-;-;-;-;-;-;-;-;-;-;-;-;-;-
1514181086431;-;-;8.746506;0.32460022;-3.3428192;-;-;-;-;-;-;-;-;-;-;-;-;-;-;-
1514181086452;-;-;6.8550873;-1.5823822;-3.9629211;-;-;-;-;-;-;-;-;-;-;-;-;-;-;-
1514181086473;-;-;6.8191833;-1.7379913;-2.5766754;-;-;-;-;-;-;-;-;-;-;-;-;-;-;-
1514181086492;-;-;7.3865967;-0.6761627;-2.3623962;-;-;-;-;-;-;-;-;-;-;-;-;-;-;-
1514181086513;-;-;6.354706;-1.8265839;-2.2055817;-;-;-;-;-;-;-;-;-;-;-;-;-;-;-
1514181086533;-;-;6.70665;-2.439499;-3.4828796;-;-;-;-;-;-;-;-;-;-;-;-;-;-;-
1514181086554;-;-;7.1555634;-2.9985504;-2.0487518;-;-;-;-;-;-;-;-;-;-;-;-;-;-;-
1514181086574;-;-;7.7050323;-3.1733246;-1.7542725;-;-;-;-;-;-;-;-;-;-;-;-;-;-;-
1514181086593;-;-;7.8079834;-3.9454498;-2.0379791;-;-;-;-;-;-;-;-;-;-;-;-;-;-;-
1514181086613;-;-;14.305847;-7.163254;-7.5302734;-;-;-;-;-;-;-;-;-;-;-;-;-;-;-
1514181086634;-;-;11.900864;-0.4666748;-8.5142975;-;-;-;-;-;-;-;-;-;-;-;-;-;-;-
1514181086654;-;-;8.933258;-1.028122;-3.8503876;-;-;-;-;-;-;-;-;-;-;-;-;-;-;-
1514181086675;-;-;5.7381897;-1.2866974;-3.54393;-;-;-;-;-;-;-;-;-;-;-;-;-;-;-
1514181086695;-;-;6.2110443;-1.5141449;-3.5774536;-;-;-;-;-;-;-;-;-;-;-;-;-;-;-
1514181086715;-;-;5.497574;-1.0185394;-5.0905914;-;-;-;-;-;-;-;-;-;-;-;-;-;-;-
1514181086735;-;-;4.664398;-1.3597107;-3.7737732;-;-;-;-;-;-;-;-;-;-;-;-;-;-;-
1514181086756;-;-;5.0522614;-1.7020874;-3.6205444;-;-;-;-;-;-;-;-;-;-;-;-;-;-;-
1514181086775;-;-;5.521515;-1.8014526;-3.820465;-;-;-;-;-;-;-;-;-;-;-;-;-;-;-
1514181086795;-;-;6.130844;-2.024109;-4.289734;-;-;-;-;-;-;-;-;-;-;-;-;-;-;-
1514181086816;-;-;6.094925;-1.9857941;-4.958908;-;-;-;-;-;-;-;-;-;-;-;-;-;-;-
1514181086837;-;-;5.177948;-1.5213165;-5.9333496;-;-;-;-;-;-;-;-;-;-;-;-;-;-;-
1514181086857;-;-;5.805237;-1.289093;-5.9249725;-;-;-;-;-;-;-;-;-;-;-;-;-;-;-
1514181086877;-;-;7.0142975;-1.6386414;-5.049881;-;-;-;-;-;-;-;-;-;-;-;-;-;-;-
1514181086898;-;-;7.727768;-3.076355;-4.6285095;-;-;-;-;-;-;-;-;-;-;-;-;-;-;-
1514181086918;-;-;7.082535;-3.7311707;-5.5538635;-;-;-;-;-;-;-;-;-;-;-;-;-;-;-
1514181086939;-;-;5.568207;-3.6198425;-5.7920837;-;-;-;-;-;-;-;-;-;-;-;-;-;-;-
1514181086959;-;-;5.1671753;-3.7419434;-4.8451843;-;-;-;-;-;-;-;-;-;-;-;-;-;-;-
1514181086980;-;-;5.600525;-2.6334229;-3.9641113;-;-;-;-;-;-;-;-;-;-;-;-;-;-;-
1514181087000;-;-;6.011139;-0.59954834;-4.357956;-;-;-;-;-;-;-;-;-;-;-;-;-;-;-
1514181087020;-;-;6.206253;0.6214905;-5.5095673;-;-;-;-;-;-;-;-;-;-;-;-;-;-;-
1514181087040;-;-;8.692642;1.0332947;-7.203476;-;-;-;-;-;-;-;-;-;-;-;-;-;-;-
1514181087061;-;-;9.711365;-0.13986206;-7.857086;-;-;-;-;-;-;-;-;-;-;-;-;-;-;-
1514181087081;-;-;8.480759;-1.9367218;-7.4273224;-;-;-;-;-;-;-;-;-;-;-;-;-;-;-
1514181087102;-;-;7.6343994;-2.7136383;-6.7521667;-;-;-;-;-;-;-;-;-;-;-;-;-;-;-
1514181087122;-;-;7.4847565;-2.3988037;-5.9261627;-;-;-;-;-;-;-;-;-;-;-;-;-;-;-
1514181087143;-;-;7.4057617;-1.6003265;-6.0326996;-;-;-;-;-;-;-;-;-;-;-;-;-;-;-
1514181087162;-;-;7.502716;-1.2411957;-6.1200867;-;-;-;-;-;-;-;-;-;-;-;-;-;-;-
1514181087183;-;-;7.628418;-0.6318817;-6.2146606;-;-;-;-;-;-;-;-;-;-;-;-;-;-;-
1514181087204;-;-;7.379425;-0.48703003;-6.3128204;-;-;-;-;-;-;-;-;-;-;-;-;-;-;-
1514181087225;-;-;7.12204;-0.79467773;-6.2888794;-;-;-;-;-;-;-;-;-;-;-;-;-;-;-
1514181087245;-;-;6.554611;-1.1358643;-7.385437;-;-;-;-;-;-;-;-;-;-;-;-;-;-;-
1514181087266;-;-;7.3303375;-1.1490326;-7.287262;-;-;-;-;-;-;-;-;-;-;-;-;-;-;-
1514181087286;-;-;7.9707794;-1.0197449;-7.31839;-;-;-;-;-;-;-;-;-;-;-;-;-;-;-
1514181087307;-;-;7.8953705;-1.2208557;-7.5254974;-;-;-;-;-;-;-;-;-;-;-;-;-;-;-
1514181087327;-;-;7.8833923;-1.506958;-6.7246246;-;-;-;-;-;-;-;-;-;-;-;-;-;-;-
1514181087348;-;-;8.474762;-1.4315338;-6.109314;-;-;-;-;-;-;-;-;-;-;-;-;-;-;-
1514181087368;-;-;9.458786;-0.9060211;-6.235016;-;-;-;-;-;-;-;-;-;-;-;-;-;-;-
1514181087388;-;-;11.064102;0.055252075;-6.650406;-;-;-;-;-;-;-;-;-;-;-;-;-;-;-
1514181087409;-;-;13.393646;0.1618042;-7.013138;-;-;-;-;-;-;-;-;-;-;-;-;-;-;-
1514181087430;-;-;13.176971;0.6250763;-8.089325;-;-;-;-;-;-;-;-;-;-;-;-;-;-;-
1514181087450;-;-;13.270355;0.4802246;-7.460846;-;-;-;-;-;-;-;-;-;-;-;-;-;-;-
1514181087470;-;-;12.807068;-0.2966919;-6.8431396;-;-;-;-;-;-;-;-;-;-;-;-;-;-;-
1514181087491;-;-;12.421616;-1.0747986;-4.3124695;-;-;-;-;-;-;-;-;-;-;-;-;-;-;-
1514181087511;-;-;10.485901;-1.7212372;-3.282959;-;-;-;-;-;-;-;-;-;-;-;-;-;-;-
1514181087531;-;-;8.606445;-0.8772888;-2.093048;-;-;-;-;-;-;-;-;-;-;-;-;-;-;-
1514181087552;-;-;6.822769;0.14144897;-0.9546051;-;-;-;-;-;-;-;-;-;-;-;-;-;-;-
1514181087571;-;-;5.438919;0.4119873;0.5693054;-;-;-;-;-;-;-;-;-;-;-;-;-;-;-
1514181087591;-;-;5.576584;0.05885315;0.2520752;-;-;-;-;-;-;-;-;-;-;-;-;-;-;-
1514181087612;-;-;5.628067;-0.14346313;-0.4733734;-;-;-;-;-;-;-;-;-;-;-;-;-;-;-
1514181087632;-;-;7.0729675;-0.31225586;-1.5040741;-;-;-;-;-;-;-;-;-;-;-;-;-;-;-
1514181087654;-;-;8.278442;-0.38287354;-2.6592712;-;-;-;-;-;-;-;-;-;-;-;-;-;-;-
1514181087674;-;-;9.88974;-0.83418274;-3.3643646;-;-;-;-;-;-;-;-;-;-;-;-;-;-;-
1514181087694;-;-;11.001846;-0.9862213;-3.4900665;-;-;-;-;-;-;-;-;-;-;-;-;-;-;-
1514181087715;-;-;10.8582;-0.5600586;-3.152481;-;-;-;-;-;-;-;-;-;-;-;-;-;-;-
1514181087735;-;-;10.575684;-0.22964478;-2.2809906;-;-;-;-;-;-;-;-;-;-;-;-;-;-;-
1514181087756;-;-;9.789185;-0.0440979;-1.5280151;-;-;-;-;-;-;-;-;-;-;-;-;-;-;-
1514181087776;-;-;8.953613;0.20848083;-1.0551605;-;-;-;-;-;-;-;-;-;-;-;-;-;-;-
1514181087797;-;-;8.473572;0.62628174;-0.5104828;-;-;-;-;-;-;-;-;-;-;-;-;-;-;-
1514181087817;-;-;8.1527405;0.5987396;-0.51885986;-;-;-;-;-;-;-;-;-;-;-;-;-;-;-
1514181087838;-;-;8.130005;0.17497253;-0.7750397;-;-;-;-;-;-;-;-;-;-;-;-;-;-;-
1514181087859;-;-;8.387375;-0.27394104;-1.0539703;-;-;-;-;-;-;-;-;-;-;-;-;-;-;-
1514181087878;-;-;8.854248;-0.39485168;-1.0539703;-;-;-;-;-;-;-;-;-;-;-;-;-;-;-
1514181087898;-;-;8.985931;-0.289505;-0.95700073;-;-;-;-;-;-;-;-;-;-;-;-;-;-;-
1514181087919;-;-;9.0793;-0.16261292;-0.9330597;-;-;-;-;-;-;-;-;-;-;-;-;-;-;-
1514181087939;-;-;9.392944;0.08758545;-0.57032776;-;-;-;-;-;-;-;-;-;-;-;-;-;-;-
1514181087959;-;-;9.37619;-0.08958435;-0.6708832;-;-;-;-;-;-;-;-;-;-;-;-;-;-;-
1514181087980;-;-;9.477936;-0.27275085;-0.8205261;-;-;-;-;-;-;-;-;-;-;-;-;-;-;-
1514181088000;-;-;9.855026;0.026535034;-0.8384857;-;-;-;-;-;-;-;-;-;-;-;-;-;-;-
1514181088021;-;-;9.655106;0.32460022;-0.8612366;-;-;-;-;-;-;-;-;-;-;-;-;-;-;-
1514181088041;-;-;9.124786;0.27792358;-0.9115143;-;-;-;-;-;-;-;-;-;-;-;-;-;-;-
1514181088062;-;-;8.702209;-0.28231812;-0.72236633;-;-;-;-;-;-;-;-;-;-;-;-;-;-;-
1514181088081;-;-;8.462799;-0.98501587;-0.86361694;-;-;-;-;-;-;-;-;-;-;-;-;-;-;-
1514181088102;-;-;9.012268;-1.3381653;-1.2694397;-;-;-;-;-;-;-;-;-;-;-;-;-;-;-
1514181088122;-;-;10.306335;-0.68455505;-2.1457214;-;-;-;-;-;-;-;-;-;-;-;-;-;-;-
1514181088142;-;-;10.154297;0.24440002;-2.6808167;-;-;-;-;-;-;-;-;-;-;-;-;-;-;-
1514181088163;-;-;9.503082;0.596344;-2.294159;-;-;-;-;-;-;-;-;-;-;-;-;-;-;-
1514181088184;-;-;9.69342;-0.5157623;-1.574707;-;-;-;-;-;-;-;-;-;-;-;-;-;-;-
1514181088204;-;-;9.598846;-0.88446045;-1.8237;-;-;-;-;-;-;-;-;-;-;-;-;-;-;-
1514181088226;-;-;9.21936;-0.38168335;-1.5806885;-;-;-;-;-;-;-;-;-;-;-;-;-;-;-
1514181088245;-;-;9.318726;-0.1697998;-1.658493;-;-;-;-;-;-;-;-;-;-;-;-;-;-;-
1514181088266;-;-;9.467163;-0.28471375;-1.2790222;-;-;-;-;-;-;-;-;-;-;-;-;-;-;-
1514181088286;-;-;9.323517;-0.64505005;-1.1904297;-;-;-;-;-;-;-;-;-;-;-;-;-;-;-
1514181088306;-;-;9.422867;-0.9287567;-1.4968872;-;-;-;-;-;-;-;-;-;-;-;-;-;-;-
1514181088326;-;-;9.803543;-0.96946716;-1.7578583;-;-;-;-;-;-;-;-;-;-;-;-;-;-;-
1514181088347;-;-;9.590469;-0.72525024;-1.7075806;-;-;-;-;-;-;-;-;-;-;-;-;-;-;-
1514181088367;-;-;9.2313385;-1.2986603;-1.7279358;-;-;-;-;-;-;-;-;-;-;-;-;-;-;-
1514181088388;-;-;9.099655;-2.0600128;-1.8991089;-;-;-;-;-;-;-;-;-;-;-;-;-;-;-
1514181088407;-;-;8.813553;-2.2491608;-2.2450714;-;-;-;-;-;-;-;-;-;-;-;-;-;-;-
1514181088428;-;-;8.5849;-1.9295349;-2.752655;-;-;-;-;-;-;-;-;-;-;-;-;-;-;-
1514181088448;-;-;7.921707;-1.4387207;-3.0363617;-;-;-;-;-;-;-;-;-;-;-;-;-;-;-
1514181088468;-;-;8.954803;-0.8282013;-3.4529572;-;-;-;-;-;-;-;-;-;-;-;-;-;-;-
1514181088489;-;-;9.697006;-0.11352539;-3.7989197;-;-;-;-;-;-;-;-;-;-;-;-;-;-;-
1514181088509;-;-;10.4092865;0.28390503;-3.429016;-;-;-;-;-;-;-;-;-;-;-;-;-;-;-
1514181088530;-;-;10.203384;-0.20211792;-2.8783417;-;-;-;-;-;-;-;-;-;-;-;-;-;-;-
1514181088549;-;-;9.3893585;-1.0257263;-2.310913;-;-;-;-;-;-;-;-;-;-;-;-;-;-;-
1514181088570;-;-;8.380188;-0.933548;-1.2814178;-;-;-;-;-;-;-;-;-;-;-;-;-;-;-
1514181088589;-;-;8.059372;-0.47625732;-0.7666626;-;-;-;-;-;-;-;-;-;-;-;-;-;-;-
1514181088609;-;-;7.9995117;-0.5205536;-0.57751465;-;-;-;-;-;-;-;-;-;-;-;-;-;-;-
1514181088629;-;-;7.6427765;-1.0352936;-0.5128784;-;-;-;-;-;-;-;-;-;-;-;-;-;-;-
1514181088650;-;-;8.019867;-1.3848572;-0.27824402;-;-;-;-;-;-;-;-;-;-;-;-;-;-;-
1514181088670;-;-;8.807556;-1.3860474;-0.097473145;-;-;-;-;-;-;-;-;-;-;-;-;-;-;-
1514181088691;-;-;9.372589;-1.5297089;-0.34169006;-;-;-;-;-;-;-;-;-;-;-;-;-;-;-
1514181088710;-;-;9.821503;-1.313034;-0.5392151;-;-;-;-;-;-;-;-;-;-;-;-;-;-;-
1514181088731;-;-;9.513855;-0.5827942;-0.78341675;-;-;-;-;-;-;-;-;-;-;-;-;-;-;-
1514181088751;-;-;8.892548;-0.15423584;-1.4549866;-;-;-;-;-;-;-;-;-;-;-;-;-;-;-
1514181088772;-;-;9.4887085;-0.13986206;-1.1892395;-;-;-;-;-;-;-;-;-;-;-;-;-;-;-
1514181088792;-;-;9.911285;-0.33140564;-1.030014;-;-;-;-;-;-;-;-;-;-;-;-;-;-;-
1514181088812;-;-;9.63356;-1.0257263;-1.447815;-;-;-;-;-;-;-;-;-;-;-;-;-;-;-
1514181088833;-;-;9.092468;-1.3214111;-1.7327118;-;-;-;-;-;-;-;-;-;-;-;-;-;-;-
1514181088854;-;-;8.92009;-1.2986603;-1.4214783;-;-;-;-;-;-;-;-;-;-;-;-;-;-;-
1514181088874;-;-;8.754883;-1.0700226;-1.634552;-;-;-;-;-;-;-;-;-;-;-;-;-;-;-
1514181088895;-;-;8.929672;-0.5648346;-1.5411835;-;-;-;-;-;-;-;-;-;-;-;-;-;-;-
1514181088914;-;-;8.83989;-0.5600586;-1.6525116;-;-;-;-;-;-;-;-;-;-;-;-;-;-;-
1514181088934;-;-;9.500687;-0.6917267;-1.574707;-;-;-;-;-;-;-;-;-;-;-;-;-;-;-
1514181088955;-;-;9.518631;-0.9048157;-1.9218597;-;-;-;-;-;-;-;-;-;-;-;-;-;-;-
1514181088975;-;-;9.866989;-0.7336273;-1.6788483;-;-;-;-;-;-;-;-;-;-;-;-;-;-;-
1514181088996;-;-;9.707779;-0.5169525;-1.4645691;-;-;-;-;-;-;-;-;-;-;-;-;-;-;-
1514181089015;-;-;9.797562;-0.5337219;-1.1976166;-;-;-;-;-;-;-;-;-;-;-;-;-;-;-
1514181089036;-;-;9.51265;-0.41041565;-0.94862366;-;-;-;-;-;-;-;-;-;-;-;-;-;-;-
1514181089056;-;-;8.905716;-0.59716797;-1.061142;-;-;-;-;-;-;-;-;-;-;-;-;-;-;-
1514181089077;-;-;8.521454;-0.6294861;-0.82650757;-;-;-;-;-;-;-;-;-;-;-;-;-;-;-
1514181089097;-;-;8.382584;-0.8533478;-0.6948395;-;-;-;-;-;-;-;-;-;-;-;-;-;-;-
1514181089118;-;-;8.881775;-0.95150757;-1.0336151;-;-;-;-;-;-;-;-;-;-;-;-;-;-;-
1514181089138;-;-;9.23732;-1.0700226;-1.064743;-;-;-;-;-;-;-;-;-;-;-;-;-;-;-
1514181089159;-;-;9.364212;-1.3633118;-1.148529;-;-;-;-;-;-;-;-;-;-;-;-;-;-;-
1514181089179;-;-;9.367798;-1.5656128;-1.2419128;-;-;-;-;-;-;-;-;-;-;-;-;-;-;-
1514181089199;-;-;9.303162;-1.562027;-1.3508453;-;-;-;-;-;-;-;-;-;-;-;-;-;-;-
1514181089220;-;-;9.226547;-1.3860474;-1.0958557;-;-;-;-;-;-;-;-;-;-;-;-;-;-;-
1514181089240;-;-;8.918884;-1.3621063;-0.7582855;-;-;-;-;-;-;-;-;-;-;-;-;-;-;-
1514181089261;-;-;8.957199;-1.5177307;-0.57632446;-;-;-;-;-;-;-;-;-;-;-;-;-;-;-
1514181089281;-;-;9.054169;-1.4746399;-0.7175751;-;-;-;-;-;-;-;-;-;-;-;-;-;-;-
1514181089302;-;-;9.25647;-1.3776703;-0.6253967;-;-;-;-;-;-;-;-;-;-;-;-;-;-;-
1514181089322;-;-;9.560532;-1.4842072;-0.511673;-;-;-;-;-;-;-;-;-;-;-;-;-;-;-
1514181089342;-;-;9.71376;-1.6158905;-0.6481476;-;-;-;-;-;-;-;-;-;-;-;-;-;-;-
1514181089363;-;-;9.594055;-1.6685638;-0.72476196;-;-;-;-;-;-;-;-;-;-;-;-;-;-;-
1514181089383;-;-;9.419281;-1.3704834;-0.3081665;-;-;-;-;-;-;-;-;-;-;-;-;-;-;-
1514181089404;-;-;9.304352;-1.0496674;-0.011291504;-;-;-;-;-;-;-;-;-;-;-;-;-;-;-
1514181089424;-;-;9.166687;-1.0424805;0.001876831;-;-;-;-;-;-;-;-;-;-;-;-;-;-;-
1514181089445;-;-;9.075714;-1.4399261;-0.083114624;-;-;-;-;-;-;-;-;-;-;-;-;-;-;-
1514181089466;-;-;9.209793;-1.7655334;-0.0029144287;-;-;-;-;-;-;-;-;-;-;-;-;-;-;-
1514181089486;-;-;9.31633;-1.8014526;0.03060913;-;-;-;-;-;-;-;-;-;-;-;-;-;-;-
1514181089505;-;-;9.353439;-1.6123047;0.06652832;-;-;-;-;-;-;-;-;-;-;-;-;-;-;-
1514181089526;-;-;9.250488;-1.3836517;0.106033325;-;-;-;-;-;-;-;-;-;-;-;-;-;-;-
1514181089546;-;-;9.153519;-1.2232513;0.18862915;-;-;-;-;-;-;-;-;-;-;-;-;-;-;-
1514181089567;-;-;9.128387;-1.1789551;0.15989685;-;-;-;-;-;-;-;-;-;-;-;-;-;-;-
1514181089587;-;-;9.178665;-1.2124786;0.04019165;-;-;-;-;-;-;-;-;-;-;-;-;-;-;-
1514181089608;-;-;9.135559;-1.2184601;-0.05558777;-;-;-;-;-;-;-;-;-;-;-;-;-;-;-
1514181089628;-;-;9.122391;-1.2627563;0.017440796;-;-;-;-;-;-;-;-;-;-;-;-;-;-;-
1514181089649;-;-;9.268448;-1.3022614;0.18623352;-;-;-;-;-;-;-;-;-;-;-;-;-;-;-
1514181089669;-;-;9.284012;-1.451889;0.13595581;-;-;-;-;-;-;-;-;-;-;-;-;-;-;-
1514181089690;-;-;9.288788;-1.5584412;0.021026611;-;-;-;-;-;-;-;-;-;-;-;-;-;-;-
1514181089710;-;-;9.183456;-1.4363251;-0.011291504;-;-;-;-;-;-;-;-;-;-;-;-;-;-;-
1514181089730;-;-;9.15831;-1.2723236;0.050964355;-;-;-;-;-;-;-;-;-;-;-;-;-;-;-
1514181089751;-;-;9.09845;-0.9287567;-0.026855469;-;-;-;-;-;-;-;-;-;-;-;-;-;-;-
1514181089770;-;-;9.268448;-0.70610046;-0.17050171;-;-;-;-;-;-;-;-;-;-;-;-;-;-;-
1514181089791;-;-;9.39534;-0.70610046;-0.27464294;-;-;-;-;-;-;-;-;-;-;-;-;-;-;-
1514181089811;-;-;9.503082;-0.89404297;-0.34288025;-;-;-;-;-;-;-;-;-;-;-;-;-;-;-
1514181089832;-;-;9.51265;-1.2459869;-0.40274048;-;-;-;-;-;-;-;-;-;-;-;-;-;-;-
1514181089852;-;-;9.343857;-1.3980255;-0.3871765;-;-;-;-;-;-;-;-;-;-;-;-;-;-;-
1514181089873;-;-;9.205002;-1.2064819;-0.23155212;-;-;-;-;-;-;-;-;-;-;-;-;-;-;-
1514181089893;-;-;9.066132;-0.9550934;-0.16452026;-;-;-;-;-;-;-;-;-;-;-;-;-;-;-
1514181089913;-;-;8.599258;-1.0951538;-0.27105713;-;-;-;-;-;-;-;-;-;-;-;-;-;-;-
1514181089933;-;-;8.559753;-1.1885223;-0.06036377;-;-;-;-;-;-;-;-;-;-;-;-;-;-;-
1514181089954;-;-;8.857834;-1.2531738;0.03779602;-;-;-;-;-;-;-;-;-;-;-;-;-;-;-
1514181089975;-;-;9.181061;-1.2843018;0.10482788;-;-;-;-;-;-;-;-;-;-;-;-;-;-;-
1514181089995;-;-;9.407303;-1.1203003;0.12997437;-;-;-;-;-;-;-;-;-;-;-;-;-;-;-
1514181090016;-;-;9.524628;-1.0448761;0.20898438;-;-;-;-;-;-;-;-;-;-;-;-;-;-;-
1514181090037;-;-;9.571304;-1.1562042;0.27601624;-;-;-;-;-;-;-;-;-;-;-;-;-;-;-
1514181090057;-;-;9.536591;-1.2196503;0.14672852;-;-;-;-;-;-;-;-;-;-;-;-;-;-;-
1514181090077;-;-;9.444412;-1.3262024;-0.2507019;-;-;-;-;-;-;-;-;-;-;-;-;-;-;-
1514181090098;-;-;9.343857;-1.2807007;-0.6014557;-;-;-;-;-;-;-;-;-;-;-;-;-;-;-
1514181090118;-;-;9.55455;-1.0388947;-1.0144653;-;-;-;-;-;-;-;-;-;-;-;-;-;-;-
1514181090138;-;-;9.561737;-0.7300415;-1.3053589;-;-;-;-;-;-;-;-;-;-;-;-;-;-;-
1514181090159;-;-;9.274429;-0.4774475;-1.2383118;-;-;-;-;-;-;-;-;-;-;-;-;-;-;-
1514181090179;-;-;8.850662;-0.50138855;-0.9366455;-;-;-;-;-;-;-;-;-;-;-;-;-;-;-
1514181090199;-;-;8.701019;-0.739624;-0.70680237;-;-;-;-;-;-;-;-;-;-;-;-;-;-;-
1514181090220;-;-;8.885376;-1.2711334;-0.6194153;-;-;-;-;-;-;-;-;-;-;-;-;-;-;-
1514181090240;-;-;9.143951;-1.3549194;-0.8360901;-;-;-;-;-;-;-;-;-;-;-;-;-;-;-
1514181090261;-;-;9.495895;-1.0089569;-0.88397217;-;-;-;-;-;-;-;-;-;-;-;-;-;-;-
1514181090280;-;-;9.580887;-0.71447754;-1.1066284;-;-;-;-;-;-;-;-;-;-;-;-;-;-;-
1514181090300;-;-;9.509064;-0.660614;-1.2311401;-;-;-;-;-;-;-;-;-;-;-;-;-;-;-
1514181090321;-;-;9.137955;-0.84376526;-1.0946655;-;-;-;-;-;-;-;-;-;-;-;-;-;-;-
1514181090341;-;-;8.996704;-0.7480011;-0.9905243;-;-;-;-;-;-;-;-;-;-;-;-;-;-;-
1514181090362;-;-;8.945221;-0.8497467;-0.8169403;-;-;-;-;-;-;-;-;-;-;-;-;-;-;-
1514181090381;-;-;8.98233;-0.99938965;-0.7307434;-;-;-;-;-;-;-;-;-;-;-;-;-;-;-
1514181090401;-;-;9.269638;-1.1969147;-0.79418945;-;-;-;-;-;-;-;-;-;-;-;-;-;-;-
1514181090421;-;-;9.359421;-1.1813507;-0.8360901;-;-;-;-;-;-;-;-;-;-;-;-;-;-;-
1514181090442;-;-;9.416885;-1.0352936;-0.8360901;-;-;-;-;-;-;-;-;-;-;-;-;-;-;-
1514181090461;-;-;9.300766;-0.9790344;-1.2502899;-;-;-;-;-;-;-;-;-;-;-;-;-;-;-
1514181090481;-;-;9.001495;-0.9754486;-1.3197174;-;-;-;-;-;-;-;-;-;-;-;-;-;-;-
1514181090501;-;-;9.081696;-0.86172485;-0.85884094;-;-;-;-;-;-;-;-;-;-;-;-;-;-;-
1514181090522;-;-;9.172684;-0.67855835;-0.5344238;-;-;-;-;-;-;-;-;-;-;-;-;-;-;-
1514181090542;-;-;9.096069;-0.50138855;-0.6014557;-;-;-;-;-;-;-;-;-;-;-;-;-;-;-
1514181090563;-;-;8.8051605;-0.23085022;-0.922287;-;-;-;-;-;-;-;-;-;-;-;-;-;-;-
1514181090584;-;-;8.751297;-0.17936707;-1.4310455;-;-;-;-;-;-;-;-;-;-;-;-;-;-;-
1514181090604;-;-;8.7656555;-0.3074646;-1.9912872;-;-;-;-;-;-;-;-;-;-;-;-;-;-;-
1514181090625;-;-;9.122391;-0.3481598;-1.5830841;-;-;-;-;-;-;-;-;-;-;-;-;-;-;-
1514181090646;-;-;9.47554;-0.59954834;-1.4813232;-;-;-;-;-;-;-;-;-;-;-;-;-;-;-
1514181090666;-;-;9.462372;-0.6498413;-1.6728668;-;-;-;-;-;-;-;-;-;-;-;-;-;-;-
1514181090685;-;-;9.322311;-1.0879669;-1.5962524;-;-;-;-;-;-;-;-;-;-;-;-;-;-;-
1514181090706;-;-;9.220566;-1.2112732;-1.5639343;-;-;-;-;-;-;-;-;-;-;-;-;-;-;-
1514181090726;-;-;9.154724;-1.0305176;-1.5208282;-;-;-;-;-;-;-;-;-;-;-;-;-;-;-
1514181090747;-;-;8.903336;-0.7156677;-1.7219391;-;-;-;-;-;-;-;-;-;-;-;-;-;-;-
1514181090767;-;-;8.909317;-0.7096863;-1.9936829;-;-;-;-;-;-;-;-;-;-;-;-;-;-;-
1514181090789;-;-;9.103241;-1.2651367;-2.168457;-;-;-;-;-;-;-;-;-;-;-;-;-;-;-
1514181090810;-;-;9.353439;-1.6123047;-2.2127533;-;-;-;-;-;-;-;-;-;-;-;-;-;-;-
1514181090830;-;-;9.510254;-1.5692139;-2.13974;-;-;-;-;-;-;-;-;-;-;-;-;-;-;-
1514181090851;-;-;9.385757;-1.4734344;-1.9733429;-;-;-;-;-;-;-;-;-;-;-;-;-;-;-
1514181090872;-;-;9.343857;-1.5165405;-2.036789;-;-;-;-;-;-;-;-;-;-;-;-;-;-;-
1514181090891;-;-;9.578491;-1.028122;-2.2163544;-;-;-;-;-;-;-;-;-;-;-;-;-;-;-
1514181090912;-;-;9.483917;-0.42118835;-2.5850525;-;-;-;-;-;-;-;-;-;-;-;-;-;-;-
1514181090931;-;-;8.96199;-0.16859436;-3.1692352;-;-;-;-;-;-;-;-;-;-;-;-;-;-;-
1514181090952;-;-;8.219788;-0.088394165;-3.3188782;-;-;-;-;-;-;-;-;-;-;-;-;-;-;-
1514181090972;-;-;8.200638;-0.3086548;-3.2937317;-;-;-;-;-;-;-;-;-;-;-;-;-;-;-
1514181090992;-;-;8.964386;-0.63786316;-3.2937317;-;-;-;-;-;-;-;-;-;-;-;-;-;-;-
1514181091013;-;-;9.680252;-0.63427734;-3.725891;-;-;-;-;-;-;-;-;-;-;-;-;-;-;-
1514181091034;-;-;9.882553;-0.4846344;-3.3966827;-;-;-;-;-;-;-;-;-;-;-;-;-;-;-
1514181091053;-;-;9.79158;-0.74320984;-3.4110565;-;-;-;-;-;-;-;-;-;-;-;-;-;-;-
1514181091074;-;-;9.635956;-0.44273376;-2.3671875;-;-;-;-;-;-;-;-;-;-;-;-;-;-;-
1514181091094;-;-;9.214569;-0.22366333;-1.689621;-;-;-;-;-;-;-;-;-;-;-;-;-;-;-
1514181091114;-;-;8.538208;-0.2787323;-1.0838928;-;-;-;-;-;-;-;-;-;-;-;-;-;-;-
1514181091135;-;-;8.358643;-0.3972473;-0.95339966;-;-;-;-;-;-;-;-;-;-;-;-;-;-;-
1514181091155;-;-;8.756088;-0.29908752;-1.0539703;-;-;-;-;-;-;-;-;-;-;-;-;-;-;-
1514181091176;-;-;9.092468;-0.023742676;-0.7786255;-;-;-;-;-;-;-;-;-;-;-;-;-;-;-
1514181091196;-;-;9.0733185;-0.109939575;-0.7295532;-;-;-;-;-;-;-;-;-;-;-;-;-;-;-
1514181091217;-;-;8.717773;-0.040512085;-1.188034;-;-;-;-;-;-;-;-;-;-;-;-;-;-;-
1514181091237;-;-;8.223373;-0.107543945;-1.7806091;-;-;-;-;-;-;-;-;-;-;-;-;-;-;-
1514181091257;-;-;8.430481;-0.37210083;-2.1648712;-;-;-;-;-;-;-;-;-;-;-;-;-;-;-
1514181091277;-;-;9.327103;-0.5851898;-1.8979187;-;-;-;-;-;-;-;-;-;-;-;-;-;-;-
1514181091298;-;-;9.664688;-0.64624023;-1.7782135;-;-;-;-;-;-;-;-;-;-;-;-;-;-;-
1514181091319;-;-;9.868195;-0.5456848;-2.005661;-;-;-;-;-;-;-;-;-;-;-;-;-;-;-
1514181091339;-;-;9.586868;-0.5384979;-2.5096436;-;-;-;-;-;-;-;-;-;-;-;-;-;-;-
1514181091360;-;-;9.543777;-0.4152069;-2.5922394;-;-;-;-;-;-;-;-;-;-;-;-;-;-;-
1514181091379;-;-;9.189438;-0.42837524;-2.757431;-;-;-;-;-;-;-;-;-;-;-;-;-;-;-
1514181091399;-;-;8.835098;-0.29788208;-1.8787689;-;-;-;-;-;-;-;-;-;-;-;-;-;-;-
1514181091420;-;-;8.606445;-0.3433838;-1.3245087;-;-;-;-;-;-;-;-;-;-;-;-;-;-;-
1514181091439;-;-;8.629196;-0.43077087;-0.83010864;-;-;-;-;-;-;-;-;-;-;-;-;-;-;-
1514181091459;-;-;8.4292755;-0.6330719;-0.7738342;-;-;-;-;-;-;-;-;-;-;-;-;-;-;-
1514181091481;-;-;8.496307;-0.7779236;-0.80137634;-;-;-;-;-;-;-;-;-;-;-;-;-;-;-
1514181091501;-;-;8.684265;-1.3142242;-1.0156555;-;-;-;-;-;-;-;-;-;-;-;-;-;-;-
1514181091521;-;-;8.513077;-1.6625824;-1.3915405;-;-;-;-;-;-;-;-;-;-;-;-;-;-;-
1514181091542;-;-;8.867416;-2.1845245;-1.392746;-;-;-;-;-;-;-;-;-;-;-;-;-;-;-
1514181091562;-;-;9.2756195;-2.6118774;-1.5447693;-;-;-;-;-;-;-;-;-;-;-;-;-;-;-
1514181091582;-;-;9.134369;-2.2443695;-1.768631;-;-;-;-;-;-;-;-;-;-;-;-;-;-;-
1514181091603;-;-;9.470749;-1.7523651;-1.9051056;-;-;-;-;-;-;-;-;-;-;-;-;-;-;-
1514181091624;-;-;9.419281;-1.5285034;-2.0104523;-;-;-;-;-;-;-;-;-;-;-;-;-;-;-
1514181091644;-;-;9.273239;-1.2819061;-1.7470856;-;-;-;-;-;-;-;-;-;-;-;-;-;-;-
1514181091665;-;-;9.029022;-1.1657867;-1.5842743;-;-;-;-;-;-;-;-;-;-;-;-;-;-;-
1514181091685;-;-;8.861435;-1.5356903;-1.4885101;-;-;-;-;-;-;-;-;-;-;-;-;-;-;-
1514181091705;-;-;9.63356;-1.913971;-1.2395172;-;-;-;-;-;-;-;-;-;-;-;-;-;-;-
1514181091726;-;-;10.137543;-2.0851593;-1.2059937;-;-;-;-;-;-;-;-;-;-;-;-;-;-;-
1514181091746;-;-;9.501877;-2.1893005;-1.8703918;-;-;-;-;-;-;-;-;-;-;-;-;-;-;-
1514181091767;-;-;8.606445;-1.8493347;-1.9841156;-;-;-;-;-;-;-;-;-;-;-;-;-;-;-
1514181091787;-;-;8.517868;-1.4075928;-1.6560974;-;-;-;-;-;-;-;-;-;-;-;-;-;-;-
1514181091808;-;-;8.957199;-0.9395294;-1.1904297;-;-;-;-;-;-;-;-;-;-;-;-;-;-;-
1514181091828;-;-;9.127182;-0.8641205;-1.1688843;-;-;-;-;-;-;-;-;-;-;-;-;-;-;-
1514181091849;-;-;8.908112;-0.9395294;-0.966568;-;-;-;-;-;-;-;-;-;-;-;-;-;-;-
1514181091869;-;-;8.76207;-0.80784607;-1.3065491;-;-;-;-;-;-;-;-;-;-;-;-;-;-;-
1514181091890;-;-;8.888962;-0.8880615;-1.5615387;-;-;-;-;-;-;-;-;-;-;-;-;-;-;-
1514181091911;-;-;9.793976;-0.8665161;-2.2223358;-;-;-;-;-;-;-;-;-;-;-;-;-;-;-
1514181091932;-;-;10.951569;-1.3501434;-3.4158478;-;-;-;-;-;-;-;-;-;-;-;-;-;-;-
1514181091951;-;-;10.678635;-2.4993591;-3.93898;-;-;-;-;-;-;-;-;-;-;-;-;-;-;-
1514181091972;-;-;9.852631;-3.0392456;-3.8180695;-;-;-;-;-;-;-;-;-;-;-;-;-;-;-
1514181091992;-;-;9.062546;-2.5855408;-3.5140076;-;-;-;-;-;-;-;-;-;-;-;-;-;-;-
1514181092013;-;-;8.667496;-2.0217133;-3.112976;-;-;-;-;-;-;-;-;-;-;-;-;-;-;-
1514181092033;-;-;7.7996063;-1.2830963;-2.9453888;-;-;-;-;-;-;-;-;-;-;-;-;-;-;-
1514181092054;-;-;6.8754425;-0.58877563;-2.79216;-;-;-;-;-;-;-;-;-;-;-;-;-;-;-
1514181092074;-;-;6.8311462;-0.23085022;-2.5922394;-;-;-;-;-;-;-;-;-;-;-;-;-;-;-
1514181092094;-;-;6.9340973;-0.19013977;-2.3240814;-;-;-;-;-;-;-;-;-;-;-;-;-;-;-
1514181092114;-;-;7.02507;-0.52293396;-2.1576843;-;-;-;-;-;-;-;-;-;-;-;-;-;-;-
1514181092135;-;-;7.02269;-0.73483276;-1.7817993;-;-;-;-;-;-;-;-;-;-;-;-;-;-;-
1514181092155;-;-;7.4572296;-0.6713867;-1.7099762;-;-;-;-;-;-;-;-;-;-;-;-;-;-;-
1514181092176;-;-;8.3502655;-0.25479126;-1.4310455;-;-;-;-;-;-;-;-;-;-;-;-;-;-;-
1514181092195;-;-;9.048172;-0.3577423;-1.4298553;-;-;-;-;-;-;-;-;-;-;-;-;-;-;-
1514181092216;-;-;10.276398;-1.3429565;-0.9354553;-;-;-;-;-;-;-;-;-;-;-;-;-;-;-
1514181092236;-;-;11.3741455;-1.7188416;-1.4657593;-;-;-;-;-;-;-;-;-;-;-;-;-;-;-
1514181092257;-;-;12.092407;-1.5512543;-3.0758667;-;-;-;-;-;-;-;-;-;-;-;-;-;-;-
1514181092277;-;-;11.475891;-1.5907593;-4.3005066;-;-;-;-;-;-;-;-;-;-;-;-;-;-;-
1514181092298;-;-;10.484695;-1.6721649;-4.266983;-;-;-;-;-;-;-;-;-;-;-;-;-;-;-
1514181092319;-;-;10.111206;-1.2914734;-2.9178467;-;-;-;-;-;-;-;-;-;-;-;-;-;-;-
1514181092339;-;-;9.59166;-1.0137482;-1.9877014;-;-;-;-;-;-;-;-;-;-;-;-;-;-;-
1514181092359;-;-;8.696228;-1.2040863;-1.7207489;-;-;-;-;-;-;-;-;-;-;-;-;-;-;-
1514181092380;-;-;7.7996063;-1.5548401;-1.579483;-;-;-;-;-;-;-;-;-;-;-;-;-;-;-
1514181092400;-;-;7.6739044;-1.1789551;-1.7075806;-;-;-;-;-;-;-;-;-;-;-;-;-;-;-
1514181092421;-;-;7.818756;-0.6222992;-1.6944122;-;-;-;-;-;-;-;-;-;-;-;-;-;-;-
1514181092441;-;-;8.351471;-0.41999817;-1.658493;-;-;-;-;-;-;-;-;-;-;-;-;-;-;-
1514181092462;-;-;9.105637;-0.6761627;-2.0954437;-;-;-;-;-;-;-;-;-;-;-;-;-;-;-
1514181092482;-;-;9.833481;-1.0700226;-2.8567963;-;-;-;-;-;-;-;-;-;-;-;-;-;-;-
1514181092503;-;-;9.953186;-1.1346588;-3.1704407;-;-;-;-;-;-;-;-;-;-;-;-;-;-;-
1514181092522;-;-;9.558136;-1.1981049;-3.2266998;-;-;-;-;-;-;-;-;-;-;-;-;-;-;-
1514181092542;-;-;9.163101;-1.4961853;-2.508438;-;-;-;-;-;-;-;-;-;-;-;-;-;-;-
1514181092563;-;-;8.923676;-1.6529999;-1.7422943;-;-;-;-;-;-;-;-;-;-;-;-;-;-;-
1514181092584;-;-;8.7608795;-1.6075134;-1.5998383;-;-;-;-;-;-;-;-;-;-;-;-;-;-;-
1514181092606;-;-;8.544205;-1.412384;-1.3328857;-;-;-;-;-;-;-;-;-;-;-;-;-;-;-
1514181092626;-;-;8.82312;-1.0065765;-1.4813232;-;-;-;-;-;-;-;-;-;-;-;-;-;-;-
1514181092646;-;-;9.274429;-0.53970337;-1.9541779;-;-;-;-;-;-;-;-;-;-;-;-;-;-;-
1514181092667;-;-;9.410904;-0.14465332;-2.0750885;-;-;-;-;-;-;-;-;-;-;-;-;-;-;-
1514181092687;-;-;9.3498535;-0.3146515;-1.7506714;-;-;-;-;-;-;-;-;-;-;-;-;-;-;-
1514181092708;-;-;9.340271;-0.5959625;-1.4418182;-;-;-;-;-;-;-;-;-;-;-;-;-;-;-
1514181092728;-;-;9.148727;-0.40083313;-1.3807678;-;-;-;-;-;-;-;-;-;-;-;-;-;-;-
1514181092748;-;-;9.093674;-0.2212677;-1.4095001;-;-;-;-;-;-;-;-;-;-;-;-;-;-;-
1514181092769;-;-;9.408508;-0.08480835;-1.5854797;-;-;-;-;-;-;-;-;-;-;-;-;-;-;-
1514181092789;-;-;9.798767;-0.49061584;-1.693222;-;-;-;-;-;-;-;-;-;-;-;-;-;-;-
1514181092810;-;-;9.710175;-0.6761627;-1.8021545;-;-;-;-;-;-;-;-;-;-;-;-;-;-;-
1514181092831;-;-;9.31633;-0.8066559;-1.6704712;-;-;-;-;-;-;-;-;-;-;-;-;-;-;-
1514181092851;-;-;8.712982;-0.77194214;-1.4992828;-;-;-;-;-;-;-;-;-;-;-;-;-;-;-
1514181092871;-;-;8.340698;-0.8186188;-0.71517944;-;-;-;-;-;-;-;-;-;-;-;-;-;-;-
1514181092892;-;-;8.453217;-0.74560547;-0.77264404;-;-;-;-;-;-;-;-;-;-;-;-;-;-;-
1514181092912;-;-;8.689041;-0.5205536;-0.927063;-;-;-;-;-;-;-;-;-;-;-;-;-;-;-
1514181092933;-;-;9.009872;-0.25120544;-1.0707245;-;-;-;-;-;-;-;-;-;-;-;-;-;-;-
1514181092953;-;-;9.2708435;-0.20930481;-1.0431824;-;-;-;-;-;-;-;-;-;-;-;-;-;-;-
1514181092974;-;-;9.305557;-0.04888916;-1.0527649;-;-;-;-;-;-;-;-;-;-;-;-;-;-;-
1514181092993;-;-;9.635956;-0.06564331;-1.258667;-;-;-;-;-;-;-;-;-;-;-;-;-;-;-
1514181093014;-;-;9.558136;-0.015365601;-1.1976166;-;-;-;-;-;-;-;-;-;-;-;-;-;-;-
1514181093034;-;-;9.2708435;-0.0045928955;-0.87080383;-;-;-;-;-;-;-;-;-;-;-;-;-;-;-
1514181093055;-;-;9.043396;-0.0069885254;-0.72236633;-;-;-;-;-;-;-;-;-;-;-;-;-;-;-
1514181093075;-;-;8.857834;-0.069244385;-0.511673;-;-;-;-;-;-;-;-;-;-;-;-;-;-;-
1514181093095;-;-;8.972763;-0.24760437;-0.46858215;-;-;-;-;-;-;-;-;-;-;-;-;-;-;-
1514181093116;-;-;9.052963;-0.29071045;-0.34288025;-;-;-;-;-;-;-;-;-;-;-;-;-;-;-
1514181093137;-;-;9.251678;-0.47505188;-0.4063263;-;-;-;-;-;-;-;-;-;-;-;-;-;-;-
1514181093156;-;-;9.450409;-0.6725769;-0.69244385;-;-;-;-;-;-;-;-;-;-;-;-;-;-;-
1514181093177;-;-;9.331894;-0.94192505;-0.75468445;-;-;-;-;-;-;-;-;-;-;-;-;-;-;-
1514181093197;-;-;9.306747;-0.91200256;-0.6505432;-;-;-;-;-;-;-;-;-;-;-;-;-;-;-
1514181093218;-;-;9.212173;-0.7503967;-0.788208;-;-;-;-;-;-;-;-;-;-;-;-;-;-;-
1514181093237;-;-;9.14035;-0.5277252;-0.66371155;-;-;-;-;-;-;-;-;-;-;-;-;-;-;-
1514181093258;-;-;9.17746;-0.3768921;-0.6601105;-;-;-;-;-;-;-;-;-;-;-;-;-;-;-
1514181093278;-;-;9.2708435;-0.39485168;-0.81933594;-;-;-;-;-;-;-;-;-;-;-;-;-;-;-
1514181093299;-;-;9.364212;-0.50857544;-0.9151001;-;-;-;-;-;-;-;-;-;-;-;-;-;-;-
1514181093319;-;-;9.305557;-0.704895;-1.006073;-;-;-;-;-;-;-;-;-;-;-;-;-;-;-
1514181093339;-;-;9.190628;-0.739624;-0.98812866;-;-;-;-;-;-;-;-;-;-;-;-;-;-;-
1514181093359;-;-;9.248093;-0.66778564;-0.94262695;-;-;-;-;-;-;-;-;-;-;-;-;-;-;-
1514181093380;-;-;9.301956;-0.5600586;-0.91270447;-;-;-;-;-;-;-;-;-;-;-;-;-;-;-
1514181093401;-;-;9.33548;-0.4834442;-1.0228424;-;-;-;-;-;-;-;-;-;-;-;-;-;-;-
1514181093421;-;-;9.333084;-0.37809753;-1.1102295;-;-;-;-;-;-;-;-;-;-;-;-;-;-;-
1514181093442;-;-;9.318726;-0.32063293;-1.109024;-;-;-;-;-;-;-;-;-;-;-;-;-;-;-
1514181093461;-;-;9.29837;-0.33021545;-1.1569061;-;-;-;-;-;-;-;-;-;-;-;-;-;-;-
1514181093482;-;-;9.282806;-0.43077087;-1.0419922;-;-;-;-;-;-;-;-;-;-;-;-;-;-;-
1514181093502;-;-;9.266052;-0.4343567;-0.90911865;-;-;-;-;-;-;-;-;-;-;-;-;-;-;-
1514181093523;-;-;9.182251;-0.42118835;-0.81095886;-;-;-;-;-;-;-;-;-;-;-;-;-;-;-
1514181093542;-;-;9.125992;-0.35534668;-0.7056122;-;-;-;-;-;-;-;-;-;-;-;-;-;-;-
1514181093562;-;-;9.199005;-0.29548645;-0.60505676;-;-;-;-;-;-;-;-;-;-;-;-;-;-;-
1514181093583;-;-;9.228943;-0.27514648;-0.65293884;-;-;-;-;-;-;-;-;-;-;-;-;-;-;-
1514181093603;-;-;9.264847;-0.33499146;-0.6888428;-;-;-;-;-;-;-;-;-;-;-;-;-;-;-
1514181093624;-;-;9.348648;-0.37091064;-0.7774353;-;-;-;-;-;-;-;-;-;-;-;-;-;-;-
1514181093645;-;-;9.266052;-0.34576416;-0.79299927;-;-;-;-;-;-;-;-;-;-;-;-;-;-;-
1514181093665;-;-;9.133179;-0.28710938;-0.6996155;-;-;-;-;-;-;-;-;-;-;-;-;-;-;-
1514181093684;-;-;9.182251;-0.31344604;-0.5212555;-;-;-;-;-;-;-;-;-;-;-;-;-;-;-
1514181093704;-;-;9.291183;-0.33021545;-0.5978699;-;-;-;-;-;-;-;-;-;-;-;-;-;-;-
1514181093724;-;-;9.240906;-0.5205536;-0.68525696;-;-;-;-;-;-;-;-;-;-;-;-;-;-;-
1514181093745;-;-;9.388153;-0.5444946;-0.7103882;-;-;-;-;-;-;-;-;-;-;-;-;-;-;-
1514181093764;-;-;9.323517;-0.51934814;-0.88038635;-;-;-;-;-;-;-;-;-;-;-;-;-;-;-
1514181093785;-;-;9.171478;-0.4152069;-0.72117615;-;-;-;-;-;-;-;-;-;-;-;-;-;-;-
1514181093805;-;-;9.252884;-0.38887024;-0.59547424;-;-;-;-;-;-;-;-;-;-;-;-;-;-;-
1514181093826;-;-;9.3498535;-0.39964294;-0.5463867;-;-;-;-;-;-;-;-;-;-;-;-;-;-;-
1514181093846;-;-;9.272034;-0.47505188;-0.55477905;-;-;-;-;-;-;-;-;-;-;-;-;-;-;-
1514181093866;-;-;9.189438;-0.47865295;-0.5499878;-;-;-;-;-;-;-;-;-;-;-;-;-;-;-
1514181093887;-;-;9.1523285;-0.46069336;-0.5463867;-;-;-;-;-;-;-;-;-;-;-;-;-;-;-
1514181093908;-;-;9.197815;-0.47865295;-0.63139343;-;-;-;-;-;-;-;-;-;-;-;-;-;-;-
1514181093928;-;-;9.274429;-0.43077087;-0.669693;-;-;-;-;-;-;-;-;-;-;-;-;-;-;-
1514181093948;-;-;9.269638;-0.3541565;-0.66490173;-;-;-;-;-;-;-;-;-;-;-;-;-;-;-
1514181093969;-;-;9.276825;-0.29908752;-0.6433563;-;-;-;-;-;-;-;-;-;-;-;-;-;-;-
1514181093989;-;-;9.23732;-0.32781982;-0.7080078;-;-;-;-;-;-;-;-;-;-;-;-;-;-;-
1514181094010;-;-;9.17746;-0.41400146;-0.7295532;-;-;-;-;-;-;-;-;-;-;-;-;-;-;-
1514181094030;-;-;9.189438;-0.4487152;-0.76187134;-;-;-;-;-;-;-;-;-;-;-;-;-;-;-
1514181094051;-;-;9.226547;-0.42118835;-0.66371155;-;-;-;-;-;-;-;-;-;-;-;-;-;-;-
1514181094071;-;-;9.329498;-0.41400146;-0.66729736;-;-;-;-;-;-;-;-;-;-;-;-;-;-;-
1514181094092;-;-;9.340271;-0.3876648;-0.65293884;-;-;-;-;-;-;-;-;-;-;-;-;-;-;-
1514181094112;-;-;9.23732;-0.38049316;-0.6253967;-;-;-;-;-;-;-;-;-;-;-;-;-;-;-
1514181094135;-;-;9.183456;-0.3864746;-0.58828735;-;-;-;-;-;-;-;-;-;-;-;-;-;-;-
1514181094154;-;-;9.260071;-0.41041565;-0.669693;-;-;-;-;-;-;-;-;-;-;-;-;-;-;-
1514181094175;-;-;9.267242;-0.463089;-0.63497925;-;-;-;-;-;-;-;-;-;-;-;-;-;-;-
1514181094195;-;-;9.29837;-0.4918213;-0.64694214;-;-;-;-;-;-;-;-;-;-;-;-;-;-;-
1514181094216;-;-;9.286407;-0.463089;-0.58709717;-;-;-;-;-;-;-;-;-;-;-;-;-;-;-
1514181094236;-;-;9.340271;-0.46907043;-0.6577301;-;-;-;-;-;-;-;-;-;-;-;-;-;-;-
1514181094256;-;-;9.328293;-0.44752502;-0.6553345;-;-;-;-;-;-;-;-;-;-;-;-;-;-;-
1514181094277;-;-;9.1918335;-0.5157623;-0.72117615;-;-;-;-;-;-;-;-;-;-;-;-;-;-;-
1514181094297;-;-;9.25647;-0.53012085;-0.654129;-;-;-;-;-;-;-;-;-;-;-;-;-;-;-
1514181094318;-;-;9.222961;-0.3757019;-0.827713;-;-;-;-;-;-;-;-;-;-;-;-;-;-;-
1514181094338;-;-;9.243301;-0.29071045;-0.7738342;-;-;-;-;-;-;-;-;-;-;-;-;-;-;-
1514181094359;-;-;9.240906;-0.22247314;-0.7307434;-;-;-;-;-;-;-;-;-;-;-;-;-;-;-
1514181094379;-;-;9.324707;-0.24641418;-0.7020111;-;-;-;-;-;-;-;-;-;-;-;-;-;-;-
1514181094399;-;-;9.324707;-0.3649292;-0.6804657;-;-;-;-;-;-;-;-;-;-;-;-;-;-;-
1514181094420;-;-;9.294785;-0.48104858;-0.5823059;-;-;-;-;-;-;-;-;-;-;-;-;-;-;-
1514181094440;-;-;9.269638;-0.4774475;-0.51527405;-;-;-;-;-;-;-;-;-;-;-;-;-;-;-
1514181094460;-;-;9.243301;-0.52893066;-0.5894928;-;-;-;-;-;-;-;-;-;-;-;-;-;-;-
1514181094481;-;-;9.15831;-0.4882202;-0.50450134;-;-;-;-;-;-;-;-;-;-;-;-;-;-;-
1514181094501;-;-;9.171478;-0.5097656;-0.43626404;-;-;-;-;-;-;-;-;-;-;-;-;-;-;-
1514181094522;-;-;9.169083;-0.5708313;-0.43984985;-;-;-;-;-;-;-;-;-;-;-;-;-;-;-
1514181094542;-;-;9.25528;-0.62709045;-0.47695923;-;-;-;-;-;-;-;-;-;-;-;-;-;-;-
1514181094563;-;-;9.355835;-0.64863586;-0.51646423;-;-;-;-;-;-;-;-;-;-;-;-;-;-;-
1514181094583;-;-;9.510254;-0.5959625;-0.57032776;-;-;-;-;-;-;-;-;-;-;-;-;-;-;-
1514181094603;-;-;9.403717;-0.34217834;-0.70440674;-;-;-;-;-;-;-;-;-;-;-;-;-;-;-
1514181094624;-;-;9.233734;-0.119522095;-0.6804657;-;-;-;-;-;-;-;-;-;-;-;-;-;-;-
1514181094644;-;-;8.930862;0.03251648;-0.51646423;-;-;-;-;-;-;-;-;-;-;-;-;-;-;-
1514181094665;-;-;8.959595;-0.095581055;-0.37400818;-;-;-;-;-;-;-;-;-;-;-;-;-;-;-
1514181094685;-;-;9.23613;-0.23683167;-0.37521362;-;-;-;-;-;-;-;-;-;-;-;-;-;-;-
1514181094706;-;-;9.323517;-0.18894958;-0.58470154;-;-;-;-;-;-;-;-;-;-;-;-;-;-;-
1514181094726;-;-;9.136765;-0.26316833;-0.511673;-;-;-;-;-;-;-;-;-;-;-;-;-;-;-
1514181094747;-;-;9.033813;-0.41281128;-0.38957214;-;-;-;-;-;-;-;-;-;-;-;-;-;-;-
1514181094766;-;-;9.355835;-0.6917267;-0.43745422;-;-;-;-;-;-;-;-;-;-;-;-;-;-;-
1514181094787;-;-;9.571304;-0.83418274;-0.73313904;-;-;-;-;-;-;-;-;-;-;-;-;-;-;-
1514181094807;-;-;9.571304;-0.76834106;-0.95339966;-;-;-;-;-;-;-;-;-;-;-;-;-;-;-
1514181094828;-;-;9.336685;-0.463089;-0.86961365;-;-;-;-;-;-;-;-;-;-;-;-;-;-;-
1514181094848;-;-;9.245697;-0.3589325;-0.9055176;-;-;-;-;-;-;-;-;-;-;-;-;-;-;-
1514181094869;-;-;9.086487;-0.27035522;-1.1736755;-;-;-;-;-;-;-;-;-;-;-;-;-;-;-
1514181094889;-;-;9.025436;-0.29190063;-1.100647;-;-;-;-;-;-;-;-;-;-;-;-;-;-;-
1514181094909;-;-;9.110428;-0.2571869;-0.9833374;-;-;-;-;-;-;-;-;-;-;-;-;-;-;-
1514181094929;-;-;9.3151245;-0.24162292;-1.0000916;-;-;-;-;-;-;-;-;-;-;-;-;-;-;-
1514181094950;-;-;9.300766;-0.28471375;-0.98213196;-;-;-;-;-;-;-;-;-;-;-;-;-;-;-
1514181094970;-;-;9.188232;-0.29908752;-0.9162903;-;-;-;-;-;-;-;-;-;-;-;-;-;-;-
1514181094991;-;-;9.090073;-0.35653687;-0.91270447;-;-;-;-;-;-;-;-;-;-;-;-;-;-;-
1514181095011;-;-;9.161896;-0.35534668;-0.93785095;-;-;-;-;-;-;-;-;-;-;-;-;-;-;-
1514181095032;-;-;9.239716;-0.4056244;-0.93066406;-;-;-;-;-;-;-;-;-;-;-;-;-;-;-
1514181095052;-;-;9.295975;-0.42477417;-0.9055176;-;-;-;-;-;-;-;-;-;-;-;-;-;-;-
1514181095073;-;-;9.306747;-0.34936523;-0.90193176;-;-;-;-;-;-;-;-;-;-;-;-;-;-;-
1514181095093;-;-;9.291183;-0.38049316;-0.8744049;-;-;-;-;-;-;-;-;-;-;-;-;-;-;-
1514181095114;-;-;9.23851;-0.42237854;-0.9653778;-;-;-;-;-;-;-;-;-;-;-;-;-;-;-
1514181095134;-;-;9.309143;-0.43554688;-1.1162109;-;-;-;-;-;-;-;-;-;-;-;-;-;-;-
1514181095154;-;-;9.272034;-0.3876648;-1.2275391;-;-;-;-;-;-;-;-;-;-;-;-;-;-;-
1514181095175;-;-;9.225342;-0.36732483;-1.2239532;-;-;-;-;-;-;-;-;-;-;-;-;-;-;-
1514181095194;-;-;9.165497;-0.40682983;-1.2897949;-;-;-;-;-;-;-;-;-;-;-;-;-;-;-
1514181095214;-;-;9.070923;-0.41160583;-1.3352814;-;-;-;-;-;-;-;-;-;-;-;-;-;-;-
1514181095235;-;-;9.127182;-0.37449646;-1.3867645;-;-;-;-;-;-;-;-;-;-;-;-;-;-;-
1514181095255;-;-;9.199005;-0.3074646;-1.4897003;-;-;-;-;-;-;-;-;-;-;-;-;-;-;-
1514181095276;-;-;9.311539;-0.289505;-1.6956024;-;-;-;-;-;-;-;-;-;-;-;-;-;-;-
1514181095297;-;-;9.391739;-0.3074646;-1.7458801;-;-;-;-;-;-;-;-;-;-;-;-;-;-;-
1514181095317;-;-;9.380966;-0.29548645;-1.8033447;-;-;-;-;-;-;-;-;-;-;-;-;-;-;-
1514181095337;-;-;9.311539;-0.31225586;-1.768631;-;-;-;-;-;-;-;-;-;-;-;-;-;-;-
1514181095358;-;-;9.213379;-0.289505;-1.6728668;-;-;-;-;-;-;-;-;-;-;-;-;-;-;-
1514181095378;-;-;9.123596;-0.28112793;-1.5232239;-;-;-;-;-;-;-;-;-;-;-;-;-;-;-
1514181095399;-;-;9.141556;-0.2272644;-1.5866699;-;-;-;-;-;-;-;-;-;-;-;-;-;-;-
1514181095420;-;-;8.964386;-0.22486877;-1.5806885;-;-;-;-;-;-;-;-;-;-;-;-;-;-;-
1514181095440;-;-;9.148727;-0.2571869;-1.4657593;-;-;-;-;-;-;-;-;-;-;-;-;-;-;-
1514181095460;-;-;9.221756;-0.25598145;-1.4142914;-;-;-;-;-;-;-;-;-;-;-;-;-;-;-
1514181095481;-;-;9.23613;-0.22007751;-1.3855591;-;-;-;-;-;-;-;-;-;-;-;-;-;-;-
1514181095500;-;-;9.228943;-0.15423584;-1.4071045;-;-;-;-;-;-;-;-;-;-;-;-;-;-;-
1514181095525;-;-;9.220566;-0.119522095;-1.3640137;-;-;-;-;-;-;-;-;-;-;-;-;-;-;-
1514181095544;-;-;9.166687;-0.12550354;-1.3448639;-;-;-;-;-;-;-;-;-;-;-;-;-;-;-
1514181095565;-;-;9.170288;-0.17817688;-1.2790222;-;-;-;-;-;-;-;-;-;-;-;-;-;-;-
1514181095586;-;-;9.163101;-0.1877594;-1.2239532;-;-;-;-;-;-;-;-;-;-;-;-;-;-;-
1514181095606;-;-;9.200211;-0.23085022;-1.1581116;-;-;-;-;-;-;-;-;-;-;-;-;-;-;-
1514181095627;-;-;9.220566;-0.27035522;-1.179657;-;-;-;-;-;-;-;-;-;-;-;-;-;-;-
1514181095647;-;-;9.194229;-0.28352356;-1.1629028;-;-;-;-;-;-;-;-;-;-;-;-;-;-;-
1514181095668;-;-;9.179855;-0.29429626;-1.1210022;-;-;-;-;-;-;-;-;-;-;-;-;-;-;-
1514181095688;-;-;9.206192;-0.32302856;-1.1581116;-;-;-;-;-;-;-;-;-;-;-;-;-;-;-
1514181095708;-;-;9.205002;-0.3074646;-1.1581116;-;-;-;-;-;-;-;-;-;-;-;-;-;-;-
1514181095731;-;-;9.226547;-0.29429626;-1.1257935;-;-;-;-;-;-;-;-;-;-;-;-;-;-;-
1514181095751;-;-;9.21936;-0.32182312;-1.1317749;-;-;-;-;-;-;-;-;-;-;-;-;-;-;-
1514181095772;-;-;9.210983;-0.3086548;-1.1760712;-;-;-;-;-;-;-;-;-;-;-;-;-;-;-
1514181095792;-;-;9.206192;-0.29908752;-1.0910797;-;-;-;-;-;-;-;-;-;-;-;-;-;-;-
1514181095813;-;-;9.184647;-0.3433838;-1.064743;-;-;-;-;-;-;-;-;-;-;-;-;-;-;-
1514181095834;-;-;9.184647;-0.29908752;-1.0994568;-;-;-;-;-;-;-;-;-;-;-;-;-;-;-
1514181095854;-;-;9.188232;-0.2607727;-1.1497345;-;-;-;-;-;-;-;-;-;-;-;-;-;-;-
1514181095874;-;-;9.246902;-0.28471375;-1.1904297;-;-;-;-;-;-;-;-;-;-;-;-;-;-;-
1514181095894;-;-;9.242111;-0.29788208;-1.1976166;-;-;-;-;-;-;-;-;-;-;-;-;-;-;-
1514181095915;-;-;9.207397;-0.289505;-1.1305847;-;-;-;-;-;-;-;-;-;-;-;-;-;-;-
1514181095936;-;-;9.245697;-0.26316833;-1.1976166;-;-;-;-;-;-;-;-;-;-;-;-;-;-;-
1514181095956;-;-;9.123596;-0.24760437;-1.1868439;-;-;-;-;-;-;-;-;-;-;-;-;-;-;-
1514181095977;-;-;9.181061;-0.26437378;-1.1186066;-;-;-;-;-;-;-;-;-;-;-;-;-;-;-
1514181095997;-;-;9.249298;-0.27275085;-1.109024;-;-;-;-;-;-;-;-;-;-;-;-;-;-;-
1514181096017;-;-;9.286407;-0.28710938;-1.1174164;-;-;-;-;-;-;-;-;-;-;-;-;-;-;-
1514181096038;-;-;9.240906;-0.26437378;-1.1102295;-;-;-;-;-;-;-;-;-;-;-;-;-;-;-
1514181096058;-;-;9.220566;-0.26556396;-1.1305847;-;-;-;-;-;-;-;-;-;-;-;-;-;-;-
1514181096079;-;-;9.1918335;-0.19613647;-1.1569061;-;-;-;-;-;-;-;-;-;-;-;-;-;-;-
1514181096099;-;-;9.1523285;-0.17936707;-1.188034;-;-;-;-;-;-;-;-;-;-;-;-;-;-;-
1514181096120;-;-;9.182251;-0.17098999;-1.2251434;-;-;-;-;-;-;-;-;-;-;-;-;-;-;-
1514181096140;-;-;9.230133;-0.22366333;-1.1964111;-;-;-;-;-;-;-;-;-;-;-;-;-;-;-
1514181096161;-;-;9.246902;-0.21170044;-1.1760712;-;-;-;-;-;-;-;-;-;-;-;-;-;-;-
1514181096181;-;-;9.25528;-0.20809937;-1.179657;-;-;-;-;-;-;-;-;-;-;-;-;-;-;-
1514181096202;-;-;9.227737;-0.24641418;-1.2395172;-;-;-;-;-;-;-;-;-;-;-;-;-;-;-
1514181096222;-;-;9.17627;-0.22605896;-1.234726;-;-;-;-;-;-;-;-;-;-;-;-;-;-;-
1514181096242;-;-;9.1918335;-0.26914978;-1.1772614;-;-;-;-;-;-;-;-;-;-;-;-;-;-;-
1514181096263;-;-;9.179855;-0.2212677;-1.2107849;-;-;-;-;-;-;-;-;-;-;-;-;-;-;-
1514181096283;-;-;9.178665;-0.25;-1.2071991;-;-;-;-;-;-;-;-;-;-;-;-;-;-;-
1514181096303;-;-;9.225342;-0.23443604;-1.2203674;-;-;-;-;-;-;-;-;-;-;-;-;-;-;-
1514181096324;-;-;9.251678;-0.25360107;-1.148529;-;-;-;-;-;-;-;-;-;-;-;-;-;-;-
1514181096345;-;-;9.23613;-0.25958252;-1.2131805;-;-;-;-;-;-;-;-;-;-;-;-;-;-;-
1514181096365;-;-;9.208588;-0.23324585;-1.234726;-;-;-;-;-;-;-;-;-;-;-;-;-;-;-
1514181096386;-;-;9.208588;-0.24401855;-1.2024078;-;-;-;-;-;-;-;-;-;-;-;-;-;-;-
1514181096405;-;-;9.214569;-0.27633667;-1.2371216;-;-;-;-;-;-;-;-;-;-;-;-;-;-;-
1514181096426;-;-;9.165497;-0.26437378;-1.2107849;-;-;-;-;-;-;-;-;-;-;-;-;-;-;-
1514181096446;-;-;9.178665;-0.27275085;-1.1700745;-;-;-;-;-;-;-;-;-;-;-;-;-;-;-
1514181096466;-;-;9.288788;-0.23683167;-1.2598572;-;-;-;-;-;-;-;-;-;-;-;-;-;-;-
1514181096486;-;-;9.185837;-0.27275085;-1.313736;-;-;-;-;-;-;-;-;-;-;-;-;-;-;-
1514181096507;-;-;9.188232;-0.28471375;-1.2419128;-;-;-;-;-;-;-;-;-;-;-;-;-;-;-
1514181096528;-;-;9.245697;-0.28112793;-1.1593018;-;-;-;-;-;-;-;-;-;-;-;-;-;-;-
1514181096548;-;-;9.233734;-0.24880981;-1.1353607;-;-;-;-;-;-;-;-;-;-;-;-;-;-;-
1514181096567;-;-;9.189438;-0.23085022;-1.1078339;-;-;-;-;-;-;-;-;-;-;-;-;-;-;-
1514181096588;-;-;9.155914;-0.24043274;-1.1365662;-;-;-;-;-;-;-;-;-;-;-;-;-;-;-
1514181096607;-;-;9.196625;-0.25837708;-1.1269836;-;-;-;-;-;-;-;-;-;-;-;-;-;-;-
1514181096628;-;-;9.169083;-0.2320404;-1.1856384;-;-;-;-;-;-;-;-;-;-;-;-;-;-;-
1514181096647;-;-;9.190628;-0.27633667;-1.2048035;-;-;-;-;-;-;-;-;-;-;-;-;-;-;-
1514181096668;-;-;9.220566;-0.25;-1.1605072;-;-;-;-;-;-;-;-;-;-;-;-;-;-;-
1514181096688;-;-;9.254074;-0.2787323;-1.179657;-;-;-;-;-;-;-;-;-;-;-;-;-;-;-
1514181096709;-;-;9.233734;-0.25360107;-1.2622528;-;-;-;-;-;-;-;-;-;-;-;-;-;-;-
1514181096729;-;-;9.232529;-0.2272644;-1.2107849;-;-;-;-;-;-;-;-;-;-;-;-;-;-;-
1514181096750;-;-;9.187042;-0.20570374;-1.1569061;-;-;-;-;-;-;-;-;-;-;-;-;-;-;-
1514181096770;-;-;9.224152;-0.24520874;-1.1605072;-;-;-;-;-;-;-;-;-;-;-;-;-;-;-
1514181096790;-;-;9.202606;-0.2715454;-1.1257935;-;-;-;-;-;-;-;-;-;-;-;-;-;-;-
1514181096811;-;-;9.1918335;-0.29429626;-1.124588;-;-;-;-;-;-;-;-;-;-;-;-;-;-;-
1514181096831;-;-;9.17746;-0.29548645;-1.1257935;-;-;-;-;-;-;-;-;-;-;-;-;-;-;-
1514181096852;-;-;9.222961;-0.28112793;-1.1712799;-;-;-;-;-;-;-;-;-;-;-;-;-;-;-
1514181096873;-;-;9.284012;-0.26197815;-1.1138153;-;-;-;-;-;-;-;-;-;-;-;-;-;-;-
1514181096894;-;-;9.246902;-0.27633667;-1.1664886;-;-;-;-;-;-;-;-;-;-;-;-;-;-;-
1514181096914;-;-;9.213379;-0.24281311;-1.1605072;-;-;-;-;-;-;-;-;-;-;-;-;-;-;-
1514181096935;-;-;9.178665;-0.24401855;-1.0767059;-;-;-;-;-;-;-;-;-;-;-;-;-;-;-
1514181096955;-;-;9.221756;-0.2607727;-1.1078339;-;-;-;-;-;-;-;-;-;-;-;-;-;-;-
1514181096976;-;-;9.222961;-0.2715454;-1.0479736;-;-;-;-;-;-;-;-;-;-;-;-;-;-;-
1514181096996;-;-;9.210983;-0.25598145;-1.0587463;-;-;-;-;-;-;-;-;-;-;-;-;-;-;-
1514181097017;-;-;9.29718;-0.23324585;-1.2000122;-;-;-;-;-;-;-;-;-;-;-;-;-;-;-
1514181097037;-;-;9.172684;-0.24043274;-1.2502899;-;-;-;-;-;-;-;-;-;-;-;-;-;-;-
1514181097057;-;-;9.170288;-0.29071045;-1.1676941;-;-;-;-;-;-;-;-;-;-;-;-;-;-;-
1514181097078;-;-;9.240906;-0.25360107;-1.0767059;-;-;-;-;-;-;-;-;-;-;-;-;-;-;-
1514181097098;-;-;9.254074;-0.28352356;-1.1317749;-;-;-;-;-;-;-;-;-;-;-;-;-;-;-
1514181097119;-;-;9.226547;-0.28231812;-1.1210022;-;-;-;-;-;-;-;-;-;-;-;-;-;-;-
1514181097140;-;-;9.178665;-0.24641418;-1.1317749;-;-;-;-;-;-;-;-;-;-;-;-;-;-;-
1514181097160;-;-;9.187042;-0.21887207;-1.1413574;-;-;-;-;-;-;-;-;-;-;-;-;-;-;-
1514181097181;-;-;9.199005;-0.2392273;-1.1174164;-;-;-;-;-;-;-;-;-;-;-;-;-;-;-
1514181097201;-;-;9.188232;-0.23803711;-1.1916351;-;-;-;-;-;-;-;-;-;-;-;-;-;-;-
1514181097222;-;-;9.25528;-0.24162292;-1.1629028;-;-;-;-;-;-;-;-;-;-;-;-;-;-;-
1514181097242;-;-;9.285202;-0.25360107;-1.1413574;-;-;-;-;-;-;-;-;-;-;-;-;-;-;-
1514181097263;-;-;9.224152;-0.25239563;-1.1473389;-;-;-;-;-;-;-;-;-;-;-;-;-;-;-
1514181097284;-;-;9.203796;-0.23803711;-1.1377563;-;-;-;-;-;-;-;-;-;-;-;-;-;-;-
1514181097303;-;-;9.193024;-0.20211792;-1.1066284;-;-;-;-;-;-;-;-;-;-;-;-;-;-;-
1514181097324;-;-;9.206192;-0.23085022;-1.0719147;-;-;-;-;-;-;-;-;-;-;-;-;-;-;-
1514181097345;-;-;9.209793;-0.24281311;-1.069519;-;-;-;-;-;-;-;-;-;-;-;-;-;-;-
1514181097365;-;-;9.2313385;-0.22366333;-1.0539703;-;-;-;-;-;-;-;-;-;-;-;-;-;-;-
1514181097386;-;-;9.215775;-0.23803711;-1.0862885;-;-;-;-;-;-;-;-;-;-;-;-;-;-;-
1514181097406;-;-;9.23851;-0.24043274;-1.1210022;-;-;-;-;-;-;-;-;-;-;-;-;-;-;-
1514181097427;-;-;9.246902;-0.2607727;-1.100647;-;-;-;-;-;-;-;-;-;-;-;-;-;-;-
1514181097447;-;-;9.278015;-0.26197815;-1.0838928;-;-;-;-;-;-;-;-;-;-;-;-;-;-;-
1514181097468;-;-;9.226547;-0.24281311;-1.1353607;-;-;-;-;-;-;-;-;-;-;-;-;-;-;-
1514181097487;-;-;9.197815;-0.21887207;-1.1233978;-;-;-;-;-;-;-;-;-;-;-;-;-;-;-
1514181097508;-;-;9.228943;-0.23564148;-1.0874786;-;-;-;-;-;-;-;-;-;-;-;-;-;-;-
1514181097528;-;-;9.23851;-0.2679596;-1.085083;-;-;-;-;-;-;-;-;-;-;-;-;-;-;-
1514181097549;-;-;9.207397;-0.25837708;-1.0431824;-;-;-;-;-;-;-;-;-;-;-;-;-;-;-
1514181097570;-;-;9.244507;-0.22845459;-1.0372009;-;-;-;-;-;-;-;-;-;-;-;-;-;-;-
1514181097590;-;-;9.3103485;-0.17578125;-1.1616974;-;-;-;-;-;-;-;-;-;-;-;-;-;-;-
1514181097610;-;-;9.17746;-0.21887207;-1.1377563;-;-;-;-;-;-;-;-;-;-;-;-;-;-;-
1514181097631;-;-;9.23732;-0.23443604;-1.0862885;-;-;-;-;-;-;-;-;-;-;-;-;-;-;-
1514181097651;-;-;9.285202;-0.24043274;-1.0527649;-;-;-;-;-;-;-;-;-;-;-;-;-;-;-
1514181097671;-;-;9.25647;-0.27633667;-1.0192413;-;-;-;-;-;-;-;-;-;-;-;-;-;-;-
1514181097692;-;-;9.200211;-0.26675415;-0.9905243;-;-;-;-;-;-;-;-;-;-;-;-;-;-;-
1514181097711;-;-;9.196625;-0.20211792;-1.0156555;-;-;-;-;-;-;-;-;-;-;-;-;-;-;-
1514181097732;-;-;9.199005;-0.22007751;-1.0336151;-;-;-;-;-;-;-;-;-;-;-;-;-;-;-
1514181097752;-;-;9.216965;-0.27394104;-1.0288239;-;-;-;-;-;-;-;-;-;-;-;-;-;-;-
1514181097774;-;-;9.254074;-0.2715454;-1.0192413;-;-;-;-;-;-;-;-;-;-;-;-;-;-;-
1514181097795;-;-;9.249298;-0.24880981;-1.0372009;-;-;-;-;-;-;-;-;-;-;-;-;-;-;-
1514181097815;-;-;9.242111;-0.2679596;-1.0683289;-;-;-;-;-;-;-;-;-;-;-;-;-;-;-
1514181097836;-;-;9.21936;-0.26556396;-1.0288239;-;-;-;-;-;-;-;-;-;-;-;-;-;-;-
1514181097856;-;-;9.200211;-0.24520874;-1.0264282;-;-;-;-;-;-;-;-;-;-;-;-;-;-;-
1514181097877;-;-;9.239716;-0.25479126;-1.0431824;-;-;-;-;-;-;-;-;-;-;-;-;-;-;-
1514181097897;-;-;9.23613;-0.25479126;-1.040802;-;-;-;-;-;-;-;-;-;-;-;-;-;-;-
1514181097918;-;-;9.239716;-0.23564148;-1.001297;-;-;-;-;-;-;-;-;-;-;-;-;-;-;-
1514181097939;-;-;9.234924;-0.2392273;-1.061142;-;-;-;-;-;-;-;-;-;-;-;-;-;-;-
1514181097959;-;-;9.206192;-0.25598145;-1.0886841;-;-;-;-;-;-;-;-;-;-;-;-;-;-;-
1514181097980;-;-;9.205002;-0.21170044;-1.0312195;-;-;-;-;-;-;-;-;-;-;-;-;-;-;-
1514181098000;-;-;9.224152;-0.24641418;-1.0312195;-;-;-;-;-;-;-;-;-;-;-;-;-;-;-
1514181098021;-;-;9.228943;-0.22964478;-1.0814972;-;-;-;-;-;-;-;-;-;-;-;-;-;-;-
1514181098041;-;-;9.232529;-0.2715454;-1.1281891;-;-;-;-;-;-;-;-;-;-;-;-;-;-;-
1514181098062;-;-;9.208588;-0.23564148;-1.0958557;-;-;-;-;-;-;-;-;-;-;-;-;-;-;-
1514181098082;-;-;9.225342;-0.2320404;-1.0898743;-;-;-;-;-;-;-;-;-;-;-;-;-;-;-
1514181098102;-;-;9.23732;-0.21289063;-1.0862885;-;-;-;-;-;-;-;-;-;-;-;-;-;-;-
1514181098123;-;-;9.197815;-0.22605896;-1.1102295;-;-;-;-;-;-;-;-;-;-;-;-;-;-;-
1514181098144;-;-;9.221756;-0.24162292;-1.1186066;-;-;-;-;-;-;-;-;-;-;-;-;-;-;-
1514181098164;-;-;9.258865;-0.17098999;-1.2299347;-;-;-;-;-;-;-;-;-;-;-;-;-;-;-
1514181098185;-;-;9.149933;-0.25;-1.2383118;-;-;-;-;-;-;-;-;-;-;-;-;-;-;-
1514181098204;-;-;9.222961;-0.25479126;-1.1341705;-;-;-;-;-;-;-;-;-;-;-;-;-;-;-
1514181098225;-;-;9.2708435;-0.28471375;-1.1150208;-;-;-;-;-;-;-;-;-;-;-;-;-;-;-
1514181098246;-;-;9.226547;-0.30148315;-1.0755157;-;-;-;-;-;-;-;-;-;-;-;-;-;-;-
1514181098266;-;-;9.214569;-0.25958252;-1.0922699;-;-;-;-;-;-;-;-;-;-;-;-;-;-;-
1514181098286;-;-;9.202606;-0.22366333;-1.1353607;-;-;-;-;-;-;-;-;-;-;-;-;-;-;-
1514181098307;-;-;9.197815;-0.21768188;-1.1856384;-;-;-;-;-;-;-;-;-;-;-;-;-;-;-
1514181098327;-;-;9.200211;-0.16261292;-1.0922699;-;-;-;-;-;-;-;-;-;-;-;-;-;-;-
1514181098348;-;-;9.226547;-0.16740417;-1.1425476;-;-;-;-;-;-;-;-;-;-;-;-;-;-;-
1514181098367;-;-;9.269638;-0.2320404;-1.1581116;-;-;-;-;-;-;-;-;-;-;-;-;-;-;-
1514181098387;-;-;9.272034;-0.2799225;-1.1844482;-;-;-;-;-;-;-;-;-;-;-;-;-;-;-
1514181098408;-;-;9.228943;-0.29429626;-1.2155762;-;-;-;-;-;-;-;-;-;-;-;-;-;-;-
1514181098428;-;-;9.145142;-0.26914978;-1.188034;-;-;-;-;-;-;-;-;-;-;-;-;-;-;-
1514181098448;-;-;9.213379;-0.25;-1.1533203;-;-;-;-;-;-;-;-;-;-;-;-;-;-;-
1514181098468;-;-;9.2756195;-0.26197815;-1.1461334;-;-;-;-;-;-;-;-;-;-;-;-;-;-;-
1514181098489;-;-;9.293579;-0.3002777;-1.1748657;-;-;-;-;-;-;-;-;-;-;-;-;-;-;-
1514181098509;-;-;9.267242;-0.24880981;-1.1688843;-;-;-;-;-;-;-;-;-;-;-;-;-;-;-
1514181098530;-;-;9.230133;-0.22007751;-1.1593018;-;-;-;-;-;-;-;-;-;-;-;-;-;-;-
1514181098550;-;-;9.159515;-0.22007751;-1.1461334;-;-;-;-;-;-;-;-;-;-;-;-;-;-;-
1514181098571;-;-;9.131973;-0.19732666;-1.0683289;-;-;-;-;-;-;-;-;-;-;-;-;-;-;-
1514181098590;-;-;9.147537;-0.13388062;-1.025238;-;-;-;-;-;-;-;-;-;-;-;-;-;-;-
1514181098611;-;-;9.373795;-0.09437561;-1.0922699;-;-;-;-;-;-;-;-;-;-;-;-;-;-;-
1514181098631;-;-;9.458786;-0.13508606;-1.0491791;-;-;-;-;-;-;-;-;-;-;-;-;-;-;-
1514181098652;-;-;9.292389;-0.27035522;-1.0623474;-;-;-;-;-;-;-;-;-;-;-;-;-;-;-
1514181098672;-;-;9.1128235;-0.30267334;-1.0791016;-;-;-;-;-;-;-;-;-;-;-;-;-;-;-
1514181098693;-;-;9.243301;-0.2272644;-0.8312988;-;-;-;-;-;-;-;-;-;-;-;-;-;-;-
1514181098713;-;-;9.345062;-0.22964478;-0.69363403;-;-;-;-;-;-;-;-;-;-;-;-;-;-;-
1514181098733;-;-;9.226547;-0.25479126;-0.8360901;-;-;-;-;-;-;-;-;-;-;-;-;-;-;-
1514181098754;-;-;9.164291;-0.3194275;-0.8791809;-;-;-;-;-;-;-;-;-;-;-;-;-;-;-
1514181098774;-;-;9.160706;-0.2715454;-0.8073578;-;-;-;-;-;-;-;-;-;-;-;-;-;-;-
1514181098795;-;-;9.339081;-0.20930481;-0.71398926;-;-;-;-;-;-;-;-;-;-;-;-;-;-;-
1514181098815;-;-;9.424072;-0.19493103;-0.7917938;-;-;-;-;-;-;-;-;-;-;-;-;-;-;-
1514181098835;-;-;9.359421;-0.21409607;-0.7690582;-;-;-;-;-;-;-;-;-;-;-;-;-;-;-
1514181098856;-;-;9.421677;-0.24641418;-0.79418945;-;-;-;-;-;-;-;-;-;-;-;-;-;-;-
1514181098877;-;-;9.288788;-0.25958252;-0.7283478;-;-;-;-;-;-;-;-;-;-;-;-;-;-;-
1514181098897;-;-;9.278015;-0.13508606;-0.5463867;-;-;-;-;-;-;-;-;-;-;-;-;-;-;-
1514181098918;-;-;9.279221;0.02293396;-0.48654175;-;-;-;-;-;-;-;-;-;-;-;-;-;-;-
1514181098938;-;-;9.14035;0.091171265;-0.44104004;-;-;-;-;-;-;-;-;-;-;-;-;-;-;-
1514181098959;-;-;9.299576;0.115112305;-0.417099;-;-;-;-;-;-;-;-;-;-;-;-;-;-;-
1514181098978;-;-;9.258865;0.028915405;-0.35964966;-;-;-;-;-;-;-;-;-;-;-;-;-;-;-
1514181098999;-;-;9.17746;-0.1590271;-0.20402527;-;-;-;-;-;-;-;-;-;-;-;-;-;-;-
1514181099019;-;-;9.172684;-0.14704895;-0.17887878;-;-;-;-;-;-;-;-;-;-;-;-;-;-;-
1514181099040;-;-;9.250488;-0.15423584;-0.14656067;-;-;-;-;-;-;-;-;-;-;-;-;-;-;-
1514181099061;-;-;9.2313385;-0.045303345;-0.099868774;-;-;-;-;-;-;-;-;-;-;-;-;-;-;-
1514181099081;-;-;9.195419;0.09475708;-0.049591064;-;-;-;-;-;-;-;-;-;-;-;-;-;-;-
1514181099102;-;-;9.087677;0.12348938;0.025817871;-;-;-;-;-;-;-;-;-;-;-;-;-;-;-
1514181099121;-;-;9.046982;0.06602478;0.021026611;-;-;-;-;-;-;-;-;-;-;-;-;-;-;-
1514181099141;-;-;9.165497;-0.050079346;-0.03881836;-;-;-;-;-;-;-;-;-;-;-;-;-;-;-
1514181099162;-;-;9.3151245;-0.18536377;-0.17529297;-;-;-;-;-;-;-;-;-;-;-;-;-;-;-
1514181099182;-;-;9.321121;-0.21170044;-0.11543274;-;-;-;-;-;-;-;-;-;-;-;-;-;-;-
1514181099203;-;-;9.299576;-0.21409607;-0.073532104;-;-;-;-;-;-;-;-;-;-;-;-;-;-;-
1514181099223;-;-;9.292389;-0.27514648;-0.15254211;-;-;-;-;-;-;-;-;-;-;-;-;-;-;-
1514181099243;-;-;9.267242;-0.29190063;-0.20881653;-;-;-;-;-;-;-;-;-;-;-;-;-;-;-
1514181099264;-;-;9.279221;-0.26316833;-0.17289734;-;-;-;-;-;-;-;-;-;-;-;-;-;-;-
1514181099284;-;-;9.303162;-0.16619873;-0.18127441;-;-;-;-;-;-;-;-;-;-;-;-;-;-;-
1514181099305;-;-;9.205002;-0.08480835;-0.30577087;-;-;-;-;-;-;-;-;-;-;-;-;-;-;-
1514181099325;-;-;9.262466;-0.09916687;-0.19444275;-;-;-;-;-;-;-;-;-;-;-;-;-;-;-
1514181099346;-;-;9.269638;-0.08958435;-0.19923401;-;-;-;-;-;-;-;-;-;-;-;-;-;-;-
1514181099366;-;-;9.291183;-0.14585876;-0.15614319;-;-;-;-;-;-;-;-;-;-;-;-;-;-;-
1514181099386;-;-;9.23613;-0.112335205;-0.17050171;-;-;-;-;-;-;-;-;-;-;-;-;-;-;-
1514181099407;-;-;9.248093;-0.081207275;-0.14537048;-;-;-;-;-;-;-;-;-;-;-;-;-;-;-
1514181099427;-;-;9.245697;-0.08001709;-0.22317505;-;-;-;-;-;-;-;-;-;-;-;-;-;-;-
1514181099448;-;-;9.266052;-0.13388062;-0.25309753;-;-;-;-;-;-;-;-;-;-;-;-;-;-;-
1514181099469;-;-;9.23613;-0.14465332;-0.32373047;-;-;-;-;-;-;-;-;-;-;-;-;-;-;-
1514181099488;-;-;9.263657;-0.102752686;-0.43865967;-;-;-;-;-;-;-;-;-;-;-;-;-;-;-
1514181099509;-;-;9.312744;-0.08001709;-0.48773193;-;-;-;-;-;-;-;-;-;-;-;-;-;-;-
1514181099530;-;-;9.220566;-0.066848755;-0.45899963;-;-;-;-;-;-;-;-;-;-;-;-;-;-;-
1514181099550;-;-;9.203796;-0.064453125;-0.41351318;-;-;-;-;-;-;-;-;-;-;-;-;-;-;-
1514181099570;-;-;9.175064;-0.09437561;-0.4159088;-;-;-;-;-;-;-;-;-;-;-;-;-;-;-
1514181099591;-;-;9.185837;-0.10874939;-0.35604858;-;-;-;-;-;-;-;-;-;-;-;-;-;-;-
1514181099612;-;-;9.260071;-0.14346313;-0.41949463;-;-;-;-;-;-;-;-;-;-;-;-;-;-;-
1514181099632;-;-;9.3941345;-0.16500854;-0.5727234;-;-;-;-;-;-;-;-;-;-;-;-;-;-;-
1514181099652;-;-;9.427658;-0.24401855;-0.70440674;-;-;-;-;-;-;-;-;-;-;-;-;-;-;-
1514181099672;-;-;9.3893585;-0.31704712;-0.69363403;-;-;-;-;-;-;-;-;-;-;-;-;-;-;-
1514181099693;-;-;9.408508;-0.3074646;-0.5942688;-;-;-;-;-;-;-;-;-;-;-;-;-;-;-
1514181099712;-;-;9.329498;-0.21170044;-0.5619507;-;-;-;-;-;-;-;-;-;-;-;-;-;-;-
1514181099733;-;-;9.200211;-0.17219543;-0.49850464;-;-;-;-;-;-;-;-;-;-;-;-;-;-;-
1514181099753;-;-;9.108032;-0.12550354;-0.51885986;-;-;-;-;-;-;-;-;-;-;-;-;-;-;-
1514181099774;-;-;9.100845;-0.14225769;-0.52963257;-;-;-;-;-;-;-;-;-;-;-;-;-;-;-
1514181099793;-;-;9.164291;-0.1482544;-0.6266022;-;-;-;-;-;-;-;-;-;-;-;-;-;-;-
1514181099814;-;-;9.280411;-0.105148315;-0.67807007;-;-;-;-;-;-;-;-;-;-;-;-;-;-;-
1514181099834;-;-;9.410904;-0.124313354;-0.60505676;-;-;-;-;-;-;-;-;-;-;-;-;-;-;-
1514181099854;-;-;9.39653;-0.12310791;-0.79299927;-;-;-;-;-;-;-;-;-;-;-;-;-;-;-
1514181099875;-;-;9.25647;-0.19493103;-0.75349426;-;-;-;-;-;-;-;-;-;-;-;-;-;-;-
1514181099895;-;-;9.203796;-0.1530304;-0.70680237;-;-;-;-;-;-;-;-;-;-;-;-;-;-;-
1514181099915;-;-;9.232529;-0.081207275;-0.7343445;-;-;-;-;-;-;-;-;-;-;-;-;-;-;-
1514181099936;-;-;9.285202;-0.11352539;-0.7103882;-;-;-;-;-;-;-;-;-;-;-;-;-;-;-
1514181099956;-;-;9.37738;-0.1530304;-0.63856506;-;-;-;-;-;-;-;-;-;-;-;-;-;-;-
1514181099977;-;-;9.369003;-0.0440979;-0.7391205;-;-;-;-;-;-;-;-;-;-;-;-;-;-;-
1514181099997;-;-;9.222961;-0.071640015;-1.0826874;-;-;-;-;-;-;-;-;-;-;-;-;-;-;-
1514181100019;-;-;9.23732;-0.1817627;-1.1114197;-;-;-;-;-;-;-;-;-;-;-;-;-;-;-
1514181100039;-;-;9.2313385;-0.24880981;-1.0431824;-;-;-;-;-;-;-;-;-;-;-;-;-;-;-
1514181100060;-;-;9.190628;-0.17578125;-0.9737549;-;-;-;-;-;-;-;-;-;-;-;-;-;-;-
1514181100080;-;-;9.130783;-0.00340271;-1.0527649;-;-;-;-;-;-;-;-;-;-;-;-;-;-;-
1514181100100;-;-;9.15712;0.03012085;-1.1772614;-;-;-;-;-;-;-;-;-;-;-;-;-;-;-
1514181100121;-;-;9.232529;0.107925415;-1.2227478;-;-;-;-;-;-;-;-;-;-;-;-;-;-;-
1514181100141;-;-;9.330688;0.057647705;-1.0372009;-;-;-;-;-;-;-;-;-;-;-;-;-;-;-
1514181100162;-;-;9.357025;-0.040512085;-0.98812866;-;-;-;-;-;-;-;-;-;-;-;-;-;-;-
1514181100183;-;-;9.285202;-0.20570374;-0.84088135;-;-;-;-;-;-;-;-;-;-;-;-;-;-;-
1514181100202;-;-;9.136765;-0.38168335;-0.6876526;-;-;-;-;-;-;-;-;-;-;-;-;-;-;-
1514181100223;-;-;9.243301;-0.32781982;-0.6218109;-;-;-;-;-;-;-;-;-;-;-;-;-;-;-
1514181100243;-;-;9.311539;-0.3768921;-0.48054504;-;-;-;-;-;-;-;-;-;-;-;-;-;-;-
1514181100264;-;-;9.272034;-0.45829773;-0.39794922;-;-;-;-;-;-;-;-;-;-;-;-;-;-;-
1514181100284;-;-;9.273239;-0.48703003;-0.372818;-;-;-;-;-;-;-;-;-;-;-;-;-;-;-
1514181100304;-;-;9.31752;-0.45350647;-0.45899963;-;-;-;-;-;-;-;-;-;-;-;-;-;-;-
1514181100325;-;-;9.282806;-0.3589325;-0.4853363;-;-;-;-;-;-;-;-;-;-;-;-;-;-;-
1514181100345;-;-;9.293579;-0.3589325;-0.5571594;-;-;-;-;-;-;-;-;-;-;-;-;-;-;-
1514181100366;-;-;9.252884;-0.1877594;-0.6553345;-;-;-;-;-;-;-;-;-;-;-;-;-;-;-
1514181100386;-;-;9.225342;-0.1015625;-0.6409607;-;-;-;-;-;-;-;-;-;-;-;-;-;-;-
1514181100407;-;-;9.311539;-0.06803894;-0.7451172;-;-;-;-;-;-;-;-;-;-;-;-;-;-;-
1514181100427;-;-;9.306747;-0.10874939;-0.8899536;-;-;-;-;-;-;-;-;-;-;-;-;-;-;-
1514181100448;-;-;9.289993;-0.1015625;-0.81573486;-;-;-;-;-;-;-;-;-;-;-;-;-;-;-
1514181100469;-;-;9.249298;-0.083602905;-0.8145447;-;-;-;-;-;-;-;-;-;-;-;-;-;-;-
1514181100489;-;-;9.182251;-0.033325195;-0.6948395;-;-;-;-;-;-;-;-;-;-;-;-;-;-;-
1514181100509;-;-;9.208588;-0.030929565;-0.67567444;-;-;-;-;-;-;-;-;-;-;-;-;-;-;-
1514181100530;-;-;9.264847;-0.026138306;-0.62060547;-;-;-;-;-;-;-;-;-;-;-;-;-;-;-
1514181100550;-;-;9.242111;-0.011779785;-0.6182251;-;-;-;-;-;-;-;-;-;-;-;-;-;-;-
1514181100571;-;-;9.2756195;-0.035720825;-0.6661072;-;-;-;-;-;-;-;-;-;-;-;-;-;-;-
1514181100592;-;-;9.249298;-0.13269043;-0.6182251;-;-;-;-;-;-;-;-;-;-;-;-;-;-;-
1514181100611;-;-;9.239716;-0.24401855;-0.5607605;-;-;-;-;-;-;-;-;-;-;-;-;-;-;-
1514181100632;-;-;9.325912;-0.32661438;-0.5428009;-;-;-;-;-;-;-;-;-;-;-;-;-;-;-
1514181100652;-;-;9.303162;-0.31584167;-0.51646423;-;-;-;-;-;-;-;-;-;-;-;-;-;-;-
1514181100672;-;-;9.294785;-0.37928772;-0.4350586;-;-;-;-;-;-;-;-;-;-;-;-;-;-;-
1514181100693;-;-;9.280411;-0.48942566;-0.37998962;-;-;-;-;-;-;-;-;-;-;-;-;-;-;-
1514181100713;-;-;9.195419;-0.5540619;-0.37998962;-;-;-;-;-;-;-;-;-;-;-;-;-;-;-
1514181100734;-;-;9.173874;-0.50857544;-0.3548584;-;-;-;-;-;-;-;-;-;-;-;-;-;-;-
1514181100754;-;-;9.321121;-0.37928772;-0.3548584;-;-;-;-;-;-;-;-;-;-;-;-;-;-;-
1514181100774;-;-;9.3546295;-0.33499146;-0.34169006;-;-;-;-;-;-;-;-;-;-;-;-;-;-;-
