TimeStamp[ms];Prox[Cm];Lux[lux];AccX[m/s^2];AccY[m/s^2];AccZ[m/s^2];GyroX[rad/s];GyroY[rad/s];GyroZ[rad/s];MagnX[uT];MagnY[uT];MagnZ[uT];OrienYaw[degrees];OrienPitch[degrees];OrienRoll[degrees];Press[Pa];Temp[C°];Batt[%];Lat;Lng;Speed[m/s]
1514181347494;-;-;8.614822;-2.0265045;2.7492218;-;-;-;-;-;-;-;-;-;-;-;-;-;-;-
1514181347501;-;-;8.572922;-2.0193176;2.7432404;-;-;-;-;-;-;-;-;-;-;-;-;-;-;-
1514181347522;-;-;8.629196;-2.063614;3.0113983;-;-;-;-;-;-;-;-;-;-;-;-;-;-;-
1514181347542;-;-;8.722565;-2.063614;3.0257568;-;-;-;-;-;-;-;-;-;-;-;-;-;-;-
1514181347564;-;-;8.768051;-1.7739105;2.165039;-;-;-;-;-;-;-;-;-;-;-;-;-;-;-
1514181347584;-;-;8.520264;-1.7655334;2.4918518;-;-;-;-;-;-;-;-;-;-;-;-;-;-;-
1514181347603;-;-;8.786011;-1.6996918;2.5948029;-;-;-;-;-;-;-;-;-;-;-;-;-;-;-
1514181347625;-;-;9.032608;-1.7379913;2.5385437;-;-;-;-;-;-;-;-;-;-;-;-;-;-;-
1514181347647;-;-;8.708206;-2.0971222;2.9012604;-;-;-;-;-;-;-;-;-;-;-;-;-;-;-
1514181347666;-;-;9.038605;-1.5560455;1.2576447;-;-;-;-;-;-;-;-;-;-;-;-;-;-;-
1514181347687;-;-;8.113235;-1.8265839;2.0608978;-;-;-;-;-;-;-;-;-;-;-;-;-;-;-
1514181347706;-;-;6.810791;-1.0867767;0.56211853;-;-;-;-;-;-;-;-;-;-;-;-;-;-;-
1514181347727;-;-;7.620041;-2.1797333;1.3031311;-;-;-;-;-;-;-;-;-;-;-;-;-;-;-
1514181347749;-;-;8.041412;-1.9606628;1.3797455;-;-;-;-;-;-;-;-;-;-;-;-;-;-;-
1514181347768;-;-;9.801147;-1.6793365;2.3410187;-;-;-;-;-;-;-;-;-;-;-;-;-;-;-
1514181347788;-;-;9.576096;-0.9503021;1.6574707;-;-;-;-;-;-;-;-;-;-;-;-;-;-;-
1514181347807;-;-;10.435623;-1.4363251;-1.179657;-;-;-;-;-;-;-;-;-;-;-;-;-;-;-
1514181347828;-;-;10.62236;-1.6985016;0.16827393;-;-;-;-;-;-;-;-;-;-;-;-;-;-;-
1514181347847;-;-;10.344635;-0.25360107;0.27482605;-;-;-;-;-;-;-;-;-;-;-;-;-;-;-
1514181347867;-;-;9.880157;-0.46188354;0.44122314;-;-;-;-;-;-;-;-;-;-;-;-;-;-;-
1514181347888;-;-;10.096832;-0.42118835;-0.669693;-;-;-;-;-;-;-;-;-;-;-;-;-;-;-
1514181347909;-;-;9.185837;-1.3549194;0.508255;-;-;-;-;-;-;-;-;-;-;-;-;-;-;-
1514181347928;-;-;9.559341;-1.4399261;0.031814575;-;-;-;-;-;-;-;-;-;-;-;-;-;-;-
1514181347948;-;-;9.258865;-1.5009766;-0.049591064;-;-;-;-;-;-;-;-;-;-;-;-;-;-;-
1514181347969;-;-;9.608414;-1.146637;-0.75109863;-;-;-;-;-;-;-;-;-;-;-;-;-;-;-
1514181347990;-;-;9.161896;-1.1023407;0.15151978;-;-;-;-;-;-;-;-;-;-;-;-;-;-;-
1514181348010;-;-;8.288025;-0.7671509;0.38734436;-;-;-;-;-;-;-;-;-;-;-;-;-;-;-
1514181348030;-;-;8.950012;-0.6438446;-0.120224;-;-;-;-;-;-;-;-;-;-;-;-;-;-;-
1514181348051;-;-;9.215775;-0.58399963;-0.10107422;-;-;-;-;-;-;-;-;-;-;-;-;-;-;-
1514181348071;-;-;9.676651;-0.040512085;-0.097473145;-;-;-;-;-;-;-;-;-;-;-;-;-;-;-
1514181348092;-;-;9.220566;-0.20930481;-0.109451294;-;-;-;-;-;-;-;-;-;-;-;-;-;-;-
1514181348112;-;-;9.561737;-0.66778564;0.27601624;-;-;-;-;-;-;-;-;-;-;-;-;-;-;-
1514181348133;-;-;9.8203125;-0.7276459;-0.39196777;-;-;-;-;-;-;-;-;-;-;-;-;-;-;-
1514181348153;-;-;9.738907;-0.60554504;-0.45780945;-;-;-;-;-;-;-;-;-;-;-;-;-;-;-
1514181348174;-;-;8.811157;-0.61631775;-0.27464294;-;-;-;-;-;-;-;-;-;-;-;-;-;-;-
1514181348194;-;-;9.009872;-0.56243896;-0.34288025;-;-;-;-;-;-;-;-;-;-;-;-;-;-;-
1514181348215;-;-;9.189438;-0.79348755;0.23532104;-;-;-;-;-;-;-;-;-;-;-;-;-;-;-
1514181348235;-;-;9.091278;-0.63786316;0.19342041;-;-;-;-;-;-;-;-;-;-;-;-;-;-;-
1514181348256;-;-;9.418076;-0.8701019;-0.063964844;-;-;-;-;-;-;-;-;-;-;-;-;-;-;-
1514181348275;-;-;9.533005;-0.7192688;-0.5056915;-;-;-;-;-;-;-;-;-;-;-;-;-;-;-
1514181348295;-;-;9.537796;-0.4163971;-0.2866211;-;-;-;-;-;-;-;-;-;-;-;-;-;-;-
1514181348316;-;-;8.717773;-1.2244415;-0.63856506;-;-;-;-;-;-;-;-;-;-;-;-;-;-;-
1514181348335;-;-;8.959595;-0.9945984;-1.1700745;-;-;-;-;-;-;-;-;-;-;-;-;-;-;-
1514181348355;-;-;9.266052;-0.77911377;-0.7690582;-;-;-;-;-;-;-;-;-;-;-;-;-;-;-
1514181348376;-;-;9.210983;-0.21289063;-0.34887695;-;-;-;-;-;-;-;-;-;-;-;-;-;-;-
1514181348396;-;-;9.131973;-0.43315125;-0.120224;-;-;-;-;-;-;-;-;-;-;-;-;-;-;-
1514181348417;-;-;10.239288;-0.5253296;-0.28303528;-;-;-;-;-;-;-;-;-;-;-;-;-;-;-
1514181348437;-;-;8.92128;-0.88327026;-1.2682495;-;-;-;-;-;-;-;-;-;-;-;-;-;-;-
1514181348458;-;-;8.833893;0.61190796;-1.7231445;-;-;-;-;-;-;-;-;-;-;-;-;-;-;-
1514181348480;-;-;10.115997;0.7112732;-2.5563202;-;-;-;-;-;-;-;-;-;-;-;-;-;-;-
1514181348499;-;-;11.703354;0.32699585;-2.0559387;-;-;-;-;-;-;-;-;-;-;-;-;-;-;-
1514181348519;-;-;7.308792;-0.39485168;0.20658875;-;-;-;-;-;-;-;-;-;-;-;-;-;-;-
1514181348540;-;-;8.947617;0.11392212;-1.1365662;-;-;-;-;-;-;-;-;-;-;-;-;-;-;-
1514181348560;-;-;9.026627;-1.0951538;-1.74469;-;-;-;-;-;-;-;-;-;-;-;-;-;-;-
1514181348581;-;-;9.23613;-0.6498413;-1.1126251;-;-;-;-;-;-;-;-;-;-;-;-;-;-;-
1514181348601;-;-;8.212601;-0.11831665;-0.7953949;-;-;-;-;-;-;-;-;-;-;-;-;-;-;-
1514181348621;-;-;9.212173;0.6825409;-0.9917145;-;-;-;-;-;-;-;-;-;-;-;-;-;-;-
1514181348642;-;-;9.804749;0.39881897;-1.0360107;-;-;-;-;-;-;-;-;-;-;-;-;-;-;-
1514181348662;-;-;9.834671;0.43952942;-1.4178772;-;-;-;-;-;-;-;-;-;-;-;-;-;-;-
1514181348683;-;-;8.945221;0.45988464;-1.2562714;-;-;-;-;-;-;-;-;-;-;-;-;-;-;-
1514181348703;-;-;8.177887;-0.097976685;-1.1844482;-;-;-;-;-;-;-;-;-;-;-;-;-;-;-
1514181348723;-;-;8.181473;-0.6582184;-2.223526;-;-;-;-;-;-;-;-;-;-;-;-;-;-;-
1514181348744;-;-;10.803131;-1.364502;-1.0563507;-;-;-;-;-;-;-;-;-;-;-;-;-;-;-
1514181348763;-;-;6.8526917;-1.506958;-0.087905884;-;-;-;-;-;-;-;-;-;-;-;-;-;-;-
1514181348784;-;-;8.341888;-2.0588226;-0.0041046143;-;-;-;-;-;-;-;-;-;-;-;-;-;-;-
1514181348805;-;-;8.510681;-1.9403076;-0.33929443;-;-;-;-;-;-;-;-;-;-;-;-;-;-;-
1514181348825;-;-;10.154297;-1.6494141;-0.372818;-;-;-;-;-;-;-;-;-;-;-;-;-;-;-
1514181348846;-;-;11.079651;-0.67736816;0.17546082;-;-;-;-;-;-;-;-;-;-;-;-;-;-;-
1514181348866;-;-;9.612015;0.30545044;-1.0336151;-;-;-;-;-;-;-;-;-;-;-;-;-;-;-
1514181348887;-;-;9.884949;0.37249756;-0.7846222;-;-;-;-;-;-;-;-;-;-;-;-;-;-;-
1514181348907;-;-;10.14711;-0.31584167;-1.0970612;-;-;-;-;-;-;-;-;-;-;-;-;-;-;-
1514181348928;-;-;8.988327;-0.47865295;-0.9450226;-;-;-;-;-;-;-;-;-;-;-;-;-;-;-
1514181348948;-;-;8.993118;-0.4451294;-0.8492584;-;-;-;-;-;-;-;-;-;-;-;-;-;-;-
1514181348968;-;-;9.105637;-0.50857544;-0.9234772;-;-;-;-;-;-;-;-;-;-;-;-;-;-;-
1514181348989;-;-;9.137955;-0.4738617;-0.7977905;-;-;-;-;-;-;-;-;-;-;-;-;-;-;-
1514181349009;-;-;9.054169;-0.5672302;-0.8289032;-;-;-;-;-;-;-;-;-;-;-;-;-;-;-
1514181349030;-;-;8.808762;-0.7312317;-0.8935547;-;-;-;-;-;-;-;-;-;-;-;-;-;-;-
1514181349049;-;-;8.626801;-0.50857544;-0.73194885;-;-;-;-;-;-;-;-;-;-;-;-;-;-;-
1514181349070;-;-;7.93248;-0.38168335;-0.7953949;-;-;-;-;-;-;-;-;-;-;-;-;-;-;-
1514181349090;-;-;8.587296;0.007369995;-0.9246826;-;-;-;-;-;-;-;-;-;-;-;-;-;-;-
1514181349112;-;-;9.708984;0.6131134;-2.093048;-;-;-;-;-;-;-;-;-;-;-;-;-;-;-
1514181349132;-;-;9.2313385;0.115112305;-2.9525604;-;-;-;-;-;-;-;-;-;-;-;-;-;-;-
1514181349152;-;-;8.668701;-0.77433777;-3.6408997;-;-;-;-;-;-;-;-;-;-;-;-;-;-;-
1514181349173;-;-;8.613632;-1.2830963;-3.6564636;-;-;-;-;-;-;-;-;-;-;-;-;-;-;-
1514181349192;-;-;8.035431;-1.107132;-3.4505615;-;-;-;-;-;-;-;-;-;-;-;-;-;-;-
1514181349212;-;-;7.071762;-0.7623596;-3.607376;-;-;-;-;-;-;-;-;-;-;-;-;-;-;-
1514181349233;-;-;6.2816772;-0.5205536;-4.2418365;-;-;-;-;-;-;-;-;-;-;-;-;-;-;-
1514181349253;-;-;5.663971;-0.33021545;-4.1987457;-;-;-;-;-;-;-;-;-;-;-;-;-;-;-
1514181349274;-;-;5.64003;-0.18296814;-4.136505;-;-;-;-;-;-;-;-;-;-;-;-;-;-;-
1514181349294;-;-;5.3934326;-0.11114502;-4.3555603;-;-;-;-;-;-;-;-;-;-;-;-;-;-;-
1514181349314;-;-;4.872696;0.0181427;-4.5578766;-;-;-;-;-;-;-;-;-;-;-;-;-;-;-
1514181349335;-;-;4.2238617;0.14982605;-3.669632;-;-;-;-;-;-;-;-;-;-;-;-;-;-;-
1514181349355;-;-;4.032318;0.2300415;-2.3516235;-;-;-;-;-;-;-;-;-;-;-;-;-;-;-
1514181349376;-;-;3.7234802;-0.47265625;-1.6525116;-;-;-;-;-;-;-;-;-;-;-;-;-;-;-
1514181349397;-;-;3.8012848;-1.7272186;-2.601822;-;-;-;-;-;-;-;-;-;-;-;-;-;-;-
1514181349417;-;-;4.067047;-1.562027;-3.927002;-;-;-;-;-;-;-;-;-;-;-;-;-;-;-
1514181349438;-;-;4.7422028;-0.8533478;-4.3555603;-;-;-;-;-;-;-;-;-;-;-;-;-;-;-
1514181349458;-;-;6.8371277;-0.60194397;-4.809265;-;-;-;-;-;-;-;-;-;-;-;-;-;-;-
1514181349479;-;-;8.7764435;-0.19493103;-6.0279236;-;-;-;-;-;-;-;-;-;-;-;-;-;-;-
1514181349499;-;-;9.254074;0.46228027;-7.389023;-;-;-;-;-;-;-;-;-;-;-;-;-;-;-
1514181349520;-;-;9.676651;1.3182068;-7.3375397;-;-;-;-;-;-;-;-;-;-;-;-;-;-;-
1514181349541;-;-;9.426468;0.5628357;-6.8431396;-;-;-;-;-;-;-;-;-;-;-;-;-;-;-
1514181349561;-;-;8.438858;-1.6601868;-7.6452026;-;-;-;-;-;-;-;-;-;-;-;-;-;-;-
1514181349581;-;-;7.9025574;-2.8644714;-7.824768;-;-;-;-;-;-;-;-;-;-;-;-;-;-;-
1514181349602;-;-;7.415329;-2.614273;-6.947296;-;-;-;-;-;-;-;-;-;-;-;-;-;-;-
1514181349622;-;-;7.4416656;-1.4207611;-6.114105;-;-;-;-;-;-;-;-;-;-;-;-;-;-;-
1514181349643;-;-;7.0729675;-0.3433838;-6.5965424;-;-;-;-;-;-;-;-;-;-;-;-;-;-;-
1514181349664;-;-;6.515106;-0.19972229;-7.6212616;-;-;-;-;-;-;-;-;-;-;-;-;-;-;-
1514181349684;-;-;6.1847076;-0.30267334;-8.152771;-;-;-;-;-;-;-;-;-;-;-;-;-;-;-
1514181349704;-;-;6.4564514;-0.48703003;-7.00235;-;-;-;-;-;-;-;-;-;-;-;-;-;-;-
1514181349725;-;-;7.174713;-0.8928528;-6.0003815;-;-;-;-;-;-;-;-;-;-;-;-;-;-;-
1514181349745;-;-;8.414917;-1.0221252;-6.6719513;-;-;-;-;-;-;-;-;-;-;-;-;-;-;-
1514181349766;-;-;7.4644165;-0.99220276;-8.171921;-;-;-;-;-;-;-;-;-;-;-;-;-;-;-
1514181349786;-;-;7.8007965;-0.60554504;-8.727386;-;-;-;-;-;-;-;-;-;-;-;-;-;-;-
1514181349807;-;-;6.9975433;-0.045303345;-8.681885;-;-;-;-;-;-;-;-;-;-;-;-;-;-;-
1514181349827;-;-;7.2190094;-0.34217834;-8.150375;-;-;-;-;-;-;-;-;-;-;-;-;-;-;-
1514181349848;-;-;7.648773;-0.10635376;-7.9325104;-;-;-;-;-;-;-;-;-;-;-;-;-;-;-
1514181349869;-;-;7.715805;0.3222046;-8.436478;-;-;-;-;-;-;-;-;-;-;-;-;-;-;-
1514181349889;-;-;7.802002;0.03012085;-8.125244;-;-;-;-;-;-;-;-;-;-;-;-;-;-;-
1514181349909;-;-;8.587296;-0.39604187;-7.6847076;-;-;-;-;-;-;-;-;-;-;-;-;-;-;-
1514181349930;-;-;10.241684;-0.5097656;-8.001938;-;-;-;-;-;-;-;-;-;-;-;-;-;-;-
1514181349951;-;-;12.370132;-0.4487152;-8.945251;-;-;-;-;-;-;-;-;-;-;-;-;-;-;-
1514181349971;-;-;11.386108;-0.41400146;-11.581268;-;-;-;-;-;-;-;-;-;-;-;-;-;-;-
1514181349992;-;-;11.744049;-0.15542603;-11.748856;-;-;-;-;-;-;-;-;-;-;-;-;-;-;-
1514181350012;-;-;12.9674835;-0.36013794;-8.478378;-;-;-;-;-;-;-;-;-;-;-;-;-;-;-
1514181350032;-;-;10.941986;-0.5899811;-5.3766937;-;-;-;-;-;-;-;-;-;-;-;-;-;-;-
1514181350053;-;-;8.598068;-1.1801453;-2.6245575;-;-;-;-;-;-;-;-;-;-;-;-;-;-;-
1514181350074;-;-;6.850296;-2.001358;-0.8947449;-;-;-;-;-;-;-;-;-;-;-;-;-;-;-
1514181350094;-;-;5.8962097;-1.2998657;0.084472656;-;-;-;-;-;-;-;-;-;-;-;-;-;-;-
1514181350115;-;-;2.5000305;-0.8772888;1.7568359;-;-;-;-;-;-;-;-;-;-;-;-;-;-;-
1514181350135;-;-;1.5591125;-0.4774475;1.6179657;-;-;-;-;-;-;-;-;-;-;-;-;-;-;-
1514181350156;-;-;4.2705536;0.32939148;-0.6661072;-;-;-;-;-;-;-;-;-;-;-;-;-;-;-
1514181350176;-;-;6.625244;-0.3876648;-3.2362823;-;-;-;-;-;-;-;-;-;-;-;-;-;-;-
1514181350197;-;-;10.79715;-0.67378235;-4.03714;-;-;-;-;-;-;-;-;-;-;-;-;-;-;-
1514181350217;-;-;14.194519;0.009765625;-5.5023956;-;-;-;-;-;-;-;-;-;-;-;-;-;-;-
1514181350238;-;-;15.3389435;0.66218567;-5.325226;-;-;-;-;-;-;-;-;-;-;-;-;-;-;-
1514181350258;-;-;11.332245;0.064834595;-2.9082794;-;-;-;-;-;-;-;-;-;-;-;-;-;-;-
1514181350278;-;-;8.607651;-0.47625732;-1.0395966;-;-;-;-;-;-;-;-;-;-;-;-;-;-;-
1514181350298;-;-;7.0969086;-0.24880981;-0.2902069;-;-;-;-;-;-;-;-;-;-;-;-;-;-;-
1514181350319;-;-;6.675522;0.0756073;-0.18486023;-;-;-;-;-;-;-;-;-;-;-;-;-;-;-
1514181350338;-;-;6.901779;0.62028503;-0.5631561;-;-;-;-;-;-;-;-;-;-;-;-;-;-;-
1514181350358;-;-;7.870224;1.2200317;-1.243103;-;-;-;-;-;-;-;-;-;-;-;-;-;-;-
1514181350379;-;-;8.656723;1.5600128;-1.9326324;-;-;-;-;-;-;-;-;-;-;-;-;-;-;-
1514181350399;-;-;9.397736;1.2128601;-2.1768494;-;-;-;-;-;-;-;-;-;-;-;-;-;-;-
1514181350420;-;-;10.005859;0.7615509;-2.1014252;-;-;-;-;-;-;-;-;-;-;-;-;-;-;-
1514181350440;-;-;9.564133;0.7424011;-1.7027893;-;-;-;-;-;-;-;-;-;-;-;-;-;-;-
1514181350461;-;-;9.014664;0.52931213;-1.5986481;-;-;-;-;-;-;-;-;-;-;-;-;-;-;-
1514181350481;-;-;9.141556;0.103149414;-1.6333618;-;-;-;-;-;-;-;-;-;-;-;-;-;-;-
1514181350501;-;-;9.185837;-0.03453064;-1.243103;-;-;-;-;-;-;-;-;-;-;-;-;-;-;-
1514181350522;-;-;8.92009;-0.07043457;-1.0204468;-;-;-;-;-;-;-;-;-;-;-;-;-;-;-
1514181350542;-;-;8.794388;-0.050079346;-1.2574768;-;-;-;-;-;-;-;-;-;-;-;-;-;-;-
1514181350563;-;-;8.748901;0.028915405;-1.5771027;-;-;-;-;-;-;-;-;-;-;-;-;-;-;-
1514181350584;-;-;8.722565;0.122299194;-1.7075806;-;-;-;-;-;-;-;-;-;-;-;-;-;-;-
1514181350604;-;-;9.003891;-0.009384155;-1.674057;-;-;-;-;-;-;-;-;-;-;-;-;-;-;-
1514181350623;-;-;9.322311;-0.17817688;-1.8548279;-;-;-;-;-;-;-;-;-;-;-;-;-;-;-
1514181350644;-;-;9.457581;-0.12908936;-1.9541779;-;-;-;-;-;-;-;-;-;-;-;-;-;-;-
1514181350664;-;-;9.445618;-0.13986206;-2.0068512;-;-;-;-;-;-;-;-;-;-;-;-;-;-;-
1514181350685;-;-;9.407303;-0.35534668;-1.9733429;-;-;-;-;-;-;-;-;-;-;-;-;-;-;-
1514181350705;-;-;9.3498535;-0.51097107;-2.2642365;-;-;-;-;-;-;-;-;-;-;-;-;-;-;-
1514181350726;-;-;8.453217;-0.19013977;-2.931015;-;-;-;-;-;-;-;-;-;-;-;-;-;-;-
1514181350746;-;-;8.226959;0.06602478;-3.235077;-;-;-;-;-;-;-;-;-;-;-;-;-;-;-
1514181350767;-;-;8.957199;-0.3194275;-3.409851;-;-;-;-;-;-;-;-;-;-;-;-;-;-;-
1514181350787;-;-;9.995087;-0.5133667;-3.1860046;-;-;-;-;-;-;-;-;-;-;-;-;-;-;-
1514181350808;-;-;10.291962;-0.54089355;-3.3344421;-;-;-;-;-;-;-;-;-;-;-;-;-;-;-
1514181350828;-;-;9.072113;-0.31704712;-3.9928436;-;-;-;-;-;-;-;-;-;-;-;-;-;-;-
1514181350849;-;-;8.684265;-0.56604004;-3.5151978;-;-;-;-;-;-;-;-;-;-;-;-;-;-;-
1514181350869;-;-;9.257675;-1.2914734;-3.4038696;-;-;-;-;-;-;-;-;-;-;-;-;-;-;-
1514181350889;-;-;9.345062;-1.0927582;-2.6724396;-;-;-;-;-;-;-;-;-;-;-;-;-;-;-
1514181350910;-;-;8.685455;-0.88446045;-2.5826569;-;-;-;-;-;-;-;-;-;-;-;-;-;-;-
1514181350931;-;-;9.00029;-0.8282013;-2.625763;-;-;-;-;-;-;-;-;-;-;-;-;-;-;-
1514181350951;-;-;8.96199;-0.85572815;-2.7837677;-;-;-;-;-;-;-;-;-;-;-;-;-;-;-
1514181350972;-;-;9.485123;-0.35295105;-3.346405;-;-;-;-;-;-;-;-;-;-;-;-;-;-;-
1514181350992;-;-;9.383362;0.2300415;-2.9046783;-;-;-;-;-;-;-;-;-;-;-;-;-;-;-
1514181351013;-;-;9.070923;0.33776855;-2.8172913;-;-;-;-;-;-;-;-;-;-;-;-;-;-;-
1514181351033;-;-;8.869812;-0.05368042;-2.4785156;-;-;-;-;-;-;-;-;-;-;-;-;-;-;-
1514181351053;-;-;8.948822;-0.38168335;-2.2378998;-;-;-;-;-;-;-;-;-;-;-;-;-;-;-
1514181351074;-;-;9.122391;-0.4547119;-2.4497833;-;-;-;-;-;-;-;-;-;-;-;-;-;-;-
1514181351094;-;-;9.323517;-0.26675415;-2.7394867;-;-;-;-;-;-;-;-;-;-;-;-;-;-;-
1514181351114;-;-;9.048172;0.2300415;-2.8496094;-;-;-;-;-;-;-;-;-;-;-;-;-;-;-
1514181351135;-;-;8.758484;0.53889465;-2.994461;-;-;-;-;-;-;-;-;-;-;-;-;-;-;-
1514181351156;-;-;9.188232;0.54966736;-3.1093903;-;-;-;-;-;-;-;-;-;-;-;-;-;-;-
1514181351175;-;-;9.843048;0.6322632;-3.0986176;-;-;-;-;-;-;-;-;-;-;-;-;-;-;-
1514181351195;-;-;10.072891;0.4658661;-2.4114685;-;-;-;-;-;-;-;-;-;-;-;-;-;-;-
1514181351216;-;-;9.744888;0.28630066;-1.9386139;-;-;-;-;-;-;-;-;-;-;-;-;-;-;-
1514181351237;-;-;9.197815;0.39404297;-1.9158783;-;-;-;-;-;-;-;-;-;-;-;-;-;-;-
1514181351256;-;-;8.179077;0.4694519;-1.4226685;-;-;-;-;-;-;-;-;-;-;-;-;-;-;-
1514181351276;-;-;7.7924194;0.34735107;-0.7451172;-;-;-;-;-;-;-;-;-;-;-;-;-;-;-
1514181351297;-;-;7.9420624;0.46705627;-0.7379303;-;-;-;-;-;-;-;-;-;-;-;-;-;-;-
1514181351317;-;-;8.079727;0.67655945;-1.2802124;-;-;-;-;-;-;-;-;-;-;-;-;-;-;-
1514181351338;-;-;7.924103;0.9973755;-1.7889862;-;-;-;-;-;-;-;-;-;-;-;-;-;-;-
1514181351358;-;-;8.286819;1.0452576;-1.3568268;-;-;-;-;-;-;-;-;-;-;-;-;-;-;-
1514181351379;-;-;9.363022;0.9961853;-1.1605072;-;-;-;-;-;-;-;-;-;-;-;-;-;-;-
1514181351399;-;-;9.760452;0.6394501;-1.2419128;-;-;-;-;-;-;-;-;-;-;-;-;-;-;-
1514181351419;-;-;10.698975;0.5664215;-0.15374756;-;-;-;-;-;-;-;-;-;-;-;-;-;-;-
1514181351440;-;-;10.053741;0.27192688;0.59085083;-;-;-;-;-;-;-;-;-;-;-;-;-;-;-
1514181351460;-;-;8.590881;0.23123169;0.5549469;-;-;-;-;-;-;-;-;-;-;-;-;-;-;-
1514181351480;-;-;7.396179;-0.48703003;0.54655457;-;-;-;-;-;-;-;-;-;-;-;-;-;-;-
1514181351501;-;-;7.2261963;-1.0712128;0.3490448;-;-;-;-;-;-;-;-;-;-;-;-;-;-;-
1514181351522;-;-;8.562149;-0.71687317;0.8410492;-;-;-;-;-;-;-;-;-;-;-;-;-;-;-
1514181351542;-;-;9.661087;-0.54689026;-0.62060547;-;-;-;-;-;-;-;-;-;-;-;-;-;-;-
1514181351563;-;-;10.460754;0.299469;-1.9709473;-;-;-;-;-;-;-;-;-;-;-;-;-;-;-
1514181351583;-;-;10.993469;0.68733215;-2.3396454;-;-;-;-;-;-;-;-;-;-;-;-;-;-;-
1514181351604;-;-;10.171051;0.68133545;-2.270218;-;-;-;-;-;-;-;-;-;-;-;-;-;-;-
1514181351626;-;-;8.589691;0.0756073;-1.0731201;-;-;-;-;-;-;-;-;-;-;-;-;-;-;-
1514181351646;-;-;7.501526;-0.24880981;0.07369995;-;-;-;-;-;-;-;-;-;-;-;-;-;-;-
1514181351667;-;-;8.045013;-0.47984314;0.8949127;-;-;-;-;-;-;-;-;-;-;-;-;-;-;-
1514181351687;-;-;8.977554;-0.17459106;0.027023315;-;-;-;-;-;-;-;-;-;-;-;-;-;-;-
1514181351708;-;-;9.0577545;-0.1482544;-0.575119;-;-;-;-;-;-;-;-;-;-;-;-;-;-;-
1514181351728;-;-;9.197815;-0.5349121;-0.7008209;-;-;-;-;-;-;-;-;-;-;-;-;-;-;-
1514181351748;-;-;10.133942;-0.38287354;-0.53082275;-;-;-;-;-;-;-;-;-;-;-;-;-;-;-
1514181351769;-;-;10.16507;-0.14585876;-1.1712799;-;-;-;-;-;-;-;-;-;-;-;-;-;-;-
1514181351788;-;-;9.574905;0.3461609;-1.6908264;-;-;-;-;-;-;-;-;-;-;-;-;-;-;-
1514181351808;-;-;9.457581;0.8345642;-0.13220215;-;-;-;-;-;-;-;-;-;-;-;-;-;-;-
1514181351828;-;-;8.909317;0.5628357;0.58966064;-;-;-;-;-;-;-;-;-;-;-;-;-;-;-
1514181351849;-;-;8.717773;-0.07043457;0.6243744;-;-;-;-;-;-;-;-;-;-;-;-;-;-;-
1514181351869;-;-;8.914108;-0.3086548;-0.016082764;-;-;-;-;-;-;-;-;-;-;-;-;-;-;-
1514181351890;-;-;9.070923;-0.40203857;-0.8767853;-;-;-;-;-;-;-;-;-;-;-;-;-;-;-
1514181351911;-;-;9.673065;-0.62828064;-1.2048035;-;-;-;-;-;-;-;-;-;-;-;-;-;-;-
1514181351930;-;-;10.084869;-0.97784424;-0.6253967;-;-;-;-;-;-;-;-;-;-;-;-;-;-;-
1514181351951;-;-;10.278793;-0.89164734;-0.40274048;-;-;-;-;-;-;-;-;-;-;-;-;-;-;-
1514181351971;-;-;9.537796;0.014556885;-0.42549133;-;-;-;-;-;-;-;-;-;-;-;-;-;-;-
1514181351992;-;-;8.892548;0.12709045;0.6483154;-;-;-;-;-;-;-;-;-;-;-;-;-;-;-
1514181352012;-;-;8.431671;-0.12908936;0.62677;-;-;-;-;-;-;-;-;-;-;-;-;-;-;-
1514181352034;-;-;8.503494;-0.15663147;0.76802063;-;-;-;-;-;-;-;-;-;-;-;-;-;-;-
1514181352054;-;-;8.824326;-0.31584167;0.80513;-;-;-;-;-;-;-;-;-;-;-;-;-;-;-
1514181352075;-;-;9.348648;-0.7084961;0.067718506;-;-;-;-;-;-;-;-;-;-;-;-;-;-;-
1514181352095;-;-;9.524628;-0.14704895;-0.22436523;-;-;-;-;-;-;-;-;-;-;-;-;-;-;-
1514181352116;-;-;9.580887;-0.34457397;-0.36442566;-;-;-;-;-;-;-;-;-;-;-;-;-;-;-
1514181352136;-;-;9.626373;-0.3577423;-0.6948395;-;-;-;-;-;-;-;-;-;-;-;-;-;-;-
1514181352157;-;-;9.580887;0.25875854;-0.20281982;-;-;-;-;-;-;-;-;-;-;-;-;-;-;-
1514181352177;-;-;9.221756;0.055252075;0.17425537;-;-;-;-;-;-;-;-;-;-;-;-;-;-;-
1514181352198;-;-;8.993118;-0.6426544;-0.48294067;-;-;-;-;-;-;-;-;-;-;-;-;-;-;-
1514181352218;-;-;9.067337;-0.11114502;-0.2674713;-;-;-;-;-;-;-;-;-;-;-;-;-;-;-
1514181352239;-;-;9.200211;-0.076416016;0.2053833;-;-;-;-;-;-;-;-;-;-;-;-;-;-;-
1514181352260;-;-;9.263657;-0.25239563;-0.024459839;-;-;-;-;-;-;-;-;-;-;-;-;-;-;-
1514181352280;-;-;9.295975;-0.34217834;-0.31414795;-;-;-;-;-;-;-;-;-;-;-;-;-;-;-
1514181352301;-;-;9.309143;-0.15184021;-0.4745636;-;-;-;-;-;-;-;-;-;-;-;-;-;-;-
1514181352321;-;-;9.424072;-0.18415833;0.0030822754;-;-;-;-;-;-;-;-;-;-;-;-;-;-;-
1514181352341;-;-;9.39534;-0.083602905;0.54177856;-;-;-;-;-;-;-;-;-;-;-;-;-;-;-
1514181352362;-;-;9.161896;-0.16619873;0.26643372;-;-;-;-;-;-;-;-;-;-;-;-;-;-;-
1514181352382;-;-;8.887772;-0.24520874;-0.14775085;-;-;-;-;-;-;-;-;-;-;-;-;-;-;-
1514181352403;-;-;9.050568;-0.22605896;-0.25909424;-;-;-;-;-;-;-;-;-;-;-;-;-;-;-
1514181352424;-;-;9.529419;-0.2787323;-0.1669159;-;-;-;-;-;-;-;-;-;-;-;-;-;-;-
1514181352444;-;-;9.592865;-0.4774475;-0.10107422;-;-;-;-;-;-;-;-;-;-;-;-;-;-;-
1514181352464;-;-;9.374985;-0.35653687;0.13954163;-;-;-;-;-;-;-;-;-;-;-;-;-;-;-
1514181352485;-;-;8.82193;-0.24760437;0.23052979;-;-;-;-;-;-;-;-;-;-;-;-;-;-;-
1514181352506;-;-;8.932053;-0.42837524;-0.09030151;-;-;-;-;-;-;-;-;-;-;-;-;-;-;-
1514181352526;-;-;9.225342;-0.50019836;-0.12620544;-;-;-;-;-;-;-;-;-;-;-;-;-;-;-
1514181352547;-;-;9.586868;-0.51815796;-0.18965149;-;-;-;-;-;-;-;-;-;-;-;-;-;-;-
1514181352566;-;-;9.653915;-0.41160583;-0.3548584;-;-;-;-;-;-;-;-;-;-;-;-;-;-;-
1514181352586;-;-;9.470749;-0.27633667;-0.40034485;-;-;-;-;-;-;-;-;-;-;-;-;-;-;-
1514181352607;-;-;9.542587;-0.36253357;-0.38838196;-;-;-;-;-;-;-;-;-;-;-;-;-;-;-
1514181352627;-;-;9.473145;-0.40203857;-0.27226257;-;-;-;-;-;-;-;-;-;-;-;-;-;-;-
1514181352648;-;-;9.2313385;-0.2272644;-0.18247986;-;-;-;-;-;-;-;-;-;-;-;-;-;-;-
1514181352668;-;-;9.049377;0.06364441;-0.06755066;-;-;-;-;-;-;-;-;-;-;-;-;-;-;-
1514181352689;-;-;9.12001;-0.014175415;-0.07234192;-;-;-;-;-;-;-;-;-;-;-;-;-;-;-
1514181352709;-;-;9.51265;-0.088394165;-0.2459259;-;-;-;-;-;-;-;-;-;-;-;-;-;-;-
1514181352730;-;-;9.585678;-0.3876648;-0.76545715;-;-;-;-;-;-;-;-;-;-;-;-;-;-;-
1514181352751;-;-;9.63356;-0.46069336;-0.9976959;-;-;-;-;-;-;-;-;-;-;-;-;-;-;-
1514181352771;-;-;9.546173;-0.4379425;-0.70680237;-;-;-;-;-;-;-;-;-;-;-;-;-;-;-
1514181352792;-;-;9.276825;-0.3002777;-0.29141235;-;-;-;-;-;-;-;-;-;-;-;-;-;-;-
1514181352812;-;-;9.181061;-0.39126587;-0.3153534;-;-;-;-;-;-;-;-;-;-;-;-;-;-;-
1514181352833;-;-;9.137955;-0.22007751;0.13595581;-;-;-;-;-;-;-;-;-;-;-;-;-;-;-
1514181352853;-;-;9.225342;0.06842041;0.4400177;-;-;-;-;-;-;-;-;-;-;-;-;-;-;-
1514181352874;-;-;9.589264;0.18214417;0.40171814;-;-;-;-;-;-;-;-;-;-;-;-;-;-;-
1514181352894;-;-;9.63237;0.13426208;0.004272461;-;-;-;-;-;-;-;-;-;-;-;-;-;-;-
1514181352915;-;-;9.442017;0.34495544;-0.0340271;-;-;-;-;-;-;-;-;-;-;-;-;-;-;-
1514181352935;-;-;9.215775;0.80822754;0.22573853;-;-;-;-;-;-;-;-;-;-;-;-;-;-;-
1514181352955;-;-;8.997894;1.0835724;0.29756165;-;-;-;-;-;-;-;-;-;-;-;-;-;-;-
1514181352976;-;-;8.935654;1.1206818;0.31552124;-;-;-;-;-;-;-;-;-;-;-;-;-;-;-
1514181352995;-;-;9.185837;1.2032776;0.18025208;-;-;-;-;-;-;-;-;-;-;-;-;-;-;-
1514181353015;-;-;9.364212;1.1625824;0.09286499;-;-;-;-;-;-;-;-;-;-;-;-;-;-;-
1514181353035;-;-;9.45639;1.0057526;-0.09030151;-;-;-;-;-;-;-;-;-;-;-;-;-;-;-
1514181353056;-;-;9.227737;0.9111786;-0.24951172;-;-;-;-;-;-;-;-;-;-;-;-;-;-;-
1514181353077;-;-;9.058945;0.9243469;-0.059173584;-;-;-;-;-;-;-;-;-;-;-;-;-;-;-
1514181353097;-;-;8.847061;1.1398315;0.29995728;-;-;-;-;-;-;-;-;-;-;-;-;-;-;-
1514181353118;-;-;8.879379;1.1494141;0.38494873;-;-;-;-;-;-;-;-;-;-;-;-;-;-;-
1514181353138;-;-;9.15831;1.0739899;0.42684937;-;-;-;-;-;-;-;-;-;-;-;-;-;-;-
1514181353160;-;-;9.233734;0.8609009;0.3310852;-;-;-;-;-;-;-;-;-;-;-;-;-;-;-
1514181353179;-;-;9.353439;0.8237915;0.2987671;-;-;-;-;-;-;-;-;-;-;-;-;-;-;-
1514181353200;-;-;9.39534;0.7819061;0.50346375;-;-;-;-;-;-;-;-;-;-;-;-;-;-;-
1514181353220;-;-;9.464767;0.48980713;0.5968323;-;-;-;-;-;-;-;-;-;-;-;-;-;-;-
1514181353240;-;-;9.360626;0.010971069;0.95835876;-;-;-;-;-;-;-;-;-;-;-;-;-;-;-
1514181353261;-;-;9.202606;-0.2775421;1.152298;-;-;-;-;-;-;-;-;-;-;-;-;-;-;-
1514181353281;-;-;9.041;-0.34457397;1.2408752;-;-;-;-;-;-;-;-;-;-;-;-;-;-;-
1514181353302;-;-;8.580109;-0.39604187;0.6495056;-;-;-;-;-;-;-;-;-;-;-;-;-;-;-
1514181353323;-;-;8.226959;0.019348145;0.33706665;-;-;-;-;-;-;-;-;-;-;-;-;-;-;-
1514181353343;-;-;9.137955;0.47543335;1.0074463;-;-;-;-;-;-;-;-;-;-;-;-;-;-;-
1514181353364;-;-;8.799179;0.6166992;0.7620392;-;-;-;-;-;-;-;-;-;-;-;-;-;-;-
1514181353384;-;-;8.954803;0.5592346;0.923645;-;-;-;-;-;-;-;-;-;-;-;-;-;-;-
1514181353406;-;-;9.352234;0.1845398;1.2935486;-;-;-;-;-;-;-;-;-;-;-;-;-;-;-
1514181353427;-;-;9.379776;0.11631775;1.3318634;-;-;-;-;-;-;-;-;-;-;-;-;-;-;-
1514181353447;-;-;9.415695;0.62268066;0.53219604;-;-;-;-;-;-;-;-;-;-;-;-;-;-;-
1514181353468;-;-;8.735733;0.79985046;0.20658875;-;-;-;-;-;-;-;-;-;-;-;-;-;-;-
1514181353488;-;-;8.671097;0.4371338;0.7069702;-;-;-;-;-;-;-;-;-;-;-;-;-;-;-
1514181353509;-;-;8.599258;0.338974;1.0469513;-;-;-;-;-;-;-;-;-;-;-;-;-;-;-
1514181353530;-;-;8.692642;0.68852234;1.1989746;-;-;-;-;-;-;-;-;-;-;-;-;-;-;-
1514181353550;-;-;9.046982;0.872879;1.339035;-;-;-;-;-;-;-;-;-;-;-;-;-;-;-
1514181353570;-;-;9.47554;0.7244415;1.4671326;-;-;-;-;-;-;-;-;-;-;-;-;-;-;-
1514181353591;-;-;9.555756;0.60113525;1.543747;-;-;-;-;-;-;-;-;-;-;-;-;-;-;-
1514181353611;-;-;9.372589;0.7902832;1.6251526;-;-;-;-;-;-;-;-;-;-;-;-;-;-;-
1514181353631;-;-;9.386963;1.006958;1.5186005;-;-;-;-;-;-;-;-;-;-;-;-;-;-;-
1514181353652;-;-;9.2313385;0.96624756;1.4324188;-;-;-;-;-;-;-;-;-;-;-;-;-;-;-
1514181353672;-;-;9.090073;0.7615509;1.2217255;-;-;-;-;-;-;-;-;-;-;-;-;-;-;-
1514181353693;-;-;8.697433;0.5077667;1.0457458;-;-;-;-;-;-;-;-;-;-;-;-;-;-;-
1514181353712;-;-;8.657928;0.48501587;1.081665;-;-;-;-;-;-;-;-;-;-;-;-;-;-;-
1514181353732;-;-;9.09845;0.48262024;0.96913147;-;-;-;-;-;-;-;-;-;-;-;-;-;-;-
1514181353752;-;-;9.324707;0.44192505;0.75245667;-;-;-;-;-;-;-;-;-;-;-;-;-;-;-
1514181353773;-;-;9.329498;0.37487793;0.6531067;-;-;-;-;-;-;-;-;-;-;-;-;-;-;-
1514181353793;-;-;9.428848;0.13786316;0.41607666;-;-;-;-;-;-;-;-;-;-;-;-;-;-;-
1514181353814;-;-;9.254074;0.05166626;0.36460876;-;-;-;-;-;-;-;-;-;-;-;-;-;-;-
1514181353833;-;-;9.147537;0.048080444;0.46754456;-;-;-;-;-;-;-;-;-;-;-;-;-;-;-
1514181353853;-;-;9.232529;0.23362732;0.7404938;-;-;-;-;-;-;-;-;-;-;-;-;-;-;-
1514181353874;-;-;9.408508;0.28390503;0.86380005;-;-;-;-;-;-;-;-;-;-;-;-;-;-;-
1514181353894;-;-;9.226547;0.3509369;0.8709717;-;-;-;-;-;-;-;-;-;-;-;-;-;-;-
1514181353914;-;-;9.019455;0.32460022;0.8506317;-;-;-;-;-;-;-;-;-;-;-;-;-;-;-
1514181353935;-;-;9.072113;0.09236145;0.8805542;-;-;-;-;-;-;-;-;-;-;-;-;-;-;-
1514181353955;-;-;9.374985;-0.012969971;0.74528503;-;-;-;-;-;-;-;-;-;-;-;-;-;-;-
1514181353975;-;-;9.498291;-0.045303345;0.54776;-;-;-;-;-;-;-;-;-;-;-;-;-;-;-
1514181353996;-;-;9.443222;0.03730774;0.3430481;-;-;-;-;-;-;-;-;-;-;-;-;-;-;-
1514181354017;-;-;9.3701935;0.15342712;0.06652832;-;-;-;-;-;-;-;-;-;-;-;-;-;-;-
1514181354037;-;-;9.321121;0.30545044;-0.15614319;-;-;-;-;-;-;-;-;-;-;-;-;-;-;-
1514181354058;-;-;9.207397;0.4012146;-0.2866211;-;-;-;-;-;-;-;-;-;-;-;-;-;-;-
1514181354078;-;-;9.209793;0.47424316;-0.2064209;-;-;-;-;-;-;-;-;-;-;-;-;-;-;-
1514181354099;-;-;9.041;0.6322632;-0.11543274;-;-;-;-;-;-;-;-;-;-;-;-;-;-;-
1514181354119;-;-;8.955994;0.6549988;0.26763916;-;-;-;-;-;-;-;-;-;-;-;-;-;-;-
1514181354140;-;-;8.880585;0.46705627;0.4220581;-;-;-;-;-;-;-;-;-;-;-;-;-;-;-
1514181354161;-;-;9.153519;0.11631775;0.25805664;-;-;-;-;-;-;-;-;-;-;-;-;-;-;-
1514181354181;-;-;9.738907;-0.097976685;-0.049591064;-;-;-;-;-;-;-;-;-;-;-;-;-;-;-
1514181354202;-;-;9.910095;-0.18655396;-0.3440857;-;-;-;-;-;-;-;-;-;-;-;-;-;-;-
1514181354222;-;-;9.57251;-0.08241272;-0.99650574;-;-;-;-;-;-;-;-;-;-;-;-;-;-;-
1514181354243;-;-;9.202606;0.02053833;-1.188034;-;-;-;-;-;-;-;-;-;-;-;-;-;-;-
1514181354262;-;-;9.012268;0.06124878;-1.1305847;-;-;-;-;-;-;-;-;-;-;-;-;-;-;-
1514181354283;-;-;8.989517;-0.012969971;-1.0970612;-;-;-;-;-;-;-;-;-;-;-;-;-;-;-
1514181354303;-;-;9.135559;-0.093185425;-0.7463074;-;-;-;-;-;-;-;-;-;-;-;-;-;-;-
1514181354324;-;-;9.233734;0.09715271;-0.535614;-;-;-;-;-;-;-;-;-;-;-;-;-;-;-
1514181354344;-;-;9.21817;0.2300415;-0.28063965;-;-;-;-;-;-;-;-;-;-;-;-;-;-;-
1514181354364;-;-;9.340271;0.3712921;-0.1669159;-;-;-;-;-;-;-;-;-;-;-;-;-;-;-
1514181354385;-;-;9.542587;0.45988464;-0.018478394;-;-;-;-;-;-;-;-;-;-;-;-;-;-;-
1514181354404;-;-;9.533005;0.43473816;0.13595581;-;-;-;-;-;-;-;-;-;-;-;-;-;-;-
1514181354424;-;-;9.4935;0.2707367;0.18144226;-;-;-;-;-;-;-;-;-;-;-;-;-;-;-
1514181354445;-;-;9.3701935;0.19293213;0.14553833;-;-;-;-;-;-;-;-;-;-;-;-;-;-;-
1514181354466;-;-;9.117615;0.095962524;-0.159729;-;-;-;-;-;-;-;-;-;-;-;-;-;-;-
1514181354485;-;-;9.200211;0.095962524;-0.29499817;-;-;-;-;-;-;-;-;-;-;-;-;-;-;-
1514181354506;-;-;9.286407;0.1330719;-0.47935486;-;-;-;-;-;-;-;-;-;-;-;-;-;-;-
1514181354526;-;-;9.243301;0.19891357;-0.7020111;-;-;-;-;-;-;-;-;-;-;-;-;-;-;-
1514181354547;-;-;9.199005;0.27313232;-0.7080078;-;-;-;-;-;-;-;-;-;-;-;-;-;-;-
1514181354566;-;-;9.15712;0.38446045;-0.64456177;-;-;-;-;-;-;-;-;-;-;-;-;-;-;-
1514181354587;-;-;9.224152;0.5341034;-0.55955505;-;-;-;-;-;-;-;-;-;-;-;-;-;-;-
1514181354606;-;-;9.324707;0.71725464;-0.6122284;-;-;-;-;-;-;-;-;-;-;-;-;-;-;-
1514181354627;-;-;9.323517;0.8920288;-0.55836487;-;-;-;-;-;-;-;-;-;-;-;-;-;-;-
1514181354648;-;-;9.260071;0.91477966;-0.4637909;-;-;-;-;-;-;-;-;-;-;-;-;-;-;-
1514181354669;-;-;9.175064;0.8597107;-0.31774902;-;-;-;-;-;-;-;-;-;-;-;-;-;-;-
1514181354689;-;-;9.133179;0.8597107;-0.12741089;-;-;-;-;-;-;-;-;-;-;-;-;-;-;-
1514181354710;-;-;9.110428;0.769928;0.028213501;-;-;-;-;-;-;-;-;-;-;-;-;-;-;-
1514181354730;-;-;9.0972595;0.7424011;0.038986206;-;-;-;-;-;-;-;-;-;-;-;-;-;-;-
1514181354750;-;-;9.164291;0.68133545;0.058151245;-;-;-;-;-;-;-;-;-;-;-;-;-;-;-
1514181354770;-;-;9.2313385;0.6346588;-0.042419434;-;-;-;-;-;-;-;-;-;-;-;-;-;-;-
1514181354791;-;-;9.124786;0.57240295;-0.23394775;-;-;-;-;-;-;-;-;-;-;-;-;-;-;-
1514181354811;-;-;9.220566;0.53289795;-0.4242859;-;-;-;-;-;-;-;-;-;-;-;-;-;-;-
1514181354832;-;-;9.388153;0.65979004;-0.14416504;-;-;-;-;-;-;-;-;-;-;-;-;-;-;-
1514181354851;-;-;9.337875;0.7424011;-0.21359253;-;-;-;-;-;-;-;-;-;-;-;-;-;-;-
1514181354872;-;-;9.272034;0.6849365;-0.2962036;-;-;-;-;-;-;-;-;-;-;-;-;-;-;-
1514181354892;-;-;9.1918335;0.6346588;-0.42668152;-;-;-;-;-;-;-;-;-;-;-;-;-;-;-
1514181354913;-;-;9.193024;0.5520477;-0.4733734;-;-;-;-;-;-;-;-;-;-;-;-;-;-;-
1514181354933;-;-;9.23613;0.6562042;-0.53082275;-;-;-;-;-;-;-;-;-;-;-;-;-;-;-
1514181354954;-;-;9.184647;0.7687378;-0.64456177;-;-;-;-;-;-;-;-;-;-;-;-;-;-;-
1514181354974;-;-;9.260071;1.0584259;-0.57392883;-;-;-;-;-;-;-;-;-;-;-;-;-;-;-
1514181354994;-;-;9.216965;1.5193176;-0.28422546;-;-;-;-;-;-;-;-;-;-;-;-;-;-;-
1514181355014;-;-;8.857834;1.6904907;-0.14416504;-;-;-;-;-;-;-;-;-;-;-;-;-;-;-
1514181355035;-;-;8.679474;1.0165253;-0.026855469;-;-;-;-;-;-;-;-;-;-;-;-;-;-;-
1514181355056;-;-;9.0733185;0.25756836;0.17785645;-;-;-;-;-;-;-;-;-;-;-;-;-;-;-
1514181355076;-;-;9.549759;0.009765625;0.086868286;-;-;-;-;-;-;-;-;-;-;-;-;-;-;-
1514181355097;-;-;9.603638;0.069625854;-0.39076233;-;-;-;-;-;-;-;-;-;-;-;-;-;-;-
1514181355117;-;-;9.347458;0.14503479;-0.5224457;-;-;-;-;-;-;-;-;-;-;-;-;-;-;-
1514181355138;-;-;9.300766;0.119903564;-0.5535736;-;-;-;-;-;-;-;-;-;-;-;-;-;-;-
1514181355158;-;-;9.352234;0.19770813;-0.6230011;-;-;-;-;-;-;-;-;-;-;-;-;-;-;-
1514181355179;-;-;9.309143;0.3509369;-0.6014557;-;-;-;-;-;-;-;-;-;-;-;-;-;-;-
1514181355199;-;-;9.085281;0.5185394;-0.3368988;-;-;-;-;-;-;-;-;-;-;-;-;-;-;-
1514181355220;-;-;8.90094;0.6789551;0.0569458;-;-;-;-;-;-;-;-;-;-;-;-;-;-;-
1514181355239;-;-;9.020645;0.7579498;0.36221313;-;-;-;-;-;-;-;-;-;-;-;-;-;-;-
1514181355260;-;-;9.285202;0.8405609;0.41249084;-;-;-;-;-;-;-;-;-;-;-;-;-;-;-
1514181355279;-;-;9.398926;0.99139404;0.3789673;-;-;-;-;-;-;-;-;-;-;-;-;-;-;-
1514181355299;-;-;9.357025;1.0680084;0.23052979;-;-;-;-;-;-;-;-;-;-;-;-;-;-;-
1514181355320;-;-;9.268448;0.92315674;0.028213501;-;-;-;-;-;-;-;-;-;-;-;-;-;-;-
1514181355341;-;-;9.164291;0.6933136;-0.087905884;-;-;-;-;-;-;-;-;-;-;-;-;-;-;-
1514181355362;-;-;9.117615;0.541275;-0.26986694;-;-;-;-;-;-;-;-;-;-;-;-;-;-;-
1514181355382;-;-;9.082901;0.56163025;-0.36802673;-;-;-;-;-;-;-;-;-;-;-;-;-;-;-
1514181355402;-;-;9.212173;0.6741638;-0.31654358;-;-;-;-;-;-;-;-;-;-;-;-;-;-;-
1514181355422;-;-;9.263657;0.6789551;-0.20281982;-;-;-;-;-;-;-;-;-;-;-;-;-;-;-
1514181355443;-;-;9.194229;0.6921234;0.004272461;-;-;-;-;-;-;-;-;-;-;-;-;-;-;-
1514181355464;-;-;9.131973;0.6741638;0.25086975;-;-;-;-;-;-;-;-;-;-;-;-;-;-;-
1514181355484;-;-;9.096069;0.730423;0.49627686;-;-;-;-;-;-;-;-;-;-;-;-;-;-;-
1514181355504;-;-;9.030228;0.83576965;0.65789795;-;-;-;-;-;-;-;-;-;-;-;-;-;-;-
1514181355525;-;-;9.055359;0.80584717;0.52500916;-;-;-;-;-;-;-;-;-;-;-;-;-;-;-
1514181355545;-;-;9.333084;0.74957275;0.46037292;-;-;-;-;-;-;-;-;-;-;-;-;-;-;-
1514181355564;-;-;9.407303;0.62986755;0.176651;-;-;-;-;-;-;-;-;-;-;-;-;-;-;-
1514181355584;-;-;9.278015;0.48501587;-0.013687134;-;-;-;-;-;-;-;-;-;-;-;-;-;-;-
1514181355605;-;-;9.118805;0.35932922;-0.1309967;-;-;-;-;-;-;-;-;-;-;-;-;-;-;-
1514181355625;-;-;9.074509;0.3317871;-0.121414185;-;-;-;-;-;-;-;-;-;-;-;-;-;-;-
1514181355645;-;-;9.184647;0.51135254;-0.16571045;-;-;-;-;-;-;-;-;-;-;-;-;-;-;-
1514181355666;-;-;9.289993;0.7244415;-0.078323364;-;-;-;-;-;-;-;-;-;-;-;-;-;-;-
1514181355687;-;-;9.360626;0.76034546;-0.018478394;-;-;-;-;-;-;-;-;-;-;-;-;-;-;-
1514181355707;-;-;9.382172;0.7435913;0.15750122;-;-;-;-;-;-;-;-;-;-;-;-;-;-;-
1514181355727;-;-;9.371399;0.7112732;0.29756165;-;-;-;-;-;-;-;-;-;-;-;-;-;-;-
1514181355748;-;-;9.2756195;0.63105774;0.5298004;-;-;-;-;-;-;-;-;-;-;-;-;-;-;-
1514181355768;-;-;9.096069;0.64901733;0.7859802;-;-;-;-;-;-;-;-;-;-;-;-;-;-;-
1514181355789;-;-;8.892548;0.63105774;0.78837585;-;-;-;-;-;-;-;-;-;-;-;-;-;-;-
1514181355809;-;-;8.807556;0.44192505;0.58966064;-;-;-;-;-;-;-;-;-;-;-;-;-;-;-
1514181355830;-;-;9.208588;0.50416565;0.3885498;-;-;-;-;-;-;-;-;-;-;-;-;-;-;-
1514181355850;-;-;9.285202;0.45628357;0.086868286;-;-;-;-;-;-;-;-;-;-;-;-;-;-;-
1514181355871;-;-;9.17627;0.37249756;0.001876831;-;-;-;-;-;-;-;-;-;-;-;-;-;-;-
1514181355892;-;-;9.215775;0.26594543;-0.0076904297;-;-;-;-;-;-;-;-;-;-;-;-;-;-;-
1514181355912;-;-;9.318726;0.40361023;-0.05796814;-;-;-;-;-;-;-;-;-;-;-;-;-;-;-
1514181355933;-;-;9.319916;0.6968994;-0.087905884;-;-;-;-;-;-;-;-;-;-;-;-;-;-;-
1514181355953;-;-;9.242111;0.9243469;0.13237;-;-;-;-;-;-;-;-;-;-;-;-;-;-;-
1514181355973;-;-;9.1523285;0.8561249;0.30116272;-;-;-;-;-;-;-;-;-;-;-;-;-;-;-
1514181355994;-;-;9.165497;0.6609955;0.5369873;-;-;-;-;-;-;-;-;-;-;-;-;-;-;-
1514181356014;-;-;9.173874;0.5233307;0.74528503;-;-;-;-;-;-;-;-;-;-;-;-;-;-;-
1514181356035;-;-;9.124786;0.48382568;0.89012146;-;-;-;-;-;-;-;-;-;-;-;-;-;-;-
1514181356056;-;-;9.118805;0.34016418;0.6746521;-;-;-;-;-;-;-;-;-;-;-;-;-;-;-
1514181356076;-;-;9.476746;0.33537292;0.63035583;-;-;-;-;-;-;-;-;-;-;-;-;-;-;-
1514181356096;-;-;9.49231;0.47903442;0.3131256;-;-;-;-;-;-;-;-;-;-;-;-;-;-;-
1514181356117;-;-;9.364212;0.5161438;0.115600586;-;-;-;-;-;-;-;-;-;-;-;-;-;-;-
1514181356138;-;-;9.14035;0.51374817;0.074905396;-;-;-;-;-;-;-;-;-;-;-;-;-;-;-
1514181356158;-;-;9.023041;0.43473816;0.10722351;-;-;-;-;-;-;-;-;-;-;-;-;-;-;-
1514181356179;-;-;9.080505;0.3964386;0.13237;-;-;-;-;-;-;-;-;-;-;-;-;-;-;-
1514181356199;-;-;9.1918335;0.4694519;0.12637329;-;-;-;-;-;-;-;-;-;-;-;-;-;-;-
1514181356219;-;-;9.324707;0.51016235;0.1539154;-;-;-;-;-;-;-;-;-;-;-;-;-;-;-
1514181356240;-;-;9.419281;0.55085754;0.22573853;-;-;-;-;-;-;-;-;-;-;-;-;-;-;-
1514181356260;-;-;9.437241;0.5855713;0.39213562;-;-;-;-;-;-;-;-;-;-;-;-;-;-;-
1514181356280;-;-;9.380966;0.6322632;0.5190277;-;-;-;-;-;-;-;-;-;-;-;-;-;-;-
1514181356301;-;-;9.295975;0.6933136;0.6854248;-;-;-;-;-;-;-;-;-;-;-;-;-;-;-
1514181356322;-;-;8.942825;0.7005005;0.7153473;-;-;-;-;-;-;-;-;-;-;-;-;-;-;-
1514181356342;-;-;8.879379;0.5532532;0.6674652;-;-;-;-;-;-;-;-;-;-;-;-;-;-;-
1514181356362;-;-;9.159515;0.37608337;0.5860596;-;-;-;-;-;-;-;-;-;-;-;-;-;-;-
1514181356383;-;-;9.333084;0.39881897;0.43643188;-;-;-;-;-;-;-;-;-;-;-;-;-;-;-
1514181356402;-;-;9.304352;0.3605194;0.28678894;-;-;-;-;-;-;-;-;-;-;-;-;-;-;-
1514181356423;-;-;9.216965;0.36291504;0.21376038;-;-;-;-;-;-;-;-;-;-;-;-;-;-;-
1514181356442;-;-;9.167892;0.4119873;0.23171997;-;-;-;-;-;-;-;-;-;-;-;-;-;-;-
1514181356462;-;-;9.272034;0.541275;0.18504333;-;-;-;-;-;-;-;-;-;-;-;-;-;-;-
1514181356483;-;-;9.299576;0.6921234;0.2700348;-;-;-;-;-;-;-;-;-;-;-;-;-;-;-
1514181356504;-;-;9.250488;0.74838257;0.53938293;-;-;-;-;-;-;-;-;-;-;-;-;-;-;-
1514181356524;-;-;9.258865;0.7627411;0.45318604;-;-;-;-;-;-;-;-;-;-;-;-;-;-;-
1514181356544;-;-;9.291183;0.66218567;0.5657196;-;-;-;-;-;-;-;-;-;-;-;-;-;-;-
1514181356565;-;-;9.246902;0.5783844;0.7153473;-;-;-;-;-;-;-;-;-;-;-;-;-;-;-
1514181356585;-;-;9.234924;0.57121277;0.84942627;-;-;-;-;-;-;-;-;-;-;-;-;-;-;-
1514181356606;-;-;9.207397;0.53889465;0.9344177;-;-;-;-;-;-;-;-;-;-;-;-;-;-;-
1514181356625;-;-;9.123596;0.46347046;0.8254852;-;-;-;-;-;-;-;-;-;-;-;-;-;-;-
1514181356646;-;-;9.067337;0.36291504;0.72612;-;-;-;-;-;-;-;-;-;-;-;-;-;-;-
1514181356666;-;-;9.074509;0.40242004;0.60762024;-;-;-;-;-;-;-;-;-;-;-;-;-;-;-
1514181356686;-;-;9.133179;0.50297546;0.53578186;-;-;-;-;-;-;-;-;-;-;-;-;-;-;-
1514181356707;-;-;9.187042;0.61190796;0.4615631;-;-;-;-;-;-;-;-;-;-;-;-;-;-;-
1514181356728;-;-;9.183456;0.6274719;0.44599915;-;-;-;-;-;-;-;-;-;-;-;-;-;-;-
1514181356748;-;-;9.187042;0.7040863;0.4005127;-;-;-;-;-;-;-;-;-;-;-;-;-;-;-
1514181356769;-;-;9.242111;0.76034546;0.41368103;-;-;-;-;-;-;-;-;-;-;-;-;-;-;-
1514181356788;-;-;9.267242;0.7507782;0.3610077;-;-;-;-;-;-;-;-;-;-;-;-;-;-;-
1514181356809;-;-;9.291183;0.6633911;0.46516418;-;-;-;-;-;-;-;-;-;-;-;-;-;-;-
1514181356828;-;-;9.294785;0.6322632;0.53219604;-;-;-;-;-;-;-;-;-;-;-;-;-;-;-
1514181356849;-;-;9.199005;0.58677673;0.5693054;-;-;-;-;-;-;-;-;-;-;-;-;-;-;-
1514181356868;-;-;9.109222;0.52093506;0.6483154;-;-;-;-;-;-;-;-;-;-;-;-;-;-;-
1514181356888;-;-;9.122391;0.47065735;0.72972107;-;-;-;-;-;-;-;-;-;-;-;-;-;-;-
1514181356908;-;-;9.143951;0.42636108;0.66148376;-;-;-;-;-;-;-;-;-;-;-;-;-;-;-
1514181356929;-;-;9.164291;0.41319275;0.6136017;-;-;-;-;-;-;-;-;-;-;-;-;-;-;-
1514181356950;-;-;9.208588;0.48382568;0.52500916;-;-;-;-;-;-;-;-;-;-;-;-;-;-;-
1514181356969;-;-;9.199005;0.5341034;0.5178375;-;-;-;-;-;-;-;-;-;-;-;-;-;-;-
1514181356989;-;-;9.23851;0.6107178;0.52142334;-;-;-;-;-;-;-;-;-;-;-;-;-;-;-
1514181357010;-;-;9.221756;0.67655945;0.48310852;-;-;-;-;-;-;-;-;-;-;-;-;-;-;-
1514181357031;-;-;9.173874;0.70529175;0.52381897;-;-;-;-;-;-;-;-;-;-;-;-;-;-;-
1514181357051;-;-;9.1523285;0.6968994;0.52142334;-;-;-;-;-;-;-;-;-;-;-;-;-;-;-
1514181357072;-;-;9.170288;0.714859;0.5693054;-;-;-;-;-;-;-;-;-;-;-;-;-;-;-
1514181357091;-;-;9.185837;0.66578674;0.6566925;-;-;-;-;-;-;-;-;-;-;-;-;-;-;-
1514181357112;-;-;9.195419;0.596344;0.7249298;-;-;-;-;-;-;-;-;-;-;-;-;-;-;-
1514181357132;-;-;9.250488;0.51135254;0.7069702;-;-;-;-;-;-;-;-;-;-;-;-;-;-;-
1514181357153;-;-;9.202606;0.5233307;0.8195038;-;-;-;-;-;-;-;-;-;-;-;-;-;-;-
1514181357173;-;-;9.233734;0.5233307;0.78479004;-;-;-;-;-;-;-;-;-;-;-;-;-;-;-
1514181357193;-;-;9.251678;0.5448761;0.56811523;-;-;-;-;-;-;-;-;-;-;-;-;-;-;-
1514181357214;-;-;9.234924;0.49699402;0.53338623;-;-;-;-;-;-;-;-;-;-;-;-;-;-;-
1514181357234;-;-;9.15712;0.49699402;0.44960022;-;-;-;-;-;-;-;-;-;-;-;-;-;-;-
1514181357255;-;-;9.196625;0.5233307;0.48431396;-;-;-;-;-;-;-;-;-;-;-;-;-;-;-
1514181357275;-;-;9.220566;0.556839;0.5884552;-;-;-;-;-;-;-;-;-;-;-;-;-;-;-
1514181357296;-;-;9.199005;0.6059265;0.5992279;-;-;-;-;-;-;-;-;-;-;-;-;-;-;-
1514181357315;-;-;9.160706;0.6346588;0.5704956;-;-;-;-;-;-;-;-;-;-;-;-;-;-;-
1514181357336;-;-;9.205002;0.6933136;0.65789795;-;-;-;-;-;-;-;-;-;-;-;-;-;-;-
1514181357356;-;-;9.205002;0.60113525;0.6447296;-;-;-;-;-;-;-;-;-;-;-;-;-;-;-
1514181357376;-;-;9.194229;0.5664215;0.72612;-;-;-;-;-;-;-;-;-;-;-;-;-;-;-
1514181357397;-;-;9.159515;0.5855713;0.8518219;-;-;-;-;-;-;-;-;-;-;-;-;-;-;-
1514181357416;-;-;9.124786;0.517334;0.8302765;-;-;-;-;-;-;-;-;-;-;-;-;-;-;-
1514181357437;-;-;9.209793;0.51135254;0.6638794;-;-;-;-;-;-;-;-;-;-;-;-;-;-;-
1514181357457;-;-;9.240906;0.48980713;0.64352417;-;-;-;-;-;-;-;-;-;-;-;-;-;-;-
1514181357478;-;-;9.272034;0.5245209;0.5597229;-;-;-;-;-;-;-;-;-;-;-;-;-;-;-
1514181357498;-;-;9.215775;0.54008484;0.5118408;-;-;-;-;-;-;-;-;-;-;-;-;-;-;-
1514181357518;-;-;9.163101;0.5664215;0.54776;-;-;-;-;-;-;-;-;-;-;-;-;-;-;-
1514181357539;-;-;9.173874;0.5736084;0.5441742;-;-;-;-;-;-;-;-;-;-;-;-;-;-;-
1514181357559;-;-;9.188232;0.64064026;0.5381775;-;-;-;-;-;-;-;-;-;-;-;-;-;-;-
1514181357580;-;-;9.201401;0.63345337;0.60401917;-;-;-;-;-;-;-;-;-;-;-;-;-;-;-
1514181357599;-;-;9.202606;0.60832214;0.71295166;-;-;-;-;-;-;-;-;-;-;-;-;-;-;-
1514181357620;-;-;9.200211;0.60832214;0.8925171;-;-;-;-;-;-;-;-;-;-;-;-;-;-;-
1514181357641;-;-;9.172684;0.576004;0.81829834;-;-;-;-;-;-;-;-;-;-;-;-;-;-;-
1514181357661;-;-;9.193024;0.53889465;0.69859314;-;-;-;-;-;-;-;-;-;-;-;-;-;-;-
1514181357681;-;-;9.257675;0.5269165;0.61120605;-;-;-;-;-;-;-;-;-;-;-;-;-;-;-
1514181357702;-;-;9.261261;0.47782898;0.4902954;-;-;-;-;-;-;-;-;-;-;-;-;-;-;-
1514181357723;-;-;9.171478;0.46826172;0.38974;-;-;-;-;-;-;-;-;-;-;-;-;-;-;-
1514181357743;-;-;9.124786;0.4874115;0.35144043;-;-;-;-;-;-;-;-;-;-;-;-;-;-;-
1514181357764;-;-;9.165497;0.47903442;0.3705902;-;-;-;-;-;-;-;-;-;-;-;-;-;-;-
1514181357783;-;-;9.280411;0.60832214;0.35742188;-;-;-;-;-;-;-;-;-;-;-;-;-;-;-
1514181357804;-;-;9.267242;0.63345337;0.4388275;-;-;-;-;-;-;-;-;-;-;-;-;-;-;-
1514181357823;-;-;9.25647;0.62986755;0.5764923;-;-;-;-;-;-;-;-;-;-;-;-;-;-;-
1514181357844;-;-;9.341461;0.6609955;0.6842346;-;-;-;-;-;-;-;-;-;-;-;-;-;-;-
1514181357865;-;-;9.331894;0.59036255;0.9056854;-;-;-;-;-;-;-;-;-;-;-;-;-;-;-
1514181357884;-;-;9.1918335;0.5951538;1.1558838;-;-;-;-;-;-;-;-;-;-;-;-;-;-;-
1514181357905;-;-;8.938049;0.59994507;0.7859802;-;-;-;-;-;-;-;-;-;-;-;-;-;-;-
1514181357925;-;-;8.827911;0.5664215;0.49150085;-;-;-;-;-;-;-;-;-;-;-;-;-;-;-
1514181357946;-;-;9.121201;0.49938965;0.3825531;-;-;-;-;-;-;-;-;-;-;-;-;-;-;-
1514181357966;-;-;9.406113;0.46347046;0.33706665;-;-;-;-;-;-;-;-;-;-;-;-;-;-;-
1514181357987;-;-;9.459976;0.4299469;0.27122498;-;-;-;-;-;-;-;-;-;-;-;-;-;-;-
1514181358008;-;-;9.358231;0.48501587;0.25686646;-;-;-;-;-;-;-;-;-;-;-;-;-;-;-
1514181358028;-;-;9.17627;0.5819855;0.2843933;-;-;-;-;-;-;-;-;-;-;-;-;-;-;-
1514181358049;-;-;9.096069;0.6861267;0.31072998;-;-;-;-;-;-;-;-;-;-;-;-;-;-;-
1514181358068;-;-;9.153519;0.7531738;0.3705902;-;-;-;-;-;-;-;-;-;-;-;-;-;-;-
1514181358089;-;-;9.273239;0.73161316;0.46516418;-;-;-;-;-;-;-;-;-;-;-;-;-;-;-
1514181358109;-;-;9.2756195;0.7364044;0.5573273;-;-;-;-;-;-;-;-;-;-;-;-;-;-;-
1514181358130;-;-;9.280411;0.61550903;0.75006104;-;-;-;-;-;-;-;-;-;-;-;-;-;-;-
1514181358150;-;-;9.21817;0.60113525;0.93681335;-;-;-;-;-;-;-;-;-;-;-;-;-;-;-
1514181358171;-;-;9.088882;0.576004;1.0361786;-;-;-;-;-;-;-;-;-;-;-;-;-;-;-
1514181358190;-;-;8.975159;0.48262024;0.94400024;-;-;-;-;-;-;-;-;-;-;-;-;-;-;-
1514181358211;-;-;9.154724;0.4084015;0.82429504;-;-;-;-;-;-;-;-;-;-;-;-;-;-;-
1514181358231;-;-;9.321121;0.50177;0.5669098;-;-;-;-;-;-;-;-;-;-;-;-;-;-;-
1514181358252;-;-;9.272034;0.52931213;0.44360352;-;-;-;-;-;-;-;-;-;-;-;-;-;-;-
1514181358272;-;-;9.193024;0.4945984;0.35861206;-;-;-;-;-;-;-;-;-;-;-;-;-;-;-
1514181358293;-;-;9.160706;0.5520477;0.34544373;-;-;-;-;-;-;-;-;-;-;-;-;-;-;-
1514181358312;-;-;9.228943;0.6143036;0.32389832;-;-;-;-;-;-;-;-;-;-;-;-;-;-;-
1514181358333;-;-;9.244507;0.72683716;0.1946106;-;-;-;-;-;-;-;-;-;-;-;-;-;-;-
1514181358353;-;-;9.252884;0.73521423;0.25326538;-;-;-;-;-;-;-;-;-;-;-;-;-;-;-
1514181358374;-;-;9.274429;0.74598694;0.38494873;-;-;-;-;-;-;-;-;-;-;-;-;-;-;-
1514181358394;-;-;9.323517;0.70529175;0.563324;-;-;-;-;-;-;-;-;-;-;-;-;-;-;-
1514181358414;-;-;9.269638;0.6717682;0.71055603;-;-;-;-;-;-;-;-;-;-;-;-;-;-;-
1514181358435;-;-;9.203796;0.65141296;0.82788086;-;-;-;-;-;-;-;-;-;-;-;-;-;-;-
1514181358455;-;-;9.0972595;0.536499;0.80033875;-;-;-;-;-;-;-;-;-;-;-;-;-;-;-
1514181358475;-;-;9.116409;0.44432068;0.7763977;-;-;-;-;-;-;-;-;-;-;-;-;-;-;-
1514181358496;-;-;9.172684;0.417984;0.6638794;-;-;-;-;-;-;-;-;-;-;-;-;-;-;-
1514181358517;-;-;9.166687;0.48143005;0.60043335;-;-;-;-;-;-;-;-;-;-;-;-;-;-;-
1514181358537;-;-;9.151123;0.5281067;0.5513458;-;-;-;-;-;-;-;-;-;-;-;-;-;-;-
1514181358557;-;-;9.123596;0.62986755;0.5154419;-;-;-;-;-;-;-;-;-;-;-;-;-;-;-
1514181358578;-;-;9.25528;0.67056274;0.4400177;-;-;-;-;-;-;-;-;-;-;-;-;-;-;-
1514181358599;-;-;9.284012;0.7292328;0.42326355;-;-;-;-;-;-;-;-;-;-;-;-;-;-;-
1514181358619;-;-;9.232529;0.7435913;0.50346375;-;-;-;-;-;-;-;-;-;-;-;-;-;-;-
1514181358640;-;-;9.260071;0.7184448;0.47114563;-;-;-;-;-;-;-;-;-;-;-;-;-;-;-
1514181358659;-;-;9.215775;0.6609955;0.5262146;-;-;-;-;-;-;-;-;-;-;-;-;-;-;-
1514181358680;-;-;9.160706;0.5879669;0.6531067;-;-;-;-;-;-;-;-;-;-;-;-;-;-;-
1514181358700;-;-;9.143951;0.5269165;0.73928833;-;-;-;-;-;-;-;-;-;-;-;-;-;-;-
1514181358721;-;-;9.189438;0.49339294;0.86499023;-;-;-;-;-;-;-;-;-;-;-;-;-;-;-
1514181358740;-;-;9.154724;0.4909973;0.9200592;-;-;-;-;-;-;-;-;-;-;-;-;-;-;-
1514181358761;-;-;9.093674;0.46705627;0.82907104;-;-;-;-;-;-;-;-;-;-;-;-;-;-;-
1514181358781;-;-;9.148727;0.47903442;0.7548523;-;-;-;-;-;-;-;-;-;-;-;-;-;-;-
1514181358801;-;-;9.195419;0.5484619;0.6842346;-;-;-;-;-;-;-;-;-;-;-;-;-;-;-
1514181358821;-;-;9.273239;0.5233307;0.563324;-;-;-;-;-;-;-;-;-;-;-;-;-;-;-
1514181358842;-;-;9.268448;0.6131134;0.54296875;-;-;-;-;-;-;-;-;-;-;-;-;-;-;-
1514181358862;-;-;9.233734;0.67056274;0.587265;-;-;-;-;-;-;-;-;-;-;-;-;-;-;-
1514181358883;-;-;9.224152;0.7124634;0.5740967;-;-;-;-;-;-;-;-;-;-;-;-;-;-;-
1514181358904;-;-;9.183456;0.72683716;0.5884552;-;-;-;-;-;-;-;-;-;-;-;-;-;-;-
1514181358924;-;-;9.17746;0.6897278;0.6495056;-;-;-;-;-;-;-;-;-;-;-;-;-;-;-
1514181358945;-;-;9.134369;0.68133545;0.82429504;-;-;-;-;-;-;-;-;-;-;-;-;-;-;-
1514181358965;-;-;9.118805;0.6442261;0.90808105;-;-;-;-;-;-;-;-;-;-;-;-;-;-;-
1514181358985;-;-;9.12001;0.5879669;0.8829498;-;-;-;-;-;-;-;-;-;-;-;-;-;-;-
1514181359006;-;-;9.23851;0.56044006;0.860199;-;-;-;-;-;-;-;-;-;-;-;-;-;-;-
1514181359026;-;-;9.361816;0.58677673;0.7141571;-;-;-;-;-;-;-;-;-;-;-;-;-;-;-
1514181359047;-;-;9.269638;0.5448761;0.6100006;-;-;-;-;-;-;-;-;-;-;-;-;-;-;-
1514181359068;-;-;9.151123;0.52093506;0.5669098;-;-;-;-;-;-;-;-;-;-;-;-;-;-;-
1514181359088;-;-;9.110428;0.54008484;0.5800781;-;-;-;-;-;-;-;-;-;-;-;-;-;-;-
1514181359108;-;-;9.145142;0.6035309;0.5345917;-;-;-;-;-;-;-;-;-;-;-;-;-;-;-
1514181359129;-;-;9.210983;0.6394501;0.5166321;-;-;-;-;-;-;-;-;-;-;-;-;-;-;-
1514181359149;-;-;9.2313385;0.675354;0.60043335;-;-;-;-;-;-;-;-;-;-;-;-;-;-;-
1514181359170;-;-;9.21936;0.68014526;0.6842346;-;-;-;-;-;-;-;-;-;-;-;-;-;-;-
1514181359191;-;-;9.183456;0.7076721;0.80752563;-;-;-;-;-;-;-;-;-;-;-;-;-;-;-
1514181359211;-;-;9.21817;0.71606445;0.9308319;-;-;-;-;-;-;-;-;-;-;-;-;-;-;-
1514181359231;-;-;9.154724;0.6729584;0.8326721;-;-;-;-;-;-;-;-;-;-;-;-;-;-;-
1514181359252;-;-;9.201401;0.56881714;0.7835846;-;-;-;-;-;-;-;-;-;-;-;-;-;-;-
1514181359272;-;-;9.244507;0.5233307;0.70217896;-;-;-;-;-;-;-;-;-;-;-;-;-;-;-
1514181359293;-;-;9.232529;0.51016235;0.6243744;-;-;-;-;-;-;-;-;-;-;-;-;-;-;-
1514181359313;-;-;9.175064;0.47543335;0.52500916;-;-;-;-;-;-;-;-;-;-;-;-;-;-;-
1514181359334;-;-;9.15712;0.5089569;0.55255127;-;-;-;-;-;-;-;-;-;-;-;-;-;-;-
1514181359354;-;-;9.161896;0.5664215;0.5764923;-;-;-;-;-;-;-;-;-;-;-;-;-;-;-
1514181359374;-;-;9.249298;0.6789551;0.4112854;-;-;-;-;-;-;-;-;-;-;-;-;-;-;-
1514181359395;-;-;9.127182;0.70887756;0.4040985;-;-;-;-;-;-;-;-;-;-;-;-;-;-;-
1514181359415;-;-;9.142746;0.6466217;0.59324646;-;-;-;-;-;-;-;-;-;-;-;-;-;-;-
1514181359436;-;-;9.210983;0.6562042;0.82069397;-;-;-;-;-;-;-;-;-;-;-;-;-;-;-
1514181359456;-;-;9.291183;0.6825409;0.899704;-;-;-;-;-;-;-;-;-;-;-;-;-;-;-
1514181359477;-;-;9.278015;0.5987396;0.78479004;-;-;-;-;-;-;-;-;-;-;-;-;-;-;-
1514181359497;-;-;9.1918335;0.4909973;0.7249298;-;-;-;-;-;-;-;-;-;-;-;-;-;-;-
1514181359518;-;-;9.190628;0.47184753;0.642334;-;-;-;-;-;-;-;-;-;-;-;-;-;-;-
1514181359537;-;-;9.189438;0.4407196;0.5693054;-;-;-;-;-;-;-;-;-;-;-;-;-;-;-
1514181359558;-;-;9.164291;0.4586792;0.47233582;-;-;-;-;-;-;-;-;-;-;-;-;-;-;-
1514181359577;-;-;9.171478;0.46705627;0.44599915;-;-;-;-;-;-;-;-;-;-;-;-;-;-;-
1514181359598;-;-;9.224152;0.5460663;0.4472046;-;-;-;-;-;-;-;-;-;-;-;-;-;-;-
1514181359618;-;-;9.303162;0.57958984;0.50704956;-;-;-;-;-;-;-;-;-;-;-;-;-;-;-
1514181359639;-;-;9.228943;0.6442261;0.55015564;-;-;-;-;-;-;-;-;-;-;-;-;-;-;-
1514181359659;-;-;9.181061;0.68733215;0.6315613;-;-;-;-;-;-;-;-;-;-;-;-;-;-;-
1514181359680;-;-;9.103241;0.76634216;0.71055603;-;-;-;-;-;-;-;-;-;-;-;-;-;-;-
1514181359699;-;-;9.134369;0.71965027;0.8542175;-;-;-;-;-;-;-;-;-;-;-;-;-;-;-
1514181359720;-;-;9.129578;0.6633911;0.939209;-;-;-;-;-;-;-;-;-;-;-;-;-;-;-
1514181359739;-;-;9.129578;0.50057983;0.89012146;-;-;-;-;-;-;-;-;-;-;-;-;-;-;-
1514181359760;-;-;9.239716;0.44432068;0.72732544;-;-;-;-;-;-;-;-;-;-;-;-;-;-;-
1514181359780;-;-;9.29837;0.48382568;0.6315613;-;-;-;-;-;-;-;-;-;-;-;-;-;-;-
1514181359801;-;-;9.225342;0.49699402;0.53578186;-;-;-;-;-;-;-;-;-;-;-;-;-;-;-
1514181359821;-;-;9.161896;0.56044006;0.47354126;-;-;-;-;-;-;-;-;-;-;-;-;-;-;-
1514181359841;-;-;9.164291;0.6214905;0.45318604;-;-;-;-;-;-;-;-;-;-;-;-;-;-;-
1514181359861;-;-;9.200211;0.6562042;0.49987793;-;-;-;-;-;-;-;-;-;-;-;-;-;-;-
1514181359882;-;-;9.1523285;0.7028961;0.49150085;-;-;-;-;-;-;-;-;-;-;-;-;-;-;-
1514181359901;-;-;9.172684;0.6789551;0.64112854;-;-;-;-;-;-;-;-;-;-;-;-;-;-;-
1514181359922;-;-;9.135559;0.67655945;0.8326721;-;-;-;-;-;-;-;-;-;-;-;-;-;-;-
1514181359941;-;-;9.093674;0.6968994;0.95477295;-;-;-;-;-;-;-;-;-;-;-;-;-;-;-
1514181359962;-;-;9.044586;0.63105774;0.90689087;-;-;-;-;-;-;-;-;-;-;-;-;-;-;-
1514181359984;-;-;9.199005;0.66937256;0.8434448;-;-;-;-;-;-;-;-;-;-;-;-;-;-;-
1514181360003;-;-;9.384567;0.6933136;0.73091125;-;-;-;-;-;-;-;-;-;-;-;-;-;-;-
1514181360023;-;-;9.312744;0.5532532;0.5286102;-;-;-;-;-;-;-;-;-;-;-;-;-;-;-
1514181360043;-;-;9.25647;0.46228027;0.42445374;-;-;-;-;-;-;-;-;-;-;-;-;-;-;-
1514181360063;-;-;9.276825;0.39762878;0.24130249;-;-;-;-;-;-;-;-;-;-;-;-;-;-;-
1514181360084;-;-;9.33429;0.39523315;0.1826477;-;-;-;-;-;-;-;-;-;-;-;-;-;-;-
1514181360104;-;-;9.260071;0.49578857;0.23292542;-;-;-;-;-;-;-;-;-;-;-;-;-;-;-
1514181360125;-;-;9.214569;0.54367065;0.4184723;-;-;-;-;-;-;-;-;-;-;-;-;-;-;-
1514181360144;-;-;9.170288;0.5927582;0.52500916;-;-;-;-;-;-;-;-;-;-;-;-;-;-;-
1514181360165;-;-;9.221756;0.6861267;0.7333069;-;-;-;-;-;-;-;-;-;-;-;-;-;-;-
1514181360186;-;-;9.182251;0.7830963;1.002655;-;-;-;-;-;-;-;-;-;-;-;-;-;-;-
1514181360206;-;-;9.054169;0.84295654;1.1630707;-;-;-;-;-;-;-;-;-;-;-;-;-;-;-
1514181360226;-;-;8.857834;0.7615509;1.0744781;-;-;-;-;-;-;-;-;-;-;-;-;-;-;-
1514181360247;-;-;9.0182495;0.6143036;0.9595642;-;-;-;-;-;-;-;-;-;-;-;-;-;-;-
1514181360268;-;-;9.346252;0.59394836;0.6531067;-;-;-;-;-;-;-;-;-;-;-;-;-;-;-
1514181360289;-;-;9.410904;0.5161438;0.32748413;-;-;-;-;-;-;-;-;-;-;-;-;-;-;-
1514181360309;-;-;9.262466;0.42277527;0.20059204;-;-;-;-;-;-;-;-;-;-;-;-;-;-;-
1514181360330;-;-;9.170288;0.41438293;0.14672852;-;-;-;-;-;-;-;-;-;-;-;-;-;-;-
1514181360349;-;-;9.221756;0.5352936;0.14193726;-;-;-;-;-;-;-;-;-;-;-;-;-;-;-
1514181360370;-;-;9.187042;0.6933136;0.19102478;-;-;-;-;-;-;-;-;-;-;-;-;-;-;-
1514181360390;-;-;9.153519;0.76034546;0.3322754;-;-;-;-;-;-;-;-;-;-;-;-;-;-;-
1514181360411;-;-;9.226547;0.6921234;0.48310852;-;-;-;-;-;-;-;-;-;-;-;-;-;-;-
1514181360432;-;-;9.318726;0.66578674;0.66267395;-;-;-;-;-;-;-;-;-;-;-;-;-;-;-
1514181360452;-;-;9.258865;0.68014526;0.9009094;-;-;-;-;-;-;-;-;-;-;-;-;-;-;-
1514181360472;-;-;9.114014;0.7364044;1.1103973;-;-;-;-;-;-;-;-;-;-;-;-;-;-;-
1514181360493;-;-;8.953613;0.6681671;1.0996246;-;-;-;-;-;-;-;-;-;-;-;-;-;-;-
1514181360514;-;-;9.038605;0.53889465;0.9918823;-;-;-;-;-;-;-;-;-;-;-;-;-;-;-
1514181360533;-;-;9.3151245;0.5747986;0.7752075;-;-;-;-;-;-;-;-;-;-;-;-;-;-;-
1514181360554;-;-;9.359421;0.5664215;0.6088104;-;-;-;-;-;-;-;-;-;-;-;-;-;-;-
1514181360574;-;-;9.124786;0.4945984;0.47233582;-;-;-;-;-;-;-;-;-;-;-;-;-;-;-
1514181360595;-;-;9.067337;0.512558;0.4807129;-;-;-;-;-;-;-;-;-;-;-;-;-;-;-
1514181360615;-;-;9.1918335;0.53889465;0.44480896;-;-;-;-;-;-;-;-;-;-;-;-;-;-;-
1514181360636;-;-;9.23732;0.76753235;0.32987976;-;-;-;-;-;-;-;-;-;-;-;-;-;-;-
1514181360657;-;-;9.195419;0.8417511;0.45558167;-;-;-;-;-;-;-;-;-;-;-;-;-;-;-
1514181360676;-;-;9.284012;0.82618713;0.56092834;-;-;-;-;-;-;-;-;-;-;-;-;-;-;-
1514181360697;-;-;9.367798;0.74838257;0.6495056;-;-;-;-;-;-;-;-;-;-;-;-;-;-;-
1514181360717;-;-;9.267242;0.6669769;0.8709717;-;-;-;-;-;-;-;-;-;-;-;-;-;-;-
1514181360737;-;-;9.100845;0.70648193;1.1139832;-;-;-;-;-;-;-;-;-;-;-;-;-;-;-
1514181360758;-;-;8.932053;0.74957275;1.0397644;-;-;-;-;-;-;-;-;-;-;-;-;-;-;-
1514181360778;-;-;8.848267;0.5281067;0.8925171;-;-;-;-;-;-;-;-;-;-;-;-;-;-;-
1514181360799;-;-;9.167892;0.44551086;0.74887085;-;-;-;-;-;-;-;-;-;-;-;-;-;-;-
1514181360820;-;-;9.421677;0.417984;0.55255127;-;-;-;-;-;-;-;-;-;-;-;-;-;-;-
1514181360840;-;-;9.367798;0.47543335;0.46276855;-;-;-;-;-;-;-;-;-;-;-;-;-;-;-
1514181360860;-;-;9.160706;0.51374817;0.46037292;-;-;-;-;-;-;-;-;-;-;-;-;-;-;-
1514181360881;-;-;9.109222;0.5855713;0.49388123;-;-;-;-;-;-;-;-;-;-;-;-;-;-;-
1514181360902;-;-;9.1523285;0.714859;0.40171814;-;-;-;-;-;-;-;-;-;-;-;-;-;-;-
1514181360921;-;-;9.213379;0.78549194;0.3777771;-;-;-;-;-;-;-;-;-;-;-;-;-;-;-
1514181360942;-;-;9.230133;0.7519684;0.47712708;-;-;-;-;-;-;-;-;-;-;-;-;-;-;-
1514181360962;-;-;9.273239;0.7579498;0.6483154;-;-;-;-;-;-;-;-;-;-;-;-;-;-;-
1514181360983;-;-;9.291183;0.7220459;0.85661316;-;-;-;-;-;-;-;-;-;-;-;-;-;-;-
1514181361003;-;-;9.141556;0.75675964;0.8482361;-;-;-;-;-;-;-;-;-;-;-;-;-;-;-
1514181361024;-;-;9.006287;0.73880005;0.59085083;-;-;-;-;-;-;-;-;-;-;-;-;-;-;-
1514181361044;-;-;8.971558;0.69810486;0.66867065;-;-;-;-;-;-;-;-;-;-;-;-;-;-;-
1514181361065;-;-;9.090073;0.5161438;0.83506775;-;-;-;-;-;-;-;-;-;-;-;-;-;-;-
1514181361085;-;-;9.273239;0.34136963;0.8614044;-;-;-;-;-;-;-;-;-;-;-;-;-;-;-
1514181361106;-;-;9.390549;0.39523315;0.7931671;-;-;-;-;-;-;-;-;-;-;-;-;-;-;-
1514181361125;-;-;9.251678;0.51135254;0.7153473;-;-;-;-;-;-;-;-;-;-;-;-;-;-;-
1514181361145;-;-;9.0577545;0.66218567;0.6938019;-;-;-;-;-;-;-;-;-;-;-;-;-;-;-
1514181361166;-;-;9.0577545;0.72802734;0.66148376;-;-;-;-;-;-;-;-;-;-;-;-;-;-;-
1514181361186;-;-;9.171478;0.77830505;0.5549469;-;-;-;-;-;-;-;-;-;-;-;-;-;-;-
1514181361205;-;-;9.273239;0.7866821;0.4472046;-;-;-;-;-;-;-;-;-;-;-;-;-;-;-
1514181361225;-;-;9.258865;0.74957275;0.44599915;-;-;-;-;-;-;-;-;-;-;-;-;-;-;-
1514181361246;-;-;9.226547;0.69929504;0.58128357;-;-;-;-;-;-;-;-;-;-;-;-;-;-;-
1514181361266;-;-;9.243301;0.6609955;0.7141571;-;-;-;-;-;-;-;-;-;-;-;-;-;-;-
1514181361287;-;-;9.195419;0.57240295;0.87815857;-;-;-;-;-;-;-;-;-;-;-;-;-;-;-
1514181361307;-;-;9.103241;0.61550903;1.1068115;-;-;-;-;-;-;-;-;-;-;-;-;-;-;-
1514181361328;-;-;8.924881;0.45030212;0.923645;-;-;-;-;-;-;-;-;-;-;-;-;-;-;-
1514181361348;-;-;9.104446;0.4945984;0.83865356;-;-;-;-;-;-;-;-;-;-;-;-;-;-;-
1514181361369;-;-;9.367798;0.59155273;0.765625;-;-;-;-;-;-;-;-;-;-;-;-;-;-;-
1514181361390;-;-;9.366608;0.512558;0.6255646;-;-;-;-;-;-;-;-;-;-;-;-;-;-;-
1514181361409;-;-;9.268448;0.46228027;0.5453644;-;-;-;-;-;-;-;-;-;-;-;-;-;-;-
1514181361430;-;-;9.246902;0.4802246;0.42086792;-;-;-;-;-;-;-;-;-;-;-;-;-;-;-
1514181361450;-;-;9.1523285;0.52931213;0.3598175;-;-;-;-;-;-;-;-;-;-;-;-;-;-;-
1514181361471;-;-;9.136765;0.66578674;0.3382721;-;-;-;-;-;-;-;-;-;-;-;-;-;-;-
1514181361491;-;-;9.195419;0.76394653;0.43043518;-;-;-;-;-;-;-;-;-;-;-;-;-;-;-
1514181361512;-;-;9.321121;0.7819061;0.58966064;-;-;-;-;-;-;-;-;-;-;-;-;-;-;-
1514181361532;-;-;9.321121;0.76394653;0.7225342;-;-;-;-;-;-;-;-;-;-;-;-;-;-;-
1514181361553;-;-;9.273239;0.7016907;0.8805542;-;-;-;-;-;-;-;-;-;-;-;-;-;-;-
1514181361574;-;-;9.142746;0.62986755;0.923645;-;-;-;-;-;-;-;-;-;-;-;-;-;-;-
1514181361594;-;-;9.017059;0.52931213;0.8254852;-;-;-;-;-;-;-;-;-;-;-;-;-;-;-
1514181361614;-;-;9.027832;0.39523315;0.6950073;-;-;-;-;-;-;-;-;-;-;-;-;-;-;-
1514181361635;-;-;9.21936;0.35214233;0.6674652;-;-;-;-;-;-;-;-;-;-;-;-;-;-;-
1514181361655;-;-;9.324707;0.39881897;0.5274048;-;-;-;-;-;-;-;-;-;-;-;-;-;-;-
1514181361676;-;-;9.249298;0.54367065;0.3933258;-;-;-;-;-;-;-;-;-;-;-;-;-;-;-
1514181361696;-;-;9.135559;0.6071167;0.35861206;-;-;-;-;-;-;-;-;-;-;-;-;-;-;-
1514181361717;-;-;9.151123;0.6933136;0.43522644;-;-;-;-;-;-;-;-;-;-;-;-;-;-;-
1514181361737;-;-;9.171478;0.7866821;0.4220581;-;-;-;-;-;-;-;-;-;-;-;-;-;-;-
1514181361758;-;-;9.1523285;0.8154144;0.5166321;-;-;-;-;-;-;-;-;-;-;-;-;-;-;-
1514181361779;-;-;9.189438;0.79745483;0.6555023;-;-;-;-;-;-;-;-;-;-;-;-;-;-;-
1514181361799;-;-;9.291183;0.6466217;0.7763977;-;-;-;-;-;-;-;-;-;-;-;-;-;-;-
1514181361819;-;-;9.258865;0.59994507;0.84942627;-;-;-;-;-;-;-;-;-;-;-;-;-;-;-
1514181361839;-;-;9.149933;0.5305023;1.0206146;-;-;-;-;-;-;-;-;-;-;-;-;-;-;-
1514181361860;-;-;9.044586;0.42037964;1.097229;-;-;-;-;-;-;-;-;-;-;-;-;-;-;-
1514181361880;-;-;9.108032;0.33299255;1.0038605;-;-;-;-;-;-;-;-;-;-;-;-;-;-;-
1514181361901;-;-;9.278015;0.4084015;0.87815857;-;-;-;-;-;-;-;-;-;-;-;-;-;-;-
1514181361922;-;-;9.285202;0.4586792;0.7692261;-;-;-;-;-;-;-;-;-;-;-;-;-;-;-
1514181361942;-;-;9.1918335;0.4407196;0.5980377;-;-;-;-;-;-;-;-;-;-;-;-;-;-;-
1514181361962;-;-;9.181061;0.5281067;0.5262146;-;-;-;-;-;-;-;-;-;-;-;-;-;-;-
1514181361983;-;-;9.210983;0.6454315;0.5178375;-;-;-;-;-;-;-;-;-;-;-;-;-;-;-
1514181362002;-;-;9.161896;0.76753235;0.46276855;-;-;-;-;-;-;-;-;-;-;-;-;-;-;-
1514181362023;-;-;9.182251;0.8776703;0.4974823;-;-;-;-;-;-;-;-;-;-;-;-;-;-;-
1514181362042;-;-;9.269638;0.8405609;0.5693054;-;-;-;-;-;-;-;-;-;-;-;-;-;-;-
1514181362063;-;-;9.280411;0.7400055;0.5980377;-;-;-;-;-;-;-;-;-;-;-;-;-;-;-
1514181362082;-;-;9.240906;0.67774963;0.681839;-;-;-;-;-;-;-;-;-;-;-;-;-;-;-
1514181362103;-;-;9.2708435;0.5855713;0.7069702;-;-;-;-;-;-;-;-;-;-;-;-;-;-;-
1514181362124;-;-;9.082901;0.54008484;0.8422394;-;-;-;-;-;-;-;-;-;-;-;-;-;-;-
1514181362144;-;-;9.002686;0.39762878;0.8482361;-;-;-;-;-;-;-;-;-;-;-;-;-;-;-
1514181362164;-;-;9.178665;0.39283752;0.686615;-;-;-;-;-;-;-;-;-;-;-;-;-;-;-
1514181362185;-;-;9.33548;0.47782898;0.65190125;-;-;-;-;-;-;-;-;-;-;-;-;-;-;-
1514181362207;-;-;9.269638;0.5341034;0.5573273;-;-;-;-;-;-;-;-;-;-;-;-;-;-;-
1514181362227;-;-;9.111618;0.5771942;0.46754456;-;-;-;-;-;-;-;-;-;-;-;-;-;-;-
1514181362248;-;-;9.110428;0.6166992;0.44360352;-;-;-;-;-;-;-;-;-;-;-;-;-;-;-
1514181362268;-;-;9.183456;0.6968994;0.4400177;-;-;-;-;-;-;-;-;-;-;-;-;-;-;-
1514181362289;-;-;9.23613;0.7579498;0.3598175;-;-;-;-;-;-;-;-;-;-;-;-;-;-;-
1514181362310;-;-;9.21936;0.7471771;0.44839478;-;-;-;-;-;-;-;-;-;-;-;-;-;-;-
1514181362330;-;-;9.233734;0.6968994;0.65190125;-;-;-;-;-;-;-;-;-;-;-;-;-;-;-
1514181362350;-;-;9.239716;0.6143036;0.7321167;-;-;-;-;-;-;-;-;-;-;-;-;-;-;-
1514181362369;-;-;9.263657;0.59754944;0.61839294;-;-;-;-;-;-;-;-;-;-;-;-;-;-;-
1514181362390;-;-;9.262466;0.60472107;0.6531067;-;-;-;-;-;-;-;-;-;-;-;-;-;-;-
1514181362410;-;-;9.212173;0.4359436;0.5920563;-;-;-;-;-;-;-;-;-;-;-;-;-;-;-
1514181362431;-;-;9.183456;0.3892517;0.5585327;-;-;-;-;-;-;-;-;-;-;-;-;-;-;-
1514181362451;-;-;9.122391;0.40361023;0.53219604;-;-;-;-;-;-;-;-;-;-;-;-;-;-;-
1514181362472;-;-;9.084091;0.5245209;0.52500916;-;-;-;-;-;-;-;-;-;-;-;-;-;-;-
1514181362492;-;-;9.111618;0.6573944;0.57528687;-;-;-;-;-;-;-;-;-;-;-;-;-;-;-
1514181362513;-;-;9.215775;0.7651367;0.4759369;-;-;-;-;-;-;-;-;-;-;-;-;-;-;-
1514181362533;-;-;9.262466;0.81422424;0.54296875;-;-;-;-;-;-;-;-;-;-;-;-;-;-;-
1514181362554;-;-;9.273239;0.81062317;0.6255646;-;-;-;-;-;-;-;-;-;-;-;-;-;-;-
1514181362574;-;-;9.260071;0.74838257;0.7345123;-;-;-;-;-;-;-;-;-;-;-;-;-;-;-
1514181362594;-;-;9.17746;0.61909485;0.77401733;-;-;-;-;-;-;-;-;-;-;-;-;-;-;-
1514181362614;-;-;9.17627;0.5376892;0.9020996;-;-;-;-;-;-;-;-;-;-;-;-;-;-;-
1514181362636;-;-;9.155914;0.44432068;0.81710815;-;-;-;-;-;-;-;-;-;-;-;-;-;-;-
1514181362656;-;-;9.224152;0.4084015;0.73809814;-;-;-;-;-;-;-;-;-;-;-;-;-;-;-
1514181362675;-;-;9.301956;0.47903442;0.6088104;-;-;-;-;-;-;-;-;-;-;-;-;-;-;-
1514181362695;-;-;9.243301;0.55444336;0.51065063;-;-;-;-;-;-;-;-;-;-;-;-;-;-;-
1514181362716;-;-;9.035004;0.59994507;0.5286102;-;-;-;-;-;-;-;-;-;-;-;-;-;-;-
1514181362736;-;-;9.114014;0.6849365;0.52381897;-;-;-;-;-;-;-;-;-;-;-;-;-;-;-
1514181362757;-;-;9.124786;0.7400055;0.4112854;-;-;-;-;-;-;-;-;-;-;-;-;-;-;-
1514181362777;-;-;9.160706;0.8190155;0.40649414;-;-;-;-;-;-;-;-;-;-;-;-;-;-;-
1514181362798;-;-;9.248093;0.793869;0.5669098;-;-;-;-;-;-;-;-;-;-;-;-;-;-;-
1514181362818;-;-;9.347458;0.7005005;0.6997833;-;-;-;-;-;-;-;-;-;-;-;-;-;-;-
1514181362839;-;-;9.3546295;0.6717682;0.75605774;-;-;-;-;-;-;-;-;-;-;-;-;-;-;-
1514181362859;-;-;9.2313385;0.55804443;0.8159027;-;-;-;-;-;-;-;-;-;-;-;-;-;-;-
1514181362882;-;-;9.093674;0.3461609;0.78118896;-;-;-;-;-;-;-;-;-;-;-;-;-;-;-
1514181362903;-;-;9.110428;0.2707367;0.70936584;-;-;-;-;-;-;-;-;-;-;-;-;-;-;-
1514181362922;-;-;9.222961;0.33657837;0.8302765;-;-;-;-;-;-;-;-;-;-;-;-;-;-;-
1514181362942;-;-;9.248093;0.47424316;0.76322937;-;-;-;-;-;-;-;-;-;-;-;-;-;-;-
1514181362963;-;-;9.23613;0.6346588;0.6495056;-;-;-;-;-;-;-;-;-;-;-;-;-;-;-
