TimeStamp[ms];Prox[Cm];Lux[lux];AccX[m/s^2];AccY[m/s^2];AccZ[m/s^2];GyroX[rad/s];GyroY[rad/s];GyroZ[rad/s];MagnX[uT];MagnY[uT];MagnZ[uT];OrienYaw[degrees];OrienPitch[degrees];OrienRoll[degrees];Press[Pa];Temp[C°];Batt[%];Lat;Lng;Speed[m/s]
1514181940731;-;-;7.621231;-1.4842072;5.3373566;-;-;-;-;-;-;-;-;-;-;-;-;-;-;-
1514181940759;-;-;7.0609894;-1.2878876;5.1518097;-;-;-;-;-;-;-;-;-;-;-;-;-;-;-
1514181940768;-;-;7.1555634;-1.3262024;5.0967407;-;-;-;-;-;-;-;-;-;-;-;-;-;-;-
1514181940789;-;-;7.849884;-1.3513336;5.3960114;-;-;-;-;-;-;-;-;-;-;-;-;-;-;-
1514181940809;-;-;7.7924194;-1.4183655;5.5229034;-;-;-;-;-;-;-;-;-;-;-;-;-;-;-
1514181940830;-;-;7.9001617;-0.9395294;4.920761;-;-;-;-;-;-;-;-;-;-;-;-;-;-;-
1514181940850;-;-;7.3889923;-0.8665161;4.5065765;-;-;-;-;-;-;-;-;-;-;-;-;-;-;-
1514181940870;-;-;8.015076;-1.115509;4.354538;-;-;-;-;-;-;-;-;-;-;-;-;-;-;-
1514181940891;-;-;8.809952;-1.562027;4.362915;-;-;-;-;-;-;-;-;-;-;-;-;-;-;-
1514181940910;-;-;9.232529;-1.2232513;3.8397827;-;-;-;-;-;-;-;-;-;-;-;-;-;-;-
1514181940931;-;-;8.320343;-0.87968445;3.4758606;-;-;-;-;-;-;-;-;-;-;-;-;-;-;-
1514181940951;-;-;8.156342;-0.82221985;3.0054016;-;-;-;-;-;-;-;-;-;-;-;-;-;-;-
1514181940971;-;-;8.225769;-0.58039856;2.7396545;-;-;-;-;-;-;-;-;-;-;-;-;-;-;-
1514181941007;-;-;7.8881836;0.8632965;2.148285;-;-;-;-;-;-;-;-;-;-;-;-;-;-;-
1514181941012;-;-;8.363434;0.12948608;1.5090332;-;-;-;-;-;-;-;-;-;-;-;-;-;-;-
1514181941033;-;-;9.789185;-0.75756836;2.963501;-;-;-;-;-;-;-;-;-;-;-;-;-;-;-
1514181941053;-;-;8.967972;-0.7096863;2.7947235;-;-;-;-;-;-;-;-;-;-;-;-;-;-;-
1514181941074;-;-;9.862213;-1.4195709;2.015396;-;-;-;-;-;-;-;-;-;-;-;-;-;-;-
1514181941094;-;-;9.770035;-1.028122;2.0058289;-;-;-;-;-;-;-;-;-;-;-;-;-;-;-
1514181941117;-;-;8.436462;-0.2272644;1.5389557;-;-;-;-;-;-;-;-;-;-;-;-;-;-;-
1514181941135;-;-;8.876999;-0.45231628;2.3446045;-;-;-;-;-;-;-;-;-;-;-;-;-;-;-
1514181941155;-;-;9.695816;-0.5313263;2.3027039;-;-;-;-;-;-;-;-;-;-;-;-;-;-;-
1514181941176;-;-;9.294785;-0.042907715;1.780777;-;-;-;-;-;-;-;-;-;-;-;-;-;-;-
1514181941198;-;-;8.198242;-0.9898071;1.5162201;-;-;-;-;-;-;-;-;-;-;-;-;-;-;-
1514181941217;-;-;8.028244;-0.9862213;1.4898834;-;-;-;-;-;-;-;-;-;-;-;-;-;-;-
1514181941237;-;-;9.999878;-0.93115234;1.12117;-;-;-;-;-;-;-;-;-;-;-;-;-;-;-
1514181941258;-;-;10.083664;-1.4602661;1.967514;-;-;-;-;-;-;-;-;-;-;-;-;-;-;-
1514181941278;-;-;9.815521;-1.7116699;1.0457458;-;-;-;-;-;-;-;-;-;-;-;-;-;-;-
1514181941299;-;-;10.071701;-0.7851105;1.1235657;-;-;-;-;-;-;-;-;-;-;-;-;-;-;-
1514181941319;-;-;9.753265;-0.08958435;0.4400177;-;-;-;-;-;-;-;-;-;-;-;-;-;-;-
1514181941339;-;-;9.121201;-0.66659546;0.17066956;-;-;-;-;-;-;-;-;-;-;-;-;-;-;-
1514181941360;-;-;8.102463;-1.3106384;1.607193;-;-;-;-;-;-;-;-;-;-;-;-;-;-;-
1514181941380;-;-;9.726929;-1.3465424;1.5545197;-;-;-;-;-;-;-;-;-;-;-;-;-;-;-
1514181941400;-;-;9.371399;-1.4183655;1.5054321;-;-;-;-;-;-;-;-;-;-;-;-;-;-;-
1514181941423;-;-;9.479141;-1.2184601;1.0936432;-;-;-;-;-;-;-;-;-;-;-;-;-;-;-
1514181941441;-;-;9.106842;-0.88327026;0.7728119;-;-;-;-;-;-;-;-;-;-;-;-;-;-;-
1514181941461;-;-;8.24971;-1.2124786;2.1614532;-;-;-;-;-;-;-;-;-;-;-;-;-;-;-
1514181941482;-;-;8.4843445;-0.65582275;0.9212494;-;-;-;-;-;-;-;-;-;-;-;-;-;-;-
1514181941502;-;-;8.294006;-0.660614;1.2791901;-;-;-;-;-;-;-;-;-;-;-;-;-;-;-
1514181941522;-;-;9.250488;-1.0580444;0.9104767;-;-;-;-;-;-;-;-;-;-;-;-;-;-;-
1514181941542;-;-;8.888962;-1.0843811;0.16468811;-;-;-;-;-;-;-;-;-;-;-;-;-;-;-
1514181941563;-;-;9.06134;-0.95988464;-0.3045807;-;-;-;-;-;-;-;-;-;-;-;-;-;-;-
1514181941584;-;-;7.851074;-0.25360107;0.57528687;-;-;-;-;-;-;-;-;-;-;-;-;-;-;-
1514181941604;-;-;8.358643;-0.4774475;1.2337036;-;-;-;-;-;-;-;-;-;-;-;-;-;-;-
1514181941625;-;-;8.572922;-1.1478271;0.66267395;-;-;-;-;-;-;-;-;-;-;-;-;-;-;-
1514181941644;-;-;9.655106;-2.3676758;-0.11064148;-;-;-;-;-;-;-;-;-;-;-;-;-;-;-
1514181941665;-;-;10.359009;-2.7064514;-0.03881836;-;-;-;-;-;-;-;-;-;-;-;-;-;-;-
1514181941685;-;-;10.068115;-2.2491608;-0.31654358;-;-;-;-;-;-;-;-;-;-;-;-;-;-;-
1514181941706;-;-;8.637573;-2.5675964;-1.1018524;-;-;-;-;-;-;-;-;-;-;-;-;-;-;-
1514181941726;-;-;8.157532;-2.5771637;-0.35246277;-;-;-;-;-;-;-;-;-;-;-;-;-;-;-
1514181941747;-;-;9.80954;-1.7188416;-0.7917938;-;-;-;-;-;-;-;-;-;-;-;-;-;-;-
1514181941767;-;-;10.773193;-1.783493;-2.5216064;-;-;-;-;-;-;-;-;-;-;-;-;-;-;-
1514181941787;-;-;9.695816;-1.799057;-1.8213043;-;-;-;-;-;-;-;-;-;-;-;-;-;-;-
1514181941808;-;-;9.631165;-0.4451294;-3.1656494;-;-;-;-;-;-;-;-;-;-;-;-;-;-;-
1514181941828;-;-;9.062546;-0.11114502;-3.44458;-;-;-;-;-;-;-;-;-;-;-;-;-;-;-
1514181941848;-;-;9.205002;-0.15184021;-2.9896698;-;-;-;-;-;-;-;-;-;-;-;-;-;-;-
1514181941868;-;-;9.353439;-0.31105042;-1.7710266;-;-;-;-;-;-;-;-;-;-;-;-;-;-;-
1514181941889;-;-;6.486389;3.2586975;-7.883423;-;-;-;-;-;-;-;-;-;-;-;-;-;-;-
1514181941909;-;-;9.589264;-2.1689606;1.7376709;-;-;-;-;-;-;-;-;-;-;-;-;-;-;-
1514181941930;-;-;8.48674;-0.60194397;-1.5675201;-;-;-;-;-;-;-;-;-;-;-;-;-;-;-
1514181941950;-;-;8.623199;-1.6087189;-1.6309662;-;-;-;-;-;-;-;-;-;-;-;-;-;-;-
1514181941971;-;-;9.537796;-1.6757507;0.35263062;-;-;-;-;-;-;-;-;-;-;-;-;-;-;-
1514181941991;-;-;9.552155;-2.3760529;-0.62420654;-;-;-;-;-;-;-;-;-;-;-;-;-;-;-
1514181942012;-;-;9.074509;-3.2200165;-0.1776886;-;-;-;-;-;-;-;-;-;-;-;-;-;-;-
1514181942033;-;-;8.674683;-3.1924744;-0.013687134;-;-;-;-;-;-;-;-;-;-;-;-;-;-;-
1514181942053;-;-;8.82312;-3.3169708;0.46754456;-;-;-;-;-;-;-;-;-;-;-;-;-;-;-
1514181942073;-;-;8.283234;-2.652588;-0.0914917;-;-;-;-;-;-;-;-;-;-;-;-;-;-;-
1514181942094;-;-;7.363861;-2.360489;0.08328247;-;-;-;-;-;-;-;-;-;-;-;-;-;-;-
1514181942114;-;-;7.5709534;-1.9654541;0.5489502;-;-;-;-;-;-;-;-;-;-;-;-;-;-;-
1514181942134;-;-;8.6423645;-2.810608;1.6167755;-;-;-;-;-;-;-;-;-;-;-;-;-;-;-
1514181942155;-;-;10.229721;-2.46344;-0.04840088;-;-;-;-;-;-;-;-;-;-;-;-;-;-;-
1514181942176;-;-;10.142334;-1.9127808;0.25805664;-;-;-;-;-;-;-;-;-;-;-;-;-;-;-
1514181942196;-;-;10.914459;-1.3692932;0.001876831;-;-;-;-;-;-;-;-;-;-;-;-;-;-;-
1514181942217;-;-;11.434006;-1.0568542;-1.2227478;-;-;-;-;-;-;-;-;-;-;-;-;-;-;-
1514181942237;-;-;11.029373;-0.90242004;-2.4928741;-;-;-;-;-;-;-;-;-;-;-;-;-;-;-
1514181942258;-;-;9.035004;-1.3800659;-1.2778168;-;-;-;-;-;-;-;-;-;-;-;-;-;-;-
1514181942278;-;-;7.463211;-2.095932;-2.2606354;-;-;-;-;-;-;-;-;-;-;-;-;-;-;-
1514181942299;-;-;8.853058;-2.7148285;-1.1461334;-;-;-;-;-;-;-;-;-;-;-;-;-;-;-
1514181942318;-;-;9.659897;-2.2252197;-0.4051361;-;-;-;-;-;-;-;-;-;-;-;-;-;-;-
1514181942340;-;-;8.029449;-1.8062286;3.2436218;-;-;-;-;-;-;-;-;-;-;-;-;-;-;-
1514181942359;-;-;8.173096;-1.7763062;-2.4976654;-;-;-;-;-;-;-;-;-;-;-;-;-;-;-
1514181942380;-;-;9.23613;-2.222824;-0.42668152;-;-;-;-;-;-;-;-;-;-;-;-;-;-;-
1514181942401;-;-;8.904526;-2.2443695;-0.22557068;-;-;-;-;-;-;-;-;-;-;-;-;-;-;-
1514181942421;-;-;8.819534;-1.8134155;-0.614624;-;-;-;-;-;-;-;-;-;-;-;-;-;-;-
1514181942442;-;-;9.110428;-1.2028961;-0.9953003;-;-;-;-;-;-;-;-;-;-;-;-;-;-;-
1514181942462;-;-;9.281616;-1.0556488;-1.0264282;-;-;-;-;-;-;-;-;-;-;-;-;-;-;-
1514181942482;-;-;9.226547;-0.99938965;-1.4502106;-;-;-;-;-;-;-;-;-;-;-;-;-;-;-
1514181942503;-;-;9.23732;-1.1454315;-1.4657593;-;-;-;-;-;-;-;-;-;-;-;-;-;-;-
1514181942523;-;-;9.0733185;-1.289093;-1.5124512;-;-;-;-;-;-;-;-;-;-;-;-;-;-;-
1514181942544;-;-;8.691437;-1.4494934;-1.7207489;-;-;-;-;-;-;-;-;-;-;-;-;-;-;-
1514181942565;-;-;8.495117;-1.4698486;-1.9541779;-;-;-;-;-;-;-;-;-;-;-;-;-;-;-
1514181942585;-;-;7.9779663;-1.2902832;-1.8991089;-;-;-;-;-;-;-;-;-;-;-;-;-;-;-
1514181942606;-;-;7.731369;-0.7384186;-2.0942383;-;-;-;-;-;-;-;-;-;-;-;-;-;-;-
1514181942626;-;-;8.085709;0.095962524;-2.128952;-;-;-;-;-;-;-;-;-;-;-;-;-;-;-
1514181942646;-;-;8.558563;0.9243469;-1.9350281;-;-;-;-;-;-;-;-;-;-;-;-;-;-;-
1514181942667;-;-;9.267242;1.4510803;-1.5567474;-;-;-;-;-;-;-;-;-;-;-;-;-;-;-
1514181942688;-;-;9.4492035;1.0715942;-1.006073;-;-;-;-;-;-;-;-;-;-;-;-;-;-;-
1514181942707;-;-;10.056137;-0.018966675;-0.8492584;-;-;-;-;-;-;-;-;-;-;-;-;-;-;-
1514181942728;-;-;10.914459;-0.86291504;-1.2179718;-;-;-;-;-;-;-;-;-;-;-;-;-;-;-
1514181942747;-;-;11.539337;-1.1765594;-1.618988;-;-;-;-;-;-;-;-;-;-;-;-;-;-;-
1514181942768;-;-;11.022202;-0.6534271;-1.7662354;-;-;-;-;-;-;-;-;-;-;-;-;-;-;-
1514181942789;-;-;10.138733;-0.09437561;-1.6776581;-;-;-;-;-;-;-;-;-;-;-;-;-;-;-
1514181942808;-;-;8.977554;0.675354;-1.3065491;-;-;-;-;-;-;-;-;-;-;-;-;-;-;-
1514181942829;-;-;8.483139;0.9087982;-0.7917938;-;-;-;-;-;-;-;-;-;-;-;-;-;-;-
1514181942850;-;-;8.587296;0.86569214;-0.38598633;-;-;-;-;-;-;-;-;-;-;-;-;-;-;-
1514181942869;-;-;8.872208;0.6717682;-0.17648315;-;-;-;-;-;-;-;-;-;-;-;-;-;-;-
1514181942890;-;-;9.3103485;0.59754944;-0.43865967;-;-;-;-;-;-;-;-;-;-;-;-;-;-;-
1514181942910;-;-;9.455185;0.8202057;-0.92108154;-;-;-;-;-;-;-;-;-;-;-;-;-;-;-
1514181942931;-;-;9.15831;1.0081482;-1.195221;-;-;-;-;-;-;-;-;-;-;-;-;-;-;-
1514181942951;-;-;8.699814;1.0177307;-1.1772614;-;-;-;-;-;-;-;-;-;-;-;-;-;-;-
1514181942972;-;-;8.714188;0.80345154;-1.1856384;-;-;-;-;-;-;-;-;-;-;-;-;-;-;-
1514181942993;-;-;8.745316;0.3102417;-0.961792;-;-;-;-;-;-;-;-;-;-;-;-;-;-;-
1514181943013;-;-;9.00029;-0.012969971;-0.93904114;-;-;-;-;-;-;-;-;-;-;-;-;-;-;-
1514181943033;-;-;9.340271;-0.30148315;-0.90911865;-;-;-;-;-;-;-;-;-;-;-;-;-;-;-
1514181943054;-;-;9.193024;-0.3768921;-0.9689636;-;-;-;-;-;-;-;-;-;-;-;-;-;-;-
1514181943073;-;-;8.695038;-0.38168335;-0.6732788;-;-;-;-;-;-;-;-;-;-;-;-;-;-;-
1514181943093;-;-;8.406525;-0.46788025;-0.7522888;-;-;-;-;-;-;-;-;-;-;-;-;-;-;-
1514181943114;-;-;8.534622;-0.25837708;-1.2526855;-;-;-;-;-;-;-;-;-;-;-;-;-;-;-
1514181943134;-;-;9.122391;0.4694519;-1.7794037;-;-;-;-;-;-;-;-;-;-;-;-;-;-;-
1514181943155;-;-;10.133942;0.97462463;-2.3408508;-;-;-;-;-;-;-;-;-;-;-;-;-;-;-
1514181943176;-;-;10.925232;0.16419983;-2.8711548;-;-;-;-;-;-;-;-;-;-;-;-;-;-;-
1514181943196;-;-;10.691803;-0.92277527;-2.6089935;-;-;-;-;-;-;-;-;-;-;-;-;-;-;-
1514181943216;-;-;8.393356;-1.1933136;-1.7698364;-;-;-;-;-;-;-;-;-;-;-;-;-;-;-
1514181943237;-;-;6.7162323;-1.0616302;-1.1712799;-;-;-;-;-;-;-;-;-;-;-;-;-;-;-
1514181943257;-;-;6.3032227;-0.8497467;-1.0120697;-;-;-;-;-;-;-;-;-;-;-;-;-;-;-
1514181943278;-;-;7.473984;-0.47505188;-0.79418945;-;-;-;-;-;-;-;-;-;-;-;-;-;-;-
1514181943299;-;-;8.727356;-0.6474457;-0.71398926;-;-;-;-;-;-;-;-;-;-;-;-;-;-;-
1514181943319;-;-;9.74968;-0.74679565;-1.155716;-;-;-;-;-;-;-;-;-;-;-;-;-;-;-
1514181943340;-;-;10.501465;-0.24641418;-1.5016785;-;-;-;-;-;-;-;-;-;-;-;-;-;-;-
1514181943361;-;-;10.845032;0.59036255;-1.6764526;-;-;-;-;-;-;-;-;-;-;-;-;-;-;-
1514181943381;-;-;10.582855;0.50297546;-1.5244293;-;-;-;-;-;-;-;-;-;-;-;-;-;-;-
1514181943402;-;-;10.1566925;0.021743774;-1.4633789;-;-;-;-;-;-;-;-;-;-;-;-;-;-;-
1514181943422;-;-;9.024231;-0.48104858;-0.5894928;-;-;-;-;-;-;-;-;-;-;-;-;-;-;-
1514181943443;-;-;8.942825;-0.8712921;-0.20281982;-;-;-;-;-;-;-;-;-;-;-;-;-;-;-
1514181943464;-;-;9.3498535;-1.0161438;-0.5643463;-;-;-;-;-;-;-;-;-;-;-;-;-;-;-
1514181943485;-;-;9.80954;-1.0592499;-0.9474182;-;-;-;-;-;-;-;-;-;-;-;-;-;-;-
1514181943506;-;-;9.755661;-1.0712128;-1.298172;-;-;-;-;-;-;-;-;-;-;-;-;-;-;-
1514181943525;-;-;9.391739;-0.9981842;-1.243103;-;-;-;-;-;-;-;-;-;-;-;-;-;-;-
1514181943546;-;-;8.699814;-0.93473816;-0.7175751;-;-;-;-;-;-;-;-;-;-;-;-;-;-;-
1514181943566;-;-;8.571732;-0.9898071;-0.4637909;-;-;-;-;-;-;-;-;-;-;-;-;-;-;-
1514181943586;-;-;8.639969;-1.0197449;-0.32133484;-;-;-;-;-;-;-;-;-;-;-;-;-;-;-
1514181943607;-;-;8.80397;-1.1406403;-0.3871765;-;-;-;-;-;-;-;-;-;-;-;-;-;-;-
1514181943627;-;-;8.918884;-1.2292328;-0.52723694;-;-;-;-;-;-;-;-;-;-;-;-;-;-;-
1514181943648;-;-;8.844666;-1.091568;-1.2323303;-;-;-;-;-;-;-;-;-;-;-;-;-;-;-
1514181943668;-;-;9.610809;-0.37928772;-2.4390106;-;-;-;-;-;-;-;-;-;-;-;-;-;-;-
1514181943688;-;-;10.412872;0.55085754;-2.1696625;-;-;-;-;-;-;-;-;-;-;-;-;-;-;-
1514181943709;-;-;10.8641815;0.34735107;-1.590271;-;-;-;-;-;-;-;-;-;-;-;-;-;-;-
1514181943729;-;-;8.590881;-0.57681274;-1.6405487;-;-;-;-;-;-;-;-;-;-;-;-;-;-;-
1514181943750;-;-;6.9101563;-1.1083221;-1.2526855;-;-;-;-;-;-;-;-;-;-;-;-;-;-;-
1514181943769;-;-;7.41893;-1.0341034;-1.6213837;-;-;-;-;-;-;-;-;-;-;-;-;-;-;-
1514181943790;-;-;8.912903;-0.5780029;-1.7411041;-;-;-;-;-;-;-;-;-;-;-;-;-;-;-
1514181943810;-;-;9.710175;-0.43077087;-1.5687103;-;-;-;-;-;-;-;-;-;-;-;-;-;-;-
1514181943830;-;-;9.813126;-0.8497467;-1.2048035;-;-;-;-;-;-;-;-;-;-;-;-;-;-;-
1514181943851;-;-;9.61441;-1.4626617;-0.6613159;-;-;-;-;-;-;-;-;-;-;-;-;-;-;-
1514181943871;-;-;9.262466;-1.7176514;-0.4673767;-;-;-;-;-;-;-;-;-;-;-;-;-;-;-
1514181943891;-;-;8.904526;-1.5273132;-0.6038513;-;-;-;-;-;-;-;-;-;-;-;-;-;-;-
1514181943911;-;-;8.795593;-1.2112732;-0.6876526;-;-;-;-;-;-;-;-;-;-;-;-;-;-;-
1514181943932;-;-;9.013458;-0.68574524;-0.8492584;-;-;-;-;-;-;-;-;-;-;-;-;-;-;-
1514181943952;-;-;9.378571;-0.14704895;-1.0886841;-;-;-;-;-;-;-;-;-;-;-;-;-;-;-
1514181943973;-;-;9.345062;0.17736816;-1.3496399;-;-;-;-;-;-;-;-;-;-;-;-;-;-;-
1514181943993;-;-;9.167892;0.23242188;-1.392746;-;-;-;-;-;-;-;-;-;-;-;-;-;-;-
1514181944014;-;-;9.054169;0.007369995;-1.3209229;-;-;-;-;-;-;-;-;-;-;-;-;-;-;-
1514181944034;-;-;8.887772;-0.368515;-1.234726;-;-;-;-;-;-;-;-;-;-;-;-;-;-;-
1514181944054;-;-;9.110428;-0.6905365;-1.1329651;-;-;-;-;-;-;-;-;-;-;-;-;-;-;-
1514181944075;-;-;9.358231;-0.8688965;-1.0862885;-;-;-;-;-;-;-;-;-;-;-;-;-;-;-
1514181944096;-;-;9.507858;-0.8892517;-1.0743103;-;-;-;-;-;-;-;-;-;-;-;-;-;-;-
1514181944116;-;-;9.391739;-0.7875061;-1.0563507;-;-;-;-;-;-;-;-;-;-;-;-;-;-;-
1514181944136;-;-;9.06015;-0.5780029;-1.0288239;-;-;-;-;-;-;-;-;-;-;-;-;-;-;-
1514181944156;-;-;8.904526;-0.45948792;-0.9522095;-;-;-;-;-;-;-;-;-;-;-;-;-;-;-
1514181944177;-;-;9.001495;-0.44631958;-0.8791809;-;-;-;-;-;-;-;-;-;-;-;-;-;-;-
1514181944198;-;-;9.130783;-0.58758545;-0.89834595;-;-;-;-;-;-;-;-;-;-;-;-;-;-;-
1514181944218;-;-;9.299576;-0.64624023;-0.92108154;-;-;-;-;-;-;-;-;-;-;-;-;-;-;-
1514181944239;-;-;9.374985;-0.41879272;-1.1521301;-;-;-;-;-;-;-;-;-;-;-;-;-;-;-
1514181944259;-;-;9.440826;-0.030929565;-1.1629028;-;-;-;-;-;-;-;-;-;-;-;-;-;-;-
1514181944280;-;-;9.37738;0.2192688;-1.1521301;-;-;-;-;-;-;-;-;-;-;-;-;-;-;-
1514181944300;-;-;9.336685;0.14025879;-1.3005676;-;-;-;-;-;-;-;-;-;-;-;-;-;-;-
1514181944321;-;-;9.207397;-0.21887207;-1.3688049;-;-;-;-;-;-;-;-;-;-;-;-;-;-;-
1514181944342;-;-;9.082901;-0.60913086;-1.2095795;-;-;-;-;-;-;-;-;-;-;-;-;-;-;-
1514181944362;-;-;9.0793;-0.62828064;-0.9258728;-;-;-;-;-;-;-;-;-;-;-;-;-;-;-
1514181944381;-;-;8.905716;-0.4882202;-0.6996155;-;-;-;-;-;-;-;-;-;-;-;-;-;-;-
1514181944401;-;-;9.001495;-0.32302856;-0.7163849;-;-;-;-;-;-;-;-;-;-;-;-;-;-;-
1514181944421;-;-;9.207397;-0.36732483;-0.7199707;-;-;-;-;-;-;-;-;-;-;-;-;-;-;-
1514181944442;-;-;9.363022;-0.5169525;-0.73553467;-;-;-;-;-;-;-;-;-;-;-;-;-;-;-
1514181944462;-;-;9.645538;-0.5349121;-0.9366455;-;-;-;-;-;-;-;-;-;-;-;-;-;-;-
1514181944483;-;-;9.536591;-0.12071228;-0.97016907;-;-;-;-;-;-;-;-;-;-;-;-;-;-;-
1514181944504;-;-;9.419281;0.22045898;-1.040802;-;-;-;-;-;-;-;-;-;-;-;-;-;-;-
1514181944524;-;-;9.193024;0.20370483;-1.069519;-;-;-;-;-;-;-;-;-;-;-;-;-;-;-
1514181944544;-;-;9.032608;-0.33140564;-1.2478943;-;-;-;-;-;-;-;-;-;-;-;-;-;-;-
1514181944565;-;-;8.908112;-1.1346588;-0.9510193;-;-;-;-;-;-;-;-;-;-;-;-;-;-;-
1514181944585;-;-;8.868607;-1.4075928;-0.6661072;-;-;-;-;-;-;-;-;-;-;-;-;-;-;-
1514181944606;-;-;8.750107;-1.2172546;-0.31654358;-;-;-;-;-;-;-;-;-;-;-;-;-;-;-
1514181944625;-;-;8.813553;-0.8305969;-0.22796631;-;-;-;-;-;-;-;-;-;-;-;-;-;-;-
1514181944646;-;-;9.063736;-0.6833496;-0.29141235;-;-;-;-;-;-;-;-;-;-;-;-;-;-;-
1514181944665;-;-;9.465973;-0.7515869;-0.47816467;-;-;-;-;-;-;-;-;-;-;-;-;-;-;-
1514181944686;-;-;9.805939;-0.7276459;-0.7127838;-;-;-;-;-;-;-;-;-;-;-;-;-;-;-
1514181944706;-;-;9.865799;-0.29788208;-0.93785095;-;-;-;-;-;-;-;-;-;-;-;-;-;-;-
1514181944727;-;-;9.521027;0.19651794;-1.0826874;-;-;-;-;-;-;-;-;-;-;-;-;-;-;-
1514181944746;-;-;9.175064;-0.023742676;-1.0024872;-;-;-;-;-;-;-;-;-;-;-;-;-;-;-
1514181944766;-;-;8.960785;-0.7216644;-0.7953949;-;-;-;-;-;-;-;-;-;-;-;-;-;-;-
1514181944787;-;-;9.0182495;-1.4985809;-0.4853363;-;-;-;-;-;-;-;-;-;-;-;-;-;-;-
1514181944807;-;-;9.009872;-1.8421478;-0.26148987;-;-;-;-;-;-;-;-;-;-;-;-;-;-;-
1514181944828;-;-;8.964386;-1.5883636;-0.14656067;-;-;-;-;-;-;-;-;-;-;-;-;-;-;-
1514181944848;-;-;8.893753;-1.131073;-0.28063965;-;-;-;-;-;-;-;-;-;-;-;-;-;-;-
1514181944869;-;-;8.917694;-0.70729065;-0.28781128;-;-;-;-;-;-;-;-;-;-;-;-;-;-;-
1514181944889;-;-;9.020645;-0.67855835;-0.333313;-;-;-;-;-;-;-;-;-;-;-;-;-;-;-
1514181944909;-;-;9.145142;-0.80067444;-0.4242859;-;-;-;-;-;-;-;-;-;-;-;-;-;-;-
1514181944930;-;-;9.4492035;-0.9862213;-0.5535736;-;-;-;-;-;-;-;-;-;-;-;-;-;-;-
1514181944951;-;-;9.5282135;-0.9838257;-0.614624;-;-;-;-;-;-;-;-;-;-;-;-;-;-;-
1514181944971;-;-;9.483917;-0.83418274;-0.62060547;-;-;-;-;-;-;-;-;-;-;-;-;-;-;-
1514181944991;-;-;9.323517;-0.50738525;-0.7020111;-;-;-;-;-;-;-;-;-;-;-;-;-;-;-
1514181945012;-;-;9.3103485;-0.17459106;-0.75468445;-;-;-;-;-;-;-;-;-;-;-;-;-;-;-
1514181945033;-;-;9.333084;-0.17936707;-0.8289032;-;-;-;-;-;-;-;-;-;-;-;-;-;-;-
1514181945053;-;-;9.360626;-0.2571869;-0.88397217;-;-;-;-;-;-;-;-;-;-;-;-;-;-;-
1514181945074;-;-;9.196625;-0.035720825;-0.7582855;-;-;-;-;-;-;-;-;-;-;-;-;-;-;-
1514181945094;-;-;9.187042;0.13067627;-0.71398926;-;-;-;-;-;-;-;-;-;-;-;-;-;-;-
1514181945115;-;-;9.226547;0.045684814;-0.7678528;-;-;-;-;-;-;-;-;-;-;-;-;-;-;-
1514181945135;-;-;9.214569;-0.20809937;-0.52723694;-;-;-;-;-;-;-;-;-;-;-;-;-;-;-
1514181945156;-;-;9.183456;-0.3577423;-0.2866211;-;-;-;-;-;-;-;-;-;-;-;-;-;-;-
1514181945176;-;-;9.121201;-0.4487152;-0.21958923;-;-;-;-;-;-;-;-;-;-;-;-;-;-;-
1514181945197;-;-;9.134369;-0.4163971;-0.12741089;-;-;-;-;-;-;-;-;-;-;-;-;-;-;-
1514181945218;-;-;9.100845;-0.29071045;-0.24711609;-;-;-;-;-;-;-;-;-;-;-;-;-;-;-
1514181945237;-;-;9.128387;-0.29071045;-0.33929443;-;-;-;-;-;-;-;-;-;-;-;-;-;-;-
1514181945258;-;-;9.245697;-0.2966919;-0.551178;-;-;-;-;-;-;-;-;-;-;-;-;-;-;-
1514181945278;-;-;9.497086;-0.39604187;-0.8073578;-;-;-;-;-;-;-;-;-;-;-;-;-;-;-
1514181945299;-;-;9.578491;-0.58399963;-0.7977905;-;-;-;-;-;-;-;-;-;-;-;-;-;-;-
1514181945319;-;-;9.4887085;-0.62350464;-0.6589203;-;-;-;-;-;-;-;-;-;-;-;-;-;-;-
1514181945340;-;-;9.311539;-0.625885;-0.6014557;-;-;-;-;-;-;-;-;-;-;-;-;-;-;-
1514181945360;-;-;9.364212;-0.8066559;-0.64575195;-;-;-;-;-;-;-;-;-;-;-;-;-;-;-
1514181945381;-;-;9.3151245;-0.8641205;-0.8073578;-;-;-;-;-;-;-;-;-;-;-;-;-;-;-
1514181945401;-;-;9.151123;-1.0592499;-0.922287;-;-;-;-;-;-;-;-;-;-;-;-;-;-;-
1514181945422;-;-;9.09845;-1.1334686;-0.9079132;-;-;-;-;-;-;-;-;-;-;-;-;-;-;-
1514181945441;-;-;9.099655;-1.1490326;-0.60505676;-;-;-;-;-;-;-;-;-;-;-;-;-;-;-
1514181945461;-;-;9.043396;-1.1023407;-0.16091919;-;-;-;-;-;-;-;-;-;-;-;-;-;-;-
1514181945482;-;-;9.067337;-1.1190948;-0.16571045;-;-;-;-;-;-;-;-;-;-;-;-;-;-;-
1514181945502;-;-;9.154724;-1.285492;-0.20761108;-;-;-;-;-;-;-;-;-;-;-;-;-;-;-
1514181945523;-;-;9.416885;-1.3944244;-0.25309753;-;-;-;-;-;-;-;-;-;-;-;-;-;-;-
1514181945543;-;-;9.31752;-1.5727997;-0.3548584;-;-;-;-;-;-;-;-;-;-;-;-;-;-;-
1514181945564;-;-;9.06134;-1.0736084;-0.24353027;-;-;-;-;-;-;-;-;-;-;-;-;-;-;-
1514181945584;-;-;9.118805;-0.5708313;-0.27226257;-;-;-;-;-;-;-;-;-;-;-;-;-;-;-
1514181945605;-;-;9.0733185;-0.5205536;-0.3368988;-;-;-;-;-;-;-;-;-;-;-;-;-;-;-
1514181945625;-;-;9.245697;-0.5277252;-0.40274048;-;-;-;-;-;-;-;-;-;-;-;-;-;-;-
1514181945646;-;-;9.768829;-0.61990356;-0.65652466;-;-;-;-;-;-;-;-;-;-;-;-;-;-;-
1514181945665;-;-;9.637146;-0.7491913;-0.7379303;-;-;-;-;-;-;-;-;-;-;-;-;-;-;-
1514181945686;-;-;9.0972595;-0.66539;-0.5140686;-;-;-;-;-;-;-;-;-;-;-;-;-;-;-
1514181945706;-;-;8.736938;-0.7779236;-0.32373047;-;-;-;-;-;-;-;-;-;-;-;-;-;-;-
1514181945726;-;-;8.58371;-0.7120819;-0.07234192;-;-;-;-;-;-;-;-;-;-;-;-;-;-;-
1514181945747;-;-;9.210983;-0.502594;-0.1884613;-;-;-;-;-;-;-;-;-;-;-;-;-;-;-
1514181945767;-;-;9.692215;-0.55526733;-0.6433563;-;-;-;-;-;-;-;-;-;-;-;-;-;-;-
1514181945788;-;-;9.766434;-0.40203857;-0.922287;-;-;-;-;-;-;-;-;-;-;-;-;-;-;-
1514181945808;-;-;10.016632;-0.22605896;-0.94862366;-;-;-;-;-;-;-;-;-;-;-;-;-;-;-
1514181945829;-;-;9.645538;-0.34457397;-0.39915466;-;-;-;-;-;-;-;-;-;-;-;-;-;-;-
1514181945849;-;-;7.906143;-0.5720215;-0.6900482;-;-;-;-;-;-;-;-;-;-;-;-;-;-;-
1514181945869;-;-;7.9935303;-1.3920441;-1.5483704;-;-;-;-;-;-;-;-;-;-;-;-;-;-;-
1514181945890;-;-;8.559753;-1.2663422;-2.08107;-;-;-;-;-;-;-;-;-;-;-;-;-;-;-
1514181945913;-;-;9.337875;-0.8461609;-0.61701965;-;-;-;-;-;-;-;-;-;-;-;-;-;-;-
1514181945933;-;-;10.139938;-0.7779236;0.19102478;-;-;-;-;-;-;-;-;-;-;-;-;-;-;-
1514181945954;-;-;10.057327;-1.2615509;-0.19683838;-;-;-;-;-;-;-;-;-;-;-;-;-;-;-
1514181945975;-;-;9.390549;-1.427948;-0.6625061;-;-;-;-;-;-;-;-;-;-;-;-;-;-;-
1514181945996;-;-;8.879379;-1.1370544;-0.6253967;-;-;-;-;-;-;-;-;-;-;-;-;-;-;-
1514181946016;-;-;8.918884;-0.6354675;-0.575119;-;-;-;-;-;-;-;-;-;-;-;-;-;-;-
1514181946037;-;-;9.074509;-0.4559021;-0.5930786;-;-;-;-;-;-;-;-;-;-;-;-;-;-;-
1514181946057;-;-;9.188232;-0.46069336;-0.69244385;-;-;-;-;-;-;-;-;-;-;-;-;-;-;-
1514181946078;-;-;9.23732;-0.67736816;-0.76426697;-;-;-;-;-;-;-;-;-;-;-;-;-;-;-
1514181946098;-;-;9.193024;-0.8868561;-0.78700256;-;-;-;-;-;-;-;-;-;-;-;-;-;-;-
1514181946118;-;-;9.1523285;-0.8856659;-0.8660126;-;-;-;-;-;-;-;-;-;-;-;-;-;-;-
1514181946139;-;-;9.202606;-0.8593292;-0.86961365;-;-;-;-;-;-;-;-;-;-;-;-;-;-;-
1514181946159;-;-;9.267242;-0.8282013;-0.80856323;-;-;-;-;-;-;-;-;-;-;-;-;-;-;-
1514181946179;-;-;9.403717;-0.73602295;-0.7917938;-;-;-;-;-;-;-;-;-;-;-;-;-;-;-
1514181946200;-;-;9.439636;-0.75398254;-0.7953949;-;-;-;-;-;-;-;-;-;-;-;-;-;-;-
1514181946221;-;-;9.416885;-0.7503967;-0.9234772;-;-;-;-;-;-;-;-;-;-;-;-;-;-;-
1514181946241;-;-;9.309143;-0.77911377;-0.91389465;-;-;-;-;-;-;-;-;-;-;-;-;-;-;-
1514181946261;-;-;9.141556;-0.7491913;-0.84446716;-;-;-;-;-;-;-;-;-;-;-;-;-;-;-
1514181946282;-;-;8.995499;-0.71328735;-0.7893982;-;-;-;-;-;-;-;-;-;-;-;-;-;-;-
1514181946302;-;-;8.90094;-0.7480011;-0.7080078;-;-;-;-;-;-;-;-;-;-;-;-;-;-;-
1514181946322;-;-;8.976349;-0.85453796;-0.6685028;-;-;-;-;-;-;-;-;-;-;-;-;-;-;-
1514181946343;-;-;9.13916;-0.9503021;-0.7295532;-;-;-;-;-;-;-;-;-;-;-;-;-;-;-
1514181946364;-;-;9.224152;-0.9945984;-0.8289032;-;-;-;-;-;-;-;-;-;-;-;-;-;-;-
1514181946384;-;-;9.287598;-0.94911194;-0.8492584;-;-;-;-;-;-;-;-;-;-;-;-;-;-;-
1514181946405;-;-;9.262466;-0.9395294;-0.71517944;-;-;-;-;-;-;-;-;-;-;-;-;-;-;-
1514181946424;-;-;9.261261;-0.9371338;-0.67448425;-;-;-;-;-;-;-;-;-;-;-;-;-;-;-
1514181946445;-;-;9.280411;-0.9431305;-0.7558899;-;-;-;-;-;-;-;-;-;-;-;-;-;-;-
1514181946465;-;-;9.262466;-0.97424316;-0.7295532;-;-;-;-;-;-;-;-;-;-;-;-;-;-;-
1514181946486;-;-;9.267242;-0.93473816;-0.7056122;-;-;-;-;-;-;-;-;-;-;-;-;-;-;-
1514181946507;-;-;9.240906;-0.86531067;-0.6577301;-;-;-;-;-;-;-;-;-;-;-;-;-;-;-
1514181946526;-;-;9.171478;-0.8677063;-0.67807007;-;-;-;-;-;-;-;-;-;-;-;-;-;-;-
1514181946546;-;-;9.179855;-0.80426025;-0.6553345;-;-;-;-;-;-;-;-;-;-;-;-;-;-;-
1514181946567;-;-;9.17746;-0.82940674;-0.6804657;-;-;-;-;-;-;-;-;-;-;-;-;-;-;-
1514181946587;-;-;9.17746;-0.87249756;-0.7391205;-;-;-;-;-;-;-;-;-;-;-;-;-;-;-
1514181946607;-;-;9.189438;-0.8688965;-0.72476196;-;-;-;-;-;-;-;-;-;-;-;-;-;-;-
1514181946628;-;-;9.199005;-0.9275665;-0.6804657;-;-;-;-;-;-;-;-;-;-;-;-;-;-;-
1514181946648;-;-;9.183456;-0.97424316;-0.69244385;-;-;-;-;-;-;-;-;-;-;-;-;-;-;-
1514181946670;-;-;9.182251;-0.97184753;-0.654129;-;-;-;-;-;-;-;-;-;-;-;-;-;-;-
1514181946690;-;-;9.187042;-0.98143005;-0.6325836;-;-;-;-;-;-;-;-;-;-;-;-;-;-;-
1514181946710;-;-;9.23851;-0.99938965;-0.67567444;-;-;-;-;-;-;-;-;-;-;-;-;-;-;-
1514181946730;-;-;9.230133;-0.96946716;-0.6888428;-;-;-;-;-;-;-;-;-;-;-;-;-;-;-
1514181946750;-;-;9.215775;-0.973053;-0.7080078;-;-;-;-;-;-;-;-;-;-;-;-;-;-;-
1514181946771;-;-;9.206192;-0.8976288;-0.7080078;-;-;-;-;-;-;-;-;-;-;-;-;-;-;-
1514181946792;-;-;9.249298;-0.8473511;-0.7080078;-;-;-;-;-;-;-;-;-;-;-;-;-;-;-
1514181946812;-;-;9.23732;-0.87968445;-0.69602966;-;-;-;-;-;-;-;-;-;-;-;-;-;-;-
1514181946833;-;-;9.272034;-0.878479;-0.71398926;-;-;-;-;-;-;-;-;-;-;-;-;-;-;-
1514181946853;-;-;9.23613;-0.88087463;-0.68525696;-;-;-;-;-;-;-;-;-;-;-;-;-;-;-
1514181946874;-;-;9.232529;-0.89164734;-0.6912384;-;-;-;-;-;-;-;-;-;-;-;-;-;-;-
1514181946893;-;-;9.244507;-0.8772888;-0.71517944;-;-;-;-;-;-;-;-;-;-;-;-;-;-;-
1514181946913;-;-;9.232529;-0.84495544;-0.75109863;-;-;-;-;-;-;-;-;-;-;-;-;-;-;-
1514181946934;-;-;9.193024;-0.83418274;-0.7127838;-;-;-;-;-;-;-;-;-;-;-;-;-;-;-
1514181946955;-;-;9.195419;-0.84017944;-0.73194885;-;-;-;-;-;-;-;-;-;-;-;-;-;-;-
1514181946975;-;-;9.149933;-0.83657837;-0.68525696;-;-;-;-;-;-;-;-;-;-;-;-;-;-;-
1514181946996;-;-;9.17746;-0.85572815;-0.6433563;-;-;-;-;-;-;-;-;-;-;-;-;-;-;-
1514181947016;-;-;9.208588;-0.8066559;-0.71398926;-;-;-;-;-;-;-;-;-;-;-;-;-;-;-
1514181947037;-;-;9.287598;-0.7707367;-0.73672485;-;-;-;-;-;-;-;-;-;-;-;-;-;-;-
1514181947058;-;-;9.299576;-0.80545044;-0.6996155;-;-;-;-;-;-;-;-;-;-;-;-;-;-;-
1514181947078;-;-;9.258865;-0.8270111;-0.6577301;-;-;-;-;-;-;-;-;-;-;-;-;-;-;-
1514181947099;-;-;9.179855;-0.8665161;-0.6325836;-;-;-;-;-;-;-;-;-;-;-;-;-;-;-
1514181947118;-;-;9.1128235;-0.89523315;-0.60743713;-;-;-;-;-;-;-;-;-;-;-;-;-;-;-
1514181947139;-;-;9.13916;-0.89404297;-0.61701965;-;-;-;-;-;-;-;-;-;-;-;-;-;-;-
1514181947158;-;-;9.178665;-0.91319275;-0.62420654;-;-;-;-;-;-;-;-;-;-;-;-;-;-;-
1514181947178;-;-;9.17627;-0.9036255;-0.6661072;-;-;-;-;-;-;-;-;-;-;-;-;-;-;-
1514181947199;-;-;9.215775;-0.8569336;-0.6720886;-;-;-;-;-;-;-;-;-;-;-;-;-;-;-
1514181947220;-;-;9.216965;-0.85572815;-0.64694214;-;-;-;-;-;-;-;-;-;-;-;-;-;-;-
1514181947240;-;-;9.227737;-0.87368774;-0.6182251;-;-;-;-;-;-;-;-;-;-;-;-;-;-;-
1514181947261;-;-;9.196625;-0.8665161;-0.7235565;-;-;-;-;-;-;-;-;-;-;-;-;-;-;-
1514181947281;-;-;9.200211;-0.87249756;-0.7080078;-;-;-;-;-;-;-;-;-;-;-;-;-;-;-
1514181947302;-;-;9.21936;-0.8677063;-0.7295532;-;-;-;-;-;-;-;-;-;-;-;-;-;-;-
1514181947321;-;-;9.1918335;-0.8138428;-0.6804657;-;-;-;-;-;-;-;-;-;-;-;-;-;-;-
1514181947342;-;-;9.212173;-0.8772888;-0.6768799;-;-;-;-;-;-;-;-;-;-;-;-;-;-;-
1514181947363;-;-;9.194229;-0.85214233;-0.6804657;-;-;-;-;-;-;-;-;-;-;-;-;-;-;-
1514181947383;-;-;9.195419;-0.8497467;-0.6984253;-;-;-;-;-;-;-;-;-;-;-;-;-;-;-
1514181947404;-;-;9.228943;-0.8377838;-0.7451172;-;-;-;-;-;-;-;-;-;-;-;-;-;-;-
1514181947423;-;-;9.248093;-0.838974;-0.7379303;-;-;-;-;-;-;-;-;-;-;-;-;-;-;-
1514181947444;-;-;9.221756;-0.8377838;-0.6577301;-;-;-;-;-;-;-;-;-;-;-;-;-;-;-
1514181947463;-;-;9.188232;-0.82341003;-0.6433563;-;-;-;-;-;-;-;-;-;-;-;-;-;-;-
1514181947484;-;-;9.21936;-0.83657837;-0.6325836;-;-;-;-;-;-;-;-;-;-;-;-;-;-;-
1514181947504;-;-;9.274429;-0.80067444;-0.60743713;-;-;-;-;-;-;-;-;-;-;-;-;-;-;-
1514181947525;-;-;9.267242;-0.7982788;-0.6601105;-;-;-;-;-;-;-;-;-;-;-;-;-;-;-
1514181947544;-;-;9.282806;-0.85453796;-0.64694214;-;-;-;-;-;-;-;-;-;-;-;-;-;-;-
1514181947565;-;-;9.23613;-0.8282013;-0.6122284;-;-;-;-;-;-;-;-;-;-;-;-;-;-;-
1514181947585;-;-;9.230133;-0.86531067;-0.57032776;-;-;-;-;-;-;-;-;-;-;-;-;-;-;-
1514181947606;-;-;9.244507;-0.8485565;-0.6373749;-;-;-;-;-;-;-;-;-;-;-;-;-;-;-
1514181947626;-;-;9.257675;-0.85453796;-0.6828613;-;-;-;-;-;-;-;-;-;-;-;-;-;-;-
1514181947647;-;-;9.249298;-0.84495544;-0.6685028;-;-;-;-;-;-;-;-;-;-;-;-;-;-;-
1514181947667;-;-;9.233734;-0.87368774;-0.64216614;-;-;-;-;-;-;-;-;-;-;-;-;-;-;-
1514181947688;-;-;9.209793;-0.86172485;-0.64575195;-;-;-;-;-;-;-;-;-;-;-;-;-;-;-
1514181947708;-;-;9.188232;-0.87968445;-0.68644714;-;-;-;-;-;-;-;-;-;-;-;-;-;-;-
1514181947729;-;-;9.206192;-0.8760834;-0.6768799;-;-;-;-;-;-;-;-;-;-;-;-;-;-;-
1514181947749;-;-;9.200211;-0.8820648;-0.7127838;-;-;-;-;-;-;-;-;-;-;-;-;-;-;-
1514181947769;-;-;9.206192;-0.8820648;-0.71398926;-;-;-;-;-;-;-;-;-;-;-;-;-;-;-
1514181947790;-;-;9.209793;-0.8581238;-0.7235565;-;-;-;-;-;-;-;-;-;-;-;-;-;-;-
1514181947811;-;-;9.189438;-0.8760834;-0.669693;-;-;-;-;-;-;-;-;-;-;-;-;-;-;-
1514181947831;-;-;9.203796;-0.9215698;-0.6397705;-;-;-;-;-;-;-;-;-;-;-;-;-;-;-
1514181947851;-;-;9.208588;-0.9107971;-0.63616943;-;-;-;-;-;-;-;-;-;-;-;-;-;-;-
1514181947872;-;-;9.21817;-0.89404297;-0.7115936;-;-;-;-;-;-;-;-;-;-;-;-;-;-;-
1514181947893;-;-;9.227737;-0.8760834;-0.6613159;-;-;-;-;-;-;-;-;-;-;-;-;-;-;-
1514181947913;-;-;9.189438;-0.86172485;-0.669693;-;-;-;-;-;-;-;-;-;-;-;-;-;-;-
1514181947934;-;-;9.182251;-0.8772888;-0.6373749;-;-;-;-;-;-;-;-;-;-;-;-;-;-;-
1514181947953;-;-;9.213379;-0.8880615;-0.65652466;-;-;-;-;-;-;-;-;-;-;-;-;-;-;-
1514181947974;-;-;9.201401;-0.91200256;-0.59547424;-;-;-;-;-;-;-;-;-;-;-;-;-;-;-
1514181947994;-;-;9.182251;-0.9084015;-0.6194153;-;-;-;-;-;-;-;-;-;-;-;-;-;-;-
1514181948015;-;-;9.202606;-0.8665161;-0.6230011;-;-;-;-;-;-;-;-;-;-;-;-;-;-;-
1514181948035;-;-;9.242111;-0.8820648;-0.6253967;-;-;-;-;-;-;-;-;-;-;-;-;-;-;-
1514181948056;-;-;9.25647;-0.8964386;-0.58709717;-;-;-;-;-;-;-;-;-;-;-;-;-;-;-
1514181948076;-;-;9.202606;-0.9263611;-0.57632446;-;-;-;-;-;-;-;-;-;-;-;-;-;-;-
1514181948097;-;-;9.200211;-0.9036255;-0.6218109;-;-;-;-;-;-;-;-;-;-;-;-;-;-;-
1514181948117;-;-;9.225342;-0.9323425;-0.5858917;-;-;-;-;-;-;-;-;-;-;-;-;-;-;-
1514181948138;-;-;9.262466;-0.89523315;-0.64933777;-;-;-;-;-;-;-;-;-;-;-;-;-;-;-
1514181948158;-;-;9.280411;-0.8425598;-0.6601105;-;-;-;-;-;-;-;-;-;-;-;-;-;-;-
1514181948179;-;-;9.21936;-0.8317871;-0.6409607;-;-;-;-;-;-;-;-;-;-;-;-;-;-;-
1514181948199;-;-;9.208588;-0.8485565;-0.51885986;-;-;-;-;-;-;-;-;-;-;-;-;-;-;-
1514181948220;-;-;9.262466;-0.838974;-0.57032776;-;-;-;-;-;-;-;-;-;-;-;-;-;-;-
1514181948240;-;-;9.269638;-0.8928528;-0.6505432;-;-;-;-;-;-;-;-;-;-;-;-;-;-;-
1514181948260;-;-;9.272034;-0.9251709;-0.6397705;-;-;-;-;-;-;-;-;-;-;-;-;-;-;-
1514181948280;-;-;9.258865;-0.92396545;-0.575119;-;-;-;-;-;-;-;-;-;-;-;-;-;-;-
1514181948301;-;-;9.232529;-0.89045715;-0.5404053;-;-;-;-;-;-;-;-;-;-;-;-;-;-;-
1514181948321;-;-;9.193024;-0.91200256;-0.54519653;-;-;-;-;-;-;-;-;-;-;-;-;-;-;-
1514181948342;-;-;9.199005;-0.93115234;-0.5428009;-;-;-;-;-;-;-;-;-;-;-;-;-;-;-
1514181948362;-;-;9.215775;-0.9143982;-0.5823059;-;-;-;-;-;-;-;-;-;-;-;-;-;-;-
1514181948383;-;-;9.206192;-0.86172485;-0.64216614;-;-;-;-;-;-;-;-;-;-;-;-;-;-;-
1514181948404;-;-;9.184647;-0.8772888;-0.6253967;-;-;-;-;-;-;-;-;-;-;-;-;-;-;-
1514181948424;-;-;9.202606;-0.8461609;-0.5894928;-;-;-;-;-;-;-;-;-;-;-;-;-;-;-
1514181948444;-;-;9.214569;-0.89045715;-0.5619507;-;-;-;-;-;-;-;-;-;-;-;-;-;-;-
1514181948465;-;-;9.258865;-0.9084015;-0.5619507;-;-;-;-;-;-;-;-;-;-;-;-;-;-;-
1514181948485;-;-;9.232529;-0.9072113;-0.60505676;-;-;-;-;-;-;-;-;-;-;-;-;-;-;-
1514181948506;-;-;9.195419;-0.8701019;-0.61701965;-;-;-;-;-;-;-;-;-;-;-;-;-;-;-
1514181948526;-;-;9.207397;-0.87249756;-0.5428009;-;-;-;-;-;-;-;-;-;-;-;-;-;-;-
1514181948547;-;-;9.227737;-0.86531067;-0.575119;-;-;-;-;-;-;-;-;-;-;-;-;-;-;-
1514181948567;-;-;9.225342;-0.8856659;-0.5787201;-;-;-;-;-;-;-;-;-;-;-;-;-;-;-
1514181948588;-;-;9.233734;-0.89404297;-0.60983276;-;-;-;-;-;-;-;-;-;-;-;-;-;-;-
1514181948608;-;-;9.208588;-0.8868561;-0.58470154;-;-;-;-;-;-;-;-;-;-;-;-;-;-;-
1514181948629;-;-;9.23851;-0.8892517;-0.57632446;-;-;-;-;-;-;-;-;-;-;-;-;-;-;-
1514181948649;-;-;9.243301;-0.90960693;-0.575119;-;-;-;-;-;-;-;-;-;-;-;-;-;-;-
1514181948670;-;-;9.227737;-0.8928528;-0.5404053;-;-;-;-;-;-;-;-;-;-;-;-;-;-;-
1514181948690;-;-;9.207397;-0.8892517;-0.47576904;-;-;-;-;-;-;-;-;-;-;-;-;-;-;-
1514181948711;-;-;9.169083;-0.9107971;-0.5104828;-;-;-;-;-;-;-;-;-;-;-;-;-;-;-
1514181948732;-;-;9.210983;-0.9155884;-0.50450134;-;-;-;-;-;-;-;-;-;-;-;-;-;-;-
1514181948752;-;-;9.254074;-0.9000244;-0.60983276;-;-;-;-;-;-;-;-;-;-;-;-;-;-;-
1514181948772;-;-;9.248093;-0.88327026;-0.6002655;-;-;-;-;-;-;-;-;-;-;-;-;-;-;-
1514181948792;-;-;9.242111;-0.8760834;-0.5463867;-;-;-;-;-;-;-;-;-;-;-;-;-;-;-
1514181948813;-;-;9.21817;-0.8868561;-0.46858215;-;-;-;-;-;-;-;-;-;-;-;-;-;-;-
1514181948834;-;-;9.205002;-0.89164734;-0.49731445;-;-;-;-;-;-;-;-;-;-;-;-;-;-;-
1514181948853;-;-;9.215775;-0.89164734;-0.5715332;-;-;-;-;-;-;-;-;-;-;-;-;-;-;-
1514181948874;-;-;9.2708435;-0.87249756;-0.575119;-;-;-;-;-;-;-;-;-;-;-;-;-;-;-
1514181948894;-;-;9.254074;-0.9072113;-0.52963257;-;-;-;-;-;-;-;-;-;-;-;-;-;-;-
1514181948915;-;-;9.222961;-0.8593292;-0.52604675;-;-;-;-;-;-;-;-;-;-;-;-;-;-;-
1514181948935;-;-;9.222961;-0.9191742;-0.4853363;-;-;-;-;-;-;-;-;-;-;-;-;-;-;-
1514181948956;-;-;9.23851;-0.9000244;-0.52723694;-;-;-;-;-;-;-;-;-;-;-;-;-;-;-
1514181948976;-;-;9.154724;-0.8712921;-0.53800964;-;-;-;-;-;-;-;-;-;-;-;-;-;-;-
1514181948997;-;-;9.185837;-0.8593292;-0.5140686;-;-;-;-;-;-;-;-;-;-;-;-;-;-;-
1514181949017;-;-;9.220566;-0.85572815;-0.54878235;-;-;-;-;-;-;-;-;-;-;-;-;-;-;-
1514181949038;-;-;9.228943;-0.8964386;-0.5344238;-;-;-;-;-;-;-;-;-;-;-;-;-;-;-
1514181949058;-;-;9.1918335;-0.8856659;-0.48893738;-;-;-;-;-;-;-;-;-;-;-;-;-;-;-
1514181949078;-;-;9.179855;-0.8605194;-0.48294067;-;-;-;-;-;-;-;-;-;-;-;-;-;-;-
1514181949099;-;-;9.172684;-0.917984;-0.49371338;-;-;-;-;-;-;-;-;-;-;-;-;-;-;-
1514181949119;-;-;9.148727;-0.86172485;-0.44703674;-;-;-;-;-;-;-;-;-;-;-;-;-;-;-
1514181949140;-;-;9.099655;-0.84376526;-0.44343567;-;-;-;-;-;-;-;-;-;-;-;-;-;-;-
1514181949161;-;-;9.063736;-0.8461609;-0.37521362;-;-;-;-;-;-;-;-;-;-;-;-;-;-;-
1514181949182;-;-;8.983536;-0.84376526;-0.37521362;-;-;-;-;-;-;-;-;-;-;-;-;-;-;-
1514181949202;-;-;9.075714;-0.90242004;-0.50808716;-;-;-;-;-;-;-;-;-;-;-;-;-;-;-
1514181949223;-;-;9.041;-0.96347046;-0.5966644;-;-;-;-;-;-;-;-;-;-;-;-;-;-;-
1514181949244;-;-;9.109222;-0.94911194;-0.7080078;-;-;-;-;-;-;-;-;-;-;-;-;-;-;-
1514181949264;-;-;9.221756;-0.89045715;-0.6517334;-;-;-;-;-;-;-;-;-;-;-;-;-;-;-
1514181949284;-;-;9.248093;-0.7420044;-0.6685028;-;-;-;-;-;-;-;-;-;-;-;-;-;-;-
1514181949306;-;-;9.325912;-0.8102417;-0.55955505;-;-;-;-;-;-;-;-;-;-;-;-;-;-;-
1514181949326;-;-;9.452805;-0.9323425;-0.58470154;-;-;-;-;-;-;-;-;-;-;-;-;-;-;-
1514181949348;-;-;9.240906;-0.917984;-0.6266022;-;-;-;-;-;-;-;-;-;-;-;-;-;-;-
1514181949368;-;-;9.299576;-0.86172485;-0.63856506;-;-;-;-;-;-;-;-;-;-;-;-;-;-;-
1514181949388;-;-;9.301956;-0.7958832;-0.58709717;-;-;-;-;-;-;-;-;-;-;-;-;-;-;-
1514181949409;-;-;9.416885;-0.704895;-0.60624695;-;-;-;-;-;-;-;-;-;-;-;-;-;-;-
1514181949428;-;-;9.3893585;-0.7480011;-0.5523834;-;-;-;-;-;-;-;-;-;-;-;-;-;-;-
1514181949449;-;-;9.360626;-0.8186188;-0.43626404;-;-;-;-;-;-;-;-;-;-;-;-;-;-;-
1514181949469;-;-;8.994308;-0.8820648;-0.3153534;-;-;-;-;-;-;-;-;-;-;-;-;-;-;-
1514181949490;-;-;8.905716;-0.9167938;-0.6122284;-;-;-;-;-;-;-;-;-;-;-;-;-;-;-
1514181949509;-;-;9.388153;-0.89404297;-0.6661072;-;-;-;-;-;-;-;-;-;-;-;-;-;-;-
1514181949530;-;-;9.443222;-0.8569336;-0.42189026;-;-;-;-;-;-;-;-;-;-;-;-;-;-;-
1514181949550;-;-;9.2756195;-0.9143982;-0.41111755;-;-;-;-;-;-;-;-;-;-;-;-;-;-;-
1514181949570;-;-;9.041;-1.0077667;-0.4230957;-;-;-;-;-;-;-;-;-;-;-;-;-;-;-
1514181949591;-;-;8.950012;-0.9838257;-0.5727234;-;-;-;-;-;-;-;-;-;-;-;-;-;-;-
1514181949612;-;-;9.222961;-0.92277527;-0.39315796;-;-;-;-;-;-;-;-;-;-;-;-;-;-;-
1514181949632;-;-;9.527023;-0.8497467;-0.4159088;-;-;-;-;-;-;-;-;-;-;-;-;-;-;-
1514181949653;-;-;9.33548;-0.8976288;-0.43745422;-;-;-;-;-;-;-;-;-;-;-;-;-;-;-
1514181949672;-;-;8.970367;-0.88087463;-0.5823059;-;-;-;-;-;-;-;-;-;-;-;-;-;-;-
1514181949693;-;-;9.100845;-0.87249756;-0.64216614;-;-;-;-;-;-;-;-;-;-;-;-;-;-;-
1514181949713;-;-;9.359421;-0.8377838;-0.58470154;-;-;-;-;-;-;-;-;-;-;-;-;-;-;-
1514181949734;-;-;9.533005;-0.8820648;-0.6086426;-;-;-;-;-;-;-;-;-;-;-;-;-;-;-
1514181949755;-;-;9.328293;-0.90242004;-0.6481476;-;-;-;-;-;-;-;-;-;-;-;-;-;-;-
1514181949775;-;-;9.030228;-0.9431305;-0.6481476;-;-;-;-;-;-;-;-;-;-;-;-;-;-;-
1514181949795;-;-;9.032608;-0.92996216;-0.67567444;-;-;-;-;-;-;-;-;-;-;-;-;-;-;-
1514181949817;-;-;9.147537;-0.9000244;-0.68525696;-;-;-;-;-;-;-;-;-;-;-;-;-;-;-
1514181949838;-;-;9.29718;-0.8270111;-0.7163849;-;-;-;-;-;-;-;-;-;-;-;-;-;-;-
1514181949858;-;-;9.303162;-0.76594543;-0.7379303;-;-;-;-;-;-;-;-;-;-;-;-;-;-;-
1514181949879;-;-;9.286407;-0.81144714;-0.78222656;-;-;-;-;-;-;-;-;-;-;-;-;-;-;-
1514181949900;-;-;9.201401;-0.878479;-0.8025665;-;-;-;-;-;-;-;-;-;-;-;-;-;-;-
1514181949920;-;-;9.164291;-0.8712921;-0.80496216;-;-;-;-;-;-;-;-;-;-;-;-;-;-;-
1514181949940;-;-;9.184647;-0.8569336;-0.8253174;-;-;-;-;-;-;-;-;-;-;-;-;-;-;-
1514181949960;-;-;9.17746;-0.7276459;-0.86361694;-;-;-;-;-;-;-;-;-;-;-;-;-;-;-
1514181949981;-;-;9.267242;-0.70370483;-0.8492584;-;-;-;-;-;-;-;-;-;-;-;-;-;-;-
1514181950001;-;-;9.305557;-0.704895;-0.7630615;-;-;-;-;-;-;-;-;-;-;-;-;-;-;-
1514181950022;-;-;9.267242;-0.7982788;-0.6888428;-;-;-;-;-;-;-;-;-;-;-;-;-;-;-
1514181950043;-;-;9.216965;-0.8760834;-0.64575195;-;-;-;-;-;-;-;-;-;-;-;-;-;-;-
1514181950062;-;-;9.182251;-0.8712921;-0.67448425;-;-;-;-;-;-;-;-;-;-;-;-;-;-;-
1514181950082;-;-;9.188232;-0.85214233;-0.6888428;-;-;-;-;-;-;-;-;-;-;-;-;-;-;-
1514181950103;-;-;9.232529;-0.8497467;-0.7175751;-;-;-;-;-;-;-;-;-;-;-;-;-;-;-
1514181950124;-;-;9.245697;-0.8976288;-0.6996155;-;-;-;-;-;-;-;-;-;-;-;-;-;-;-
1514181950144;-;-;9.222961;-0.9682617;-0.68525696;-;-;-;-;-;-;-;-;-;-;-;-;-;-;-
1514181950165;-;-;9.197815;-0.973053;-0.6613159;-;-;-;-;-;-;-;-;-;-;-;-;-;-;-
1514181950184;-;-;9.199005;-1.0173492;-0.6768799;-;-;-;-;-;-;-;-;-;-;-;-;-;-;-
1514181950206;-;-;9.224152;-0.98143005;-0.7498932;-;-;-;-;-;-;-;-;-;-;-;-;-;-;-
1514181950226;-;-;9.243301;-0.90960693;-0.7558899;-;-;-;-;-;-;-;-;-;-;-;-;-;-;-
1514181950247;-;-;9.206192;-0.8569336;-0.7630615;-;-;-;-;-;-;-;-;-;-;-;-;-;-;-
1514181950268;-;-;9.197815;-0.85214233;-0.86242676;-;-;-;-;-;-;-;-;-;-;-;-;-;-;-
1514181950289;-;-;9.234924;-0.8593292;-0.8887634;-;-;-;-;-;-;-;-;-;-;-;-;-;-;-
1514181950309;-;-;9.301956;-0.8246155;-0.9438324;-;-;-;-;-;-;-;-;-;-;-;-;-;-;-
1514181950330;-;-;9.295975;-0.8461609;-0.9797363;-;-;-;-;-;-;-;-;-;-;-;-;-;-;-
1514181950350;-;-;9.194229;-0.8701019;-0.9043274;-;-;-;-;-;-;-;-;-;-;-;-;-;-;-
1514181950371;-;-;9.07811;-0.8760834;-0.8396759;-;-;-;-;-;-;-;-;-;-;-;-;-;-;-
1514181950391;-;-;9.051773;-0.8461609;-0.8169403;-;-;-;-;-;-;-;-;-;-;-;-;-;-;-
1514181950412;-;-;9.084091;-0.8593292;-0.7630615;-;-;-;-;-;-;-;-;-;-;-;-;-;-;-
1514181950432;-;-;9.143951;-0.85453796;-0.7522888;-;-;-;-;-;-;-;-;-;-;-;-;-;-;-
1514181950453;-;-;9.188232;-0.88446045;-0.7163849;-;-;-;-;-;-;-;-;-;-;-;-;-;-;-
1514181950474;-;-;9.225342;-0.89045715;-0.69721985;-;-;-;-;-;-;-;-;-;-;-;-;-;-;-
1514181950493;-;-;9.272034;-0.8976288;-0.6900482;-;-;-;-;-;-;-;-;-;-;-;-;-;-;-
1514181950514;-;-;9.230133;-0.94073486;-0.6840515;-;-;-;-;-;-;-;-;-;-;-;-;-;-;-
1514181950534;-;-;9.233734;-0.957489;-0.614624;-;-;-;-;-;-;-;-;-;-;-;-;-;-;-
1514181950554;-;-;9.233734;-1.0113525;-0.6325836;-;-;-;-;-;-;-;-;-;-;-;-;-;-;-
1514181950574;-;-;9.278015;-1.036499;-0.60505676;-;-;-;-;-;-;-;-;-;-;-;-;-;-;-
1514181950595;-;-;9.242111;-0.96707153;-0.6685028;-;-;-;-;-;-;-;-;-;-;-;-;-;-;-
1514181950614;-;-;9.244507;-0.9275665;-0.70321655;-;-;-;-;-;-;-;-;-;-;-;-;-;-;-
1514181950634;-;-;9.181061;-0.8892517;-0.7008209;-;-;-;-;-;-;-;-;-;-;-;-;-;-;-
1514181950655;-;-;9.143951;-0.8868561;-0.6409607;-;-;-;-;-;-;-;-;-;-;-;-;-;-;-
1514181950675;-;-;9.163101;-0.9287567;-0.6792755;-;-;-;-;-;-;-;-;-;-;-;-;-;-;-
1514181950696;-;-;9.199005;-0.94073486;-0.77983093;-;-;-;-;-;-;-;-;-;-;-;-;-;-;-
1514181950716;-;-;9.202606;-0.9586792;-0.75349426;-;-;-;-;-;-;-;-;-;-;-;-;-;-;-
1514181950736;-;-;9.215775;-0.9838257;-0.8061676;-;-;-;-;-;-;-;-;-;-;-;-;-;-;-
1514181950757;-;-;9.214569;-0.94192505;-0.8073578;-;-;-;-;-;-;-;-;-;-;-;-;-;-;-
1514181950777;-;-;9.188232;-0.9539032;-0.8241272;-;-;-;-;-;-;-;-;-;-;-;-;-;-;-
1514181950798;-;-;9.185837;-0.96707153;-0.8097534;-;-;-;-;-;-;-;-;-;-;-;-;-;-;-
1514181950818;-;-;9.13916;-0.97184753;-0.843277;-;-;-;-;-;-;-;-;-;-;-;-;-;-;-
1514181950839;-;-;9.147537;-0.9682617;-0.7379303;-;-;-;-;-;-;-;-;-;-;-;-;-;-;-
1514181950859;-;-;9.14035;-0.94192505;-0.7295532;-;-;-;-;-;-;-;-;-;-;-;-;-;-;-
1514181950880;-;-;9.123596;-0.8976288;-0.70680237;-;-;-;-;-;-;-;-;-;-;-;-;-;-;-
1514181950900;-;-;9.147537;-0.88446045;-0.73194885;-;-;-;-;-;-;-;-;-;-;-;-;-;-;-
1514181950921;-;-;9.225342;-0.89404297;-0.7379303;-;-;-;-;-;-;-;-;-;-;-;-;-;-;-
1514181950940;-;-;9.25647;-0.8868561;-0.68525696;-;-;-;-;-;-;-;-;-;-;-;-;-;-;-
1514181950961;-;-;9.29718;-0.86291504;-0.6768799;-;-;-;-;-;-;-;-;-;-;-;-;-;-;-
1514181950981;-;-;9.33429;-0.8964386;-0.6517334;-;-;-;-;-;-;-;-;-;-;-;-;-;-;-
1514181951001;-;-;9.331894;-0.92277527;-0.630188;-;-;-;-;-;-;-;-;-;-;-;-;-;-;-
1514181951022;-;-;9.287598;-0.92396545;-0.6373749;-;-;-;-;-;-;-;-;-;-;-;-;-;-;-
1514181951042;-;-;9.260071;-0.9323425;-0.66490173;-;-;-;-;-;-;-;-;-;-;-;-;-;-;-
1514181951063;-;-;9.215775;-0.9000244;-0.6589203;-;-;-;-;-;-;-;-;-;-;-;-;-;-;-
1514181951082;-;-;9.137955;-0.87368774;-0.6828613;-;-;-;-;-;-;-;-;-;-;-;-;-;-;-
1514181951103;-;-;9.166687;-0.8581238;-0.7056122;-;-;-;-;-;-;-;-;-;-;-;-;-;-;-
1514181951124;-;-;9.159515;-0.87368774;-0.7271576;-;-;-;-;-;-;-;-;-;-;-;-;-;-;-
1514181951144;-;-;9.220566;-0.85453796;-0.75349426;-;-;-;-;-;-;-;-;-;-;-;-;-;-;-
1514181951164;-;-;9.214569;-0.88446045;-0.72595215;-;-;-;-;-;-;-;-;-;-;-;-;-;-;-
1514181951184;-;-;9.200211;-0.89523315;-0.7498932;-;-;-;-;-;-;-;-;-;-;-;-;-;-;-
1514181951206;-;-;9.21936;-0.90242004;-0.7271576;-;-;-;-;-;-;-;-;-;-;-;-;-;-;-
1514181951226;-;-;9.232529;-0.878479;-0.7498932;-;-;-;-;-;-;-;-;-;-;-;-;-;-;-
1514181951246;-;-;9.210983;-0.86531067;-0.8097534;-;-;-;-;-;-;-;-;-;-;-;-;-;-;-
1514181951267;-;-;9.208588;-0.86172485;-0.7666626;-;-;-;-;-;-;-;-;-;-;-;-;-;-;-
1514181951286;-;-;9.1918335;-0.8605194;-0.6912384;-;-;-;-;-;-;-;-;-;-;-;-;-;-;-
1514181951307;-;-;9.197815;-0.8641205;-0.64694214;-;-;-;-;-;-;-;-;-;-;-;-;-;-;-
1514181951326;-;-;9.201401;-0.8353882;-0.7343445;-;-;-;-;-;-;-;-;-;-;-;-;-;-;-
1514181951347;-;-;9.226547;-0.8605194;-0.7391205;-;-;-;-;-;-;-;-;-;-;-;-;-;-;-
1514181951367;-;-;9.221756;-0.8988342;-0.6900482;-;-;-;-;-;-;-;-;-;-;-;-;-;-;-
1514181951388;-;-;9.23732;-0.9562988;-0.64456177;-;-;-;-;-;-;-;-;-;-;-;-;-;-;-
1514181951408;-;-;9.196625;-0.9431305;-0.6337738;-;-;-;-;-;-;-;-;-;-;-;-;-;-;-
1514181951429;-;-;9.17746;-0.9359436;-0.6397705;-;-;-;-;-;-;-;-;-;-;-;-;-;-;-
1514181951450;-;-;9.199005;-0.8581238;-0.6876526;-;-;-;-;-;-;-;-;-;-;-;-;-;-;-
1514181951470;-;-;9.185837;-0.9036255;-0.6804657;-;-;-;-;-;-;-;-;-;-;-;-;-;-;-
1514181951490;-;-;9.207397;-0.9072113;-0.6792755;-;-;-;-;-;-;-;-;-;-;-;-;-;-;-
1514181951511;-;-;9.207397;-0.8928528;-0.62779236;-;-;-;-;-;-;-;-;-;-;-;-;-;-;-
1514181951531;-;-;9.1918335;-0.9287567;-0.63616943;-;-;-;-;-;-;-;-;-;-;-;-;-;-;-
1514181951552;-;-;9.210983;-0.9048157;-0.63497925;-;-;-;-;-;-;-;-;-;-;-;-;-;-;-
1514181951572;-;-;9.215775;-0.8712921;-0.64456177;-;-;-;-;-;-;-;-;-;-;-;-;-;-;-
1514181951593;-;-;9.213379;-0.8880615;-0.6553345;-;-;-;-;-;-;-;-;-;-;-;-;-;-;-
1514181951614;-;-;9.221756;-0.8856659;-0.6553345;-;-;-;-;-;-;-;-;-;-;-;-;-;-;-
1514181951633;-;-;9.202606;-0.917984;-0.60624695;-;-;-;-;-;-;-;-;-;-;-;-;-;-;-
1514181951654;-;-;9.222961;-0.90960693;-0.6182251;-;-;-;-;-;-;-;-;-;-;-;-;-;-;-
1514181951675;-;-;9.220566;-0.91319275;-0.5691376;-;-;-;-;-;-;-;-;-;-;-;-;-;-;-
1514181951695;-;-;9.195419;-0.90122986;-0.5715332;-;-;-;-;-;-;-;-;-;-;-;-;-;-;-
1514181951715;-;-;9.15712;-0.9155884;-0.5727234;-;-;-;-;-;-;-;-;-;-;-;-;-;-;-
1514181951736;-;-;9.183456;-0.8976288;-0.6038513;-;-;-;-;-;-;-;-;-;-;-;-;-;-;-
1514181951756;-;-;9.246902;-0.9060211;-0.59906006;-;-;-;-;-;-;-;-;-;-;-;-;-;-;-
1514181951776;-;-;9.25528;-0.9191742;-0.5942688;-;-;-;-;-;-;-;-;-;-;-;-;-;-;-
1514181951796;-;-;9.227737;-0.8868561;-0.57632446;-;-;-;-;-;-;-;-;-;-;-;-;-;-;-
1514181951817;-;-;9.214569;-0.89045715;-0.5942688;-;-;-;-;-;-;-;-;-;-;-;-;-;-;-
1514181951837;-;-;9.175064;-0.89164734;-0.55836487;-;-;-;-;-;-;-;-;-;-;-;-;-;-;-
1514181951858;-;-;9.228943;-0.8748932;-0.57032776;-;-;-;-;-;-;-;-;-;-;-;-;-;-;-
1514181951877;-;-;9.23732;-0.89404297;-0.67448425;-;-;-;-;-;-;-;-;-;-;-;-;-;-;-
1514181951897;-;-;9.233734;-0.8497467;-0.6194153;-;-;-;-;-;-;-;-;-;-;-;-;-;-;-
1514181951917;-;-;9.226547;-0.8772888;-0.6122284;-;-;-;-;-;-;-;-;-;-;-;-;-;-;-
1514181951938;-;-;9.153519;-0.8880615;-0.5439911;-;-;-;-;-;-;-;-;-;-;-;-;-;-;-
1514181951958;-;-;9.118805;-0.90960693;-0.5032959;-;-;-;-;-;-;-;-;-;-;-;-;-;-;-
1514181951979;-;-;9.148727;-0.9155884;-0.5787201;-;-;-;-;-;-;-;-;-;-;-;-;-;-;-
1514181951999;-;-;9.163101;-0.89404297;-0.53681946;-;-;-;-;-;-;-;-;-;-;-;-;-;-;-
1514181952018;-;-;9.293579;-0.92996216;-0.51527405;-;-;-;-;-;-;-;-;-;-;-;-;-;-;-
1514181952039;-;-;9.402527;-0.8593292;-0.5416107;-;-;-;-;-;-;-;-;-;-;-;-;-;-;-
1514181952059;-;-;9.392944;-0.8748932;-0.5463867;-;-;-;-;-;-;-;-;-;-;-;-;-;-;-
1514181952080;-;-;9.327103;-0.86291504;-0.5392151;-;-;-;-;-;-;-;-;-;-;-;-;-;-;-
1514181952099;-;-;9.318726;-0.799469;-0.5679474;-;-;-;-;-;-;-;-;-;-;-;-;-;-;-
1514181952119;-;-;9.2708435;-0.80545044;-0.57032776;-;-;-;-;-;-;-;-;-;-;-;-;-;-;-
1514181952140;-;-;9.272034;-0.81503296;-0.5523834;-;-;-;-;-;-;-;-;-;-;-;-;-;-;-
1514181952160;-;-;9.23732;-0.8353882;-0.55477905;-;-;-;-;-;-;-;-;-;-;-;-;-;-;-
1514181952181;-;-;9.213379;-0.8270111;-0.55955505;-;-;-;-;-;-;-;-;-;-;-;-;-;-;-
1514181952201;-;-;9.159515;-0.86291504;-0.5212555;-;-;-;-;-;-;-;-;-;-;-;-;-;-;-
1514181952222;-;-;9.172684;-0.88087463;-0.5643463;-;-;-;-;-;-;-;-;-;-;-;-;-;-;-
1514181952242;-;-;9.151123;-0.92037964;-0.6014557;-;-;-;-;-;-;-;-;-;-;-;-;-;-;-
1514181952262;-;-;9.1523285;-0.94551086;-0.5858917;-;-;-;-;-;-;-;-;-;-;-;-;-;-;-
1514181952283;-;-;9.136765;-0.9898071;-0.5966644;-;-;-;-;-;-;-;-;-;-;-;-;-;-;-
1514181952304;-;-;9.108032;-0.9479065;-0.6110382;-;-;-;-;-;-;-;-;-;-;-;-;-;-;-
1514181952325;-;-;9.159515;-0.8976288;-0.6002655;-;-;-;-;-;-;-;-;-;-;-;-;-;-;-
1514181952346;-;-;9.195419;-0.9263611;-0.55836487;-;-;-;-;-;-;-;-;-;-;-;-;-;-;-
1514181952366;-;-;9.23613;-0.92996216;-0.58709717;-;-;-;-;-;-;-;-;-;-;-;-;-;-;-
1514181952387;-;-;9.21817;-0.8473511;-0.62420654;-;-;-;-;-;-;-;-;-;-;-;-;-;-;-
1514181952408;-;-;9.202606;-0.8174286;-0.5834961;-;-;-;-;-;-;-;-;-;-;-;-;-;-;-
1514181952428;-;-;9.201401;-0.80426025;-0.5631561;-;-;-;-;-;-;-;-;-;-;-;-;-;-;-
1514181952448;-;-;9.244507;-0.8377838;-0.5499878;-;-;-;-;-;-;-;-;-;-;-;-;-;-;-
1514181952469;-;-;9.262466;-0.8102417;-0.5727234;-;-;-;-;-;-;-;-;-;-;-;-;-;-;-
1514181952489;-;-;9.214569;-0.84376526;-0.54759216;-;-;-;-;-;-;-;-;-;-;-;-;-;-;-
1514181952510;-;-;9.212173;-0.80067444;-0.5499878;-;-;-;-;-;-;-;-;-;-;-;-;-;-;-
1514181952529;-;-;9.251678;-0.76356506;-0.5643463;-;-;-;-;-;-;-;-;-;-;-;-;-;-;-
1514181952550;-;-;9.232529;-0.77433777;-0.6002655;-;-;-;-;-;-;-;-;-;-;-;-;-;-;-
1514181952571;-;-;9.244507;-0.8210144;-0.59906006;-;-;-;-;-;-;-;-;-;-;-;-;-;-;-
1514181952591;-;-;9.228943;-0.86291504;-0.5811157;-;-;-;-;-;-;-;-;-;-;-;-;-;-;-
1514181952611;-;-;9.242111;-0.78990173;-0.5392151;-;-;-;-;-;-;-;-;-;-;-;-;-;-;-
1514181952632;-;-;9.249298;-0.7767334;-0.58470154;-;-;-;-;-;-;-;-;-;-;-;-;-;-;-
1514181952652;-;-;9.233734;-0.7815094;-0.5966644;-;-;-;-;-;-;-;-;-;-;-;-;-;-;-
1514181952673;-;-;9.197815;-0.8461609;-0.5715332;-;-;-;-;-;-;-;-;-;-;-;-;-;-;-
1514181952692;-;-;9.234924;-0.86291504;-0.5463867;-;-;-;-;-;-;-;-;-;-;-;-;-;-;-
1514181952712;-;-;9.228943;-0.9036255;-0.5619507;-;-;-;-;-;-;-;-;-;-;-;-;-;-;-
1514181952734;-;-;9.203796;-0.9036255;-0.55955505;-;-;-;-;-;-;-;-;-;-;-;-;-;-;-
1514181952754;-;-;9.201401;-0.8377838;-0.575119;-;-;-;-;-;-;-;-;-;-;-;-;-;-;-
1514181952774;-;-;9.221756;-0.77552795;-0.62060547;-;-;-;-;-;-;-;-;-;-;-;-;-;-;-
1514181952794;-;-;9.213379;-0.73602295;-0.614624;-;-;-;-;-;-;-;-;-;-;-;-;-;-;-
1514181952815;-;-;9.212173;-0.7886963;-0.5978699;-;-;-;-;-;-;-;-;-;-;-;-;-;-;-
1514181952835;-;-;9.21936;-0.81144714;-0.59906006;-;-;-;-;-;-;-;-;-;-;-;-;-;-;-
1514181952856;-;-;9.230133;-0.7982788;-0.630188;-;-;-;-;-;-;-;-;-;-;-;-;-;-;-
1514181952876;-;-;9.23732;-0.82221985;-0.58828735;-;-;-;-;-;-;-;-;-;-;-;-;-;-;-
1514181952896;-;-;9.243301;-0.82221985;-0.61343384;-;-;-;-;-;-;-;-;-;-;-;-;-;-;-
1514181952917;-;-;9.246902;-0.8425598;-0.60624695;-;-;-;-;-;-;-;-;-;-;-;-;-;-;-
1514181952937;-;-;9.23851;-0.8282013;-0.6086426;-;-;-;-;-;-;-;-;-;-;-;-;-;-;-
1514181952958;-;-;9.246902;-0.8282013;-0.630188;-;-;-;-;-;-;-;-;-;-;-;-;-;-;-
1514181952978;-;-;9.21817;-0.82580566;-0.63616943;-;-;-;-;-;-;-;-;-;-;-;-;-;-;-
1514181952999;-;-;9.209793;-0.83418274;-0.5918884;-;-;-;-;-;-;-;-;-;-;-;-;-;-;-
1514181953020;-;-;9.190628;-0.8102417;-0.61701965;-;-;-;-;-;-;-;-;-;-;-;-;-;-;-
1514181953040;-;-;9.189438;-0.8138428;-0.5942688;-;-;-;-;-;-;-;-;-;-;-;-;-;-;-
1514181953060;-;-;9.23851;-0.8605194;-0.5571594;-;-;-;-;-;-;-;-;-;-;-;-;-;-;-
1514181953081;-;-;9.2313385;-0.86531067;-0.57632446;-;-;-;-;-;-;-;-;-;-;-;-;-;-;-
1514181953102;-;-;9.254074;-0.8461609;-0.5966644;-;-;-;-;-;-;-;-;-;-;-;-;-;-;-
1514181953122;-;-;9.193024;-0.8282013;-0.5942688;-;-;-;-;-;-;-;-;-;-;-;-;-;-;-
1514181953143;-;-;9.160706;-0.86291504;-0.56555176;-;-;-;-;-;-;-;-;-;-;-;-;-;-;-
1514181953163;-;-;9.137955;-0.8892517;-0.5176544;-;-;-;-;-;-;-;-;-;-;-;-;-;-;-
1514181953184;-;-;9.213379;-0.9275665;-0.52005005;-;-;-;-;-;-;-;-;-;-;-;-;-;-;-
1514181953204;-;-;9.172684;-0.96946716;-0.54519653;-;-;-;-;-;-;-;-;-;-;-;-;-;-;-
1514181953225;-;-;9.215775;-0.94192505;-0.5021057;-;-;-;-;-;-;-;-;-;-;-;-;-;-;-
1514181953244;-;-;9.206192;-0.8701019;-0.50927734;-;-;-;-;-;-;-;-;-;-;-;-;-;-;-
1514181953265;-;-;9.196625;-0.8282013;-0.5176544;-;-;-;-;-;-;-;-;-;-;-;-;-;-;-
1514181953285;-;-;9.260071;-0.8138428;-0.5942688;-;-;-;-;-;-;-;-;-;-;-;-;-;-;-
1514181953306;-;-;9.25528;-0.80307007;-0.57032776;-;-;-;-;-;-;-;-;-;-;-;-;-;-;-
1514181953326;-;-;9.287598;-0.8605194;-0.49971008;-;-;-;-;-;-;-;-;-;-;-;-;-;-;-
1514181953346;-;-;9.321121;-0.9359436;-0.4925232;-;-;-;-;-;-;-;-;-;-;-;-;-;-;-
1514181953367;-;-;9.261261;-0.90242004;-0.52604675;-;-;-;-;-;-;-;-;-;-;-;-;-;-;-
1514181953387;-;-;9.187042;-0.90122986;-0.5823059;-;-;-;-;-;-;-;-;-;-;-;-;-;-;-
1514181953408;-;-;9.188232;-0.86531067;-0.5930786;-;-;-;-;-;-;-;-;-;-;-;-;-;-;-
1514181953428;-;-;9.151123;-0.86291504;-0.64933777;-;-;-;-;-;-;-;-;-;-;-;-;-;-;-
1514181953449;-;-;9.181061;-0.88087463;-0.6589203;-;-;-;-;-;-;-;-;-;-;-;-;-;-;-
1514181953468;-;-;9.199005;-0.9143982;-0.6194153;-;-;-;-;-;-;-;-;-;-;-;-;-;-;-
1514181953489;-;-;9.195419;-0.9431305;-0.61343384;-;-;-;-;-;-;-;-;-;-;-;-;-;-;-
1514181953509;-;-;9.153519;-0.9443207;-0.5428009;-;-;-;-;-;-;-;-;-;-;-;-;-;-;-
1514181953529;-;-;9.108032;-0.9107971;-0.5068817;-;-;-;-;-;-;-;-;-;-;-;-;-;-;-
1514181953551;-;-;9.135559;-0.86291504;-0.551178;-;-;-;-;-;-;-;-;-;-;-;-;-;-;-
1514181953571;-;-;9.141556;-0.8533478;-0.5691376;-;-;-;-;-;-;-;-;-;-;-;-;-;-;-
1514181953592;-;-;9.189438;-0.8377838;-0.63616943;-;-;-;-;-;-;-;-;-;-;-;-;-;-;-
1514181953611;-;-;9.199005;-0.86291504;-0.5691376;-;-;-;-;-;-;-;-;-;-;-;-;-;-;-
1514181953631;-;-;9.190628;-0.80545044;-0.5523834;-;-;-;-;-;-;-;-;-;-;-;-;-;-;-
1514181953652;-;-;9.210983;-0.76594543;-0.5607605;-;-;-;-;-;-;-;-;-;-;-;-;-;-;-
1514181953672;-;-;9.193024;-0.75398254;-0.5679474;-;-;-;-;-;-;-;-;-;-;-;-;-;-;-
1514181953693;-;-;9.23851;-0.72883606;-0.6110382;-;-;-;-;-;-;-;-;-;-;-;-;-;-;-
1514181953713;-;-;9.289993;-0.75398254;-0.6589203;-;-;-;-;-;-;-;-;-;-;-;-;-;-;-
1514181953734;-;-;9.273239;-0.7587738;-0.6230011;-;-;-;-;-;-;-;-;-;-;-;-;-;-;-
1514181953755;-;-;9.269638;-0.7587738;-0.630188;-;-;-;-;-;-;-;-;-;-;-;-;-;-;-
1514181953775;-;-;9.240906;-0.7958832;-0.57032776;-;-;-;-;-;-;-;-;-;-;-;-;-;-;-
1514181953796;-;-;9.239716;-0.8413696;-0.59547424;-;-;-;-;-;-;-;-;-;-;-;-;-;-;-
1514181953816;-;-;9.263657;-0.8162384;-0.6661072;-;-;-;-;-;-;-;-;-;-;-;-;-;-;-
1514181953837;-;-;9.260071;-0.81144714;-0.67807007;-;-;-;-;-;-;-;-;-;-;-;-;-;-;-
1514181953857;-;-;9.234924;-0.7695465;-0.6661072;-;-;-;-;-;-;-;-;-;-;-;-;-;-;-
1514181953878;-;-;9.214569;-0.7491913;-0.68167114;-;-;-;-;-;-;-;-;-;-;-;-;-;-;-
1514181953897;-;-;9.227737;-0.77552795;-0.6828613;-;-;-;-;-;-;-;-;-;-;-;-;-;-;-
1514181953918;-;-;9.239716;-0.74679565;-0.72236633;-;-;-;-;-;-;-;-;-;-;-;-;-;-;-
1514181953939;-;-;9.274429;-0.7623596;-0.6984253;-;-;-;-;-;-;-;-;-;-;-;-;-;-;-
1514181953959;-;-;9.260071;-0.7731323;-0.6708832;-;-;-;-;-;-;-;-;-;-;-;-;-;-;-
1514181953980;-;-;9.251678;-0.79707336;-0.630188;-;-;-;-;-;-;-;-;-;-;-;-;-;-;-
1514181953999;-;-;9.23613;-0.8282013;-0.6577301;-;-;-;-;-;-;-;-;-;-;-;-;-;-;-
1514181954019;-;-;9.234924;-0.76356506;-0.69602966;-;-;-;-;-;-;-;-;-;-;-;-;-;-;-
1514181954040;-;-;9.225342;-0.7420044;-0.7283478;-;-;-;-;-;-;-;-;-;-;-;-;-;-;-
1514181954061;-;-;9.233734;-0.7587738;-0.7690582;-;-;-;-;-;-;-;-;-;-;-;-;-;-;-
1514181954080;-;-;9.185837;-0.74679565;-0.7379303;-;-;-;-;-;-;-;-;-;-;-;-;-;-;-
1514181954101;-;-;9.216965;-0.6905365;-0.73553467;-;-;-;-;-;-;-;-;-;-;-;-;-;-;-
1514181954121;-;-;9.202606;-0.7084961;-0.66729736;-;-;-;-;-;-;-;-;-;-;-;-;-;-;-
1514181954142;-;-;9.209793;-0.759964;-0.6900482;-;-;-;-;-;-;-;-;-;-;-;-;-;-;-
1514181954162;-;-;9.244507;-0.7408142;-0.66490173;-;-;-;-;-;-;-;-;-;-;-;-;-;-;-
1514181954183;-;-;9.263657;-0.78990173;-0.6888428;-;-;-;-;-;-;-;-;-;-;-;-;-;-;-
1514181954203;-;-;9.244507;-0.7527771;-0.6840515;-;-;-;-;-;-;-;-;-;-;-;-;-;-;-
1514181954224;-;-;9.233734;-0.8210144;-0.6553345;-;-;-;-;-;-;-;-;-;-;-;-;-;-;-
1514181954244;-;-;9.232529;-0.8473511;-0.6661072;-;-;-;-;-;-;-;-;-;-;-;-;-;-;-
1514181954265;-;-;9.214569;-0.8246155;-0.63856506;-;-;-;-;-;-;-;-;-;-;-;-;-;-;-
1514181954285;-;-;9.209793;-0.7695465;-0.69244385;-;-;-;-;-;-;-;-;-;-;-;-;-;-;-
1514181954306;-;-;9.166687;-0.7515869;-0.71398926;-;-;-;-;-;-;-;-;-;-;-;-;-;-;-
1514181954327;-;-;9.184647;-0.7300415;-0.72595215;-;-;-;-;-;-;-;-;-;-;-;-;-;-;-
1514181954346;-;-;9.166687;-0.71447754;-0.71517944;-;-;-;-;-;-;-;-;-;-;-;-;-;-;-
1514181954367;-;-;9.1918335;-0.7515869;-0.6804657;-;-;-;-;-;-;-;-;-;-;-;-;-;-;-
1514181954386;-;-;9.187042;-0.77552795;-0.6589203;-;-;-;-;-;-;-;-;-;-;-;-;-;-;-
1514181954407;-;-;9.171478;-0.7803192;-0.6708832;-;-;-;-;-;-;-;-;-;-;-;-;-;-;-
1514181954427;-;-;9.187042;-0.7216644;-0.6804657;-;-;-;-;-;-;-;-;-;-;-;-;-;-;-
1514181954448;-;-;9.206192;-0.7336273;-0.6876526;-;-;-;-;-;-;-;-;-;-;-;-;-;-;-
1514181954468;-;-;9.1918335;-0.72525024;-0.7187805;-;-;-;-;-;-;-;-;-;-;-;-;-;-;-
1514181954489;-;-;9.210983;-0.7503967;-0.654129;-;-;-;-;-;-;-;-;-;-;-;-;-;-;-
1514181954510;-;-;9.214569;-0.80426025;-0.61343384;-;-;-;-;-;-;-;-;-;-;-;-;-;-;-
1514181954530;-;-;9.221756;-0.7922821;-0.64216614;-;-;-;-;-;-;-;-;-;-;-;-;-;-;-
1514181954550;-;-;9.222961;-0.7803192;-0.7115936;-;-;-;-;-;-;-;-;-;-;-;-;-;-;-
1514181954571;-;-;9.21936;-0.8102417;-0.6577301;-;-;-;-;-;-;-;-;-;-;-;-;-;-;-
1514181954591;-;-;9.202606;-0.8174286;-0.630188;-;-;-;-;-;-;-;-;-;-;-;-;-;-;-
1514181954612;-;-;9.203796;-0.79467773;-0.6194153;-;-;-;-;-;-;-;-;-;-;-;-;-;-;-
1514181954633;-;-;9.213379;-0.8210144;-0.58828735;-;-;-;-;-;-;-;-;-;-;-;-;-;-;-
1514181954652;-;-;9.208588;-0.8473511;-0.5966644;-;-;-;-;-;-;-;-;-;-;-;-;-;-;-
1514181954673;-;-;9.257675;-0.7922821;-0.6337738;-;-;-;-;-;-;-;-;-;-;-;-;-;-;-
1514181954693;-;-;9.202606;-0.7551727;-0.6409607;-;-;-;-;-;-;-;-;-;-;-;-;-;-;-
1514181954713;-;-;9.203796;-0.7551727;-0.6589203;-;-;-;-;-;-;-;-;-;-;-;-;-;-;-
1514181954734;-;-;9.225342;-0.77433777;-0.60266113;-;-;-;-;-;-;-;-;-;-;-;-;-;-;-
1514181954754;-;-;9.230133;-0.76475525;-0.60743713;-;-;-;-;-;-;-;-;-;-;-;-;-;-;-
1514181954775;-;-;9.234924;-0.7803192;-0.6194153;-;-;-;-;-;-;-;-;-;-;-;-;-;-;-
1514181954796;-;-;9.248093;-0.76356506;-0.6230011;-;-;-;-;-;-;-;-;-;-;-;-;-;-;-
1514181954816;-;-;9.21817;-0.79707336;-0.6553345;-;-;-;-;-;-;-;-;-;-;-;-;-;-;-
1514181954837;-;-;9.228943;-0.7563782;-0.6230011;-;-;-;-;-;-;-;-;-;-;-;-;-;-;-
1514181954857;-;-;9.215775;-0.7922821;-0.5823059;-;-;-;-;-;-;-;-;-;-;-;-;-;-;-
1514181954878;-;-;9.244507;-0.8377838;-0.5930786;-;-;-;-;-;-;-;-;-;-;-;-;-;-;-
1514181954899;-;-;9.208588;-0.76475525;-0.6122284;-;-;-;-;-;-;-;-;-;-;-;-;-;-;-
1514181954919;-;-;9.208588;-0.79348755;-0.62779236;-;-;-;-;-;-;-;-;-;-;-;-;-;-;-
1514181954940;-;-;9.213379;-0.78271484;-0.61343384;-;-;-;-;-;-;-;-;-;-;-;-;-;-;-
1514181954960;-;-;9.210983;-0.76116943;-0.5978699;-;-;-;-;-;-;-;-;-;-;-;-;-;-;-
1514181954981;-;-;9.232529;-0.8066559;-0.6289978;-;-;-;-;-;-;-;-;-;-;-;-;-;-;-
1514181955001;-;-;9.21936;-0.80067444;-0.61701965;-;-;-;-;-;-;-;-;-;-;-;-;-;-;-
1514181955022;-;-;9.170288;-0.81144714;-0.5894928;-;-;-;-;-;-;-;-;-;-;-;-;-;-;-
1514181955043;-;-;9.137955;-0.81503296;-0.5727234;-;-;-;-;-;-;-;-;-;-;-;-;-;-;-
1514181955063;-;-;9.207397;-0.8138428;-0.590683;-;-;-;-;-;-;-;-;-;-;-;-;-;-;-
1514181955084;-;-;9.239716;-0.8186188;-0.64575195;-;-;-;-;-;-;-;-;-;-;-;-;-;-;-
1514181955104;-;-;9.250488;-0.7910919;-0.6409607;-;-;-;-;-;-;-;-;-;-;-;-;-;-;-
1514181955125;-;-;9.257675;-0.8090515;-0.58828735;-;-;-;-;-;-;-;-;-;-;-;-;-;-;-
1514181955145;-;-;9.2313385;-0.7731323;-0.5344238;-;-;-;-;-;-;-;-;-;-;-;-;-;-;-
1514181955166;-;-;9.197815;-0.76356506;-0.6182251;-;-;-;-;-;-;-;-;-;-;-;-;-;-;-
1514181955187;-;-;9.240906;-0.7767334;-0.6625061;-;-;-;-;-;-;-;-;-;-;-;-;-;-;-
1514181955207;-;-;9.263657;-0.81144714;-0.6397705;-;-;-;-;-;-;-;-;-;-;-;-;-;-;-
1514181955228;-;-;9.225342;-0.8641205;-0.5918884;-;-;-;-;-;-;-;-;-;-;-;-;-;-;-
1514181955248;-;-;9.23851;-0.8605194;-0.58470154;-;-;-;-;-;-;-;-;-;-;-;-;-;-;-
1514181955269;-;-;9.170288;-0.8413696;-0.56674194;-;-;-;-;-;-;-;-;-;-;-;-;-;-;-
1514181955288;-;-;9.189438;-0.81144714;-0.5930786;-;-;-;-;-;-;-;-;-;-;-;-;-;-;-
1514181955308;-;-;9.208588;-0.77433777;-0.6014557;-;-;-;-;-;-;-;-;-;-;-;-;-;-;-
1514181955329;-;-;9.23851;-0.7851105;-0.62420654;-;-;-;-;-;-;-;-;-;-;-;-;-;-;-
1514181955349;-;-;9.226547;-0.80426025;-0.6218109;-;-;-;-;-;-;-;-;-;-;-;-;-;-;-
1514181955370;-;-;9.216965;-0.8198242;-0.6122284;-;-;-;-;-;-;-;-;-;-;-;-;-;-;-
1514181955391;-;-;9.200211;-0.8138428;-0.5631561;-;-;-;-;-;-;-;-;-;-;-;-;-;-;-
1514181955410;-;-;9.215775;-0.79467773;-0.5894928;-;-;-;-;-;-;-;-;-;-;-;-;-;-;-
1514181955431;-;-;9.202606;-0.8066559;-0.60505676;-;-;-;-;-;-;-;-;-;-;-;-;-;-;-
1514181955451;-;-;9.226547;-0.77911377;-0.6505432;-;-;-;-;-;-;-;-;-;-;-;-;-;-;-
1514181955472;-;-;9.222961;-0.77433777;-0.6086426;-;-;-;-;-;-;-;-;-;-;-;-;-;-;-
1514181955492;-;-;9.232529;-0.78990173;-0.6373749;-;-;-;-;-;-;-;-;-;-;-;-;-;-;-
1514181955513;-;-;9.240906;-0.7851105;-0.6505432;-;-;-;-;-;-;-;-;-;-;-;-;-;-;-
1514181955533;-;-;9.244507;-0.7779236;-0.63616943;-;-;-;-;-;-;-;-;-;-;-;-;-;-;-
1514181955554;-;-;9.212173;-0.7444;-0.62420654;-;-;-;-;-;-;-;-;-;-;-;-;-;-;-
1514181955573;-;-;9.221756;-0.79467773;-0.62060547;-;-;-;-;-;-;-;-;-;-;-;-;-;-;-
1514181955593;-;-;9.200211;-0.80307007;-0.62060547;-;-;-;-;-;-;-;-;-;-;-;-;-;-;-
1514181955613;-;-;9.242111;-0.8102417;-0.61701965;-;-;-;-;-;-;-;-;-;-;-;-;-;-;-
1514181955634;-;-;9.23851;-0.80307007;-0.6014557;-;-;-;-;-;-;-;-;-;-;-;-;-;-;-
1514181955653;-;-;9.203796;-0.82341003;-0.61701965;-;-;-;-;-;-;-;-;-;-;-;-;-;-;-
1514181955673;-;-;9.170288;-0.8186188;-0.63856506;-;-;-;-;-;-;-;-;-;-;-;-;-;-;-
1514181955694;-;-;9.154724;-0.84376526;-0.6194153;-;-;-;-;-;-;-;-;-;-;-;-;-;-;-
1514181955714;-;-;9.182251;-0.8377838;-0.6289978;-;-;-;-;-;-;-;-;-;-;-;-;-;-;-
1514181955735;-;-;9.257675;-0.80307007;-0.7127838;-;-;-;-;-;-;-;-;-;-;-;-;-;-;-
1514181955755;-;-;9.263657;-0.76594543;-0.6768799;-;-;-;-;-;-;-;-;-;-;-;-;-;-;-
1514181955776;-;-;9.230133;-0.7875061;-0.61701965;-;-;-;-;-;-;-;-;-;-;-;-;-;-;-
1514181955796;-;-;9.1918335;-0.79467773;-0.60624695;-;-;-;-;-;-;-;-;-;-;-;-;-;-;-
1514181955817;-;-;9.163101;-0.7695465;-0.74391174;-;-;-;-;-;-;-;-;-;-;-;-;-;-;-
1514181955838;-;-;9.209793;-0.7767334;-0.7056122;-;-;-;-;-;-;-;-;-;-;-;-;-;-;-
1514181955857;-;-;9.209793;-0.80426025;-0.6708832;-;-;-;-;-;-;-;-;-;-;-;-;-;-;-
1514181955878;-;-;9.215775;-0.82341003;-0.67567444;-;-;-;-;-;-;-;-;-;-;-;-;-;-;-
1514181955898;-;-;9.21817;-0.82580566;-0.6589203;-;-;-;-;-;-;-;-;-;-;-;-;-;-;-
1514181955919;-;-;9.195419;-0.8317871;-0.6337738;-;-;-;-;-;-;-;-;-;-;-;-;-;-;-
1514181955939;-;-;9.213379;-0.8569336;-0.64216614;-;-;-;-;-;-;-;-;-;-;-;-;-;-;-
1514181955960;-;-;9.216965;-0.8305969;-0.7056122;-;-;-;-;-;-;-;-;-;-;-;-;-;-;-
1514181955981;-;-;9.216965;-0.7851105;-0.6840515;-;-;-;-;-;-;-;-;-;-;-;-;-;-;-
1514181956001;-;-;9.216965;-0.80545044;-0.67807007;-;-;-;-;-;-;-;-;-;-;-;-;-;-;-
1514181956022;-;-;9.213379;-0.8246155;-0.65293884;-;-;-;-;-;-;-;-;-;-;-;-;-;-;-
1514181956042;-;-;9.222961;-0.82940674;-0.64933777;-;-;-;-;-;-;-;-;-;-;-;-;-;-;-
