TimeStamp[ms];Prox[Cm];Lux[lux];AccX[m/s^2];AccY[m/s^2];AccZ[m/s^2];GyroX[rad/s];GyroY[rad/s];GyroZ[rad/s];MagnX[uT];MagnY[uT];MagnZ[uT];OrienYaw[degrees];OrienPitch[degrees];OrienRoll[degrees];Press[Pa];Temp[C°];Batt[%];Lat;Lng;Speed[m/s]
1514181644858;-;-;8.1527405;-1.3357697;3.6650085;-;-;-;-;-;-;-;-;-;-;-;-;-;-;-
1514181644888;-;-;7.971985;-1.2316284;3.3226318;-;-;-;-;-;-;-;-;-;-;-;-;-;-;-
1514181644895;-;-;8.033035;-1.2388;3.240036;-;-;-;-;-;-;-;-;-;-;-;-;-;-;-
1514181644915;-;-;8.413712;-1.3022614;3.2687683;-;-;-;-;-;-;-;-;-;-;-;-;-;-;-
1514181644934;-;-;8.829102;-1.1346588;3.2364502;-;-;-;-;-;-;-;-;-;-;-;-;-;-;-
1514181644955;-;-;8.924881;-0.89045715;2.7671814;-;-;-;-;-;-;-;-;-;-;-;-;-;-;-
1514181644974;-;-;8.975159;-0.7336273;2.3481903;-;-;-;-;-;-;-;-;-;-;-;-;-;-;-
1514181644995;-;-;8.838684;-0.8712921;2.7647858;-;-;-;-;-;-;-;-;-;-;-;-;-;-;-
1514181645015;-;-;8.704605;-0.9359436;2.244049;-;-;-;-;-;-;-;-;-;-;-;-;-;-;-
1514181645036;-;-;8.668701;-1.0819855;2.0513153;-;-;-;-;-;-;-;-;-;-;-;-;-;-;-
1514181645056;-;-;8.64595;-1.0329132;1.8657684;-;-;-;-;-;-;-;-;-;-;-;-;-;-;-
1514181645077;-;-;8.624405;-1.175354;1.4982605;-;-;-;-;-;-;-;-;-;-;-;-;-;-;-
1514181645097;-;-;9.80954;-2.6884918;-5.2486115;-;-;-;-;-;-;-;-;-;-;-;-;-;-;-
1514181645118;-;-;8.654327;-0.3697052;2.0980072;-;-;-;-;-;-;-;-;-;-;-;-;-;-;-
1514181645138;-;-;10.830658;0.9650574;2.872528;-;-;-;-;-;-;-;-;-;-;-;-;-;-;-
1514181645159;-;-;10.63913;0.6023407;1.4527588;-;-;-;-;-;-;-;-;-;-;-;-;-;-;-
1514181645179;-;-;9.974731;-0.21887207;0.9595642;-;-;-;-;-;-;-;-;-;-;-;-;-;-;-
1514181645200;-;-;9.178665;-0.5157623;1.236084;-;-;-;-;-;-;-;-;-;-;-;-;-;-;-
1514181645219;-;-;9.197815;-0.3361969;1.3019257;-;-;-;-;-;-;-;-;-;-;-;-;-;-;-
1514181645240;-;-;8.138382;-0.7851105;0.69021606;-;-;-;-;-;-;-;-;-;-;-;-;-;-;-
1514181645259;-;-;8.971558;-1.0113525;0.68782043;-;-;-;-;-;-;-;-;-;-;-;-;-;-;-
1514181645280;-;-;9.267242;-1.012558;0.7440796;-;-;-;-;-;-;-;-;-;-;-;-;-;-;-
1514181645302;-;-;9.330688;-0.7803192;0.9320221;-;-;-;-;-;-;-;-;-;-;-;-;-;-;-
1514181645321;-;-;9.738907;-1.1837463;0.87457275;-;-;-;-;-;-;-;-;-;-;-;-;-;-;-
1514181645342;-;-;9.69342;-1.0305176;0.3885498;-;-;-;-;-;-;-;-;-;-;-;-;-;-;-
1514181645362;-;-;10.161484;-1.4506989;0.5010681;-;-;-;-;-;-;-;-;-;-;-;-;-;-;-
1514181645382;-;-;9.689819;-1.0628357;0.53338623;-;-;-;-;-;-;-;-;-;-;-;-;-;-;-
1514181645402;-;-;8.771652;-0.45350647;0.47712708;-;-;-;-;-;-;-;-;-;-;-;-;-;-;-
1514181645423;-;-;9.209793;-0.27633667;0.21138;-;-;-;-;-;-;-;-;-;-;-;-;-;-;-
1514181645444;-;-;8.789597;-0.68574524;0.29397583;-;-;-;-;-;-;-;-;-;-;-;-;-;-;-
1514181645463;-;-;8.995499;-0.6438446;0.33946228;-;-;-;-;-;-;-;-;-;-;-;-;-;-;-
1514181645484;-;-;8.896149;-0.5432892;0.1826477;-;-;-;-;-;-;-;-;-;-;-;-;-;-;-
1514181645504;-;-;8.930862;-0.20092773;0.13476563;-;-;-;-;-;-;-;-;-;-;-;-;-;-;-
1514181645524;-;-;9.438431;0.1558075;0.03779602;-;-;-;-;-;-;-;-;-;-;-;-;-;-;-
1514181645545;-;-;9.738907;0.13546753;-0.44224548;-;-;-;-;-;-;-;-;-;-;-;-;-;-;-
1514181645564;-;-;9.637146;-0.19732666;-0.69363403;-;-;-;-;-;-;-;-;-;-;-;-;-;-;-
1514181645586;-;-;9.155914;0.010971069;-0.25909424;-;-;-;-;-;-;-;-;-;-;-;-;-;-;-
1514181645605;-;-;9.154724;-0.7910919;0.16708374;-;-;-;-;-;-;-;-;-;-;-;-;-;-;-
1514181645626;-;-;8.502304;-0.29190063;-0.35365295;-;-;-;-;-;-;-;-;-;-;-;-;-;-;-
1514181645646;-;-;8.58609;-0.26316833;-0.47816467;-;-;-;-;-;-;-;-;-;-;-;-;-;-;-
1514181645666;-;-;9.513855;-0.22845459;-0.097473145;-;-;-;-;-;-;-;-;-;-;-;-;-;-;-
1514181645687;-;-;9.79277;-0.88446045;-0.417099;-;-;-;-;-;-;-;-;-;-;-;-;-;-;-
1514181645708;-;-;8.423294;-1.4686584;-0.44703674;-;-;-;-;-;-;-;-;-;-;-;-;-;-;-
1514181645728;-;-;9.981918;-1.4554901;-0.5439911;-;-;-;-;-;-;-;-;-;-;-;-;-;-;-
1514181645748;-;-;10.940796;-1.190918;-1.4250641;-;-;-;-;-;-;-;-;-;-;-;-;-;-;-
1514181645769;-;-;8.770447;-0.30506897;0.07369995;-;-;-;-;-;-;-;-;-;-;-;-;-;-;-
1514181645789;-;-;9.178665;-0.6330719;-0.5930786;-;-;-;-;-;-;-;-;-;-;-;-;-;-;-
1514181645809;-;-;9.628769;-0.32781982;-1.4130859;-;-;-;-;-;-;-;-;-;-;-;-;-;-;-
1514181645830;-;-;10.001068;-0.14944458;-0.28901672;-;-;-;-;-;-;-;-;-;-;-;-;-;-;-
1514181645850;-;-;9.71257;-0.19732666;-0.44943237;-;-;-;-;-;-;-;-;-;-;-;-;-;-;-
1514181645871;-;-;8.896149;-0.19972229;-0.40872192;-;-;-;-;-;-;-;-;-;-;-;-;-;-;-
1514181645891;-;-;8.40892;-0.25479126;-0.43984985;-;-;-;-;-;-;-;-;-;-;-;-;-;-;-
1514181645912;-;-;7.0454254;-0.81503296;-1.3472595;-;-;-;-;-;-;-;-;-;-;-;-;-;-;-
1514181645932;-;-;7.858261;-1.0819855;-1.4765472;-;-;-;-;-;-;-;-;-;-;-;-;-;-;-
1514181645953;-;-;8.971558;-1.3848572;-4.2765656;-;-;-;-;-;-;-;-;-;-;-;-;-;-;-
1514181645973;-;-;10.2357025;-1.6422272;-3.8934937;-;-;-;-;-;-;-;-;-;-;-;-;-;-;-
1514181645994;-;-;11.520187;-1.8170013;-4.8978577;-;-;-;-;-;-;-;-;-;-;-;-;-;-;-
1514181646013;-;-;9.517441;-1.1442413;-3.38591;-;-;-;-;-;-;-;-;-;-;-;-;-;-;-
1514181646034;-;-;8.951218;-0.51097107;-2.021225;-;-;-;-;-;-;-;-;-;-;-;-;-;-;-
1514181646055;-;-;9.726929;-1.0005798;-1.5244293;-;-;-;-;-;-;-;-;-;-;-;-;-;-;-
1514181646075;-;-;10.751648;-1.273529;-1.5878754;-;-;-;-;-;-;-;-;-;-;-;-;-;-;-
1514181646095;-;-;8.199432;-0.63427734;-0.35725403;-;-;-;-;-;-;-;-;-;-;-;-;-;-;-
1514181646116;-;-;8.041412;-0.58877563;-1.7997589;-;-;-;-;-;-;-;-;-;-;-;-;-;-;-
1514181646136;-;-;7.556595;-1.0041809;-1.7267303;-;-;-;-;-;-;-;-;-;-;-;-;-;-;-
1514181646157;-;-;9.341461;-0.9898071;-2.5682983;-;-;-;-;-;-;-;-;-;-;-;-;-;-;-
1514181646177;-;-;8.669891;-1.0556488;-0.41471863;-;-;-;-;-;-;-;-;-;-;-;-;-;-;-
1514181646197;-;-;8.247314;-1.3908386;-0.44224548;-;-;-;-;-;-;-;-;-;-;-;-;-;-;-
1514181646218;-;-;9.056564;-0.8126373;-1.001297;-;-;-;-;-;-;-;-;-;-;-;-;-;-;-
1514181646239;-;-;7.869034;-1.1717682;-0.022064209;-;-;-;-;-;-;-;-;-;-;-;-;-;-;-
1514181646258;-;-;9.595245;-1.6601868;-0.72476196;-;-;-;-;-;-;-;-;-;-;-;-;-;-;-
1514181646279;-;-;8.373016;-1.4303436;-0.55955505;-;-;-;-;-;-;-;-;-;-;-;-;-;-;-
1514181646300;-;-;7.724182;-1.0891724;-0.37042236;-;-;-;-;-;-;-;-;-;-;-;-;-;-;-
1514181646320;-;-;7.4716034;-0.5923767;-1.8500366;-;-;-;-;-;-;-;-;-;-;-;-;-;-;-
1514181646340;-;-;10.791153;-1.467453;-1.045578;-;-;-;-;-;-;-;-;-;-;-;-;-;-;-
1514181646361;-;-;10.129166;-2.8058167;-0.6337738;-;-;-;-;-;-;-;-;-;-;-;-;-;-;-
1514181646381;-;-;10.469131;-3.9370728;-0.53800964;-;-;-;-;-;-;-;-;-;-;-;-;-;-;-
1514181646401;-;-;10.897705;-5.3664093;-0.2351532;-;-;-;-;-;-;-;-;-;-;-;-;-;-;-
1514181646422;-;-;10.500259;-5.8691864;0.4040985;-;-;-;-;-;-;-;-;-;-;-;-;-;-;-
1514181646441;-;-;10.247665;-7.36557;0.9212494;-;-;-;-;-;-;-;-;-;-;-;-;-;-;-
1514181646462;-;-;8.34668;-3.040451;-1.3233032;-;-;-;-;-;-;-;-;-;-;-;-;-;-;-
1514181646482;-;-;7.688278;-4.26149;-1.7099762;-;-;-;-;-;-;-;-;-;-;-;-;-;-;-
1514181646503;-;-;7.841507;-3.1122742;-1.143753;-;-;-;-;-;-;-;-;-;-;-;-;-;-;-
1514181646524;-;-;6.8910065;-2.4035797;-0.5571594;-;-;-;-;-;-;-;-;-;-;-;-;-;-;-
1514181646544;-;-;7.4500427;-1.9079895;-0.5631561;-;-;-;-;-;-;-;-;-;-;-;-;-;-;-
1514181646565;-;-;7.7493286;-0.95988464;-0.9761505;-;-;-;-;-;-;-;-;-;-;-;-;-;-;-
1514181646584;-;-;9.264847;-1.7787018;-2.1959991;-;-;-;-;-;-;-;-;-;-;-;-;-;-;-
1514181646605;-;-;9.668274;-4.285431;-1.4394226;-;-;-;-;-;-;-;-;-;-;-;-;-;-;-
1514181646625;-;-;9.212173;-0.24760437;-2.076294;-;-;-;-;-;-;-;-;-;-;-;-;-;-;-
1514181646645;-;-;7.971985;1.532486;-2.0116425;-;-;-;-;-;-;-;-;-;-;-;-;-;-;-
1514181646665;-;-;7.561386;2.9498444;-0.8097534;-;-;-;-;-;-;-;-;-;-;-;-;-;-;-
1514181646686;-;-;8.4687805;1.1206818;-0.69244385;-;-;-;-;-;-;-;-;-;-;-;-;-;-;-
1514181646706;-;-;8.941635;1.2236328;-1.9769287;-;-;-;-;-;-;-;-;-;-;-;-;-;-;-
1514181646728;-;-;9.200211;1.829361;-2.522812;-;-;-;-;-;-;-;-;-;-;-;-;-;-;-
1514181646747;-;-;10.030991;1.9311218;-2.0475616;-;-;-;-;-;-;-;-;-;-;-;-;-;-;-
1514181646767;-;-;10.203384;0.9961853;-2.2606354;-;-;-;-;-;-;-;-;-;-;-;-;-;-;-
1514181646788;-;-;9.975937;0.2348175;-2.693985;-;-;-;-;-;-;-;-;-;-;-;-;-;-;-
1514181646807;-;-;10.18782;-0.9646759;-1.6010437;-;-;-;-;-;-;-;-;-;-;-;-;-;-;-
1514181646827;-;-;11.091629;-1.5297089;-1.90271;-;-;-;-;-;-;-;-;-;-;-;-;-;-;-
1514181646848;-;-;10.102829;-1.9642487;-0.50808716;-;-;-;-;-;-;-;-;-;-;-;-;-;-;-
1514181646868;-;-;9.345062;-1.0688171;-0.026855469;-;-;-;-;-;-;-;-;-;-;-;-;-;-;-
1514181646889;-;-;8.332306;-0.32182312;-0.15853882;-;-;-;-;-;-;-;-;-;-;-;-;-;-;-
1514181646909;-;-;8.236542;0.048080444;-0.8660126;-;-;-;-;-;-;-;-;-;-;-;-;-;-;-
1514181646930;-;-;8.888962;0.08039856;-0.51885986;-;-;-;-;-;-;-;-;-;-;-;-;-;-;-
1514181646950;-;-;8.061768;0.7735138;-3.614563;-;-;-;-;-;-;-;-;-;-;-;-;-;-;-
1514181646971;-;-;9.416885;0.30784607;-1.2419128;-;-;-;-;-;-;-;-;-;-;-;-;-;-;-
1514181646991;-;-;9.246902;0.07321167;-2.2654266;-;-;-;-;-;-;-;-;-;-;-;-;-;-;-
1514181647013;-;-;9.066132;-0.02973938;-1.7518768;-;-;-;-;-;-;-;-;-;-;-;-;-;-;-
1514181647034;-;-;9.306747;-0.02255249;-2.1672668;-;-;-;-;-;-;-;-;-;-;-;-;-;-;-
1514181647054;-;-;8.874603;0.3102417;-1.377182;-;-;-;-;-;-;-;-;-;-;-;-;-;-;-
1514181647074;-;-;8.871002;0.048080444;-1.9769287;-;-;-;-;-;-;-;-;-;-;-;-;-;-;-
1514181647094;-;-;9.23851;-0.45350647;-2.5455475;-;-;-;-;-;-;-;-;-;-;-;-;-;-;-
1514181647115;-;-;9.608414;-0.49899292;-1.9649506;-;-;-;-;-;-;-;-;-;-;-;-;-;-;-
1514181647135;-;-;9.288788;-0.34457397;-2.096634;-;-;-;-;-;-;-;-;-;-;-;-;-;-;-
1514181647156;-;-;8.750107;0.5484619;-2.1780396;-;-;-;-;-;-;-;-;-;-;-;-;-;-;-
1514181647177;-;-;8.589691;0.41079712;-2.2163544;-;-;-;-;-;-;-;-;-;-;-;-;-;-;-
1514181647197;-;-;8.690247;0.086380005;-1.069519;-;-;-;-;-;-;-;-;-;-;-;-;-;-;-
1514181647218;-;-;8.261688;-0.45948792;-0.6888428;-;-;-;-;-;-;-;-;-;-;-;-;-;-;-
1514181647238;-;-;8.735733;-0.70610046;-0.46499634;-;-;-;-;-;-;-;-;-;-;-;-;-;-;-
1514181647259;-;-;8.960785;-0.75756836;-0.22317505;-;-;-;-;-;-;-;-;-;-;-;-;-;-;-
1514181647279;-;-;9.221756;-1.0556488;-1.2095795;-;-;-;-;-;-;-;-;-;-;-;-;-;-;-
1514181647300;-;-;9.406113;-1.1825409;-1.0515747;-;-;-;-;-;-;-;-;-;-;-;-;-;-;-
1514181647320;-;-;9.736511;-1.5895538;-0.83369446;-;-;-;-;-;-;-;-;-;-;-;-;-;-;-
1514181647340;-;-;9.542587;-1.4961853;-0.56555176;-;-;-;-;-;-;-;-;-;-;-;-;-;-;-
1514181647361;-;-;9.285202;-1.1681824;-0.65293884;-;-;-;-;-;-;-;-;-;-;-;-;-;-;-
1514181647382;-;-;9.495895;-1.0029755;-0.9079132;-;-;-;-;-;-;-;-;-;-;-;-;-;-;-
1514181647401;-;-;8.903336;-0.8305969;-1.3125305;-;-;-;-;-;-;-;-;-;-;-;-;-;-;-
1514181647422;-;-;8.339493;-0.9443207;-1.98172;-;-;-;-;-;-;-;-;-;-;-;-;-;-;-
1514181647442;-;-;8.588486;-0.08958435;-3.135727;-;-;-;-;-;-;-;-;-;-;-;-;-;-;-
1514181647462;-;-;10.051346;0.3497467;-4.8978577;-;-;-;-;-;-;-;-;-;-;-;-;-;-;-
1514181647483;-;-;9.205002;-0.100372314;-1.9517822;-;-;-;-;-;-;-;-;-;-;-;-;-;-;-
1514181647503;-;-;7.446457;-0.2859192;-3.895874;-;-;-;-;-;-;-;-;-;-;-;-;-;-;-
1514181647524;-;-;8.277252;-1.7787018;-1.8332825;-;-;-;-;-;-;-;-;-;-;-;-;-;-;-
1514181647544;-;-;8.210205;-1.4159851;-2.6532898;-;-;-;-;-;-;-;-;-;-;-;-;-;-;-
1514181647565;-;-;10.035782;0.12588501;-2.8532104;-;-;-;-;-;-;-;-;-;-;-;-;-;-;-
1514181647585;-;-;10.934814;1.2368011;-2.3995056;-;-;-;-;-;-;-;-;-;-;-;-;-;-;-
1514181647606;-;-;10.221344;1.6150818;-1.9673462;-;-;-;-;-;-;-;-;-;-;-;-;-;-;-
1514181647627;-;-;9.55336;0.9087982;-1.1928253;-;-;-;-;-;-;-;-;-;-;-;-;-;-;-
1514181647647;-;-;9.228943;-0.083602905;-1.0360107;-;-;-;-;-;-;-;-;-;-;-;-;-;-;-
1514181647667;-;-;9.333084;-1.0305176;-1.282608;-;-;-;-;-;-;-;-;-;-;-;-;-;-;-
1514181647688;-;-;9.382172;-1.4207611;-1.4837189;-;-;-;-;-;-;-;-;-;-;-;-;-;-;-
1514181647708;-;-;9.1523285;-0.99220276;-1.6177979;-;-;-;-;-;-;-;-;-;-;-;-;-;-;-
1514181647729;-;-;8.867416;-0.68574524;-1.5459747;-;-;-;-;-;-;-;-;-;-;-;-;-;-;-
1514181647749;-;-;8.689041;-0.6869507;-1.2048035;-;-;-;-;-;-;-;-;-;-;-;-;-;-;-
1514181647769;-;-;8.797989;-0.7982788;-1.1700745;-;-;-;-;-;-;-;-;-;-;-;-;-;-;-
1514181647790;-;-;8.824326;-0.81503296;-1.447815;-;-;-;-;-;-;-;-;-;-;-;-;-;-;-
1514181647810;-;-;8.849457;-0.84376526;-1.9290466;-;-;-;-;-;-;-;-;-;-;-;-;-;-;-
1514181647831;-;-;8.871002;-0.89404297;-2.1588898;-;-;-;-;-;-;-;-;-;-;-;-;-;-;-
1514181647851;-;-;8.856644;-1.0532532;-2.4773102;-;-;-;-;-;-;-;-;-;-;-;-;-;-;-
1514181647872;-;-;8.849457;-0.9826355;-2.2905731;-;-;-;-;-;-;-;-;-;-;-;-;-;-;-
1514181647892;-;-;8.942825;-0.94073486;-2.215149;-;-;-;-;-;-;-;-;-;-;-;-;-;-;-
1514181647913;-;-;9.055359;-0.7623596;-2.47612;-;-;-;-;-;-;-;-;-;-;-;-;-;-;-
1514181647933;-;-;9.143951;-0.45829773;-2.665268;-;-;-;-;-;-;-;-;-;-;-;-;-;-;-
1514181647954;-;-;9.067337;0.04208374;-2.852005;-;-;-;-;-;-;-;-;-;-;-;-;-;-;-
1514181647974;-;-;8.885376;0.3138275;-2.4629517;-;-;-;-;-;-;-;-;-;-;-;-;-;-;-
1514181647995;-;-;8.727356;0.28988647;-1.9326324;-;-;-;-;-;-;-;-;-;-;-;-;-;-;-
1514181648015;-;-;8.838684;-0.052474976;-1.8021545;-;-;-;-;-;-;-;-;-;-;-;-;-;-;-
1514181648036;-;-;9.200211;-0.29071045;-1.7422943;-;-;-;-;-;-;-;-;-;-;-;-;-;-;-
1514181648057;-;-;9.305557;-0.5133667;-1.9062958;-;-;-;-;-;-;-;-;-;-;-;-;-;-;-
1514181648077;-;-;9.23732;-0.9036255;-1.9888916;-;-;-;-;-;-;-;-;-;-;-;-;-;-;-
1514181648097;-;-;9.23613;-1.2986603;-1.8787689;-;-;-;-;-;-;-;-;-;-;-;-;-;-;-
1514181648117;-;-;9.074509;-1.6242676;-1.6788483;-;-;-;-;-;-;-;-;-;-;-;-;-;-;-
1514181648138;-;-;9.183456;-1.7739105;-1.777008;-;-;-;-;-;-;-;-;-;-;-;-;-;-;-
1514181648159;-;-;9.206192;-1.7020874;-1.8572235;-;-;-;-;-;-;-;-;-;-;-;-;-;-;-
1514181648179;-;-;9.210983;-1.451889;-2.093048;-;-;-;-;-;-;-;-;-;-;-;-;-;-;-
1514181648200;-;-;8.866211;-1.0879669;-2.1576843;-;-;-;-;-;-;-;-;-;-;-;-;-;-;-
1514181648220;-;-;8.74292;-0.8425598;-2.172058;-;-;-;-;-;-;-;-;-;-;-;-;-;-;-
1514181648241;-;-;8.72377;-0.6701813;-2.2989502;-;-;-;-;-;-;-;-;-;-;-;-;-;-;-
1514181648260;-;-;8.574127;-0.58877563;-1.9206696;-;-;-;-;-;-;-;-;-;-;-;-;-;-;-
1514181648281;-;-;8.675873;-0.50857544;-1.7482758;-;-;-;-;-;-;-;-;-;-;-;-;-;-;-
1514181648301;-;-;8.972763;-0.6246948;-1.7243347;-;-;-;-;-;-;-;-;-;-;-;-;-;-;-
1514181648322;-;-;9.224152;-0.6618042;-2.203186;-;-;-;-;-;-;-;-;-;-;-;-;-;-;-
1514181648342;-;-;8.950012;-0.25120544;-2.752655;-;-;-;-;-;-;-;-;-;-;-;-;-;-;-
1514181648363;-;-;8.64476;0.24559021;-2.6401215;-;-;-;-;-;-;-;-;-;-;-;-;-;-;-
1514181648383;-;-;8.8051605;0.2707367;-2.3468323;-;-;-;-;-;-;-;-;-;-;-;-;-;-;-
1514181648403;-;-;9.305557;-0.021362305;-2.175644;-;-;-;-;-;-;-;-;-;-;-;-;-;-;-
1514181648425;-;-;9.707779;-0.35534668;-1.9805145;-;-;-;-;-;-;-;-;-;-;-;-;-;-;-
1514181648444;-;-;9.589264;-0.66539;-1.9086914;-;-;-;-;-;-;-;-;-;-;-;-;-;-;-
1514181648465;-;-;9.181061;-0.7408142;-2.0116425;-;-;-;-;-;-;-;-;-;-;-;-;-;-;-
1514181648486;-;-;8.857834;-0.5600586;-2.1744537;-;-;-;-;-;-;-;-;-;-;-;-;-;-;-
1514181648507;-;-;8.796783;-0.3002777;-2.2139587;-;-;-;-;-;-;-;-;-;-;-;-;-;-;-
1514181648527;-;-;8.378998;-0.12908936;-2.2438812;-;-;-;-;-;-;-;-;-;-;-;-;-;-;-
1514181648547;-;-;9.030228;-0.09916687;-2.1385345;-;-;-;-;-;-;-;-;-;-;-;-;-;-;-
1514181648568;-;-;8.824326;-0.33738708;-2.1038208;-;-;-;-;-;-;-;-;-;-;-;-;-;-;-
1514181648588;-;-;9.008667;-0.5744171;-2.1936035;-;-;-;-;-;-;-;-;-;-;-;-;-;-;-
1514181648609;-;-;9.091278;-0.6713867;-2.1672668;-;-;-;-;-;-;-;-;-;-;-;-;-;-;-
1514181648629;-;-;9.194229;-0.73243713;-2.0272064;-;-;-;-;-;-;-;-;-;-;-;-;-;-;-
1514181648649;-;-;9.147537;-0.85095215;-2.0427704;-;-;-;-;-;-;-;-;-;-;-;-;-;-;-
1514181648670;-;-;8.997894;-0.8988342;-1.9685516;-;-;-;-;-;-;-;-;-;-;-;-;-;-;-
1514181648691;-;-;8.941635;-0.94911194;-1.9960785;-;-;-;-;-;-;-;-;-;-;-;-;-;-;-
1514181648710;-;-;8.914108;-0.9395294;-1.9757233;-;-;-;-;-;-;-;-;-;-;-;-;-;-;-
1514181648731;-;-;8.9392395;-0.86531067;-1.9517822;-;-;-;-;-;-;-;-;-;-;-;-;-;-;-
1514181648751;-;-;8.9991;-0.7875061;-2.045166;-;-;-;-;-;-;-;-;-;-;-;-;-;-;-
1514181648772;-;-;9.054169;-0.66659546;-2.1193848;-;-;-;-;-;-;-;-;-;-;-;-;-;-;-
1514181648792;-;-;9.082901;-0.47984314;-2.211563;-;-;-;-;-;-;-;-;-;-;-;-;-;-;-
1514181648812;-;-;9.07811;-0.32302856;-2.294159;-;-;-;-;-;-;-;-;-;-;-;-;-;-;-
1514181648833;-;-;9.090073;-0.16740417;-2.350418;-;-;-;-;-;-;-;-;-;-;-;-;-;-;-
1514181648854;-;-;9.109222;-0.12908936;-2.3635864;-;-;-;-;-;-;-;-;-;-;-;-;-;-;-
1514181648874;-;-;9.041;-0.12550354;-2.4042969;-;-;-;-;-;-;-;-;-;-;-;-;-;-;-
1514181648895;-;-;8.993118;-0.07043457;-2.3228912;-;-;-;-;-;-;-;-;-;-;-;-;-;-;-
1514181648915;-;-;8.865021;0.03970337;-2.3779602;-;-;-;-;-;-;-;-;-;-;-;-;-;-;-
1514181648935;-;-;8.832703;0.07800293;-2.4857025;-;-;-;-;-;-;-;-;-;-;-;-;-;-;-
1514181648956;-;-;8.905716;0.04208374;-2.6137848;-;-;-;-;-;-;-;-;-;-;-;-;-;-;-
1514181648977;-;-;8.989517;-0.00579834;-2.5922394;-;-;-;-;-;-;-;-;-;-;-;-;-;-;-
1514181648996;-;-;9.067337;-0.02494812;-2.4533691;-;-;-;-;-;-;-;-;-;-;-;-;-;-;-
1514181649017;-;-;9.088882;-0.052474976;-2.4102783;-;-;-;-;-;-;-;-;-;-;-;-;-;-;-
1514181649037;-;-;9.017059;-0.11831665;-2.3360596;-;-;-;-;-;-;-;-;-;-;-;-;-;-;-
1514181649058;-;-;9.0182495;-0.17098999;-2.2534637;-;-;-;-;-;-;-;-;-;-;-;-;-;-;-
1514181649078;-;-;9.058945;-0.27394104;-2.1888123;-;-;-;-;-;-;-;-;-;-;-;-;-;-;-
1514181649099;-;-;9.0733185;-0.3768921;-2.1074066;-;-;-;-;-;-;-;-;-;-;-;-;-;-;-
1514181649119;-;-;9.043396;-0.44154358;-1.9877014;-;-;-;-;-;-;-;-;-;-;-;-;-;-;-
1514181649140;-;-;9.038605;-0.4738617;-1.8548279;-;-;-;-;-;-;-;-;-;-;-;-;-;-;-
1514181649160;-;-;9.011063;-0.39126587;-1.887146;-;-;-;-;-;-;-;-;-;-;-;-;-;-;-
1514181649180;-;-;9.002686;-0.31704712;-1.9769287;-;-;-;-;-;-;-;-;-;-;-;-;-;-;-
1514181649201;-;-;9.049377;-0.34457397;-2.0116425;-;-;-;-;-;-;-;-;-;-;-;-;-;-;-
1514181649221;-;-;9.104446;-0.35295105;-2.0331879;-;-;-;-;-;-;-;-;-;-;-;-;-;-;-
1514181649242;-;-;9.128387;-0.35534668;-1.9745331;-;-;-;-;-;-;-;-;-;-;-;-;-;-;-
1514181649262;-;-;9.09845;-0.2966919;-1.8608093;-;-;-;-;-;-;-;-;-;-;-;-;-;-;-
1514181649282;-;-;9.07811;-0.2859192;-1.8344727;-;-;-;-;-;-;-;-;-;-;-;-;-;-;-
1514181649302;-;-;9.051773;-0.32901;-1.8105316;-;-;-;-;-;-;-;-;-;-;-;-;-;-;-
1514181649323;-;-;9.032608;-0.31105042;-1.8237;-;-;-;-;-;-;-;-;-;-;-;-;-;-;-
1514181649344;-;-;9.041;-0.2571869;-1.7865906;-;-;-;-;-;-;-;-;-;-;-;-;-;-;-
1514181649364;-;-;9.024231;-0.15065002;-1.8404541;-;-;-;-;-;-;-;-;-;-;-;-;-;-;-
1514181649385;-;-;9.026627;-0.109939575;-1.90271;-;-;-;-;-;-;-;-;-;-;-;-;-;-;-
1514181649406;-;-;8.946426;-0.05607605;-1.9039001;-;-;-;-;-;-;-;-;-;-;-;-;-;-;-
1514181649426;-;-;8.959595;-0.033325195;-1.9781189;-;-;-;-;-;-;-;-;-;-;-;-;-;-;-
1514181649446;-;-;9.035004;-0.071640015;-2.0403748;-;-;-;-;-;-;-;-;-;-;-;-;-;-;-
1514181649466;-;-;9.015854;-0.06803894;-2.093048;-;-;-;-;-;-;-;-;-;-;-;-;-;-;-
1514181649486;-;-;9.032608;-0.035720825;-2.0738983;-;-;-;-;-;-;-;-;-;-;-;-;-;-;-
1514181649508;-;-;9.039795;-0.095581055;-2.0786743;-;-;-;-;-;-;-;-;-;-;-;-;-;-;-
1514181649527;-;-;9.042191;-0.08958435;-2.1277618;-;-;-;-;-;-;-;-;-;-;-;-;-;-;-
1514181649547;-;-;9.085281;-0.14704895;-2.1062164;-;-;-;-;-;-;-;-;-;-;-;-;-;-;-
1514181649567;-;-;9.167892;-0.26556396;-1.9888916;-;-;-;-;-;-;-;-;-;-;-;-;-;-;-
1514181649588;-;-;9.175064;-0.28831482;-1.9721375;-;-;-;-;-;-;-;-;-;-;-;-;-;-;-
1514181649608;-;-;9.167892;-0.27035522;-1.9685516;-;-;-;-;-;-;-;-;-;-;-;-;-;-;-
1514181649629;-;-;9.06134;-0.1530304;-1.950592;-;-;-;-;-;-;-;-;-;-;-;-;-;-;-
1514181649650;-;-;9.07811;-0.10874939;-1.9613647;-;-;-;-;-;-;-;-;-;-;-;-;-;-;-
1514181649669;-;-;9.086487;-0.112335205;-2.0068512;-;-;-;-;-;-;-;-;-;-;-;-;-;-;-
1514181649690;-;-;9.041;-0.17578125;-2.0080566;-;-;-;-;-;-;-;-;-;-;-;-;-;-;-
1514181649711;-;-;9.014664;-0.17578125;-1.9170685;-;-;-;-;-;-;-;-;-;-;-;-;-;-;-
1514181649731;-;-;8.990723;-0.24162292;-1.8500366;-;-;-;-;-;-;-;-;-;-;-;-;-;-;-
1514181649752;-;-;9.005081;-0.2799225;-1.9302368;-;-;-;-;-;-;-;-;-;-;-;-;-;-;-
1514181649772;-;-;8.942825;-0.25598145;-1.9075012;-;-;-;-;-;-;-;-;-;-;-;-;-;-;-
1514181649793;-;-;8.969162;-0.16142273;-1.8189087;-;-;-;-;-;-;-;-;-;-;-;-;-;-;-
1514181649813;-;-;9.012268;-0.11114502;-1.8213043;-;-;-;-;-;-;-;-;-;-;-;-;-;-;-
1514181649834;-;-;9.091278;-0.05368042;-1.8500366;-;-;-;-;-;-;-;-;-;-;-;-;-;-;-
1514181649854;-;-;9.123596;-0.16381836;-1.8105316;-;-;-;-;-;-;-;-;-;-;-;-;-;-;-
1514181649874;-;-;9.029022;-0.22247314;-1.8272858;-;-;-;-;-;-;-;-;-;-;-;-;-;-;-
1514181649895;-;-;9.019455;-0.2775421;-1.8284912;-;-;-;-;-;-;-;-;-;-;-;-;-;-;-
1514181649914;-;-;8.9991;-0.27394104;-1.8237;-;-;-;-;-;-;-;-;-;-;-;-;-;-;-
1514181649934;-;-;9.045776;-0.3254242;-1.8643951;-;-;-;-;-;-;-;-;-;-;-;-;-;-;-
1514181649955;-;-;9.0733185;-0.2966919;-1.8907318;-;-;-;-;-;-;-;-;-;-;-;-;-;-;-
1514181649975;-;-;9.116409;-0.18057251;-1.9218597;-;-;-;-;-;-;-;-;-;-;-;-;-;-;-
1514181649995;-;-;9.09845;-0.11352539;-1.9434052;-;-;-;-;-;-;-;-;-;-;-;-;-;-;-
1514181650016;-;-;9.14035;-0.13748169;-1.9912872;-;-;-;-;-;-;-;-;-;-;-;-;-;-;-
1514181650036;-;-;9.114014;-0.19013977;-1.9685516;-;-;-;-;-;-;-;-;-;-;-;-;-;-;-
1514181650057;-;-;9.100845;-0.20570374;-1.98172;-;-;-;-;-;-;-;-;-;-;-;-;-;-;-
1514181650078;-;-;9.092468;-0.24520874;-1.9170685;-;-;-;-;-;-;-;-;-;-;-;-;-;-;-
1514181650098;-;-;9.0577545;-0.2775421;-1.9158783;-;-;-;-;-;-;-;-;-;-;-;-;-;-;-
1514181650118;-;-;9.030228;-0.30267334;-1.8619995;-;-;-;-;-;-;-;-;-;-;-;-;-;-;-
1514181650139;-;-;9.09845;-0.2212677;-1.8332825;-;-;-;-;-;-;-;-;-;-;-;-;-;-;-
1514181650158;-;-;9.09845;-0.2033081;-1.9122772;-;-;-;-;-;-;-;-;-;-;-;-;-;-;-
1514181650178;-;-;9.0793;-0.1985321;-1.9613647;-;-;-;-;-;-;-;-;-;-;-;-;-;-;-
1514181650199;-;-;9.023041;-0.24880981;-1.990097;-;-;-;-;-;-;-;-;-;-;-;-;-;-;-
1514181650219;-;-;9.072113;-0.28352356;-1.9553833;-;-;-;-;-;-;-;-;-;-;-;-;-;-;-
1514181650240;-;-;9.024231;-0.31344604;-1.9697418;-;-;-;-;-;-;-;-;-;-;-;-;-;-;-
1514181650260;-;-;9.050568;-0.22366333;-1.9170685;-;-;-;-;-;-;-;-;-;-;-;-;-;-;-
1514181650281;-;-;9.031418;-0.24162292;-1.9589691;-;-;-;-;-;-;-;-;-;-;-;-;-;-;-
1514181650301;-;-;9.046982;-0.2272644;-1.9769287;-;-;-;-;-;-;-;-;-;-;-;-;-;-;-
1514181650321;-;-;9.026627;-0.22007751;-1.9912872;-;-;-;-;-;-;-;-;-;-;-;-;-;-;-
1514181650342;-;-;9.007477;-0.14225769;-1.9936829;-;-;-;-;-;-;-;-;-;-;-;-;-;-;-
1514181650362;-;-;9.014664;-0.12669373;-2.0667114;-;-;-;-;-;-;-;-;-;-;-;-;-;-;-
1514181650383;-;-;8.9991;-0.18655396;-2.0331879;-;-;-;-;-;-;-;-;-;-;-;-;-;-;-
1514181650404;-;-;8.993118;-0.1697998;-1.9984741;-;-;-;-;-;-;-;-;-;-;-;-;-;-;-
1514181650424;-;-;9.046982;-0.16619873;-2.1349487;-;-;-;-;-;-;-;-;-;-;-;-;-;-;-
1514181650444;-;-;9.09845;-0.21768188;-1.9769287;-;-;-;-;-;-;-;-;-;-;-;-;-;-;-
1514181650465;-;-;9.093674;-0.26197815;-2.084671;-;-;-;-;-;-;-;-;-;-;-;-;-;-;-
1514181650485;-;-;9.063736;-0.30387878;-2.0906525;-;-;-;-;-;-;-;-;-;-;-;-;-;-;-
1514181650506;-;-;9.070923;-0.36611938;-2.0834656;-;-;-;-;-;-;-;-;-;-;-;-;-;-;-
1514181650526;-;-;9.111618;-0.38407898;-2.06073;-;-;-;-;-;-;-;-;-;-;-;-;-;-;-
1514181650547;-;-;9.111618;-0.35295105;-2.0679016;-;-;-;-;-;-;-;-;-;-;-;-;-;-;-
1514181650568;-;-;9.085281;-0.35653687;-2.1181793;-;-;-;-;-;-;-;-;-;-;-;-;-;-;-
1514181650588;-;-;9.088882;-0.30267334;-2.13974;-;-;-;-;-;-;-;-;-;-;-;-;-;-;-
1514181650608;-;-;9.063736;-0.1769867;-2.1780396;-;-;-;-;-;-;-;-;-;-;-;-;-;-;-
1514181650629;-;-;9.043396;-0.12550354;-2.191208;-;-;-;-;-;-;-;-;-;-;-;-;-;-;-
1514181650648;-;-;9.011063;-0.074035645;-2.207962;-;-;-;-;-;-;-;-;-;-;-;-;-;-;-
1514181650669;-;-;8.964386;-0.13748169;-2.100235;-;-;-;-;-;-;-;-;-;-;-;-;-;-;-
1514181650689;-;-;9.014664;-0.2799225;-2.0643158;-;-;-;-;-;-;-;-;-;-;-;-;-;-;-
1514181650709;-;-;8.9991;-0.36611938;-2.115799;-;-;-;-;-;-;-;-;-;-;-;-;-;-;-
1514181650730;-;-;8.987122;-0.3254242;-2.120575;-;-;-;-;-;-;-;-;-;-;-;-;-;-;-
1514181650750;-;-;9.019455;-0.24641418;-2.1816254;-;-;-;-;-;-;-;-;-;-;-;-;-;-;-
1514181650770;-;-;9.029022;-0.22964478;-2.230713;-;-;-;-;-;-;-;-;-;-;-;-;-;-;-
1514181650791;-;-;9.019455;-0.26197815;-2.2570496;-;-;-;-;-;-;-;-;-;-;-;-;-;-;-
1514181650811;-;-;8.996704;-0.28831482;-2.242691;-;-;-;-;-;-;-;-;-;-;-;-;-;-;-
1514181650832;-;-;8.966782;-0.28471375;-2.2295227;-;-;-;-;-;-;-;-;-;-;-;-;-;-;-
1514181650852;-;-;8.983536;-0.29908752;-2.2223358;-;-;-;-;-;-;-;-;-;-;-;-;-;-;-
1514181650872;-;-;9.014664;-0.38168335;-2.2139587;-;-;-;-;-;-;-;-;-;-;-;-;-;-;-
1514181650893;-;-;8.989517;-0.40203857;-2.207962;-;-;-;-;-;-;-;-;-;-;-;-;-;-;-
1514181650912;-;-;9.064941;-0.33259583;-2.2738037;-;-;-;-;-;-;-;-;-;-;-;-;-;-;-
1514181650933;-;-;9.013458;-0.2787323;-2.254654;-;-;-;-;-;-;-;-;-;-;-;-;-;-;-
1514181650953;-;-;8.958389;-0.20451355;-2.168457;-;-;-;-;-;-;-;-;-;-;-;-;-;-;-
1514181650974;-;-;8.98233;-0.21409607;-2.231903;-;-;-;-;-;-;-;-;-;-;-;-;-;-;-
1514181650993;-;-;8.960785;-0.19134521;-2.2857819;-;-;-;-;-;-;-;-;-;-;-;-;-;-;-
1514181651013;-;-;8.969162;-0.19613647;-2.23909;-;-;-;-;-;-;-;-;-;-;-;-;-;-;-
1514181651033;-;-;9.013458;-0.14704895;-2.2331085;-;-;-;-;-;-;-;-;-;-;-;-;-;-;-
1514181651054;-;-;9.064941;-0.1877594;-2.2223358;-;-;-;-;-;-;-;-;-;-;-;-;-;-;-
1514181651074;-;-;9.07811;-0.33499146;-2.2091675;-;-;-;-;-;-;-;-;-;-;-;-;-;-;-
1514181651094;-;-;9.035004;-0.3697052;-2.2223358;-;-;-;-;-;-;-;-;-;-;-;-;-;-;-
1514181651115;-;-;9.023041;-0.5277252;-2.2486725;-;-;-;-;-;-;-;-;-;-;-;-;-;-;-
1514181651135;-;-;9.044586;-0.6294861;-2.1457214;-;-;-;-;-;-;-;-;-;-;-;-;-;-;-
1514181651156;-;-;9.088882;-0.7503967;-2.1349487;-;-;-;-;-;-;-;-;-;-;-;-;-;-;-
1514181651177;-;-;9.049377;-0.7803192;-2.1038208;-;-;-;-;-;-;-;-;-;-;-;-;-;-;-
1514181651197;-;-;9.035004;-0.7587738;-2.0523376;-;-;-;-;-;-;-;-;-;-;-;-;-;-;-
1514181651217;-;-;9.001495;-0.71447754;-2.0679016;-;-;-;-;-;-;-;-;-;-;-;-;-;-;-
1514181651238;-;-;8.991913;-0.67855835;-2.163681;-;-;-;-;-;-;-;-;-;-;-;-;-;-;-
1514181651258;-;-;8.963181;-0.5780029;-2.172058;-;-;-;-;-;-;-;-;-;-;-;-;-;-;-
1514181651279;-;-;8.991913;-0.49899292;-2.163681;-;-;-;-;-;-;-;-;-;-;-;-;-;-;-
1514181651299;-;-;9.017059;-0.4559021;-2.2187347;-;-;-;-;-;-;-;-;-;-;-;-;-;-;-
1514181651320;-;-;9.006287;-0.38049316;-2.2199402;-;-;-;-;-;-;-;-;-;-;-;-;-;-;-
1514181651340;-;-;8.993118;-0.3577423;-2.179245;-;-;-;-;-;-;-;-;-;-;-;-;-;-;-
1514181651361;-;-;8.922485;-0.34217834;-2.1900177;-;-;-;-;-;-;-;-;-;-;-;-;-;-;-
1514181651382;-;-;8.897339;-0.33380127;-2.2295227;-;-;-;-;-;-;-;-;-;-;-;-;-;-;-
1514181651402;-;-;8.914108;-0.3589325;-2.231903;-;-;-;-;-;-;-;-;-;-;-;-;-;-;-
1514181651422;-;-;8.972763;-0.39245605;-2.294159;-;-;-;-;-;-;-;-;-;-;-;-;-;-;-
1514181651443;-;-;8.996704;-0.42477417;-2.2905731;-;-;-;-;-;-;-;-;-;-;-;-;-;-;-
1514181651464;-;-;9.023041;-0.42477417;-2.3193054;-;-;-;-;-;-;-;-;-;-;-;-;-;-;-
1514181651484;-;-;9.008667;-0.45829773;-2.3635864;-;-;-;-;-;-;-;-;-;-;-;-;-;-;-
1514181651504;-;-;9.002686;-0.40802002;-2.3540192;-;-;-;-;-;-;-;-;-;-;-;-;-;-;-
1514181651525;-;-;9.003891;-0.38407898;-2.3516235;-;-;-;-;-;-;-;-;-;-;-;-;-;-;-
1514181651546;-;-;8.997894;-0.3876648;-2.357605;-;-;-;-;-;-;-;-;-;-;-;-;-;-;-
1514181651565;-;-;8.959595;-0.3936615;-2.3863373;-;-;-;-;-;-;-;-;-;-;-;-;-;-;-
1514181651586;-;-;8.862625;-0.41999817;-2.365982;-;-;-;-;-;-;-;-;-;-;-;-;-;-;-
1514181651606;-;-;8.916504;-0.45111084;-2.3324738;-;-;-;-;-;-;-;-;-;-;-;-;-;-;-
1514181651626;-;-;9.015854;-0.3757019;-2.4473877;-;-;-;-;-;-;-;-;-;-;-;-;-;-;-
1514181651646;-;-;9.015854;-0.25120544;-2.5024567;-;-;-;-;-;-;-;-;-;-;-;-;-;-;-
1514181651667;-;-;9.049377;-0.15423584;-2.4497833;-;-;-;-;-;-;-;-;-;-;-;-;-;-;-
1514181651687;-;-;9.0733185;-0.12310791;-2.4485931;-;-;-;-;-;-;-;-;-;-;-;-;-;-;-
1514181651708;-;-;9.044586;-0.14225769;-2.2881775;-;-;-;-;-;-;-;-;-;-;-;-;-;-;-
1514181651728;-;-;8.951218;-0.19732666;-2.2893677;-;-;-;-;-;-;-;-;-;-;-;-;-;-;-
1514181651749;-;-;8.853058;-0.2212677;-2.3037415;-;-;-;-;-;-;-;-;-;-;-;-;-;-;-
1514181651769;-;-;8.890167;-0.27275085;-2.3181;-;-;-;-;-;-;-;-;-;-;-;-;-;-;-
1514181651790;-;-;8.923676;-0.289505;-2.3611908;-;-;-;-;-;-;-;-;-;-;-;-;-;-;-
1514181651811;-;-;8.892548;-0.29309082;-2.2486725;-;-;-;-;-;-;-;-;-;-;-;-;-;-;-
1514181651830;-;-;8.977554;-0.28352356;-2.306137;-;-;-;-;-;-;-;-;-;-;-;-;-;-;-
1514181651851;-;-;8.995499;-0.29908752;-2.3444366;-;-;-;-;-;-;-;-;-;-;-;-;-;-;-
1514181651871;-;-;8.98233;-0.32182312;-2.3216858;-;-;-;-;-;-;-;-;-;-;-;-;-;-;-
1514181651891;-;-;8.929672;-0.33499146;-2.2989502;-;-;-;-;-;-;-;-;-;-;-;-;-;-;-
1514181651912;-;-;8.950012;-0.3541565;-2.2857819;-;-;-;-;-;-;-;-;-;-;-;-;-;-;-
1514181651933;-;-;8.964386;-0.32302856;-2.381546;-;-;-;-;-;-;-;-;-;-;-;-;-;-;-
1514181651953;-;-;8.973953;-0.20930481;-2.3935242;-;-;-;-;-;-;-;-;-;-;-;-;-;-;-
1514181651974;-;-;9.006287;-0.119522095;-2.444992;-;-;-;-;-;-;-;-;-;-;-;-;-;-;-
1514181651994;-;-;9.035004;-0.07762146;-2.4593658;-;-;-;-;-;-;-;-;-;-;-;-;-;-;-
1514181652015;-;-;9.052963;-0.14585876;-2.436615;-;-;-;-;-;-;-;-;-;-;-;-;-;-;-
1514181652035;-;-;8.948822;-0.28231812;-2.3516235;-;-;-;-;-;-;-;-;-;-;-;-;-;-;-
1514181652056;-;-;8.88298;-0.38526917;-2.3252869;-;-;-;-;-;-;-;-;-;-;-;-;-;-;-
1514181652076;-;-;8.891357;-0.42956543;-2.2774048;-;-;-;-;-;-;-;-;-;-;-;-;-;-;-
1514181652097;-;-;8.88298;-0.47027588;-2.2833862;-;-;-;-;-;-;-;-;-;-;-;-;-;-;-
1514181652116;-;-;8.973953;-0.45948792;-2.3073273;-;-;-;-;-;-;-;-;-;-;-;-;-;-;-
1514181652136;-;-;9.033813;-0.37210083;-2.270218;-;-;-;-;-;-;-;-;-;-;-;-;-;-;-
1514181652157;-;-;9.151123;-0.28112793;-2.3145142;-;-;-;-;-;-;-;-;-;-;-;-;-;-;-
1514181652177;-;-;9.0182495;-0.2787323;-2.223526;-;-;-;-;-;-;-;-;-;-;-;-;-;-;-
1514181652198;-;-;9.074509;-0.24162292;-2.2139587;-;-;-;-;-;-;-;-;-;-;-;-;-;-;-
1514181652218;-;-;9.094864;-0.2787323;-2.1828308;-;-;-;-;-;-;-;-;-;-;-;-;-;-;-
1514181652240;-;-;9.069733;-0.32661438;-2.2678223;-;-;-;-;-;-;-;-;-;-;-;-;-;-;-
1514181652260;-;-;9.035004;-0.36732483;-2.191208;-;-;-;-;-;-;-;-;-;-;-;-;-;-;-
1514181652280;-;-;8.9787445;-0.3984375;-2.2007904;-;-;-;-;-;-;-;-;-;-;-;-;-;-;-
1514181652301;-;-;8.945221;-0.37928772;-2.2857819;-;-;-;-;-;-;-;-;-;-;-;-;-;-;-
1514181652321;-;-;8.993118;-0.3864746;-2.2558594;-;-;-;-;-;-;-;-;-;-;-;-;-;-;-
1514181652341;-;-;8.9991;-0.37330627;-2.2462769;-;-;-;-;-;-;-;-;-;-;-;-;-;-;-
1514181652362;-;-;9.046982;-0.3757019;-2.2259216;-;-;-;-;-;-;-;-;-;-;-;-;-;-;-
1514181652382;-;-;9.068527;-0.38287354;-2.1768494;-;-;-;-;-;-;-;-;-;-;-;-;-;-;-
1514181652403;-;-;9.026627;-0.36253357;-2.184021;-;-;-;-;-;-;-;-;-;-;-;-;-;-;-
1514181652423;-;-;9.035004;-0.41879272;-2.2798004;-;-;-;-;-;-;-;-;-;-;-;-;-;-;-
1514181652444;-;-;9.06134;-0.42956543;-2.2953491;-;-;-;-;-;-;-;-;-;-;-;-;-;-;-
1514181652464;-;-;9.013458;-0.44992065;-2.2881775;-;-;-;-;-;-;-;-;-;-;-;-;-;-;-
1514181652485;-;-;8.972763;-0.39964294;-2.2342987;-;-;-;-;-;-;-;-;-;-;-;-;-;-;-
1514181652504;-;-;8.973953;-0.34217834;-2.2738037;-;-;-;-;-;-;-;-;-;-;-;-;-;-;-
1514181652525;-;-;8.98114;-0.30625916;-2.2845764;-;-;-;-;-;-;-;-;-;-;-;-;-;-;-
1514181652545;-;-;8.973953;-0.26437378;-2.2582397;-;-;-;-;-;-;-;-;-;-;-;-;-;-;-
1514181652565;-;-;9.019455;-0.30267334;-2.2438812;-;-;-;-;-;-;-;-;-;-;-;-;-;-;-
1514181652586;-;-;8.983536;-0.32063293;-2.2378998;-;-;-;-;-;-;-;-;-;-;-;-;-;-;-
1514181652607;-;-;8.948822;-0.3254242;-2.207962;-;-;-;-;-;-;-;-;-;-;-;-;-;-;-
1514181652627;-;-;8.96199;-0.35653687;-2.2211304;-;-;-;-;-;-;-;-;-;-;-;-;-;-;-
1514181652648;-;-;8.941635;-0.42477417;-2.215149;-;-;-;-;-;-;-;-;-;-;-;-;-;-;-
1514181652668;-;-;9.003891;-0.4379425;-2.247467;-;-;-;-;-;-;-;-;-;-;-;-;-;-;-
1514181652689;-;-;8.9787445;-0.41999817;-2.2798004;-;-;-;-;-;-;-;-;-;-;-;-;-;-;-
1514181652709;-;-;8.973953;-0.4487152;-2.282196;-;-;-;-;-;-;-;-;-;-;-;-;-;-;-
1514181652730;-;-;9.029022;-0.40682983;-2.3193054;-;-;-;-;-;-;-;-;-;-;-;-;-;-;-
1514181652749;-;-;8.996704;-0.4044342;-2.309723;-;-;-;-;-;-;-;-;-;-;-;-;-;-;-
1514181652770;-;-;8.964386;-0.47027588;-2.3324738;-;-;-;-;-;-;-;-;-;-;-;-;-;-;-
1514181652790;-;-;8.940445;-0.4882202;-2.3001404;-;-;-;-;-;-;-;-;-;-;-;-;-;-;-
1514181652811;-;-;8.965576;-0.4774475;-2.2809906;-;-;-;-;-;-;-;-;-;-;-;-;-;-;-
1514181652831;-;-;8.984726;-0.4882202;-2.2103577;-;-;-;-;-;-;-;-;-;-;-;-;-;-;-
1514181652851;-;-;8.987122;-0.4774475;-2.203186;-;-;-;-;-;-;-;-;-;-;-;-;-;-;-
1514181652872;-;-;9.012268;-0.4954071;-2.2019806;-;-;-;-;-;-;-;-;-;-;-;-;-;-;-
1514181652892;-;-;9.050568;-0.47625732;-2.2019806;-;-;-;-;-;-;-;-;-;-;-;-;-;-;-
1514181652913;-;-;9.033813;-0.502594;-2.1804352;-;-;-;-;-;-;-;-;-;-;-;-;-;-;-
1514181652934;-;-;9.076904;-0.5205536;-2.2331085;-;-;-;-;-;-;-;-;-;-;-;-;-;-;-
1514181652954;-;-;9.041;-0.5540619;-2.1804352;-;-;-;-;-;-;-;-;-;-;-;-;-;-;-
1514181652975;-;-;8.995499;-0.5349121;-2.266632;-;-;-;-;-;-;-;-;-;-;-;-;-;-;-
1514181652995;-;-;8.941635;-0.5037842;-2.2259216;-;-;-;-;-;-;-;-;-;-;-;-;-;-;-
1514181653015;-;-;8.989517;-0.53970337;-2.1864166;-;-;-;-;-;-;-;-;-;-;-;-;-;-;-
1514181653035;-;-;9.019455;-0.5504761;-2.1924133;-;-;-;-;-;-;-;-;-;-;-;-;-;-;-
1514181653056;-;-;9.037399;-0.5337219;-2.2223358;-;-;-;-;-;-;-;-;-;-;-;-;-;-;-
1514181653076;-;-;9.002686;-0.49661255;-2.247467;-;-;-;-;-;-;-;-;-;-;-;-;-;-;-
1514181653097;-;-;8.9787445;-0.5205536;-2.2175446;-;-;-;-;-;-;-;-;-;-;-;-;-;-;-
1514181653117;-;-;8.9991;-0.5145569;-2.184021;-;-;-;-;-;-;-;-;-;-;-;-;-;-;-
1514181653138;-;-;9.013458;-0.51097107;-2.1959991;-;-;-;-;-;-;-;-;-;-;-;-;-;-;-
1514181653159;-;-;9.026627;-0.56604004;-2.1816254;-;-;-;-;-;-;-;-;-;-;-;-;-;-;-
1514181653179;-;-;9.032608;-0.55166626;-2.2223358;-;-;-;-;-;-;-;-;-;-;-;-;-;-;-
1514181653199;-;-;8.9991;-0.45710754;-2.1612854;-;-;-;-;-;-;-;-;-;-;-;-;-;-;-
1514181653220;-;-;8.976349;-0.45231628;-2.1936035;-;-;-;-;-;-;-;-;-;-;-;-;-;-;-
1514181653239;-;-;8.991913;-0.42237854;-2.2462769;-;-;-;-;-;-;-;-;-;-;-;-;-;-;-
1514181653259;-;-;8.97995;-0.43077087;-2.231903;-;-;-;-;-;-;-;-;-;-;-;-;-;-;-
1514181653279;-;-;8.987122;-0.45350647;-2.2199402;-;-;-;-;-;-;-;-;-;-;-;-;-;-;-
1514181653300;-;-;8.98114;-0.45829773;-2.2019806;-;-;-;-;-;-;-;-;-;-;-;-;-;-;-
1514181653320;-;-;9.009872;-0.4092102;-2.1900177;-;-;-;-;-;-;-;-;-;-;-;-;-;-;-
1514181653341;-;-;8.97995;-0.37330627;-2.1947937;-;-;-;-;-;-;-;-;-;-;-;-;-;-;-
1514181653361;-;-;9.003891;-0.463089;-2.2402954;-;-;-;-;-;-;-;-;-;-;-;-;-;-;-
1514181653382;-;-;9.006287;-0.43914795;-2.2486725;-;-;-;-;-;-;-;-;-;-;-;-;-;-;-
1514181653402;-;-;9.039795;-0.39006042;-2.2522583;-;-;-;-;-;-;-;-;-;-;-;-;-;-;-
1514181653424;-;-;8.990723;-0.38407898;-2.2558594;-;-;-;-;-;-;-;-;-;-;-;-;-;-;-
1514181653445;-;-;8.952408;-0.33021545;-2.230713;-;-;-;-;-;-;-;-;-;-;-;-;-;-;-
1514181653465;-;-;9.00029;-0.33259583;-2.2522583;-;-;-;-;-;-;-;-;-;-;-;-;-;-;-
1514181653485;-;-;9.021835;-0.35653687;-2.230713;-;-;-;-;-;-;-;-;-;-;-;-;-;-;-
1514181653506;-;-;9.014664;-0.36132813;-2.2654266;-;-;-;-;-;-;-;-;-;-;-;-;-;-;-
1514181653525;-;-;8.977554;-0.32901;-2.278595;-;-;-;-;-;-;-;-;-;-;-;-;-;-;-
1514181653545;-;-;8.941635;-0.29071045;-2.251068;-;-;-;-;-;-;-;-;-;-;-;-;-;-;-
1514181653566;-;-;8.984726;-0.32661438;-2.2462769;-;-;-;-;-;-;-;-;-;-;-;-;-;-;-
1514181653586;-;-;9.033813;-0.38168335;-2.2259216;-;-;-;-;-;-;-;-;-;-;-;-;-;-;-
1514181653607;-;-;9.030228;-0.38287354;-2.247467;-;-;-;-;-;-;-;-;-;-;-;-;-;-;-
1514181653627;-;-;9.014664;-0.39245605;-2.215149;-;-;-;-;-;-;-;-;-;-;-;-;-;-;-
1514181653648;-;-;9.008667;-0.3541565;-2.231903;-;-;-;-;-;-;-;-;-;-;-;-;-;-;-
1514181653669;-;-;8.964386;-0.31344604;-2.2977448;-;-;-;-;-;-;-;-;-;-;-;-;-;-;-
1514181653689;-;-;9.00029;-0.26197815;-2.254654;-;-;-;-;-;-;-;-;-;-;-;-;-;-;-
1514181653709;-;-;9.017059;-0.25958252;-2.2402954;-;-;-;-;-;-;-;-;-;-;-;-;-;-;-
1514181653730;-;-;9.024231;-0.28231812;-2.223526;-;-;-;-;-;-;-;-;-;-;-;-;-;-;-
1514181653751;-;-;8.984726;-0.2787323;-2.2259216;-;-;-;-;-;-;-;-;-;-;-;-;-;-;-
1514181653771;-;-;8.98114;-0.28471375;-2.2582397;-;-;-;-;-;-;-;-;-;-;-;-;-;-;-
1514181653791;-;-;8.996704;-0.32302856;-2.2690277;-;-;-;-;-;-;-;-;-;-;-;-;-;-;-
1514181653812;-;-;9.030228;-0.32302856;-2.247467;-;-;-;-;-;-;-;-;-;-;-;-;-;-;-
1514181653832;-;-;9.015854;-0.36253357;-2.1864166;-;-;-;-;-;-;-;-;-;-;-;-;-;-;-
1514181653852;-;-;8.972763;-0.40203857;-2.1983948;-;-;-;-;-;-;-;-;-;-;-;-;-;-;-
1514181653873;-;-;8.970367;-0.40682983;-2.1373444;-;-;-;-;-;-;-;-;-;-;-;-;-;-;-
1514181653893;-;-;8.988327;-0.40083313;-2.1804352;-;-;-;-;-;-;-;-;-;-;-;-;-;-;-
1514181653913;-;-;9.050568;-0.3984375;-2.2486725;-;-;-;-;-;-;-;-;-;-;-;-;-;-;-
1514181653934;-;-;9.036209;-0.38407898;-2.242691;-;-;-;-;-;-;-;-;-;-;-;-;-;-;-
1514181653954;-;-;9.013458;-0.34457397;-2.251068;-;-;-;-;-;-;-;-;-;-;-;-;-;-;-
1514181653974;-;-;8.987122;-0.33380127;-2.2223358;-;-;-;-;-;-;-;-;-;-;-;-;-;-;-
1514181653995;-;-;8.955994;-0.3254242;-2.1529083;-;-;-;-;-;-;-;-;-;-;-;-;-;-;-
1514181654016;-;-;8.935654;-0.3541565;-2.1564941;-;-;-;-;-;-;-;-;-;-;-;-;-;-;-
1514181654036;-;-;8.966782;-0.37928772;-2.1505127;-;-;-;-;-;-;-;-;-;-;-;-;-;-;-
1514181654057;-;-;9.001495;-0.34576416;-2.175644;-;-;-;-;-;-;-;-;-;-;-;-;-;-;-
1514181654077;-;-;9.002686;-0.37928772;-2.1744537;-;-;-;-;-;-;-;-;-;-;-;-;-;-;-
1514181654097;-;-;9.009872;-0.4056244;-2.1660767;-;-;-;-;-;-;-;-;-;-;-;-;-;-;-
1514181654118;-;-;8.96199;-0.3984375;-2.191208;-;-;-;-;-;-;-;-;-;-;-;-;-;-;-
1514181654138;-;-;8.946426;-0.4259796;-2.1947937;-;-;-;-;-;-;-;-;-;-;-;-;-;-;-
1514181654159;-;-;9.00029;-0.3876648;-2.231903;-;-;-;-;-;-;-;-;-;-;-;-;-;-;-
1514181654180;-;-;8.997894;-0.38526917;-2.2558594;-;-;-;-;-;-;-;-;-;-;-;-;-;-;-
1514181654200;-;-;8.971558;-0.3757019;-2.2570496;-;-;-;-;-;-;-;-;-;-;-;-;-;-;-
1514181654221;-;-;8.92128;-0.37210083;-2.2366943;-;-;-;-;-;-;-;-;-;-;-;-;-;-;-
1514181654241;-;-;8.909317;-0.3397827;-2.270218;-;-;-;-;-;-;-;-;-;-;-;-;-;-;-
1514181654261;-;-;8.983536;-0.29548645;-2.2331085;-;-;-;-;-;-;-;-;-;-;-;-;-;-;-
1514181654282;-;-;9.007477;-0.2966919;-2.2905731;-;-;-;-;-;-;-;-;-;-;-;-;-;-;-
1514181654302;-;-;9.0733185;-0.2859192;-2.3312683;-;-;-;-;-;-;-;-;-;-;-;-;-;-;-
1514181654322;-;-;9.093674;-0.2966919;-2.373169;-;-;-;-;-;-;-;-;-;-;-;-;-;-;-
1514181654343;-;-;9.031418;-0.28710938;-2.3707733;-;-;-;-;-;-;-;-;-;-;-;-;-;-;-
1514181654363;-;-;9.044586;-0.3469696;-2.3516235;-;-;-;-;-;-;-;-;-;-;-;-;-;-;-
1514181654384;-;-;9.043396;-0.3541565;-2.3360596;-;-;-;-;-;-;-;-;-;-;-;-;-;-;-
1514181654404;-;-;8.987122;-0.39485168;-2.2738037;-;-;-;-;-;-;-;-;-;-;-;-;-;-;-
1514181654425;-;-;8.971558;-0.42358398;-2.2558594;-;-;-;-;-;-;-;-;-;-;-;-;-;-;-
1514181654445;-;-;8.928467;-0.40682983;-2.2618408;-;-;-;-;-;-;-;-;-;-;-;-;-;-;-
1514181654466;-;-;8.951218;-0.34457397;-2.3300781;-;-;-;-;-;-;-;-;-;-;-;-;-;-;-
1514181654486;-;-;9.003891;-0.29908752;-2.3384552;-;-;-;-;-;-;-;-;-;-;-;-;-;-;-
1514181654507;-;-;9.037399;-0.30387878;-2.3276825;-;-;-;-;-;-;-;-;-;-;-;-;-;-;-
1514181654528;-;-;9.019455;-0.3649292;-2.2295227;-;-;-;-;-;-;-;-;-;-;-;-;-;-;-
1514181654548;-;-;9.019455;-0.3697052;-2.282196;-;-;-;-;-;-;-;-;-;-;-;-;-;-;-
1514181654569;-;-;9.030228;-0.37928772;-2.278595;-;-;-;-;-;-;-;-;-;-;-;-;-;-;-
1514181654588;-;-;9.014664;-0.34936523;-2.2798004;-;-;-;-;-;-;-;-;-;-;-;-;-;-;-
1514181654608;-;-;9.026627;-0.3757019;-2.2857819;-;-;-;-;-;-;-;-;-;-;-;-;-;-;-
1514181654629;-;-;9.013458;-0.42358398;-2.2558594;-;-;-;-;-;-;-;-;-;-;-;-;-;-;-
1514181654648;-;-;9.025436;-0.44992065;-2.2558594;-;-;-;-;-;-;-;-;-;-;-;-;-;-;-
1514181654669;-;-;9.012268;-0.4559021;-2.266632;-;-;-;-;-;-;-;-;-;-;-;-;-;-;-
1514181654688;-;-;9.025436;-0.4439392;-2.2582397;-;-;-;-;-;-;-;-;-;-;-;-;-;-;-
1514181654708;-;-;9.017059;-0.44273376;-2.2175446;-;-;-;-;-;-;-;-;-;-;-;-;-;-;-
1514181654728;-;-;8.967972;-0.40083313;-2.151703;-;-;-;-;-;-;-;-;-;-;-;-;-;-;-
1514181654749;-;-;8.948822;-0.35295105;-2.2067719;-;-;-;-;-;-;-;-;-;-;-;-;-;-;-
1514181654769;-;-;8.92128;-0.35295105;-2.3875275;-;-;-;-;-;-;-;-;-;-;-;-;-;-;-
1514181654789;-;-;8.955994;-0.40802002;-2.4030914;-;-;-;-;-;-;-;-;-;-;-;-;-;-;-
1514181654810;-;-;9.049377;-0.44273376;-2.2893677;-;-;-;-;-;-;-;-;-;-;-;-;-;-;-
1514181654830;-;-;9.080505;-0.4738617;-2.3157043;-;-;-;-;-;-;-;-;-;-;-;-;-;-;-
1514181654851;-;-;9.003891;-0.46069336;-2.2750092;-;-;-;-;-;-;-;-;-;-;-;-;-;-;-
1514181654872;-;-;8.990723;-0.49421692;-2.2139587;-;-;-;-;-;-;-;-;-;-;-;-;-;-;-
1514181654892;-;-;8.97995;-0.5672302;-2.2043762;-;-;-;-;-;-;-;-;-;-;-;-;-;-;-
1514181654913;-;-;8.966782;-0.5504761;-2.1337433;-;-;-;-;-;-;-;-;-;-;-;-;-;-;-
1514181654934;-;-;8.969162;-0.58639526;-2.1074066;-;-;-;-;-;-;-;-;-;-;-;-;-;-;-
1514181654954;-;-;9.019455;-0.6187134;-2.0918427;-;-;-;-;-;-;-;-;-;-;-;-;-;-;-
1514181654974;-;-;8.983536;-0.59954834;-2.1672668;-;-;-;-;-;-;-;-;-;-;-;-;-;-;-
1514181654995;-;-;8.993118;-0.5564575;-2.211563;-;-;-;-;-;-;-;-;-;-;-;-;-;-;-
1514181655015;-;-;8.9787445;-0.52893066;-2.1265717;-;-;-;-;-;-;-;-;-;-;-;-;-;-;-
1514181655035;-;-;9.011063;-0.4846344;-2.0702972;-;-;-;-;-;-;-;-;-;-;-;-;-;-;-
1514181655056;-;-;9.019455;-0.46188354;-2.0116425;-;-;-;-;-;-;-;-;-;-;-;-;-;-;-
1514181655076;-;-;9.032608;-0.52893066;-2.0200195;-;-;-;-;-;-;-;-;-;-;-;-;-;-;-
1514181655096;-;-;9.030228;-0.5540619;-2.1062164;-;-;-;-;-;-;-;-;-;-;-;-;-;-;-
1514181655117;-;-;9.027832;-0.50019836;-2.136139;-;-;-;-;-;-;-;-;-;-;-;-;-;-;-
1514181655138;-;-;9.015854;-0.5241394;-2.096634;-;-;-;-;-;-;-;-;-;-;-;-;-;-;-
1514181655158;-;-;9.062546;-0.5540619;-2.0583344;-;-;-;-;-;-;-;-;-;-;-;-;-;-;-
1514181655178;-;-;9.046982;-0.53730774;-2.0870667;-;-;-;-;-;-;-;-;-;-;-;-;-;-;-
1514181655199;-;-;9.041;-0.5145569;-2.115799;-;-;-;-;-;-;-;-;-;-;-;-;-;-;-
1514181655219;-;-;8.977554;-0.48223877;-2.1457214;-;-;-;-;-;-;-;-;-;-;-;-;-;-;-
1514181655240;-;-;9.012268;-0.47625732;-2.1373444;-;-;-;-;-;-;-;-;-;-;-;-;-;-;-
1514181655260;-;-;9.025436;-0.50019836;-2.1098022;-;-;-;-;-;-;-;-;-;-;-;-;-;-;-
1514181655281;-;-;9.021835;-0.5361023;-2.0331879;-;-;-;-;-;-;-;-;-;-;-;-;-;-;-
1514181655302;-;-;9.019455;-0.53970337;-2.053543;-;-;-;-;-;-;-;-;-;-;-;-;-;-;-
1514181655322;-;-;9.024231;-0.48582458;-2.0583344;-;-;-;-;-;-;-;-;-;-;-;-;-;-;-
1514181655341;-;-;8.987122;-0.4559021;-2.06073;-;-;-;-;-;-;-;-;-;-;-;-;-;-;-
1514181655362;-;-;9.038605;-0.45710754;-2.0487518;-;-;-;-;-;-;-;-;-;-;-;-;-;-;-
1514181655382;-;-;9.030228;-0.4547119;-2.0679016;-;-;-;-;-;-;-;-;-;-;-;-;-;-;-
1514181655402;-;-;9.013458;-0.44273376;-2.0786743;-;-;-;-;-;-;-;-;-;-;-;-;-;-;-
1514181655423;-;-;9.031418;-0.4918213;-2.0559387;-;-;-;-;-;-;-;-;-;-;-;-;-;-;-
1514181655443;-;-;9.009872;-0.4451294;-2.0583344;-;-;-;-;-;-;-;-;-;-;-;-;-;-;-
1514181655463;-;-;8.991913;-0.44752502;-2.0511475;-;-;-;-;-;-;-;-;-;-;-;-;-;-;-
1514181655484;-;-;8.985931;-0.44631958;-2.0786743;-;-;-;-;-;-;-;-;-;-;-;-;-;-;-
1514181655505;-;-;9.058945;-0.4487152;-2.0487518;-;-;-;-;-;-;-;-;-;-;-;-;-;-;-
1514181655524;-;-;9.045776;-0.41999817;-2.084671;-;-;-;-;-;-;-;-;-;-;-;-;-;-;-
1514181655544;-;-;9.075714;-0.43196106;-2.065506;-;-;-;-;-;-;-;-;-;-;-;-;-;-;-
1514181655565;-;-;9.075714;-0.4343567;-1.9984741;-;-;-;-;-;-;-;-;-;-;-;-;-;-;-
1514181655585;-;-;9.013458;-0.46548462;-2.029602;-;-;-;-;-;-;-;-;-;-;-;-;-;-;-
1514181655606;-;-;9.041;-0.5325165;-2.0858612;-;-;-;-;-;-;-;-;-;-;-;-;-;-;-
1514181655626;-;-;9.025436;-0.48582458;-2.1169891;-;-;-;-;-;-;-;-;-;-;-;-;-;-;-
1514181655647;-;-;9.003891;-0.48223877;-2.0834656;-;-;-;-;-;-;-;-;-;-;-;-;-;-;-
1514181655667;-;-;9.027832;-0.43914795;-2.0858612;-;-;-;-;-;-;-;-;-;-;-;-;-;-;-
1514181655688;-;-;9.024231;-0.42358398;-2.1469116;-;-;-;-;-;-;-;-;-;-;-;-;-;-;-
1514181655709;-;-;8.98114;-0.3984375;-2.1121979;-;-;-;-;-;-;-;-;-;-;-;-;-;-;-
1514181655729;-;-;9.039795;-0.4259796;-2.128952;-;-;-;-;-;-;-;-;-;-;-;-;-;-;-
1514181655750;-;-;9.054169;-0.43914795;-2.128952;-;-;-;-;-;-;-;-;-;-;-;-;-;-;-
1514181655770;-;-;9.051773;-0.42118835;-2.168457;-;-;-;-;-;-;-;-;-;-;-;-;-;-;-
1514181655791;-;-;9.046982;-0.4379425;-2.0942383;-;-;-;-;-;-;-;-;-;-;-;-;-;-;-
1514181655811;-;-;9.037399;-0.45350647;-2.120575;-;-;-;-;-;-;-;-;-;-;-;-;-;-;-
1514181655832;-;-;8.997894;-0.41760254;-2.0786743;-;-;-;-;-;-;-;-;-;-;-;-;-;-;-
1514181655853;-;-;8.983536;-0.38168335;-2.0990295;-;-;-;-;-;-;-;-;-;-;-;-;-;-;-
1514181655873;-;-;9.042191;-0.37928772;-2.132553;-;-;-;-;-;-;-;-;-;-;-;-;-;-;-
1514181655893;-;-;9.032608;-0.36372375;-2.168457;-;-;-;-;-;-;-;-;-;-;-;-;-;-;-
1514181655914;-;-;9.031418;-0.368515;-2.172058;-;-;-;-;-;-;-;-;-;-;-;-;-;-;-
1514181655933;-;-;9.021835;-0.3768921;-2.2223358;-;-;-;-;-;-;-;-;-;-;-;-;-;-;-
1514181655954;-;-;8.996704;-0.368515;-2.1313477;-;-;-;-;-;-;-;-;-;-;-;-;-;-;-
1514181655974;-;-;8.993118;-0.37210083;-2.2366943;-;-;-;-;-;-;-;-;-;-;-;-;-;-;-
1514181655995;-;-;8.9787445;-0.40083313;-2.2486725;-;-;-;-;-;-;-;-;-;-;-;-;-;-;-
1514181656015;-;-;8.988327;-0.3864746;-2.2283173;-;-;-;-;-;-;-;-;-;-;-;-;-;-;-
1514181656035;-;-;9.017059;-0.38049316;-2.2355042;-;-;-;-;-;-;-;-;-;-;-;-;-;-;-
1514181656056;-;-;9.005081;-0.39604187;-2.231903;-;-;-;-;-;-;-;-;-;-;-;-;-;-;-
1514181656076;-;-;9.017059;-0.4092102;-2.23909;-;-;-;-;-;-;-;-;-;-;-;-;-;-;-
1514181656097;-;-;8.993118;-0.4044342;-2.242691;-;-;-;-;-;-;-;-;-;-;-;-;-;-;-
1514181656117;-;-;8.994308;-0.43914795;-2.310913;-;-;-;-;-;-;-;-;-;-;-;-;-;-;-
1514181656138;-;-;8.9991;-0.45710754;-2.2953491;-;-;-;-;-;-;-;-;-;-;-;-;-;-;-
1514181656158;-;-;9.038605;-0.44992065;-2.310913;-;-;-;-;-;-;-;-;-;-;-;-;-;-;-
1514181656179;-;-;9.025436;-0.4559021;-2.270218;-;-;-;-;-;-;-;-;-;-;-;-;-;-;-
1514181656199;-;-;9.023041;-0.40083313;-2.2342987;-;-;-;-;-;-;-;-;-;-;-;-;-;-;-
1514181656220;-;-;8.983536;-0.40203857;-2.179245;-;-;-;-;-;-;-;-;-;-;-;-;-;-;-
1514181656240;-;-;8.989517;-0.4379425;-2.179245;-;-;-;-;-;-;-;-;-;-;-;-;-;-;-
1514181656261;-;-;8.945221;-0.44154358;-2.242691;-;-;-;-;-;-;-;-;-;-;-;-;-;-;-
1514181656281;-;-;8.963181;-0.4547119;-2.1696625;-;-;-;-;-;-;-;-;-;-;-;-;-;-;-
1514181656301;-;-;8.991913;-0.4271698;-2.1780396;-;-;-;-;-;-;-;-;-;-;-;-;-;-;-
1514181656322;-;-;8.994308;-0.38887024;-2.151703;-;-;-;-;-;-;-;-;-;-;-;-;-;-;-
1514181656342;-;-;8.967972;-0.39245605;-2.2019806;-;-;-;-;-;-;-;-;-;-;-;-;-;-;-
1514181656363;-;-;8.988327;-0.43914795;-2.2211304;-;-;-;-;-;-;-;-;-;-;-;-;-;-;-
1514181656384;-;-;9.013458;-0.4547119;-2.2534637;-;-;-;-;-;-;-;-;-;-;-;-;-;-;-
1514181656404;-;-;8.995499;-0.46069336;-2.2462769;-;-;-;-;-;-;-;-;-;-;-;-;-;-;-
1514181656424;-;-;8.995499;-0.47265625;-2.2606354;-;-;-;-;-;-;-;-;-;-;-;-;-;-;-
1514181656445;-;-;8.988327;-0.44752502;-2.2402954;-;-;-;-;-;-;-;-;-;-;-;-;-;-;-
1514181656466;-;-;8.990723;-0.42358398;-2.2378998;-;-;-;-;-;-;-;-;-;-;-;-;-;-;-
1514181656486;-;-;8.959595;-0.41400146;-2.230713;-;-;-;-;-;-;-;-;-;-;-;-;-;-;-
1514181656507;-;-;8.954803;-0.368515;-2.2558594;-;-;-;-;-;-;-;-;-;-;-;-;-;-;-
1514181656527;-;-;8.927277;-0.32901;-2.2618408;-;-;-;-;-;-;-;-;-;-;-;-;-;-;-
1514181656548;-;-;8.941635;-0.31584167;-2.3193054;-;-;-;-;-;-;-;-;-;-;-;-;-;-;-
1514181656568;-;-;9.024231;-0.37809753;-2.2678223;-;-;-;-;-;-;-;-;-;-;-;-;-;-;-
1514181656589;-;-;8.996704;-0.38407898;-2.2378998;-;-;-;-;-;-;-;-;-;-;-;-;-;-;-
1514181656609;-;-;8.954803;-0.38407898;-2.2342987;-;-;-;-;-;-;-;-;-;-;-;-;-;-;-
1514181656630;-;-;8.951218;-0.37091064;-2.2438812;-;-;-;-;-;-;-;-;-;-;-;-;-;-;-
1514181656651;-;-;9.014664;-0.36132813;-2.2582397;-;-;-;-;-;-;-;-;-;-;-;-;-;-;-
1514181656671;-;-;9.021835;-0.39126587;-2.2414856;-;-;-;-;-;-;-;-;-;-;-;-;-;-;-
1514181656692;-;-;9.006287;-0.3757019;-2.3037415;-;-;-;-;-;-;-;-;-;-;-;-;-;-;-
1514181656712;-;-;8.996704;-0.36132813;-2.333664;-;-;-;-;-;-;-;-;-;-;-;-;-;-;-
1514181656733;-;-;9.012268;-0.3589325;-2.3468323;-;-;-;-;-;-;-;-;-;-;-;-;-;-;-
1514181656753;-;-;9.027832;-0.30986023;-2.3707733;-;-;-;-;-;-;-;-;-;-;-;-;-;-;-
1514181656774;-;-;9.051773;-0.36732483;-2.405487;-;-;-;-;-;-;-;-;-;-;-;-;-;-;-
1514181656793;-;-;9.055359;-0.3936615;-2.39711;-;-;-;-;-;-;-;-;-;-;-;-;-;-;-
1514181656814;-;-;9.029022;-0.37091064;-2.3611908;-;-;-;-;-;-;-;-;-;-;-;-;-;-;-
1514181656835;-;-;8.988327;-0.3768921;-2.2798004;-;-;-;-;-;-;-;-;-;-;-;-;-;-;-
1514181656854;-;-;8.934448;-0.39006042;-2.345642;-;-;-;-;-;-;-;-;-;-;-;-;-;-;-
1514181656875;-;-;8.912903;-0.39245605;-2.3384552;-;-;-;-;-;-;-;-;-;-;-;-;-;-;-
1514181656895;-;-;8.932053;-0.42237854;-2.3121185;-;-;-;-;-;-;-;-;-;-;-;-;-;-;-
1514181656916;-;-;8.977554;-0.41041565;-2.2798004;-;-;-;-;-;-;-;-;-;-;-;-;-;-;-
1514181656935;-;-;8.994308;-0.47265625;-2.2618408;-;-;-;-;-;-;-;-;-;-;-;-;-;-;-
1514181656955;-;-;8.975159;-0.4379425;-2.282196;-;-;-;-;-;-;-;-;-;-;-;-;-;-;-
1514181656976;-;-;8.987122;-0.4163971;-2.23909;-;-;-;-;-;-;-;-;-;-;-;-;-;-;-
1514181656996;-;-;8.972763;-0.4152069;-2.2678223;-;-;-;-;-;-;-;-;-;-;-;-;-;-;-
1514181657017;-;-;8.947617;-0.41999817;-2.2331085;-;-;-;-;-;-;-;-;-;-;-;-;-;-;-
1514181657036;-;-;8.985931;-0.463089;-2.2450714;-;-;-;-;-;-;-;-;-;-;-;-;-;-;-
1514181657057;-;-;9.014664;-0.46188354;-2.2355042;-;-;-;-;-;-;-;-;-;-;-;-;-;-;-
1514181657078;-;-;8.963181;-0.47865295;-2.2199402;-;-;-;-;-;-;-;-;-;-;-;-;-;-;-
1514181657097;-;-;8.966782;-0.41999817;-2.2402954;-;-;-;-;-;-;-;-;-;-;-;-;-;-;-
1514181657118;-;-;8.954803;-0.41400146;-2.2857819;-;-;-;-;-;-;-;-;-;-;-;-;-;-;-
1514181657138;-;-;9.009872;-0.45350647;-2.3372498;-;-;-;-;-;-;-;-;-;-;-;-;-;-;-
1514181657159;-;-;9.06015;-0.46548462;-2.251068;-;-;-;-;-;-;-;-;-;-;-;-;-;-;-
1514181657179;-;-;9.07811;-0.49421692;-2.2558594;-;-;-;-;-;-;-;-;-;-;-;-;-;-;-
1514181657200;-;-;9.029022;-0.4738617;-2.211563;-;-;-;-;-;-;-;-;-;-;-;-;-;-;-
1514181657219;-;-;9.017059;-0.46188354;-2.231903;-;-;-;-;-;-;-;-;-;-;-;-;-;-;-
1514181657239;-;-;9.0733185;-0.46548462;-2.2582397;-;-;-;-;-;-;-;-;-;-;-;-;-;-;-
1514181657260;-;-;9.0577545;-0.51934814;-2.271408;-;-;-;-;-;-;-;-;-;-;-;-;-;-;-
1514181657279;-;-;9.0182495;-0.47265625;-2.223526;-;-;-;-;-;-;-;-;-;-;-;-;-;-;-
1514181657300;-;-;8.9392395;-0.42237854;-2.2163544;-;-;-;-;-;-;-;-;-;-;-;-;-;-;-
1514181657320;-;-;8.941635;-0.45350647;-2.2043762;-;-;-;-;-;-;-;-;-;-;-;-;-;-;-
1514181657341;-;-;8.960785;-0.47865295;-2.199585;-;-;-;-;-;-;-;-;-;-;-;-;-;-;-
1514181657361;-;-;8.958389;-0.4666748;-2.168457;-;-;-;-;-;-;-;-;-;-;-;-;-;-;-
1514181657382;-;-;8.958389;-0.47027588;-2.1612854;-;-;-;-;-;-;-;-;-;-;-;-;-;-;-
1514181657402;-;-;9.00029;-0.47625732;-2.1265717;-;-;-;-;-;-;-;-;-;-;-;-;-;-;-
1514181657423;-;-;9.032608;-0.5097656;-2.0583344;-;-;-;-;-;-;-;-;-;-;-;-;-;-;-
1514181657444;-;-;9.029022;-0.46069336;-2.1181793;-;-;-;-;-;-;-;-;-;-;-;-;-;-;-
1514181657465;-;-;8.993118;-0.4056244;-2.148117;-;-;-;-;-;-;-;-;-;-;-;-;-;-;-
1514181657485;-;-;8.991913;-0.41160583;-2.1409302;-;-;-;-;-;-;-;-;-;-;-;-;-;-;-
1514181657506;-;-;9.007477;-0.41400146;-2.1229706;-;-;-;-;-;-;-;-;-;-;-;-;-;-;-
1514181657526;-;-;9.032608;-0.43077087;-2.1014252;-;-;-;-;-;-;-;-;-;-;-;-;-;-;-
1514181657547;-;-;8.9991;-0.45231628;-2.1074066;-;-;-;-;-;-;-;-;-;-;-;-;-;-;-
1514181657567;-;-;9.006287;-0.45710754;-2.1062164;-;-;-;-;-;-;-;-;-;-;-;-;-;-;-
1514181657588;-;-;9.033813;-0.44154358;-2.115799;-;-;-;-;-;-;-;-;-;-;-;-;-;-;-
1514181657608;-;-;9.013458;-0.48942566;-2.076294;-;-;-;-;-;-;-;-;-;-;-;-;-;-;-
1514181657630;-;-;9.055359;-0.5337219;-2.0583344;-;-;-;-;-;-;-;-;-;-;-;-;-;-;-
1514181657649;-;-;9.086487;-0.51216125;-2.1026306;-;-;-;-;-;-;-;-;-;-;-;-;-;-;-
1514181657670;-;-;9.032608;-0.50019836;-2.096634;-;-;-;-;-;-;-;-;-;-;-;-;-;-;-
1514181657691;-;-;9.067337;-0.4451294;-2.0942383;-;-;-;-;-;-;-;-;-;-;-;-;-;-;-
1514181657711;-;-;9.056564;-0.43675232;-2.057129;-;-;-;-;-;-;-;-;-;-;-;-;-;-;-
1514181657732;-;-;9.037399;-0.44154358;-2.0786743;-;-;-;-;-;-;-;-;-;-;-;-;-;-;-
1514181657752;-;-;9.011063;-0.4666748;-2.053543;-;-;-;-;-;-;-;-;-;-;-;-;-;-;-
1514181657773;-;-;8.976349;-0.44992065;-2.0427704;-;-;-;-;-;-;-;-;-;-;-;-;-;-;-
1514181657793;-;-;9.012268;-0.40203857;-2.0595245;-;-;-;-;-;-;-;-;-;-;-;-;-;-;-
1514181657814;-;-;9.014664;-0.43077087;-2.06073;-;-;-;-;-;-;-;-;-;-;-;-;-;-;-
1514181657834;-;-;9.038605;-0.42358398;-2.0702972;-;-;-;-;-;-;-;-;-;-;-;-;-;-;-
1514181657854;-;-;9.006287;-0.38526917;-2.0834656;-;-;-;-;-;-;-;-;-;-;-;-;-;-;-
1514181657875;-;-;9.041;-0.36611938;-2.0583344;-;-;-;-;-;-;-;-;-;-;-;-;-;-;-
1514181657895;-;-;9.055359;-0.33259583;-2.041565;-;-;-;-;-;-;-;-;-;-;-;-;-;-;-
1514181657916;-;-;9.024231;-0.3361969;-2.0942383;-;-;-;-;-;-;-;-;-;-;-;-;-;-;-
1514181657936;-;-;9.00029;-0.3481598;-2.0954437;-;-;-;-;-;-;-;-;-;-;-;-;-;-;-
1514181657957;-;-;9.009872;-0.36732483;-2.0715027;-;-;-;-;-;-;-;-;-;-;-;-;-;-;-
1514181657978;-;-;9.031418;-0.40802002;-2.1038208;-;-;-;-;-;-;-;-;-;-;-;-;-;-;-
1514181657997;-;-;9.023041;-0.37210083;-2.0355835;-;-;-;-;-;-;-;-;-;-;-;-;-;-;-
1514181658018;-;-;9.074509;-0.35055542;-2.012848;-;-;-;-;-;-;-;-;-;-;-;-;-;-;-
1514181658037;-;-;9.037399;-0.3577423;-2.1062164;-;-;-;-;-;-;-;-;-;-;-;-;-;-;-
1514181658058;-;-;9.008667;-0.33259583;-2.1457214;-;-;-;-;-;-;-;-;-;-;-;-;-;-;-
1514181658078;-;-;9.031418;-0.37330627;-2.0750885;-;-;-;-;-;-;-;-;-;-;-;-;-;-;-
1514181658099;-;-;9.06015;-0.33499146;-2.069107;-;-;-;-;-;-;-;-;-;-;-;-;-;-;-
1514181658119;-;-;9.063736;-0.36013794;-2.06073;-;-;-;-;-;-;-;-;-;-;-;-;-;-;-
1514181658140;-;-;9.025436;-0.3194275;-2.0619202;-;-;-;-;-;-;-;-;-;-;-;-;-;-;-
1514181658160;-;-;9.009872;-0.3481598;-2.0918427;-;-;-;-;-;-;-;-;-;-;-;-;-;-;-
1514181658181;-;-;9.019455;-0.3577423;-2.0942383;-;-;-;-;-;-;-;-;-;-;-;-;-;-;-
1514181658201;-;-;9.062546;-0.368515;-2.0750885;-;-;-;-;-;-;-;-;-;-;-;-;-;-;-
1514181658222;-;-;9.027832;-0.36611938;-2.065506;-;-;-;-;-;-;-;-;-;-;-;-;-;-;-
1514181658241;-;-;9.017059;-0.3194275;-2.1026306;-;-;-;-;-;-;-;-;-;-;-;-;-;-;-
1514181658261;-;-;9.002686;-0.30267334;-2.1121979;-;-;-;-;-;-;-;-;-;-;-;-;-;-;-
1514181658282;-;-;9.007477;-0.29309082;-2.144516;-;-;-;-;-;-;-;-;-;-;-;-;-;-;-
1514181658303;-;-;9.031418;-0.3577423;-2.1337433;-;-;-;-;-;-;-;-;-;-;-;-;-;-;-
1514181658323;-;-;9.017059;-0.3481598;-2.16008;-;-;-;-;-;-;-;-;-;-;-;-;-;-;-
1514181658344;-;-;9.029022;-0.36132813;-2.1062164;-;-;-;-;-;-;-;-;-;-;-;-;-;-;-
1514181658364;-;-;8.996704;-0.368515;-2.148117;-;-;-;-;-;-;-;-;-;-;-;-;-;-;-
1514181658383;-;-;8.993118;-0.36132813;-2.0882568;-;-;-;-;-;-;-;-;-;-;-;-;-;-;-
1514181658403;-;-;9.012268;-0.34217834;-2.08107;-;-;-;-;-;-;-;-;-;-;-;-;-;-;-
1514181658424;-;-;9.012268;-0.3361969;-2.151703;-;-;-;-;-;-;-;-;-;-;-;-;-;-;-
1514181658445;-;-;9.035004;-0.33140564;-2.1493073;-;-;-;-;-;-;-;-;-;-;-;-;-;-;-
1514181658465;-;-;9.024231;-0.34576416;-2.132553;-;-;-;-;-;-;-;-;-;-;-;-;-;-;-
1514181658486;-;-;9.008667;-0.32661438;-2.100235;-;-;-;-;-;-;-;-;-;-;-;-;-;-;-
1514181658507;-;-;9.041;-0.3469696;-2.1134033;-;-;-;-;-;-;-;-;-;-;-;-;-;-;-
1514181658527;-;-;9.037399;-0.32661438;-2.1074066;-;-;-;-;-;-;-;-;-;-;-;-;-;-;-
1514181658548;-;-;9.027832;-0.32182312;-2.1121979;-;-;-;-;-;-;-;-;-;-;-;-;-;-;-
1514181658568;-;-;9.009872;-0.30148315;-2.1169891;-;-;-;-;-;-;-;-;-;-;-;-;-;-;-
1514181658588;-;-;9.027832;-0.32781982;-2.1529083;-;-;-;-;-;-;-;-;-;-;-;-;-;-;-
1514181658609;-;-;9.026627;-0.36732483;-2.0918427;-;-;-;-;-;-;-;-;-;-;-;-;-;-;-
1514181658629;-;-;9.045776;-0.35295105;-2.0583344;-;-;-;-;-;-;-;-;-;-;-;-;-;-;-
1514181658649;-;-;9.052963;-0.3589325;-2.0511475;-;-;-;-;-;-;-;-;-;-;-;-;-;-;-
1514181658670;-;-;9.069733;-0.34098816;-2.1493073;-;-;-;-;-;-;-;-;-;-;-;-;-;-;-
1514181658691;-;-;9.014664;-0.3469696;-2.1612854;-;-;-;-;-;-;-;-;-;-;-;-;-;-;-
1514181658710;-;-;9.025436;-0.3433838;-2.100235;-;-;-;-;-;-;-;-;-;-;-;-;-;-;-
1514181658731;-;-;9.035004;-0.36013794;-2.128952;-;-;-;-;-;-;-;-;-;-;-;-;-;-;-
1514181658752;-;-;9.035004;-0.31105042;-2.1253662;-;-;-;-;-;-;-;-;-;-;-;-;-;-;-
1514181658772;-;-;8.987122;-0.30387878;-2.100235;-;-;-;-;-;-;-;-;-;-;-;-;-;-;-
1514181658792;-;-;8.997894;-0.28352356;-2.1493073;-;-;-;-;-;-;-;-;-;-;-;-;-;-;-
1514181658813;-;-;9.029022;-0.24281311;-2.2247314;-;-;-;-;-;-;-;-;-;-;-;-;-;-;-
1514181658833;-;-;9.052963;-0.18655396;-2.2259216;-;-;-;-;-;-;-;-;-;-;-;-;-;-;-
1514181658855;-;-;8.97995;-0.25479126;-2.215149;-;-;-;-;-;-;-;-;-;-;-;-;-;-;-
1514181658874;-;-;9.00029;-0.2966919;-2.223526;-;-;-;-;-;-;-;-;-;-;-;-;-;-;-
1514181658895;-;-;9.038605;-0.49421692;-2.211563;-;-;-;-;-;-;-;-;-;-;-;-;-;-;-
1514181658915;-;-;9.0577545;-0.5564575;-2.1469116;-;-;-;-;-;-;-;-;-;-;-;-;-;-;-
1514181658935;-;-;9.051773;-0.5456848;-2.069107;-;-;-;-;-;-;-;-;-;-;-;-;-;-;-
1514181658956;-;-;9.026627;-0.4954071;-2.0164337;-;-;-;-;-;-;-;-;-;-;-;-;-;-;-
1514181658977;-;-;8.993118;-0.4343567;-2.0403748;-;-;-;-;-;-;-;-;-;-;-;-;-;-;-
1514181658997;-;-;8.963181;-0.38049316;-2.0343933;-;-;-;-;-;-;-;-;-;-;-;-;-;-;-
1514181659017;-;-;8.928467;-0.30986023;-2.0822754;-;-;-;-;-;-;-;-;-;-;-;-;-;-;-
1514181659038;-;-;9.019455;-0.3086548;-2.1217804;-;-;-;-;-;-;-;-;-;-;-;-;-;-;-
1514181659058;-;-;9.068527;-0.26197815;-2.184021;-;-;-;-;-;-;-;-;-;-;-;-;-;-;-
1514181659079;-;-;9.035004;-0.22247314;-2.1959991;-;-;-;-;-;-;-;-;-;-;-;-;-;-;-
1514181659099;-;-;8.952408;-0.22007751;-2.2342987;-;-;-;-;-;-;-;-;-;-;-;-;-;-;-
1514181659120;-;-;8.922485;-0.29788208;-2.1349487;-;-;-;-;-;-;-;-;-;-;-;-;-;-;-
1514181659140;-;-;8.98114;-0.37210083;-2.175644;-;-;-;-;-;-;-;-;-;-;-;-;-;-;-
1514181659160;-;-;9.001495;-0.35534668;-2.1888123;-;-;-;-;-;-;-;-;-;-;-;-;-;-;-
1514181659181;-;-;9.041;-0.33499146;-2.2486725;-;-;-;-;-;-;-;-;-;-;-;-;-;-;-
1514181659201;-;-;9.024231;-0.32302856;-2.2881775;-;-;-;-;-;-;-;-;-;-;-;-;-;-;-
1514181659222;-;-;9.025436;-0.31225586;-2.3133087;-;-;-;-;-;-;-;-;-;-;-;-;-;-;-
1514181659242;-;-;9.006287;-0.31704712;-2.2917633;-;-;-;-;-;-;-;-;-;-;-;-;-;-;-
1514181659263;-;-;9.041;-0.35295105;-2.345642;-;-;-;-;-;-;-;-;-;-;-;-;-;-;-
1514181659283;-;-;9.032608;-0.36253357;-2.2845764;-;-;-;-;-;-;-;-;-;-;-;-;-;-;-
1514181659303;-;-;9.052963;-0.37449646;-2.1947937;-;-;-;-;-;-;-;-;-;-;-;-;-;-;-
1514181659324;-;-;9.050568;-0.3697052;-2.1660767;-;-;-;-;-;-;-;-;-;-;-;-;-;-;-
1514181659343;-;-;9.011063;-0.36611938;-2.1169891;-;-;-;-;-;-;-;-;-;-;-;-;-;-;-
1514181659364;-;-;8.983536;-0.3864746;-2.0260162;-;-;-;-;-;-;-;-;-;-;-;-;-;-;-
1514181659384;-;-;8.951218;-0.3182373;-1.990097;-;-;-;-;-;-;-;-;-;-;-;-;-;-;-
1514181659405;-;-;8.983536;-0.33499146;-2.021225;-;-;-;-;-;-;-;-;-;-;-;-;-;-;-
1514181659425;-;-;9.074509;-0.25360107;-2.0619202;-;-;-;-;-;-;-;-;-;-;-;-;-;-;-
1514181659446;-;-;9.031418;-0.1817627;-2.1217804;-;-;-;-;-;-;-;-;-;-;-;-;-;-;-
1514181659466;-;-;8.969162;-0.13388062;-2.2223358;-;-;-;-;-;-;-;-;-;-;-;-;-;-;-
1514181659486;-;-;8.951218;-0.12669373;-2.2019806;-;-;-;-;-;-;-;-;-;-;-;-;-;-;-
1514181659507;-;-;9.019455;-0.20092773;-2.2175446;-;-;-;-;-;-;-;-;-;-;-;-;-;-;-
1514181659527;-;-;9.039795;-0.23564148;-2.2857819;-;-;-;-;-;-;-;-;-;-;-;-;-;-;-
1514181659548;-;-;9.013458;-0.27394104;-2.3384552;-;-;-;-;-;-;-;-;-;-;-;-;-;-;-
1514181659568;-;-;8.97995;-0.2775421;-2.3372498;-;-;-;-;-;-;-;-;-;-;-;-;-;-;-
1514181659588;-;-;8.929672;-0.33380127;-2.2917633;-;-;-;-;-;-;-;-;-;-;-;-;-;-;-
1514181659609;-;-;8.98233;-0.3481598;-2.271408;-;-;-;-;-;-;-;-;-;-;-;-;-;-;-
1514181659629;-;-;9.024231;-0.39126587;-2.2594452;-;-;-;-;-;-;-;-;-;-;-;-;-;-;-
1514181659650;-;-;9.038605;-0.36611938;-2.302536;-;-;-;-;-;-;-;-;-;-;-;-;-;-;-
1514181659670;-;-;9.036209;-0.29548645;-2.2642365;-;-;-;-;-;-;-;-;-;-;-;-;-;-;-
1514181659693;-;-;9.013458;-0.2775421;-2.263031;-;-;-;-;-;-;-;-;-;-;-;-;-;-;-
1514181659711;-;-;9.012268;-0.23803711;-2.350418;-;-;-;-;-;-;-;-;-;-;-;-;-;-;-
1514181659732;-;-;8.967972;-0.24760437;-2.2989502;-;-;-;-;-;-;-;-;-;-;-;-;-;-;-
1514181659752;-;-;8.954803;-0.2272644;-2.3647919;-;-;-;-;-;-;-;-;-;-;-;-;-;-;-
1514181659773;-;-;8.948822;-0.2715454;-2.3683777;-;-;-;-;-;-;-;-;-;-;-;-;-;-;-
1514181659792;-;-;8.959595;-0.25837708;-2.4354248;-;-;-;-;-;-;-;-;-;-;-;-;-;-;-
1514181659813;-;-;8.930862;-0.28831482;-2.4868927;-;-;-;-;-;-;-;-;-;-;-;-;-;-;-
1514181659833;-;-;8.896149;-0.3361969;-2.4857025;-;-;-;-;-;-;-;-;-;-;-;-;-;-;-
1514181659854;-;-;8.879379;-0.3864746;-2.4306335;-;-;-;-;-;-;-;-;-;-;-;-;-;-;-
1514181659873;-;-;8.969162;-0.44752502;-2.3396454;-;-;-;-;-;-;-;-;-;-;-;-;-;-;-
1514181659894;-;-;9.024231;-0.50738525;-2.3228912;-;-;-;-;-;-;-;-;-;-;-;-;-;-;-
1514181659914;-;-;9.011063;-0.53012085;-2.271408;-;-;-;-;-;-;-;-;-;-;-;-;-;-;-
1514181659934;-;-;9.026627;-0.50138855;-2.2450714;-;-;-;-;-;-;-;-;-;-;-;-;-;-;-
1514181659953;-;-;8.9991;-0.4259796;-2.294159;-;-;-;-;-;-;-;-;-;-;-;-;-;-;-
1514181659973;-;-;8.881775;-0.42358398;-2.207962;-;-;-;-;-;-;-;-;-;-;-;-;-;-;-
1514181659994;-;-;8.938049;-0.3768921;-2.3049316;-;-;-;-;-;-;-;-;-;-;-;-;-;-;-
1514181660014;-;-;8.971558;-0.39604187;-2.3037415;-;-;-;-;-;-;-;-;-;-;-;-;-;-;-
1514181660034;-;-;8.967972;-0.40203857;-2.2881775;-;-;-;-;-;-;-;-;-;-;-;-;-;-;-
1514181660055;-;-;8.938049;-0.42956543;-2.3181;-;-;-;-;-;-;-;-;-;-;-;-;-;-;-
1514181660075;-;-;8.985931;-0.47027588;-2.3480225;-;-;-;-;-;-;-;-;-;-;-;-;-;-;-
1514181660095;-;-;9.003891;-0.4666748;-2.2678223;-;-;-;-;-;-;-;-;-;-;-;-;-;-;-
1514181660115;-;-;9.019455;-0.5253296;-2.2438812;-;-;-;-;-;-;-;-;-;-;-;-;-;-;-
1514181660136;-;-;8.965576;-0.5349121;-2.1768494;-;-;-;-;-;-;-;-;-;-;-;-;-;-;-
1514181660156;-;-;8.977554;-0.52893066;-2.187622;-;-;-;-;-;-;-;-;-;-;-;-;-;-;-
1514181660177;-;-;8.963181;-0.51934814;-2.2247314;-;-;-;-;-;-;-;-;-;-;-;-;-;-;-
1514181660196;-;-;8.969162;-0.44752502;-2.3037415;-;-;-;-;-;-;-;-;-;-;-;-;-;-;-
1514181660217;-;-;9.001495;-0.4379425;-2.342041;-;-;-;-;-;-;-;-;-;-;-;-;-;-;-
