TimeStamp[ms];Prox[Cm];Lux[lux];AccX[m/s^2];AccY[m/s^2];AccZ[m/s^2];GyroX[rad/s];GyroY[rad/s];GyroZ[rad/s];MagnX[uT];MagnY[uT];MagnZ[uT];OrienYaw[degrees];OrienPitch[degrees];OrienRoll[degrees];Press[Pa];Temp[C°];Batt[%];Lat;Lng;Speed[m/s]
1514189159127;-;-;6.9185333;-0.7886963;5.501358;-;-;-;-;-;-;-;-;-;-;-;-;-;-;-
1514189159128;-;-;6.896988;-0.7515869;5.461853;-;-;-;-;-;-;-;-;-;-;-;-;-;-;-
1514189159142;-;-;6.7581177;-0.7084961;5.7240295;-;-;-;-;-;-;-;-;-;-;-;-;-;-;-
1514189159162;-;-;6.94487;-0.52893066;6.165756;-;-;-;-;-;-;-;-;-;-;-;-;-;-;-
1514189159182;-;-;7.3063965;-0.03213501;5.7515564;-;-;-;-;-;-;-;-;-;-;-;-;-;-;-
1514189159203;-;-;7.494339;0.4119873;4.990204;-;-;-;-;-;-;-;-;-;-;-;-;-;-;-
1514189159223;-;-;7.213028;0.1725769;5.492981;-;-;-;-;-;-;-;-;-;-;-;-;-;-;-
1514189159243;-;-;7.573349;0.20848083;5.753952;-;-;-;-;-;-;-;-;-;-;-;-;-;-;-
1514189159264;-;-;8.0138855;-0.00819397;5.7802887;-;-;-;-;-;-;-;-;-;-;-;-;-;-;-
1514189159285;-;-;7.9157257;0.02293396;5.987381;-;-;-;-;-;-;-;-;-;-;-;-;-;-;-
1514189159305;-;-;8.145569;0.105529785;5.21167;-;-;-;-;-;-;-;-;-;-;-;-;-;-;-
1514189159325;-;-;7.8211517;0.22644043;3.7128906;-;-;-;-;-;-;-;-;-;-;-;-;-;-;-
1514189159345;-;-;7.858261;0.39523315;4.616699;-;-;-;-;-;-;-;-;-;-;-;-;-;-;-
1514189159378;-;-;9.15831;-0.0440979;5.496567;-;-;-;-;-;-;-;-;-;-;-;-;-;-;-
1514189159386;-;-;9.038605;0.29707336;3.7547913;-;-;-;-;-;-;-;-;-;-;-;-;-;-;-
1514189159406;-;-;7.4560394;0.6023407;2.2727814;-;-;-;-;-;-;-;-;-;-;-;-;-;-;-
1514189159426;-;-;7.739746;0.4862213;3.240036;-;-;-;-;-;-;-;-;-;-;-;-;-;-;-
1514189159447;-;-;8.709396;-0.7922821;3.4184113;-;-;-;-;-;-;-;-;-;-;-;-;-;-;-
1514189159467;-;-;8.454422;0.19651794;1.4276276;-;-;-;-;-;-;-;-;-;-;-;-;-;-;-
1514189159487;-;-;7.971985;-0.31704712;2.5349426;-;-;-;-;-;-;-;-;-;-;-;-;-;-;-
1514189159508;-;-;8.068954;0.37727356;2.441574;-;-;-;-;-;-;-;-;-;-;-;-;-;-;-
1514189159529;-;-;9.199005;1.2439728;2.0680695;-;-;-;-;-;-;-;-;-;-;-;-;-;-;-
1514189159548;-;-;8.542999;0.85372925;1.4551544;-;-;-;-;-;-;-;-;-;-;-;-;-;-;-
1514189159568;-;-;8.715378;-0.58877563;1.2013702;-;-;-;-;-;-;-;-;-;-;-;-;-;-;-
1514189159589;-;-;10.240494;-0.076416016;1.5892334;-;-;-;-;-;-;-;-;-;-;-;-;-;-;-
1514189159609;-;-;8.915298;0.7256317;-0.09509277;-;-;-;-;-;-;-;-;-;-;-;-;-;-;-
1514189159629;-;-;9.5354;0.048080444;-0.21000671;-;-;-;-;-;-;-;-;-;-;-;-;-;-;-
1514189159649;-;-;8.769257;0.91596985;0.07369995;-;-;-;-;-;-;-;-;-;-;-;-;-;-;-
1514189159669;-;-;9.850235;0.556839;0.27841187;-;-;-;-;-;-;-;-;-;-;-;-;-;-;-
1514189159690;-;-;8.946426;0.3222046;-0.48654175;-;-;-;-;-;-;-;-;-;-;-;-;-;-;-
1514189159710;-;-;8.260483;-0.0021972656;0.06892395;-;-;-;-;-;-;-;-;-;-;-;-;-;-;-
1514189159731;-;-;7.746933;0.34016418;-0.5679474;-;-;-;-;-;-;-;-;-;-;-;-;-;-;-
1514189159751;-;-;6.0685883;0.27552795;-0.14656067;-;-;-;-;-;-;-;-;-;-;-;-;-;-;-
1514189159771;-;-;8.546585;-0.24043274;-1.1700745;-;-;-;-;-;-;-;-;-;-;-;-;-;-;-
1514189159791;-;-;9.284012;-0.71806335;-0.79299927;-;-;-;-;-;-;-;-;-;-;-;-;-;-;-
1514189159812;-;-;10.312317;-0.4092102;-0.9115143;-;-;-;-;-;-;-;-;-;-;-;-;-;-;-
1514189159832;-;-;9.7017975;-0.21887207;-0.06994629;-;-;-;-;-;-;-;-;-;-;-;-;-;-;-
1514189159852;-;-;9.446808;-0.02494812;-0.43266296;-;-;-;-;-;-;-;-;-;-;-;-;-;-;-
1514189159873;-;-;8.64595;0.2192688;-0.98213196;-;-;-;-;-;-;-;-;-;-;-;-;-;-;-
1514189159893;-;-;10.379349;0.512558;0.017440796;-;-;-;-;-;-;-;-;-;-;-;-;-;-;-
1514189159913;-;-;10.139938;0.17736816;-0.9689636;-;-;-;-;-;-;-;-;-;-;-;-;-;-;-
1514189159934;-;-;10.221344;0.3222046;-2.0188293;-;-;-;-;-;-;-;-;-;-;-;-;-;-;-
1514189159954;-;-;9.051773;2.2184143;-1.7147675;-;-;-;-;-;-;-;-;-;-;-;-;-;-;-
1514189159975;-;-;9.63356;-0.7910919;-1.3963318;-;-;-;-;-;-;-;-;-;-;-;-;-;-;-
1514189159995;-;-;9.147537;-0.45710754;-1.1461334;-;-;-;-;-;-;-;-;-;-;-;-;-;-;-
1514189160015;-;-;9.038605;-0.33738708;-1.4633789;-;-;-;-;-;-;-;-;-;-;-;-;-;-;-
1514189160036;-;-;9.33548;-0.2212677;-1.2167664;-;-;-;-;-;-;-;-;-;-;-;-;-;-;-
1514189160056;-;-;9.595245;0.008575439;-0.06036377;-;-;-;-;-;-;-;-;-;-;-;-;-;-;-
1514189160077;-;-;9.171478;-0.2775421;-0.15733337;-;-;-;-;-;-;-;-;-;-;-;-;-;-;-
1514189160096;-;-;8.601654;-0.00340271;-1.6668854;-;-;-;-;-;-;-;-;-;-;-;-;-;-;-
1514189160117;-;-;8.1766815;0.22164917;-1.6237793;-;-;-;-;-;-;-;-;-;-;-;-;-;-;-
1514189160137;-;-;8.662704;0.086380005;-1.2119751;-;-;-;-;-;-;-;-;-;-;-;-;-;-;-
1514189160157;-;-;8.469971;0.4874115;-1.5375977;-;-;-;-;-;-;-;-;-;-;-;-;-;-;-
1514189160178;-;-;8.510681;0.34376526;-1.5387878;-;-;-;-;-;-;-;-;-;-;-;-;-;-;-
1514189160198;-;-;8.349075;1.4211578;-1.990097;-;-;-;-;-;-;-;-;-;-;-;-;-;-;-
1514189160218;-;-;8.443649;1.4893799;-1.697998;-;-;-;-;-;-;-;-;-;-;-;-;-;-;-
1514189160239;-;-;8.720169;1.4654388;-1.7303314;-;-;-;-;-;-;-;-;-;-;-;-;-;-;-
1514189160259;-;-;9.291183;1.0739899;-1.5375977;-;-;-;-;-;-;-;-;-;-;-;-;-;-;-
1514189160279;-;-;9.45639;0.67056274;-1.3963318;-;-;-;-;-;-;-;-;-;-;-;-;-;-;-
1514189160299;-;-;9.118805;0.3617096;-1.0814972;-;-;-;-;-;-;-;-;-;-;-;-;-;-;-
1514189160320;-;-;9.473145;-0.5899811;-1.0970612;-;-;-;-;-;-;-;-;-;-;-;-;-;-;-
1514189160340;-;-;9.748489;-1.412384;-1.0635376;-;-;-;-;-;-;-;-;-;-;-;-;-;-;-
1514189160360;-;-;9.325912;-1.2866974;-1.1856384;-;-;-;-;-;-;-;-;-;-;-;-;-;-;-
1514189160381;-;-;9.289993;-1.3633118;-0.4446411;-;-;-;-;-;-;-;-;-;-;-;-;-;-;-
1514189160401;-;-;9.195419;-1.0424805;-0.35006714;-;-;-;-;-;-;-;-;-;-;-;-;-;-;-
1514189160421;-;-;8.972763;-0.78271484;-0.53800964;-;-;-;-;-;-;-;-;-;-;-;-;-;-;-
1514189160442;-;-;9.115219;0.18334961;-0.16091919;-;-;-;-;-;-;-;-;-;-;-;-;-;-;-
1514189160461;-;-;10.104019;0.9973755;-0.5823059;-;-;-;-;-;-;-;-;-;-;-;-;-;-;-
1514189160481;-;-;8.590881;0.26594543;-1.5148468;-;-;-;-;-;-;-;-;-;-;-;-;-;-;-
1514189160502;-;-;8.8207245;0.338974;-0.961792;-;-;-;-;-;-;-;-;-;-;-;-;-;-;-
1514189160522;-;-;8.119232;0.46826172;-1.1365662;-;-;-;-;-;-;-;-;-;-;-;-;-;-;-
1514189160542;-;-;7.715805;0.44551086;-1.3867645;-;-;-;-;-;-;-;-;-;-;-;-;-;-;-
1514189160562;-;-;8.708206;0.42515564;-0.9797363;-;-;-;-;-;-;-;-;-;-;-;-;-;-;-
1514189160583;-;-;9.355835;0.7411957;-0.48054504;-;-;-;-;-;-;-;-;-;-;-;-;-;-;-
1514189160603;-;-;9.455185;1.4546661;-0.16571045;-;-;-;-;-;-;-;-;-;-;-;-;-;-;-
1514189160623;-;-;8.867416;2.7726746;-0.9845276;-;-;-;-;-;-;-;-;-;-;-;-;-;-;-
1514189160644;-;-;8.624405;2.3345337;-0.9976959;-;-;-;-;-;-;-;-;-;-;-;-;-;-;-
1514189160664;-;-;8.861435;2.002945;-1.7506714;-;-;-;-;-;-;-;-;-;-;-;-;-;-;-
1514189160684;-;-;9.029022;1.1230774;-3.2183228;-;-;-;-;-;-;-;-;-;-;-;-;-;-;-
1514189160704;-;-;9.542587;1.6737366;-2.8412323;-;-;-;-;-;-;-;-;-;-;-;-;-;-;-
1514189160725;-;-;9.487518;1.5480499;-2.1349487;-;-;-;-;-;-;-;-;-;-;-;-;-;-;-
1514189160745;-;-;10.477524;1.4558716;-5.187546;-;-;-;-;-;-;-;-;-;-;-;-;-;-;-
1514189160766;-;-;6.8311462;2.2627106;-3.5319672;-;-;-;-;-;-;-;-;-;-;-;-;-;-;-
1514189160786;-;-;8.180283;0.30784607;-4.9996033;-;-;-;-;-;-;-;-;-;-;-;-;-;-;-
1514189160806;-;-;8.845871;-3.6784973;-2.6401215;-;-;-;-;-;-;-;-;-;-;-;-;-;-;-
1514189160826;-;-;10.58046;-3.2714844;-1.7937775;-;-;-;-;-;-;-;-;-;-;-;-;-;-;-
1514189160847;-;-;9.732925;-0.9107971;-2.2881775;-;-;-;-;-;-;-;-;-;-;-;-;-;-;-
1514189160867;-;-;9.920868;-0.50857544;-2.4198608;-;-;-;-;-;-;-;-;-;-;-;-;-;-;-
1514189160887;-;-;9.878967;-0.46188354;-1.6549072;-;-;-;-;-;-;-;-;-;-;-;-;-;-;-
1514189160908;-;-;9.665878;-1.273529;-1.0276337;-;-;-;-;-;-;-;-;-;-;-;-;-;-;-
1514189160928;-;-;8.865021;-1.8409424;-1.0802917;-;-;-;-;-;-;-;-;-;-;-;-;-;-;-
1514189160948;-;-;8.56575;-1.9103851;-1.4262543;-;-;-;-;-;-;-;-;-;-;-;-;-;-;-
1514189160969;-;-;8.623199;-1.1669769;-1.5998383;-;-;-;-;-;-;-;-;-;-;-;-;-;-;-
1514189160988;-;-;8.2712555;-0.4918213;-1.8248901;-;-;-;-;-;-;-;-;-;-;-;-;-;-;-
1514189161008;-;-;7.217804;0.40242004;-1.9793243;-;-;-;-;-;-;-;-;-;-;-;-;-;-;-
1514189161028;-;-;6.6348267;1.0656128;-1.8224945;-;-;-;-;-;-;-;-;-;-;-;-;-;-;-
1514189161049;-;-;7.00473;1.279892;-1.5148468;-;-;-;-;-;-;-;-;-;-;-;-;-;-;-
1514189161069;-;-;7.494339;1.1398315;-1.4897003;-;-;-;-;-;-;-;-;-;-;-;-;-;-;-
1514189161089;-;-;7.6188354;0.9183655;-1.5256195;-;-;-;-;-;-;-;-;-;-;-;-;-;-;-
1514189161110;-;-;7.3698425;0.6573944;-1.416687;-;-;-;-;-;-;-;-;-;-;-;-;-;-;-
1514189161130;-;-;7.051407;-0.117126465;-1.2263489;-;-;-;-;-;-;-;-;-;-;-;-;-;-;-
1514189161149;-;-;6.937683;-0.88446045;-0.59906006;-;-;-;-;-;-;-;-;-;-;-;-;-;-;-
1514189161169;-;-;7.20105;-1.5213165;-0.07473755;-;-;-;-;-;-;-;-;-;-;-;-;-;-;-
1514189161190;-;-;7.214218;-1.8361664;0.29995728;-;-;-;-;-;-;-;-;-;-;-;-;-;-;-
1514189161210;-;-;7.1555634;-1.9822083;0.11680603;-;-;-;-;-;-;-;-;-;-;-;-;-;-;-
1514189161230;-;-;7.9576263;-1.8062286;-1.0120697;-;-;-;-;-;-;-;-;-;-;-;-;-;-;-
1514189161250;-;-;8.435257;-1.2615509;-1.5842743;-;-;-;-;-;-;-;-;-;-;-;-;-;-;-
1514189161270;-;-;8.459198;-0.11114502;-1.3580322;-;-;-;-;-;-;-;-;-;-;-;-;-;-;-
1514189161291;-;-;8.708206;0.55804443;-0.97016907;-;-;-;-;-;-;-;-;-;-;-;-;-;-;-
1514189161311;-;-;9.100845;0.43832397;-1.045578;-;-;-;-;-;-;-;-;-;-;-;-;-;-;-
1514189161331;-;-;9.49469;-0.06324768;-1.8703918;-;-;-;-;-;-;-;-;-;-;-;-;-;-;-
1514189161352;-;-;8.562149;-0.53012085;-4.0323486;-;-;-;-;-;-;-;-;-;-;-;-;-;-;-
1514189161372;-;-;7.5877075;-0.6079407;-5.6292877;-;-;-;-;-;-;-;-;-;-;-;-;-;-;-
1514189161392;-;-;8.83989;2.1430054;-3.104599;-;-;-;-;-;-;-;-;-;-;-;-;-;-;-
1514189161412;-;-;8.540604;4.6581116;-0.9151001;-;-;-;-;-;-;-;-;-;-;-;-;-;-;-
1514189161433;-;-;10.422455;3.5447998;-2.1014252;-;-;-;-;-;-;-;-;-;-;-;-;-;-;-
1514189161453;-;-;14.596741;2.8169708;-5.230652;-;-;-;-;-;-;-;-;-;-;-;-;-;-;-
1514189161473;-;-;19.17685;3.1246185;-4.6488495;-;-;-;-;-;-;-;-;-;-;-;-;-;-;-
1514189161494;-;-;22.437744;0.040893555;-1.1868439;-;-;-;-;-;-;-;-;-;-;-;-;-;-;-
1514189161514;-;-;19.084671;-3.2307892;-2.8184967;-;-;-;-;-;-;-;-;-;-;-;-;-;-;-
1514189161534;-;-;7.011902;-1.7212372;-1.3364716;-;-;-;-;-;-;-;-;-;-;-;-;-;-;-
1514189161555;-;-;2.7262878;-0.45350647;-0.9474182;-;-;-;-;-;-;-;-;-;-;-;-;-;-;-
1514189161575;-;-;-1.0565491;0.30545044;-0.2399292;-;-;-;-;-;-;-;-;-;-;-;-;-;-;-
1514189161595;-;-;-2.5924377;0.32341003;1.2037659;-;-;-;-;-;-;-;-;-;-;-;-;-;-;-
1514189161616;-;-;1.9553528;-0.04170227;1.3905182;-;-;-;-;-;-;-;-;-;-;-;-;-;-;-
1514189161635;-;-;5.335968;0.2922821;1.7292938;-;-;-;-;-;-;-;-;-;-;-;-;-;-;-
1514189161655;-;-;6.6587677;0.68852234;1.1235657;-;-;-;-;-;-;-;-;-;-;-;-;-;-;-
1514189161675;-;-;7.679886;0.47782898;-0.31774902;-;-;-;-;-;-;-;-;-;-;-;-;-;-;-
1514189161696;-;-;8.26767;-0.3146515;-1.6848297;-;-;-;-;-;-;-;-;-;-;-;-;-;-;-
1514189161716;-;-;9.069733;-0.23443604;-1.6177979;-;-;-;-;-;-;-;-;-;-;-;-;-;-;-
1514189161736;-;-;8.98114;2.3094025;-1.5471649;-;-;-;-;-;-;-;-;-;-;-;-;-;-;-
1514189161756;-;-;7.379425;4.126602;-2.069107;-;-;-;-;-;-;-;-;-;-;-;-;-;-;-
1514189161777;-;-;6.506729;4.679657;-1.9086914;-;-;-;-;-;-;-;-;-;-;-;-;-;-;-
1514189161797;-;-;7.1052856;3.5591736;-2.005661;-;-;-;-;-;-;-;-;-;-;-;-;-;-;-
1514189161817;-;-;7.7182007;1.5552216;-3.891098;-;-;-;-;-;-;-;-;-;-;-;-;-;-;-
1514189161838;-;-;7.4213104;-0.51815796;-6.737793;-;-;-;-;-;-;-;-;-;-;-;-;-;-;-
1514189161857;-;-;9.282806;-2.0947418;-5.8663025;-;-;-;-;-;-;-;-;-;-;-;-;-;-;-
1514189161877;-;-;12.188171;-3.6485748;-3.1620636;-;-;-;-;-;-;-;-;-;-;-;-;-;-;-
1514189161898;-;-;15.313797;-5.3747864;-5.556259;-;-;-;-;-;-;-;-;-;-;-;-;-;-;-
1514189161918;-;-;23.730621;-5.56633;0.76322937;-;-;-;-;-;-;-;-;-;-;-;-;-;-;-
1514189161938;-;-;23.937714;-3.5575867;-1.0024872;-;-;-;-;-;-;-;-;-;-;-;-;-;-;-
1514189161958;-;-;18.304169;-0.23085022;-1.0862885;-;-;-;-;-;-;-;-;-;-;-;-;-;-;-
1514189161979;-;-;10.775589;2.2220154;0.44839478;-;-;-;-;-;-;-;-;-;-;-;-;-;-;-
1514189161999;-;-;5.035492;2.4219208;0.6746521;-;-;-;-;-;-;-;-;-;-;-;-;-;-;-
1514189162019;-;-;3.0961914;0.27192688;0.062927246;-;-;-;-;-;-;-;-;-;-;-;-;-;-;-
1514189162040;-;-;2.2701874;-1.562027;-0.3189392;-;-;-;-;-;-;-;-;-;-;-;-;-;-;-
1514189162060;-;-;4.23584;-2.245575;-1.1724701;-;-;-;-;-;-;-;-;-;-;-;-;-;-;-
1514189162080;-;-;6.568985;-1.0640259;-1.2514801;-;-;-;-;-;-;-;-;-;-;-;-;-;-;-
1514189162100;-;-;7.027466;0.20249939;-0.99650574;-;-;-;-;-;-;-;-;-;-;-;-;-;-;-
1514189162121;-;-;7.064575;0.28630066;-0.85523987;-;-;-;-;-;-;-;-;-;-;-;-;-;-;-
1514189162141;-;-;7.149582;-0.3361969;-0.6828613;-;-;-;-;-;-;-;-;-;-;-;-;-;-;-
1514189162161;-;-;6.975998;-1.3549194;-0.026855469;-;-;-;-;-;-;-;-;-;-;-;-;-;-;-
1514189162182;-;-;7.0023346;-2.2886658;-1.1616974;-;-;-;-;-;-;-;-;-;-;-;-;-;-;-
1514189162202;-;-;7.5122986;-1.8493347;-1.7363129;-;-;-;-;-;-;-;-;-;-;-;-;-;-;-
1514189162222;-;-;7.1232452;-0.19134521;-2.0272064;-;-;-;-;-;-;-;-;-;-;-;-;-;-;-
1514189162243;-;-;6.874237;-0.11352539;-1.2526855;-;-;-;-;-;-;-;-;-;-;-;-;-;-;-
1514189162263;-;-;7.811569;-1.7140503;-0.2866211;-;-;-;-;-;-;-;-;-;-;-;-;-;-;-
1514189162283;-;-;9.343857;-2.6513824;-1.0360107;-;-;-;-;-;-;-;-;-;-;-;-;-;-;-
1514189162304;-;-;9.011063;-1.4818115;-3.1261444;-;-;-;-;-;-;-;-;-;-;-;-;-;-;-
1514189162324;-;-;6.5797577;0.1845398;-4.936157;-;-;-;-;-;-;-;-;-;-;-;-;-;-;-
1514189162344;-;-;5.3012543;1.1601868;-4.7877197;-;-;-;-;-;-;-;-;-;-;-;-;-;-;-
1514189162365;-;-;8.042618;2.8780212;-1.9290466;-;-;-;-;-;-;-;-;-;-;-;-;-;-;-
1514189162385;-;-;10.742081;5.0423737;-4.444153;-;-;-;-;-;-;-;-;-;-;-;-;-;-;-
1514189162405;-;-;15.963837;2.900772;-1.8224945;-;-;-;-;-;-;-;-;-;-;-;-;-;-;-
1514189162426;-;-;19.35521;-1.0257263;-0.4637909;-;-;-;-;-;-;-;-;-;-;-;-;-;-;-
1514189162446;-;-;21.562668;-1.6518097;-6.01355;-;-;-;-;-;-;-;-;-;-;-;-;-;-;-
1514189162466;-;-;17.255508;1.6306458;-4.266983;-;-;-;-;-;-;-;-;-;-;-;-;-;-;-
1514189162486;-;-;11.376541;3.4801636;-2.831665;-;-;-;-;-;-;-;-;-;-;-;-;-;-;-
1514189162507;-;-;7.7756653;2.9534454;-1.5938568;-;-;-;-;-;-;-;-;-;-;-;-;-;-;-
1514189162527;-;-;4.253784;1.3648834;-0.41949463;-;-;-;-;-;-;-;-;-;-;-;-;-;-;-
1514189162547;-;-;1.5974274;-1.0269165;0.3885498;-;-;-;-;-;-;-;-;-;-;-;-;-;-;-
1514189162568;-;-;1.0407715;-3.1745148;0.5286102;-;-;-;-;-;-;-;-;-;-;-;-;-;-;-
1514189162588;-;-;1.9134521;-4.02446;0.43643188;-;-;-;-;-;-;-;-;-;-;-;-;-;-;-
1514189162608;-;-;6.0961304;-1.0305176;0.060531616;-;-;-;-;-;-;-;-;-;-;-;-;-;-;-
1514189162629;-;-;5.9201508;0.64183044;-1.2754211;-;-;-;-;-;-;-;-;-;-;-;-;-;-;-
1514189162649;-;-;5.221039;0.9351349;-1.5914612;-;-;-;-;-;-;-;-;-;-;-;-;-;-;-
1514189162669;-;-;5.1336517;0.62986755;-1.5280151;-;-;-;-;-;-;-;-;-;-;-;-;-;-;-
1514189162690;-;-;6.280487;1.4259338;-0.6912384;-;-;-;-;-;-;-;-;-;-;-;-;-;-;-
1514189162710;-;-;8.001907;3.4286957;-0.7606659;-;-;-;-;-;-;-;-;-;-;-;-;-;-;-
1514189162730;-;-;8.66391;5.306946;-2.2450714;-;-;-;-;-;-;-;-;-;-;-;-;-;-;-
1514189162750;-;-;6.9747925;5.00766;-3.0207977;-;-;-;-;-;-;-;-;-;-;-;-;-;-;-
1514189162771;-;-;5.355118;2.7906342;-5.2689514;-;-;-;-;-;-;-;-;-;-;-;-;-;-;-
1514189162791;-;-;5.5442657;0.32460022;-8.120453;-;-;-;-;-;-;-;-;-;-;-;-;-;-;-
1514189162811;-;-;8.036621;-2.6190643;-6.64682;-;-;-;-;-;-;-;-;-;-;-;-;-;-;-
1514189162831;-;-;12.924393;-5.5483704;-4.8858795;-;-;-;-;-;-;-;-;-;-;-;-;-;-;-
1514189162852;-;-;18.636963;-7.685196;-2.3049316;-;-;-;-;-;-;-;-;-;-;-;-;-;-;-
1514189162872;-;-;24.666748;-6.547943;-2.8268738;-;-;-;-;-;-;-;-;-;-;-;-;-;-;-
1514189162892;-;-;26.127213;-5.325714;-2.6628723;-;-;-;-;-;-;-;-;-;-;-;-;-;-;-
1514189162913;-;-;20.2686;-0.97424316;-1.4130859;-;-;-;-;-;-;-;-;-;-;-;-;-;-;-
1514189162933;-;-;12.362946;-1.0819855;-0.28303528;-;-;-;-;-;-;-;-;-;-;-;-;-;-;-
1514189162953;-;-;5.7776947;-0.36132813;-0.590683;-;-;-;-;-;-;-;-;-;-;-;-;-;-;-
1514189162973;-;-;3.2817383;-0.23085022;-0.7594757;-;-;-;-;-;-;-;-;-;-;-;-;-;-;-
1514189162994;-;-;2.3180695;-1.0400848;-0.9510193;-;-;-;-;-;-;-;-;-;-;-;-;-;-;-
1514189163014;-;-;2.4820862;-1.680542;-1.1054382;-;-;-;-;-;-;-;-;-;-;-;-;-;-;-
1514189163034;-;-;4.8547363;-1.107132;-1.6369476;-;-;-;-;-;-;-;-;-;-;-;-;-;-;-
1514189163055;-;-;5.3898315;0.064834595;-2.0595245;-;-;-;-;-;-;-;-;-;-;-;-;-;-;-
1514189163075;-;-;5.470047;0.71606445;-1.8021545;-;-;-;-;-;-;-;-;-;-;-;-;-;-;-
1514189163095;-;-;5.679535;0.70529175;-1.7650452;-;-;-;-;-;-;-;-;-;-;-;-;-;-;-
1514189163116;-;-;6.189499;0.098358154;-1.7470856;-;-;-;-;-;-;-;-;-;-;-;-;-;-;-
1514189163135;-;-;6.9185333;-0.86291504;-1.2215576;-;-;-;-;-;-;-;-;-;-;-;-;-;-;-
1514189163155;-;-;8.0905;-1.4746399;-1.104248;-;-;-;-;-;-;-;-;-;-;-;-;-;-;-
1514189163176;-;-;9.75087;-1.483017;-0.41949463;-;-;-;-;-;-;-;-;-;-;-;-;-;-;-
1514189163195;-;-;10.185425;-2.0229034;-0.62060547;-;-;-;-;-;-;-;-;-;-;-;-;-;-;-
1514189163215;-;-;8.633987;-2.6071014;-0.98213196;-;-;-;-;-;-;-;-;-;-;-;-;-;-;-
1514189163236;-;-;8.236542;-2.645401;-1.3233032;-;-;-;-;-;-;-;-;-;-;-;-;-;-;-
1514189163256;-;-;8.000717;-2.1378326;-2.6880035;-;-;-;-;-;-;-;-;-;-;-;-;-;-;-
1514189163276;-;-;7.5278625;-0.2679596;-2.4737244;-;-;-;-;-;-;-;-;-;-;-;-;-;-;-
1514189163297;-;-;6.457657;1.2834778;-4.3998566;-;-;-;-;-;-;-;-;-;-;-;-;-;-;-
1514189163317;-;-;7.241745;2.0544128;-1.7806091;-;-;-;-;-;-;-;-;-;-;-;-;-;-;-
1514189163337;-;-;10.288376;2.0209045;-1.8033447;-;-;-;-;-;-;-;-;-;-;-;-;-;-;-
1514189163357;-;-;12.871719;1.9155579;-0.6517334;-;-;-;-;-;-;-;-;-;-;-;-;-;-;-
1514189163378;-;-;14.557236;1.9861755;-0.9438324;-;-;-;-;-;-;-;-;-;-;-;-;-;-;-
1514189163398;-;-;17.831314;2.3309479;-6.2685394;-;-;-;-;-;-;-;-;-;-;-;-;-;-;-
1514189163418;-;-;23.363113;-0.56243896;-3.0507202;-;-;-;-;-;-;-;-;-;-;-;-;-;-;-
1514189163439;-;-;16.719193;-1.2268372;-2.721527;-;-;-;-;-;-;-;-;-;-;-;-;-;-;-
1514189163459;-;-;7.4416656;1.288269;-2.1936035;-;-;-;-;-;-;-;-;-;-;-;-;-;-;-
1514189163479;-;-;2.9453583;2.4925537;-1.7458801;-;-;-;-;-;-;-;-;-;-;-;-;-;-;-
1514189163500;-;-;0.9066925;2.232788;-0.8600311;-;-;-;-;-;-;-;-;-;-;-;-;-;-;-
1514189163519;-;-;0.67684937;0.5676117;-0.3943634;-;-;-;-;-;-;-;-;-;-;-;-;-;-;-
1514189163539;-;-;4.1053467;-0.93115234;-0.44343567;-;-;-;-;-;-;-;-;-;-;-;-;-;-;-
1514189163559;-;-;7.671509;-0.8018646;-0.83369446;-;-;-;-;-;-;-;-;-;-;-;-;-;-;-
1514189163580;-;-;8.206619;-0.30986023;-0.4733734;-;-;-;-;-;-;-;-;-;-;-;-;-;-;-
1514189163600;-;-;8.005508;-0.63905334;0.49388123;-;-;-;-;-;-;-;-;-;-;-;-;-;-;-
1514189163621;-;-;8.128799;-0.68455505;0.048568726;-;-;-;-;-;-;-;-;-;-;-;-;-;-;-
1514189163641;-;-;9.357025;-0.49301147;-2.2857819;-;-;-;-;-;-;-;-;-;-;-;-;-;-;-
1514189163661;-;-;8.712982;0.5352936;-3.2111359;-;-;-;-;-;-;-;-;-;-;-;-;-;-;-
1514189163681;-;-;6.513916;1.9263306;-0.9917145;-;-;-;-;-;-;-;-;-;-;-;-;-;-;-
1514189163702;-;-;5.403;2.6206512;0.1431427;-;-;-;-;-;-;-;-;-;-;-;-;-;-;-
1514189163721;-;-;5.7681274;2.5236816;-1.8643951;-;-;-;-;-;-;-;-;-;-;-;-;-;-;-
1514189163741;-;-;5.06662;1.0656128;-5.2533875;-;-;-;-;-;-;-;-;-;-;-;-;-;-;-
1514189163762;-;-;3.6444702;-0.79348755;-6.3523254;-;-;-;-;-;-;-;-;-;-;-;-;-;-;-
1514189163782;-;-;4.9864197;-2.981781;-4.8930664;-;-;-;-;-;-;-;-;-;-;-;-;-;-;-
1514189163802;-;-;11.576462;-3.8832092;-3.2518463;-;-;-;-;-;-;-;-;-;-;-;-;-;-;-
1514189163823;-;-;18.923065;-3.498932;-3.9557343;-;-;-;-;-;-;-;-;-;-;-;-;-;-;-
1514189163843;-;-;26.527054;-0.40802002;-2.6604767;-;-;-;-;-;-;-;-;-;-;-;-;-;-;-
1514189163863;-;-;24.8918;-4.1070557;-1.9062958;-;-;-;-;-;-;-;-;-;-;-;-;-;-;-
1514189163883;-;-;21.17241;-3.6689148;-3.583435;-;-;-;-;-;-;-;-;-;-;-;-;-;-;-
1514189163904;-;-;11.238876;-0.27514648;0.5369873;-;-;-;-;-;-;-;-;-;-;-;-;-;-;-
1514189163924;-;-;5.007965;1.0488586;-0.20761108;-;-;-;-;-;-;-;-;-;-;-;-;-;-;-
1514189163944;-;-;2.470108;0.7723236;-1.5663147;-;-;-;-;-;-;-;-;-;-;-;-;-;-;-
1514189163965;-;-;0.9845123;0.04208374;-2.0822754;-;-;-;-;-;-;-;-;-;-;-;-;-;-;-
1514189163985;-;-;2.53714;-0.60194397;-2.08107;-;-;-;-;-;-;-;-;-;-;-;-;-;-;-
1514189164005;-;-;7.272873;-0.6510315;-1.2598572;-;-;-;-;-;-;-;-;-;-;-;-;-;-;-
1514189164025;-;-;7.9121246;-0.79467773;-2.2774048;-;-;-;-;-;-;-;-;-;-;-;-;-;-;-
1514189164046;-;-;6.126053;-0.9957886;-2.1193848;-;-;-;-;-;-;-;-;-;-;-;-;-;-;-
1514189164066;-;-;4.9181824;-1.1849365;-1.1964111;-;-;-;-;-;-;-;-;-;-;-;-;-;-;-
1514189164086;-;-;4.9660645;-1.6577911;-0.90911865;-;-;-;-;-;-;-;-;-;-;-;-;-;-;-
1514189164107;-;-;5.592148;-1.6242676;-1.3089447;-;-;-;-;-;-;-;-;-;-;-;-;-;-;-
1514189164127;-;-;7.592499;-0.82580566;-0.8660126;-;-;-;-;-;-;-;-;-;-;-;-;-;-;-
1514189164148;-;-;9.980713;-0.8497467;0.78718567;-;-;-;-;-;-;-;-;-;-;-;-;-;-;-
1514189164168;-;-;9.009872;-2.3988037;0.10722351;-;-;-;-;-;-;-;-;-;-;-;-;-;-;-
1514189164188;-;-;7.477585;-3.7395477;-1.3699951;-;-;-;-;-;-;-;-;-;-;-;-;-;-;-
1514189164208;-;-;6.383438;-2.3341522;-1.8392639;-;-;-;-;-;-;-;-;-;-;-;-;-;-;-
1514189164229;-;-;4.7733307;-0.8880615;-2.883133;-;-;-;-;-;-;-;-;-;-;-;-;-;-;-
1514189164249;-;-;4.517151;0.8417511;-5.8651123;-;-;-;-;-;-;-;-;-;-;-;-;-;-;-
1514189164269;-;-;7.4249115;2.8828125;-4.0036163;-;-;-;-;-;-;-;-;-;-;-;-;-;-;-
1514189164290;-;-;10.00705;2.7798615;-1.8931274;-;-;-;-;-;-;-;-;-;-;-;-;-;-;-
1514189164310;-;-;13.578003;1.8030243;-2.524002;-;-;-;-;-;-;-;-;-;-;-;-;-;-;-
1514189164330;-;-;19.971725;2.0771637;-3.8695374;-;-;-;-;-;-;-;-;-;-;-;-;-;-;-
1514189164350;-;-;27.42128;3.7997894;-6.756958;-;-;-;-;-;-;-;-;-;-;-;-;-;-;-
1514189164371;-;-;25.307205;1.6761322;-6.5031586;-;-;-;-;-;-;-;-;-;-;-;-;-;-;-
1514189164391;-;-;14.025726;1.2990417;-3.729477;-;-;-;-;-;-;-;-;-;-;-;-;-;-;-
1514189164411;-;-;5.3299866;0.536499;-0.37521362;-;-;-;-;-;-;-;-;-;-;-;-;-;-;-
1514189164432;-;-;0.40031433;0.41438293;-1.579483;-;-;-;-;-;-;-;-;-;-;-;-;-;-;-
1514189164452;-;-;-0.751297;0.754364;-1.5244293;-;-;-;-;-;-;-;-;-;-;-;-;-;-;-
1514189164472;-;-;0.73550415;0.70648193;-0.58709717;-;-;-;-;-;-;-;-;-;-;-;-;-;-;-
1514189164493;-;-;4.4369507;-0.9539032;-0.14537048;-;-;-;-;-;-;-;-;-;-;-;-;-;-;-
1514189164513;-;-;8.076126;-1.31781;0.5920563;-;-;-;-;-;-;-;-;-;-;-;-;-;-;-
1514189164533;-;-;8.703415;-0.88327026;-0.1776886;-;-;-;-;-;-;-;-;-;-;-;-;-;-;-
1514189164553;-;-;7.501526;-0.23564148;-1.4909058;-;-;-;-;-;-;-;-;-;-;-;-;-;-;-
1514189164574;-;-;5.873459;0.5628357;-2.5012512;-;-;-;-;-;-;-;-;-;-;-;-;-;-;-
1514189164593;-;-;5.5406647;0.70887756;-1.689621;-;-;-;-;-;-;-;-;-;-;-;-;-;-;-
1514189164613;-;-;6.6695404;0.9399109;-0.48054504;-;-;-;-;-;-;-;-;-;-;-;-;-;-;-
1514189164634;-;-;8.262878;2.0328674;-1.5375977;-;-;-;-;-;-;-;-;-;-;-;-;-;-;-
1514189164653;-;-;7.897766;3.220398;-3.369156;-;-;-;-;-;-;-;-;-;-;-;-;-;-;-
1514189164673;-;-;5.097748;3.517273;-2.8148956;-;-;-;-;-;-;-;-;-;-;-;-;-;-;-
1514189164694;-;-;3.244629;2.4171448;-3.4302063;-;-;-;-;-;-;-;-;-;-;-;-;-;-;-
1514189164714;-;-;3.6073608;0.37608337;-4.788925;-;-;-;-;-;-;-;-;-;-;-;-;-;-;-
1514189164734;-;-;9.578491;-1.8948212;-5.288101;-;-;-;-;-;-;-;-;-;-;-;-;-;-;-
1514189164754;-;-;13.392456;-1.977417;-4.227478;-;-;-;-;-;-;-;-;-;-;-;-;-;-;-
1514189164775;-;-;18.98053;-1.1969147;-0.4733734;-;-;-;-;-;-;-;-;-;-;-;-;-;-;-
1514189164795;-;-;25.259323;-2.7806702;-0.06036377;-;-;-;-;-;-;-;-;-;-;-;-;-;-;-
1514189164815;-;-;25.708237;-7.747452;-1.784195;-;-;-;-;-;-;-;-;-;-;-;-;-;-;-
1514189164836;-;-;25.290436;-8.416626;-6.0793915;-;-;-;-;-;-;-;-;-;-;-;-;-;-;-
1514189164856;-;-;14.49379;-2.071991;-0.6912384;-;-;-;-;-;-;-;-;-;-;-;-;-;-;-
1514189164877;-;-;3.9389496;0.75675964;-0.38838196;-;-;-;-;-;-;-;-;-;-;-;-;-;-;-
1514189164896;-;-;0.8983154;0.8453522;-1.4334412;-;-;-;-;-;-;-;-;-;-;-;-;-;-;-
1514189164917;-;-;0.43025208;0.8190155;-2.2522583;-;-;-;-;-;-;-;-;-;-;-;-;-;-;-
1514189164936;-;-;1.0659027;0.77830505;-1.8057404;-;-;-;-;-;-;-;-;-;-;-;-;-;-;-
1514189164956;-;-;6.340332;-0.14944458;-1.792572;-;-;-;-;-;-;-;-;-;-;-;-;-;-;-
1514189164977;-;-;8.601654;-1.230423;-2.5527344;-;-;-;-;-;-;-;-;-;-;-;-;-;-;-
1514189164997;-;-;6.7006683;-1.8206024;-0.43147278;-;-;-;-;-;-;-;-;-;-;-;-;-;-;-
1514189165017;-;-;5.6424255;-2.0863495;1.2504578;-;-;-;-;-;-;-;-;-;-;-;-;-;-;-
1514189165037;-;-;5.731018;-2.087555;0.49269104;-;-;-;-;-;-;-;-;-;-;-;-;-;-;-
1514189165058;-;-;6.8359375;-2.811798;0.21975708;-;-;-;-;-;-;-;-;-;-;-;-;-;-;-
1514189165078;-;-;7.36026;-4.7199707;1.2181396;-;-;-;-;-;-;-;-;-;-;-;-;-;-;-
1514189165098;-;-;8.435257;-5.854828;1.6993713;-;-;-;-;-;-;-;-;-;-;-;-;-;-;-
1514189165118;-;-;10.556519;-4.108261;1.9663239;-;-;-;-;-;-;-;-;-;-;-;-;-;-;-
1514189165139;-;-;11.102402;-2.8752441;-0.35365295;-;-;-;-;-;-;-;-;-;-;-;-;-;-;-
1514189165160;-;-;8.242523;-2.3066254;-3.4828796;-;-;-;-;-;-;-;-;-;-;-;-;-;-;-
1514189165179;-;-;6.620453;-2.554428;-10.071716;-;-;-;-;-;-;-;-;-;-;-;-;-;-;-
1514189165200;-;-;8.60405;1.0368805;-7.697876;-;-;-;-;-;-;-;-;-;-;-;-;-;-;-
1514189165219;-;-;12.10437;4.7885895;-6.497177;-;-;-;-;-;-;-;-;-;-;-;-;-;-;-
1514189165239;-;-;13.99939;6.4046783;-7.113693;-;-;-;-;-;-;-;-;-;-;-;-;-;-;-
1514189165260;-;-;13.234436;2.646988;-4.6596375;-;-;-;-;-;-;-;-;-;-;-;-;-;-;-
1514189165279;-;-;13.797073;0.66578674;-7.756531;-;-;-;-;-;-;-;-;-;-;-;-;-;-;-
1514189165299;-;-;17.408737;-0.30387878;-5.1707916;-;-;-;-;-;-;-;-;-;-;-;-;-;-;-
1514189165320;-;-;16.878418;-0.3397827;-4.0155945;-;-;-;-;-;-;-;-;-;-;-;-;-;-;-
1514189165340;-;-;12.664627;-0.3757019;-2.436615;-;-;-;-;-;-;-;-;-;-;-;-;-;-;-
1514189165360;-;-;10.545746;-0.8210144;-2.1265717;-;-;-;-;-;-;-;-;-;-;-;-;-;-;-
1514189165380;-;-;9.007477;0.66937256;-2.309723;-;-;-;-;-;-;-;-;-;-;-;-;-;-;-
1514189165401;-;-;6.968811;1.2463684;-2.207962;-;-;-;-;-;-;-;-;-;-;-;-;-;-;-
1514189165421;-;-;5.1444244;-0.26316833;-1.9039001;-;-;-;-;-;-;-;-;-;-;-;-;-;-;-
1514189165441;-;-;3.857544;-2.0612183;-1.2407074;-;-;-;-;-;-;-;-;-;-;-;-;-;-;-
1514189165462;-;-;5.2988586;-2.1079102;-0.67807007;-;-;-;-;-;-;-;-;-;-;-;-;-;-;-
1514189165482;-;-;6.7928467;0.31622314;-1.0791016;-;-;-;-;-;-;-;-;-;-;-;-;-;-;-
1514189165502;-;-;5.6172943;0.74838257;-0.7953949;-;-;-;-;-;-;-;-;-;-;-;-;-;-;-
1514189165522;-;-;5.2461853;0.5951538;-1.3197174;-;-;-;-;-;-;-;-;-;-;-;-;-;-;-
1514189165543;-;-;7.6810913;0.75675964;-1.7267303;-;-;-;-;-;-;-;-;-;-;-;-;-;-;-
1514189165563;-;-;9.588074;1.5540314;-2.271408;-;-;-;-;-;-;-;-;-;-;-;-;-;-;-
1514189165583;-;-;9.585678;2.7044373;-3.405075;-;-;-;-;-;-;-;-;-;-;-;-;-;-;-
1514189165604;-;-;9.638351;3.5519867;-5.065445;-;-;-;-;-;-;-;-;-;-;-;-;-;-;-
1514189165624;-;-;8.23056;4.1253967;-2.1193848;-;-;-;-;-;-;-;-;-;-;-;-;-;-;-
1514189165644;-;-;8.085709;3.0959015;1.2492523;-;-;-;-;-;-;-;-;-;-;-;-;-;-;-
1514189165665;-;-;11.564484;-0.2033081;-4.4070435;-;-;-;-;-;-;-;-;-;-;-;-;-;-;-
1514189165685;-;-;11.456741;-5.15213;-5.2294464;-;-;-;-;-;-;-;-;-;-;-;-;-;-;-
1514189165705;-;-;12.172607;-8.629715;-1.2311401;-;-;-;-;-;-;-;-;-;-;-;-;-;-;-
1514189165725;-;-;13.293091;-9.30368;-5.884262;-;-;-;-;-;-;-;-;-;-;-;-;-;-;-
1514189165746;-;-;10.774399;-5.1485443;-5.85553;-;-;-;-;-;-;-;-;-;-;-;-;-;-;-
1514189165766;-;-;10.655884;-0.6402588;-5.595764;-;-;-;-;-;-;-;-;-;-;-;-;-;-;-
1514189165786;-;-;10.502655;2.9079437;-5.1181183;-;-;-;-;-;-;-;-;-;-;-;-;-;-;-
1514189165807;-;-;10.3302765;2.347702;-5.3611298;-;-;-;-;-;-;-;-;-;-;-;-;-;-;-
1514189165827;-;-;10.02861;-0.54808044;-5.2055054;-;-;-;-;-;-;-;-;-;-;-;-;-;-;-
1514189165847;-;-;8.970367;-1.3369751;-4.0634766;-;-;-;-;-;-;-;-;-;-;-;-;-;-;-
1514189165867;-;-;7.636795;-2.4071808;-2.6365356;-;-;-;-;-;-;-;-;-;-;-;-;-;-;-
1514189165888;-;-;6.178726;-3.0320587;-2.1301575;-;-;-;-;-;-;-;-;-;-;-;-;-;-;-
1514189165907;-;-;5.170761;-2.3401337;-2.4138641;-;-;-;-;-;-;-;-;-;-;-;-;-;-;-
1514189165927;-;-;4.1556244;-1.2507782;-2.4749146;-;-;-;-;-;-;-;-;-;-;-;-;-;-;-
1514189165948;-;-;4.3663177;-0.77194214;-2.0583344;-;-;-;-;-;-;-;-;-;-;-;-;-;-;-
1514189165967;-;-;5.908188;-0.8377838;-2.0595245;-;-;-;-;-;-;-;-;-;-;-;-;-;-;-
1514189165988;-;-;6.6419983;-0.28231812;-1.8811646;-;-;-;-;-;-;-;-;-;-;-;-;-;-;-
1514189166008;-;-;7.119644;0.3605194;-1.4047089;-;-;-;-;-;-;-;-;-;-;-;-;-;-;-
1514189166028;-;-;7.0262756;0.22285461;-1.3723907;-;-;-;-;-;-;-;-;-;-;-;-;-;-;-
1514189166048;-;-;7.9791718;-0.89045715;-1.416687;-;-;-;-;-;-;-;-;-;-;-;-;-;-;-
1514189166069;-;-;9.463577;-1.6937103;-1.4023132;-;-;-;-;-;-;-;-;-;-;-;-;-;-;-
1514189166089;-;-;11.455551;-2.1641693;-1.4992828;-;-;-;-;-;-;-;-;-;-;-;-;-;-;-
1514189166109;-;-;13.078812;-2.1976929;-1.4657593;-;-;-;-;-;-;-;-;-;-;-;-;-;-;-
1514189166129;-;-;13.052475;-1.7906647;-1.0120697;-;-;-;-;-;-;-;-;-;-;-;-;-;-;-
1514189166150;-;-;11.4687195;-1.3393707;0.1874237;-;-;-;-;-;-;-;-;-;-;-;-;-;-;-
1514189166170;-;-;8.911713;-1.8146057;-2.128952;-;-;-;-;-;-;-;-;-;-;-;-;-;-;-
1514189166191;-;-;7.4488525;-3.4103546;-8.210236;-;-;-;-;-;-;-;-;-;-;-;-;-;-;-
1514189166211;-;-;7.356674;-2.9626312;-6.535492;-;-;-;-;-;-;-;-;-;-;-;-;-;-;-
1514189166230;-;-;7.035858;-0.5169525;-4.9253845;-;-;-;-;-;-;-;-;-;-;-;-;-;-;-
1514189166250;-;-;8.970367;2.315384;-4.207123;-;-;-;-;-;-;-;-;-;-;-;-;-;-;-
1514189166270;-;-;11.350204;1.6725464;-4.0981903;-;-;-;-;-;-;-;-;-;-;-;-;-;-;-
1514189166291;-;-;14.247192;-2.6082916;-5.0666504;-;-;-;-;-;-;-;-;-;-;-;-;-;-;-
1514189166311;-;-;17.546402;-6.045166;-3.214737;-;-;-;-;-;-;-;-;-;-;-;-;-;-;-
1514189166331;-;-;15.439499;-4.7942047;-3.156067;-;-;-;-;-;-;-;-;-;-;-;-;-;-;-
1514189166352;-;-;11.048538;-2.2359924;-2.8448334;-;-;-;-;-;-;-;-;-;-;-;-;-;-;-
1514189166372;-;-;6.2709045;-0.77194214;-2.749054;-;-;-;-;-;-;-;-;-;-;-;-;-;-;-
1514189166392;-;-;1.8392334;-0.02734375;-3.1788177;-;-;-;-;-;-;-;-;-;-;-;-;-;-;-
1514189166413;-;-;0.8755646;1.1182861;-3.4230194;-;-;-;-;-;-;-;-;-;-;-;-;-;-;-
1514189166433;-;-;1.8200836;1.8161926;-3.0351715;-;-;-;-;-;-;-;-;-;-;-;-;-;-;-
1514189166453;-;-;6.415756;1.461853;-3.0267792;-;-;-;-;-;-;-;-;-;-;-;-;-;-;-
1514189166474;-;-;10.574478;0.9530792;-2.5371704;-;-;-;-;-;-;-;-;-;-;-;-;-;-;-
1514189166494;-;-;10.388931;1.1230774;-2.4402008;-;-;-;-;-;-;-;-;-;-;-;-;-;-;-
1514189166514;-;-;8.753693;1.8556976;-1.8260956;-;-;-;-;-;-;-;-;-;-;-;-;-;-;-
1514189166535;-;-;8.074936;2.3500977;-1.689621;-;-;-;-;-;-;-;-;-;-;-;-;-;-;-
1514189166555;-;-;7.5685577;2.2339783;-1.6130066;-;-;-;-;-;-;-;-;-;-;-;-;-;-;-
1514189166575;-;-;8.420898;1.2044678;-0.93904114;-;-;-;-;-;-;-;-;-;-;-;-;-;-;-
1514189166595;-;-;8.863831;0.3617096;-0.77264404;-;-;-;-;-;-;-;-;-;-;-;-;-;-;-
1514189166616;-;-;9.196625;0.20010376;-1.5148468;-;-;-;-;-;-;-;-;-;-;-;-;-;-;-
1514189166636;-;-;8.730942;0.82618713;-2.6712494;-;-;-;-;-;-;-;-;-;-;-;-;-;-;-
1514189166656;-;-;8.297592;1.7958374;-3.0279846;-;-;-;-;-;-;-;-;-;-;-;-;-;-;-
1514189166677;-;-;7.564972;3.2694702;-1.0288239;-;-;-;-;-;-;-;-;-;-;-;-;-;-;-
1514189166697;-;-;8.1527405;2.766693;0.57528687;-;-;-;-;-;-;-;-;-;-;-;-;-;-;-
1514189166717;-;-;9.2756195;0.6933136;0.3885498;-;-;-;-;-;-;-;-;-;-;-;-;-;-;-
1514189166737;-;-;10.257248;-0.3469696;-5.5179596;-;-;-;-;-;-;-;-;-;-;-;-;-;-;-
1514189166758;-;-;9.12001;0.3712921;-9.876602;-;-;-;-;-;-;-;-;-;-;-;-;-;-;-
1514189166777;-;-;11.972702;-0.9287567;-5.8651123;-;-;-;-;-;-;-;-;-;-;-;-;-;-;-
1514189166797;-;-;14.281906;-1.6841278;-5.626892;-;-;-;-;-;-;-;-;-;-;-;-;-;-;-
1514189166817;-;-;9.469559;-3.1170654;-7.3219757;-;-;-;-;-;-;-;-;-;-;-;-;-;-;-
1514189166838;-;-;9.561737;-2.6310425;-4.386688;-;-;-;-;-;-;-;-;-;-;-;-;-;-;-
1514189166858;-;-;10.739685;-0.3182373;-3.7139282;-;-;-;-;-;-;-;-;-;-;-;-;-;-;-
1514189166878;-;-;11.538147;1.1422272;-4.1041718;-;-;-;-;-;-;-;-;-;-;-;-;-;-;-
1514189166899;-;-;11.041351;1.6306458;-3.871933;-;-;-;-;-;-;-;-;-;-;-;-;-;-;-
1514189166919;-;-;8.576523;1.8425293;-2.7993317;-;-;-;-;-;-;-;-;-;-;-;-;-;-;-
1514189166939;-;-;6.565384;-0.015365601;-2.5012512;-;-;-;-;-;-;-;-;-;-;-;-;-;-;-
1514189166960;-;-;4.55307;-1.6865234;-1.8500366;-;-;-;-;-;-;-;-;-;-;-;-;-;-;-
1514189166980;-;-;3.2518158;-2.1929016;-1.610611;-;-;-;-;-;-;-;-;-;-;-;-;-;-;-
1514189167000;-;-;1.9697266;-1.8349609;-2.00206;-;-;-;-;-;-;-;-;-;-;-;-;-;-;-
1514189167021;-;-;3.537918;-1.7152557;-2.0032654;-;-;-;-;-;-;-;-;-;-;-;-;-;-;-
1514189167041;-;-;6.632431;-0.9539032;-2.508438;-;-;-;-;-;-;-;-;-;-;-;-;-;-;-
1514189167061;-;-;8.1527405;0.635849;-2.7310944;-;-;-;-;-;-;-;-;-;-;-;-;-;-;-
1514189167082;-;-;8.035431;2.102295;-2.0978394;-;-;-;-;-;-;-;-;-;-;-;-;-;-;-
1514189167102;-;-;7.111267;1.9801941;-0.98931885;-;-;-;-;-;-;-;-;-;-;-;-;-;-;-
1514189167122;-;-;7.396179;0.6059265;-0.38598633;-;-;-;-;-;-;-;-;-;-;-;-;-;-;-
1514189167142;-;-;8.1527405;-1.443512;-0.2566986;-;-;-;-;-;-;-;-;-;-;-;-;-;-;-
1514189167162;-;-;8.83989;-3.9981232;-0.19085693;-;-;-;-;-;-;-;-;-;-;-;-;-;-;-
1514189167182;-;-;8.893753;-5.128189;-0.5404053;-;-;-;-;-;-;-;-;-;-;-;-;-;-;-
1514189167203;-;-;8.100067;-2.997345;-0.08670044;-;-;-;-;-;-;-;-;-;-;-;-;-;-;-
1514189167223;-;-;8.115631;-0.6115265;-0.54759216;-;-;-;-;-;-;-;-;-;-;-;-;-;-;-
1514189167243;-;-;8.058182;0.87646484;-1.7865906;-;-;-;-;-;-;-;-;-;-;-;-;-;-;-
1514189167264;-;-;8.411316;0.5484619;-3.1548767;-;-;-;-;-;-;-;-;-;-;-;-;-;-;-
1514189167284;-;-;8.560959;-0.5313263;-3.4373932;-;-;-;-;-;-;-;-;-;-;-;-;-;-;-
1514189167304;-;-;7.0693665;-1.0484619;-3.5259705;-;-;-;-;-;-;-;-;-;-;-;-;-;-;-
1514189167324;-;-;7.566162;-1.372879;-6.721039;-;-;-;-;-;-;-;-;-;-;-;-;-;-;-
1514189167344;-;-;9.616806;0.60832214;-4.3962708;-;-;-;-;-;-;-;-;-;-;-;-;-;-;-
1514189167365;-;-;10.728912;2.9642181;-4.3663483;-;-;-;-;-;-;-;-;-;-;-;-;-;-;-
1514189167385;-;-;13.228455;3.0432281;-3.942566;-;-;-;-;-;-;-;-;-;-;-;-;-;-;-
1514189167406;-;-;16.227188;1.0344849;-1.6022339;-;-;-;-;-;-;-;-;-;-;-;-;-;-;-
1514189167426;-;-;18.908691;-0.83299255;-6.618088;-;-;-;-;-;-;-;-;-;-;-;-;-;-;-
1514189167446;-;-;17.423096;-0.66539;-2.7897644;-;-;-;-;-;-;-;-;-;-;-;-;-;-;-
1514189167467;-;-;11.681793;1.0368805;-2.045166;-;-;-;-;-;-;-;-;-;-;-;-;-;-;-
1514189167487;-;-;7.2513275;2.6278229;-1.5842743;-;-;-;-;-;-;-;-;-;-;-;-;-;-;-
1514189167507;-;-;3.694748;2.7595062;-0.9330597;-;-;-;-;-;-;-;-;-;-;-;-;-;-;-
1514189167528;-;-;0.37278748;1.3062286;0.115600586;-;-;-;-;-;-;-;-;-;-;-;-;-;-;-
1514189167548;-;-;-0.35983276;-1.1083221;0.12637329;-;-;-;-;-;-;-;-;-;-;-;-;-;-;-
1514189167568;-;-;2.27977;-1.6302643;0.01864624;-;-;-;-;-;-;-;-;-;-;-;-;-;-;-
1514189167589;-;-;7.669113;0.56521606;-0.22317505;-;-;-;-;-;-;-;-;-;-;-;-;-;-;-
1514189167609;-;-;7.7768555;0.7292328;-0.4051361;-;-;-;-;-;-;-;-;-;-;-;-;-;-;-
1514189167629;-;-;7.0502167;-0.30148315;0.15510559;-;-;-;-;-;-;-;-;-;-;-;-;-;-;-
1514189167650;-;-;6.984375;-0.8413696;-0.58828735;-;-;-;-;-;-;-;-;-;-;-;-;-;-;-
1514189167669;-;-;7.5948944;0.24440002;-1.4095001;-;-;-;-;-;-;-;-;-;-;-;-;-;-;-
1514189167689;-;-;8.000717;2.29982;-1.4861145;-;-;-;-;-;-;-;-;-;-;-;-;-;-;-
1514189167710;-;-;8.384979;3.6070557;-2.0439606;-;-;-;-;-;-;-;-;-;-;-;-;-;-;-
1514189167730;-;-;8.56694;2.9295044;-2.436615;-;-;-;-;-;-;-;-;-;-;-;-;-;-;-
1514189167750;-;-;8.522644;0.6717682;-2.931015;-;-;-;-;-;-;-;-;-;-;-;-;-;-;-
1514189167771;-;-;7.772064;-1.1490326;-5.5371094;-;-;-;-;-;-;-;-;-;-;-;-;-;-;-
1514189167791;-;-;6.6264496;-1.6075134;-6.2685394;-;-;-;-;-;-;-;-;-;-;-;-;-;-;-
1514189167811;-;-;6.6851044;-2.2575378;-5.0510864;-;-;-;-;-;-;-;-;-;-;-;-;-;-;-
1514189167832;-;-;10.928818;-2.9111633;-4.4082336;-;-;-;-;-;-;-;-;-;-;-;-;-;-;-
1514189167852;-;-;16.461823;-4.235153;-4.9996033;-;-;-;-;-;-;-;-;-;-;-;-;-;-;-
1514189167872;-;-;21.664429;-1.9283447;-2.840042;-;-;-;-;-;-;-;-;-;-;-;-;-;-;-
1514189167893;-;-;22.44374;-0.9155884;-2.8783417;-;-;-;-;-;-;-;-;-;-;-;-;-;-;-
1514189167913;-;-;17.195648;-1.3597107;-2.5539246;-;-;-;-;-;-;-;-;-;-;-;-;-;-;-
1514189167933;-;-;12.155853;-2.4107666;-1.1425476;-;-;-;-;-;-;-;-;-;-;-;-;-;-;-
1514189167953;-;-;7.4847565;-2.4945679;-0.5535736;-;-;-;-;-;-;-;-;-;-;-;-;-;-;-
1514189167974;-;-;4.1077423;-2.4694214;-0.6230011;-;-;-;-;-;-;-;-;-;-;-;-;-;-;-
1514189167994;-;-;1.9637299;-1.8900299;-0.94862366;-;-;-;-;-;-;-;-;-;-;-;-;-;-;-
1514189168015;-;-;3.1392822;-1.0257263;-1.3029633;-;-;-;-;-;-;-;-;-;-;-;-;-;-;-
1514189168035;-;-;5.3575134;0.27192688;-1.5100555;-;-;-;-;-;-;-;-;-;-;-;-;-;-;-
1514189168055;-;-;5.9512787;1.1051178;-1.1904297;-;-;-;-;-;-;-;-;-;-;-;-;-;-;-
1514189168075;-;-;5.485611;0.22883606;-1.2514801;-;-;-;-;-;-;-;-;-;-;-;-;-;-;-
1514189168096;-;-;6.0326843;-1.289093;-0.91270447;-;-;-;-;-;-;-;-;-;-;-;-;-;-;-
1514189168115;-;-;6.2553406;-1.6709595;-0.86361694;-;-;-;-;-;-;-;-;-;-;-;-;-;-;-
1514189168135;-;-;7.174713;-2.0947418;-1.6704712;-;-;-;-;-;-;-;-;-;-;-;-;-;-;-
1514189168155;-;-;8.648346;-1.4147797;-0.54519653;-;-;-;-;-;-;-;-;-;-;-;-;-;-;-
1514189168176;-;-;10.608002;-1.0400848;0.21855164;-;-;-;-;-;-;-;-;-;-;-;-;-;-;-
1514189168196;-;-;10.460754;-1.977417;0.007858276;-;-;-;-;-;-;-;-;-;-;-;-;-;-;-
1514189168216;-;-;8.182678;-3.8856049;-0.6601105;-;-;-;-;-;-;-;-;-;-;-;-;-;-;-
1514189168237;-;-;5.200699;-4.0316467;-2.06073;-;-;-;-;-;-;-;-;-;-;-;-;-;-;-
1514189168257;-;-;3.8479767;-1.7691193;-3.7941284;-;-;-;-;-;-;-;-;-;-;-;-;-;-;-
1514189168278;-;-;5.3455505;3.7315521;-5.6963196;-;-;-;-;-;-;-;-;-;-;-;-;-;-;-
1514189168298;-;-;9.931641;6.621353;-7.365082;-;-;-;-;-;-;-;-;-;-;-;-;-;-;-
1514189168318;-;-;16.234375;5.6505127;-5.2976837;-;-;-;-;-;-;-;-;-;-;-;-;-;-;-
1514189168338;-;-;23.52472;1.7276154;-1.3903503;-;-;-;-;-;-;-;-;-;-;-;-;-;-;-
1514189168359;-;-;25.292831;-2.0468445;-4.809265;-;-;-;-;-;-;-;-;-;-;-;-;-;-;-
1514189168379;-;-;19.544357;-3.040451;-4.27417;-;-;-;-;-;-;-;-;-;-;-;-;-;-;-
1514189168399;-;-;12.3390045;-2.0707855;-1.7315216;-;-;-;-;-;-;-;-;-;-;-;-;-;-;-
1514189168420;-;-;4.826004;0.5843811;-0.9115143;-;-;-;-;-;-;-;-;-;-;-;-;-;-;-
1514189168439;-;-;-0.4699707;2.3105927;-1.4549866;-;-;-;-;-;-;-;-;-;-;-;-;-;-;-
1514189168459;-;-;-0.1048584;3.1868744;-1.2802124;-;-;-;-;-;-;-;-;-;-;-;-;-;-;-
1514189168479;-;-;5.805237;2.1741333;-0.2674713;-;-;-;-;-;-;-;-;-;-;-;-;-;-;-
1514189168500;-;-;8.754883;0.60832214;-0.4673767;-;-;-;-;-;-;-;-;-;-;-;-;-;-;-
1514189168519;-;-;9.129578;-0.720459;-1.5088654;-;-;-;-;-;-;-;-;-;-;-;-;-;-;-
1514189168539;-;-;8.066559;-0.8305969;-1.0791016;-;-;-;-;-;-;-;-;-;-;-;-;-;-;-
1514189168559;-;-;7.4440613;-0.18894958;-0.57632446;-;-;-;-;-;-;-;-;-;-;-;-;-;-;-
1514189168580;-;-;6.8706512;0.45269775;0.017440796;-;-;-;-;-;-;-;-;-;-;-;-;-;-;-
1514189168600;-;-;6.5043335;-0.12550354;-0.2507019;-;-;-;-;-;-;-;-;-;-;-;-;-;-;-
1514189168620;-;-;6.849106;-0.73483276;-1.5483704;-;-;-;-;-;-;-;-;-;-;-;-;-;-;-
1514189168641;-;-;6.4792023;0.40960693;-1.5998383;-;-;-;-;-;-;-;-;-;-;-;-;-;-;-
1514189168661;-;-;6.0482483;1.9861755;-0.47576904;-;-;-;-;-;-;-;-;-;-;-;-;-;-;-
1514189168681;-;-;6.0027466;3.3760223;-1.0802917;-;-;-;-;-;-;-;-;-;-;-;-;-;-;-
1514189168701;-;-;6.537857;2.7140198;-3.3009186;-;-;-;-;-;-;-;-;-;-;-;-;-;-;-
1514189168722;-;-;5.837555;0.6968994;-3.788147;-;-;-;-;-;-;-;-;-;-;-;-;-;-;-
1514189168742;-;-;5.1097107;-0.28831482;-4.520767;-;-;-;-;-;-;-;-;-;-;-;-;-;-;-
1514189168762;-;-;4.47406;-0.66778564;-3.3847198;-;-;-;-;-;-;-;-;-;-;-;-;-;-;-
1514189168783;-;-;8.477158;-2.372467;-2.282196;-;-;-;-;-;-;-;-;-;-;-;-;-;-;-
1514189168803;-;-;14.881653;-5.2993774;-5.8543396;-;-;-;-;-;-;-;-;-;-;-;-;-;-;-
1514189168824;-;-;20.32965;-5.5483704;-2.8627777;-;-;-;-;-;-;-;-;-;-;-;-;-;-;-
1514189168844;-;-;27.001099;-5.440628;-0.39915466;-;-;-;-;-;-;-;-;-;-;-;-;-;-;-
1514189168864;-;-;23.620483;-5.8416595;-7.118469;-;-;-;-;-;-;-;-;-;-;-;-;-;-;-
1514189168884;-;-;20.16925;-2.7076569;-2.9286194;-;-;-;-;-;-;-;-;-;-;-;-;-;-;-
1514189168904;-;-;11.01741;0.14263916;-0.3368988;-;-;-;-;-;-;-;-;-;-;-;-;-;-;-
1514189168925;-;-;4.4142;2.0137177;-2.3516235;-;-;-;-;-;-;-;-;-;-;-;-;-;-;-
1514189168945;-;-;-0.08091736;2.244751;-2.752655;-;-;-;-;-;-;-;-;-;-;-;-;-;-;-
1514189168965;-;-;-2.7336884;1.2355957;-0.35246277;-;-;-;-;-;-;-;-;-;-;-;-;-;-;-
1514189168985;-;-;3.3092804;-0.5097656;-1.2909851;-;-;-;-;-;-;-;-;-;-;-;-;-;-;-
1514189169005;-;-;6.229004;-0.18296814;-1.8069458;-;-;-;-;-;-;-;-;-;-;-;-;-;-;-
1514189169026;-;-;5.747772;-0.9479065;-0.18965149;-;-;-;-;-;-;-;-;-;-;-;-;-;-;-
1514189169045;-;-;5.3024445;-1.9343262;-0.14297485;-;-;-;-;-;-;-;-;-;-;-;-;-;-;-
1514189169065;-;-;5.0606384;-2.253952;-1.1281891;-;-;-;-;-;-;-;-;-;-;-;-;-;-;-
1514189169085;-;-;6.05542;-2.0073395;-1.3197174;-;-;-;-;-;-;-;-;-;-;-;-;-;-;-
1514189169105;-;-;8.015076;-1.6206818;-1.1904297;-;-;-;-;-;-;-;-;-;-;-;-;-;-;-
1514189169126;-;-;9.382172;-1.4447021;-0.2686615;-;-;-;-;-;-;-;-;-;-;-;-;-;-;-
1514189169146;-;-;9.766434;-1.4423218;0.36340332;-;-;-;-;-;-;-;-;-;-;-;-;-;-;-
1514189169166;-;-;8.64595;-2.487381;0.084472656;-;-;-;-;-;-;-;-;-;-;-;-;-;-;-
1514189169186;-;-;7.8798065;-3.9921417;-0.16091919;-;-;-;-;-;-;-;-;-;-;-;-;-;-;-
1514189169207;-;-;7.4344788;-3.8688354;-1.5328064;-;-;-;-;-;-;-;-;-;-;-;-;-;-;-
1514189169227;-;-;7.0131073;-1.0855713;-4.029953;-;-;-;-;-;-;-;-;-;-;-;-;-;-;-
1514189169247;-;-;7.9205017;2.667328;-7.31839;-;-;-;-;-;-;-;-;-;-;-;-;-;-;-
1514189169267;-;-;11.539337;4.580307;-6.5019684;-;-;-;-;-;-;-;-;-;-;-;-;-;-;-
1514189169288;-;-;14.074799;2.105896;-4.152054;-;-;-;-;-;-;-;-;-;-;-;-;-;-;-
1514189169308;-;-;18.912292;1.2858734;-2.3911285;-;-;-;-;-;-;-;-;-;-;-;-;-;-;-
1514189169328;-;-;22.77893;2.8995667;-6.0446777;-;-;-;-;-;-;-;-;-;-;-;-;-;-;-
1514189169349;-;-;19.240295;2.4865723;-4.8607483;-;-;-;-;-;-;-;-;-;-;-;-;-;-;-
1514189169369;-;-;14.14064;-0.13627625;-2.6508942;-;-;-;-;-;-;-;-;-;-;-;-;-;-;-
1514189169389;-;-;7.845093;-0.17338562;-1.8308868;-;-;-;-;-;-;-;-;-;-;-;-;-;-;-
1514189169410;-;-;2.2450562;1.1518097;-1.4765472;-;-;-;-;-;-;-;-;-;-;-;-;-;-;-
1514189169430;-;-;2.3336334;2.1094818;-1.5016785;-;-;-;-;-;-;-;-;-;-;-;-;-;-;-
1514189169450;-;-;3.1201324;1.853302;-1.0814972;-;-;-;-;-;-;-;-;-;-;-;-;-;-;-
1514189169470;-;-;3.4038544;0.10673523;-0.6708832;-;-;-;-;-;-;-;-;-;-;-;-;-;-;-
1514189169491;-;-;5.22583;-1.372879;-0.22077942;-;-;-;-;-;-;-;-;-;-;-;-;-;-;-
1514189169511;-;-;6.9975433;-1.3573151;-0.013687134;-;-;-;-;-;-;-;-;-;-;-;-;-;-;-
1514189169531;-;-;8.115631;-0.42956543;-1.2598572;-;-;-;-;-;-;-;-;-;-;-;-;-;-;-
1514189169552;-;-;7.576935;0.67056274;-1.7315216;-;-;-;-;-;-;-;-;-;-;-;-;-;-;-
1514189169572;-;-;7.2513275;1.1589813;-1.0348053;-;-;-;-;-;-;-;-;-;-;-;-;-;-;-
1514189169592;-;-;7.5051117;0.6466217;-0.6122284;-;-;-;-;-;-;-;-;-;-;-;-;-;-;-
1514189169612;-;-;8.078522;0.04927063;-0.535614;-;-;-;-;-;-;-;-;-;-;-;-;-;-;-
1514189169633;-;-;8.212601;0.3964386;-1.7351074;-;-;-;-;-;-;-;-;-;-;-;-;-;-;-
1514189169653;-;-;7.2429504;1.7922516;-4.2717743;-;-;-;-;-;-;-;-;-;-;-;-;-;-;-
1514189169674;-;-;5.2354126;3.5843048;-3.4385834;-;-;-;-;-;-;-;-;-;-;-;-;-;-;-
1514189169694;-;-;4.9552917;2.6577606;-0.5631561;-;-;-;-;-;-;-;-;-;-;-;-;-;-;-
1514189169714;-;-;6.6827087;0.8800659;-1.1305847;-;-;-;-;-;-;-;-;-;-;-;-;-;-;-
1514189169735;-;-;9.019455;-0.66778564;-3.6373138;-;-;-;-;-;-;-;-;-;-;-;-;-;-;-
1514189169755;-;-;10.743271;-0.40322876;-4.0790405;-;-;-;-;-;-;-;-;-;-;-;-;-;-;-
1514189169775;-;-;13.682159;-3.8975677;-5.24382;-;-;-;-;-;-;-;-;-;-;-;-;-;-;-
1514189169796;-;-;16.741943;-7.582245;-1.9122772;-;-;-;-;-;-;-;-;-;-;-;-;-;-;-
1514189169816;-;-;21.389084;-6.9286346;-0.95939636;-;-;-;-;-;-;-;-;-;-;-;-;-;-;-
1514189169836;-;-;20.494858;-4.269867;-2.8639832;-;-;-;-;-;-;-;-;-;-;-;-;-;-;-
1514189169856;-;-;18.745895;-0.77194214;-1.456192;-;-;-;-;-;-;-;-;-;-;-;-;-;-;-
1514189169877;-;-;12.467102;0.6933136;-1.2490845;-;-;-;-;-;-;-;-;-;-;-;-;-;-;-
1514189169897;-;-;6.807205;0.2803192;-1.6261749;-;-;-;-;-;-;-;-;-;-;-;-;-;-;-
1514189169917;-;-;4.6811523;-0.9981842;-0.7953949;-;-;-;-;-;-;-;-;-;-;-;-;-;-;-
1514189169938;-;-;6.2242126;-2.4730225;-0.29978943;-;-;-;-;-;-;-;-;-;-;-;-;-;-;-
1514189169958;-;-;7.908539;-2.3856354;-1.2646484;-;-;-;-;-;-;-;-;-;-;-;-;-;-;-
1514189169978;-;-;5.8040314;-1.2208557;-2.207962;-;-;-;-;-;-;-;-;-;-;-;-;-;-;-
1514189169999;-;-;4.4632874;-0.5157623;-2.0858612;-;-;-;-;-;-;-;-;-;-;-;-;-;-;-
1514189170019;-;-;4.4142;-0.33259583;-1.3783722;-;-;-;-;-;-;-;-;-;-;-;-;-;-;-
1514189170039;-;-;5.280899;-0.18296814;-0.30937195;-;-;-;-;-;-;-;-;-;-;-;-;-;-;-
1514189170059;-;-;8.021072;-0.09916687;-0.5858917;-;-;-;-;-;-;-;-;-;-;-;-;-;-;-
1514189170080;-;-;8.16951;-1.0161438;-2.1624756;-;-;-;-;-;-;-;-;-;-;-;-;-;-;-
1514189170100;-;-;6.4600525;-2.0420685;-2.761032;-;-;-;-;-;-;-;-;-;-;-;-;-;-;-
1514189170120;-;-;5.370682;-2.0133362;-1.5974426;-;-;-;-;-;-;-;-;-;-;-;-;-;-;-
1514189170141;-;-;6.0685883;-1.2483826;0.54655457;-;-;-;-;-;-;-;-;-;-;-;-;-;-;-
1514189170161;-;-;7.968399;-1.4399261;2.306305;-;-;-;-;-;-;-;-;-;-;-;-;-;-;-
1514189170181;-;-;8.659119;-2.392807;2.026184;-;-;-;-;-;-;-;-;-;-;-;-;-;-;-
1514189170202;-;-;8.824326;-3.203247;1.2085571;-;-;-;-;-;-;-;-;-;-;-;-;-;-;-
1514189170222;-;-;9.050568;-3.5372467;-1.4190826;-;-;-;-;-;-;-;-;-;-;-;-;-;-;-
1514189170242;-;-;6.8479004;-1.2567596;-1.9230652;-;-;-;-;-;-;-;-;-;-;-;-;-;-;-
1514189170263;-;-;5.32399;-0.081207275;-4.0479126;-;-;-;-;-;-;-;-;-;-;-;-;-;-;-
1514189170283;-;-;5.4568787;1.3864288;-4.6476593;-;-;-;-;-;-;-;-;-;-;-;-;-;-;-
1514189170303;-;-;9.023041;3.8752136;-1.0336151;-;-;-;-;-;-;-;-;-;-;-;-;-;-;-
1514189170324;-;-;13.540894;6.587845;-4.1748047;-;-;-;-;-;-;-;-;-;-;-;-;-;-;-
1514189170344;-;-;20.217133;5.565506;-4.405838;-;-;-;-;-;-;-;-;-;-;-;-;-;-;-
1514189170364;-;-;24.818787;1.9766083;-3.9437714;-;-;-;-;-;-;-;-;-;-;-;-;-;-;-
1514189170384;-;-;22.9944;-2.5915375;-4.3555603;-;-;-;-;-;-;-;-;-;-;-;-;-;-;-
1514189170405;-;-;14.923553;-1.1478271;-1.4909058;-;-;-;-;-;-;-;-;-;-;-;-;-;-;-
1514189170425;-;-;7.4883575;0.095962524;-0.9450226;-;-;-;-;-;-;-;-;-;-;-;-;-;-;-
1514189170445;-;-;2.35997;0.48382568;-0.7451172;-;-;-;-;-;-;-;-;-;-;-;-;-;-;-
1514189170465;-;-;0.28659058;1.1637726;-0.8540497;-;-;-;-;-;-;-;-;-;-;-;-;-;-;-
1514189170486;-;-;0.25068665;1.085968;-0.94262695;-;-;-;-;-;-;-;-;-;-;-;-;-;-;-
1514189170505;-;-;1.4394073;-0.66778564;-0.9043274;-;-;-;-;-;-;-;-;-;-;-;-;-;-;-
1514189170525;-;-;5.6304474;-1.5201263;-0.73553467;-;-;-;-;-;-;-;-;-;-;-;-;-;-;-
1514189170545;-;-;7.628418;-0.093185425;-0.14297485;-;-;-;-;-;-;-;-;-;-;-;-;-;-;-
1514189170566;-;-;7.3614655;1.3253784;-0.15614319;-;-;-;-;-;-;-;-;-;-;-;-;-;-;-
1514189170586;-;-;7.0765533;1.5348816;-0.3081665;-;-;-;-;-;-;-;-;-;-;-;-;-;-;-
1514189170606;-;-;8.039017;1.4199524;-0.98931885;-;-;-;-;-;-;-;-;-;-;-;-;-;-;-
1514189170626;-;-;9.549759;0.79745483;-1.6968079;-;-;-;-;-;-;-;-;-;-;-;-;-;-;-
1514189170647;-;-;8.9392395;0.25875854;-1.5447693;-;-;-;-;-;-;-;-;-;-;-;-;-;-;-
1514189170666;-;-;6.7485504;0.74838257;-0.9151001;-;-;-;-;-;-;-;-;-;-;-;-;-;-;-
1514189170686;-;-;4.4094086;1.971817;-2.124176;-;-;-;-;-;-;-;-;-;-;-;-;-;-;-
1514189170707;-;-;4.486023;2.7128296;-1.6453247;-;-;-;-;-;-;-;-;-;-;-;-;-;-;-
1514189170727;-;-;7.411743;2.1310272;-1.8835602;-;-;-;-;-;-;-;-;-;-;-;-;-;-;-
1514189170747;-;-;10.429626;1.5145264;-1.6118164;-;-;-;-;-;-;-;-;-;-;-;-;-;-;-
1514189170768;-;-;11.2161255;-0.5444946;-4.8379974;-;-;-;-;-;-;-;-;-;-;-;-;-;-;-
1514189170788;-;-;13.964676;-2.7256012;-3.7438507;-;-;-;-;-;-;-;-;-;-;-;-;-;-;-
1514189170808;-;-;15.643005;-6.8304596;-1.5890656;-;-;-;-;-;-;-;-;-;-;-;-;-;-;-
1514189170828;-;-;18.186844;-8.675201;-0.19444275;-;-;-;-;-;-;-;-;-;-;-;-;-;-;-
1514189170849;-;-;16.740753;-5.435837;-0.07952881;-;-;-;-;-;-;-;-;-;-;-;-;-;-;-
1514189170868;-;-;15.625046;-2.0624084;-3.8659515;-;-;-;-;-;-;-;-;-;-;-;-;-;-;-
1514189170888;-;-;13.481049;-0.20092773;-2.5383606;-;-;-;-;-;-;-;-;-;-;-;-;-;-;-
1514189170909;-;-;12.734055;0.4766388;-2.1409302;-;-;-;-;-;-;-;-;-;-;-;-;-;-;-
1514189170929;-;-;9.613205;0.1510315;-2.1253662;-;-;-;-;-;-;-;-;-;-;-;-;-;-;-
1514189170949;-;-;6.4720154;-0.6151123;-1.9841156;-;-;-;-;-;-;-;-;-;-;-;-;-;-;-
1514189170969;-;-;4.484833;-1.4866028;-1.164093;-;-;-;-;-;-;-;-;-;-;-;-;-;-;-
1514189170990;-;-;4.0742188;-1.6889191;-0.6912384;-;-;-;-;-;-;-;-;-;-;-;-;-;-;-
1514189171010;-;-;4.082596;-1.0640259;-0.4925232;-;-;-;-;-;-;-;-;-;-;-;-;-;-;-
1514189171030;-;-;2.5598907;-0.85453796;-0.120224;-;-;-;-;-;-;-;-;-;-;-;-;-;-;-
1514189171050;-;-;2.0200043;-1.506958;-0.44943237;-;-;-;-;-;-;-;-;-;-;-;-;-;-;-
1514189171071;-;-;3.066269;-2.210846;-0.40872192;-;-;-;-;-;-;-;-;-;-;-;-;-;-;-
1514189171091;-;-;5.5670013;-3.0117188;0.2448883;-;-;-;-;-;-;-;-;-;-;-;-;-;-;-
1514189171111;-;-;8.479553;-3.7778625;0.52381897;-;-;-;-;-;-;-;-;-;-;-;-;-;-;-
1514189171132;-;-;10.357803;-3.5001373;-0.88757324;-;-;-;-;-;-;-;-;-;-;-;-;-;-;-
1514189171152;-;-;10.059723;-1.1131134;-0.11543274;-;-;-;-;-;-;-;-;-;-;-;-;-;-;-
1514189171173;-;-;10.953964;-1.2005005;1.7711945;-;-;-;-;-;-;-;-;-;-;-;-;-;-;-
1514189171193;-;-;11.150284;-2.4658356;2.5648804;-;-;-;-;-;-;-;-;-;-;-;-;-;-;-
1514189171213;-;-;10.470337;-2.8237762;1.6047974;-;-;-;-;-;-;-;-;-;-;-;-;-;-;-
1514189171233;-;-;9.117615;-1.743988;0.92485046;-;-;-;-;-;-;-;-;-;-;-;-;-;-;-
1514189171254;-;-;8.07135;-0.7264557;-0.07713318;-;-;-;-;-;-;-;-;-;-;-;-;-;-;-
1514189171274;-;-;6.6779175;-2.2168427;-7.5147095;-;-;-;-;-;-;-;-;-;-;-;-;-;-;-
1514189171294;-;-;6.9736023;-1.8852386;-7.531479;-;-;-;-;-;-;-;-;-;-;-;-;-;-;-
1514189171315;-;-;12.214508;2.145401;-6.132065;-;-;-;-;-;-;-;-;-;-;-;-;-;-;-
1514189171335;-;-;17.02327;4.6425476;-5.1348724;-;-;-;-;-;-;-;-;-;-;-;-;-;-;-
1514189171355;-;-;18.067139;1.9406891;-5.990814;-;-;-;-;-;-;-;-;-;-;-;-;-;-;-
1514189171376;-;-;20.036362;-1.8493347;-7.924118;-;-;-;-;-;-;-;-;-;-;-;-;-;-;-
1514189171396;-;-;16.392395;-2.5915375;-5.274948;-;-;-;-;-;-;-;-;-;-;-;-;-;-;-
1514189171416;-;-;11.84819;-1.3166199;-3.9282074;-;-;-;-;-;-;-;-;-;-;-;-;-;-;-
1514189171437;-;-;10.315903;-0.5037842;-2.0822754;-;-;-;-;-;-;-;-;-;-;-;-;-;-;-
1514189171457;-;-;10.136337;0.8812561;-1.7123718;-;-;-;-;-;-;-;-;-;-;-;-;-;-;-
1514189171477;-;-;7.3267517;2.22081;-1.6992035;-;-;-;-;-;-;-;-;-;-;-;-;-;-;-
1514189171498;-;-;3.8084717;0.97343445;-2.2127533;-;-;-;-;-;-;-;-;-;-;-;-;-;-;-
1514189171518;-;-;1.8452148;-0.8126373;-1.3029633;-;-;-;-;-;-;-;-;-;-;-;-;-;-;-
1514189171538;-;-;3.8383942;-1.843338;0.137146;-;-;-;-;-;-;-;-;-;-;-;-;-;-;-
1514189171558;-;-;8.538208;-1.190918;-0.96777344;-;-;-;-;-;-;-;-;-;-;-;-;-;-;-
1514189171579;-;-;7.940857;-0.10395813;-2.4390106;-;-;-;-;-;-;-;-;-;-;-;-;-;-;-
1514189171599;-;-;6.206253;1.0189209;-2.3743591;-;-;-;-;-;-;-;-;-;-;-;-;-;-;-
1514189171620;-;-;6.011139;1.5384674;-1.9972839;-;-;-;-;-;-;-;-;-;-;-;-;-;-;-
1514189171640;-;-;9.213379;1.7635193;-3.4709167;-;-;-;-;-;-;-;-;-;-;-;-;-;-;-
1514189171659;-;-;11.491455;2.639801;-4.720688;-;-;-;-;-;-;-;-;-;-;-;-;-;-;-
1514189171679;-;-;9.448013;3.2670746;-3.2638092;-;-;-;-;-;-;-;-;-;-;-;-;-;-;-
1514189171699;-;-;9.795166;2.5907135;0.89730835;-;-;-;-;-;-;-;-;-;-;-;-;-;-;-
1514189171720;-;-;10.378159;0.7028961;0.8709717;-;-;-;-;-;-;-;-;-;-;-;-;-;-;-
1514189171740;-;-;9.511459;-1.8026428;-1.8404541;-;-;-;-;-;-;-;-;-;-;-;-;-;-;-
1514189171760;-;-;8.735733;-3.0703735;-2.4653473;-;-;-;-;-;-;-;-;-;-;-;-;-;-;-
1514189171781;-;-;8.74411;-4.235153;-4.9840393;-;-;-;-;-;-;-;-;-;-;-;-;-;-;-
1514189171801;-;-;12.51857;-3.6856842;-5.0079803;-;-;-;-;-;-;-;-;-;-;-;-;-;-;-
1514189171822;-;-;12.99382;-4.00531;-5.9596863;-;-;-;-;-;-;-;-;-;-;-;-;-;-;-
1514189171842;-;-;11.880524;-5.0156555;-5.7430115;-;-;-;-;-;-;-;-;-;-;-;-;-;-;-
1514189171862;-;-;10.731308;-2.104309;-5.4473267;-;-;-;-;-;-;-;-;-;-;-;-;-;-;-
1514189171882;-;-;9.857422;0.82499695;-5.6280823;-;-;-;-;-;-;-;-;-;-;-;-;-;-;-
1514189171903;-;-;9.374985;1.5348816;-5.2378235;-;-;-;-;-;-;-;-;-;-;-;-;-;-;-
1514189171923;-;-;9.39653;-0.3649292;-4.4381714;-;-;-;-;-;-;-;-;-;-;-;-;-;-;-
1514189171943;-;-;8.009094;-1.743988;-3.1153717;-;-;-;-;-;-;-;-;-;-;-;-;-;-;-
1514189171964;-;-;6.9161377;-1.9714355;-2.342041;-;-;-;-;-;-;-;-;-;-;-;-;-;-;-
1514189171984;-;-;5.8088226;-1.8337708;-2.0475616;-;-;-;-;-;-;-;-;-;-;-;-;-;-;-
1514189172004;-;-;5.4125824;-2.1330414;-1.6201935;-;-;-;-;-;-;-;-;-;-;-;-;-;-;-
1514189172025;-;-;5.495178;-2.6358185;-1.2443085;-;-;-;-;-;-;-;-;-;-;-;-;-;-;-
1514189172045;-;-;6.03508;-2.2982483;-1.4753418;-;-;-;-;-;-;-;-;-;-;-;-;-;-;-
1514189172065;-;-;6.588135;-1.3908386;-1.2155762;-;-;-;-;-;-;-;-;-;-;-;-;-;-;-
1514189172086;-;-;6.7808685;-0.6582184;-1.1233978;-;-;-;-;-;-;-;-;-;-;-;-;-;-;-
1514189172106;-;-;6.9747925;-0.56604004;-1.258667;-;-;-;-;-;-;-;-;-;-;-;-;-;-;-
1514189172127;-;-;7.7648926;-0.621109;-1.045578;-;-;-;-;-;-;-;-;-;-;-;-;-;-;-
1514189172146;-;-;9.517441;-0.72406006;-0.82650757;-;-;-;-;-;-;-;-;-;-;-;-;-;-;-
1514189172167;-;-;10.834259;-0.759964;-2.3360596;-;-;-;-;-;-;-;-;-;-;-;-;-;-;-
1514189172187;-;-;11.70813;-0.8377838;-1.4885101;-;-;-;-;-;-;-;-;-;-;-;-;-;-;-
1514189172207;-;-;11.741653;-1.2196503;-0.36802673;-;-;-;-;-;-;-;-;-;-;-;-;-;-;-
1514189172227;-;-;10.749252;-3.005722;-1.8045502;-;-;-;-;-;-;-;-;-;-;-;-;-;-;-
1514189172248;-;-;10.653488;-5.3795776;-7.560211;-;-;-;-;-;-;-;-;-;-;-;-;-;-;-
1514189172268;-;-;11.486679;-4.8768005;-3.2494507;-;-;-;-;-;-;-;-;-;-;-;-;-;-;-
1514189172288;-;-;10.118393;-2.408371;-5.279724;-;-;-;-;-;-;-;-;-;-;-;-;-;-;-
1514189172309;-;-;7.5757446;2.4195251;-5.3048706;-;-;-;-;-;-;-;-;-;-;-;-;-;-;-
1514189172329;-;-;6.515106;4.683243;-4.6129456;-;-;-;-;-;-;-;-;-;-;-;-;-;-;-
1514189172349;-;-;9.541382;1.4905853;-4.5818176;-;-;-;-;-;-;-;-;-;-;-;-;-;-;-
1514189172370;-;-;11.973892;-2.2371826;-4.4429626;-;-;-;-;-;-;-;-;-;-;-;-;-;-;-
1514189172390;-;-;13.300278;-5.3436737;-2.6281433;-;-;-;-;-;-;-;-;-;-;-;-;-;-;-
1514189172410;-;-;13.18895;-4.6385803;-2.041565;-;-;-;-;-;-;-;-;-;-;-;-;-;-;-
1514189172431;-;-;11.800308;-1.8792572;-2.8472137;-;-;-;-;-;-;-;-;-;-;-;-;-;-;-
1514189172450;-;-;9.336685;0.09236145;-3.645691;-;-;-;-;-;-;-;-;-;-;-;-;-;-;-
1514189172470;-;-;6.098526;1.3469238;-3.1931763;-;-;-;-;-;-;-;-;-;-;-;-;-;-;-
1514189172491;-;-;3.272171;1.6043091;-2.7789917;-;-;-;-;-;-;-;-;-;-;-;-;-;-;-
1514189172511;-;-;0.95098877;1.1482086;-2.1121979;-;-;-;-;-;-;-;-;-;-;-;-;-;-;-
1514189172531;-;-;3.311676;0.17616272;-1.9098969;-;-;-;-;-;-;-;-;-;-;-;-;-;-;-
1514189172551;-;-;8.351471;0.27192688;-1.8248901;-;-;-;-;-;-;-;-;-;-;-;-;-;-;-
1514189172572;-;-;11.007828;0.8453522;-1.7123718;-;-;-;-;-;-;-;-;-;-;-;-;-;-;-
1514189172592;-;-;10.588852;1.7132416;-1.5962524;-;-;-;-;-;-;-;-;-;-;-;-;-;-;-
1514189172612;-;-;9.984314;2.8409119;-1.001297;-;-;-;-;-;-;-;-;-;-;-;-;-;-;-
1514189172633;-;-;9.280411;3.3065796;-1.4621735;-;-;-;-;-;-;-;-;-;-;-;-;-;-;-
1514189172653;-;-;8.179077;1.7970428;-1.847641;-;-;-;-;-;-;-;-;-;-;-;-;-;-;-
1514189172673;-;-;7.8211517;0.36650085;-2.2678223;-;-;-;-;-;-;-;-;-;-;-;-;-;-;-
1514189172693;-;-;7.0526123;-0.0069885254;-2.5048523;-;-;-;-;-;-;-;-;-;-;-;-;-;-;-
1514189172714;-;-;6.9113464;1.1362457;-1.0360107;-;-;-;-;-;-;-;-;-;-;-;-;-;-;-
1514189172734;-;-;8.054581;1.7790833;0.75964355;-;-;-;-;-;-;-;-;-;-;-;-;-;-;-
1514189172754;-;-;9.954376;0.35453796;-1.1329651;-;-;-;-;-;-;-;-;-;-;-;-;-;-;-
1514189172775;-;-;11.615952;-0.33259583;-6.6683655;-;-;-;-;-;-;-;-;-;-;-;-;-;-;-
1514189172795;-;-;12.346191;-0.48104858;-8.709427;-;-;-;-;-;-;-;-;-;-;-;-;-;-;-
1514189172815;-;-;13.2404175;-1.9953766;-2.3157043;-;-;-;-;-;-;-;-;-;-;-;-;-;-;-
1514189172836;-;-;10.259644;-3.8005981;-4.851166;-;-;-;-;-;-;-;-;-;-;-;-;-;-;-
1514189172855;-;-;8.055786;-3.7730713;-5.5311127;-;-;-;-;-;-;-;-;-;-;-;-;-;-;-
1514189172875;-;-;9.063736;-1.0341034;-4.6201324;-;-;-;-;-;-;-;-;-;-;-;-;-;-;-
1514189172895;-;-;10.351822;1.8090057;-4.9062347;-;-;-;-;-;-;-;-;-;-;-;-;-;-;-
1514189172916;-;-;9.457581;2.0807495;-4.950531;-;-;-;-;-;-;-;-;-;-;-;-;-;-;-
1514189172936;-;-;10.026215;1.5181122;-2.6784363;-;-;-;-;-;-;-;-;-;-;-;-;-;-;-
1514189172956;-;-;9.264847;0.8309784;-1.6213837;-;-;-;-;-;-;-;-;-;-;-;-;-;-;-
1514189172977;-;-;7.762497;-1.0508575;-1.7147675;-;-;-;-;-;-;-;-;-;-;-;-;-;-;-
1514189172996;-;-;5.6101074;-2.2335968;-1.1197968;-;-;-;-;-;-;-;-;-;-;-;-;-;-;-
1514189173017;-;-;3.6313019;-2.1497955;-1.0743103;-;-;-;-;-;-;-;-;-;-;-;-;-;-;-
1514189173037;-;-;2.2701874;-1.7607422;-1.6177979;-;-;-;-;-;-;-;-;-;-;-;-;-;-;-
1514189173057;-;-;5.1037292;-0.90960693;-2.5527344;-;-;-;-;-;-;-;-;-;-;-;-;-;-;-
1514189173077;-;-;7.403366;0.44311523;-3.065094;-;-;-;-;-;-;-;-;-;-;-;-;-;-;-
1514189173098;-;-;7.7445374;1.8389435;-2.9741058;-;-;-;-;-;-;-;-;-;-;-;-;-;-;-
1514189173117;-;-;5.8171997;2.1322327;-2.5646973;-;-;-;-;-;-;-;-;-;-;-;-;-;-;-
1514189173137;-;-;4.264557;1.2906647;-1.9158783;-;-;-;-;-;-;-;-;-;-;-;-;-;-;-
1514189173157;-;-;4.1723785;0.067230225;-0.2291565;-;-;-;-;-;-;-;-;-;-;-;-;-;-;-
1514189173178;-;-;5.6699524;-1.3070374;1.3689728;-;-;-;-;-;-;-;-;-;-;-;-;-;-;-
1514189173198;-;-;8.757278;-2.558014;1.9806824;-;-;-;-;-;-;-;-;-;-;-;-;-;-;-
1514189173219;-;-;9.613205;-3.0991058;-0.6218109;-;-;-;-;-;-;-;-;-;-;-;-;-;-;-
1514189173239;-;-;8.678268;-3.5791473;-2.5024567;-;-;-;-;-;-;-;-;-;-;-;-;-;-;-
1514189173259;-;-;7.43808;-2.04924;-1.4741516;-;-;-;-;-;-;-;-;-;-;-;-;-;-;-
1514189173280;-;-;6.6156616;-1.2591553;-3.010025;-;-;-;-;-;-;-;-;-;-;-;-;-;-;-
1514189173299;-;-;8.074936;-0.7408142;-8.429306;-;-;-;-;-;-;-;-;-;-;-;-;-;-;-
1514189173319;-;-;10.311127;1.9742126;-6.6695557;-;-;-;-;-;-;-;-;-;-;-;-;-;-;-
1514189173340;-;-;14.196915;4.7562714;-1.9434052;-;-;-;-;-;-;-;-;-;-;-;-;-;-;-
1514189173360;-;-;18.210785;3.76268;-5.1899414;-;-;-;-;-;-;-;-;-;-;-;-;-;-;-
1514189173380;-;-;22.283325;0.3892517;-3.1907806;-;-;-;-;-;-;-;-;-;-;-;-;-;-;-
1514189173400;-;-;18.4095;-1.3692932;-3.9365845;-;-;-;-;-;-;-;-;-;-;-;-;-;-;-
1514189173421;-;-;14.053253;-0.20451355;-3.678009;-;-;-;-;-;-;-;-;-;-;-;-;-;-;-
1514189173441;-;-;8.068954;0.40242004;-3.0291748;-;-;-;-;-;-;-;-;-;-;-;-;-;-;-
1514189173461;-;-;4.4956055;0.7220459;-3.033966;-;-;-;-;-;-;-;-;-;-;-;-;-;-;-
1514189173482;-;-;3.379898;1.027298;-2.4042969;-;-;-;-;-;-;-;-;-;-;-;-;-;-;-
1514189173502;-;-;3.4852448;0.9075928;-1.9673462;-;-;-;-;-;-;-;-;-;-;-;-;-;-;-
1514189173522;-;-;3.3846893;0.4084015;-1.2802124;-;-;-;-;-;-;-;-;-;-;-;-;-;-;-
1514189173543;-;-;3.8000946;-0.33859253;-0.4673767;-;-;-;-;-;-;-;-;-;-;-;-;-;-;-
1514189173563;-;-;4.8247986;-0.37928772;-0.23873901;-;-;-;-;-;-;-;-;-;-;-;-;-;-;-
1514189173583;-;-;5.288086;0.34495544;-0.39915466;-;-;-;-;-;-;-;-;-;-;-;-;-;-;-
1514189173604;-;-;5.063034;0.35333252;-0.9438324;-;-;-;-;-;-;-;-;-;-;-;-;-;-;-
1514189173624;-;-;5.161194;-0.6103363;-1.3340912;-;-;-;-;-;-;-;-;-;-;-;-;-;-;-
1514189173644;-;-;5.8830414;-0.96707153;-1.2945862;-;-;-;-;-;-;-;-;-;-;-;-;-;-;-
1514189173665;-;-;7.469208;-0.20211792;-0.7666626;-;-;-;-;-;-;-;-;-;-;-;-;-;-;-
1514189173685;-;-;9.419281;2.2315826;-0.7163849;-;-;-;-;-;-;-;-;-;-;-;-;-;-;-
1514189173705;-;-;9.584473;4.564743;-1.9673462;-;-;-;-;-;-;-;-;-;-;-;-;-;-;-
1514189173726;-;-;7.811569;4.0260468;-3.7474365;-;-;-;-;-;-;-;-;-;-;-;-;-;-;-
1514189173746;-;-;6.2278137;1.2870789;-6.40979;-;-;-;-;-;-;-;-;-;-;-;-;-;-;-
1514189173766;-;-;5.375473;-2.0133362;-7.0681915;-;-;-;-;-;-;-;-;-;-;-;-;-;-;-
1514189173786;-;-;11.392105;-4.482956;-3.097412;-;-;-;-;-;-;-;-;-;-;-;-;-;-;-
1514189173807;-;-;17.153748;-5.217972;-4.685974;-;-;-;-;-;-;-;-;-;-;-;-;-;-;-
1514189173827;-;-;26.112854;-3.8772125;-1.8332825;-;-;-;-;-;-;-;-;-;-;-;-;-;-;-
1514189173847;-;-;30.357773;-6.905884;-3.1943817;-;-;-;-;-;-;-;-;-;-;-;-;-;-;-
1514189173868;-;-;22.386276;-3.5288544;-3.4625244;-;-;-;-;-;-;-;-;-;-;-;-;-;-;-
1514189173888;-;-;13.331406;0.42037964;-0.6840515;-;-;-;-;-;-;-;-;-;-;-;-;-;-;-
1514189173909;-;-;4.961273;1.6031036;-1.0527649;-;-;-;-;-;-;-;-;-;-;-;-;-;-;-
1514189173928;-;-;0.8743744;0.62268066;-1.7351074;-;-;-;-;-;-;-;-;-;-;-;-;-;-;-
1514189173949;-;-;-1.4707489;-0.80784607;-0.7846222;-;-;-;-;-;-;-;-;-;-;-;-;-;-;-
1514189173969;-;-;2.7562103;-2.5520325;-2.1253662;-;-;-;-;-;-;-;-;-;-;-;-;-;-;-
1514189173989;-;-;6.2242126;-1.4746399;-2.1564941;-;-;-;-;-;-;-;-;-;-;-;-;-;-;-
1514189174010;-;-;6.8083954;-0.4056244;-1.9996796;-;-;-;-;-;-;-;-;-;-;-;-;-;-;-
1514189174030;-;-;5.545456;-0.5792084;-2.3719635;-;-;-;-;-;-;-;-;-;-;-;-;-;-;-
1514189174050;-;-;4.196335;-0.90242004;-2.23909;-;-;-;-;-;-;-;-;-;-;-;-;-;-;-
1514189174071;-;-;3.8994446;-1.491394;-1.2502899;-;-;-;-;-;-;-;-;-;-;-;-;-;-;-
1514189174091;-;-;4.0574646;-1.8062286;-0.97135925;-;-;-;-;-;-;-;-;-;-;-;-;-;-;-
1514189174112;-;-;4.6189117;-0.71447754;0.18504333;-;-;-;-;-;-;-;-;-;-;-;-;-;-;-
1514189174132;-;-;6.8826294;0.2013092;1.3186951;-;-;-;-;-;-;-;-;-;-;-;-;-;-;-
1514189174152;-;-;9.57251;-0.6869507;1.4946594;-;-;-;-;-;-;-;-;-;-;-;-;-;-;-
1514189174173;-;-;9.977127;-3.3852081;-0.049591064;-;-;-;-;-;-;-;-;-;-;-;-;-;-;-
1514189174193;-;-;9.324707;-5.9913025;-1.9613647;-;-;-;-;-;-;-;-;-;-;-;-;-;-;-
1514189174213;-;-;6.3056183;-2.6621552;-3.8803253;-;-;-;-;-;-;-;-;-;-;-;-;-;-;-
1514189174233;-;-;5.8471375;1.2296143;-7.4632416;-;-;-;-;-;-;-;-;-;-;-;-;-;-;-
1514189174254;-;-;9.9591675;3.6489563;-3.7941284;-;-;-;-;-;-;-;-;-;-;-;-;-;-;-
1514189174274;-;-;14.310638;1.2044678;-2.9214478;-;-;-;-;-;-;-;-;-;-;-;-;-;-;-
1514189174294;-;-;18.844055;0.46466064;-3.9138336;-;-;-;-;-;-;-;-;-;-;-;-;-;-;-
1514189174314;-;-;28.244888;4.700012;-6.8587036;-;-;-;-;-;-;-;-;-;-;-;-;-;-;-
1514189174335;-;-;29.585648;3.9685822;-7.179535;-;-;-;-;-;-;-;-;-;-;-;-;-;-;-
1514189174355;-;-;16.765884;-1.6446228;-1.7650452;-;-;-;-;-;-;-;-;-;-;-;-;-;-;-
1514189174375;-;-;7.1519775;-2.7172241;-0.18367004;-;-;-;-;-;-;-;-;-;-;-;-;-;-;-
1514189174396;-;-;-0.48912048;-0.74679565;-1.4286499;-;-;-;-;-;-;-;-;-;-;-;-;-;-;-
