TimeStamp[ms];Prox[Cm];Lux[lux];AccX[m/s^2];AccY[m/s^2];AccZ[m/s^2];GyroX[rad/s];GyroY[rad/s];GyroZ[rad/s];MagnX[uT];MagnY[uT];MagnZ[uT];OrienYaw[degrees];OrienPitch[degrees];OrienRoll[degrees];Press[Pa];Temp[C°];Batt[%];Lat;Lng;Speed[m/s]
1514189203065;-;-;8.766861;-2.111496;0.21975708;-;-;-;-;-;-;-;-;-;-;-;-;-;-;-
1514189203069;-;-;8.766861;-2.111496;0.21975708;-;-;-;-;-;-;-;-;-;-;-;-;-;-;-
1514189203089;-;-;8.873398;-2.056427;-0.16810608;-;-;-;-;-;-;-;-;-;-;-;-;-;-;-
1514189203109;-;-;9.131973;-2.104309;-0.19325256;-;-;-;-;-;-;-;-;-;-;-;-;-;-;-
1514189203130;-;-;8.955994;-2.0863495;-0.12741089;-;-;-;-;-;-;-;-;-;-;-;-;-;-;-
1514189203150;-;-;9.118805;-2.04924;-0.07473755;-;-;-;-;-;-;-;-;-;-;-;-;-;-;-
1514189203170;-;-;9.125992;-1.7547607;-0.30218506;-;-;-;-;-;-;-;-;-;-;-;-;-;-;-
1514189203191;-;-;8.734543;-1.4075928;-0.7917938;-;-;-;-;-;-;-;-;-;-;-;-;-;-;-
1514189203211;-;-;9.122391;-1.5895538;-0.3368988;-;-;-;-;-;-;-;-;-;-;-;-;-;-;-
1514189203231;-;-;9.178665;-1.4602661;-0.107055664;-;-;-;-;-;-;-;-;-;-;-;-;-;-;-
1514189203252;-;-;7.4284973;0.9961853;1.4683228;-;-;-;-;-;-;-;-;-;-;-;-;-;-;-
1514189203271;-;-;7.4452667;-0.6534271;-1.8787689;-;-;-;-;-;-;-;-;-;-;-;-;-;-;-
1514189203291;-;-;10.022614;-0.43554688;-0.5128784;-;-;-;-;-;-;-;-;-;-;-;-;-;-;-
1514189203315;-;-;9.882553;-0.6246948;-1.6632843;-;-;-;-;-;-;-;-;-;-;-;-;-;-;-
1514189203332;-;-;9.571304;-0.9287567;-0.40992737;-;-;-;-;-;-;-;-;-;-;-;-;-;-;-
1514189203352;-;-;10.728912;-0.6067352;-2.0403748;-;-;-;-;-;-;-;-;-;-;-;-;-;-;-
1514189203375;-;-;10.675034;-1.2866974;0.9775238;-;-;-;-;-;-;-;-;-;-;-;-;-;-;-
1514189203394;-;-;9.822708;-1.4686584;-0.7810211;-;-;-;-;-;-;-;-;-;-;-;-;-;-;-
1514189203414;-;-;8.541809;-0.9191742;-0.76187134;-;-;-;-;-;-;-;-;-;-;-;-;-;-;-
1514189203434;-;-;8.795593;-0.720459;-0.44703674;-;-;-;-;-;-;-;-;-;-;-;-;-;-;-
1514189203455;-;-;7.6188354;-0.25958252;-0.4015503;-;-;-;-;-;-;-;-;-;-;-;-;-;-;-
1514189203475;-;-;8.443649;-0.25958252;-0.98812866;-;-;-;-;-;-;-;-;-;-;-;-;-;-;-
1514189203496;-;-;8.92128;-0.3984375;-0.47097778;-;-;-;-;-;-;-;-;-;-;-;-;-;-;-
1514189203516;-;-;10.689407;-1.0005798;0.6064148;-;-;-;-;-;-;-;-;-;-;-;-;-;-;-
1514189203536;-;-;9.086487;-0.39485168;-2.0391846;-;-;-;-;-;-;-;-;-;-;-;-;-;-;-
1514189203557;-;-;8.26886;1.640213;-0.377594;-;-;-;-;-;-;-;-;-;-;-;-;-;-;-
1514189203577;-;-;8.509476;0.91596985;-1.3712006;-;-;-;-;-;-;-;-;-;-;-;-;-;-;-
1514189203597;-;-;8.130005;0.6143036;-1.3807678;-;-;-;-;-;-;-;-;-;-;-;-;-;-;-
1514189203617;-;-;9.359421;-0.093185425;-0.23873901;-;-;-;-;-;-;-;-;-;-;-;-;-;-;-
1514189203638;-;-;8.280838;3.8464813;-1.4298553;-;-;-;-;-;-;-;-;-;-;-;-;-;-;-
1514189203657;-;-;10.159088;-1.1250763;-1.6369476;-;-;-;-;-;-;-;-;-;-;-;-;-;-;-
1514189203677;-;-;10.28479;0.34854126;-0.4626007;-;-;-;-;-;-;-;-;-;-;-;-;-;-;-
1514189203698;-;-;9.045776;0.6945038;-1.0324097;-;-;-;-;-;-;-;-;-;-;-;-;-;-;-
1514189203718;-;-;7.304001;0.6789551;-0.9342499;-;-;-;-;-;-;-;-;-;-;-;-;-;-;-
1514189203738;-;-;9.397736;1.4594574;-0.60505676;-;-;-;-;-;-;-;-;-;-;-;-;-;-;-
1514189203758;-;-;8.958389;-0.78630066;-1.4274597;-;-;-;-;-;-;-;-;-;-;-;-;-;-;-
1514189203779;-;-;10.293167;-1.0484619;-1.4107056;-;-;-;-;-;-;-;-;-;-;-;-;-;-;-
1514189203799;-;-;10.848618;-0.5636444;-1.447815;-;-;-;-;-;-;-;-;-;-;-;-;-;-;-
1514189203819;-;-;10.166275;-0.8473511;-1.8560181;-;-;-;-;-;-;-;-;-;-;-;-;-;-;-
1514189203840;-;-;9.269638;-1.4363251;-2.7694092;-;-;-;-;-;-;-;-;-;-;-;-;-;-;-
1514189203859;-;-;9.997482;-1.2196503;-2.5036469;-;-;-;-;-;-;-;-;-;-;-;-;-;-;-
1514189203879;-;-;8.772842;-2.6442108;-0.8971405;-;-;-;-;-;-;-;-;-;-;-;-;-;-;-
1514189203900;-;-;10.800735;-2.3473206;-2.1924133;-;-;-;-;-;-;-;-;-;-;-;-;-;-;-
1514189203919;-;-;9.839462;-1.961853;-0.8576355;-;-;-;-;-;-;-;-;-;-;-;-;-;-;-
1514189203939;-;-;7.635605;-0.7803192;-1.2095795;-;-;-;-;-;-;-;-;-;-;-;-;-;-;-
1514189203959;-;-;8.44603;0.03491211;-2.4246368;-;-;-;-;-;-;-;-;-;-;-;-;-;-;-
1514189203980;-;-;10.515823;0.16419983;-1.5998383;-;-;-;-;-;-;-;-;-;-;-;-;-;-;-
1514189204000;-;-;10.539764;-0.32781982;-2.2522583;-;-;-;-;-;-;-;-;-;-;-;-;-;-;-
1514189204020;-;-;10.210556;-0.5133667;-1.3185272;-;-;-;-;-;-;-;-;-;-;-;-;-;-;-
1514189204041;-;-;9.327103;-0.5648346;-1.1329651;-;-;-;-;-;-;-;-;-;-;-;-;-;-;-
1514189204061;-;-;7.4680023;-0.18894958;-0.5823059;-;-;-;-;-;-;-;-;-;-;-;-;-;-;-
1514189204081;-;-;6.015915;-0.25479126;-1.377182;-;-;-;-;-;-;-;-;-;-;-;-;-;-;-
1514189204102;-;-;7.264496;-2.1138916;-2.55513;-;-;-;-;-;-;-;-;-;-;-;-;-;-;-
1514189204122;-;-;7.621231;-1.9319305;-2.0116425;-;-;-;-;-;-;-;-;-;-;-;-;-;-;-
1514189204142;-;-;7.810379;-1.5656128;0.10482788;-;-;-;-;-;-;-;-;-;-;-;-;-;-;-
1514189204162;-;-;9.15712;-0.74679565;-0.47097778;-;-;-;-;-;-;-;-;-;-;-;-;-;-;-
1514189204183;-;-;8.423294;0.9866028;-0.024459839;-;-;-;-;-;-;-;-;-;-;-;-;-;-;-
1514189204203;-;-;8.855438;1.2667236;0.9128723;-;-;-;-;-;-;-;-;-;-;-;-;-;-;-
1514189204223;-;-;7.2238007;0.5352936;0.6542969;-;-;-;-;-;-;-;-;-;-;-;-;-;-;-
1514189204244;-;-;8.558563;1.3768616;-1.2885895;-;-;-;-;-;-;-;-;-;-;-;-;-;-;-
1514189204264;-;-;9.901718;1.3565063;-1.0814972;-;-;-;-;-;-;-;-;-;-;-;-;-;-;-
1514189204284;-;-;9.637146;0.89442444;-2.3252869;-;-;-;-;-;-;-;-;-;-;-;-;-;-;-
1514189204304;-;-;6.340332;0.20010376;-4.345993;-;-;-;-;-;-;-;-;-;-;-;-;-;-;-
1514189204325;-;-;8.32991;-1.9857941;-5.3323975;-;-;-;-;-;-;-;-;-;-;-;-;-;-;-
1514189204344;-;-;8.345474;-2.3114166;-5.0043945;-;-;-;-;-;-;-;-;-;-;-;-;-;-;-
1514189204364;-;-;10.526596;-5.0431976;-2.6916046;-;-;-;-;-;-;-;-;-;-;-;-;-;-;-
1514189204384;-;-;12.876511;-4.2016296;0.2987671;-;-;-;-;-;-;-;-;-;-;-;-;-;-;-
1514189204405;-;-;11.321472;-2.3868256;-0.6840515;-;-;-;-;-;-;-;-;-;-;-;-;-;-;-
1514189204425;-;-;10.836639;-1.0700226;-2.0475616;-;-;-;-;-;-;-;-;-;-;-;-;-;-;-
1514189204445;-;-;11.139511;-0.700119;-2.230713;-;-;-;-;-;-;-;-;-;-;-;-;-;-;-
1514189204465;-;-;10.441605;-0.093185425;-1.7015991;-;-;-;-;-;-;-;-;-;-;-;-;-;-;-
1514189204486;-;-;12.366547;-0.35176086;-4.524353;-;-;-;-;-;-;-;-;-;-;-;-;-;-;-
1514189204506;-;-;13.223663;-0.0105896;-3.0459442;-;-;-;-;-;-;-;-;-;-;-;-;-;-;-
1514189204526;-;-;9.506668;0.9470978;-2.547943;-;-;-;-;-;-;-;-;-;-;-;-;-;-;-
1514189204546;-;-;5.735794;1.145813;-1.0515747;-;-;-;-;-;-;-;-;-;-;-;-;-;-;-
1514189204566;-;-;3.1823883;0.07321167;-0.4350586;-;-;-;-;-;-;-;-;-;-;-;-;-;-;-
1514189204587;-;-;3.0112;-1.214859;-0.64694214;-;-;-;-;-;-;-;-;-;-;-;-;-;-;-
1514189204607;-;-;4.4333496;-1.5799866;-1.0000916;-;-;-;-;-;-;-;-;-;-;-;-;-;-;-
1514189204627;-;-;6.52948;-1.0987396;-1.1126251;-;-;-;-;-;-;-;-;-;-;-;-;-;-;-
1514189204648;-;-;8.416107;-1.0221252;-0.9330597;-;-;-;-;-;-;-;-;-;-;-;-;-;-;-
1514189204668;-;-;9.451599;-1.3860474;-1.0228424;-;-;-;-;-;-;-;-;-;-;-;-;-;-;-
1514189204688;-;-;9.359421;-1.546463;-1.195221;-;-;-;-;-;-;-;-;-;-;-;-;-;-;-
1514189204709;-;-;7.715805;-0.98143005;-1.3819733;-;-;-;-;-;-;-;-;-;-;-;-;-;-;-
1514189204729;-;-;5.613693;-0.16740417;-1.0360107;-;-;-;-;-;-;-;-;-;-;-;-;-;-;-
1514189204749;-;-;4.180771;0.5532532;-0.5404053;-;-;-;-;-;-;-;-;-;-;-;-;-;-;-
1514189204770;-;-;4.264557;1.0739899;-0.35365295;-;-;-;-;-;-;-;-;-;-;-;-;-;-;-
1514189204790;-;-;6.196686;0.92674255;-0.36442566;-;-;-;-;-;-;-;-;-;-;-;-;-;-;-
1514189204811;-;-;7.6427765;0.75556946;-1.1054382;-;-;-;-;-;-;-;-;-;-;-;-;-;-;-
1514189204831;-;-;8.24971;0.59754944;-2.309723;-;-;-;-;-;-;-;-;-;-;-;-;-;-;-
1514189204851;-;-;7.7804413;-0.11592102;-2.4964752;-;-;-;-;-;-;-;-;-;-;-;-;-;-;-
1514189204871;-;-;7.7768555;-1.4602661;-0.38598633;-;-;-;-;-;-;-;-;-;-;-;-;-;-;-
1514189204891;-;-;8.872208;-1.467453;-0.8097534;-;-;-;-;-;-;-;-;-;-;-;-;-;-;-
1514189204912;-;-;9.886154;-1.1346588;-5.7358246;-;-;-;-;-;-;-;-;-;-;-;-;-;-;-
1514189204932;-;-;9.615601;-1.6877136;-9.985535;-;-;-;-;-;-;-;-;-;-;-;-;-;-;-
1514189204952;-;-;12.037338;-2.5831451;-7.7948303;-;-;-;-;-;-;-;-;-;-;-;-;-;-;-
1514189204973;-;-;15.051636;-4.1022797;-3.2973328;-;-;-;-;-;-;-;-;-;-;-;-;-;-;-
1514189204993;-;-;16.418732;-3.9394684;0.2700348;-;-;-;-;-;-;-;-;-;-;-;-;-;-;-
1514189205013;-;-;14.587158;-1.491394;-1.2873993;-;-;-;-;-;-;-;-;-;-;-;-;-;-;-
1514189205034;-;-;10.325485;-2.7435608;-1.1569061;-;-;-;-;-;-;-;-;-;-;-;-;-;-;-
1514189205054;-;-;11.993042;-3.8736267;-1.282608;-;-;-;-;-;-;-;-;-;-;-;-;-;-;-
1514189205074;-;-;13.083603;-2.614273;-1.2490845;-;-;-;-;-;-;-;-;-;-;-;-;-;-;-
1514189205095;-;-;12.971085;-1.3585205;-2.0858612;-;-;-;-;-;-;-;-;-;-;-;-;-;-;-
1514189205115;-;-;10.551743;-0.33021545;-2.4617462;-;-;-;-;-;-;-;-;-;-;-;-;-;-;-
1514189205135;-;-;8.065353;0.2420044;-2.4641418;-;-;-;-;-;-;-;-;-;-;-;-;-;-;-
1514189205155;-;-;5.161194;0.13905334;-2.0092468;-;-;-;-;-;-;-;-;-;-;-;-;-;-;-
1514189205176;-;-;3.7749481;-0.43675232;-0.961792;-;-;-;-;-;-;-;-;-;-;-;-;-;-;-
1514189205196;-;-;5.22464;-1.3621063;-1.1377563;-;-;-;-;-;-;-;-;-;-;-;-;-;-;-
1514189205216;-;-;6.783264;-1.0747986;-1.0431824;-;-;-;-;-;-;-;-;-;-;-;-;-;-;-
1514189205237;-;-;5.7609406;0.048080444;-1.5675201;-;-;-;-;-;-;-;-;-;-;-;-;-;-;-
1514189205257;-;-;5.14682;-0.100372314;-1.8380585;-;-;-;-;-;-;-;-;-;-;-;-;-;-;-
1514189205277;-;-;5.437729;-1.1789551;-2.1098022;-;-;-;-;-;-;-;-;-;-;-;-;-;-;-
1514189205298;-;-;5.9907837;-2.190506;-1.6154022;-;-;-;-;-;-;-;-;-;-;-;-;-;-;-
1514189205318;-;-;6.4049835;-2.1964874;0.67944336;-;-;-;-;-;-;-;-;-;-;-;-;-;-;-
1514189205338;-;-;6.977188;-2.554428;1.6036072;-;-;-;-;-;-;-;-;-;-;-;-;-;-;-
1514189205358;-;-;6.8634644;-3.1302338;0.39572144;-;-;-;-;-;-;-;-;-;-;-;-;-;-;-
1514189205379;-;-;6.9795837;-3.1194458;-0.87319946;-;-;-;-;-;-;-;-;-;-;-;-;-;-;-
1514189205399;-;-;7.5589905;-2.0863495;-0.614624;-;-;-;-;-;-;-;-;-;-;-;-;-;-;-
1514189205419;-;-;8.808762;-1.3417511;0.14193726;-;-;-;-;-;-;-;-;-;-;-;-;-;-;-
1514189205440;-;-;10.177048;-1.4506989;-1.847641;-;-;-;-;-;-;-;-;-;-;-;-;-;-;-
1514189205460;-;-;11.3741455;-0.78271484;-7.369873;-;-;-;-;-;-;-;-;-;-;-;-;-;-;-
1514189205480;-;-;12.792709;0.4766388;-6.5223236;-;-;-;-;-;-;-;-;-;-;-;-;-;-;-
1514189205501;-;-;13.929962;1.2475739;-2.1588898;-;-;-;-;-;-;-;-;-;-;-;-;-;-;-
1514189205520;-;-;15.054031;0.66578674;-1.1018524;-;-;-;-;-;-;-;-;-;-;-;-;-;-;-
1514189205540;-;-;15.271912;0.33657837;-3.2697906;-;-;-;-;-;-;-;-;-;-;-;-;-;-;-
1514189205560;-;-;15.452667;2.4626312;-7.266922;-;-;-;-;-;-;-;-;-;-;-;-;-;-;-
1514189205581;-;-;16.009323;1.8844299;-2.4258423;-;-;-;-;-;-;-;-;-;-;-;-;-;-;-
1514189205601;-;-;13.969452;-0.43554688;-2.2366943;-;-;-;-;-;-;-;-;-;-;-;-;-;-;-
1514189205621;-;-;11.526184;-0.6833496;-1.313736;-;-;-;-;-;-;-;-;-;-;-;-;-;-;-
1514189205642;-;-;8.344284;-0.21768188;-1.3855591;-;-;-;-;-;-;-;-;-;-;-;-;-;-;-
1514189205662;-;-;4.4058228;0.17376709;-1.4274597;-;-;-;-;-;-;-;-;-;-;-;-;-;-;-
1514189205682;-;-;3.1728058;-0.009384155;-0.9809418;-;-;-;-;-;-;-;-;-;-;-;-;-;-;-
1514189205703;-;-;1.7925568;-0.5780029;-0.042419434;-;-;-;-;-;-;-;-;-;-;-;-;-;-;-
1514189205723;-;-;-0.25448608;-0.62828064;0.23770142;-;-;-;-;-;-;-;-;-;-;-;-;-;-;-
1514189205743;-;-;1.1138;-0.581604;-0.1776886;-;-;-;-;-;-;-;-;-;-;-;-;-;-;-
1514189205763;-;-;3.6408691;-1.186142;-1.4909058;-;-;-;-;-;-;-;-;-;-;-;-;-;-;-
1514189205784;-;-;5.466446;-1.0472717;-1.6213837;-;-;-;-;-;-;-;-;-;-;-;-;-;-;-
1514189205804;-;-;7.9157257;-0.4666748;-0.57032776;-;-;-;-;-;-;-;-;-;-;-;-;-;-;-
1514189205823;-;-;11.169434;0.3222046;-0.44943237;-;-;-;-;-;-;-;-;-;-;-;-;-;-;-
1514189205843;-;-;11.674622;0.90519714;-2.428238;-;-;-;-;-;-;-;-;-;-;-;-;-;-;-
1514189205864;-;-;10.615189;1.6102905;-1.9434052;-;-;-;-;-;-;-;-;-;-;-;-;-;-;-
1514189205884;-;-;8.102463;2.512909;-0.86961365;-;-;-;-;-;-;-;-;-;-;-;-;-;-;-
1514189205904;-;-;6.138031;1.837738;-1.4657593;-;-;-;-;-;-;-;-;-;-;-;-;-;-;-
1514189205924;-;-;5.5993347;0.4981842;-3.4529572;-;-;-;-;-;-;-;-;-;-;-;-;-;-;-
1514189205945;-;-;5.6065063;-1.1873322;-5.8148346;-;-;-;-;-;-;-;-;-;-;-;-;-;-;-
1514189205964;-;-;6.376251;-2.1940918;-5.6280823;-;-;-;-;-;-;-;-;-;-;-;-;-;-;-
1514189205984;-;-;10.288376;-1.9008026;-3.4673157;-;-;-;-;-;-;-;-;-;-;-;-;-;-;-
1514189206005;-;-;14.4973755;-2.6908875;-1.6788483;-;-;-;-;-;-;-;-;-;-;-;-;-;-;-
1514189206025;-;-;21.47409;-5.571121;-4.527954;-;-;-;-;-;-;-;-;-;-;-;-;-;-;-
1514189206045;-;-;26.86702;-6.9477844;-3.0483398;-;-;-;-;-;-;-;-;-;-;-;-;-;-;-
1514189206066;-;-;21.199951;-4.997711;-3.0160065;-;-;-;-;-;-;-;-;-;-;-;-;-;-;-
1514189206086;-;-;15.87883;-0.39964294;-0.81095886;-;-;-;-;-;-;-;-;-;-;-;-;-;-;-
1514189206106;-;-;6.778473;0.4000244;0.15270996;-;-;-;-;-;-;-;-;-;-;-;-;-;-;-
1514189206126;-;-;3.7007294;-0.040512085;-1.2167664;-;-;-;-;-;-;-;-;-;-;-;-;-;-;-
1514189206147;-;-;2.1959686;-0.7156677;-2.4078827;-;-;-;-;-;-;-;-;-;-;-;-;-;-;-
1514189206167;-;-;3.454132;-1.6769409;-1.9709473;-;-;-;-;-;-;-;-;-;-;-;-;-;-;-
1514189206187;-;-;8.058182;-1.562027;-1.2574768;-;-;-;-;-;-;-;-;-;-;-;-;-;-;-
1514189206208;-;-;10.781586;-0.98861694;-1.4358368;-;-;-;-;-;-;-;-;-;-;-;-;-;-;-
1514189206228;-;-;9.373795;-0.9215698;-1.777008;-;-;-;-;-;-;-;-;-;-;-;-;-;-;-
1514189206248;-;-;6.5953217;-1.3956299;-1.2407074;-;-;-;-;-;-;-;-;-;-;-;-;-;-;-
1514189206268;-;-;4.0347137;-1.3118286;-0.61343384;-;-;-;-;-;-;-;-;-;-;-;-;-;-;-
1514189206289;-;-;3.4170227;-1.0783997;-1.1078339;-;-;-;-;-;-;-;-;-;-;-;-;-;-;-
1514189206309;-;-;2.3899078;-1.4782257;-1.9278412;-;-;-;-;-;-;-;-;-;-;-;-;-;-;-
1514189206329;-;-;4.7170715;-1.1957092;-1.3113403;-;-;-;-;-;-;-;-;-;-;-;-;-;-;-
1514189206349;-;-;7.245346;-1.5344849;0.59324646;-;-;-;-;-;-;-;-;-;-;-;-;-;-;-
1514189206370;-;-;9.183456;-2.4730225;1.1582794;-;-;-;-;-;-;-;-;-;-;-;-;-;-;-
1514189206390;-;-;8.90094;-3.242752;-1.6728668;-;-;-;-;-;-;-;-;-;-;-;-;-;-;-
1514189206411;-;-;8.017471;-3.021286;-2.2977448;-;-;-;-;-;-;-;-;-;-;-;-;-;-;-
1514189206432;-;-;6.3032227;-1.8409424;-1.768631;-;-;-;-;-;-;-;-;-;-;-;-;-;-;-
1514189206452;-;-;5.2234344;-1.1585999;-2.2989502;-;-;-;-;-;-;-;-;-;-;-;-;-;-;-
1514189206472;-;-;7.2633057;-0.63067627;-5.4161987;-;-;-;-;-;-;-;-;-;-;-;-;-;-;-
1514189206493;-;-;9.789185;0.85491943;-7.286072;-;-;-;-;-;-;-;-;-;-;-;-;-;-;-
1514189206513;-;-;13.593567;2.1226501;-5.206711;-;-;-;-;-;-;-;-;-;-;-;-;-;-;-
1514189206533;-;-;18.976929;2.631424;-2.2774048;-;-;-;-;-;-;-;-;-;-;-;-;-;-;-
1514189206554;-;-;21.657242;1.4247437;-5.8028564;-;-;-;-;-;-;-;-;-;-;-;-;-;-;-
1514189206574;-;-;26.249313;0.1558075;-7.0873566;-;-;-;-;-;-;-;-;-;-;-;-;-;-;-
1514189206594;-;-;17.353668;-2.1533966;-4.210724;-;-;-;-;-;-;-;-;-;-;-;-;-;-;-
1514189206615;-;-;9.013458;-1.5524445;-1.5735016;-;-;-;-;-;-;-;-;-;-;-;-;-;-;-
1514189206635;-;-;2.1744232;-0.55166626;-1.4083099;-;-;-;-;-;-;-;-;-;-;-;-;-;-;-
1514189206655;-;-;-0.04499817;0.21806335;-1.6656799;-;-;-;-;-;-;-;-;-;-;-;-;-;-;-
1514189206676;-;-;-1.1391449;0.7519684;-1.3819733;-;-;-;-;-;-;-;-;-;-;-;-;-;-;-
1514189206696;-;-;0.25787354;0.27313232;-1.0120697;-;-;-;-;-;-;-;-;-;-;-;-;-;-;-
1514189206716;-;-;3.5044098;-0.5899811;-0.7307434;-;-;-;-;-;-;-;-;-;-;-;-;-;-;-
1514189206736;-;-;6.2553406;-0.042907715;-0.867218;-;-;-;-;-;-;-;-;-;-;-;-;-;-;-
1514189206756;-;-;6.880234;0.9650574;-1.1102295;-;-;-;-;-;-;-;-;-;-;-;-;-;-;-
1514189206777;-;-;6.620453;1.1230774;-1.7183533;-;-;-;-;-;-;-;-;-;-;-;-;-;-;-
1514189206797;-;-;6.9855804;0.026535034;-1.5890656;-;-;-;-;-;-;-;-;-;-;-;-;-;-;-
1514189206817;-;-;8.276047;-1.7858887;-1.4442139;-;-;-;-;-;-;-;-;-;-;-;-;-;-;-
1514189206838;-;-;9.497086;-1.6769409;-1.124588;-;-;-;-;-;-;-;-;-;-;-;-;-;-;-
1514189206858;-;-;9.661087;-0.11114502;-1.2490845;-;-;-;-;-;-;-;-;-;-;-;-;-;-;-
1514189206879;-;-;7.604477;2.1190643;-2.5898438;-;-;-;-;-;-;-;-;-;-;-;-;-;-;-
1514189206898;-;-;5.873459;2.2830658;-2.326477;-;-;-;-;-;-;-;-;-;-;-;-;-;-;-
1514189206918;-;-;4.739807;1.1745453;-4.088608;-;-;-;-;-;-;-;-;-;-;-;-;-;-;-
1514189206938;-;-;5.0773926;-1.6087189;-6.361908;-;-;-;-;-;-;-;-;-;-;-;-;-;-;-
1514189206959;-;-;7.3937836;-3.9250946;-5.8076477;-;-;-;-;-;-;-;-;-;-;-;-;-;-;-
1514189206979;-;-;11.618347;-4.286621;-3.5499115;-;-;-;-;-;-;-;-;-;-;-;-;-;-;-
1514189206999;-;-;15.828552;-5.080307;-5.6328735;-;-;-;-;-;-;-;-;-;-;-;-;-;-;-
1514189207020;-;-;24.474014;-4.6325836;-3.7677917;-;-;-;-;-;-;-;-;-;-;-;-;-;-;-
1514189207040;-;-;28.826675;-2.973404;-5.5526733;-;-;-;-;-;-;-;-;-;-;-;-;-;-;-
1514189207060;-;-;20.633713;0.6573944;-4.809265;-;-;-;-;-;-;-;-;-;-;-;-;-;-;-
1514189207081;-;-;11.776367;1.0404663;-1.2778168;-;-;-;-;-;-;-;-;-;-;-;-;-;-;-
1514189207100;-;-;6.5246887;0.6394501;-0.8899536;-;-;-;-;-;-;-;-;-;-;-;-;-;-;-
1514189207120;-;-;3.7330475;-1.6949005;-1.4095001;-;-;-;-;-;-;-;-;-;-;-;-;-;-;-
1514189207140;-;-;3.050705;-3.5324554;-1.3472595;-;-;-;-;-;-;-;-;-;-;-;-;-;-;-
1514189207161;-;-;5.414978;-3.1613464;-1.9769287;-;-;-;-;-;-;-;-;-;-;-;-;-;-;-
1514189207180;-;-;6.2469635;-1.2064819;-2.3827515;-;-;-;-;-;-;-;-;-;-;-;-;-;-;-
1514189207200;-;-;6.130844;0.596344;-2.5826569;-;-;-;-;-;-;-;-;-;-;-;-;-;-;-
1514189207220;-;-;6.2936554;0.9997711;-2.527588;-;-;-;-;-;-;-;-;-;-;-;-;-;-;-
1514189207241;-;-;6.62764;0.5053711;-1.926651;-;-;-;-;-;-;-;-;-;-;-;-;-;-;-
1514189207261;-;-;5.4999695;-0.4846344;-2.029602;-;-;-;-;-;-;-;-;-;-;-;-;-;-;-
1514189207281;-;-;4.4944;-1.6913147;-2.0990295;-;-;-;-;-;-;-;-;-;-;-;-;-;-;-
1514189207302;-;-;3.8958588;-2.0863495;-1.7949677;-;-;-;-;-;-;-;-;-;-;-;-;-;-;-
1514189207322;-;-;4.372299;-1.5632172;-0.04840088;-;-;-;-;-;-;-;-;-;-;-;-;-;-;-
1514189207342;-;-;5.1994934;-1.214859;2.0118103;-;-;-;-;-;-;-;-;-;-;-;-;-;-;-
1514189207363;-;-;7.3387146;-1.9786224;2.0321655;-;-;-;-;-;-;-;-;-;-;-;-;-;-;-
1514189207382;-;-;8.459198;-2.9530487;-0.9976959;-;-;-;-;-;-;-;-;-;-;-;-;-;-;-
1514189207402;-;-;8.419693;-3.1840973;-3.361969;-;-;-;-;-;-;-;-;-;-;-;-;-;-;-
1514189207423;-;-;7.612854;-1.9666443;-1.8596191;-;-;-;-;-;-;-;-;-;-;-;-;-;-;-
1514189207443;-;-;6.596512;-1.052063;-1.1162109;-;-;-;-;-;-;-;-;-;-;-;-;-;-;-
1514189207463;-;-;6.7736816;-1.4734344;-5.874695;-;-;-;-;-;-;-;-;-;-;-;-;-;-;-
1514189207483;-;-;9.0972595;-1.3321838;-5.0642548;-;-;-;-;-;-;-;-;-;-;-;-;-;-;-
1514189207503;-;-;14.669769;0.2240448;-3.4661255;-;-;-;-;-;-;-;-;-;-;-;-;-;-;-
1514189207524;-;-;20.536758;2.29982;-1.0874786;-;-;-;-;-;-;-;-;-;-;-;-;-;-;-
1514189207544;-;-;20.318878;2.6433868;-5.6101227;-;-;-;-;-;-;-;-;-;-;-;-;-;-;-
1514189207564;-;-;23.90181;1.6186676;-3.6947632;-;-;-;-;-;-;-;-;-;-;-;-;-;-;-
1514189207585;-;-;18.857224;-1.3764801;-4.27417;-;-;-;-;-;-;-;-;-;-;-;-;-;-;-
1514189207605;-;-;11.539337;-1.3202057;-3.1967773;-;-;-;-;-;-;-;-;-;-;-;-;-;-;-
1514189207625;-;-;6.4444885;-0.54927063;-3.0603027;-;-;-;-;-;-;-;-;-;-;-;-;-;-;-
1514189207646;-;-;4.130493;0.24440002;-2.5886536;-;-;-;-;-;-;-;-;-;-;-;-;-;-;-
1514189207666;-;-;3.7964935;0.5520477;-2.5886536;-;-;-;-;-;-;-;-;-;-;-;-;-;-;-
1514189207686;-;-;4.1089325;-0.04649353;0.22453308;-;-;-;-;-;-;-;-;-;-;-;-;-;-;-
1514189207707;-;-;4.0730286;-0.5169525;0.048568726;-;-;-;-;-;-;-;-;-;-;-;-;-;-;-
1514189207727;-;-;3.8838806;-0.8712921;-0.071136475;-;-;-;-;-;-;-;-;-;-;-;-;-;-;-
1514189207747;-;-;4.8762817;-0.32063293;-0.88038635;-;-;-;-;-;-;-;-;-;-;-;-;-;-;-
1514189207767;-;-;4.73024;-0.02255249;-1.5124512;-;-;-;-;-;-;-;-;-;-;-;-;-;-;-
1514189207788;-;-;4.0047913;-0.06803894;-1.219162;-;-;-;-;-;-;-;-;-;-;-;-;-;-;-
1514189207808;-;-;3.5510864;-0.700119;-0.89953613;-;-;-;-;-;-;-;-;-;-;-;-;-;-;-
1514189207828;-;-;4.9935913;-1.1238861;0.05455017;-;-;-;-;-;-;-;-;-;-;-;-;-;-;-
1514189207849;-;-;7.973175;-0.12310791;1.2348938;-;-;-;-;-;-;-;-;-;-;-;-;-;-;-
1514189207869;-;-;9.245697;2.0651855;-0.5404053;-;-;-;-;-;-;-;-;-;-;-;-;-;-;-
1514189207889;-;-;9.0793;3.3807983;-5.6101227;-;-;-;-;-;-;-;-;-;-;-;-;-;-;-
1514189207909;-;-;9.887344;2.1190643;-2.9753113;-;-;-;-;-;-;-;-;-;-;-;-;-;-;-
1514189207930;-;-;9.974731;0.74598694;-0.91989136;-;-;-;-;-;-;-;-;-;-;-;-;-;-;-
1514189207950;-;-;10.113602;0.1043396;-4.9996033;-;-;-;-;-;-;-;-;-;-;-;-;-;-;-
1514189207970;-;-;9.823898;-1.0329132;-7.8223724;-;-;-;-;-;-;-;-;-;-;-;-;-;-;-
1514189207991;-;-;10.763626;-2.198883;-4.6093597;-;-;-;-;-;-;-;-;-;-;-;-;-;-;-
1514189208011;-;-;12.02417;-4.391968;-3.5918121;-;-;-;-;-;-;-;-;-;-;-;-;-;-;-
1514189208031;-;-;15.913544;-6.5180206;-2.4102783;-;-;-;-;-;-;-;-;-;-;-;-;-;-;-
1514189208051;-;-;19.850815;-5.709976;-3.5499115;-;-;-;-;-;-;-;-;-;-;-;-;-;-;-
1514189208072;-;-;20.370361;-3.0871277;-3.8264465;-;-;-;-;-;-;-;-;-;-;-;-;-;-;-
1514189208092;-;-;15.828552;0.12709045;-1.313736;-;-;-;-;-;-;-;-;-;-;-;-;-;-;-
1514189208112;-;-;9.967545;0.8513336;-0.7846222;-;-;-;-;-;-;-;-;-;-;-;-;-;-;-
1514189208133;-;-;6.11528;-0.5049896;0.15989685;-;-;-;-;-;-;-;-;-;-;-;-;-;-;-
1514189208153;-;-;3.8431854;-2.475418;-1.531601;-;-;-;-;-;-;-;-;-;-;-;-;-;-;-
1514189208173;-;-;5.6891174;-3.9837646;-0.6194153;-;-;-;-;-;-;-;-;-;-;-;-;-;-;-
1514189208193;-;-;7.9468384;-3.3014069;-1.4909058;-;-;-;-;-;-;-;-;-;-;-;-;-;-;-
1514189208214;-;-;7.648773;-1.7787018;-1.4968872;-;-;-;-;-;-;-;-;-;-;-;-;-;-;-
1514189208234;-;-;6.58934;-0.8174286;-1.4837189;-;-;-;-;-;-;-;-;-;-;-;-;-;-;-
1514189208254;-;-;5.5993347;-0.6582184;-1.1174164;-;-;-;-;-;-;-;-;-;-;-;-;-;-;-
1514189208275;-;-;5.3503265;-1.4351349;-0.9869232;-;-;-;-;-;-;-;-;-;-;-;-;-;-;-
1514189208295;-;-;5.537079;-2.3317566;-0.9246826;-;-;-;-;-;-;-;-;-;-;-;-;-;-;-
1514189208315;-;-;5.392227;-2.9710083;-1.1916351;-;-;-;-;-;-;-;-;-;-;-;-;-;-;-
1514189208336;-;-;5.6232758;-3.148178;-1.4753418;-;-;-;-;-;-;-;-;-;-;-;-;-;-;-
1514189208356;-;-;6.079361;-2.6681519;-0.39794922;-;-;-;-;-;-;-;-;-;-;-;-;-;-;-
1514189208376;-;-;6.557007;-2.3580933;0.40530396;-;-;-;-;-;-;-;-;-;-;-;-;-;-;-
1514189208397;-;-;7.502716;-2.573578;0.28678894;-;-;-;-;-;-;-;-;-;-;-;-;-;-;-
1514189208417;-;-;7.787628;-3.0512238;-0.5056915;-;-;-;-;-;-;-;-;-;-;-;-;-;-;-
1514189208437;-;-;8.235352;-3.2595215;-1.2203674;-;-;-;-;-;-;-;-;-;-;-;-;-;-;-
1514189208458;-;-;8.09169;-1.8409424;-1.7638397;-;-;-;-;-;-;-;-;-;-;-;-;-;-;-
1514189208478;-;-;7.1878815;0.38804626;-2.2917633;-;-;-;-;-;-;-;-;-;-;-;-;-;-;-
1514189208499;-;-;7.611664;2.0364532;-7.22023;-;-;-;-;-;-;-;-;-;-;-;-;-;-;-
1514189208519;-;-;11.183807;3.6812744;-3.44458;-;-;-;-;-;-;-;-;-;-;-;-;-;-;-
1514189208539;-;-;12.453934;3.1832886;-2.4330292;-;-;-;-;-;-;-;-;-;-;-;-;-;-;-
1514189208559;-;-;14.551254;0.48143005;-2.1181793;-;-;-;-;-;-;-;-;-;-;-;-;-;-;-
1514189208580;-;-;17.056778;-0.3972473;-3.7713776;-;-;-;-;-;-;-;-;-;-;-;-;-;-;-
1514189208600;-;-;22.40303;0.36889648;-4.942154;-;-;-;-;-;-;-;-;-;-;-;-;-;-;-
1514189208621;-;-;23.894623;-1.779892;-3.4457703;-;-;-;-;-;-;-;-;-;-;-;-;-;-;-
1514189208641;-;-;13.056076;-0.44273376;-2.191208;-;-;-;-;-;-;-;-;-;-;-;-;-;-;-
1514189208661;-;-;6.762909;1.0153351;-1.4657593;-;-;-;-;-;-;-;-;-;-;-;-;-;-;-
1514189208681;-;-;2.4258118;1.2858734;-1.7147675;-;-;-;-;-;-;-;-;-;-;-;-;-;-;-
1514189208702;-;-;2.3252563;0.2707367;-1.8572235;-;-;-;-;-;-;-;-;-;-;-;-;-;-;-
1514189208722;-;-;2.7418518;-1.2675323;-1.2766266;-;-;-;-;-;-;-;-;-;-;-;-;-;-;-
1514189208742;-;-;4.4130096;-2.3102112;-0.590683;-;-;-;-;-;-;-;-;-;-;-;-;-;-;-
1514189208763;-;-;5.371887;-2.2766876;0.3143158;-;-;-;-;-;-;-;-;-;-;-;-;-;-;-
1514189208783;-;-;4.561447;-0.8880615;-0.36442566;-;-;-;-;-;-;-;-;-;-;-;-;-;-;-
1514189208803;-;-;3.6732025;1.2212372;-1.274231;-;-;-;-;-;-;-;-;-;-;-;-;-;-;-
1514189208824;-;-;4.865509;1.4115753;-1.9146729;-;-;-;-;-;-;-;-;-;-;-;-;-;-;-
1514189208844;-;-;7.0178986;0.5532532;-0.96777344;-;-;-;-;-;-;-;-;-;-;-;-;-;-;-
1514189208865;-;-;9.220566;-0.759964;-0.66371155;-;-;-;-;-;-;-;-;-;-;-;-;-;-;-
1514189208885;-;-;9.63356;-0.56843567;-0.4458313;-;-;-;-;-;-;-;-;-;-;-;-;-;-;-
1514189208906;-;-;8.922485;0.512558;0.29516602;-;-;-;-;-;-;-;-;-;-;-;-;-;-;-
1514189208925;-;-;8.704605;1.7731018;0.10482788;-;-;-;-;-;-;-;-;-;-;-;-;-;-;-
1514189208945;-;-;8.988327;2.1561737;-1.595047;-;-;-;-;-;-;-;-;-;-;-;-;-;-;-
1514189208966;-;-;8.364639;0.8513336;-3.6492767;-;-;-;-;-;-;-;-;-;-;-;-;-;-;-
1514189208986;-;-;6.794037;-0.68933105;-4.2885284;-;-;-;-;-;-;-;-;-;-;-;-;-;-;-
1514189209006;-;-;4.616516;-2.221634;-6.2050934;-;-;-;-;-;-;-;-;-;-;-;-;-;-;-
1514189209026;-;-;8.010284;-3.1050873;-4.2178955;-;-;-;-;-;-;-;-;-;-;-;-;-;-;-
1514189209047;-;-;12.821442;-3.5180817;-1.729126;-;-;-;-;-;-;-;-;-;-;-;-;-;-;-
1514189209067;-;-;16.72519;-3.720398;-5.765747;-;-;-;-;-;-;-;-;-;-;-;-;-;-;-
1514189209087;-;-;21.724274;-5.2215576;-4.301697;-;-;-;-;-;-;-;-;-;-;-;-;-;-;-
1514189209107;-;-;25.413742;-8.442963;-6.109314;-;-;-;-;-;-;-;-;-;-;-;-;-;-;-
1514189209128;-;-;29.309113;-6.3396606;-7.496765;-;-;-;-;-;-;-;-;-;-;-;-;-;-;-
1514189209148;-;-;12.947128;-0.20570374;-1.9649506;-;-;-;-;-;-;-;-;-;-;-;-;-;-;-
1514189209168;-;-;3.8802948;1.6809235;-1.2167664;-;-;-;-;-;-;-;-;-;-;-;-;-;-;-
1514189209188;-;-;0.12498474;1.2415924;-1.7889862;-;-;-;-;-;-;-;-;-;-;-;-;-;-;-
1514189209208;-;-;-0.3682251;-0.83657837;-1.653717;-;-;-;-;-;-;-;-;-;-;-;-;-;-;-
1514189209229;-;-;4.9265594;-2.4682312;-1.871582;-;-;-;-;-;-;-;-;-;-;-;-;-;-;-
1514189209249;-;-;7.7936096;-1.3860474;-2.2857819;-;-;-;-;-;-;-;-;-;-;-;-;-;-;-
1514189209269;-;-;6.8407288;-0.46788025;-1.7267303;-;-;-;-;-;-;-;-;-;-;-;-;-;-;-
1514189209289;-;-;5.3419495;-0.66778564;-0.53681946;-;-;-;-;-;-;-;-;-;-;-;-;-;-;-
1514189209310;-;-;5.4520874;-1.2902832;-0.14057922;-;-;-;-;-;-;-;-;-;-;-;-;-;-;-
1514189209330;-;-;6.170349;-2.0624084;-0.75109863;-;-;-;-;-;-;-;-;-;-;-;-;-;-;-
1514189209350;-;-;7.554199;-3.1972656;-0.58709717;-;-;-;-;-;-;-;-;-;-;-;-;-;-;-
1514189209370;-;-;7.699051;-4.24234;-1.7830048;-;-;-;-;-;-;-;-;-;-;-;-;-;-;-
1514189209391;-;-;8.0533905;-3.9562225;-0.8600311;-;-;-;-;-;-;-;-;-;-;-;-;-;-;-
1514189209411;-;-;8.766861;-2.9207306;-0.17887878;-;-;-;-;-;-;-;-;-;-;-;-;-;-;-
1514189209431;-;-;10.263229;-2.0384674;0.6495056;-;-;-;-;-;-;-;-;-;-;-;-;-;-;-
1514189209452;-;-;11.921219;-1.5009766;0.26882935;-;-;-;-;-;-;-;-;-;-;-;-;-;-;-
1514189209471;-;-;13.430771;-1.0257263;-2.0224152;-;-;-;-;-;-;-;-;-;-;-;-;-;-;-
1514189209491;-;-;13.657013;-2.559204;-7.9899597;-;-;-;-;-;-;-;-;-;-;-;-;-;-;-
1514189209512;-;-;14.348938;-3.8520813;-5.8184204;-;-;-;-;-;-;-;-;-;-;-;-;-;-;-
1514189209532;-;-;10.788757;-4.099884;-5.9297485;-;-;-;-;-;-;-;-;-;-;-;-;-;-;-
1514189209552;-;-;6.8598785;-1.091568;-5.986023;-;-;-;-;-;-;-;-;-;-;-;-;-;-;-
1514189209572;-;-;5.5550385;0.71725464;-4.733856;-;-;-;-;-;-;-;-;-;-;-;-;-;-;-
1514189209593;-;-;6.328369;-0.2799225;-3.661255;-;-;-;-;-;-;-;-;-;-;-;-;-;-;-
1514189209613;-;-;9.6467285;-2.5448456;-3.2877502;-;-;-;-;-;-;-;-;-;-;-;-;-;-;-
1514189209633;-;-;11.911636;-5.0156555;-3.5978088;-;-;-;-;-;-;-;-;-;-;-;-;-;-;-
1514189209654;-;-;12.962692;-5.4933014;-3.0878448;-;-;-;-;-;-;-;-;-;-;-;-;-;-;-
1514189209673;-;-;13.661804;-3.830536;-3.796524;-;-;-;-;-;-;-;-;-;-;-;-;-;-;-
1514189209693;-;-;10.132751;-2.4825897;-4.1592407;-;-;-;-;-;-;-;-;-;-;-;-;-;-;-
1514189209713;-;-;6.2002716;-1.254364;-4.799698;-;-;-;-;-;-;-;-;-;-;-;-;-;-;-
1514189209734;-;-;3.5642548;0.20968628;-4.5901947;-;-;-;-;-;-;-;-;-;-;-;-;-;-;-
1514189209754;-;-;3.7438202;0.793869;-4.86792;-;-;-;-;-;-;-;-;-;-;-;-;-;-;-
1514189209774;-;-;6.412155;0.22644043;-4.626114;-;-;-;-;-;-;-;-;-;-;-;-;-;-;-
1514189209795;-;-;9.043396;0.3677063;-4.187973;-;-;-;-;-;-;-;-;-;-;-;-;-;-;-
1514189209815;-;-;9.647919;0.9064026;-3.7223053;-;-;-;-;-;-;-;-;-;-;-;-;-;-;-
1514189209835;-;-;7.732559;1.3732605;-3.7270966;-;-;-;-;-;-;-;-;-;-;-;-;-;-;-
1514189209856;-;-;6.6875;1.3050385;-3.1967773;-;-;-;-;-;-;-;-;-;-;-;-;-;-;-
1514189209876;-;-;6.4396973;0.67056274;-3.001648;-;-;-;-;-;-;-;-;-;-;-;-;-;-;-
1514189209896;-;-;6.084152;-0.55166626;-3.302124;-;-;-;-;-;-;-;-;-;-;-;-;-;-;-
1514189209916;-;-;6.331955;-0.3768921;-2.9848938;-;-;-;-;-;-;-;-;-;-;-;-;-;-;-
1514189209937;-;-;7.526657;1.1158905;-2.488083;-;-;-;-;-;-;-;-;-;-;-;-;-;-;-
1514189209957;-;-;8.929672;2.3141937;-2.5563202;-;-;-;-;-;-;-;-;-;-;-;-;-;-;-
1514189209977;-;-;9.401321;2.7559204;-2.594635;-;-;-;-;-;-;-;-;-;-;-;-;-;-;-
1514189209998;-;-;9.4133;1.571991;-2.7502594;-;-;-;-;-;-;-;-;-;-;-;-;-;-;-
1514189210018;-;-;9.14035;-0.2272644;-2.2857819;-;-;-;-;-;-;-;-;-;-;-;-;-;-;-
1514189210038;-;-;9.613205;-1.2651367;-0.11663818;-;-;-;-;-;-;-;-;-;-;-;-;-;-;-
1514189210059;-;-;10.159088;-2.7268066;0.8985138;-;-;-;-;-;-;-;-;-;-;-;-;-;-;-
1514189210079;-;-;10.430832;-3.8796082;-4.5854034;-;-;-;-;-;-;-;-;-;-;-;-;-;-;-
1514189210099;-;-;11.378937;-4.7379303;-8.695053;-;-;-;-;-;-;-;-;-;-;-;-;-;-;-
1514189210119;-;-;13.493011;-3.297821;-4.4070435;-;-;-;-;-;-;-;-;-;-;-;-;-;-;-
1514189210140;-;-;9.380966;-1.9977722;-8.047424;-;-;-;-;-;-;-;-;-;-;-;-;-;-;-
1514189210160;-;-;6.94487;-2.7076569;-7.61528;-;-;-;-;-;-;-;-;-;-;-;-;-;-;-
1514189210180;-;-;7.3135834;-1.8864441;-6.045868;-;-;-;-;-;-;-;-;-;-;-;-;-;-;-
1514189210201;-;-;10.2512665;-1.3980255;-6.0518646;-;-;-;-;-;-;-;-;-;-;-;-;-;-;-
1514189210220;-;-;12.252823;-1.4064026;-6.88385;-;-;-;-;-;-;-;-;-;-;-;-;-;-;-
1514189210240;-;-;12.542511;-0.704895;-6.167984;-;-;-;-;-;-;-;-;-;-;-;-;-;-;-
1514189210260;-;-;9.838257;0.5747986;-4.4908447;-;-;-;-;-;-;-;-;-;-;-;-;-;-;-
1514189210281;-;-;6.731781;0.02293396;-4.547104;-;-;-;-;-;-;-;-;-;-;-;-;-;-;-
1514189210301;-;-;5.055847;-1.735611;-3.3907013;-;-;-;-;-;-;-;-;-;-;-;-;-;-;-
1514189210321;-;-;4.8511353;-3.1745148;-2.3875275;-;-;-;-;-;-;-;-;-;-;-;-;-;-;-
1514189210342;-;-;4.8679047;-3.337326;-2.2881775;-;-;-;-;-;-;-;-;-;-;-;-;-;-;-
1514189210362;-;-;5.0330963;-2.1306458;-2.1947937;-;-;-;-;-;-;-;-;-;-;-;-;-;-;-
1514189210382;-;-;5.881851;-1.1358643;-2.460556;-;-;-;-;-;-;-;-;-;-;-;-;-;-;-
1514189210403;-;-;6.031479;-0.9658661;-2.5491486;-;-;-;-;-;-;-;-;-;-;-;-;-;-;-
1514189210422;-;-;6.2110443;-0.94192505;-2.4234467;-;-;-;-;-;-;-;-;-;-;-;-;-;-;-
1514189210442;-;-;7.1878815;-0.8928528;-2.3073273;-;-;-;-;-;-;-;-;-;-;-;-;-;-;-
1514189210462;-;-;8.355057;-0.93473816;-2.0726929;-;-;-;-;-;-;-;-;-;-;-;-;-;-;-
1514189210483;-;-;8.511871;-1.7870789;-1.4490051;-;-;-;-;-;-;-;-;-;-;-;-;-;-;-
1514189210503;-;-;8.501099;-2.6717377;-1.298172;-;-;-;-;-;-;-;-;-;-;-;-;-;-;-
1514189210523;-;-;8.514267;-2.669342;-0.99650574;-;-;-;-;-;-;-;-;-;-;-;-;-;-;-
1514189210544;-;-;8.7417145;-2.0540314;-1.2311401;-;-;-;-;-;-;-;-;-;-;-;-;-;-;-
1514189210564;-;-;9.312744;-0.98501587;-1.4178772;-;-;-;-;-;-;-;-;-;-;-;-;-;-;-
1514189210584;-;-;9.957977;-0.0105896;-1.3209229;-;-;-;-;-;-;-;-;-;-;-;-;-;-;-
1514189210605;-;-;10.313507;-0.078811646;-1.768631;-;-;-;-;-;-;-;-;-;-;-;-;-;-;-
1514189210625;-;-;10.245285;-2.1545868;-0.06994629;-;-;-;-;-;-;-;-;-;-;-;-;-;-;-
1514189210645;-;-;10.374573;-4.542801;1.3869324;-;-;-;-;-;-;-;-;-;-;-;-;-;-;-
1514189210666;-;-;11.982269;-5.361618;-0.669693;-;-;-;-;-;-;-;-;-;-;-;-;-;-;-
1514189210686;-;-;12.364151;-5.0108795;-7.4943695;-;-;-;-;-;-;-;-;-;-;-;-;-;-;-
1514189210706;-;-;11.544128;-3.7072296;-7.749344;-;-;-;-;-;-;-;-;-;-;-;-;-;-;-
1514189210727;-;-;11.0377655;-2.490982;-7.9013824;-;-;-;-;-;-;-;-;-;-;-;-;-;-;-
1514189210747;-;-;8.812347;0.5460663;-6.4468994;-;-;-;-;-;-;-;-;-;-;-;-;-;-;-
1514189210767;-;-;6.501938;2.718811;-5.5814056;-;-;-;-;-;-;-;-;-;-;-;-;-;-;-
1514189210787;-;-;7.2992096;1.1996918;-5.3216248;-;-;-;-;-;-;-;-;-;-;-;-;-;-;-
1514189210808;-;-;9.533005;-1.8924255;-3.9868622;-;-;-;-;-;-;-;-;-;-;-;-;-;-;-
1514189210827;-;-;11.480682;-3.665329;-3.7438507;-;-;-;-;-;-;-;-;-;-;-;-;-;-;-
1514189210847;-;-;11.235275;-3.4546356;-3.5954132;-;-;-;-;-;-;-;-;-;-;-;-;-;-;-
1514189210867;-;-;9.845444;-1.5273132;-3.04953;-;-;-;-;-;-;-;-;-;-;-;-;-;-;-
1514189210888;-;-;9.178665;-1.0831909;-2.7310944;-;-;-;-;-;-;-;-;-;-;-;-;-;-;-
1514189210908;-;-;8.078522;-1.0173492;-3.0710754;-;-;-;-;-;-;-;-;-;-;-;-;-;-;-
1514189210928;-;-;6.6144714;-0.37809753;-3.3643646;-;-;-;-;-;-;-;-;-;-;-;-;-;-;-
1514189210949;-;-;5.119293;0.8417511;-3.1237488;-;-;-;-;-;-;-;-;-;-;-;-;-;-;-
1514189210969;-;-;4.3735046;1.9011841;-2.3564148;-;-;-;-;-;-;-;-;-;-;-;-;-;-;-
1514189210989;-;-;4.9744415;1.5444489;-2.1971893;-;-;-;-;-;-;-;-;-;-;-;-;-;-;-
1514189211009;-;-;6.94368;0.42636108;-1.6728668;-;-;-;-;-;-;-;-;-;-;-;-;-;-;-
1514189211030;-;-;7.693054;-0.7587738;-0.64216614;-;-;-;-;-;-;-;-;-;-;-;-;-;-;-
1514189211050;-;-;7.511093;-1.5991364;-0.31295776;-;-;-;-;-;-;-;-;-;-;-;-;-;-;-
1514189211071;-;-;7.5470123;-1.0329132;-0.6481476;-;-;-;-;-;-;-;-;-;-;-;-;-;-;-
1514189211091;-;-;7.7493286;0.2527771;-1.2538757;-;-;-;-;-;-;-;-;-;-;-;-;-;-;-
1514189211111;-;-;6.7581177;0.95547485;-1.8440552;-;-;-;-;-;-;-;-;-;-;-;-;-;-;-
1514189211132;-;-;5.6496124;0.057647705;-1.495697;-;-;-;-;-;-;-;-;-;-;-;-;-;-;-
1514189211152;-;-;5.8399506;-0.40322876;-1.1353607;-;-;-;-;-;-;-;-;-;-;-;-;-;-;-
1514189211171;-;-;6.7162323;-0.44752502;-1.5962524;-;-;-;-;-;-;-;-;-;-;-;-;-;-;-
1514189211191;-;-;7.403366;-0.23443604;-2.6832123;-;-;-;-;-;-;-;-;-;-;-;-;-;-;-
1514189211211;-;-;7.949234;-0.210495;-2.781372;-;-;-;-;-;-;-;-;-;-;-;-;-;-;-
1514189211232;-;-;8.112045;-0.36372375;-1.4933014;-;-;-;-;-;-;-;-;-;-;-;-;-;-;-
1514189211252;-;-;9.054169;0.20489502;-0.88397217;-;-;-;-;-;-;-;-;-;-;-;-;-;-;-
1514189211272;-;-;9.990295;1.0691986;-1.9625702;-;-;-;-;-;-;-;-;-;-;-;-;-;-;-
1514189211292;-;-;9.895721;1.0787811;-3.4577484;-;-;-;-;-;-;-;-;-;-;-;-;-;-;-
1514189211313;-;-;7.2992096;0.31503296;-4.0431213;-;-;-;-;-;-;-;-;-;-;-;-;-;-;-
1514189211333;-;-;4.628479;-0.621109;-6.0997467;-;-;-;-;-;-;-;-;-;-;-;-;-;-;-
1514189211353;-;-;3.6600342;-1.7032776;-7.958847;-;-;-;-;-;-;-;-;-;-;-;-;-;-;-
1514189211373;-;-;7.363861;-2.2276154;-5.088196;-;-;-;-;-;-;-;-;-;-;-;-;-;-;-
1514189211394;-;-;13.172195;-2.6346283;-5.3635254;-;-;-;-;-;-;-;-;-;-;-;-;-;-;-
1514189211414;-;-;19.35521;-3.5767517;-4.627304;-;-;-;-;-;-;-;-;-;-;-;-;-;-;-
1514189211434;-;-;22.26178;-5.4933014;-2.2965546;-;-;-;-;-;-;-;-;-;-;-;-;-;-;-
1514189211455;-;-;21.650055;-4.9246826;-2.3324738;-;-;-;-;-;-;-;-;-;-;-;-;-;-;-
1514189211475;-;-;16.457031;-3.399582;-0.063964844;-;-;-;-;-;-;-;-;-;-;-;-;-;-;-
1514189211496;-;-;9.711365;-0.70729065;-1.4813232;-;-;-;-;-;-;-;-;-;-;-;-;-;-;-
1514189211516;-;-;5.8519135;0.30903625;-2.036789;-;-;-;-;-;-;-;-;-;-;-;-;-;-;-
1514189211535;-;-;3.7713623;-0.112335205;-2.0738983;-;-;-;-;-;-;-;-;-;-;-;-;-;-;-
1514189211555;-;-;4.01915;-2.0516357;-1.5962524;-;-;-;-;-;-;-;-;-;-;-;-;-;-;-
1514189211575;-;-;5.971634;-1.8397522;-2.1852264;-;-;-;-;-;-;-;-;-;-;-;-;-;-;-
1514189211596;-;-;6.3906097;-0.66300964;-2.5766754;-;-;-;-;-;-;-;-;-;-;-;-;-;-;-
1514189211616;-;-;6.284073;-0.43077087;-2.6868134;-;-;-;-;-;-;-;-;-;-;-;-;-;-;-
1514189211636;-;-;5.423355;-0.35653687;-2.9034882;-;-;-;-;-;-;-;-;-;-;-;-;-;-;-
1514189211656;-;-;5.0857697;-0.117126465;-2.614975;-;-;-;-;-;-;-;-;-;-;-;-;-;-;-
1514189211677;-;-;4.348358;-0.61750793;-2.0403748;-;-;-;-;-;-;-;-;-;-;-;-;-;-;-
1514189211697;-;-;4.1759796;-1.3393707;-1.3879547;-;-;-;-;-;-;-;-;-;-;-;-;-;-;-
1514189211717;-;-;5.4688416;-1.838562;0.48191833;-;-;-;-;-;-;-;-;-;-;-;-;-;-;-
1514189211737;-;-;7.968399;-2.8860168;1.5186005;-;-;-;-;-;-;-;-;-;-;-;-;-;-;-
1514189211758;-;-;8.967972;-3.7730713;0.82907104;-;-;-;-;-;-;-;-;-;-;-;-;-;-;-
1514189211778;-;-;8.062958;-3.775467;-0.65652466;-;-;-;-;-;-;-;-;-;-;-;-;-;-;-
1514189211798;-;-;8.128799;-2.5436401;-1.0180511;-;-;-;-;-;-;-;-;-;-;-;-;-;-;-
1514189211819;-;-;7.3231506;-0.92037964;-3.322464;-;-;-;-;-;-;-;-;-;-;-;-;-;-;-
1514189211839;-;-;7.111267;-0.4547119;-8.95842;-;-;-;-;-;-;-;-;-;-;-;-;-;-;-
1514189211859;-;-;9.072113;2.0149078;-8.337128;-;-;-;-;-;-;-;-;-;-;-;-;-;-;-
1514189211879;-;-;13.502594;2.7056427;-2.9501648;-;-;-;-;-;-;-;-;-;-;-;-;-;-;-
1514189211900;-;-;16.522873;2.3441162;-6.6803436;-;-;-;-;-;-;-;-;-;-;-;-;-;-;-
1514189211920;-;-;21.342407;1.0093536;-3.3511963;-;-;-;-;-;-;-;-;-;-;-;-;-;-;-
1514189211941;-;-;21.038345;-0.37809753;-3.369156;-;-;-;-;-;-;-;-;-;-;-;-;-;-;-
1514189211961;-;-;15.945877;-1.0652313;-2.3216858;-;-;-;-;-;-;-;-;-;-;-;-;-;-;-
1514189211981;-;-;11.2556305;-1.2232513;-1.2682495;-;-;-;-;-;-;-;-;-;-;-;-;-;-;-
1514189212002;-;-;6.948456;-0.21647644;-1.4885101;-;-;-;-;-;-;-;-;-;-;-;-;-;-;-
1514189212022;-;-;4.418991;1.1494141;-1.9529877;-;-;-;-;-;-;-;-;-;-;-;-;-;-;-
1514189212042;-;-;4.7182617;2.3728485;-1.7015991;-;-;-;-;-;-;-;-;-;-;-;-;-;-;-
1514189212062;-;-;5.54187;1.679718;-1.4430237;-;-;-;-;-;-;-;-;-;-;-;-;-;-;-
1514189212083;-;-;5.22464;-0.057266235;-1.3292999;-;-;-;-;-;-;-;-;-;-;-;-;-;-;-
1514189212103;-;-;4.5913696;-1.2759247;-1.1629028;-;-;-;-;-;-;-;-;-;-;-;-;-;-;-
1514189212123;-;-;5.1803436;-1.7810974;-1.0204468;-;-;-;-;-;-;-;-;-;-;-;-;-;-;-
1514189212144;-;-;6.45166;-1.0532532;-0.7846222;-;-;-;-;-;-;-;-;-;-;-;-;-;-;-
1514189212164;-;-;6.501938;0.24440002;-1.124588;-;-;-;-;-;-;-;-;-;-;-;-;-;-;-
1514189212184;-;-;5.6340485;0.48980713;-1.0384064;-;-;-;-;-;-;-;-;-;-;-;-;-;-;-
1514189212205;-;-;5.708267;-0.3589325;-1.2371216;-;-;-;-;-;-;-;-;-;-;-;-;-;-;-
1514189212225;-;-;6.2433777;-0.3397827;-1.124588;-;-;-;-;-;-;-;-;-;-;-;-;-;-;-
1514189212245;-;-;6.825165;0.80345154;-0.28063965;-;-;-;-;-;-;-;-;-;-;-;-;-;-;-
1514189212266;-;-;7.2106323;2.239975;-0.2566986;-;-;-;-;-;-;-;-;-;-;-;-;-;-;-
1514189212286;-;-;7.2824554;3.2455292;-1.7075806;-;-;-;-;-;-;-;-;-;-;-;-;-;-;-
1514189212306;-;-;6.9939575;2.5440369;-3.44458;-;-;-;-;-;-;-;-;-;-;-;-;-;-;-
1514189212327;-;-;7.446457;0.78907776;-6.3247986;-;-;-;-;-;-;-;-;-;-;-;-;-;-;-
1514189212347;-;-;8.418503;-0.62828064;-5.349167;-;-;-;-;-;-;-;-;-;-;-;-;-;-;-
1514189212367;-;-;13.178177;-2.7651062;-4.709915;-;-;-;-;-;-;-;-;-;-;-;-;-;-;-
1514189212387;-;-;16.917923;-4.7534943;-4.738632;-;-;-;-;-;-;-;-;-;-;-;-;-;-;-
1514189212408;-;-;22.428177;-5.9721375;-2.5383606;-;-;-;-;-;-;-;-;-;-;-;-;-;-;-
1514189212428;-;-;24.464447;-7.8767242;-1.8811646;-;-;-;-;-;-;-;-;-;-;-;-;-;-;-
1514189212448;-;-;20.044739;-3.728775;-1.5866699;-;-;-;-;-;-;-;-;-;-;-;-;-;-;-
1514189212469;-;-;12.768768;0.3030548;-0.7307434;-;-;-;-;-;-;-;-;-;-;-;-;-;-;-
1514189212489;-;-;7.4680023;1.5707855;-1.6560974;-;-;-;-;-;-;-;-;-;-;-;-;-;-;-
1514189212509;-;-;4.411804;0.70648193;-1.0575562;-;-;-;-;-;-;-;-;-;-;-;-;-;-;-
1514189212530;-;-;3.7462158;-1.0161438;-0.58470154;-;-;-;-;-;-;-;-;-;-;-;-;-;-;-
1514189212550;-;-;5.823181;-2.2826843;-1.7303314;-;-;-;-;-;-;-;-;-;-;-;-;-;-;-
1514189212570;-;-;6.8706512;-2.4706268;-2.191208;-;-;-;-;-;-;-;-;-;-;-;-;-;-;-
1514189212591;-;-;7.185486;-2.0384674;-2.5335846;-;-;-;-;-;-;-;-;-;-;-;-;-;-;-
1514189212611;-;-;6.96402;-1.5321045;-2.1540985;-;-;-;-;-;-;-;-;-;-;-;-;-;-;-
1514189212631;-;-;6.2038727;-1.3908386;-1.0144653;-;-;-;-;-;-;-;-;-;-;-;-;-;-;-
1514189212652;-;-;4.9349365;-1.740387;-1.2407074;-;-;-;-;-;-;-;-;-;-;-;-;-;-;-
1514189212672;-;-;3.2434387;-2.4095764;-1.2502899;-;-;-;-;-;-;-;-;-;-;-;-;-;-;-
1514189212692;-;-;3.6384735;-2.593933;-1.2850037;-;-;-;-;-;-;-;-;-;-;-;-;-;-;-
1514189212712;-;-;5.370682;-2.1330414;-2.2438812;-;-;-;-;-;-;-;-;-;-;-;-;-;-;-
1514189212733;-;-;7.016693;-0.9539032;-1.0144653;-;-;-;-;-;-;-;-;-;-;-;-;-;-;-
1514189212752;-;-;7.825943;-0.05607605;0.27841187;-;-;-;-;-;-;-;-;-;-;-;-;-;-;-
1514189212772;-;-;8.8602295;-0.8377838;1.2217255;-;-;-;-;-;-;-;-;-;-;-;-;-;-;-
1514189212792;-;-;9.390549;-2.238388;-0.40393066;-;-;-;-;-;-;-;-;-;-;-;-;-;-;-
1514189212813;-;-;8.714188;-2.7387695;-2.1708527;-;-;-;-;-;-;-;-;-;-;-;-;-;-;-
1514189212833;-;-;7.2585144;-0.9323425;-1.2251434;-;-;-;-;-;-;-;-;-;-;-;-;-;-;-
1514189212853;-;-;5.8997955;0.5161438;-3.2805634;-;-;-;-;-;-;-;-;-;-;-;-;-;-;-
1514189212874;-;-;6.8598785;0.63705444;-6.926941;-;-;-;-;-;-;-;-;-;-;-;-;-;-;-
1514189212894;-;-;11.682999;1.7383881;-5.7130737;-;-;-;-;-;-;-;-;-;-;-;-;-;-;-
1514189212914;-;-;16.454636;-0.4774475;-3.607376;-;-;-;-;-;-;-;-;-;-;-;-;-;-;-
1514189212934;-;-;19.25705;-0.47865295;-2.231903;-;-;-;-;-;-;-;-;-;-;-;-;-;-;-
1514189212954;-;-;22.124115;1.916748;-7.71463;-;-;-;-;-;-;-;-;-;-;-;-;-;-;-
1514189212975;-;-;21.794907;1.7276154;-6.1512146;-;-;-;-;-;-;-;-;-;-;-;-;-;-;-
1514189212995;-;-;15.200073;-1.2974701;-3.2482452;-;-;-;-;-;-;-;-;-;-;-;-;-;-;-
1514189213015;-;-;8.417313;-1.0544586;-1.6608887;-;-;-;-;-;-;-;-;-;-;-;-;-;-;-
1514189213036;-;-;4.2262573;-0.18894958;-2.3588104;-;-;-;-;-;-;-;-;-;-;-;-;-;-;-
1514189213056;-;-;3.2829437;1.1529999;-2.816101;-;-;-;-;-;-;-;-;-;-;-;-;-;-;-
1514189213076;-;-;3.857544;1.8940125;-2.271408;-;-;-;-;-;-;-;-;-;-;-;-;-;-;-
1514189213096;-;-;4.067047;1.0081482;-1.0874786;-;-;-;-;-;-;-;-;-;-;-;-;-;-;-
1514189213117;-;-;5.5706024;-0.13508606;-0.0627594;-;-;-;-;-;-;-;-;-;-;-;-;-;-;-
1514189213137;-;-;6.3139954;-1.289093;-0.14775085;-;-;-;-;-;-;-;-;-;-;-;-;-;-;-
1514189213158;-;-;5.416168;-2.2563477;-0.8061676;-;-;-;-;-;-;-;-;-;-;-;-;-;-;-
1514189213178;-;-;5.46286;-2.3832397;-1.6118164;-;-;-;-;-;-;-;-;-;-;-;-;-;-;-
1514189213198;-;-;6.418152;-1.8840485;-1.4466095;-;-;-;-;-;-;-;-;-;-;-;-;-;-;-
1514189213218;-;-;6.8167877;-1.7703247;-1.8296814;-;-;-;-;-;-;-;-;-;-;-;-;-;-;-
1514189213239;-;-;5.7046814;-1.7942657;-1.4502106;-;-;-;-;-;-;-;-;-;-;-;-;-;-;-
1514189213259;-;-;5.14563;-1.1334686;-0.14176941;-;-;-;-;-;-;-;-;-;-;-;-;-;-;-
1514189213279;-;-;6.343933;0.64064026;-1.3197174;-;-;-;-;-;-;-;-;-;-;-;-;-;-;-
1514189213299;-;-;8.219788;3.1090698;-5.148041;-;-;-;-;-;-;-;-;-;-;-;-;-;-;-
1514189213320;-;-;8.472366;3.0611725;-5.7944794;-;-;-;-;-;-;-;-;-;-;-;-;-;-;-
1514189213340;-;-;7.3710327;0.9590759;-4.6296997;-;-;-;-;-;-;-;-;-;-;-;-;-;-;-
1514189213361;-;-;6.967621;-0.65940857;-5.1815643;-;-;-;-;-;-;-;-;-;-;-;-;-;-;-
1514189213381;-;-;9.392944;-2.1007233;-5.288101;-;-;-;-;-;-;-;-;-;-;-;-;-;-;-
1514189213401;-;-;13.64505;-2.8070068;-5.602951;-;-;-;-;-;-;-;-;-;-;-;-;-;-;-
1514189213421;-;-;18.899124;-4.3033905;-4.1424866;-;-;-;-;-;-;-;-;-;-;-;-;-;-;-
1514189213442;-;-;22.197128;-4.6780853;-6.1464233;-;-;-;-;-;-;-;-;-;-;-;-;-;-;-
1514189213462;-;-;21.626114;-3.9682007;-4.313675;-;-;-;-;-;-;-;-;-;-;-;-;-;-;-
1514189213483;-;-;17.801376;-3.1266327;-3.733078;-;-;-;-;-;-;-;-;-;-;-;-;-;-;-
1514189213504;-;-;12.918411;-2.2180328;-2.9082794;-;-;-;-;-;-;-;-;-;-;-;-;-;-;-
1514189213524;-;-;7.055008;-1.546463;-1.2562714;-;-;-;-;-;-;-;-;-;-;-;-;-;-;-
1514189213544;-;-;2.9549408;-1.3046417;-1.6848297;-;-;-;-;-;-;-;-;-;-;-;-;-;-;-
1514189213563;-;-;0.34405518;-0.9586792;-1.7590485;-;-;-;-;-;-;-;-;-;-;-;-;-;-;-
1514189213584;-;-;2.106186;-0.76594543;-1.8452454;-;-;-;-;-;-;-;-;-;-;-;-;-;-;-
1514189213604;-;-;5.0091553;-0.51216125;-2.1780396;-;-;-;-;-;-;-;-;-;-;-;-;-;-;-
1514189213624;-;-;6.118866;0.019348145;-2.2355042;-;-;-;-;-;-;-;-;-;-;-;-;-;-;-
1514189213643;-;-;5.1396484;-0.6797638;-1.8380585;-;-;-;-;-;-;-;-;-;-;-;-;-;-;-
1514189213663;-;-;4.451309;-1.5548401;-2.4222565;-;-;-;-;-;-;-;-;-;-;-;-;-;-;-
1514189213684;-;-;4.4285583;-1.803833;-2.3252869;-;-;-;-;-;-;-;-;-;-;-;-;-;-;-
1514189213703;-;-;4.790085;-1.8840485;-2.0283966;-;-;-;-;-;-;-;-;-;-;-;-;-;-;-
1514189213723;-;-;6.4253235;-2.3616943;-2.105011;-;-;-;-;-;-;-;-;-;-;-;-;-;-;-
1514189213744;-;-;8.387375;-2.3281708;-0.89834595;-;-;-;-;-;-;-;-;-;-;-;-;-;-;-
1514189213763;-;-;9.172684;-2.4335175;0.56451416;-;-;-;-;-;-;-;-;-;-;-;-;-;-;-
1514189213784;-;-;8.255692;-2.988968;0.8817444;-;-;-;-;-;-;-;-;-;-;-;-;-;-;-
1514189213804;-;-;7.6032715;-3.4510498;0.52500916;-;-;-;-;-;-;-;-;-;-;-;-;-;-;-
1514189213824;-;-;7.7816467;-2.4143677;-0.5428009;-;-;-;-;-;-;-;-;-;-;-;-;-;-;-
1514189213844;-;-;7.4895477;-0.8641205;-1.6489258;-;-;-;-;-;-;-;-;-;-;-;-;-;-;-
1514189213865;-;-;6.5665894;-0.3254242;-4.543518;-;-;-;-;-;-;-;-;-;-;-;-;-;-;-
1514189213885;-;-;7.0681763;-0.7731323;-9.09729;-;-;-;-;-;-;-;-;-;-;-;-;-;-;-
1514189213905;-;-;10.202179;-0.2571869;-4.397461;-;-;-;-;-;-;-;-;-;-;-;-;-;-;-
1514189213926;-;-;14.658997;1.5181122;-4.5267487;-;-;-;-;-;-;-;-;-;-;-;-;-;-;-
1514189213946;-;-;19.532394;3.1904602;-5.278534;-;-;-;-;-;-;-;-;-;-;-;-;-;-;-
1514189213967;-;-;24.604507;1.1075134;-6.773712;-;-;-;-;-;-;-;-;-;-;-;-;-;-;-
1514189213987;-;-;22.856735;-4.0041046;-5.956085;-;-;-;-;-;-;-;-;-;-;-;-;-;-;-
1514189214007;-;-;13.818619;-4.860031;-3.159668;-;-;-;-;-;-;-;-;-;-;-;-;-;-;-
1514189214027;-;-;6.78685;-3.4654083;-1.8416595;-;-;-;-;-;-;-;-;-;-;-;-;-;-;-
1514189214048;-;-;3.754593;-1.4530945;-2.014038;-;-;-;-;-;-;-;-;-;-;-;-;-;-;-
1514189214068;-;-;3.5079956;0.8585205;-2.4342194;-;-;-;-;-;-;-;-;-;-;-;-;-;-;-
1514189214088;-;-;2.5850372;1.7814789;-2.5982208;-;-;-;-;-;-;-;-;-;-;-;-;-;-;-
1514189214109;-;-;1.589035;0.87527466;-2.1529083;-;-;-;-;-;-;-;-;-;-;-;-;-;-;-
1514189214128;-;-;3.0219727;-0.39964294;-1.6596985;-;-;-;-;-;-;-;-;-;-;-;-;-;-;-
1514189214148;-;-;5.2126617;-1.0795898;-1.2754211;-;-;-;-;-;-;-;-;-;-;-;-;-;-;-
1514189214168;-;-;7.640381;-0.8712921;-2.266632;-;-;-;-;-;-;-;-;-;-;-;-;-;-;-
1514189214189;-;-;7.2118225;0.35812378;-2.3145142;-;-;-;-;-;-;-;-;-;-;-;-;-;-;-
1514189214209;-;-;6.0578156;1.006958;-2.1947937;-;-;-;-;-;-;-;-;-;-;-;-;-;-;-
1514189214229;-;-;5.845932;-0.13508606;-2.6616669;-;-;-;-;-;-;-;-;-;-;-;-;-;-;-
1514189214250;-;-;6.376251;-1.4064026;-2.852005;-;-;-;-;-;-;-;-;-;-;-;-;-;-;-
1514189214270;-;-;6.0650024;-0.38887024;-1.2730255;-;-;-;-;-;-;-;-;-;-;-;-;-;-;-
1514189214290;-;-;5.6388397;2.1250458;0.7440796;-;-;-;-;-;-;-;-;-;-;-;-;-;-;-
1514189214311;-;-;6.651581;3.7004242;-0.51527405;-;-;-;-;-;-;-;-;-;-;-;-;-;-;-
1514189214330;-;-;8.078522;2.5536041;-4.8296204;-;-;-;-;-;-;-;-;-;-;-;-;-;-;-
1514189214350;-;-;7.8678436;-0.6007538;-2.9489746;-;-;-;-;-;-;-;-;-;-;-;-;-;-;-
1514189214371;-;-;5.9859924;-1.2819061;-1.124588;-;-;-;-;-;-;-;-;-;-;-;-;-;-;-
1514189214391;-;-;6.256546;-2.103119;-5.0247498;-;-;-;-;-;-;-;-;-;-;-;-;-;-;-
1514189214411;-;-;8.384979;-2.4430847;-8.205444;-;-;-;-;-;-;-;-;-;-;-;-;-;-;-
1514189214433;-;-;12.590393;-2.1916962;-3.3943024;-;-;-;-;-;-;-;-;-;-;-;-;-;-;-
1514189214454;-;-;16.51091;-3.3181763;-4.5901947;-;-;-;-;-;-;-;-;-;-;-;-;-;-;-
1514189214474;-;-;21.345993;-6.0511475;-5.3635254;-;-;-;-;-;-;-;-;-;-;-;-;-;-;-
1514189214494;-;-;25.395782;-6.8580017;-2.2678223;-;-;-;-;-;-;-;-;-;-;-;-;-;-;-
1514189214514;-;-;21.537537;-5.923065;-4.7350464;-;-;-;-;-;-;-;-;-;-;-;-;-;-;-
1514189214535;-;-;14.23642;-5.526825;-2.2498627;-;-;-;-;-;-;-;-;-;-;-;-;-;-;-
1514189214555;-;-;8.580109;-3.9598236;-1.618988;-;-;-;-;-;-;-;-;-;-;-;-;-;-;-
1514189214575;-;-;3.5714417;-2.408371;-2.1924133;-;-;-;-;-;-;-;-;-;-;-;-;-;-;-
1514189214596;-;-;1.0659027;-1.6386414;-2.3372498;-;-;-;-;-;-;-;-;-;-;-;-;-;-;-
1514189214616;-;-;5.0343018;-1.4147797;-2.3827515;-;-;-;-;-;-;-;-;-;-;-;-;-;-;-
1514189214636;-;-;7.1651306;0.12348938;-3.1177673;-;-;-;-;-;-;-;-;-;-;-;-;-;-;-
1514189214656;-;-;5.3563232;0.9363251;-2.7514496;-;-;-;-;-;-;-;-;-;-;-;-;-;-;-
1514189214676;-;-;3.497223;-0.11831665;-2.0738983;-;-;-;-;-;-;-;-;-;-;-;-;-;-;-
1514189214697;-;-;3.802475;-1.5057678;-1.6644897;-;-;-;-;-;-;-;-;-;-;-;-;-;-;-
1514189214717;-;-;5.5167236;-2.5556183;-2.7586365;-;-;-;-;-;-;-;-;-;-;-;-;-;-;-
1514189214737;-;-;6.130844;-2.1929016;-1.7554626;-;-;-;-;-;-;-;-;-;-;-;-;-;-;-
1514189214758;-;-;5.4018097;-1.5895538;-0.82650757;-;-;-;-;-;-;-;-;-;-;-;-;-;-;-
1514189214778;-;-;5.7381897;-2.344925;-0.9725647;-;-;-;-;-;-;-;-;-;-;-;-;-;-;-
1514189214798;-;-;7.248932;-3.3696442;-0.5834961;-;-;-;-;-;-;-;-;-;-;-;-;-;-;-
1514189214818;-;-;10.125565;-4.178894;0.32868958;-;-;-;-;-;-;-;-;-;-;-;-;-;-;-
1514189214839;-;-;9.863403;-2.6334229;0.72013855;-;-;-;-;-;-;-;-;-;-;-;-;-;-;-
1514189214858;-;-;8.290421;-1.2424011;0.2616577;-;-;-;-;-;-;-;-;-;-;-;-;-;-;-
1514189214878;-;-;8.158737;-0.5720215;-0.80856323;-;-;-;-;-;-;-;-;-;-;-;-;-;-;-
1514189214899;-;-;9.680252;-0.2272644;-0.29260254;-;-;-;-;-;-;-;-;-;-;-;-;-;-;-
1514189214919;-;-;9.019455;-1.1083221;-2.2845764;-;-;-;-;-;-;-;-;-;-;-;-;-;-;-
1514189214939;-;-;6.8598785;-2.7423706;-7.0837555;-;-;-;-;-;-;-;-;-;-;-;-;-;-;-
1514189214959;-;-;4.6224976;-2.411972;-6.1069183;-;-;-;-;-;-;-;-;-;-;-;-;-;-;-
1514189214980;-;-;6.497162;0.45988464;-2.7466583;-;-;-;-;-;-;-;-;-;-;-;-;-;-;-
1514189215000;-;-;12.795105;5.524811;-3.8731384;-;-;-;-;-;-;-;-;-;-;-;-;-;-;-
1514189215020;-;-;17.114243;3.5591736;-6.224243;-;-;-;-;-;-;-;-;-;-;-;-;-;-;-
1514189215041;-;-;20.497253;1.3349609;-4.978058;-;-;-;-;-;-;-;-;-;-;-;-;-;-;-
1514189215061;-;-;21.087418;-2.6406097;-5.1791687;-;-;-;-;-;-;-;-;-;-;-;-;-;-;-
1514189215081;-;-;16.241562;-2.281479;-2.0487518;-;-;-;-;-;-;-;-;-;-;-;-;-;-;-
1514189215102;-;-;11.092819;0.03730774;-0.18367004;-;-;-;-;-;-;-;-;-;-;-;-;-;-;-
1514189215122;-;-;7.2393646;0.6059265;-0.78700256;-;-;-;-;-;-;-;-;-;-;-;-;-;-;-
1514189215142;-;-;4.8367767;0.68852234;-1.4992828;-;-;-;-;-;-;-;-;-;-;-;-;-;-;-
1514189215163;-;-;3.735443;0.95428467;-1.3017578;-;-;-;-;-;-;-;-;-;-;-;-;-;-;-
1514189215182;-;-;2.8591614;0.2515869;-1.3604279;-;-;-;-;-;-;-;-;-;-;-;-;-;-;-
1514189215202;-;-;2.643692;-1.091568;-0.6433563;-;-;-;-;-;-;-;-;-;-;-;-;-;-;-
1514189215223;-;-;5.0857697;-1.8648987;0.089263916;-;-;-;-;-;-;-;-;-;-;-;-;-;-;-
1514189215243;-;-;6.715027;-1.2424011;-0.7965851;-;-;-;-;-;-;-;-;-;-;-;-;-;-;-
1514189215263;-;-;6.880234;-0.10395813;-1.8584137;-;-;-;-;-;-;-;-;-;-;-;-;-;-;-
1514189215284;-;-;6.908966;1.0416718;-2.452179;-;-;-;-;-;-;-;-;-;-;-;-;-;-;-
1514189215304;-;-;7.3782196;1.8269653;-2.7705994;-;-;-;-;-;-;-;-;-;-;-;-;-;-;-
1514189215324;-;-;8.279633;1.1601868;-1.3640137;-;-;-;-;-;-;-;-;-;-;-;-;-;-;-
1514189215345;-;-;9.437241;-1.3214111;-1.3819733;-;-;-;-;-;-;-;-;-;-;-;-;-;-;-
1514189215365;-;-;8.657928;-1.1238861;-0.5834961;-;-;-;-;-;-;-;-;-;-;-;-;-;-;-
1514189215385;-;-;7.6786957;0.793869;-0.07952881;-;-;-;-;-;-;-;-;-;-;-;-;-;-;-
1514189215406;-;-;7.1795044;3.1904602;0.53578186;-;-;-;-;-;-;-;-;-;-;-;-;-;-;-
1514189215426;-;-;7.406952;3.572342;-1.0970612;-;-;-;-;-;-;-;-;-;-;-;-;-;-;-
1514189215446;-;-;7.7577057;0.6143036;-1.4190826;-;-;-;-;-;-;-;-;-;-;-;-;-;-;-
1514189215467;-;-;6.395401;-1.7966614;-0.94262695;-;-;-;-;-;-;-;-;-;-;-;-;-;-;-
1514189215487;-;-;5.14563;-3.2511292;-4.626114;-;-;-;-;-;-;-;-;-;-;-;-;-;-;-
1514189215507;-;-;8.458008;-4.472183;-4.085022;-;-;-;-;-;-;-;-;-;-;-;-;-;-;-
1514189215527;-;-;13.131485;-5.8416595;-5.017563;-;-;-;-;-;-;-;-;-;-;-;-;-;-;-
1514189215548;-;-;19.682022;-6.191208;-7.1029205;-;-;-;-;-;-;-;-;-;-;-;-;-;-;-
1514189215568;-;-;26.843079;-6.6868134;-7.79245;-;-;-;-;-;-;-;-;-;-;-;-;-;-;-
1514189215589;-;-;29.528183;-4.8444824;-6.808426;-;-;-;-;-;-;-;-;-;-;-;-;-;-;-
1514189215609;-;-;22.029541;-0.21887207;-10.240509;-;-;-;-;-;-;-;-;-;-;-;-;-;-;-
1514189215629;-;-;11.959534;2.9235077;-4.2538147;-;-;-;-;-;-;-;-;-;-;-;-;-;-;-
1514189215650;-;-;3.632492;2.5667725;-1.5100555;-;-;-;-;-;-;-;-;-;-;-;-;-;-;-
1514189215670;-;-;-0.14315796;-0.37809753;-1.9769287;-;-;-;-;-;-;-;-;-;-;-;-;-;-;-
1514189215690;-;-;1.7877655;-3.9406586;-2.6604767;-;-;-;-;-;-;-;-;-;-;-;-;-;-;-
1514189215710;-;-;5.312027;-2.6262512;-1.9242554;-;-;-;-;-;-;-;-;-;-;-;-;-;-;-
1514189215731;-;-;4.0838013;-0.53730774;-2.041565;-;-;-;-;-;-;-;-;-;-;-;-;-;-;-
1514189215750;-;-;1.8069153;-1.3405609;-0.49850464;-;-;-;-;-;-;-;-;-;-;-;-;-;-;-
1514189215770;-;-;2.1445007;-2.9410858;0.28918457;-;-;-;-;-;-;-;-;-;-;-;-;-;-;-
1514189215791;-;-;4.8559265;-3.1685333;-0.19204712;-;-;-;-;-;-;-;-;-;-;-;-;-;-;-
1514189215811;-;-;6.94487;-2.597519;-0.25549316;-;-;-;-;-;-;-;-;-;-;-;-;-;-;-
1514189215831;-;-;8.127609;-2.2407837;0.5405731;-;-;-;-;-;-;-;-;-;-;-;-;-;-;-
1514189215851;-;-;9.043396;-2.5783691;1.5209961;-;-;-;-;-;-;-;-;-;-;-;-;-;-;-
1514189215871;-;-;10.400894;-4.0232697;0.66986084;-;-;-;-;-;-;-;-;-;-;-;-;-;-;-
1514189215892;-;-;10.79834;-5.0898743;-1.7339172;-;-;-;-;-;-;-;-;-;-;-;-;-;-;-
1514189215912;-;-;10.908478;-4.4697876;-0.8360901;-;-;-;-;-;-;-;-;-;-;-;-;-;-;-
1514189215933;-;-;11.381332;-3.9119263;0.255661;-;-;-;-;-;-;-;-;-;-;-;-;-;-;-
1514189215953;-;-;12.956711;-3.7850342;-4.808075;-;-;-;-;-;-;-;-;-;-;-;-;-;-;-
1514189215974;-;-;15.215637;-1.7858887;-11.84343;-;-;-;-;-;-;-;-;-;-;-;-;-;-;-
1514189215993;-;-;14.445908;2.3177795;-10.247696;-;-;-;-;-;-;-;-;-;-;-;-;-;-;-
1514189216013;-;-;9.421677;4.168503;-6.337967;-;-;-;-;-;-;-;-;-;-;-;-;-;-;-
1514189216034;-;-;6.9340973;2.0639954;-6.001587;-;-;-;-;-;-;-;-;-;-;-;-;-;-;-
1514189216054;-;-;7.530258;-2.1138916;-6.227829;-;-;-;-;-;-;-;-;-;-;-;-;-;-;-
1514189216074;-;-;10.072891;-5.9122925;-5.089386;-;-;-;-;-;-;-;-;-;-;-;-;-;-;-
1514189216094;-;-;12.524551;-7.2733917;-2.0894623;-;-;-;-;-;-;-;-;-;-;-;-;-;-;-
1514189216115;-;-;11.730881;-4.6146393;-2.3719635;-;-;-;-;-;-;-;-;-;-;-;-;-;-;-
1514189216135;-;-;10.041779;-1.7415924;-2.8579865;-;-;-;-;-;-;-;-;-;-;-;-;-;-;-
1514189216155;-;-;6.9819794;-0.22366333;-2.500061;-;-;-;-;-;-;-;-;-;-;-;-;-;-;-
1514189216176;-;-;3.9353638;0.04927063;-3.1812134;-;-;-;-;-;-;-;-;-;-;-;-;-;-;-
1514189216196;-;-;3.4409637;-0.58639526;-3.9282074;-;-;-;-;-;-;-;-;-;-;-;-;-;-;-
1514189216216;-;-;5.702286;-1.9008026;-3.8468018;-;-;-;-;-;-;-;-;-;-;-;-;-;-;-
1514189216237;-;-;9.2313385;-2.4227448;-3.2506409;-;-;-;-;-;-;-;-;-;-;-;-;-;-;-
1514189216257;-;-;11.310699;-1.6110992;-3.8731384;-;-;-;-;-;-;-;-;-;-;-;-;-;-;-
1514189216277;-;-;8.376602;-0.24760437;-3.4852753;-;-;-;-;-;-;-;-;-;-;-;-;-;-;-
1514189216298;-;-;4.9708557;0.38327026;-2.4090881;-;-;-;-;-;-;-;-;-;-;-;-;-;-;-
1514189216317;-;-;3.7964935;-0.057266235;-1.8823547;-;-;-;-;-;-;-;-;-;-;-;-;-;-;-
1514189216337;-;-;5.6807404;-0.95988464;-2.3623962;-;-;-;-;-;-;-;-;-;-;-;-;-;-;-
1514189216358;-;-;7.5470123;-1.0484619;-3.0483398;-;-;-;-;-;-;-;-;-;-;-;-;-;-;-
1514189216377;-;-;8.510681;-0.1817627;-3.7582092;-;-;-;-;-;-;-;-;-;-;-;-;-;-;-
1514189216397;-;-;9.610809;0.83935547;-3.5235748;-;-;-;-;-;-;-;-;-;-;-;-;-;-;-
1514189216418;-;-;10.149506;1.0871582;-3.1393127;-;-;-;-;-;-;-;-;-;-;-;-;-;-;-
1514189216438;-;-;9.372589;0.2348175;-2.1804352;-;-;-;-;-;-;-;-;-;-;-;-;-;-;-
1514189216458;-;-;8.1707;-1.0484619;-2.1529083;-;-;-;-;-;-;-;-;-;-;-;-;-;-;-
1514189216478;-;-;8.778824;-3.0895233;-5.2091064;-;-;-;-;-;-;-;-;-;-;-;-;-;-;-
1514189216499;-;-;10.46196;-5.3640137;-6.7868805;-;-;-;-;-;-;-;-;-;-;-;-;-;-;-
1514189216518;-;-;11.809891;-6.435425;-5.963272;-;-;-;-;-;-;-;-;-;-;-;-;-;-;-
1514189216538;-;-;10.904877;-4.4254913;-5.5311127;-;-;-;-;-;-;-;-;-;-;-;-;-;-;-
1514189216559;-;-;9.856216;-2.3281708;-4.9804535;-;-;-;-;-;-;-;-;-;-;-;-;-;-;-
1514189216579;-;-;9.070923;-0.7276459;-5.6005554;-;-;-;-;-;-;-;-;-;-;-;-;-;-;-
1514189216600;-;-;8.914108;0.15222168;-5.6687927;-;-;-;-;-;-;-;-;-;-;-;-;-;-;-
1514189216620;-;-;9.367798;0.040893555;-4.226288;-;-;-;-;-;-;-;-;-;-;-;-;-;-;-
1514189216640;-;-;9.373795;-0.6402588;-3.9485474;-;-;-;-;-;-;-;-;-;-;-;-;-;-;-
1514189216661;-;-;8.717773;-1.9175568;-3.5726624;-;-;-;-;-;-;-;-;-;-;-;-;-;-;-
1514189216681;-;-;7.458435;-2.981781;-3.168045;-;-;-;-;-;-;-;-;-;-;-;-;-;-;-
1514189216701;-;-;6.418152;-3.4378815;-2.6137848;-;-;-;-;-;-;-;-;-;-;-;-;-;-;-
1514189216722;-;-;5.411392;-3.012909;-2.4246368;-;-;-;-;-;-;-;-;-;-;-;-;-;-;-
1514189216741;-;-;4.5949554;-2.0384674;-2.9453888;-;-;-;-;-;-;-;-;-;-;-;-;-;-;-
1514189216761;-;-;5.114502;-1.2376099;-2.8903198;-;-;-;-;-;-;-;-;-;-;-;-;-;-;-
1514189216781;-;-;6.1883087;-0.33140564;-3.001648;-;-;-;-;-;-;-;-;-;-;-;-;-;-;-
1514189216802;-;-;7.7601013;0.38206482;-2.4234467;-;-;-;-;-;-;-;-;-;-;-;-;-;-;-
1514189216822;-;-;8.210205;0.29348755;-1.9637604;-;-;-;-;-;-;-;-;-;-;-;-;-;-;-
1514189216842;-;-;8.292801;-0.3577423;-1.4693604;-;-;-;-;-;-;-;-;-;-;-;-;-;-;-
1514189216862;-;-;8.321533;-1.0855713;-1.2646484;-;-;-;-;-;-;-;-;-;-;-;-;-;-;-
1514189216883;-;-;8.957199;-1.4207611;-1.3400726;-;-;-;-;-;-;-;-;-;-;-;-;-;-;-
1514189216903;-;-;9.603638;-1.1370544;-1.2861938;-;-;-;-;-;-;-;-;-;-;-;-;-;-;-
1514189216924;-;-;10.035782;-0.7503967;-1.3819733;-;-;-;-;-;-;-;-;-;-;-;-;-;-;-
1514189216944;-;-;10.288376;-0.21528625;-1.1676941;-;-;-;-;-;-;-;-;-;-;-;-;-;-;-
1514189216964;-;-;10.361404;-0.8090515;-1.2059937;-;-;-;-;-;-;-;-;-;-;-;-;-;-;-
1514189216984;-;-;10.435623;-2.5089264;0.5992279;-;-;-;-;-;-;-;-;-;-;-;-;-;-;-
1514189217005;-;-;11.620743;-3.996933;0.6447296;-;-;-;-;-;-;-;-;-;-;-;-;-;-;-
1514189217025;-;-;11.8841095;-5.016861;-2.4342194;-;-;-;-;-;-;-;-;-;-;-;-;-;-;-
1514189217045;-;-;10.767212;-6.3863373;-7.982788;-;-;-;-;-;-;-;-;-;-;-;-;-;-;-
1514189217066;-;-;8.698624;-6.206772;-7.8618774;-;-;-;-;-;-;-;-;-;-;-;-;-;-;-
1514189217085;-;-;6.952057;-3.3074036;-5.5371094;-;-;-;-;-;-;-;-;-;-;-;-;-;-;-
1514189217105;-;-;7.0142975;0.91596985;-4.3400116;-;-;-;-;-;-;-;-;-;-;-;-;-;-;-
1514189217126;-;-;9.069733;2.1741333;-4.677582;-;-;-;-;-;-;-;-;-;-;-;-;-;-;-
1514189217146;-;-;12.086426;-0.3481598;-5.7681427;-;-;-;-;-;-;-;-;-;-;-;-;-;-;-
1514189217166;-;-;14.462662;-4.476959;-3.9533386;-;-;-;-;-;-;-;-;-;-;-;-;-;-;-
1514189217186;-;-;12.446747;-5.6441345;-3.183609;-;-;-;-;-;-;-;-;-;-;-;-;-;-;-
1514189217206;-;-;9.470749;-4.538025;-2.9908752;-;-;-;-;-;-;-;-;-;-;-;-;-;-;-
1514189217227;-;-;6.8993835;-2.9674225;-3.0998077;-;-;-;-;-;-;-;-;-;-;-;-;-;-;-
1514189217247;-;-;5.3563232;-1.4937897;-3.9677124;-;-;-;-;-;-;-;-;-;-;-;-;-;-;-
1514189217268;-;-;4.3926544;0.63345337;-4.357956;-;-;-;-;-;-;-;-;-;-;-;-;-;-;-
1514189217288;-;-;4.221466;2.1717377;-4.223892;-;-;-;-;-;-;-;-;-;-;-;-;-;-;-
1514189217308;-;-;4.4608917;2.0891266;-4.578232;-;-;-;-;-;-;-;-;-;-;-;-;-;-;-
1514189217328;-;-;6.6132813;0.37608337;-3.2482452;-;-;-;-;-;-;-;-;-;-;-;-;-;-;-
1514189217349;-;-;8.707001;-0.11592102;-2.2019806;-;-;-;-;-;-;-;-;-;-;-;-;-;-;-
1514189217368;-;-;8.483139;0.80345154;-2.6760406;-;-;-;-;-;-;-;-;-;-;-;-;-;-;-
1514189217388;-;-;7.8199463;1.698883;-2.5383606;-;-;-;-;-;-;-;-;-;-;-;-;-;-;-
1514189217408;-;-;7.343506;1.9119568;-1.8488312;-;-;-;-;-;-;-;-;-;-;-;-;-;-;-
1514189217429;-;-;7.415329;1.7299957;-1.5184326;-;-;-;-;-;-;-;-;-;-;-;-;-;-;-
1514189217449;-;-;7.7098236;1.2918701;-1.1760712;-;-;-;-;-;-;-;-;-;-;-;-;-;-;-
1514189217469;-;-;7.7996063;0.80822754;-0.7163849;-;-;-;-;-;-;-;-;-;-;-;-;-;-;-
1514189217490;-;-;8.625595;0.78907776;-0.65293884;-;-;-;-;-;-;-;-;-;-;-;-;-;-;-
1514189217510;-;-;10.20697;2.066391;-1.3879547;-;-;-;-;-;-;-;-;-;-;-;-;-;-;-
1514189217530;-;-;9.612015;2.8241577;-2.5192108;-;-;-;-;-;-;-;-;-;-;-;-;-;-;-
1514189217550;-;-;8.871002;1.4714355;-1.7159576;-;-;-;-;-;-;-;-;-;-;-;-;-;-;-
1514189217571;-;-;9.030228;0.03970337;0.22453308;-;-;-;-;-;-;-;-;-;-;-;-;-;-;-
1514189217591;-;-;10.016632;-0.25958252;1.6538849;-;-;-;-;-;-;-;-;-;-;-;-;-;-;-
1514189217611;-;-;11.354996;-0.7551727;-1.0994568;-;-;-;-;-;-;-;-;-;-;-;-;-;-;-
1514189217632;-;-;11.418442;-0.64863586;-8.906952;-;-;-;-;-;-;-;-;-;-;-;-;-;-;-
1514189217652;-;-;11.546524;-1.4662628;-14.55127;-;-;-;-;-;-;-;-;-;-;-;-;-;-;-
1514189217673;-;-;13.738419;-1.775116;-4.895462;-;-;-;-;-;-;-;-;-;-;-;-;-;-;-
1514189217693;-;-;8.273651;-1.9450989;-5.716675;-;-;-;-;-;-;-;-;-;-;-;-;-;-;-
1514189217713;-;-;7.901352;-2.7986298;-4.954117;-;-;-;-;-;-;-;-;-;-;-;-;-;-;-
1514189217733;-;-;7.937271;-2.4885864;-3.36557;-;-;-;-;-;-;-;-;-;-;-;-;-;-;-
1514189217754;-;-;10.131561;-1.4566803;-3.2243042;-;-;-;-;-;-;-;-;-;-;-;-;-;-;-
1514189217774;-;-;11.835022;-0.42237854;-5.9572906;-;-;-;-;-;-;-;-;-;-;-;-;-;-;-
1514189217794;-;-;12.028961;0.8908386;-4.796097;-;-;-;-;-;-;-;-;-;-;-;-;-;-;-
1514189217815;-;-;9.786789;1.9382935;-3.812088;-;-;-;-;-;-;-;-;-;-;-;-;-;-;-
1514189217835;-;-;6.699463;0.50297546;-3.5367432;-;-;-;-;-;-;-;-;-;-;-;-;-;-;-
1514189217855;-;-;5.1564026;-0.63905334;-2.0092468;-;-;-;-;-;-;-;-;-;-;-;-;-;-;-
1514189217875;-;-;4.739807;-1.4782257;-1.124588;-;-;-;-;-;-;-;-;-;-;-;-;-;-;-
1514189217896;-;-;4.430954;-2.1222687;-1.143753;-;-;-;-;-;-;-;-;-;-;-;-;-;-;-
1514189217915;-;-;5.6699524;-2.1282501;-1.4909058;-;-;-;-;-;-;-;-;-;-;-;-;-;-;-
1514189217935;-;-;6.9185333;-1.7116699;-1.7387085;-;-;-;-;-;-;-;-;-;-;-;-;-;-;-
1514189217956;-;-;7.1651306;-1.0688171;-1.8272858;-;-;-;-;-;-;-;-;-;-;-;-;-;-;-
1514189217976;-;-;6.577362;0.12828064;-1.6800537;-;-;-;-;-;-;-;-;-;-;-;-;-;-;-
1514189217996;-;-;5.9895782;1.0189209;-1.6824341;-;-;-;-;-;-;-;-;-;-;-;-;-;-;-
1514189218016;-;-;6.5797577;1.1134949;-1.6668854;-;-;-;-;-;-;-;-;-;-;-;-;-;-;-
1514189218037;-;-;7.355484;-0.033325195;-1.5675201;-;-;-;-;-;-;-;-;-;-;-;-;-;-;-
1514189218057;-;-;7.469208;-1.8217926;-1.3256989;-;-;-;-;-;-;-;-;-;-;-;-;-;-;-
1514189218077;-;-;6.473221;-3.0236816;-0.333313;-;-;-;-;-;-;-;-;-;-;-;-;-;-;-
1514189218097;-;-;5.2186584;-3.8437042;-0.48654175;-;-;-;-;-;-;-;-;-;-;-;-;-;-;-
1514189218118;-;-;5.315613;-3.471405;-0.7630615;-;-;-;-;-;-;-;-;-;-;-;-;-;-;-
1514189218137;-;-;6.060211;-2.4706268;-0.5068817;-;-;-;-;-;-;-;-;-;-;-;-;-;-;-
1514189218157;-;-;7.9791718;-2.0420685;-0.60624695;-;-;-;-;-;-;-;-;-;-;-;-;-;-;-
1514189218178;-;-;9.855026;-2.0660095;-1.2646484;-;-;-;-;-;-;-;-;-;-;-;-;-;-;-
1514189218197;-;-;10.1171875;-2.6489868;-1.9494019;-;-;-;-;-;-;-;-;-;-;-;-;-;-;-
1514189218217;-;-;8.677078;-2.6202545;-2.757431;-;-;-;-;-;-;-;-;-;-;-;-;-;-;-
1514189218238;-;-;8.331116;-2.2072601;-5.0283356;-;-;-;-;-;-;-;-;-;-;-;-;-;-;-
1514189218258;-;-;8.661514;-0.56843567;-4.666809;-;-;-;-;-;-;-;-;-;-;-;-;-;-;-
1514189218278;-;-;10.696579;2.035263;-3.5379486;-;-;-;-;-;-;-;-;-;-;-;-;-;-;-
1514189218298;-;-;13.0225525;3.1030731;-4.283737;-;-;-;-;-;-;-;-;-;-;-;-;-;-;-
1514189218319;-;-;16.422318;1.7288055;-1.0731201;-;-;-;-;-;-;-;-;-;-;-;-;-;-;-
