TimeStamp[ms];Prox[Cm];Lux[lux];AccX[m/s^2];AccY[m/s^2];AccZ[m/s^2];GyroX[rad/s];GyroY[rad/s];GyroZ[rad/s];MagnX[uT];MagnY[uT];MagnZ[uT];OrienYaw[degrees];OrienPitch[degrees];OrienRoll[degrees];Press[Pa];Temp[C°];Batt[%];Lat;Lng;Speed[m/s]
1514189248482;-;-;7.240555;-1.036499;4.354538;-;-;-;-;-;-;-;-;-;-;-;-;-;-;-
1514189248491;-;-;7.2501373;-1.1334686;4.754364;-;-;-;-;-;-;-;-;-;-;-;-;-;-;-
1514189248511;-;-;7.422516;-1.3321838;4.7435913;-;-;-;-;-;-;-;-;-;-;-;-;-;-;-
1514189248532;-;-;7.367447;-1.3034515;4.3760834;-;-;-;-;-;-;-;-;-;-;-;-;-;-;-
1514189248552;-;-;7.703827;-1.5321045;4.358124;-;-;-;-;-;-;-;-;-;-;-;-;-;-;-
1514189248572;-;-;8.078522;-1.2747192;4.5472717;-;-;-;-;-;-;-;-;-;-;-;-;-;-;-
1514189248593;-;-;8.010284;-1.3429565;4.572418;-;-;-;-;-;-;-;-;-;-;-;-;-;-;-
1514189248613;-;-;8.771652;-1.7978516;4.936325;-;-;-;-;-;-;-;-;-;-;-;-;-;-;-
1514189248633;-;-;8.345474;-0.4271698;1.7903442;-;-;-;-;-;-;-;-;-;-;-;-;-;-;-
1514189248654;-;-;7.748123;-2.0181274;4.7651367;-;-;-;-;-;-;-;-;-;-;-;-;-;-;-
1514189248674;-;-;8.90213;-1.2986603;2.7121124;-;-;-;-;-;-;-;-;-;-;-;-;-;-;-
1514189248694;-;-;7.873825;-1.5692139;1.9495697;-;-;-;-;-;-;-;-;-;-;-;-;-;-;-
1514189248714;-;-;8.747711;-1.3848572;2.8222504;-;-;-;-;-;-;-;-;-;-;-;-;-;-;-
1514189248735;-;-;8.953613;-0.8892517;3.813446;-;-;-;-;-;-;-;-;-;-;-;-;-;-;-
1514189248755;-;-;7.956421;-0.36611938;1.7053528;-;-;-;-;-;-;-;-;-;-;-;-;-;-;-
1514189248775;-;-;7.8403015;-1.7523651;0.8434448;-;-;-;-;-;-;-;-;-;-;-;-;-;-;-
1514189248796;-;-;9.504272;-1.269928;-0.43626404;-;-;-;-;-;-;-;-;-;-;-;-;-;-;-
1514189248816;-;-;8.825516;-0.8090515;0.8482361;-;-;-;-;-;-;-;-;-;-;-;-;-;-;-
1514189248837;-;-;12.699341;-2.1234589;1.8549957;-;-;-;-;-;-;-;-;-;-;-;-;-;-;-
1514189248857;-;-;12.135498;-1.2998657;-1.1221924;-;-;-;-;-;-;-;-;-;-;-;-;-;-;-
1514189248877;-;-;6.644394;0.92674255;-1.0659332;-;-;-;-;-;-;-;-;-;-;-;-;-;-;-
1514189248897;-;-;9.49231;-1.3262024;-0.08430481;-;-;-;-;-;-;-;-;-;-;-;-;-;-;-
1514189248918;-;-;8.582504;-2.5077362;-0.54878235;-;-;-;-;-;-;-;-;-;-;-;-;-;-;-
1514189248938;-;-;8.769257;-1.9295349;0.45199585;-;-;-;-;-;-;-;-;-;-;-;-;-;-;-
1514189248958;-;-;9.644333;-2.377243;-0.21958923;-;-;-;-;-;-;-;-;-;-;-;-;-;-;-
1514189248979;-;-;9.95079;-2.1677551;0.05934143;-;-;-;-;-;-;-;-;-;-;-;-;-;-;-
1514189248999;-;-;8.581314;-1.5895538;0.20658875;-;-;-;-;-;-;-;-;-;-;-;-;-;-;-
1514189249019;-;-;8.679474;-1.2244415;-0.29859924;-;-;-;-;-;-;-;-;-;-;-;-;-;-;-
1514189249040;-;-;8.802765;-0.67855835;-0.22557068;-;-;-;-;-;-;-;-;-;-;-;-;-;-;-
1514189249060;-;-;8.8003845;-1.5476532;-0.42907715;-;-;-;-;-;-;-;-;-;-;-;-;-;-;-
1514189249080;-;-;10.476318;-2.2312012;0.44599915;-;-;-;-;-;-;-;-;-;-;-;-;-;-;-
1514189249101;-;-;9.019455;-1.661377;-0.57751465;-;-;-;-;-;-;-;-;-;-;-;-;-;-;-
1514189249120;-;-;9.893326;-1.5057678;-1.2850037;-;-;-;-;-;-;-;-;-;-;-;-;-;-;-
1514189249140;-;-;9.074509;-1.5105438;-1.0767059;-;-;-;-;-;-;-;-;-;-;-;-;-;-;-
1514189249161;-;-;7.576935;-1.1993103;-3.4038696;-;-;-;-;-;-;-;-;-;-;-;-;-;-;-
1514189249181;-;-;8.522644;-1.0724182;-1.693222;-;-;-;-;-;-;-;-;-;-;-;-;-;-;-
1514189249201;-;-;10.072891;-0.7551727;-1.2945862;-;-;-;-;-;-;-;-;-;-;-;-;-;-;-
1514189249221;-;-;9.137955;-0.14704895;-0.2758484;-;-;-;-;-;-;-;-;-;-;-;-;-;-;-
1514189249242;-;-;7.9109344;0.14263916;-1.8500366;-;-;-;-;-;-;-;-;-;-;-;-;-;-;-
1514189249262;-;-;8.237747;-0.73243713;-2.5048523;-;-;-;-;-;-;-;-;-;-;-;-;-;-;-
1514189249282;-;-;9.118805;-1.0712128;-2.0487518;-;-;-;-;-;-;-;-;-;-;-;-;-;-;-
1514189249303;-;-;9.260071;0.28271484;-3.3835144;-;-;-;-;-;-;-;-;-;-;-;-;-;-;-
1514189249322;-;-;9.264847;-0.700119;-4.389084;-;-;-;-;-;-;-;-;-;-;-;-;-;-;-
1514189249342;-;-;11.25444;-2.253952;-2.931015;-;-;-;-;-;-;-;-;-;-;-;-;-;-;-
1514189249363;-;-;9.69342;2.8876038;-1.5148468;-;-;-;-;-;-;-;-;-;-;-;-;-;-;-
1514189249383;-;-;7.889389;-0.035720825;-4.03833;-;-;-;-;-;-;-;-;-;-;-;-;-;-;-
1514189249403;-;-;7.222595;1.2475739;-3.9916534;-;-;-;-;-;-;-;-;-;-;-;-;-;-;-
1514189249424;-;-;11.020996;0.8525238;-4.3687286;-;-;-;-;-;-;-;-;-;-;-;-;-;-;-
1514189249443;-;-;6.8000183;1.0560303;-5.6640015;-;-;-;-;-;-;-;-;-;-;-;-;-;-;-
1514189249464;-;-;11.1610565;0.36410522;1.0768738;-;-;-;-;-;-;-;-;-;-;-;-;-;-;-
1514189249484;-;-;7.320755;1.9825897;-3.6193542;-;-;-;-;-;-;-;-;-;-;-;-;-;-;-
1514189249504;-;-;7.5242615;1.4163666;-3.2721863;-;-;-;-;-;-;-;-;-;-;-;-;-;-;-
1514189249525;-;-;8.219788;1.2475739;-3.6193542;-;-;-;-;-;-;-;-;-;-;-;-;-;-;-
1514189249545;-;-;7.3973694;0.34735107;-3.3236694;-;-;-;-;-;-;-;-;-;-;-;-;-;-;-
1514189249565;-;-;8.393356;0.35333252;-0.3081665;-;-;-;-;-;-;-;-;-;-;-;-;-;-;-
1514189249586;-;-;7.3698425;0.58078;-5.745407;-;-;-;-;-;-;-;-;-;-;-;-;-;-;-
1514189249605;-;-;7.995926;0.008575439;-2.1816254;-;-;-;-;-;-;-;-;-;-;-;-;-;-;-
1514189249625;-;-;7.762497;-0.7803192;-4.0036163;-;-;-;-;-;-;-;-;-;-;-;-;-;-;-
1514189249646;-;-;8.794388;-0.8772888;-1.9637604;-;-;-;-;-;-;-;-;-;-;-;-;-;-;-
1514189249665;-;-;9.533005;-0.9107971;-0.11543274;-;-;-;-;-;-;-;-;-;-;-;-;-;-;-
1514189249686;-;-;9.914871;-1.4554901;-0.575119;-;-;-;-;-;-;-;-;-;-;-;-;-;-;-
1514189249706;-;-;8.758484;-1.6290588;-0.82173157;-;-;-;-;-;-;-;-;-;-;-;-;-;-;-
1514189249726;-;-;7.703827;-1.2076874;-1.8392639;-;-;-;-;-;-;-;-;-;-;-;-;-;-;-
1514189249746;-;-;7.605667;-1.7715149;0.13476563;-;-;-;-;-;-;-;-;-;-;-;-;-;-;-
1514189249767;-;-;7.046631;-1.2076874;-0.2566986;-;-;-;-;-;-;-;-;-;-;-;-;-;-;-
1514189249787;-;-;7.542221;-1.0137482;1.4898834;-;-;-;-;-;-;-;-;-;-;-;-;-;-;-
1514189249807;-;-;9.252884;-1.4710388;-2.0248108;-;-;-;-;-;-;-;-;-;-;-;-;-;-;-
1514189249827;-;-;12.036148;-1.8493347;1.8873138;-;-;-;-;-;-;-;-;-;-;-;-;-;-;-
1514189249848;-;-;11.499847;-0.2679596;-6.7557526;-;-;-;-;-;-;-;-;-;-;-;-;-;-;-
1514189249869;-;-;10.385345;1.358902;-5.9836273;-;-;-;-;-;-;-;-;-;-;-;-;-;-;-
1514189249888;-;-;12.592789;2.1789093;-3.7210999;-;-;-;-;-;-;-;-;-;-;-;-;-;-;-
1514189249909;-;-;13.560043;1.8796387;-3.0830536;-;-;-;-;-;-;-;-;-;-;-;-;-;-;-
1514189249929;-;-;8.537018;-0.071640015;-5.8459625;-;-;-;-;-;-;-;-;-;-;-;-;-;-;-
1514189249949;-;-;5.264145;-1.5835724;-4.7194824;-;-;-;-;-;-;-;-;-;-;-;-;-;-;-
1514189249970;-;-;4.5363007;-3.5827332;-4.222687;-;-;-;-;-;-;-;-;-;-;-;-;-;-;-
1514189249989;-;-;8.351471;-5.0300293;-5.2019196;-;-;-;-;-;-;-;-;-;-;-;-;-;-;-
1514189250009;-;-;12.374924;-4.213608;-6.164383;-;-;-;-;-;-;-;-;-;-;-;-;-;-;-
1514189250029;-;-;13.345764;-1.3692932;-5.0546722;-;-;-;-;-;-;-;-;-;-;-;-;-;-;-
1514189250050;-;-;12.69455;0.73161316;-3.8791199;-;-;-;-;-;-;-;-;-;-;-;-;-;-;-
1514189250070;-;-;10.915649;0.56881714;-3.5499115;-;-;-;-;-;-;-;-;-;-;-;-;-;-;-
1514189250091;-;-;8.619614;-1.1598053;-3.025589;-;-;-;-;-;-;-;-;-;-;-;-;-;-;-
1514189250111;-;-;6.458847;-4.250717;-1.6094208;-;-;-;-;-;-;-;-;-;-;-;-;-;-;-
1514189250131;-;-;3.727066;-4.752304;-0.9079132;-;-;-;-;-;-;-;-;-;-;-;-;-;-;-
1514189250152;-;-;2.7657928;-4.1537476;-1.274231;-;-;-;-;-;-;-;-;-;-;-;-;-;-;-
1514189250172;-;-;5.6663666;-3.0260773;-1.4382324;-;-;-;-;-;-;-;-;-;-;-;-;-;-;-
1514189250192;-;-;7.9264984;-2.2671204;-2.1672668;-;-;-;-;-;-;-;-;-;-;-;-;-;-;-
1514189250212;-;-;8.082123;-1.3776703;-2.8125;-;-;-;-;-;-;-;-;-;-;-;-;-;-;-
1514189250233;-;-;8.228165;-0.9862213;-2.5144196;-;-;-;-;-;-;-;-;-;-;-;-;-;-;-
1514189250253;-;-;8.827911;-2.0684052;-1.7949677;-;-;-;-;-;-;-;-;-;-;-;-;-;-;-
1514189250274;-;-;8.796783;-2.9925537;-1.9218597;-;-;-;-;-;-;-;-;-;-;-;-;-;-;-
1514189250294;-;-;8.384979;-3.103897;-2.0080566;-;-;-;-;-;-;-;-;-;-;-;-;-;-;-
1514189250314;-;-;8.6651;-3.2236023;-1.9745331;-;-;-;-;-;-;-;-;-;-;-;-;-;-;-
1514189250334;-;-;9.299576;-3.313385;-1.7303314;-;-;-;-;-;-;-;-;-;-;-;-;-;-;-
1514189250355;-;-;10.904877;-3.1661377;-1.8057404;-;-;-;-;-;-;-;-;-;-;-;-;-;-;-
1514189250375;-;-;12.485062;-3.3433075;-2.282196;-;-;-;-;-;-;-;-;-;-;-;-;-;-;-
1514189250395;-;-;14.426758;-3.447464;-2.860382;-;-;-;-;-;-;-;-;-;-;-;-;-;-;-
1514189250416;-;-;14.518936;-3.6282196;-5.7681427;-;-;-;-;-;-;-;-;-;-;-;-;-;-;-
1514189250437;-;-;14.363312;-4.973755;-7.488373;-;-;-;-;-;-;-;-;-;-;-;-;-;-;-
1514189250456;-;-;14.917557;-5.2873993;-3.5487213;-;-;-;-;-;-;-;-;-;-;-;-;-;-;-
1514189250477;-;-;10.08606;-5.5950623;-4.290924;-;-;-;-;-;-;-;-;-;-;-;-;-;-;-
1514189250497;-;-;6.19429;-4.3225403;-5.795685;-;-;-;-;-;-;-;-;-;-;-;-;-;-;-
1514189250517;-;-;3.9341583;-2.3233795;-9.2217865;-;-;-;-;-;-;-;-;-;-;-;-;-;-;-
1514189250538;-;-;3.6289063;-0.29190063;-8.369446;-;-;-;-;-;-;-;-;-;-;-;-;-;-;-
1514189250558;-;-;5.6196747;0.40242004;-4.5961914;-;-;-;-;-;-;-;-;-;-;-;-;-;-;-
1514189250579;-;-;7.111267;-0.58639526;-3.310501;-;-;-;-;-;-;-;-;-;-;-;-;-;-;-
1514189250599;-;-;9.617996;-1.2651367;-4.2059326;-;-;-;-;-;-;-;-;-;-;-;-;-;-;-
1514189250619;-;-;10.594833;-1.5249176;-4.9409485;-;-;-;-;-;-;-;-;-;-;-;-;-;-;-
1514189250639;-;-;9.505478;-2.0336761;-5.5143585;-;-;-;-;-;-;-;-;-;-;-;-;-;-;-
1514189250659;-;-;8.377808;-1.8373566;-4.635681;-;-;-;-;-;-;-;-;-;-;-;-;-;-;-
1514189250679;-;-;6.5091248;-0.73483276;-3.5427399;-;-;-;-;-;-;-;-;-;-;-;-;-;-;-
1514189250700;-;-;4.3208313;0.4766388;-3.3236694;-;-;-;-;-;-;-;-;-;-;-;-;-;-;-
1514189250720;-;-;3.5546875;1.0356903;-2.7011719;-;-;-;-;-;-;-;-;-;-;-;-;-;-;-
1514189250741;-;-;4.391449;1.2044678;-2.271408;-;-;-;-;-;-;-;-;-;-;-;-;-;-;-
1514189250761;-;-;5.6771393;1.3493195;-2.1433258;-;-;-;-;-;-;-;-;-;-;-;-;-;-;-
1514189250781;-;-;6.807205;1.477417;-2.3911285;-;-;-;-;-;-;-;-;-;-;-;-;-;-;-
1514189250801;-;-;8.222183;1.4498749;-2.4390106;-;-;-;-;-;-;-;-;-;-;-;-;-;-;-
1514189250822;-;-;9.228943;0.4287567;-2.828064;-;-;-;-;-;-;-;-;-;-;-;-;-;-;-
1514189250842;-;-;10.702576;-0.98023987;-2.8017273;-;-;-;-;-;-;-;-;-;-;-;-;-;-;-
1514189250863;-;-;10.969528;-1.6230774;-3.353592;-;-;-;-;-;-;-;-;-;-;-;-;-;-;-
1514189250883;-;-;11.942764;-1.1059265;-3.1608582;-;-;-;-;-;-;-;-;-;-;-;-;-;-;-
1514189250903;-;-;11.540543;-0.6127167;-3.1345215;-;-;-;-;-;-;-;-;-;-;-;-;-;-;-
1514189250923;-;-;9.960373;-0.42118835;-5.377884;-;-;-;-;-;-;-;-;-;-;-;-;-;-;-
1514189250944;-;-;8.367035;0.89801025;-6.9640503;-;-;-;-;-;-;-;-;-;-;-;-;-;-;-
1514189250964;-;-;7.4344788;2.0149078;-5.2581787;-;-;-;-;-;-;-;-;-;-;-;-;-;-;-
1514189250984;-;-;8.412521;0.99139404;-4.4106293;-;-;-;-;-;-;-;-;-;-;-;-;-;-;-
1514189251005;-;-;8.203018;-0.8760834;-6.9257355;-;-;-;-;-;-;-;-;-;-;-;-;-;-;-
1514189251025;-;-;6.585739;-2.1605682;-8.204239;-;-;-;-;-;-;-;-;-;-;-;-;-;-;-
1514189251046;-;-;6.904175;-3.4259033;-7.907364;-;-;-;-;-;-;-;-;-;-;-;-;-;-;-
1514189251066;-;-;9.438431;-3.1685333;-5.1348724;-;-;-;-;-;-;-;-;-;-;-;-;-;-;-
1514189251086;-;-;9.931641;-1.5632172;-4.6440735;-;-;-;-;-;-;-;-;-;-;-;-;-;-;-
1514189251106;-;-;9.046982;0.635849;-3.5379486;-;-;-;-;-;-;-;-;-;-;-;-;-;-;-
1514189251127;-;-;7.1555634;0.64782715;-3.5307617;-;-;-;-;-;-;-;-;-;-;-;-;-;-;-
1514189251147;-;-;6.458847;-0.39964294;-3.7498322;-;-;-;-;-;-;-;-;-;-;-;-;-;-;-
1514189251167;-;-;5.256958;-1.6577911;-3.0519257;-;-;-;-;-;-;-;-;-;-;-;-;-;-;-
1514189251188;-;-;4.2753296;-2.5831451;-1.9912872;-;-;-;-;-;-;-;-;-;-;-;-;-;-;-
1514189251208;-;-;3.9078217;-3.0596008;-1.432251;-;-;-;-;-;-;-;-;-;-;-;-;-;-;-
1514189251228;-;-;4.4082184;-3.258316;-1.4466095;-;-;-;-;-;-;-;-;-;-;-;-;-;-;-
1514189251249;-;-;4.7098846;-3.3097992;-2.2414856;-;-;-;-;-;-;-;-;-;-;-;-;-;-;-
1514189251269;-;-;5.71904;-3.2439575;-2.9765015;-;-;-;-;-;-;-;-;-;-;-;-;-;-;-
1514189251289;-;-;7.6391907;-3.1050873;-2.9609375;-;-;-;-;-;-;-;-;-;-;-;-;-;-;-
1514189251310;-;-;9.556946;-2.6717377;-2.9274292;-;-;-;-;-;-;-;-;-;-;-;-;-;-;-
1514189251329;-;-;11.11557;-2.0983276;-3.3847198;-;-;-;-;-;-;-;-;-;-;-;-;-;-;-
1514189251349;-;-;11.975082;-2.4191437;-3.5463257;-;-;-;-;-;-;-;-;-;-;-;-;-;-;-
1514189251370;-;-;13.340988;-3.618637;-2.8460236;-;-;-;-;-;-;-;-;-;-;-;-;-;-;-
1514189251389;-;-;15.245575;-3.5097046;-3.528366;-;-;-;-;-;-;-;-;-;-;-;-;-;-;-
1514189251409;-;-;13.349365;-2.9243317;-5.7478027;-;-;-;-;-;-;-;-;-;-;-;-;-;-;-
1514189251430;-;-;10.051346;-3.5671692;-9.904129;-;-;-;-;-;-;-;-;-;-;-;-;-;-;-
1514189251449;-;-;9.639542;-4.2674713;-5.9572906;-;-;-;-;-;-;-;-;-;-;-;-;-;-;-
1514189251469;-;-;11.910446;-3.3061981;-1.1461334;-;-;-;-;-;-;-;-;-;-;-;-;-;-;-
1514189251489;-;-;9.748489;-1.1933136;-7.242981;-;-;-;-;-;-;-;-;-;-;-;-;-;-;-
1514189251510;-;-;5.406601;-0.6869507;-10.582886;-;-;-;-;-;-;-;-;-;-;-;-;-;-;-
1514189251530;-;-;6.770096;-0.76594543;-6.844345;-;-;-;-;-;-;-;-;-;-;-;-;-;-;-
1514189251550;-;-;8.76207;-2.1569824;-2.9142609;-;-;-;-;-;-;-;-;-;-;-;-;-;-;-
1514189251571;-;-;8.177887;-2.4993591;-0.9653778;-;-;-;-;-;-;-;-;-;-;-;-;-;-;-
1514189251591;-;-;6.853897;-1.8505249;-1.1772614;-;-;-;-;-;-;-;-;-;-;-;-;-;-;-
1514189251611;-;-;5.711853;-1.819397;-2.508438;-;-;-;-;-;-;-;-;-;-;-;-;-;-;-
1514189251632;-;-;5.4353333;-1.9642487;-3.9724884;-;-;-;-;-;-;-;-;-;-;-;-;-;-;-
1514189251652;-;-;4.308853;-1.2124786;-4.7230835;-;-;-;-;-;-;-;-;-;-;-;-;-;-;-
1514189251672;-;-;3.3775177;1.1422272;-3.4182434;-;-;-;-;-;-;-;-;-;-;-;-;-;-;-
1514189251693;-;-;3.0327454;2.6098785;-2.7705994;-;-;-;-;-;-;-;-;-;-;-;-;-;-;-
1514189251713;-;-;3.7797394;2.06279;-2.7310944;-;-;-;-;-;-;-;-;-;-;-;-;-;-;-
1514189251733;-;-;6.275696;0.6346588;-3.4529572;-;-;-;-;-;-;-;-;-;-;-;-;-;-;-
1514189251754;-;-;8.179077;0.072021484;-3.4709167;-;-;-;-;-;-;-;-;-;-;-;-;-;-;-
1514189251773;-;-;8.84227;0.46826172;-2.5096436;-;-;-;-;-;-;-;-;-;-;-;-;-;-;-
1514189251793;-;-;9.533005;0.53170776;-2.4390106;-;-;-;-;-;-;-;-;-;-;-;-;-;-;-
1514189251814;-;-;11.11557;0.26115417;-3.0507202;-;-;-;-;-;-;-;-;-;-;-;-;-;-;-
1514189251834;-;-;12.991425;0.103149414;-3.7079315;-;-;-;-;-;-;-;-;-;-;-;-;-;-;-
1514189251854;-;-;13.719269;-0.85453796;-3.0507202;-;-;-;-;-;-;-;-;-;-;-;-;-;-;-
1514189251874;-;-;12.300705;-1.1286774;-3.5235748;-;-;-;-;-;-;-;-;-;-;-;-;-;-;-
1514189251895;-;-;10.331467;0.1905365;-8.092911;-;-;-;-;-;-;-;-;-;-;-;-;-;-;-
1514189251914;-;-;10.105225;2.7619019;-7.987564;-;-;-;-;-;-;-;-;-;-;-;-;-;-;-
1514189251934;-;-;11.769196;3.094696;-3.9916534;-;-;-;-;-;-;-;-;-;-;-;-;-;-;-
1514189251955;-;-;9.577301;0.7435913;-6.6252747;-;-;-;-;-;-;-;-;-;-;-;-;-;-;-
1514189251974;-;-;7.4608154;-1.7894745;-7.8511047;-;-;-;-;-;-;-;-;-;-;-;-;-;-;-
1514189251994;-;-;5.2856903;-3.0631866;-7.252548;-;-;-;-;-;-;-;-;-;-;-;-;-;-;-
1514189252014;-;-;5.6424255;-3.5611877;-4.1029816;-;-;-;-;-;-;-;-;-;-;-;-;-;-;-
1514189252035;-;-;6.426529;-3.491745;-2.4019012;-;-;-;-;-;-;-;-;-;-;-;-;-;-;-
1514189252055;-;-;7.2477417;-2.2012787;-3.0303802;-;-;-;-;-;-;-;-;-;-;-;-;-;-;-
1514189252075;-;-;6.348709;-0.80784607;-3.3081055;-;-;-;-;-;-;-;-;-;-;-;-;-;-;-
1514189252096;-;-;6.513916;-1.1095276;-4.0012207;-;-;-;-;-;-;-;-;-;-;-;-;-;-;-
1514189252116;-;-;7.0574036;-1.5692139;-3.8156738;-;-;-;-;-;-;-;-;-;-;-;-;-;-;-
1514189252136;-;-;5.7932587;-1.8696747;-3.6600494;-;-;-;-;-;-;-;-;-;-;-;-;-;-;-
1514189252156;-;-;4.332794;-2.3760529;-3.0483398;-;-;-;-;-;-;-;-;-;-;-;-;-;-;-
1514189252177;-;-;3.7019196;-2.3904114;-2.0200195;-;-;-;-;-;-;-;-;-;-;-;-;-;-;-
1514189252197;-;-;4.3699036;-2.1294556;-1.550766;-;-;-;-;-;-;-;-;-;-;-;-;-;-;-
1514189252217;-;-;5.4676514;-2.3221893;-2.0307922;-;-;-;-;-;-;-;-;-;-;-;-;-;-;-
1514189252237;-;-;6.5749664;-2.9410858;-1.9613647;-;-;-;-;-;-;-;-;-;-;-;-;-;-;-
1514189252258;-;-;8.096481;-3.613861;-2.0547333;-;-;-;-;-;-;-;-;-;-;-;-;-;-;-
1514189252278;-;-;9.773621;-3.265503;-3.1177673;-;-;-;-;-;-;-;-;-;-;-;-;-;-;-
1514189252298;-;-;11.86496;-2.3509216;-3.3631744;-;-;-;-;-;-;-;-;-;-;-;-;-;-;-
1514189252319;-;-;13.844955;-2.4586487;-3.259018;-;-;-;-;-;-;-;-;-;-;-;-;-;-;-
1514189252340;-;-;15.097122;-3.0428314;-3.757019;-;-;-;-;-;-;-;-;-;-;-;-;-;-;-
1514189252359;-;-;15.456253;-3.447464;-4.1616364;-;-;-;-;-;-;-;-;-;-;-;-;-;-;-
1514189252379;-;-;12.717285;-2.9626312;-6.9065857;-;-;-;-;-;-;-;-;-;-;-;-;-;-;-
1514189252400;-;-;8.984726;-4.4649963;-11.791962;-;-;-;-;-;-;-;-;-;-;-;-;-;-;-
1514189252420;-;-;8.247314;-5.7554626;-6.973633;-;-;-;-;-;-;-;-;-;-;-;-;-;-;-
1514189252440;-;-;10.447586;-3.5133057;-1.5663147;-;-;-;-;-;-;-;-;-;-;-;-;-;-;-
1514189252460;-;-;9.210983;-2.064804;-6.9412994;-;-;-;-;-;-;-;-;-;-;-;-;-;-;-
1514189252481;-;-;7.044235;-0.996994;-9.859833;-;-;-;-;-;-;-;-;-;-;-;-;-;-;-
1514189252501;-;-;8.927277;0.45269775;-5.59816;-;-;-;-;-;-;-;-;-;-;-;-;-;-;-
1514189252521;-;-;8.367035;0.81781006;-3.0231934;-;-;-;-;-;-;-;-;-;-;-;-;-;-;-
1514189252542;-;-;5.9859924;0.6346588;-1.2766266;-;-;-;-;-;-;-;-;-;-;-;-;-;-;-
1514189252562;-;-;4.244217;0.098358154;-2.242691;-;-;-;-;-;-;-;-;-;-;-;-;-;-;-
1514189252582;-;-;4.5758057;-1.8804474;-2.934616;-;-;-;-;-;-;-;-;-;-;-;-;-;-;-
1514189252603;-;-;4.920578;-2.6190643;-3.9724884;-;-;-;-;-;-;-;-;-;-;-;-;-;-;-
1514189252623;-;-;5.198303;-1.5835724;-4.286133;-;-;-;-;-;-;-;-;-;-;-;-;-;-;-
1514189252643;-;-;4.8834686;0.74957275;-3.072281;-;-;-;-;-;-;-;-;-;-;-;-;-;-;-
1514189252663;-;-;4.5051727;2.572754;-2.8101044;-;-;-;-;-;-;-;-;-;-;-;-;-;-;-
1514189252683;-;-;5.4592743;2.04245;-3.20755;-;-;-;-;-;-;-;-;-;-;-;-;-;-;-
1514189252704;-;-;7.154358;0.7136688;-4.1436768;-;-;-;-;-;-;-;-;-;-;-;-;-;-;-
1514189252724;-;-;7.8151703;0.34016418;-4.255005;-;-;-;-;-;-;-;-;-;-;-;-;-;-;-
1514189252744;-;-;8.869812;0.5376892;-2.3623962;-;-;-;-;-;-;-;-;-;-;-;-;-;-;-
1514189252765;-;-;10.178238;0.38206482;-1.5830841;-;-;-;-;-;-;-;-;-;-;-;-;-;-;-
1514189252785;-;-;11.060501;0.31861877;-2.488083;-;-;-;-;-;-;-;-;-;-;-;-;-;-;-
1514189252805;-;-;13.321823;-0.076416016;-3.2602234;-;-;-;-;-;-;-;-;-;-;-;-;-;-;-
1514189252825;-;-;13.30986;0.35214233;-3.409851;-;-;-;-;-;-;-;-;-;-;-;-;-;-;-
1514189252846;-;-;11.732071;-0.22605896;-2.954956;-;-;-;-;-;-;-;-;-;-;-;-;-;-;-
1514189252866;-;-;9.6622925;0.14863586;-8.881805;-;-;-;-;-;-;-;-;-;-;-;-;-;-;-
1514189252886;-;-;7.818756;1.7527466;-8.64119;-;-;-;-;-;-;-;-;-;-;-;-;-;-;-
1514189252907;-;-;8.893753;0.72683716;-4.3519745;-;-;-;-;-;-;-;-;-;-;-;-;-;-;-
1514189252927;-;-;10.592438;-1.4710388;-5.8938446;-;-;-;-;-;-;-;-;-;-;-;-;-;-;-
1514189252947;-;-;7.3494873;-2.3892212;-8.103683;-;-;-;-;-;-;-;-;-;-;-;-;-;-;-
1514189252967;-;-;5.829178;-2.7902527;-6.0195313;-;-;-;-;-;-;-;-;-;-;-;-;-;-;-
1514189252988;-;-;6.1595764;-2.5376587;-3.2422638;-;-;-;-;-;-;-;-;-;-;-;-;-;-;-
1514189253008;-;-;6.8323517;-1.7930603;-2.7263184;-;-;-;-;-;-;-;-;-;-;-;-;-;-;-
1514189253028;-;-;7.28125;-0.18057251;-3.8072968;-;-;-;-;-;-;-;-;-;-;-;-;-;-;-
1514189253049;-;-;6.8191833;-0.16381836;-3.0148163;-;-;-;-;-;-;-;-;-;-;-;-;-;-;-
1514189253069;-;-;6.9161377;-0.9981842;-3.661255;-;-;-;-;-;-;-;-;-;-;-;-;-;-;-
1514189253089;-;-;5.789673;-1.8409424;-3.3943024;-;-;-;-;-;-;-;-;-;-;-;-;-;-;-
1514189253110;-;-;4.2154846;-2.5364685;-3.176422;-;-;-;-;-;-;-;-;-;-;-;-;-;-;-
1514189253130;-;-;3.754593;-2.8716583;-2.6664581;-;-;-;-;-;-;-;-;-;-;-;-;-;-;-
1514189253150;-;-;4.2106934;-2.7100372;-2.3384552;-;-;-;-;-;-;-;-;-;-;-;-;-;-;-
1514189253171;-;-;5.4485016;-2.28508;-2.5694885;-;-;-;-;-;-;-;-;-;-;-;-;-;-;-
1514189253191;-;-;7.0131073;-2.186905;-2.551529;-;-;-;-;-;-;-;-;-;-;-;-;-;-;-
1514189253211;-;-;7.6176453;-2.1641693;-2.7466583;-;-;-;-;-;-;-;-;-;-;-;-;-;-;-
1514189253231;-;-;7.9384613;-2.1713562;-3.3511963;-;-;-;-;-;-;-;-;-;-;-;-;-;-;-
1514189253252;-;-;9.246902;-2.0743866;-3.183609;-;-;-;-;-;-;-;-;-;-;-;-;-;-;-
1514189253272;-;-;13.154236;-1.3597107;-1.550766;-;-;-;-;-;-;-;-;-;-;-;-;-;-;-
1514189253292;-;-;12.227676;-3.2092285;-2.855606;-;-;-;-;-;-;-;-;-;-;-;-;-;-;-
1514189253313;-;-;11.315491;-5.597458;-3.9042664;-;-;-;-;-;-;-;-;-;-;-;-;-;-;-
1514189253333;-;-;11.849396;-5.356842;-4.7793427;-;-;-;-;-;-;-;-;-;-;-;-;-;-;-
1514189253353;-;-;11.364563;-5.004883;-8.8111725;-;-;-;-;-;-;-;-;-;-;-;-;-;-;-
1514189253374;-;-;13.600754;-4.5607605;-8.327545;-;-;-;-;-;-;-;-;-;-;-;-;-;-;-
1514189253394;-;-;14.80983;-2.6860962;-1.7614441;-;-;-;-;-;-;-;-;-;-;-;-;-;-;-
1514189253414;-;-;10.555328;-2.5077362;-7.1855164;-;-;-;-;-;-;-;-;-;-;-;-;-;-;-
1514189253434;-;-;5.715454;-1.5021667;-8.758499;-;-;-;-;-;-;-;-;-;-;-;-;-;-;-
1514189253455;-;-;5.549057;0.30426025;-6.8982086;-;-;-;-;-;-;-;-;-;-;-;-;-;-;-
1514189253475;-;-;6.252945;0.7435913;-5.406616;-;-;-;-;-;-;-;-;-;-;-;-;-;-;-
1514189253496;-;-;6.7102356;-0.9562988;-3.8575745;-;-;-;-;-;-;-;-;-;-;-;-;-;-;-
1514189253515;-;-;7.5470123;-2.4371033;-3.1788177;-;-;-;-;-;-;-;-;-;-;-;-;-;-;-
1514189253535;-;-;7.99234;-2.7890472;-2.069107;-;-;-;-;-;-;-;-;-;-;-;-;-;-;-
1514189253555;-;-;7.8798065;-2.479004;-2.7394867;-;-;-;-;-;-;-;-;-;-;-;-;-;-;-
1514189253576;-;-;7.178299;-1.5045624;-3.6983643;-;-;-;-;-;-;-;-;-;-;-;-;-;-;-
1514189253596;-;-;5.04747;0.40481567;-4.393875;-;-;-;-;-;-;-;-;-;-;-;-;-;-;-
1514189253616;-;-;3.9700775;1.813797;-4.3244476;-;-;-;-;-;-;-;-;-;-;-;-;-;-;-
1514189253637;-;-;3.5355225;2.22081;-3.970108;-;-;-;-;-;-;-;-;-;-;-;-;-;-;-
1514189253656;-;-;4.508774;1.1266632;-3.7127228;-;-;-;-;-;-;-;-;-;-;-;-;-;-;-
1514189253676;-;-;6.236191;-0.45948792;-3.7163086;-;-;-;-;-;-;-;-;-;-;-;-;-;-;-
1514189253697;-;-;7.1411896;-0.9934082;-3.9497528;-;-;-;-;-;-;-;-;-;-;-;-;-;-;-
1514189253716;-;-;6.9747925;0.08758545;-3.3823242;-;-;-;-;-;-;-;-;-;-;-;-;-;-;-
1514189253736;-;-;7.9276886;1.4846039;-3.1428986;-;-;-;-;-;-;-;-;-;-;-;-;-;-;-
1514189253757;-;-;9.154724;1.916748;-3.0794525;-;-;-;-;-;-;-;-;-;-;-;-;-;-;-
1514189253777;-;-;10.089661;1.4163666;-3.1871948;-;-;-;-;-;-;-;-;-;-;-;-;-;-;-
1514189253797;-;-;11.839813;0.17137146;-3.136917;-;-;-;-;-;-;-;-;-;-;-;-;-;-;-
1514189253817;-;-;12.426392;0.18574524;-3.9952393;-;-;-;-;-;-;-;-;-;-;-;-;-;-;-
1514189253837;-;-;10.865372;0.8309784;-3.6971588;-;-;-;-;-;-;-;-;-;-;-;-;-;-;-
1514189253858;-;-;9.485123;0.19172668;-8.484375;-;-;-;-;-;-;-;-;-;-;-;-;-;-;-
1514189253878;-;-;9.444412;2.5559998;-8.496338;-;-;-;-;-;-;-;-;-;-;-;-;-;-;-
1514189253898;-;-;10.276398;3.7339478;-5.295288;-;-;-;-;-;-;-;-;-;-;-;-;-;-;-
1514189253919;-;-;10.483505;1.9993439;-7.5147095;-;-;-;-;-;-;-;-;-;-;-;-;-;-;-
1514189253939;-;-;9.341461;0.37249756;-9.118835;-;-;-;-;-;-;-;-;-;-;-;-;-;-;-
1514189253959;-;-;5.624466;-0.93115234;-8.747726;-;-;-;-;-;-;-;-;-;-;-;-;-;-;-
1514189253980;-;-;7.3937836;-3.902359;-4.6847687;-;-;-;-;-;-;-;-;-;-;-;-;-;-;-
1514189254000;-;-;7.8558655;-3.8173676;-2.0343933;-;-;-;-;-;-;-;-;-;-;-;-;-;-;-
1514189254020;-;-;7.973175;-1.2950745;-2.8376465;-;-;-;-;-;-;-;-;-;-;-;-;-;-;-
1514189254040;-;-;6.4049835;0.18814087;-2.8651733;-;-;-;-;-;-;-;-;-;-;-;-;-;-;-
1514189254061;-;-;4.726639;0.44551086;-3.78096;-;-;-;-;-;-;-;-;-;-;-;-;-;-;-
1514189254081;-;-;3.830017;-0.21887207;-3.9234161;-;-;-;-;-;-;-;-;-;-;-;-;-;-;-
1514189254101;-;-;2.7011566;-1.186142;-3.025589;-;-;-;-;-;-;-;-;-;-;-;-;-;-;-
1514189254122;-;-;2.0810547;-2.2946472;-2.5646973;-;-;-;-;-;-;-;-;-;-;-;-;-;-;-
1514189254142;-;-;4.347168;-3.8101807;-2.3935242;-;-;-;-;-;-;-;-;-;-;-;-;-;-;-
1514189254162;-;-;5.624466;-3.7263794;-3.0291748;-;-;-;-;-;-;-;-;-;-;-;-;-;-;-
1514189254183;-;-;6.7485504;-3.1386108;-3.2973328;-;-;-;-;-;-;-;-;-;-;-;-;-;-;-
1514189254203;-;-;7.466812;-2.6908875;-3.176422;-;-;-;-;-;-;-;-;-;-;-;-;-;-;-
1514189254223;-;-;7.2321777;-2.1186829;-2.8544006;-;-;-;-;-;-;-;-;-;-;-;-;-;-;-
1514189254244;-;-;6.7724915;-2.0157318;-2.286972;-;-;-;-;-;-;-;-;-;-;-;-;-;-;-
1514189254264;-;-;6.715027;-1.7188416;-2.4940796;-;-;-;-;-;-;-;-;-;-;-;-;-;-;-
1514189254284;-;-;6.862274;-3.0177002;-2.9022827;-;-;-;-;-;-;-;-;-;-;-;-;-;-;-
1514189254305;-;-;10.880936;-4.0747375;-2.1744537;-;-;-;-;-;-;-;-;-;-;-;-;-;-;-
1514189254325;-;-;12.507797;-3.759903;-3.527176;-;-;-;-;-;-;-;-;-;-;-;-;-;-;-
1514189254346;-;-;13.578003;-2.930313;-4.5327454;-;-;-;-;-;-;-;-;-;-;-;-;-;-;-
1514189254366;-;-;14.518936;-2.8333435;-4.0790405;-;-;-;-;-;-;-;-;-;-;-;-;-;-;-
1514189254386;-;-;15.298248;-1.8014526;-4.175995;-;-;-;-;-;-;-;-;-;-;-;-;-;-;-
1514189254406;-;-;12.637085;-1.2280273;-5.7118835;-;-;-;-;-;-;-;-;-;-;-;-;-;-;-
1514189254427;-;-;7.7265778;-3.3660583;-13.4283905;-;-;-;-;-;-;-;-;-;-;-;-;-;-;-
1514189254447;-;-;8.560959;-5.214386;4.045685;-;-;-;-;-;-;-;-;-;-;-;-;-;-;-
1514189254467;-;-;7.8235474;-3.752716;-4.203537;-;-;-;-;-;-;-;-;-;-;-;-;-;-;-
1514189254487;-;-;8.323929;-4.3428955;-9.820328;-;-;-;-;-;-;-;-;-;-;-;-;-;-;-
1514189254508;-;-;7.7601013;-2.313797;-10.453598;-;-;-;-;-;-;-;-;-;-;-;-;-;-;-
1514189254528;-;-;8.674683;-0.23564148;-9.090103;-;-;-;-;-;-;-;-;-;-;-;-;-;-;-
1514189254548;-;-;8.945221;-0.42477417;-6.5498505;-;-;-;-;-;-;-;-;-;-;-;-;-;-;-
1514189254569;-;-;7.870224;-1.7787018;-4.278946;-;-;-;-;-;-;-;-;-;-;-;-;-;-;-
1514189254590;-;-;7.554199;-2.1952972;-4.1352997;-;-;-;-;-;-;-;-;-;-;-;-;-;-;-
1514189254610;-;-;8.134796;-1.5392761;-2.9896698;-;-;-;-;-;-;-;-;-;-;-;-;-;-;-
1514189254630;-;-;6.541443;-0.46069336;-5.350357;-;-;-;-;-;-;-;-;-;-;-;-;-;-;-
1514189254650;-;-;5.2629395;0.6071167;-5.6125183;-;-;-;-;-;-;-;-;-;-;-;-;-;-;-
1514189254671;-;-;4.469269;1.6019135;-4.745819;-;-;-;-;-;-;-;-;-;-;-;-;-;-;-
1514189254691;-;-;4.220276;2.3105927;-4.7625885;-;-;-;-;-;-;-;-;-;-;-;-;-;-;-
1514189254711;-;-;4.735016;2.0759583;-4.733856;-;-;-;-;-;-;-;-;-;-;-;-;-;-;-
1514189254732;-;-;5.4963837;1.2966461;-4.978058;-;-;-;-;-;-;-;-;-;-;-;-;-;-;-
1514189254751;-;-;6.473221;0.9195709;-4.9002533;-;-;-;-;-;-;-;-;-;-;-;-;-;-;-
1514189254771;-;-;6.9305115;0.1797638;-4.4908447;-;-;-;-;-;-;-;-;-;-;-;-;-;-;-
1514189254791;-;-;6.249359;-0.55526733;-3.5343628;-;-;-;-;-;-;-;-;-;-;-;-;-;-;-
1514189254812;-;-;5.5382843;-0.783905;-2.728714;-;-;-;-;-;-;-;-;-;-;-;-;-;-;-
1514189254832;-;-;5.1994934;-0.6151123;-2.0858612;-;-;-;-;-;-;-;-;-;-;-;-;-;-;-
1514189254853;-;-;5.300049;-0.05128479;-1.9218597;-;-;-;-;-;-;-;-;-;-;-;-;-;-;-
1514189254872;-;-;5.7776947;0.5089569;-1.6992035;-;-;-;-;-;-;-;-;-;-;-;-;-;-;-
1514189254893;-;-;6.2948456;1.0739899;-1.7267303;-;-;-;-;-;-;-;-;-;-;-;-;-;-;-
1514189254912;-;-;7.2190094;1.1075134;-1.871582;-;-;-;-;-;-;-;-;-;-;-;-;-;-;-
1514189254932;-;-;8.893753;0.74838257;-1.9494019;-;-;-;-;-;-;-;-;-;-;-;-;-;-;-
1514189254953;-;-;10.215347;0.6921234;-1.6058197;-;-;-;-;-;-;-;-;-;-;-;-;-;-;-
1514189254972;-;-;9.87059;0.7340088;-1.6201935;-;-;-;-;-;-;-;-;-;-;-;-;-;-;-
1514189254992;-;-;8.428085;-0.14465332;-0.8959503;-;-;-;-;-;-;-;-;-;-;-;-;-;-;-
1514189255013;-;-;8.861435;-2.0001678;0.30593872;-;-;-;-;-;-;-;-;-;-;-;-;-;-;-
1514189255033;-;-;11.016205;-3.6629333;-0.6337738;-;-;-;-;-;-;-;-;-;-;-;-;-;-;-
1514189255053;-;-;12.716095;-1.427948;-9.348679;-;-;-;-;-;-;-;-;-;-;-;-;-;-;-
1514189255073;-;-;11.378937;2.7331696;-7.749344;-;-;-;-;-;-;-;-;-;-;-;-;-;-;-
1514189255094;-;-;9.823898;4.9705505;-4.2167053;-;-;-;-;-;-;-;-;-;-;-;-;-;-;-
1514189255115;-;-;7.6511536;2.6493835;-7.7361755;-;-;-;-;-;-;-;-;-;-;-;-;-;-;-
1514189255134;-;-;8.225769;-1.6529999;-9.476761;-;-;-;-;-;-;-;-;-;-;-;-;-;-;-
1514189255155;-;-;10.411682;-3.2702942;-7.7206116;-;-;-;-;-;-;-;-;-;-;-;-;-;-;-
1514189255175;-;-;10.313507;-0.93473816;-4.4154205;-;-;-;-;-;-;-;-;-;-;-;-;-;-;-
1514189255195;-;-;10.709747;0.9973755;-4.6057587;-;-;-;-;-;-;-;-;-;-;-;-;-;-;-
1514189255216;-;-;11.016205;1.4211578;-5.69751;-;-;-;-;-;-;-;-;-;-;-;-;-;-;-
1514189255235;-;-;9.584473;0.7435913;-6.076996;-;-;-;-;-;-;-;-;-;-;-;-;-;-;-
1514189255255;-;-;5.6783447;-0.5708313;-5.302475;-;-;-;-;-;-;-;-;-;-;-;-;-;-;-
1514189255275;-;-;3.2625885;-2.6238556;-4.053894;-;-;-;-;-;-;-;-;-;-;-;-;-;-;-
1514189255296;-;-;2.4258118;-4.2207794;-3.5726624;-;-;-;-;-;-;-;-;-;-;-;-;-;-;-
1514189255316;-;-;3.6121368;-5.246704;-3.1692352;-;-;-;-;-;-;-;-;-;-;-;-;-;-;-
1514189255336;-;-;7.0214844;-5.791382;-3.0363617;-;-;-;-;-;-;-;-;-;-;-;-;-;-;-
1514189255357;-;-;8.497513;-4.6876526;-1.8751678;-;-;-;-;-;-;-;-;-;-;-;-;-;-;-
1514189255377;-;-;7.1316223;-3.3804169;-2.1816254;-;-;-;-;-;-;-;-;-;-;-;-;-;-;-
1514189255397;-;-;7.221405;-3.1517792;-1.6477203;-;-;-;-;-;-;-;-;-;-;-;-;-;-;-
1514189255417;-;-;7.67511;-2.4742126;-1.1509247;-;-;-;-;-;-;-;-;-;-;-;-;-;-;-
1514189255438;-;-;8.699814;-1.759552;-1.0204468;-;-;-;-;-;-;-;-;-;-;-;-;-;-;-
1514189255458;-;-;9.606033;-1.7152557;-0.68644714;-;-;-;-;-;-;-;-;-;-;-;-;-;-;-
1514189255478;-;-;10.426041;-2.3592987;-0.6804657;-;-;-;-;-;-;-;-;-;-;-;-;-;-;-
1514189255499;-;-;11.261612;-3.7156067;-1.8141174;-;-;-;-;-;-;-;-;-;-;-;-;-;-;-
1514189255518;-;-;11.483078;-4.4973145;-2.768219;-;-;-;-;-;-;-;-;-;-;-;-;-;-;-
1514189255538;-;-;10.495468;-4.5140686;-2.4390106;-;-;-;-;-;-;-;-;-;-;-;-;-;-;-
1514189255559;-;-;9.597641;-3.6473694;-1.2239532;-;-;-;-;-;-;-;-;-;-;-;-;-;-;-
1514189255578;-;-;11.025787;-2.5639954;-3.9138336;-;-;-;-;-;-;-;-;-;-;-;-;-;-;-
1514189255598;-;-;11.971497;0.8776703;-9.991516;-;-;-;-;-;-;-;-;-;-;-;-;-;-;-
1514189255619;-;-;10.241684;4.7718353;-9.397751;-;-;-;-;-;-;-;-;-;-;-;-;-;-;-
1514189255639;-;-;7.34111;4.8269043;-2.4150696;-;-;-;-;-;-;-;-;-;-;-;-;-;-;-
1514189255659;-;-;6.88501;1.319397;-6.540283;-;-;-;-;-;-;-;-;-;-;-;-;-;-;-
1514189255679;-;-;6.9544525;-1.7475739;-7.5542145;-;-;-;-;-;-;-;-;-;-;-;-;-;-;-
1514189255700;-;-;9.220566;-3.6952515;-5.2486115;-;-;-;-;-;-;-;-;-;-;-;-;-;-;-
1514189255720;-;-;10.945587;-3.225998;-4.11615;-;-;-;-;-;-;-;-;-;-;-;-;-;-;-
1514189255740;-;-;10.02861;-0.20451355;-4.2933197;-;-;-;-;-;-;-;-;-;-;-;-;-;-;-
1514189255761;-;-;9.228943;2.3896027;-4.006012;-;-;-;-;-;-;-;-;-;-;-;-;-;-;-
1514189255781;-;-;8.6423645;2.6781006;-3.247055;-;-;-;-;-;-;-;-;-;-;-;-;-;-;-
1514189255801;-;-;8.156342;1.2787018;-2.8927155;-;-;-;-;-;-;-;-;-;-;-;-;-;-;-
1514189255821;-;-;6.588135;-0.06324768;-1.9924927;-;-;-;-;-;-;-;-;-;-;-;-;-;-;-
1514189255842;-;-;5.5442657;-0.6402588;-0.9258728;-;-;-;-;-;-;-;-;-;-;-;-;-;-;-
1514189255862;-;-;6.094925;-0.8018646;-0.64575195;-;-;-;-;-;-;-;-;-;-;-;-;-;-;-
1514189255882;-;-;7.3339233;-0.38526917;-0.9953003;-;-;-;-;-;-;-;-;-;-;-;-;-;-;-
1514189255903;-;-;7.7912292;-0.24641418;-1.3472595;-;-;-;-;-;-;-;-;-;-;-;-;-;-;-
1514189255923;-;-;6.975998;0.12588501;-0.7810211;-;-;-;-;-;-;-;-;-;-;-;-;-;-;-
1514189255943;-;-;7.5434265;1.3265839;0.0030822754;-;-;-;-;-;-;-;-;-;-;-;-;-;-;-
1514189255964;-;-;8.806366;2.232788;-0.52005005;-;-;-;-;-;-;-;-;-;-;-;-;-;-;-
1514189255984;-;-;9.499481;2.4362946;-1.0575562;-;-;-;-;-;-;-;-;-;-;-;-;-;-;-
1514189256004;-;-;11.3741455;1.0428619;-0.32014465;-;-;-;-;-;-;-;-;-;-;-;-;-;-;-
1514189256025;-;-;12.9435425;-0.19493103;-0.23753357;-;-;-;-;-;-;-;-;-;-;-;-;-;-;-
1514189256045;-;-;13.912003;0.12709045;-2.8627777;-;-;-;-;-;-;-;-;-;-;-;-;-;-;-
1514189256065;-;-;16.085938;2.71521;-7.14122;-;-;-;-;-;-;-;-;-;-;-;-;-;-;-
1514189256086;-;-;17.394363;6.4022827;-2.7837677;-;-;-;-;-;-;-;-;-;-;-;-;-;-;-
1514189256106;-;-;11.78714;6.4765015;-6.2014923;-;-;-;-;-;-;-;-;-;-;-;-;-;-;-
1514189256126;-;-;8.082123;4.430664;-7.994751;-;-;-;-;-;-;-;-;-;-;-;-;-;-;-
1514189256147;-;-;5.593338;2.0759583;-9.086517;-;-;-;-;-;-;-;-;-;-;-;-;-;-;-
1514189256167;-;-;5.4832153;-0.35653687;-9.128403;-;-;-;-;-;-;-;-;-;-;-;-;-;-;-
1514189256187;-;-;8.222183;-2.4023895;-7.3926086;-;-;-;-;-;-;-;-;-;-;-;-;-;-;-
1514189256208;-;-;10.673843;-2.7292023;-5.9058075;-;-;-;-;-;-;-;-;-;-;-;-;-;-;-
1514189256227;-;-;10.375763;-1.2675323;-5.2521973;-;-;-;-;-;-;-;-;-;-;-;-;-;-;-
1514189256247;-;-;8.499908;-0.03453064;-4.9217987;-;-;-;-;-;-;-;-;-;-;-;-;-;-;-
1514189256268;-;-;7.5948944;0.21447754;-3.9401703;-;-;-;-;-;-;-;-;-;-;-;-;-;-;-
1514189256287;-;-;6.3175964;-0.16261292;-2.7538452;-;-;-;-;-;-;-;-;-;-;-;-;-;-;-
1514189256307;-;-;4.9109955;-0.7515869;-2.3216858;-;-;-;-;-;-;-;-;-;-;-;-;-;-;-
1514189256328;-;-;3.4684906;-1.5763855;-2.2295227;-;-;-;-;-;-;-;-;-;-;-;-;-;-;-
1514189256348;-;-;2.8328247;-2.435913;-2.5287933;-;-;-;-;-;-;-;-;-;-;-;-;-;-;-
1514189256368;-;-;3.4529266;-2.9291077;-3.056717;-;-;-;-;-;-;-;-;-;-;-;-;-;-;-
1514189256389;-;-;5.312027;-2.3616943;-2.5898438;-;-;-;-;-;-;-;-;-;-;-;-;-;-;-
1514189256409;-;-;6.70665;-1.5189362;-1.887146;-;-;-;-;-;-;-;-;-;-;-;-;-;-;-
1514189256429;-;-;7.478775;-1.0448761;-1.8488312;-;-;-;-;-;-;-;-;-;-;-;-;-;-;-
1514189256450;-;-;8.224579;-1.6087189;-2.136139;-;-;-;-;-;-;-;-;-;-;-;-;-;-;-
1514189256470;-;-;8.7213745;-2.9123535;-1.9338379;-;-;-;-;-;-;-;-;-;-;-;-;-;-;-
1514189256490;-;-;9.993881;-3.471405;-1.7303314;-;-;-;-;-;-;-;-;-;-;-;-;-;-;-
1514189256510;-;-;12.060089;-3.3085938;-3.5463257;-;-;-;-;-;-;-;-;-;-;-;-;-;-;-
1514189256530;-;-;13.281128;-2.6358185;-4.1939545;-;-;-;-;-;-;-;-;-;-;-;-;-;-;-
1514189256551;-;-;12.565262;-2.550827;-5.0127716;-;-;-;-;-;-;-;-;-;-;-;-;-;-;-
1514189256570;-;-;12.063675;-2.7615204;-7.3004303;-;-;-;-;-;-;-;-;-;-;-;-;-;-;-
1514189256590;-;-;12.462311;-3.9274902;-9.322342;-;-;-;-;-;-;-;-;-;-;-;-;-;-;-
1514189256611;-;-;12.89566;-2.8680573;-6.361908;-;-;-;-;-;-;-;-;-;-;-;-;-;-;-
1514189256630;-;-;11.105988;-1.4722443;-5.8423615;-;-;-;-;-;-;-;-;-;-;-;-;-;-;-
1514189256650;-;-;7.5230713;-0.9072113;-7.050247;-;-;-;-;-;-;-;-;-;-;-;-;-;-;-
1514189256671;-;-;6.4241333;-0.45948792;-7.3794403;-;-;-;-;-;-;-;-;-;-;-;-;-;-;-
1514189256691;-;-;7.549408;-0.37091064;-5.2845154;-;-;-;-;-;-;-;-;-;-;-;-;-;-;-
1514189256711;-;-;7.493149;-1.1370544;-3.7031403;-;-;-;-;-;-;-;-;-;-;-;-;-;-;-
1514189256731;-;-;6.6384125;-1.8756714;-1.4669647;-;-;-;-;-;-;-;-;-;-;-;-;-;-;-
1514189256752;-;-;6.1990814;-2.0229034;-1.0084686;-;-;-;-;-;-;-;-;-;-;-;-;-;-;-
1514189256772;-;-;5.837555;-1.8840485;-2.1864166;-;-;-;-;-;-;-;-;-;-;-;-;-;-;-
1514189256792;-;-;5.6496124;-1.0640259;-2.9729156;-;-;-;-;-;-;-;-;-;-;-;-;-;-;-
1514189256812;-;-;4.932541;0.24320984;-3.528366;-;-;-;-;-;-;-;-;-;-;-;-;-;-;-
1514189256833;-;-;4.324417;1.8963928;-3.5487213;-;-;-;-;-;-;-;-;-;-;-;-;-;-;-
1514189256853;-;-;4.537506;3.1868744;-2.8699646;-;-;-;-;-;-;-;-;-;-;-;-;-;-;-
1514189256873;-;-;5.0127563;2.6745148;-3.0267792;-;-;-;-;-;-;-;-;-;-;-;-;-;-;-
1514189256893;-;-;6.3343506;0.5987396;-3.6804047;-;-;-;-;-;-;-;-;-;-;-;-;-;-;-
1514189256914;-;-;7.257309;0.024139404;-3.4122467;-;-;-;-;-;-;-;-;-;-;-;-;-;-;-
1514189256933;-;-;8.958389;0.84295654;-2.2331085;-;-;-;-;-;-;-;-;-;-;-;-;-;-;-
1514189256953;-;-;9.6467285;2.3752441;-2.179245;-;-;-;-;-;-;-;-;-;-;-;-;-;-;-
1514189256974;-;-;10.8797455;2.1394043;-1.550766;-;-;-;-;-;-;-;-;-;-;-;-;-;-;-
1514189256994;-;-;10.758835;0.8896332;-2.2929688;-;-;-;-;-;-;-;-;-;-;-;-;-;-;-
1514189257014;-;-;12.060089;0.96984863;-2.5252075;-;-;-;-;-;-;-;-;-;-;-;-;-;-;-
1514189257034;-;-;12.8358;1.3170013;-2.1924133;-;-;-;-;-;-;-;-;-;-;-;-;-;-;-
1514189257054;-;-;11.818268;1.5995178;-1.195221;-;-;-;-;-;-;-;-;-;-;-;-;-;-;-
1514189257074;-;-;10.142334;1.671341;-2.9920654;-;-;-;-;-;-;-;-;-;-;-;-;-;-;-
1514189257095;-;-;8.954803;1.5695953;-9.53064;-;-;-;-;-;-;-;-;-;-;-;-;-;-;-
1514189257114;-;-;10.764816;2.5955048;-5.927368;-;-;-;-;-;-;-;-;-;-;-;-;-;-;-
1514189257135;-;-;8.661514;2.9630127;-8.503525;-;-;-;-;-;-;-;-;-;-;-;-;-;-;-
1514189257155;-;-;8.964386;1.7252197;-7.4393005;-;-;-;-;-;-;-;-;-;-;-;-;-;-;-
1514189257175;-;-;5.1432343;-0.14346313;-6.855118;-;-;-;-;-;-;-;-;-;-;-;-;-;-;-
1514189257195;-;-;4.453705;-3.100296;-6.758148;-;-;-;-;-;-;-;-;-;-;-;-;-;-;-
1514189257215;-;-;5.201889;-4.6074524;-4.27417;-;-;-;-;-;-;-;-;-;-;-;-;-;-;-
1514189257236;-;-;7.3315277;-2.8608856;-2.6712494;-;-;-;-;-;-;-;-;-;-;-;-;-;-;-
1514189257256;-;-;8.344284;0.79745483;-3.899475;-;-;-;-;-;-;-;-;-;-;-;-;-;-;-
1514189257276;-;-;7.7960052;2.0807495;-2.4078827;-;-;-;-;-;-;-;-;-;-;-;-;-;-;-
1514189257296;-;-;7.380615;0.4981842;-2.7514496;-;-;-;-;-;-;-;-;-;-;-;-;-;-;-
1514189257317;-;-;5.838745;-1.5955505;-2.6664581;-;-;-;-;-;-;-;-;-;-;-;-;-;-;-
1514189257337;-;-;4.4417267;-3.6725159;-2.3085175;-;-;-;-;-;-;-;-;-;-;-;-;-;-;-
1514189257357;-;-;5.276108;-3.9705963;-1.9613647;-;-;-;-;-;-;-;-;-;-;-;-;-;-;-
1514189257377;-;-;7.008316;-3.060791;-1.8177185;-;-;-;-;-;-;-;-;-;-;-;-;-;-;-
1514189257397;-;-;7.4656067;-2.0217133;-2.9561615;-;-;-;-;-;-;-;-;-;-;-;-;-;-;-
1514189257418;-;-;8.707001;-2.0133362;-5.009186;-;-;-;-;-;-;-;-;-;-;-;-;-;-;-
1514189257438;-;-;9.816711;-3.4893646;-5.4784546;-;-;-;-;-;-;-;-;-;-;-;-;-;-;-
1514189257458;-;-;10.132751;-4.0747375;-5.9357452;-;-;-;-;-;-;-;-;-;-;-;-;-;-;-
1514189257479;-;-;10.643906;-2.677719;-5.0834045;-;-;-;-;-;-;-;-;-;-;-;-;-;-;-
1514189257499;-;-;11.568069;-2.7830658;-4.9014435;-;-;-;-;-;-;-;-;-;-;-;-;-;-;-
1514189257519;-;-;13.421188;-2.293457;-5.2486115;-;-;-;-;-;-;-;-;-;-;-;-;-;-;-
1514189257540;-;-;14.172974;-0.6713867;-5.3515625;-;-;-;-;-;-;-;-;-;-;-;-;-;-;-
1514189257560;-;-;10.68103;-0.7623596;-10.631973;-;-;-;-;-;-;-;-;-;-;-;-;-;-;-
1514189257580;-;-;7.672714;-2.8728485;-11.544159;-;-;-;-;-;-;-;-;-;-;-;-;-;-;-
1514189257601;-;-;5.7333984;-3.977768;-3.393097;-;-;-;-;-;-;-;-;-;-;-;-;-;-;-
1514189257620;-;-;8.07254;-2.8237762;-1.9841156;-;-;-;-;-;-;-;-;-;-;-;-;-;-;-
1514189257640;-;-;8.825516;-1.585968;-7.436905;-;-;-;-;-;-;-;-;-;-;-;-;-;-;-
1514189257661;-;-;7.732559;-1.0891724;-9.31636;-;-;-;-;-;-;-;-;-;-;-;-;-;-;-
1514189257681;-;-;9.184647;-0.26437378;-4.11734;-;-;-;-;-;-;-;-;-;-;-;-;-;-;-
1514189257701;-;-;6.880234;-0.33021545;-2.0307922;-;-;-;-;-;-;-;-;-;-;-;-;-;-;-
1514189257721;-;-;4.620102;-0.03691101;-2.5012512;-;-;-;-;-;-;-;-;-;-;-;-;-;-;-
1514189257742;-;-;3.3691254;0.46466064;-3.6492767;-;-;-;-;-;-;-;-;-;-;-;-;-;-;-
1514189257762;-;-;3.2817383;0.12348938;-4.499222;-;-;-;-;-;-;-;-;-;-;-;-;-;-;-
1514189257783;-;-;4.621292;0.040893555;-5.069046;-;-;-;-;-;-;-;-;-;-;-;-;-;-;-
1514189257803;-;-;5.0773926;0.7950592;-4.1460724;-;-;-;-;-;-;-;-;-;-;-;-;-;-;-
1514189257823;-;-;5.1731567;1.2619324;-3.8444061;-;-;-;-;-;-;-;-;-;-;-;-;-;-;-
1514189257843;-;-;5.2437897;1.4846039;-3.9760895;-;-;-;-;-;-;-;-;-;-;-;-;-;-;-
1514189257864;-;-;5.569397;1.2751007;-3.7737732;-;-;-;-;-;-;-;-;-;-;-;-;-;-;-
1514189257887;-;-;6.3858185;1.3217926;-3.867157;-;-;-;-;-;-;-;-;-;-;-;-;-;-;-
1514189257904;-;-;7.67749;1.6186676;-3.6408997;-;-;-;-;-;-;-;-;-;-;-;-;-;-;-
1514189257925;-;-;9.096069;1.209259;-3.2757874;-;-;-;-;-;-;-;-;-;-;-;-;-;-;-
1514189257945;-;-;10.1961975;0.259964;-3.270996;-;-;-;-;-;-;-;-;-;-;-;-;-;-;-
1514189257965;-;-;10.902481;0.7830963;-3.389511;-;-;-;-;-;-;-;-;-;-;-;-;-;-;-
1514189257986;-;-;12.372528;1.7623291;-3.62294;-;-;-;-;-;-;-;-;-;-;-;-;-;-;-
1514189258006;-;-;11.835022;1.1350403;-3.8396149;-;-;-;-;-;-;-;-;-;-;-;-;-;-;-
1514189258026;-;-;10.7456665;-0.5205536;-6.0566406;-;-;-;-;-;-;-;-;-;-;-;-;-;-;-
1514189258046;-;-;10.005859;0.73760986;-7.215439;-;-;-;-;-;-;-;-;-;-;-;-;-;-;-
1514189258067;-;-;8.186264;2.0831451;-5.6735687;-;-;-;-;-;-;-;-;-;-;-;-;-;-;-
1514189258087;-;-;7.256119;1.7096558;-6.4038086;-;-;-;-;-;-;-;-;-;-;-;-;-;-;-
1514189258108;-;-;7.372238;0.6526184;-8.618439;-;-;-;-;-;-;-;-;-;-;-;-;-;-;-
1514189258128;-;-;8.201828;0.43832397;-8.787231;-;-;-;-;-;-;-;-;-;-;-;-;-;-;-
1514189258149;-;-;8.507095;0.51493835;-6.07341;-;-;-;-;-;-;-;-;-;-;-;-;-;-;-
1514189258169;-;-;7.9312897;-1.9953766;-2.5934296;-;-;-;-;-;-;-;-;-;-;-;-;-;-;-
1514189258189;-;-;7.442871;-3.3624573;-2.2175446;-;-;-;-;-;-;-;-;-;-;-;-;-;-;-
1514189258209;-;-;5.9381104;-2.969818;-2.7299042;-;-;-;-;-;-;-;-;-;-;-;-;-;-;-
1514189258229;-;-;5.7226257;-2.755539;-3.488861;-;-;-;-;-;-;-;-;-;-;-;-;-;-;-
1514189258250;-;-;5.5071564;-2.4502716;-3.214737;-;-;-;-;-;-;-;-;-;-;-;-;-;-;-
1514189258270;-;-;4.7996674;-2.166565;-2.8304596;-;-;-;-;-;-;-;-;-;-;-;-;-;-;-
1514189258290;-;-;4.5363007;-1.8373566;-3.3907013;-;-;-;-;-;-;-;-;-;-;-;-;-;-;-
1514189258311;-;-;4.8511353;-1.2579651;-3.2925415;-;-;-;-;-;-;-;-;-;-;-;-;-;-;-
1514189258330;-;-;5.782486;-0.9838257;-2.843628;-;-;-;-;-;-;-;-;-;-;-;-;-;-;-
1514189258350;-;-;6.570175;-1.1645813;-2.7035675;-;-;-;-;-;-;-;-;-;-;-;-;-;-;-
1514189258371;-;-;7.813965;-1.8445435;-2.9884796;-;-;-;-;-;-;-;-;-;-;-;-;-;-;-
1514189258391;-;-;8.768051;-2.142624;-3.0160065;-;-;-;-;-;-;-;-;-;-;-;-;-;-;-
1514189258411;-;-;9.656311;-2.6190643;-3.1644592;-;-;-;-;-;-;-;-;-;-;-;-;-;-;-
1514189258431;-;-;10.138733;-2.4969635;-2.2199402;-;-;-;-;-;-;-;-;-;-;-;-;-;-;-
1514189258452;-;-;10.908478;-3.7156067;-2.005661;-;-;-;-;-;-;-;-;-;-;-;-;-;-;-
1514189258472;-;-;12.027756;-5.1102295;-2.093048;-;-;-;-;-;-;-;-;-;-;-;-;-;-;-
1514189258492;-;-;14.472244;-4.1369934;-2.6173706;-;-;-;-;-;-;-;-;-;-;-;-;-;-;-
1514189258513;-;-;14.940308;-2.2946472;-4.6644135;-;-;-;-;-;-;-;-;-;-;-;-;-;-;-
1514189258533;-;-;12.724472;-1.2076874;-7.8894043;-;-;-;-;-;-;-;-;-;-;-;-;-;-;-
1514189258553;-;-;10.962341;-2.320984;-5.710678;-;-;-;-;-;-;-;-;-;-;-;-;-;-;-
1514189258574;-;-;8.8207245;-4.4147186;-4.283737;-;-;-;-;-;-;-;-;-;-;-;-;-;-;-
1514189258593;-;-;8.015076;-3.8460999;-5.2055054;-;-;-;-;-;-;-;-;-;-;-;-;-;-;-
1514189258613;-;-;7.015503;-2.9195404;-8.647171;-;-;-;-;-;-;-;-;-;-;-;-;-;-;-
1514189258634;-;-;7.0370483;-1.5033722;-8.805191;-;-;-;-;-;-;-;-;-;-;-;-;-;-;-
1514189258654;-;-;9.25647;0.055252075;-4.124527;-;-;-;-;-;-;-;-;-;-;-;-;-;-;-
1514189258674;-;-;8.940445;-0.13627625;-3.2099457;-;-;-;-;-;-;-;-;-;-;-;-;-;-;-
1514189258694;-;-;7.0849304;-0.36013794;-2.6125946;-;-;-;-;-;-;-;-;-;-;-;-;-;-;-
1514189258715;-;-;4.956482;-0.5528717;-1.579483;-;-;-;-;-;-;-;-;-;-;-;-;-;-;-
1514189258735;-;-;4.324417;-1.3262024;-2.4222565;-;-;-;-;-;-;-;-;-;-;-;-;-;-;-
1514189258755;-;-;4.283722;-1.293869;-3.111786;-;-;-;-;-;-;-;-;-;-;-;-;-;-;-
1514189258776;-;-;3.9114227;-0.121917725;-3.6828003;-;-;-;-;-;-;-;-;-;-;-;-;-;-;-
1514189258795;-;-;3.418213;1.6629639;-3.429016;-;-;-;-;-;-;-;-;-;-;-;-;-;-;-
1514189258815;-;-;3.929367;2.849289;-3.1105804;-;-;-;-;-;-;-;-;-;-;-;-;-;-;-
1514189258836;-;-;6.0063477;2.4231262;-2.9501648;-;-;-;-;-;-;-;-;-;-;-;-;-;-;-
1514189258856;-;-;8.203018;1.0117493;-3.1189575;-;-;-;-;-;-;-;-;-;-;-;-;-;-;-
1514189258876;-;-;8.945221;-0.012969971;-3.8396149;-;-;-;-;-;-;-;-;-;-;-;-;-;-;-
1514189258899;-;-;8.892548;0.5053711;-3.3787384;-;-;-;-;-;-;-;-;-;-;-;-;-;-;-
1514189258919;-;-;9.857422;1.1996918;-2.6676483;-;-;-;-;-;-;-;-;-;-;-;-;-;-;-
1514189258939;-;-;11.007828;1.8700562;-2.3839417;-;-;-;-;-;-;-;-;-;-;-;-;-;-;-
1514189258960;-;-;11.70813;1.8353424;-2.7837677;-;-;-;-;-;-;-;-;-;-;-;-;-;-;-
1514189258980;-;-;12.680176;1.7491608;-2.725113;-;-;-;-;-;-;-;-;-;-;-;-;-;-;-
1514189259000;-;-;11.641098;1.4977722;-3.017212;-;-;-;-;-;-;-;-;-;-;-;-;-;-;-
1514189259020;-;-;11.246048;0.49938965;-6.40979;-;-;-;-;-;-;-;-;-;-;-;-;-;-;-
1514189259041;-;-;11.735672;1.679718;-6.128479;-;-;-;-;-;-;-;-;-;-;-;-;-;-;-
1514189259061;-;-;13.223663;2.481781;-3.3392334;-;-;-;-;-;-;-;-;-;-;-;-;-;-;-
1514189259081;-;-;11.499847;1.2044678;-6.219452;-;-;-;-;-;-;-;-;-;-;-;-;-;-;-
1514189259102;-;-;7.3889923;0.39523315;-8.5933075;-;-;-;-;-;-;-;-;-;-;-;-;-;-;-
1514189259122;-;-;4.9864197;-0.15423584;-6.907791;-;-;-;-;-;-;-;-;-;-;-;-;-;-;-
1514189259142;-;-;4.565033;-1.1502228;-4.289734;-;-;-;-;-;-;-;-;-;-;-;-;-;-;-
1514189259163;-;-;6.941284;-3.4295044;-2.9848938;-;-;-;-;-;-;-;-;-;-;-;-;-;-;-
1514189259183;-;-;7.6583405;-3.103897;-4.2382507;-;-;-;-;-;-;-;-;-;-;-;-;-;-;-
1514189259203;-;-;6.8311462;-1.6218872;-2.1217804;-;-;-;-;-;-;-;-;-;-;-;-;-;-;-
1514189259223;-;-;5.7729034;-0.9431305;-2.4857025;-;-;-;-;-;-;-;-;-;-;-;-;-;-;-
1514189259244;-;-;5.438919;-0.94551086;-3.496048;-;-;-;-;-;-;-;-;-;-;-;-;-;-;-
1514189259264;-;-;5.0139465;-1.3321838;-3.3356323;-;-;-;-;-;-;-;-;-;-;-;-;-;-;-
1514189259284;-;-;4.070633;-1.8936157;-2.8496094;-;-;-;-;-;-;-;-;-;-;-;-;-;-;-
1514189259305;-;-;3.6145325;-2.5161133;-2.7945404;-;-;-;-;-;-;-;-;-;-;-;-;-;-;-
1514189259325;-;-;6.45166;-2.7866516;-3.3116913;-;-;-;-;-;-;-;-;-;-;-;-;-;-;-
1514189259345;-;-;7.8881836;-1.6589966;-4.0467224;-;-;-;-;-;-;-;-;-;-;-;-;-;-;-
1514189259366;-;-;7.508713;-0.8186188;-3.9365845;-;-;-;-;-;-;-;-;-;-;-;-;-;-;-
1514189259386;-;-;6.7653046;-1.2471924;-3.6684265;-;-;-;-;-;-;-;-;-;-;-;-;-;-;-
1514189259406;-;-;7.636795;-2.5639954;-3.3787384;-;-;-;-;-;-;-;-;-;-;-;-;-;-;-
1514189259427;-;-;11.09761;-3.4749908;-2.3851318;-;-;-;-;-;-;-;-;-;-;-;-;-;-;-
1514189259447;-;-;12.641876;-3.6126556;-2.1648712;-;-;-;-;-;-;-;-;-;-;-;-;-;-;-
1514189259467;-;-;13.26796;-4.2674713;-2.6437073;-;-;-;-;-;-;-;-;-;-;-;-;-;-;-
1514189259487;-;-;14.301056;-4.257889;-3.0842438;-;-;-;-;-;-;-;-;-;-;-;-;-;-;-
1514189259508;-;-;15.164169;-2.1234589;-4.421402;-;-;-;-;-;-;-;-;-;-;-;-;-;-;-
1514189259528;-;-;11.808685;-0.6067352;-7.982788;-;-;-;-;-;-;-;-;-;-;-;-;-;-;-
1514189259548;-;-;9.284012;-2.080368;-9.436066;-;-;-;-;-;-;-;-;-;-;-;-;-;-;-
1514189259569;-;-;7.8283386;-3.893982;-0.7678528;-;-;-;-;-;-;-;-;-;-;-;-;-;-;-
1514189259589;-;-;9.064941;-3.491745;-1.195221;-;-;-;-;-;-;-;-;-;-;-;-;-;-;-
1514189259609;-;-;8.381393;-2.388031;-8.777664;-;-;-;-;-;-;-;-;-;-;-;-;-;-;-
1514189259630;-;-;5.9824066;-0.996994;-12.656265;-;-;-;-;-;-;-;-;-;-;-;-;-;-;-
1514189259650;-;-;8.76207;1.2355957;-7.3159943;-;-;-;-;-;-;-;-;-;-;-;-;-;-;-
1514189259670;-;-;9.898117;1.1601868;-2.7023773;-;-;-;-;-;-;-;-;-;-;-;-;-;-;-
1514189259690;-;-;7.26091;-0.29429626;-3.2290955;-;-;-;-;-;-;-;-;-;-;-;-;-;-;-
1514189259711;-;-;6.031479;-1.4530945;-2.2366943;-;-;-;-;-;-;-;-;-;-;-;-;-;-;-
1514189259731;-;-;4.477646;-2.8764343;-1.3664093;-;-;-;-;-;-;-;-;-;-;-;-;-;-;-
1514189259751;-;-;3.4864502;-3.8197632;-2.4342194;-;-;-;-;-;-;-;-;-;-;-;-;-;-;-
1514189259772;-;-;4.0574646;-2.8848267;-3.0998077;-;-;-;-;-;-;-;-;-;-;-;-;-;-;-
1514189259792;-;-;3.7438202;0.59994507;-2.5850525;-;-;-;-;-;-;-;-;-;-;-;-;-;-;-
1514189259812;-;-;3.4840546;3.5950928;-3.0746765;-;-;-;-;-;-;-;-;-;-;-;-;-;-;-
1514189259832;-;-;4.5075684;4.0140686;-4.0826263;-;-;-;-;-;-;-;-;-;-;-;-;-;-;-
1514189259853;-;-;6.857483;2.002945;-4.3902893;-;-;-;-;-;-;-;-;-;-;-;-;-;-;-
1514189259873;-;-;9.457581;0.098358154;-3.6205444;-;-;-;-;-;-;-;-;-;-;-;-;-;-;-
1514189259893;-;-;9.63237;-0.62828064;-3.6995544;-;-;-;-;-;-;-;-;-;-;-;-;-;-;-
1514189259914;-;-;8.7417145;0.29467773;-3.7713776;-;-;-;-;-;-;-;-;-;-;-;-;-;-;-
1514189259934;-;-;8.9787445;1.382843;-2.978897;-;-;-;-;-;-;-;-;-;-;-;-;-;-;-
1514189259955;-;-;10.454773;1.8341522;-2.1983948;-;-;-;-;-;-;-;-;-;-;-;-;-;-;-
1514189259975;-;-;11.663849;1.6677551;-2.053543;-;-;-;-;-;-;-;-;-;-;-;-;-;-;-
1514189259995;-;-;12.829819;1.4307251;-3.041153;-;-;-;-;-;-;-;-;-;-;-;-;-;-;-
1514189260015;-;-;12.614334;2.0675812;-2.8292694;-;-;-;-;-;-;-;-;-;-;-;-;-;-;-
1514189260036;-;-;10.637924;2.916336;-2.9322205;-;-;-;-;-;-;-;-;-;-;-;-;-;-;-
1514189260056;-;-;8.771652;3.228775;-9.263687;-;-;-;-;-;-;-;-;-;-;-;-;-;-;-
1514189260076;-;-;10.351822;4.3696136;-4.994812;-;-;-;-;-;-;-;-;-;-;-;-;-;-;-
1514189260097;-;-;14.034103;3.7614899;-3.2697906;-;-;-;-;-;-;-;-;-;-;-;-;-;-;-
1514189260117;-;-;12.119934;2.3489075;-5.891449;-;-;-;-;-;-;-;-;-;-;-;-;-;-;-
1514189260138;-;-;6.2517548;1.125473;-8.486755;-;-;-;-;-;-;-;-;-;-;-;-;-;-;-
1514189260158;-;-;3.5283508;-0.8090515;-6.658783;-;-;-;-;-;-;-;-;-;-;-;-;-;-;-
1514189260178;-;-;4.8236084;-2.4598541;-2.5970306;-;-;-;-;-;-;-;-;-;-;-;-;-;-;-
1514189260198;-;-;7.031067;-2.969818;-0.8001709;-;-;-;-;-;-;-;-;-;-;-;-;-;-;-
1514189260219;-;-;8.18985;-1.8553162;-3.8922882;-;-;-;-;-;-;-;-;-;-;-;-;-;-;-
1514189260239;-;-;7.5685577;-0.5097656;-2.4102783;-;-;-;-;-;-;-;-;-;-;-;-;-;-;-
1514189260259;-;-;5.707062;-0.21647644;-3.0674896;-;-;-;-;-;-;-;-;-;-;-;-;-;-;-
1514189260280;-;-;4.2669525;-0.77911377;-3.2650146;-;-;-;-;-;-;-;-;-;-;-;-;-;-;-
1514189260300;-;-;4.23584;-1.3908386;-3.5726624;-;-;-;-;-;-;-;-;-;-;-;-;-;-;-
1514189260320;-;-;4.8703003;-1.6781464;-3.5786438;-;-;-;-;-;-;-;-;-;-;-;-;-;-;-
1514189260341;-;-;5.889023;-1.8876343;-3.3835144;-;-;-;-;-;-;-;-;-;-;-;-;-;-;-
1514189260361;-;-;7.1519775;-1.9415131;-3.8049011;-;-;-;-;-;-;-;-;-;-;-;-;-;-;-
1514189260381;-;-;7.4129333;-1.2771149;-3.425415;-;-;-;-;-;-;-;-;-;-;-;-;-;-;-
1514189260401;-;-;7.403366;-1.388443;-2.859192;-;-;-;-;-;-;-;-;-;-;-;-;-;-;-
1514189260422;-;-;6.4492645;-1.7655334;-2.5132294;-;-;-;-;-;-;-;-;-;-;-;-;-;-;-
1514189260442;-;-;6.0290833;-2.0420685;-1.4585876;-;-;-;-;-;-;-;-;-;-;-;-;-;-;-
1514189260462;-;-;6.833542;-2.2575378;-0.6577301;-;-;-;-;-;-;-;-;-;-;-;-;-;-;-
1514189260483;-;-;7.9432526;-2.6262512;-0.966568;-;-;-;-;-;-;-;-;-;-;-;-;-;-;-
1514189260503;-;-;9.305557;-2.3185883;-1.9015045;-;-;-;-;-;-;-;-;-;-;-;-;-;-;-
1514189260523;-;-;10.54097;-1.0999451;-1.697998;-;-;-;-;-;-;-;-;-;-;-;-;-;-;-
1514189260544;-;-;11.404068;0.36291504;-0.95700073;-;-;-;-;-;-;-;-;-;-;-;-;-;-;-
1514189260563;-;-;11.493851;1.2128601;-0.94981384;-;-;-;-;-;-;-;-;-;-;-;-;-;-;-
1514189260583;-;-;11.182602;1.1506042;-1.5208282;-;-;-;-;-;-;-;-;-;-;-;-;-;-;-
1514189260604;-;-;8.886566;-0.14225769;-2.665268;-;-;-;-;-;-;-;-;-;-;-;-;-;-;-
1514189260624;-;-;6.5917206;-2.6657562;-4.835602;-;-;-;-;-;-;-;-;-;-;-;-;-;-;-
1514189260644;-;-;4.592575;-3.4809723;-1.9553833;-;-;-;-;-;-;-;-;-;-;-;-;-;-;-
1514189260664;-;-;11.791931;-1.0951538;-2.1098022;-;-;-;-;-;-;-;-;-;-;-;-;-;-;-
1514189260685;-;-;13.404434;-0.16500854;-5.963272;-;-;-;-;-;-;-;-;-;-;-;-;-;-;-
1514189260705;-;-;13.051285;-1.333374;-6.9137726;-;-;-;-;-;-;-;-;-;-;-;-;-;-;-
1514189260725;-;-;13.773132;-1.5512543;-6.8862457;-;-;-;-;-;-;-;-;-;-;-;-;-;-;-
1514189260746;-;-;9.975937;1.0691986;-6.274521;-;-;-;-;-;-;-;-;-;-;-;-;-;-;-
1514189260766;-;-;7.4105377;3.1928558;-5.0271454;-;-;-;-;-;-;-;-;-;-;-;-;-;-;-
1514189260786;-;-;6.206253;2.3010254;-5.4628906;-;-;-;-;-;-;-;-;-;-;-;-;-;-;-
1514189260807;-;-;6.2720947;-0.8186188;-4.8763123;-;-;-;-;-;-;-;-;-;-;-;-;-;-;-
1514189260827;-;-;7.032257;-1.249588;-4.2059326;-;-;-;-;-;-;-;-;-;-;-;-;-;-;-
1514189260847;-;-;7.845093;-0.5049896;-3.7953186;-;-;-;-;-;-;-;-;-;-;-;-;-;-;-
1514189260867;-;-;8.851852;-0.00340271;-4.03833;-;-;-;-;-;-;-;-;-;-;-;-;-;-;-
1514189260888;-;-;9.503082;0.833374;-3.662445;-;-;-;-;-;-;-;-;-;-;-;-;-;-;-
1514189260908;-;-;9.596451;1.3289795;-3.0782623;-;-;-;-;-;-;-;-;-;-;-;-;-;-;-
1514189260928;-;-;8.814743;0.88723755;-2.8723602;-;-;-;-;-;-;-;-;-;-;-;-;-;-;-
1514189260949;-;-;7.0526123;0.5472717;-2.4593658;-;-;-;-;-;-;-;-;-;-;-;-;-;-;-
1514189260968;-;-;5.473633;0.6059265;-1.9134827;-;-;-;-;-;-;-;-;-;-;-;-;-;-;-
1514189260988;-;-;4.4453278;0.71725464;-1.8775635;-;-;-;-;-;-;-;-;-;-;-;-;-;-;-
1514189261009;-;-;4.9253693;0.5676117;-1.7327118;-;-;-;-;-;-;-;-;-;-;-;-;-;-;-
1514189261029;-;-;6.759323;0.32580566;-1.0180511;-;-;-;-;-;-;-;-;-;-;-;-;-;-;-
1514189261049;-;-;8.24852;0.031311035;-0.6218109;-;-;-;-;-;-;-;-;-;-;-;-;-;-;-
1514189261070;-;-;9.3546295;0.0181427;-1.0791016;-;-;-;-;-;-;-;-;-;-;-;-;-;-;-
1514189261090;-;-;9.88974;0.51493835;-1.7853851;-;-;-;-;-;-;-;-;-;-;-;-;-;-;-
1514189261110;-;-;9.195419;0.7878876;-2.1612854;-;-;-;-;-;-;-;-;-;-;-;-;-;-;-
1514189261131;-;-;8.728546;0.18574524;-0.94981384;-;-;-;-;-;-;-;-;-;-;-;-;-;-;-
1514189261151;-;-;10.609192;-2.004959;0.5381775;-;-;-;-;-;-;-;-;-;-;-;-;-;-;-
1514189261171;-;-;13.035721;-2.913559;-0.827713;-;-;-;-;-;-;-;-;-;-;-;-;-;-;-
1514189261192;-;-;11.599197;-0.06564331;-4.8786926;-;-;-;-;-;-;-;-;-;-;-;-;-;-;-
1514189261212;-;-;10.325485;3.101883;-6.721039;-;-;-;-;-;-;-;-;-;-;-;-;-;-;-
1514189261232;-;-;9.923264;3.228775;-4.7003326;-;-;-;-;-;-;-;-;-;-;-;-;-;-;-
1514189261253;-;-;9.280411;0.49699402;-6.1464233;-;-;-;-;-;-;-;-;-;-;-;-;-;-;-
1514189261273;-;-;9.600037;-2.2910614;-6.6216736;-;-;-;-;-;-;-;-;-;-;-;-;-;-;-
1514189261293;-;-;7.082535;-1.9798126;-6.4157715;-;-;-;-;-;-;-;-;-;-;-;-;-;-;-
1514189261314;-;-;6.4959564;1.908371;-4.51239;-;-;-;-;-;-;-;-;-;-;-;-;-;-;-
1514189261334;-;-;8.850662;2.6721191;-4.4142303;-;-;-;-;-;-;-;-;-;-;-;-;-;-;-
1514189261354;-;-;12.177399;0.68852234;-5.0450897;-;-;-;-;-;-;-;-;-;-;-;-;-;-;-
1514189261374;-;-;12.239655;-1.4315338;-5.271347;-;-;-;-;-;-;-;-;-;-;-;-;-;-;-
1514189261395;-;-;9.012268;-2.1569824;-4.010803;-;-;-;-;-;-;-;-;-;-;-;-;-;-;-
1514189261415;-;-;6.565384;-2.8058167;-3.317688;-;-;-;-;-;-;-;-;-;-;-;-;-;-;-
1514189261435;-;-;4.5195465;-2.692093;-3.3990784;-;-;-;-;-;-;-;-;-;-;-;-;-;-;-
1514189261455;-;-;4.5267334;-2.1222687;-4.0359344;-;-;-;-;-;-;-;-;-;-;-;-;-;-;-
1514189261476;-;-;5.316818;-1.8361664;-3.7378693;-;-;-;-;-;-;-;-;-;-;-;-;-;-;-
1514189261496;-;-;8.509476;-2.087555;-2.962143;-;-;-;-;-;-;-;-;-;-;-;-;-;-;-
1514189261516;-;-;8.607651;-2.2527466;-3.0112305;-;-;-;-;-;-;-;-;-;-;-;-;-;-;-
1514189261536;-;-;7.4213104;-2.3832397;-2.682022;-;-;-;-;-;-;-;-;-;-;-;-;-;-;-
1514189261557;-;-;5.4401093;-2.1785278;-2.2450714;-;-;-;-;-;-;-;-;-;-;-;-;-;-;-
1514189261577;-;-;6.1320343;-2.7603302;-1.9494019;-;-;-;-;-;-;-;-;-;-;-;-;-;-;-
1514189261597;-;-;8.018677;-2.669342;-2.005661;-;-;-;-;-;-;-;-;-;-;-;-;-;-;-
1514189261618;-;-;10.391327;-1.7152557;-1.6034393;-;-;-;-;-;-;-;-;-;-;-;-;-;-;-
1514189261638;-;-;11.165848;-0.8413696;-1.2359161;-;-;-;-;-;-;-;-;-;-;-;-;-;-;-
1514189261658;-;-;10.084869;-1.9271393;-2.1588898;-;-;-;-;-;-;-;-;-;-;-;-;-;-;-
1514189261678;-;-;10.105225;-3.5767517;-3.0507202;-;-;-;-;-;-;-;-;-;-;-;-;-;-;-
1514189261699;-;-;9.536591;-3.6330109;-2.3037415;-;-;-;-;-;-;-;-;-;-;-;-;-;-;-
1514189261719;-;-;9.568924;-2.2312012;-1.9254456;-;-;-;-;-;-;-;-;-;-;-;-;-;-;-
1514189261739;-;-;10.329071;-0.38526917;-7.389023;-;-;-;-;-;-;-;-;-;-;-;-;-;-;-
1514189261760;-;-;9.896927;1.0093536;-10.229736;-;-;-;-;-;-;-;-;-;-;-;-;-;-;-
1514189261780;-;-;10.260834;1.0955353;-4.234665;-;-;-;-;-;-;-;-;-;-;-;-;-;-;-
1514189261800;-;-;10.265625;1.6773376;-5.9129944;-;-;-;-;-;-;-;-;-;-;-;-;-;-;-
1514189261820;-;-;9.694611;1.1541901;-7.053833;-;-;-;-;-;-;-;-;-;-;-;-;-;-;-
1514189261841;-;-;9.797562;-1.6829376;-5.029541;-;-;-;-;-;-;-;-;-;-;-;-;-;-;-
1514189261861;-;-;10.860596;-3.2307892;-4.01799;-;-;-;-;-;-;-;-;-;-;-;-;-;-;-
1514189261881;-;-;11.066483;-2.20607;-3.151291;-;-;-;-;-;-;-;-;-;-;-;-;-;-;-
1514189261902;-;-;9.556946;0.105529785;-3.614563;-;-;-;-;-;-;-;-;-;-;-;-;-;-;-
1514189261922;-;-;7.4727936;1.2906647;-3.0375519;-;-;-;-;-;-;-;-;-;-;-;-;-;-;-
1514189261942;-;-;6.11409;1.7886658;-2.2295227;-;-;-;-;-;-;-;-;-;-;-;-;-;-;-
1514189261963;-;-;5.5035553;1.5731812;-1.8380585;-;-;-;-;-;-;-;-;-;-;-;-;-;-;-
1514189261983;-;-;5.407791;0.3605194;-1.697998;-;-;-;-;-;-;-;-;-;-;-;-;-;-;-
1514189262003;-;-;5.735794;-0.14704895;-1.5543518;-;-;-;-;-;-;-;-;-;-;-;-;-;-;-
1514189262023;-;-;6.874237;-0.064453125;-1.4968872;-;-;-;-;-;-;-;-;-;-;-;-;-;-;-
1514189262044;-;-;7.7912292;-0.10395813;-1.5028687;-;-;-;-;-;-;-;-;-;-;-;-;-;-;-
1514189262064;-;-;8.085709;0.024139404;-1.3640137;-;-;-;-;-;-;-;-;-;-;-;-;-;-;-
1514189262084;-;-;8.124023;0.83695984;-0.7858124;-;-;-;-;-;-;-;-;-;-;-;-;-;-;-
1514189262105;-;-;8.558563;2.0161133;-0.4853363;-;-;-;-;-;-;-;-;-;-;-;-;-;-;-
1514189262125;-;-;9.311539;2.9199219;-0.48893738;-;-;-;-;-;-;-;-;-;-;-;-;-;-;-
1514189262146;-;-;10.8965;2.9701996;-1.4466095;-;-;-;-;-;-;-;-;-;-;-;-;-;-;-
1514189262165;-;-;11.430405;2.1597595;-0.85284424;-;-;-;-;-;-;-;-;-;-;-;-;-;-;-
1514189262186;-;-;12.91362;1.7060547;-0.43745422;-;-;-;-;-;-;-;-;-;-;-;-;-;-;-
1514189262206;-;-;14.230423;2.0544128;-3.1273346;-;-;-;-;-;-;-;-;-;-;-;-;-;-;-
1514189262226;-;-;15.760315;2.8444977;-5.8267975;-;-;-;-;-;-;-;-;-;-;-;-;-;-;-
1514189262247;-;-;15.653778;4.4174957;-4.594986;-;-;-;-;-;-;-;-;-;-;-;-;-;-;-
1514189262267;-;-;9.003891;5.4757385;-9.407333;-;-;-;-;-;-;-;-;-;-;-;-;-;-;-
1514189262287;-;-;7.396179;4.5156555;-7.184311;-;-;-;-;-;-;-;-;-;-;-;-;-;-;-
1514189262308;-;-;5.924942;2.2411652;-8.968002;-;-;-;-;-;-;-;-;-;-;-;-;-;-;-
1514189262328;-;-;7.245346;-0.9910126;-9.030243;-;-;-;-;-;-;-;-;-;-;-;-;-;-;-
1514189262348;-;-;8.507095;-1.9271393;-6.2685394;-;-;-;-;-;-;-;-;-;-;-;-;-;-;-
1514189262368;-;-;9.917267;-1.9175568;-3.8587646;-;-;-;-;-;-;-;-;-;-;-;-;-;-;-
1514189262389;-;-;9.476746;-0.53970337;-4.4429626;-;-;-;-;-;-;-;-;-;-;-;-;-;-;-
1514189262409;-;-;7.8355103;0.22164917;-4.4154205;-;-;-;-;-;-;-;-;-;-;-;-;-;-;-
1514189262429;-;-;6.8874054;-0.11831665;-2.6401215;-;-;-;-;-;-;-;-;-;-;-;-;-;-;-
1514189262450;-;-;5.422165;-0.7707367;-1.777008;-;-;-;-;-;-;-;-;-;-;-;-;-;-;-
1514189262470;-;-;3.9856415;-1.6051178;-1.4226685;-;-;-;-;-;-;-;-;-;-;-;-;-;-;-
1514189262490;-;-;2.7023468;-2.2168427;-1.392746;-;-;-;-;-;-;-;-;-;-;-;-;-;-;-
1514189262511;-;-;2.9980316;-2.8237762;-1.634552;-;-;-;-;-;-;-;-;-;-;-;-;-;-;-
1514189262530;-;-;5.672348;-2.9375;-1.8416595;-;-;-;-;-;-;-;-;-;-;-;-;-;-;-
1514189262550;-;-;7.605667;-2.0420685;-2.2893677;-;-;-;-;-;-;-;-;-;-;-;-;-;-;-
1514189262570;-;-;8.128799;-1.324997;-2.2953491;-;-;-;-;-;-;-;-;-;-;-;-;-;-;-
1514189262591;-;-;8.174301;-2.063614;-3.2602234;-;-;-;-;-;-;-;-;-;-;-;-;-;-;-
1514189262611;-;-;8.562149;-2.5687866;-3.741455;-;-;-;-;-;-;-;-;-;-;-;-;-;-;-
1514189262632;-;-;9.206192;-2.9375;-3.1572723;-;-;-;-;-;-;-;-;-;-;-;-;-;-;-
1514189262651;-;-;10.675034;-2.942276;-3.254242;-;-;-;-;-;-;-;-;-;-;-;-;-;-;-
1514189262671;-;-;11.279572;-3.4546356;-4.124527;-;-;-;-;-;-;-;-;-;-;-;-;-;-;-
1514189262692;-;-;12.216904;-3.3552856;-4.251419;-;-;-;-;-;-;-;-;-;-;-;-;-;-;-
1514189262712;-;-;14.660187;-1.827774;-3.7953186;-;-;-;-;-;-;-;-;-;-;-;-;-;-;-
1514189262732;-;-;13.836578;-0.27633667;-6.555832;-;-;-;-;-;-;-;-;-;-;-;-;-;-;-
1514189262753;-;-;11.951141;-2.613083;-12.291153;-;-;-;-;-;-;-;-;-;-;-;-;-;-;-
1514189262773;-;-;11.198166;-4.43985;-5.266556;-;-;-;-;-;-;-;-;-;-;-;-;-;-;-
1514189262793;-;-;7.490753;-3.9849548;-3.1488953;-;-;-;-;-;-;-;-;-;-;-;-;-;-;-
1514189262814;-;-;7.398575;-2.6166687;-6.2230377;-;-;-;-;-;-;-;-;-;-;-;-;-;-;-
1514189262833;-;-;6.8598785;-1.2914734;-8.024689;-;-;-;-;-;-;-;-;-;-;-;-;-;-;-
1514189262853;-;-;6.633621;0.12709045;-5.345566;-;-;-;-;-;-;-;-;-;-;-;-;-;-;-
1514189262874;-;-;6.557007;-0.6067352;-3.7342682;-;-;-;-;-;-;-;-;-;-;-;-;-;-;-
1514189262894;-;-;4.580597;-1.5608215;-2.23909;-;-;-;-;-;-;-;-;-;-;-;-;-;-;-
1514189262914;-;-;4.055069;-1.3405609;-2.211563;-;-;-;-;-;-;-;-;-;-;-;-;-;-;-
1514189262934;-;-;4.4285583;-0.8988342;-2.436615;-;-;-;-;-;-;-;-;-;-;-;-;-;-;-
1514189262955;-;-;5.3251953;-0.17098999;-3.8156738;-;-;-;-;-;-;-;-;-;-;-;-;-;-;-
1514189262975;-;-;5.6148987;0.7878876;-4.5614624;-;-;-;-;-;-;-;-;-;-;-;-;-;-;-
1514189262995;-;-;5.3180084;2.1825104;-5.0858;-;-;-;-;-;-;-;-;-;-;-;-;-;-;-
1514189263016;-;-;5.711853;2.7810516;-4.7661743;-;-;-;-;-;-;-;-;-;-;-;-;-;-;-
1514189263036;-;-;7.9276886;1.7946472;-3.851593;-;-;-;-;-;-;-;-;-;-;-;-;-;-;-
1514189263056;-;-;8.418503;0.79626465;-4.089813;-;-;-;-;-;-;-;-;-;-;-;-;-;-;-
1514189263076;-;-;7.7612915;1.1936951;-4.0239716;-;-;-;-;-;-;-;-;-;-;-;-;-;-;-
1514189263097;-;-;8.432861;1.185318;-2.4414063;-;-;-;-;-;-;-;-;-;-;-;-;-;-;-
1514189263116;-;-;9.4492035;0.41079712;-2.2211304;-;-;-;-;-;-;-;-;-;-;-;-;-;-;-
1514189263136;-;-;10.675034;0.378479;-3.3236694;-;-;-;-;-;-;-;-;-;-;-;-;-;-;-
1514189263157;-;-;12.822632;0.2850952;-4.083832;-;-;-;-;-;-;-;-;-;-;-;-;-;-;-
1514189263176;-;-;12.801086;1.0967407;-3.8252563;-;-;-;-;-;-;-;-;-;-;-;-;-;-;-
1514189263196;-;-;11.21254;0.3964386;-5.2126923;-;-;-;-;-;-;-;-;-;-;-;-;-;-;-
1514189263217;-;-;11.536957;1.8784485;-8.651962;-;-;-;-;-;-;-;-;-;-;-;-;-;-;-
1514189263236;-;-;9.748489;3.608261;-6.0446777;-;-;-;-;-;-;-;-;-;-;-;-;-;-;-
1514189263256;-;-;9.243301;2.3022156;-5.228256;-;-;-;-;-;-;-;-;-;-;-;-;-;-;-
1514189263277;-;-;7.5398254;0.14025879;-6.0051727;-;-;-;-;-;-;-;-;-;-;-;-;-;-;-
1514189263296;-;-;4.769745;-1.036499;-7.6811066;-;-;-;-;-;-;-;-;-;-;-;-;-;-;-
1514189263316;-;-;4.343567;-2.2958527;-6.002777;-;-;-;-;-;-;-;-;-;-;-;-;-;-;-
1514189263336;-;-;5.6699524;-2.574768;-3.1225586;-;-;-;-;-;-;-;-;-;-;-;-;-;-;-
1514189263357;-;-;6.6144714;-2.2324066;-2.4198608;-;-;-;-;-;-;-;-;-;-;-;-;-;-;-
1514189263377;-;-;6.3056183;-0.8641205;-3.2255096;-;-;-;-;-;-;-;-;-;-;-;-;-;-;-
1514189263397;-;-;5.5466614;-0.7228546;-2.9322205;-;-;-;-;-;-;-;-;-;-;-;-;-;-;-
1514189263418;-;-;6.11528;-1.4159851;-3.2087402;-;-;-;-;-;-;-;-;-;-;-;-;-;-;-
1514189263438;-;-;6.0063477;-2.1881104;-3.863556;-;-;-;-;-;-;-;-;-;-;-;-;-;-;-
1514189263458;-;-;5.3216095;-2.8177795;-4.4932404;-;-;-;-;-;-;-;-;-;-;-;-;-;-;-
1514189263479;-;-;5.893814;-2.518509;-3.6396942;-;-;-;-;-;-;-;-;-;-;-;-;-;-;-
1514189263499;-;-;7.67511;-1.4423218;-2.9573517;-;-;-;-;-;-;-;-;-;-;-;-;-;-;-
1514189263519;-;-;7.940857;-0.63427734;-3.4218292;-;-;-;-;-;-;-;-;-;-;-;-;-;-;-
1514189263539;-;-;7.458435;-1.0724182;-3.3667603;-;-;-;-;-;-;-;-;-;-;-;-;-;-;-
1514189263560;-;-;7.367447;-1.8469391;-2.9322205;-;-;-;-;-;-;-;-;-;-;-;-;-;-;-
1514189263580;-;-;8.317947;-2.2958527;-2.9848938;-;-;-;-;-;-;-;-;-;-;-;-;-;-;-
1514189263600;-;-;9.724533;-2.2324066;-2.562317;-;-;-;-;-;-;-;-;-;-;-;-;-;-;-
1514189263620;-;-;10.434418;-2.6442108;-2.6784363;-;-;-;-;-;-;-;-;-;-;-;-;-;-;-
1514189263640;-;-;11.343018;-3.8903809;-3.3092957;-;-;-;-;-;-;-;-;-;-;-;-;-;-;-
1514189263661;-;-;13.115921;-4.4266815;-3.3715515;-;-;-;-;-;-;-;-;-;-;-;-;-;-;-
1514189263681;-;-;13.471466;-3.3169708;-5.250992;-;-;-;-;-;-;-;-;-;-;-;-;-;-;-
1514189263701;-;-;11.653076;-3.4905548;-9.8550415;-;-;-;-;-;-;-;-;-;-;-;-;-;-;-
1514189263721;-;-;11.781158;-4.357254;-7.0670013;-;-;-;-;-;-;-;-;-;-;-;-;-;-;-
1514189263742;-;-;10.017822;-3.3552856;-1.2335358;-;-;-;-;-;-;-;-;-;-;-;-;-;-;-
1514189263762;-;-;9.274429;-1.9295349;-5.6256866;-;-;-;-;-;-;-;-;-;-;-;-;-;-;-
1514189263782;-;-;5.960861;-0.7216644;-9.667099;-;-;-;-;-;-;-;-;-;-;-;-;-;-;-
1514189263803;-;-;5.4137726;0.44911194;-7.2896576;-;-;-;-;-;-;-;-;-;-;-;-;-;-;-
