TimeStamp[ms];Prox[Cm];Lux[lux];AccX[m/s^2];AccY[m/s^2];AccZ[m/s^2];GyroX[rad/s];GyroY[rad/s];GyroZ[rad/s];MagnX[uT];MagnY[uT];MagnZ[uT];OrienYaw[degrees];OrienPitch[degrees];OrienRoll[degrees];Press[Pa];Temp[C°];Batt[%];Lat;Lng;Speed[m/s]
1514189289702;-;-;8.483139;-2.1976929;2.0189972;-;-;-;-;-;-;-;-;-;-;-;-;-;-;-
1514189289702;-;-;8.447235;-2.2096558;1.7759857;-;-;-;-;-;-;-;-;-;-;-;-;-;-;-
1514189289721;-;-;8.250916;-2.095932;1.504242;-;-;-;-;-;-;-;-;-;-;-;-;-;-;-
1514189289743;-;-;8.632782;-1.491394;2.1542664;-;-;-;-;-;-;-;-;-;-;-;-;-;-;-
1514189289764;-;-;8.871002;-1.5871582;2.350586;-;-;-;-;-;-;-;-;-;-;-;-;-;-;-
1514189289784;-;-;8.8997345;-1.6386414;2.34581;-;-;-;-;-;-;-;-;-;-;-;-;-;-;-
1514189289804;-;-;9.39534;-1.898407;3.0688477;-;-;-;-;-;-;-;-;-;-;-;-;-;-;-
1514189289825;-;-;8.772842;-1.0879669;0.3933258;-;-;-;-;-;-;-;-;-;-;-;-;-;-;-
1514189289845;-;-;8.793198;-1.2507782;1.8178864;-;-;-;-;-;-;-;-;-;-;-;-;-;-;-
1514189289865;-;-;8.964386;-2.4706268;2.7575989;-;-;-;-;-;-;-;-;-;-;-;-;-;-;-
1514189289885;-;-;9.408508;-1.348938;-0.96777344;-;-;-;-;-;-;-;-;-;-;-;-;-;-;-
1514189289905;-;-;8.216187;-2.3437347;1.0613098;-;-;-;-;-;-;-;-;-;-;-;-;-;-;-
1514189289926;-;-;8.815933;-1.2579651;-1.179657;-;-;-;-;-;-;-;-;-;-;-;-;-;-;-
1514189289955;-;-;8.000717;-2.6286469;0.9320221;-;-;-;-;-;-;-;-;-;-;-;-;-;-;-
1514189289965;-;-;7.585327;0.43832397;0.15989685;-;-;-;-;-;-;-;-;-;-;-;-;-;-;-
1514189289985;-;-;7.7421417;-0.097976685;-1.2933807;-;-;-;-;-;-;-;-;-;-;-;-;-;-;-
1514189290006;-;-;7.6308136;-0.44154358;-1.4549866;-;-;-;-;-;-;-;-;-;-;-;-;-;-;-
1514189290026;-;-;10.918045;0.21447754;-1.8141174;-;-;-;-;-;-;-;-;-;-;-;-;-;-;-
1514189290046;-;-;10.576874;-0.0440979;-0.57032776;-;-;-;-;-;-;-;-;-;-;-;-;-;-;-
1514189290067;-;-;11.736862;0.8405609;-1.4083099;-;-;-;-;-;-;-;-;-;-;-;-;-;-;-
1514189290086;-;-;11.742859;-0.35055542;-1.2335358;-;-;-;-;-;-;-;-;-;-;-;-;-;-;-
1514189290106;-;-;8.6651;-1.0257263;-1.3280945;-;-;-;-;-;-;-;-;-;-;-;-;-;-;-
1514189290126;-;-;9.295975;-1.8265839;-0.9474182;-;-;-;-;-;-;-;-;-;-;-;-;-;-;-
1514189290146;-;-;8.929672;-1.4171753;-1.2933807;-;-;-;-;-;-;-;-;-;-;-;-;-;-;-
1514189290167;-;-;9.06015;-1.5644226;-1.5088654;-;-;-;-;-;-;-;-;-;-;-;-;-;-;-
1514189290187;-;-;9.431244;-1.5560455;-1.8500366;-;-;-;-;-;-;-;-;-;-;-;-;-;-;-
1514189290207;-;-;8.972763;-0.52653503;-1.2790222;-;-;-;-;-;-;-;-;-;-;-;-;-;-;-
1514189290228;-;-;9.627579;0.6346588;-1.243103;-;-;-;-;-;-;-;-;-;-;-;-;-;-;-
1514189290248;-;-;8.540604;0.083984375;-2.2761993;-;-;-;-;-;-;-;-;-;-;-;-;-;-;-
1514189290268;-;-;9.106842;-0.30506897;-0.8456726;-;-;-;-;-;-;-;-;-;-;-;-;-;-;-
1514189290289;-;-;8.398148;0.45628357;-1.2119751;-;-;-;-;-;-;-;-;-;-;-;-;-;-;-
1514189290309;-;-;8.867416;-0.24520874;-1.4334412;-;-;-;-;-;-;-;-;-;-;-;-;-;-;-
1514189290329;-;-;8.499908;-0.67855835;-0.9258728;-;-;-;-;-;-;-;-;-;-;-;-;-;-;-
1514189290350;-;-;8.042618;0.5269165;1.057724;-;-;-;-;-;-;-;-;-;-;-;-;-;-;-
1514189290370;-;-;9.263657;1.0320892;0.03300476;-;-;-;-;-;-;-;-;-;-;-;-;-;-;-
1514189290390;-;-;7.41893;1.4558716;-0.60624695;-;-;-;-;-;-;-;-;-;-;-;-;-;-;-
1514189290410;-;-;8.9392395;-1.5715942;-2.460556;-;-;-;-;-;-;-;-;-;-;-;-;-;-;-
1514189290431;-;-;8.4687805;0.2420044;-0.882782;-;-;-;-;-;-;-;-;-;-;-;-;-;-;-
1514189290451;-;-;9.246902;-1.111908;-0.9581909;-;-;-;-;-;-;-;-;-;-;-;-;-;-;-
1514189290472;-;-;9.954376;-1.9833984;-0.709198;-;-;-;-;-;-;-;-;-;-;-;-;-;-;-
1514189290492;-;-;8.416107;-0.70729065;-0.23873901;-;-;-;-;-;-;-;-;-;-;-;-;-;-;-
1514189290513;-;-;10.333862;-0.3541565;-0.037628174;-;-;-;-;-;-;-;-;-;-;-;-;-;-;-
1514189290533;-;-;10.828262;0.20848083;-1.8141174;-;-;-;-;-;-;-;-;-;-;-;-;-;-;-
1514189290553;-;-;8.40773;1.2810822;-4.255005;-;-;-;-;-;-;-;-;-;-;-;-;-;-;-
1514189290573;-;-;9.437241;2.710434;-2.8184967;-;-;-;-;-;-;-;-;-;-;-;-;-;-;-
1514189290594;-;-;10.815094;1.6833191;-2.0224152;-;-;-;-;-;-;-;-;-;-;-;-;-;-;-
1514189290614;-;-;11.3741455;3.3137665;-3.7558136;-;-;-;-;-;-;-;-;-;-;-;-;-;-;-
1514189290634;-;-;12.186981;1.7443695;-6.2541656;-;-;-;-;-;-;-;-;-;-;-;-;-;-;-
1514189290655;-;-;6.817978;-1.0472717;-12.522186;-;-;-;-;-;-;-;-;-;-;-;-;-;-;-
1514189290675;-;-;4.3148346;-3.2152252;-0.654129;-;-;-;-;-;-;-;-;-;-;-;-;-;-;-
1514189290695;-;-;8.898544;-6.282196;-4.085022;-;-;-;-;-;-;-;-;-;-;-;-;-;-;-
1514189290716;-;-;11.0772705;-4.0340424;-3.9222107;-;-;-;-;-;-;-;-;-;-;-;-;-;-;-
1514189290736;-;-;11.53096;-0.4271698;-3.0603027;-;-;-;-;-;-;-;-;-;-;-;-;-;-;-
1514189290756;-;-;11.477097;0.3030548;-2.673645;-;-;-;-;-;-;-;-;-;-;-;-;-;-;-
1514189290776;-;-;11.275986;-0.72525024;-3.3057098;-;-;-;-;-;-;-;-;-;-;-;-;-;-;-
1514189290797;-;-;10.423645;-3.0715637;-2.4138641;-;-;-;-;-;-;-;-;-;-;-;-;-;-;-
1514189290817;-;-;8.135986;-4.013687;-1.7411041;-;-;-;-;-;-;-;-;-;-;-;-;-;-;-
1514189290837;-;-;5.5382843;-4.0101013;-2.0272064;-;-;-;-;-;-;-;-;-;-;-;-;-;-;-
1514189290858;-;-;4.3375854;-3.3816223;-2.4964752;-;-;-;-;-;-;-;-;-;-;-;-;-;-;-
1514189290877;-;-;5.237808;-2.1893005;-2.017624;-;-;-;-;-;-;-;-;-;-;-;-;-;-;-
1514189290897;-;-;7.2345734;-1.7774963;-2.0439606;-;-;-;-;-;-;-;-;-;-;-;-;-;-;-
1514189290917;-;-;8.576523;-1.1418457;-2.2642365;-;-;-;-;-;-;-;-;-;-;-;-;-;-;-
1514189290938;-;-;8.872208;-0.9945984;-2.069107;-;-;-;-;-;-;-;-;-;-;-;-;-;-;-
1514189290958;-;-;9.167892;-2.0827637;-1.5687103;-;-;-;-;-;-;-;-;-;-;-;-;-;-;-
1514189290979;-;-;9.560532;-3.3337402;-1.456192;-;-;-;-;-;-;-;-;-;-;-;-;-;-;-
1514189290999;-;-;9.345062;-3.8113708;-1.6716614;-;-;-;-;-;-;-;-;-;-;-;-;-;-;-
1514189291020;-;-;8.82193;-3.8424988;-1.511261;-;-;-;-;-;-;-;-;-;-;-;-;-;-;-
1514189291040;-;-;7.952835;-3.519287;-1.3460541;-;-;-;-;-;-;-;-;-;-;-;-;-;-;-
1514189291060;-;-;7.312378;-2.890808;-1.322113;-;-;-;-;-;-;-;-;-;-;-;-;-;-;-
1514189291081;-;-;7.3698425;-2.6190643;-0.64575195;-;-;-;-;-;-;-;-;-;-;-;-;-;-;-
1514189291101;-;-;8.311966;-2.2120514;-0.43626404;-;-;-;-;-;-;-;-;-;-;-;-;-;-;-
1514189291121;-;-;9.469559;-1.8170013;-1.3424683;-;-;-;-;-;-;-;-;-;-;-;-;-;-;-
1514189291141;-;-;10.730103;-1.1226959;-2.642517;-;-;-;-;-;-;-;-;-;-;-;-;-;-;-
1514189291162;-;-;13.297882;-0.5169525;-2.804123;-;-;-;-;-;-;-;-;-;-;-;-;-;-;-
1514189291182;-;-;16.113464;-1.4842072;-3.1907806;-;-;-;-;-;-;-;-;-;-;-;-;-;-;-
1514189291202;-;-;15.862076;-4.029251;-6.281708;-;-;-;-;-;-;-;-;-;-;-;-;-;-;-
1514189291223;-;-;14.650604;-6.14093;-8.481979;-;-;-;-;-;-;-;-;-;-;-;-;-;-;-
1514189291243;-;-;15.371262;-6.6293488;-6.7198486;-;-;-;-;-;-;-;-;-;-;-;-;-;-;-
1514189291263;-;-;11.01741;-5.440628;-5.91658;-;-;-;-;-;-;-;-;-;-;-;-;-;-;-
1514189291283;-;-;6.493561;-3.977768;-6.076996;-;-;-;-;-;-;-;-;-;-;-;-;-;-;-
1514189291304;-;-;4.271744;-2.7124329;-7.8774414;-;-;-;-;-;-;-;-;-;-;-;-;-;-;-
1514189291324;-;-;5.9452972;-2.0755768;-5.6651917;-;-;-;-;-;-;-;-;-;-;-;-;-;-;-
1514189291344;-;-;6.481598;-2.0624084;-3.2817688;-;-;-;-;-;-;-;-;-;-;-;-;-;-;-
1514189291364;-;-;6.182312;-1.5189362;-1.2000122;-;-;-;-;-;-;-;-;-;-;-;-;-;-;-
1514189291385;-;-;6.3463287;-1.1873322;-0.7893982;-;-;-;-;-;-;-;-;-;-;-;-;-;-;-
1514189291405;-;-;6.1116943;-1.6362457;-1.7111664;-;-;-;-;-;-;-;-;-;-;-;-;-;-;-
1514189291425;-;-;6.280487;-1.9091797;-2.9334106;-;-;-;-;-;-;-;-;-;-;-;-;-;-;-
1514189291446;-;-;6.0614166;-1.3441467;-3.3248596;-;-;-;-;-;-;-;-;-;-;-;-;-;-;-
1514189291466;-;-;5.12648;0.23602295;-2.6508942;-;-;-;-;-;-;-;-;-;-;-;-;-;-;-
1514189291487;-;-;4.814026;2.0963135;-2.3791504;-;-;-;-;-;-;-;-;-;-;-;-;-;-;-
1514189291507;-;-;5.8638916;2.849289;-2.5192108;-;-;-;-;-;-;-;-;-;-;-;-;-;-;-
1514189291527;-;-;7.782837;2.263916;-2.796936;-;-;-;-;-;-;-;-;-;-;-;-;-;-;-
1514189291547;-;-;7.988739;1.6366272;-2.2342987;-;-;-;-;-;-;-;-;-;-;-;-;-;-;-
1514189291568;-;-;8.359848;0.63105774;-2.4114685;-;-;-;-;-;-;-;-;-;-;-;-;-;-;-
1514189291589;-;-;7.93248;0.27671814;-2.547943;-;-;-;-;-;-;-;-;-;-;-;-;-;-;-
1514189291608;-;-;8.952408;-0.41760254;-1.5603333;-;-;-;-;-;-;-;-;-;-;-;-;-;-;-
1514189291629;-;-;9.853821;-0.8820648;-1.9529877;-;-;-;-;-;-;-;-;-;-;-;-;-;-;-
1514189291649;-;-;10.046555;-0.61631775;-2.4102783;-;-;-;-;-;-;-;-;-;-;-;-;-;-;-
1514189291669;-;-;10.582855;-0.22964478;-2.310913;-;-;-;-;-;-;-;-;-;-;-;-;-;-;-
1514189291689;-;-;11.202957;-0.47865295;-2.5347748;-;-;-;-;-;-;-;-;-;-;-;-;-;-;-
1514189291710;-;-;10.871368;0.3796692;-4.378311;-;-;-;-;-;-;-;-;-;-;-;-;-;-;-
1514189291730;-;-;11.394501;2.402771;-6.1739655;-;-;-;-;-;-;-;-;-;-;-;-;-;-;-
1514189291750;-;-;13.32782;2.7319794;-4.337616;-;-;-;-;-;-;-;-;-;-;-;-;-;-;-
1514189291771;-;-;13.005798;2.670929;-9.780823;-;-;-;-;-;-;-;-;-;-;-;-;-;-;-
1514189291791;-;-;10.683411;-1.1107178;-8.150375;-;-;-;-;-;-;-;-;-;-;-;-;-;-;-
1514189291811;-;-;5.865082;-1.6147003;-5.5897827;-;-;-;-;-;-;-;-;-;-;-;-;-;-;-
1514189291832;-;-;4.4944;-3.0488281;-3.6875916;-;-;-;-;-;-;-;-;-;-;-;-;-;-;-
1514189291852;-;-;4.945709;-4.8731995;-4.638077;-;-;-;-;-;-;-;-;-;-;-;-;-;-;-
1514189291872;-;-;8.738129;-3.1733246;-4.5183716;-;-;-;-;-;-;-;-;-;-;-;-;-;-;-
1514189291893;-;-;9.9591675;0.95547485;-3.0375519;-;-;-;-;-;-;-;-;-;-;-;-;-;-;-
1514189291913;-;-;8.558563;2.4913635;-1.8895416;-;-;-;-;-;-;-;-;-;-;-;-;-;-;-
1514189291933;-;-;6.703064;1.9191437;-2.9034882;-;-;-;-;-;-;-;-;-;-;-;-;-;-;-
1514189291954;-;-;5.38385;-0.30148315;-2.5383606;-;-;-;-;-;-;-;-;-;-;-;-;-;-;-
1514189291974;-;-;4.779312;-2.5089264;-1.8033447;-;-;-;-;-;-;-;-;-;-;-;-;-;-;-
1514189291994;-;-;3.9341583;-4.1776886;-1.2993622;-;-;-;-;-;-;-;-;-;-;-;-;-;-;-
1514189292015;-;-;5.2701263;-5.1425476;-1.3556366;-;-;-;-;-;-;-;-;-;-;-;-;-;-;-
1514189292035;-;-;6.881424;-4.3680267;-2.0894623;-;-;-;-;-;-;-;-;-;-;-;-;-;-;-
1514189292055;-;-;6.8479004;-3.2008514;-2.73349;-;-;-;-;-;-;-;-;-;-;-;-;-;-;-
1514189292075;-;-;7.1411896;-2.1330414;-3.449356;-;-;-;-;-;-;-;-;-;-;-;-;-;-;-
1514189292096;-;-;8.003113;-1.4267578;-3.9772797;-;-;-;-;-;-;-;-;-;-;-;-;-;-;-
1514189292116;-;-;10.605606;-0.720459;-3.6588593;-;-;-;-;-;-;-;-;-;-;-;-;-;-;-
1514189292136;-;-;11.753632;-1.4782257;-3.1261444;-;-;-;-;-;-;-;-;-;-;-;-;-;-;-
1514189292157;-;-;12.252823;-3.6629333;-3.0447388;-;-;-;-;-;-;-;-;-;-;-;-;-;-;-
1514189292177;-;-;14.460266;-4.2399445;-2.8184967;-;-;-;-;-;-;-;-;-;-;-;-;-;-;-
1514189292197;-;-;13.779114;-3.8568726;-6.923355;-;-;-;-;-;-;-;-;-;-;-;-;-;-;-
1514189292217;-;-;11.463928;-5.4813385;-11.639923;-;-;-;-;-;-;-;-;-;-;-;-;-;-;-
1514189292238;-;-;12.810669;-5.5399933;-5.44014;-;-;-;-;-;-;-;-;-;-;-;-;-;-;-
1514189292258;-;-;11.833832;-2.6418152;-1.550766;-;-;-;-;-;-;-;-;-;-;-;-;-;-;-
1514189292278;-;-;8.657928;-0.3361969;-6.931732;-;-;-;-;-;-;-;-;-;-;-;-;-;-;-
1514189292299;-;-;5.102539;0.8381653;-9.877792;-;-;-;-;-;-;-;-;-;-;-;-;-;-;-
1514189292319;-;-;6.664749;0.6286621;-6.7557526;-;-;-;-;-;-;-;-;-;-;-;-;-;-;-
1514189292339;-;-;7.3889923;0.10913086;-1.8596191;-;-;-;-;-;-;-;-;-;-;-;-;-;-;-
1514189292360;-;-;6.0566254;-0.38526917;-1.5004883;-;-;-;-;-;-;-;-;-;-;-;-;-;-;-
1514189292380;-;-;4.6536255;-0.79467773;-1.4502106;-;-;-;-;-;-;-;-;-;-;-;-;-;-;-
1514189292400;-;-;3.6025696;-0.8425598;-2.231903;-;-;-;-;-;-;-;-;-;-;-;-;-;-;-
1514189292421;-;-;3.122528;-0.6151123;-3.7665863;-;-;-;-;-;-;-;-;-;-;-;-;-;-;-
1514189292441;-;-;2.801712;0.18095398;-4.417816;-;-;-;-;-;-;-;-;-;-;-;-;-;-;-
1514189292461;-;-;3.5008087;1.4403076;-4.219101;-;-;-;-;-;-;-;-;-;-;-;-;-;-;-
1514189292482;-;-;4.9086;1.8006287;-4.0036163;-;-;-;-;-;-;-;-;-;-;-;-;-;-;-
1514189292501;-;-;9.196625;0.1725769;-4.0874176;-;-;-;-;-;-;-;-;-;-;-;-;-;-;-
1514189292521;-;-;9.582092;-1.8158112;-5.7465973;-;-;-;-;-;-;-;-;-;-;-;-;-;-;-
1514189292541;-;-;6.2505493;-0.30986023;-4.3902893;-;-;-;-;-;-;-;-;-;-;-;-;-;-;-
1514189292561;-;-;8.220978;0.9758301;-1.950592;-;-;-;-;-;-;-;-;-;-;-;-;-;-;-
1514189292582;-;-;9.798767;1.0416718;-0.5392151;-;-;-;-;-;-;-;-;-;-;-;-;-;-;-
1514189292602;-;-;11.462723;0.23242188;-1.535202;-;-;-;-;-;-;-;-;-;-;-;-;-;-;-
1514189292622;-;-;13.006989;0.110321045;-4.3711243;-;-;-;-;-;-;-;-;-;-;-;-;-;-;-
1514189292643;-;-;11.095215;0.3497467;-3.729477;-;-;-;-;-;-;-;-;-;-;-;-;-;-;-
1514189292664;-;-;10.331467;-0.9957886;-3.5654755;-;-;-;-;-;-;-;-;-;-;-;-;-;-;-
1514189292684;-;-;12.343796;-0.109939575;-11.820694;-;-;-;-;-;-;-;-;-;-;-;-;-;-;-
1514189292704;-;-;14.748779;2.126236;-6.3116302;-;-;-;-;-;-;-;-;-;-;-;-;-;-;-
1514189292725;-;-;12.772354;3.5519867;-7.385437;-;-;-;-;-;-;-;-;-;-;-;-;-;-;-
1514189292745;-;-;9.106842;0.967453;-8.192276;-;-;-;-;-;-;-;-;-;-;-;-;-;-;-
1514189292765;-;-;5.0941467;-0.3433838;-6.31044;-;-;-;-;-;-;-;-;-;-;-;-;-;-;-
1514189292785;-;-;4.332794;-3.4642181;-1.863205;-;-;-;-;-;-;-;-;-;-;-;-;-;-;-
1514189292805;-;-;5.629257;-5.638153;0.35861206;-;-;-;-;-;-;-;-;-;-;-;-;-;-;-
1514189292826;-;-;6.8407288;-2.7531433;-3.6109772;-;-;-;-;-;-;-;-;-;-;-;-;-;-;-
1514189292846;-;-;6.1356354;-0.6641998;-2.994461;-;-;-;-;-;-;-;-;-;-;-;-;-;-;-
1514189292866;-;-;5.87825;-0.5145569;-2.3169098;-;-;-;-;-;-;-;-;-;-;-;-;-;-;-
1514189292886;-;-;4.5794067;-1.2364197;-2.9358063;-;-;-;-;-;-;-;-;-;-;-;-;-;-;-
1514189292907;-;-;2.7238922;-2.0971222;-3.5403442;-;-;-;-;-;-;-;-;-;-;-;-;-;-;-
1514189292927;-;-;1.5543213;-2.7495422;-3.685196;-;-;-;-;-;-;-;-;-;-;-;-;-;-;-
1514189292947;-;-;1.4094849;-2.724411;-3.95813;-;-;-;-;-;-;-;-;-;-;-;-;-;-;-
1514189292968;-;-;4.545883;-2.119873;-3.4601288;-;-;-;-;-;-;-;-;-;-;-;-;-;-;-
1514189292988;-;-;6.491165;-1.5991364;-3.420639;-;-;-;-;-;-;-;-;-;-;-;-;-;-;-
1514189293008;-;-;7.3423157;-1.7499695;-3.3835144;-;-;-;-;-;-;-;-;-;-;-;-;-;-;-
1514189293029;-;-;8.537018;-4.36084;-3.7223053;-;-;-;-;-;-;-;-;-;-;-;-;-;-;-
1514189293049;-;-;12.6861725;-4.6433563;-3.2937317;-;-;-;-;-;-;-;-;-;-;-;-;-;-;-
1514189293069;-;-;17.065155;-4.0352325;-2.6281433;-;-;-;-;-;-;-;-;-;-;-;-;-;-;-
1514189293089;-;-;18.773422;-3.4175262;-4.448944;-;-;-;-;-;-;-;-;-;-;-;-;-;-;-
1514189293110;-;-;17.590683;-1.5548401;-3.2207184;-;-;-;-;-;-;-;-;-;-;-;-;-;-;-
1514189293130;-;-;13.861725;-0.6103363;-6.263748;-;-;-;-;-;-;-;-;-;-;-;-;-;-;-
1514189293151;-;-;8.601654;-3.3313446;-9.8945465;-;-;-;-;-;-;-;-;-;-;-;-;-;-;-
1514189293171;-;-;5.339554;-5.5651245;-11.283188;-;-;-;-;-;-;-;-;-;-;-;-;-;-;-
1514189293191;-;-;4.2813263;-7.7438507;-6.1356506;-;-;-;-;-;-;-;-;-;-;-;-;-;-;-
1514189293211;-;-;10.574478;-2.3233795;1.1750336;-;-;-;-;-;-;-;-;-;-;-;-;-;-;-
1514189293232;-;-;9.087677;0.70887756;-8.820755;-;-;-;-;-;-;-;-;-;-;-;-;-;-;-
1514189293252;-;-;5.632843;1.1925049;-8.434097;-;-;-;-;-;-;-;-;-;-;-;-;-;-;-
1514189293272;-;-;8.334702;1.0656128;-1.9278412;-;-;-;-;-;-;-;-;-;-;-;-;-;-;-
1514189293293;-;-;6.1212616;-0.17098999;-0.54759216;-;-;-;-;-;-;-;-;-;-;-;-;-;-;-
1514189293313;-;-;3.4864502;-1.3405609;-2.9489746;-;-;-;-;-;-;-;-;-;-;-;-;-;-;-
1514189293333;-;-;4.343567;-1.289093;-3.3440094;-;-;-;-;-;-;-;-;-;-;-;-;-;-;-
1514189293354;-;-;5.414978;-0.34936523;-3.7163086;-;-;-;-;-;-;-;-;-;-;-;-;-;-;-
1514189293374;-;-;5.5993347;1.1589813;-3.9126434;-;-;-;-;-;-;-;-;-;-;-;-;-;-;-
1514189293394;-;-;5.035492;2.6817017;-5.171997;-;-;-;-;-;-;-;-;-;-;-;-;-;-;-
1514189293414;-;-;4.4058228;3.4274902;-5.246216;-;-;-;-;-;-;-;-;-;-;-;-;-;-;-
1514189293435;-;-;5.6017303;2.3333435;-4.179596;-;-;-;-;-;-;-;-;-;-;-;-;-;-;-
1514189293455;-;-;7.7062225;0.5783844;-3.4469604;-;-;-;-;-;-;-;-;-;-;-;-;-;-;-
1514189293475;-;-;8.537018;-0.16619873;-3.4242249;-;-;-;-;-;-;-;-;-;-;-;-;-;-;-
1514189293496;-;-;8.516663;-0.13748169;-2.483307;-;-;-;-;-;-;-;-;-;-;-;-;-;-;-
1514189293516;-;-;10.155502;-0.61750793;-0.58709717;-;-;-;-;-;-;-;-;-;-;-;-;-;-;-
1514189293536;-;-;10.651093;0.41558838;-1.7722168;-;-;-;-;-;-;-;-;-;-;-;-;-;-;-
1514189293557;-;-;11.614761;1.7778931;-3.0124207;-;-;-;-;-;-;-;-;-;-;-;-;-;-;-
1514189293577;-;-;11.141907;1.8844299;-3.2805634;-;-;-;-;-;-;-;-;-;-;-;-;-;-;-
1514189293597;-;-;11.697357;-0.48223877;-6.1990967;-;-;-;-;-;-;-;-;-;-;-;-;-;-;-
1514189293618;-;-;11.946365;1.655777;-9.759277;-;-;-;-;-;-;-;-;-;-;-;-;-;-;-
1514189293638;-;-;12.400055;3.7243652;-6.9305267;-;-;-;-;-;-;-;-;-;-;-;-;-;-;-
1514189293658;-;-;13.475052;3.383194;-4.4824524;-;-;-;-;-;-;-;-;-;-;-;-;-;-;-
1514189293679;-;-;8.4448395;-0.47146606;-8.570557;-;-;-;-;-;-;-;-;-;-;-;-;-;-;-
1514189293699;-;-;6.5342712;-1.7691193;-7.7110443;-;-;-;-;-;-;-;-;-;-;-;-;-;-;-
1514189293719;-;-;6.5677795;-3.1805115;-3.3392334;-;-;-;-;-;-;-;-;-;-;-;-;-;-;-
1514189293740;-;-;7.161545;-4.8456726;-2.4114685;-;-;-;-;-;-;-;-;-;-;-;-;-;-;-
1514189293760;-;-;8.750107;-4.3440857;-3.2290955;-;-;-;-;-;-;-;-;-;-;-;-;-;-;-
1514189293780;-;-;8.3897705;-1.4973755;-2.642517;-;-;-;-;-;-;-;-;-;-;-;-;-;-;-
1514189293801;-;-;5.926132;0.14144897;-2.7957458;-;-;-;-;-;-;-;-;-;-;-;-;-;-;-
1514189293821;-;-;4.051483;0.24798584;-3.1824036;-;-;-;-;-;-;-;-;-;-;-;-;-;-;-
1514189293841;-;-;2.3288574;-1.1669769;-3.12854;-;-;-;-;-;-;-;-;-;-;-;-;-;-;-
1514189293862;-;-;2.0846405;-2.4490814;-3.5870209;-;-;-;-;-;-;-;-;-;-;-;-;-;-;-
1514189293882;-;-;2.580246;-2.9446716;-3.725891;-;-;-;-;-;-;-;-;-;-;-;-;-;-;-
1514189293902;-;-;4.062256;-2.4993591;-2.8771515;-;-;-;-;-;-;-;-;-;-;-;-;-;-;-
1514189293923;-;-;6.0937347;-1.8972168;-3.3320465;-;-;-;-;-;-;-;-;-;-;-;-;-;-;-
1514189293943;-;-;5.904587;-1.0771942;-4.11734;-;-;-;-;-;-;-;-;-;-;-;-;-;-;-
1514189293963;-;-;5.5873566;-0.7372284;-4.6296997;-;-;-;-;-;-;-;-;-;-;-;-;-;-;-
1514189293984;-;-;5.596939;-1.0029755;-4.4190063;-;-;-;-;-;-;-;-;-;-;-;-;-;-;-
1514189294004;-;-;9.531799;-3.0440369;-2.831665;-;-;-;-;-;-;-;-;-;-;-;-;-;-;-
1514189294024;-;-;12.680176;-5.847641;-2.6616669;-;-;-;-;-;-;-;-;-;-;-;-;-;-;-
1514189294044;-;-;14.784683;-7.9760895;-3.1309357;-;-;-;-;-;-;-;-;-;-;-;-;-;-;-
1514189294064;-;-;18.083893;-5.8691864;-2.3037415;-;-;-;-;-;-;-;-;-;-;-;-;-;-;-
1514189294085;-;-;18.893143;-2.103119;-3.5343628;-;-;-;-;-;-;-;-;-;-;-;-;-;-;-
1514189294105;-;-;13.913193;0.021743774;-6.7509613;-;-;-;-;-;-;-;-;-;-;-;-;-;-;-
1514189294125;-;-;10.199783;-2.3904114;-11.5776825;-;-;-;-;-;-;-;-;-;-;-;-;-;-;-
1514189294145;-;-;7.7732697;-5.306549;-8.78125;-;-;-;-;-;-;-;-;-;-;-;-;-;-;-
1514189294166;-;-;8.994308;-3.9322815;0.009063721;-;-;-;-;-;-;-;-;-;-;-;-;-;-;-
1514189294186;-;-;8.165909;-1.9582672;-9.41452;-;-;-;-;-;-;-;-;-;-;-;-;-;-;-
1514189294206;-;-;5.513138;0.05166626;-13.060883;-;-;-;-;-;-;-;-;-;-;-;-;-;-;-
1514189294226;-;-;8.72496;3.161728;-4.9792633;-;-;-;-;-;-;-;-;-;-;-;-;-;-;-
1514189294247;-;-;9.148727;3.706421;-2.9417877;-;-;-;-;-;-;-;-;-;-;-;-;-;-;-
1514189294267;-;-;5.8746643;1.6126862;-3.1656494;-;-;-;-;-;-;-;-;-;-;-;-;-;-;-
1514189294287;-;-;3.7713623;-0.03930664;-2.673645;-;-;-;-;-;-;-;-;-;-;-;-;-;-;-
1514189294308;-;-;3.6612244;-2.2994385;-1.6644897;-;-;-;-;-;-;-;-;-;-;-;-;-;-;-
1514189294328;-;-;4.1125336;-4.555969;-2.294159;-;-;-;-;-;-;-;-;-;-;-;-;-;-;-
1514189294348;-;-;3.2829437;-3.1817017;-2.8974915;-;-;-;-;-;-;-;-;-;-;-;-;-;-;-
1514189294368;-;-;2.3970795;0.54248047;-2.9142609;-;-;-;-;-;-;-;-;-;-;-;-;-;-;-
1514189294389;-;-;3.0411224;3.1593475;-3.6408997;-;-;-;-;-;-;-;-;-;-;-;-;-;-;-
1514189294409;-;-;5.4676514;3.9589996;-4.2059326;-;-;-;-;-;-;-;-;-;-;-;-;-;-;-
1514189294429;-;-;8.8051605;2.4123535;-4.61174;-;-;-;-;-;-;-;-;-;-;-;-;-;-;-
1514189294450;-;-;10.168671;1.062027;-4.738632;-;-;-;-;-;-;-;-;-;-;-;-;-;-;-
1514189294470;-;-;10.276398;0.7842865;-4.2610016;-;-;-;-;-;-;-;-;-;-;-;-;-;-;-
1514189294491;-;-;11.192184;0.9028015;-2.6353302;-;-;-;-;-;-;-;-;-;-;-;-;-;-;-
1514189294511;-;-;11.603989;1.4391022;-1.5124512;-;-;-;-;-;-;-;-;-;-;-;-;-;-;-
1514189294530;-;-;13.993408;1.6150818;-1.1616974;-;-;-;-;-;-;-;-;-;-;-;-;-;-;-
1514189294550;-;-;13.941925;0.8740692;-1.9613647;-;-;-;-;-;-;-;-;-;-;-;-;-;-;-
1514189294570;-;-;11.660248;-1.5500488;-1.8117218;-;-;-;-;-;-;-;-;-;-;-;-;-;-;-
1514189294591;-;-;8.687851;-2.0995178;-10.447617;-;-;-;-;-;-;-;-;-;-;-;-;-;-;-
1514189294611;-;-;8.52504;2.370453;-6.6324463;-;-;-;-;-;-;-;-;-;-;-;-;-;-;-
1514189294631;-;-;12.003815;4.758667;-2.0355835;-;-;-;-;-;-;-;-;-;-;-;-;-;-;-
1514189294652;-;-;9.230133;1.9227295;-10.089676;-;-;-;-;-;-;-;-;-;-;-;-;-;-;-
1514189294671;-;-;6.4253235;-0.23443604;-8.667526;-;-;-;-;-;-;-;-;-;-;-;-;-;-;-
1514189294691;-;-;4.9026184;-1.7379913;-4.975662;-;-;-;-;-;-;-;-;-;-;-;-;-;-;-
1514189294711;-;-;7.2740784;-4.7654724;-1.7758179;-;-;-;-;-;-;-;-;-;-;-;-;-;-;-
1514189294732;-;-;7.829529;-3.305008;-3.5391388;-;-;-;-;-;-;-;-;-;-;-;-;-;-;-
1514189294752;-;-;8.299988;0.43115234;-3.2578278;-;-;-;-;-;-;-;-;-;-;-;-;-;-;-
1514189294772;-;-;5.947693;1.461853;-1.634552;-;-;-;-;-;-;-;-;-;-;-;-;-;-;-
1514189294793;-;-;3.537918;1.3409424;-2.5838623;-;-;-;-;-;-;-;-;-;-;-;-;-;-;-
1514189294813;-;-;1.9888763;0.1438446;-2.7837677;-;-;-;-;-;-;-;-;-;-;-;-;-;-;-
1514189294833;-;-;1.580658;-2.329361;-2.3516235;-;-;-;-;-;-;-;-;-;-;-;-;-;-;-
1514189294854;-;-;3.3344116;-5.020447;-2.7945404;-;-;-;-;-;-;-;-;-;-;-;-;-;-;-
1514189294875;-;-;6.6575623;-5.435837;-2.9046783;-;-;-;-;-;-;-;-;-;-;-;-;-;-;-
1514189294895;-;-;9.246902;-3.6617432;-2.8855286;-;-;-;-;-;-;-;-;-;-;-;-;-;-;-
1514189294914;-;-;10.429626;-2.245575;-2.9920654;-;-;-;-;-;-;-;-;-;-;-;-;-;-;-
1514189294934;-;-;9.760452;-2.0731812;-3.6037903;-;-;-;-;-;-;-;-;-;-;-;-;-;-;-
1514189294955;-;-;7.7912292;-2.4454803;-3.2853546;-;-;-;-;-;-;-;-;-;-;-;-;-;-;-
1514189294975;-;-;6.778473;-2.1617737;-2.8974915;-;-;-;-;-;-;-;-;-;-;-;-;-;-;-
1514189294995;-;-;7.609268;-2.6226501;-2.7011719;-;-;-;-;-;-;-;-;-;-;-;-;-;-;-
1514189295015;-;-;9.527023;-2.9003906;-3.3045197;-;-;-;-;-;-;-;-;-;-;-;-;-;-;-
1514189295036;-;-;12.109161;-2.933899;-3.4122467;-;-;-;-;-;-;-;-;-;-;-;-;-;-;-
1514189295056;-;-;14.074799;-3.384018;-3.1249542;-;-;-;-;-;-;-;-;-;-;-;-;-;-;-
1514189295076;-;-;15.593918;-2.6741333;-3.0591125;-;-;-;-;-;-;-;-;-;-;-;-;-;-;-
1514189295097;-;-;13.191345;-0.7156677;-2.73349;-;-;-;-;-;-;-;-;-;-;-;-;-;-;-
1514189295117;-;-;9.934036;-2.088745;-7.5614014;-;-;-;-;-;-;-;-;-;-;-;-;-;-;-
1514189295137;-;-;8.414917;-6.077484;-8.52507;-;-;-;-;-;-;-;-;-;-;-;-;-;-;-
1514189295158;-;-;8.989517;-6.543167;0.46395874;-;-;-;-;-;-;-;-;-;-;-;-;-;-;-
1514189295178;-;-;9.17627;-2.8357391;-3.6133575;-;-;-;-;-;-;-;-;-;-;-;-;-;-;-
1514189295198;-;-;9.209793;-0.9191742;-8.36705;-;-;-;-;-;-;-;-;-;-;-;-;-;-;-
1514189295218;-;-;6.592926;0.9459076;-7.0598145;-;-;-;-;-;-;-;-;-;-;-;-;-;-;-
1514189295239;-;-;7.5601807;1.3912201;-4.863144;-;-;-;-;-;-;-;-;-;-;-;-;-;-;-
1514189295258;-;-;7.7445374;-0.59477234;-2.468933;-;-;-;-;-;-;-;-;-;-;-;-;-;-;-
1514189295278;-;-;6.252945;-2.9841766;-2.562317;-;-;-;-;-;-;-;-;-;-;-;-;-;-;-
1514189295299;-;-;6.699463;-3.598297;-1.8943329;-;-;-;-;-;-;-;-;-;-;-;-;-;-;-
1514189295319;-;-;7.114853;-2.863266;-2.6568756;-;-;-;-;-;-;-;-;-;-;-;-;-;-;-
1514189295339;-;-;7.4320984;-0.9539032;-3.6528625;-;-;-;-;-;-;-;-;-;-;-;-;-;-;-
1514189295360;-;-;6.9305115;1.0045624;-3.887497;-;-;-;-;-;-;-;-;-;-;-;-;-;-;-
1514189295380;-;-;5.751358;2.849289;-4.539917;-;-;-;-;-;-;-;-;-;-;-;-;-;-;-
1514189295400;-;-;4.721863;3.5950928;-4.5901947;-;-;-;-;-;-;-;-;-;-;-;-;-;-;-
1514189295420;-;-;5.0462646;2.572754;-4.472885;-;-;-;-;-;-;-;-;-;-;-;-;-;-;-
1514189295441;-;-;6.7138367;0.08758545;-4.4034576;-;-;-;-;-;-;-;-;-;-;-;-;-;-;-
1514189295461;-;-;5.917755;-0.79348755;-3.7761688;-;-;-;-;-;-;-;-;-;-;-;-;-;-;-
1514189295481;-;-;5.1276703;-1.1562042;-3.0483398;-;-;-;-;-;-;-;-;-;-;-;-;-;-;-
1514189295501;-;-;4.9109955;-0.91200256;-1.9290466;-;-;-;-;-;-;-;-;-;-;-;-;-;-;-
1514189295522;-;-;6.1715393;-0.54089355;-0.91030884;-;-;-;-;-;-;-;-;-;-;-;-;-;-;-
1514189295543;-;-;7.5757446;-0.22964478;-0.7080078;-;-;-;-;-;-;-;-;-;-;-;-;-;-;-
1514189295563;-;-;8.459198;0.14624023;-0.90193176;-;-;-;-;-;-;-;-;-;-;-;-;-;-;-
1514189295583;-;-;9.458786;0.4479065;-1.6620941;-;-;-;-;-;-;-;-;-;-;-;-;-;-;-
1514189295603;-;-;10.846222;0.6250763;-1.3987274;-;-;-;-;-;-;-;-;-;-;-;-;-;-;-
1514189295624;-;-;10.993469;0.3904419;-2.0523376;-;-;-;-;-;-;-;-;-;-;-;-;-;-;-
1514189295644;-;-;10.115997;0.2515869;-1.9434052;-;-;-;-;-;-;-;-;-;-;-;-;-;-;-
1514189295664;-;-;8.838684;0.081588745;-0.4338684;-;-;-;-;-;-;-;-;-;-;-;-;-;-;-
1514189295685;-;-;9.143951;-0.0105896;-2.144516;-;-;-;-;-;-;-;-;-;-;-;-;-;-;-
1514189295704;-;-;8.232956;1.0105438;-10.035812;-;-;-;-;-;-;-;-;-;-;-;-;-;-;-
1514189295724;-;-;6.019516;3.76268;-12.352203;-;-;-;-;-;-;-;-;-;-;-;-;-;-;-
1514189295745;-;-;4.23584;5.344055;-5.2533875;-;-;-;-;-;-;-;-;-;-;-;-;-;-;-
1514189295764;-;-;9.388153;1.3553162;-7.6320343;-;-;-;-;-;-;-;-;-;-;-;-;-;-;-
1514189295784;-;-;15.249161;-4.7271576;-9.118835;-;-;-;-;-;-;-;-;-;-;-;-;-;-;-
1514189295805;-;-;14.520126;-6.230713;-10.970749;-;-;-;-;-;-;-;-;-;-;-;-;-;-;-
1514189295824;-;-;12.963898;-0.8641205;-5.1791687;-;-;-;-;-;-;-;-;-;-;-;-;-;-;-
1514189295844;-;-;10.578079;2.7247925;-5.0127716;-;-;-;-;-;-;-;-;-;-;-;-;-;-;-
1514189295865;-;-;11.502228;1.4355164;-6.7521667;-;-;-;-;-;-;-;-;-;-;-;-;-;-;-
1514189295885;-;-;7.8546753;-0.078811646;-6.5426636;-;-;-;-;-;-;-;-;-;-;-;-;-;-;-
1514189295905;-;-;3.3056793;-1.3453522;-4.833206;-;-;-;-;-;-;-;-;-;-;-;-;-;-;-
1514189295925;-;-;2.6101685;-2.3676758;-4.907425;-;-;-;-;-;-;-;-;-;-;-;-;-;-;-
1514189295946;-;-;2.865158;-2.739975;-4.393875;-;-;-;-;-;-;-;-;-;-;-;-;-;-;-
1514189295966;-;-;5.588562;-2.2802887;-3.8455963;-;-;-;-;-;-;-;-;-;-;-;-;-;-;-
1514189295986;-;-;7.671509;-2.2371826;-4.021576;-;-;-;-;-;-;-;-;-;-;-;-;-;-;-
1514189296007;-;-;7.10289;-3.7455444;-3.3152924;-;-;-;-;-;-;-;-;-;-;-;-;-;-;-
1514189296027;-;-;5.1240845;-4.1884613;-2.8783417;-;-;-;-;-;-;-;-;-;-;-;-;-;-;-
1514189296047;-;-;4.383072;-4.230362;-2.4030914;-;-;-;-;-;-;-;-;-;-;-;-;-;-;-
1514189296067;-;-;5.0618286;-4.02446;-1.8943329;-;-;-;-;-;-;-;-;-;-;-;-;-;-;-
1514189296088;-;-;5.758545;-3.7658844;-1.8404541;-;-;-;-;-;-;-;-;-;-;-;-;-;-;-
1514189296108;-;-;7.4716034;-3.3433075;-1.6848297;-;-;-;-;-;-;-;-;-;-;-;-;-;-;-
1514189296129;-;-;9.3941345;-2.1773376;-1.5136566;-;-;-;-;-;-;-;-;-;-;-;-;-;-;-
1514189296149;-;-;10.848618;-1.2962646;-1.3699951;-;-;-;-;-;-;-;-;-;-;-;-;-;-;-
1514189296169;-;-;11.053314;-2.2036743;-1.0587463;-;-;-;-;-;-;-;-;-;-;-;-;-;-;-
1514189296189;-;-;10.862976;-4.0112915;-1.6992035;-;-;-;-;-;-;-;-;-;-;-;-;-;-;-
1514189296210;-;-;10.628357;-6.6401215;-1.9697418;-;-;-;-;-;-;-;-;-;-;-;-;-;-;-
1514189296230;-;-;10.947983;-5.0108795;-1.8823547;-;-;-;-;-;-;-;-;-;-;-;-;-;-;-
1514189296250;-;-;10.121979;-2.554428;-2.761032;-;-;-;-;-;-;-;-;-;-;-;-;-;-;-
1514189296270;-;-;10.675034;-1.0341034;-9.778427;-;-;-;-;-;-;-;-;-;-;-;-;-;-;-
1514189296291;-;-;11.987061;1.9406891;-10.163895;-;-;-;-;-;-;-;-;-;-;-;-;-;-;-
1514189296311;-;-;11.128738;4.308563;-6.7162476;-;-;-;-;-;-;-;-;-;-;-;-;-;-;-
1514189296332;-;-;8.218582;3.4921417;-6.521118;-;-;-;-;-;-;-;-;-;-;-;-;-;-;-
1514189296352;-;-;7.7517242;0.19293213;-6.943695;-;-;-;-;-;-;-;-;-;-;-;-;-;-;-
1514189296372;-;-;8.789597;-1.878067;-5.575409;-;-;-;-;-;-;-;-;-;-;-;-;-;-;-
1514189296392;-;-;9.947205;-1.9833984;-4.5842133;-;-;-;-;-;-;-;-;-;-;-;-;-;-;-
1514189296412;-;-;9.487518;-0.58039856;-4.6608276;-;-;-;-;-;-;-;-;-;-;-;-;-;-;-
1514189296433;-;-;7.851074;0.5771942;-3.9916534;-;-;-;-;-;-;-;-;-;-;-;-;-;-;-
1514189296453;-;-;6.6862946;0.4084015;-2.9489746;-;-;-;-;-;-;-;-;-;-;-;-;-;-;-
1514189296474;-;-;7.110077;0.6166992;-2.163681;-;-;-;-;-;-;-;-;-;-;-;-;-;-;-
1514189296494;-;-;6.3894196;0.3712921;-2.3564148;-;-;-;-;-;-;-;-;-;-;-;-;-;-;-
1514189296514;-;-;4.721863;0.13546753;-2.365982;-;-;-;-;-;-;-;-;-;-;-;-;-;-;-
1514189296534;-;-;5.197098;-0.17219543;-1.7722168;-;-;-;-;-;-;-;-;-;-;-;-;-;-;-
1514189296555;-;-;7.6152496;-0.8138428;-1.2024078;-;-;-;-;-;-;-;-;-;-;-;-;-;-;-
1514189296575;-;-;9.17627;-1.4447021;-1.2024078;-;-;-;-;-;-;-;-;-;-;-;-;-;-;-
1514189296595;-;-;8.5238495;-0.8605194;-1.2275391;-;-;-;-;-;-;-;-;-;-;-;-;-;-;-
1514189296616;-;-;9.015854;0.68133545;0.07609558;-;-;-;-;-;-;-;-;-;-;-;-;-;-;-
1514189296636;-;-;10.8965;1.461853;0.041381836;-;-;-;-;-;-;-;-;-;-;-;-;-;-;-
1514189296656;-;-;10.556519;1.3325653;-2.0487518;-;-;-;-;-;-;-;-;-;-;-;-;-;-;-
1514189296676;-;-;10.1566925;1.6067047;-0.06036377;-;-;-;-;-;-;-;-;-;-;-;-;-;-;-
1514189296697;-;-;11.793137;1.461853;1.0876465;-;-;-;-;-;-;-;-;-;-;-;-;-;-;-
1514189296716;-;-;13.366119;2.4398804;-1.4681549;-;-;-;-;-;-;-;-;-;-;-;-;-;-;-
1514189296736;-;-;14.511749;4.2391205;-4.3962708;-;-;-;-;-;-;-;-;-;-;-;-;-;-;-
1514189296756;-;-;13.812637;5.6924133;-4.1460724;-;-;-;-;-;-;-;-;-;-;-;-;-;-;-
1514189296777;-;-;12.009811;2.3010254;-6.09256;-;-;-;-;-;-;-;-;-;-;-;-;-;-;-
1514189296797;-;-;8.817139;2.2148285;-6.6528015;-;-;-;-;-;-;-;-;-;-;-;-;-;-;-
1514189296817;-;-;6.699463;1.8281708;-8.10968;-;-;-;-;-;-;-;-;-;-;-;-;-;-;-
1514189296838;-;-;6.2146454;-0.62350464;-8.823151;-;-;-;-;-;-;-;-;-;-;-;-;-;-;-
1514189296858;-;-;8.8003845;-3.0775604;-6.9844055;-;-;-;-;-;-;-;-;-;-;-;-;-;-;-
1514189296878;-;-;9.495895;-2.930313;-5.097763;-;-;-;-;-;-;-;-;-;-;-;-;-;-;-
1514189296899;-;-;9.287598;-1.2579651;-4.9158173;-;-;-;-;-;-;-;-;-;-;-;-;-;-;-
1514189296918;-;-;8.437653;0.13905334;-4.341202;-;-;-;-;-;-;-;-;-;-;-;-;-;-;-
1514189296939;-;-;8.201828;0.38206482;-3.259018;-;-;-;-;-;-;-;-;-;-;-;-;-;-;-
1514189296959;-;-;7.4440613;-0.23803711;-2.6245575;-;-;-;-;-;-;-;-;-;-;-;-;-;-;-
1514189296979;-;-;6.182312;-1.0341034;-2.0942383;-;-;-;-;-;-;-;-;-;-;-;-;-;-;-
1514189296999;-;-;4.834381;-2.0923462;-1.2395172;-;-;-;-;-;-;-;-;-;-;-;-;-;-;-
1514189297020;-;-;3.5726318;-2.8477173;-1.0599518;-;-;-;-;-;-;-;-;-;-;-;-;-;-;-
1514189297040;-;-;3.458908;-3.0344543;-2.1780396;-;-;-;-;-;-;-;-;-;-;-;-;-;-;-
1514189297059;-;-;5.313217;-2.368866;-2.8484192;-;-;-;-;-;-;-;-;-;-;-;-;-;-;-
1514189297080;-;-;7.427307;-1.1598053;-2.9968567;-;-;-;-;-;-;-;-;-;-;-;-;-;-;-
1514189297100;-;-;9.193024;-0.27394104;-3.7558136;-;-;-;-;-;-;-;-;-;-;-;-;-;-;-
1514189297120;-;-;8.790802;-0.93833923;-4.8463745;-;-;-;-;-;-;-;-;-;-;-;-;-;-;-
1514189297140;-;-;8.594482;-3.2571259;-4.3675385;-;-;-;-;-;-;-;-;-;-;-;-;-;-;-
1514189297160;-;-;10.655884;-4.2566986;-2.8388367;-;-;-;-;-;-;-;-;-;-;-;-;-;-;-
1514189297181;-;-;11.673416;-4.0268555;-2.9369965;-;-;-;-;-;-;-;-;-;-;-;-;-;-;-
1514189297201;-;-;13.17099;-3.3301392;-3.2255096;-;-;-;-;-;-;-;-;-;-;-;-;-;-;-
1514189297221;-;-;14.481812;-1.9415131;-2.4078827;-;-;-;-;-;-;-;-;-;-;-;-;-;-;-
1514189297242;-;-;12.146271;-2.399994;-5.8699036;-;-;-;-;-;-;-;-;-;-;-;-;-;-;-
1514189297262;-;-;9.197815;-6.503662;-12.389313;-;-;-;-;-;-;-;-;-;-;-;-;-;-;-
1514189297282;-;-;9.284012;-5.8260956;-5.626892;-;-;-;-;-;-;-;-;-;-;-;-;-;-;-
1514189297302;-;-;9.261261;-1.2639465;-2.4737244;-;-;-;-;-;-;-;-;-;-;-;-;-;-;-
1514189297323;-;-;6.6707306;1.2068634;-8.8004;-;-;-;-;-;-;-;-;-;-;-;-;-;-;-
1514189297343;-;-;5.394623;2.754715;-8.134811;-;-;-;-;-;-;-;-;-;-;-;-;-;-;-
1514189297363;-;-;7.2704773;2.0077362;-4.744629;-;-;-;-;-;-;-;-;-;-;-;-;-;-;-
1514189297384;-;-;7.119644;-0.51815796;-3.2662048;-;-;-;-;-;-;-;-;-;-;-;-;-;-;-
1514189297404;-;-;4.778122;-1.8948212;-2.4569702;-;-;-;-;-;-;-;-;-;-;-;-;-;-;-
1514189297424;-;-;4.418991;-2.1102905;-1.8596191;-;-;-;-;-;-;-;-;-;-;-;-;-;-;-
1514189297445;-;-;4.8403625;-2.5831451;-1.9003143;-;-;-;-;-;-;-;-;-;-;-;-;-;-;-
1514189297465;-;-;5.510742;-2.1737366;-2.9824982;-;-;-;-;-;-;-;-;-;-;-;-;-;-;-
1514189297485;-;-;5.102539;-0.7515869;-3.6480865;-;-;-;-;-;-;-;-;-;-;-;-;-;-;-
1514189297506;-;-;5.316818;1.3026428;-4.5961914;-;-;-;-;-;-;-;-;-;-;-;-;-;-;-
1514189297525;-;-;5.3563232;2.9953308;-4.3400116;-;-;-;-;-;-;-;-;-;-;-;-;-;-;-
1514189297545;-;-;8.970367;2.1489868;-3.0603027;-;-;-;-;-;-;-;-;-;-;-;-;-;-;-
1514189297566;-;-;11.899673;0.4371338;-4.1987457;-;-;-;-;-;-;-;-;-;-;-;-;-;-;-
1514189297586;-;-;9.880157;2.2076416;-3.448166;-;-;-;-;-;-;-;-;-;-;-;-;-;-;-
1514189297606;-;-;10.20697;2.2303925;-1.0683289;-;-;-;-;-;-;-;-;-;-;-;-;-;-;-
1514189297626;-;-;11.979874;0.9351349;-0.46499634;-;-;-;-;-;-;-;-;-;-;-;-;-;-;-
1514189297647;-;-;12.740036;1.2068634;-2.2917633;-;-;-;-;-;-;-;-;-;-;-;-;-;-;-
1514189297666;-;-;10.800735;0.15342712;-1.8979187;-;-;-;-;-;-;-;-;-;-;-;-;-;-;-
1514189297686;-;-;8.964386;-0.7192688;-7.022705;-;-;-;-;-;-;-;-;-;-;-;-;-;-;-
1514189297707;-;-;9.195419;2.3500977;-7.8918;-;-;-;-;-;-;-;-;-;-;-;-;-;-;-
1514189297727;-;-;13.753983;3.6238098;-5.3156433;-;-;-;-;-;-;-;-;-;-;-;-;-;-;-
1514189297747;-;-;11.823059;1.2164459;-6.6372375;-;-;-;-;-;-;-;-;-;-;-;-;-;-;-
1514189297768;-;-;7.4045563;-1.0089569;-6.404999;-;-;-;-;-;-;-;-;-;-;-;-;-;-;-
1514189297788;-;-;4.5147552;-2.1091003;-5.034317;-;-;-;-;-;-;-;-;-;-;-;-;-;-;-
1514189297808;-;-;4.897827;-3.3792267;-2.207962;-;-;-;-;-;-;-;-;-;-;-;-;-;-;-
1514189297829;-;-;6.577362;-3.7706757;-1.9230652;-;-;-;-;-;-;-;-;-;-;-;-;-;-;-
1514189297848;-;-;8.965576;-1.1166992;-3.152481;-;-;-;-;-;-;-;-;-;-;-;-;-;-;-
1514189297868;-;-;7.9348755;0.793869;-1.4334412;-;-;-;-;-;-;-;-;-;-;-;-;-;-;-
1514189297889;-;-;6.106903;0.98301697;-2.3588104;-;-;-;-;-;-;-;-;-;-;-;-;-;-;-
1514189297909;-;-;4.6787567;0.2850952;-2.7753906;-;-;-;-;-;-;-;-;-;-;-;-;-;-;-
1514189297929;-;-;3.4277954;-1.230423;-2.5563202;-;-;-;-;-;-;-;-;-;-;-;-;-;-;-
1514189297949;-;-;3.1392822;-3.0548096;-3.1105804;-;-;-;-;-;-;-;-;-;-;-;-;-;-;-
1514189297970;-;-;4.755371;-3.9167175;-3.120163;-;-;-;-;-;-;-;-;-;-;-;-;-;-;-
1514189297990;-;-;7.1842957;-3.0380554;-2.6987762;-;-;-;-;-;-;-;-;-;-;-;-;-;-;-
1514189298010;-;-;8.608841;-1.4387207;-3.1069946;-;-;-;-;-;-;-;-;-;-;-;-;-;-;-
1514189298031;-;-;8.605255;-1.3896484;-2.9585571;-;-;-;-;-;-;-;-;-;-;-;-;-;-;-
1514189298052;-;-;7.980362;-1.7846832;-3.001648;-;-;-;-;-;-;-;-;-;-;-;-;-;-;-
1514189298071;-;-;8.945221;-2.3233795;-2.5994263;-;-;-;-;-;-;-;-;-;-;-;-;-;-;-
1514189298092;-;-;10.264435;-4.2243805;-2.3037415;-;-;-;-;-;-;-;-;-;-;-;-;-;-;-
1514189298112;-;-;12.12114;-5.581894;-1.7243347;-;-;-;-;-;-;-;-;-;-;-;-;-;-;-
1514189298133;-;-;13.50618;-4.8803864;-1.9170685;-;-;-;-;-;-;-;-;-;-;-;-;-;-;-
1514189298153;-;-;13.951508;-3.1026917;-5.832794;-;-;-;-;-;-;-;-;-;-;-;-;-;-;-
1514189298173;-;-;12.790314;-3.6844788;-11.004272;-;-;-;-;-;-;-;-;-;-;-;-;-;-;-
1514189298193;-;-;13.333801;-5.7770233;-7.1579742;-;-;-;-;-;-;-;-;-;-;-;-;-;-;-
1514189298214;-;-;11.745239;-5.3113403;-3.998825;-;-;-;-;-;-;-;-;-;-;-;-;-;-;-
1514189298234;-;-;10.649902;-2.8453217;-5.3551483;-;-;-;-;-;-;-;-;-;-;-;-;-;-;-
1514189298254;-;-;8.68306;-1.4111938;-6.2888794;-;-;-;-;-;-;-;-;-;-;-;-;-;-;-
1514189298274;-;-;7.257309;-0.37809753;-4.899048;-;-;-;-;-;-;-;-;-;-;-;-;-;-;-
1514189298295;-;-;6.027893;-1.6577911;-3.9246063;-;-;-;-;-;-;-;-;-;-;-;-;-;-;-
1514189298315;-;-;5.3419495;-2.6908875;-1.8667908;-;-;-;-;-;-;-;-;-;-;-;-;-;-;-
1514189298335;-;-;5.691513;-1.3226013;-1.3891449;-;-;-;-;-;-;-;-;-;-;-;-;-;-;-
1514189298355;-;-;7.4763794;-0.56962585;-2.3695831;-;-;-;-;-;-;-;-;-;-;-;-;-;-;-
1514189298375;-;-;7.8750153;0.8166199;-4.3352203;-;-;-;-;-;-;-;-;-;-;-;-;-;-;-
1514189298396;-;-;5.437729;1.9598389;-5.461685;-;-;-;-;-;-;-;-;-;-;-;-;-;-;-
1514189298416;-;-;3.861145;3.0731506;-3.8060913;-;-;-;-;-;-;-;-;-;-;-;-;-;-;-
1514189298436;-;-;4.608124;2.2818604;-1.9062958;-;-;-;-;-;-;-;-;-;-;-;-;-;-;-
1514189298457;-;-;5.9201508;-0.18057251;-2.191208;-;-;-;-;-;-;-;-;-;-;-;-;-;-;-
1514189298477;-;-;6.2553406;-1.7080688;-4.2143097;-;-;-;-;-;-;-;-;-;-;-;-;-;-;-
1514189298498;-;-;5.0642242;-1.1585999;-3.238678;-;-;-;-;-;-;-;-;-;-;-;-;-;-;-
1514189298518;-;-;4.508774;0.02053833;-1.595047;-;-;-;-;-;-;-;-;-;-;-;-;-;-;-
1514189298538;-;-;5.7573547;0.8800659;-0.8025665;-;-;-;-;-;-;-;-;-;-;-;-;-;-;-
1514189298558;-;-;7.7289734;1.7850647;-1.4442139;-;-;-;-;-;-;-;-;-;-;-;-;-;-;-
1514189298579;-;-;10.391327;1.8808441;-1.792572;-;-;-;-;-;-;-;-;-;-;-;-;-;-;-
1514189298599;-;-;12.011002;1.5827637;-3.3188782;-;-;-;-;-;-;-;-;-;-;-;-;-;-;-
1514189298619;-;-;12.467102;1.5600128;-5.3755035;-;-;-;-;-;-;-;-;-;-;-;-;-;-;-
1514189298640;-;-;11.953537;-0.39964294;-8.153961;-;-;-;-;-;-;-;-;-;-;-;-;-;-;-
1514189298660;-;-;18.636963;0.4874115;-5.9417267;-;-;-;-;-;-;-;-;-;-;-;-;-;-;-
1514189298680;-;-;16.672516;3.2167969;-6.6061096;-;-;-;-;-;-;-;-;-;-;-;-;-;-;-
1514189298701;-;-;11.642288;2.0520172;-9.51387;-;-;-;-;-;-;-;-;-;-;-;-;-;-;-
1514189298720;-;-;6.9975433;1.9706268;-9.11763;-;-;-;-;-;-;-;-;-;-;-;-;-;-;-
1514189298740;-;-;3.9437408;-1.1298676;-4.642868;-;-;-;-;-;-;-;-;-;-;-;-;-;-;-
1514189298761;-;-;5.0091553;-5.1293793;-3.2554321;-;-;-;-;-;-;-;-;-;-;-;-;-;-;-
1514189298780;-;-;7.3111877;-6.112198;-3.4661255;-;-;-;-;-;-;-;-;-;-;-;-;-;-;-
1514189298800;-;-;8.911713;-2.372467;-4.1376953;-;-;-;-;-;-;-;-;-;-;-;-;-;-;-
1514189298821;-;-;7.5685577;0.48382568;-1.9517822;-;-;-;-;-;-;-;-;-;-;-;-;-;-;-
1514189298841;-;-;6.304428;1.734787;-2.021225;-;-;-;-;-;-;-;-;-;-;-;-;-;-;-
1514189298861;-;-;4.1041565;1.580368;-3.6648407;-;-;-;-;-;-;-;-;-;-;-;-;-;-;-
1514189298881;-;-;3.4086304;-0.5612488;-2.021225;-;-;-;-;-;-;-;-;-;-;-;-;-;-;-
1514189298902;-;-;3.7198792;-2.6561737;-2.1648712;-;-;-;-;-;-;-;-;-;-;-;-;-;-;-
1514189298922;-;-;3.9281769;-4.314163;-3.3715515;-;-;-;-;-;-;-;-;-;-;-;-;-;-;-
1514189298943;-;-;6.6060944;-4.571533;-3.7462463;-;-;-;-;-;-;-;-;-;-;-;-;-;-;-
1514189298963;-;-;9.279221;-2.9159393;-3.2159271;-;-;-;-;-;-;-;-;-;-;-;-;-;-;-
1514189298983;-;-;9.442017;-1.0029755;-3.1093903;-;-;-;-;-;-;-;-;-;-;-;-;-;-;-
1514189299004;-;-;7.304001;-1.1538086;-4.4393616;-;-;-;-;-;-;-;-;-;-;-;-;-;-;-
1514189299023;-;-;6.482788;-3.2942352;-4.7326508;-;-;-;-;-;-;-;-;-;-;-;-;-;-;-
1514189299043;-;-;10.776794;-4.1262207;-3.527176;-;-;-;-;-;-;-;-;-;-;-;-;-;-;-
1514189299064;-;-;13.088394;-3.1601563;-3.408661;-;-;-;-;-;-;-;-;-;-;-;-;-;-;-
1514189299084;-;-;14.072403;-2.514923;-4.069458;-;-;-;-;-;-;-;-;-;-;-;-;-;-;-
1514189299105;-;-;15.866867;-1.1226959;-3.1728363;-;-;-;-;-;-;-;-;-;-;-;-;-;-;-
1514189299124;-;-;14.19931;-1.5368805;-7.7170258;-;-;-;-;-;-;-;-;-;-;-;-;-;-;-
1514189299144;-;-;13.0620575;-3.8113708;-9.43486;-;-;-;-;-;-;-;-;-;-;-;-;-;-;-
1514189299165;-;-;9.685028;-6.3827515;-2.124176;-;-;-;-;-;-;-;-;-;-;-;-;-;-;-
1514189299184;-;-;7.9815674;-5.238327;-0.7343445;-;-;-;-;-;-;-;-;-;-;-;-;-;-;-
1514189299204;-;-;7.209427;-4.9091187;-5.6173096;-;-;-;-;-;-;-;-;-;-;-;-;-;-;-
1514189299225;-;-;5.534683;-3.3552856;-8.078552;-;-;-;-;-;-;-;-;-;-;-;-;-;-;-
1514189299245;-;-;6.647995;-0.70370483;-4.244232;-;-;-;-;-;-;-;-;-;-;-;-;-;-;-
1514189299265;-;-;5.6544037;1.1529999;-1.5004883;-;-;-;-;-;-;-;-;-;-;-;-;-;-;-
1514189299286;-;-;4.7050934;2.0615997;-2.1121979;-;-;-;-;-;-;-;-;-;-;-;-;-;-;-
1514189299306;-;-;5.5227203;1.1577911;-3.389511;-;-;-;-;-;-;-;-;-;-;-;-;-;-;-
1514189299326;-;-;5.821991;0.062438965;-3.8455963;-;-;-;-;-;-;-;-;-;-;-;-;-;-;-
1514189299347;-;-;5.509552;-0.1985321;-3.9078522;-;-;-;-;-;-;-;-;-;-;-;-;-;-;-
1514189299367;-;-;4.356735;1.1290588;-3.2183228;-;-;-;-;-;-;-;-;-;-;-;-;-;-;-
1514189299387;-;-;3.6229095;2.1956787;-3.2290955;-;-;-;-;-;-;-;-;-;-;-;-;-;-;-
1514189299408;-;-;3.7474213;1.829361;-3.9138336;-;-;-;-;-;-;-;-;-;-;-;-;-;-;-
1514189299428;-;-;6.723404;0.3677063;-4.4190063;-;-;-;-;-;-;-;-;-;-;-;-;-;-;-
1514189299448;-;-;9.5677185;-0.5337219;-4.0311584;-;-;-;-;-;-;-;-;-;-;-;-;-;-;-
1514189299468;-;-;9.586868;-0.5528717;-3.3128967;-;-;-;-;-;-;-;-;-;-;-;-;-;-;-
1514189299489;-;-;10.250061;-0.15782166;-2.1134033;-;-;-;-;-;-;-;-;-;-;-;-;-;-;-
1514189299509;-;-;10.520615;2.073578;-0.91989136;-;-;-;-;-;-;-;-;-;-;-;-;-;-;-
1514189299529;-;-;12.463501;3.2383423;-0.67448425;-;-;-;-;-;-;-;-;-;-;-;-;-;-;-
1514189299550;-;-;12.43837;1.8161926;-2.5599213;-;-;-;-;-;-;-;-;-;-;-;-;-;-;-
1514189299570;-;-;11.056915;0.25756836;-4.2849426;-;-;-;-;-;-;-;-;-;-;-;-;-;-;-
1514189299590;-;-;10.763626;1.3876343;-6.176361;-;-;-;-;-;-;-;-;-;-;-;-;-;-;-
1514189299610;-;-;12.668213;2.4315033;-5.2486115;-;-;-;-;-;-;-;-;-;-;-;-;-;-;-
1514189299631;-;-;13.082413;1.5049438;-5.571823;-;-;-;-;-;-;-;-;-;-;-;-;-;-;-
1514189299651;-;-;12.203735;-0.5325165;-7.649994;-;-;-;-;-;-;-;-;-;-;-;-;-;-;-
1514189299672;-;-;9.546173;-1.2651367;-7.175934;-;-;-;-;-;-;-;-;-;-;-;-;-;-;-
1514189299692;-;-;7.786438;-1.285492;-5.1312866;-;-;-;-;-;-;-;-;-;-;-;-;-;-;-
1514189299712;-;-;7.1531677;-2.088745;-3.0243835;-;-;-;-;-;-;-;-;-;-;-;-;-;-;-
1514189299732;-;-;6.6132813;-1.4650574;-1.7243347;-;-;-;-;-;-;-;-;-;-;-;-;-;-;-
1514189299753;-;-;6.0063477;0.19891357;-1.9972839;-;-;-;-;-;-;-;-;-;-;-;-;-;-;-
1514189299772;-;-;4.3136444;1.4163666;-2.6054077;-;-;-;-;-;-;-;-;-;-;-;-;-;-;-
1514189299792;-;-;3.3822937;0.38206482;-2.4461975;-;-;-;-;-;-;-;-;-;-;-;-;-;-;-
1514189299812;-;-;3.695938;-1.7571564;-2.0475616;-;-;-;-;-;-;-;-;-;-;-;-;-;-;-
1514189299833;-;-;3.5103912;-3.471405;-2.076294;-;-;-;-;-;-;-;-;-;-;-;-;-;-;-
1514189299852;-;-;3.3822937;-4.3991547;-2.8184967;-;-;-;-;-;-;-;-;-;-;-;-;-;-;-
1514189299873;-;-;4.150833;-3.8724365;-3.1452942;-;-;-;-;-;-;-;-;-;-;-;-;-;-;-
1514189299893;-;-;7.1208496;-2.851303;-3.6444855;-;-;-;-;-;-;-;-;-;-;-;-;-;-;-
1514189299913;-;-;8.24971;-1.3692932;-4.6237183;-;-;-;-;-;-;-;-;-;-;-;-;-;-;-
1514189299933;-;-;8.158737;-0.3864746;-4.380707;-;-;-;-;-;-;-;-;-;-;-;-;-;-;-
1514189299953;-;-;7.2716827;-0.720459;-4.323242;-;-;-;-;-;-;-;-;-;-;-;-;-;-;-
1514189299975;-;-;9.55455;-2.54245;-2.7310944;-;-;-;-;-;-;-;-;-;-;-;-;-;-;-
1514189299996;-;-;12.032547;-3.5647736;-2.203186;-;-;-;-;-;-;-;-;-;-;-;-;-;-;-
1514189300016;-;-;13.716873;-5.099457;-1.274231;-;-;-;-;-;-;-;-;-;-;-;-;-;-;-
1514189300036;-;-;15.261124;-5.352051;-1.8919373;-;-;-;-;-;-;-;-;-;-;-;-;-;-;-
1514189300057;-;-;15.992554;-3.8760223;-2.9429932;-;-;-;-;-;-;-;-;-;-;-;-;-;-;-
1514189300077;-;-;12.743622;-2.6334229;-7.448883;-;-;-;-;-;-;-;-;-;-;-;-;-;-;-
1514189300097;-;-;10.056137;-4.1489563;-10.714569;-;-;-;-;-;-;-;-;-;-;-;-;-;-;-
1514189300117;-;-;8.199432;-3.8652496;-0.20521545;-;-;-;-;-;-;-;-;-;-;-;-;-;-;-
1514189300137;-;-;9.601242;-1.625473;-3.2925415;-;-;-;-;-;-;-;-;-;-;-;-;-;-;-
1514189300158;-;-;7.93367;-1.0448761;-8.282059;-;-;-;-;-;-;-;-;-;-;-;-;-;-;-
1514189300178;-;-;7.264496;0.71725464;-6.4624634;-;-;-;-;-;-;-;-;-;-;-;-;-;-;-
1514189300198;-;-;7.566162;2.0699768;-3.3009186;-;-;-;-;-;-;-;-;-;-;-;-;-;-;-
1514189300219;-;-;6.2110443;0.7519684;-2.7861633;-;-;-;-;-;-;-;-;-;-;-;-;-;-;-
1514189300240;-;-;3.936554;-0.9934082;-2.8256683;-;-;-;-;-;-;-;-;-;-;-;-;-;-;-
1514189300260;-;-;5.9429016;-1.4602661;-2.2977448;-;-;-;-;-;-;-;-;-;-;-;-;-;-;-
1514189300279;-;-;6.8000183;-1.9415131;-3.1895905;-;-;-;-;-;-;-;-;-;-;-;-;-;-;-
1514189300299;-;-;6.7329865;-1.225647;-4.3591614;-;-;-;-;-;-;-;-;-;-;-;-;-;-;-
1514189300320;-;-;6.11409;0.6382446;-3.803711;-;-;-;-;-;-;-;-;-;-;-;-;-;-;-
1514189300340;-;-;5.0654297;2.5583954;-4.108963;-;-;-;-;-;-;-;-;-;-;-;-;-;-;-
1514189300360;-;-;4.8954315;3.0216675;-4.1819916;-;-;-;-;-;-;-;-;-;-;-;-;-;-;-
1514189300381;-;-;5.4832153;1.1326447;-3.8827057;-;-;-;-;-;-;-;-;-;-;-;-;-;-;-
1514189300401;-;-;7.5841217;-1.3920441;-3.3236694;-;-;-;-;-;-;-;-;-;-;-;-;-;-;-
1514189300421;-;-;7.679886;-2.2036743;-3.527176;-;-;-;-;-;-;-;-;-;-;-;-;-;-;-
1514189300441;-;-;6.8167877;-0.44992065;-2.3767548;-;-;-;-;-;-;-;-;-;-;-;-;-;-;-
1514189300463;-;-;8.070145;1.1901093;-1.2850037;-;-;-;-;-;-;-;-;-;-;-;-;-;-;-
1514189300482;-;-;10.087265;0.8417511;-0.98931885;-;-;-;-;-;-;-;-;-;-;-;-;-;-;-
1514189300502;-;-;10.787567;0.36410522;-1.480133;-;-;-;-;-;-;-;-;-;-;-;-;-;-;-
1514189300524;-;-;11.025787;0.87527466;-2.211563;-;-;-;-;-;-;-;-;-;-;-;-;-;-;-
1514189300543;-;-;11.841019;1.9263306;-2.4928741;-;-;-;-;-;-;-;-;-;-;-;-;-;-;-
1514189300564;-;-;11.577652;2.3812256;-2.6006165;-;-;-;-;-;-;-;-;-;-;-;-;-;-;-
1514189300583;-;-;10.609192;2.4829865;-6.009964;-;-;-;-;-;-;-;-;-;-;-;-;-;-;-
1514189300603;-;-;11.223312;4.6700897;-6.23143;-;-;-;-;-;-;-;-;-;-;-;-;-;-;-
1514189300623;-;-;13.3146515;4.6772614;-2.179245;-;-;-;-;-;-;-;-;-;-;-;-;-;-;-
1514189300644;-;-;9.106842;2.0209045;-4.682373;-;-;-;-;-;-;-;-;-;-;-;-;-;-;-
1514189300663;-;-;5.273712;1.1158905;-7.149597;-;-;-;-;-;-;-;-;-;-;-;-;-;-;-
1514189300683;-;-;3.8395996;0.2300415;-5.611328;-;-;-;-;-;-;-;-;-;-;-;-;-;-;-
1514189300703;-;-;6.6384125;-1.7942657;-2.883133;-;-;-;-;-;-;-;-;-;-;-;-;-;-;-
1514189300724;-;-;9.0577545;-3.2128296;-4.210724;-;-;-;-;-;-;-;-;-;-;-;-;-;-;-
1514189300744;-;-;10.283585;-2.6669464;-5.041504;-;-;-;-;-;-;-;-;-;-;-;-;-;-;-
1514189300764;-;-;10.142334;-0.4547119;-3.7474365;-;-;-;-;-;-;-;-;-;-;-;-;-;-;-
1514189300785;-;-;9.032608;1.2846832;-3.2554321;-;-;-;-;-;-;-;-;-;-;-;-;-;-;-
1514189300805;-;-;7.9420624;1.4546661;-4.3747253;-;-;-;-;-;-;-;-;-;-;-;-;-;-;-
1514189300825;-;-;6.692276;-0.67378235;-3.9832764;-;-;-;-;-;-;-;-;-;-;-;-;-;-;-
1514189300846;-;-;6.0087433;-2.5125275;-3.2733917;-;-;-;-;-;-;-;-;-;-;-;-;-;-;-
1514189300866;-;-;5.4437103;-3.6617432;-2.3911285;-;-;-;-;-;-;-;-;-;-;-;-;-;-;-
1514189300886;-;-;5.7142487;-4.120224;-1.4861145;-;-;-;-;-;-;-;-;-;-;-;-;-;-;-
1514189300907;-;-;6.9580383;-3.6306152;-1.7746124;-;-;-;-;-;-;-;-;-;-;-;-;-;-;-
1514189300927;-;-;7.846283;-2.6358185;-2.3300781;-;-;-;-;-;-;-;-;-;-;-;-;-;-;-
1514189300947;-;-;7.6583405;-1.5201263;-2.6676483;-;-;-;-;-;-;-;-;-;-;-;-;-;-;-
1514189300968;-;-;6.331955;-0.3194275;-2.6724396;-;-;-;-;-;-;-;-;-;-;-;-;-;-;-
1514189300988;-;-;4.814026;0.34735107;-2.278595;-;-;-;-;-;-;-;-;-;-;-;-;-;-;-
1514189301008;-;-;5.313217;-0.47625732;-2.2774048;-;-;-;-;-;-;-;-;-;-;-;-;-;-;-
1514189301028;-;-;6.7365723;-1.467453;-1.9685516;-;-;-;-;-;-;-;-;-;-;-;-;-;-;-
1514189301049;-;-;7.379425;-2.04924;-1.9062958;-;-;-;-;-;-;-;-;-;-;-;-;-;-;-
1514189301069;-;-;7.621231;-2.2324066;-1.8404541;-;-;-;-;-;-;-;-;-;-;-;-;-;-;-
1514189301089;-;-;7.869034;-2.0600128;-1.4980927;-;-;-;-;-;-;-;-;-;-;-;-;-;-;-
1514189301110;-;-;8.212601;-1.764328;-1.966156;-;-;-;-;-;-;-;-;-;-;-;-;-;-;-
1514189301130;-;-;9.002686;-1.1190948;-1.2526855;-;-;-;-;-;-;-;-;-;-;-;-;-;-;-
1514189301150;-;-;10.002274;0.24440002;-0.2866211;-;-;-;-;-;-;-;-;-;-;-;-;-;-;-
1514189301170;-;-;11.302322;1.7240143;-1.6261749;-;-;-;-;-;-;-;-;-;-;-;-;-;-;-
1514189301191;-;-;9.050568;1.2260284;-4.820038;-;-;-;-;-;-;-;-;-;-;-;-;-;-;-
1514189301211;-;-;4.3854675;-2.7196198;-6.32959;-;-;-;-;-;-;-;-;-;-;-;-;-;-;-
1514189301231;-;-;5.2581635;-3.7539215;-6.6097107;-;-;-;-;-;-;-;-;-;-;-;-;-;-;-
1514189301252;-;-;10.40329;-2.087555;-11.384949;-;-;-;-;-;-;-;-;-;-;-;-;-;-;-
1514189301272;-;-;11.852982;0.012161255;-4.756592;-;-;-;-;-;-;-;-;-;-;-;-;-;-;-
1514189301292;-;-;15.737579;2.4231262;-6.0638275;-;-;-;-;-;-;-;-;-;-;-;-;-;-;-
1514189301312;-;-;15.297043;1.2272186;-7.0251007;-;-;-;-;-;-;-;-;-;-;-;-;-;-;-
1514189301333;-;-;13.307465;-3.7431488;-6.820404;-;-;-;-;-;-;-;-;-;-;-;-;-;-;-
1514189301352;-;-;13.161423;-5.7375183;-5.255783;-;-;-;-;-;-;-;-;-;-;-;-;-;-;-
1514189301373;-;-;10.755249;-2.597519;-3.0315704;-;-;-;-;-;-;-;-;-;-;-;-;-;-;-
1514189301392;-;-;6.6946716;1.4127655;-2.7119446;-;-;-;-;-;-;-;-;-;-;-;-;-;-;-
1514189301412;-;-;2.0044403;3.5555878;-3.247055;-;-;-;-;-;-;-;-;-;-;-;-;-;-;-
1514189301433;-;-;-0.027038574;3.5268555;-2.642517;-;-;-;-;-;-;-;-;-;-;-;-;-;-;-
1514189301453;-;-;1.9637299;2.0376587;-2.1169891;-;-;-;-;-;-;-;-;-;-;-;-;-;-;-
1514189301473;-;-;5.2916718;0.067230225;-2.539566;-;-;-;-;-;-;-;-;-;-;-;-;-;-;-
1514189301494;-;-;7.1172485;-1.5344849;-2.776596;-;-;-;-;-;-;-;-;-;-;-;-;-;-;-
1514189301514;-;-;6.625244;-1.819397;-2.231903;-;-;-;-;-;-;-;-;-;-;-;-;-;-;-
1514189301534;-;-;7.842697;-1.1406403;-0.7343445;-;-;-;-;-;-;-;-;-;-;-;-;-;-;-
1514189301555;-;-;9.538986;0.94351196;-1.3017578;-;-;-;-;-;-;-;-;-;-;-;-;-;-;-
1514189301575;-;-;9.59166;2.9701996;-2.5144196;-;-;-;-;-;-;-;-;-;-;-;-;-;-;-
1514189301595;-;-;8.720169;3.596283;-2.8256683;-;-;-;-;-;-;-;-;-;-;-;-;-;-;-
1514189301615;-;-;9.839462;2.0568085;-1.0515747;-;-;-;-;-;-;-;-;-;-;-;-;-;-;-
1514189301635;-;-;11.948746;0.012161255;-1.2790222;-;-;-;-;-;-;-;-;-;-;-;-;-;-;-
1514189301656;-;-;13.703705;-0.83418274;-1.590271;-;-;-;-;-;-;-;-;-;-;-;-;-;-;-
1514189301676;-;-;11.535751;0.15222168;-1.8284912;-;-;-;-;-;-;-;-;-;-;-;-;-;-;-
1514189301696;-;-;8.876999;2.4087524;-0.9797363;-;-;-;-;-;-;-;-;-;-;-;-;-;-;-
1514189301717;-;-;7.925293;1.7623291;-4.330429;-;-;-;-;-;-;-;-;-;-;-;-;-;-;-
1514189301737;-;-;7.1914673;0.7579498;-13.303894;-;-;-;-;-;-;-;-;-;-;-;-;-;-;-
1514189301757;-;-;4.0849915;1.8221741;-11.119186;-;-;-;-;-;-;-;-;-;-;-;-;-;-;-
1514189301777;-;-;4.6260834;3.0599823;-6.0326996;-;-;-;-;-;-;-;-;-;-;-;-;-;-;-
1514189301798;-;-;7.5996857;-0.49061584;-6.634842;-;-;-;-;-;-;-;-;-;-;-;-;-;-;-
1514189301818;-;-;8.904526;-4.326126;-8.775269;-;-;-;-;-;-;-;-;-;-;-;-;-;-;-
1514189301838;-;-;10.835449;-6.164871;-9.631195;-;-;-;-;-;-;-;-;-;-;-;-;-;-;-
1514189301859;-;-;15.288666;-3.2080383;-4.84877;-;-;-;-;-;-;-;-;-;-;-;-;-;-;-
1514189301879;-;-;14.667374;0.8453522;-7.371063;-;-;-;-;-;-;-;-;-;-;-;-;-;-;-
1514189301899;-;-;11.5477295;1.4283295;-7.859482;-;-;-;-;-;-;-;-;-;-;-;-;-;-;-
1514189301919;-;-;6.3738556;-0.12310791;-8.698654;-;-;-;-;-;-;-;-;-;-;-;-;-;-;-
1514189301940;-;-;3.3032837;-3.5168915;-8.329941;-;-;-;-;-;-;-;-;-;-;-;-;-;-;-
1514189301960;-;-;2.1708374;-6.1972046;-5.369507;-;-;-;-;-;-;-;-;-;-;-;-;-;-;-
1514189301980;-;-;3.205124;-7.6002045;-3.1572723;-;-;-;-;-;-;-;-;-;-;-;-;-;-;-
1514189302000;-;-;5.2461853;-7.8491974;-2.2462769;-;-;-;-;-;-;-;-;-;-;-;-;-;-;-
1514189302021;-;-;7.700241;-6.953766;-2.843628;-;-;-;-;-;-;-;-;-;-;-;-;-;-;-
1514189302040;-;-;8.351471;-5.760254;-2.0200195;-;-;-;-;-;-;-;-;-;-;-;-;-;-;-
1514189302060;-;-;7.9863434;-4.436264;-1.1976166;-;-;-;-;-;-;-;-;-;-;-;-;-;-;-
1514189302081;-;-;6.4768066;-3.320572;-2.1660767;-;-;-;-;-;-;-;-;-;-;-;-;-;-;-
1514189302101;-;-;5.6184845;-3.0093231;-2.630539;-;-;-;-;-;-;-;-;-;-;-;-;-;-;-
1514189302121;-;-;5.904587;-3.1122742;-1.8237;-;-;-;-;-;-;-;-;-;-;-;-;-;-;-
1514189302141;-;-;7.343506;-3.361267;-0.6720886;-;-;-;-;-;-;-;-;-;-;-;-;-;-;-
1514189302161;-;-;9.469559;-3.7970123;-0.709198;-;-;-;-;-;-;-;-;-;-;-;-;-;-;-
1514189302182;-;-;11.8446045;-4.2088165;-1.2203674;-;-;-;-;-;-;-;-;-;-;-;-;-;-;-
1514189302202;-;-;13.405624;-3.3181763;-0.91030884;-;-;-;-;-;-;-;-;-;-;-;-;-;-;-
1514189302223;-;-;14.702087;-2.416748;-2.2534637;-;-;-;-;-;-;-;-;-;-;-;-;-;-;-
1514189302243;-;-;13.554062;-3.3181763;-8.094116;-;-;-;-;-;-;-;-;-;-;-;-;-;-;-
1514189302263;-;-;15.22522;-4.4626007;-8.134811;-;-;-;-;-;-;-;-;-;-;-;-;-;-;-
1514189302284;-;-;12.117538;-4.463791;-5.3132477;-;-;-;-;-;-;-;-;-;-;-;-;-;-;-
1514189302304;-;-;8.213791;-3.9741821;-8.588516;-;-;-;-;-;-;-;-;-;-;-;-;-;-;-
1514189302324;-;-;5.972824;-2.344925;-8.726181;-;-;-;-;-;-;-;-;-;-;-;-;-;-;-
1514189302345;-;-;6.5558167;-0.12550354;-7.8690643;-;-;-;-;-;-;-;-;-;-;-;-;-;-;-
1514189302365;-;-;8.278442;-0.210495;-6.09256;-;-;-;-;-;-;-;-;-;-;-;-;-;-;-
1514189302385;-;-;8.339493;-2.8070068;-4.03714;-;-;-;-;-;-;-;-;-;-;-;-;-;-;-
1514189302406;-;-;8.095291;-3.8257446;-3.0207977;-;-;-;-;-;-;-;-;-;-;-;-;-;-;-
1514189302426;-;-;7.4644165;-3.0188904;-2.2678223;-;-;-;-;-;-;-;-;-;-;-;-;-;-;-
1514189302446;-;-;5.972824;-1.4255524;-2.860382;-;-;-;-;-;-;-;-;-;-;-;-;-;-;-
1514189302467;-;-;5.5071564;0.23960876;-3.0698853;-;-;-;-;-;-;-;-;-;-;-;-;-;-;-
1514189302487;-;-;4.995987;1.8856201;-3.1871948;-;-;-;-;-;-;-;-;-;-;-;-;-;-;-
1514189302507;-;-;4.5590515;2.6134644;-3.3404236;-;-;-;-;-;-;-;-;-;-;-;-;-;-;-
1514189302528;-;-;5.018738;1.8329468;-2.978897;-;-;-;-;-;-;-;-;-;-;-;-;-;-;-
1514189302547;-;-;6.4923706;0.5089569;-2.9992523;-;-;-;-;-;-;-;-;-;-;-;-;-;-;-
1514189302568;-;-;8.042618;-1.0652313;-3.361969;-;-;-;-;-;-;-;-;-;-;-;-;-;-;-
1514189302587;-;-;7.8355103;0.23960876;-3.863556;-;-;-;-;-;-;-;-;-;-;-;-;-;-;-
1514189302608;-;-;8.03064;1.9490662;-3.5343628;-;-;-;-;-;-;-;-;-;-;-;-;-;-;-
1514189302628;-;-;8.775238;2.5344543;-3.44458;-;-;-;-;-;-;-;-;-;-;-;-;-;-;-
1514189302648;-;-;11.247253;1.9538574;-3.689972;-;-;-;-;-;-;-;-;-;-;-;-;-;-;-
1514189302669;-;-;13.295486;1.719223;-4.268173;-;-;-;-;-;-;-;-;-;-;-;-;-;-;-
1514189302689;-;-;12.058884;1.7264099;-3.5618896;-;-;-;-;-;-;-;-;-;-;-;-;-;-;-
1514189302709;-;-;9.006287;0.6143036;-2.0643158;-;-;-;-;-;-;-;-;-;-;-;-;-;-;-
1514189302730;-;-;7.3147736;0.18334961;-9.492325;-;-;-;-;-;-;-;-;-;-;-;-;-;-;-
1514189302749;-;-;7.411743;2.1513824;-9.118835;-;-;-;-;-;-;-;-;-;-;-;-;-;-;-
1514189302769;-;-;10.993469;3.1689148;-6.1943207;-;-;-;-;-;-;-;-;-;-;-;-;-;-;-
1514189302789;-;-;9.175064;0.8812561;-6.6755524;-;-;-;-;-;-;-;-;-;-;-;-;-;-;-
1514189302810;-;-;6.506729;-0.8282013;-8.875824;-;-;-;-;-;-;-;-;-;-;-;-;-;-;-
1514189302830;-;-;5.607712;-2.360489;-6.461273;-;-;-;-;-;-;-;-;-;-;-;-;-;-;-
1514189302850;-;-;6.078171;-3.1589508;-3.473297;-;-;-;-;-;-;-;-;-;-;-;-;-;-;-
1514189302871;-;-;8.323929;-3.285843;-2.076294;-;-;-;-;-;-;-;-;-;-;-;-;-;-;-
1514189302891;-;-;8.375412;-1.3968201;-2.9836884;-;-;-;-;-;-;-;-;-;-;-;-;-;-;-
1514189302911;-;-;6.462433;-1.2471924;-2.9202423;-;-;-;-;-;-;-;-;-;-;-;-;-;-;-
1514189302932;-;-;3.9724731;-1.6817322;-3.010025;-;-;-;-;-;-;-;-;-;-;-;-;-;-;-
1514189302951;-;-;2.5108032;-2.1210785;-3.5319672;-;-;-;-;-;-;-;-;-;-;-;-;-;-;-
1514189302971;-;-;1.8344421;-2.3784485;-3.5618896;-;-;-;-;-;-;-;-;-;-;-;-;-;-;-
1514189302991;-;-;3.3822937;-2.0276947;-3.559494;-;-;-;-;-;-;-;-;-;-;-;-;-;-;-
1514189303012;-;-;6.308014;-1.8529205;-4.033554;-;-;-;-;-;-;-;-;-;-;-;-;-;-;-
1514189303032;-;-;8.401749;-1.6709595;-4.045517;-;-;-;-;-;-;-;-;-;-;-;-;-;-;-
1514189303052;-;-;8.959595;-1.6110992;-4.3172607;-;-;-;-;-;-;-;-;-;-;-;-;-;-;-
1514189303073;-;-;7.75531;-1.6398315;-4.7745514;-;-;-;-;-;-;-;-;-;-;-;-;-;-;-
1514189303093;-;-;6.276886;-2.8991852;-4.852371;-;-;-;-;-;-;-;-;-;-;-;-;-;-;-
1514189303113;-;-;8.173096;-4.4015503;-4.123337;-;-;-;-;-;-;-;-;-;-;-;-;-;-;-
1514189303134;-;-;12.366547;-3.8724365;-3.6756134;-;-;-;-;-;-;-;-;-;-;-;-;-;-;-
1514189303153;-;-;14.861298;-3.0476227;-3.9868622;-;-;-;-;-;-;-;-;-;-;-;-;-;-;-
1514189303173;-;-;16.342117;-1.273529;-4.2478333;-;-;-;-;-;-;-;-;-;-;-;-;-;-;-
1514189303193;-;-;12.250427;-2.7471619;-9.331909;-;-;-;-;-;-;-;-;-;-;-;-;-;-;-
1514189303214;-;-;11.303513;-6.3193054;-11.704575;-;-;-;-;-;-;-;-;-;-;-;-;-;-;-
1514189303234;-;-;9.725739;-6.9992523;-1.7458801;-;-;-;-;-;-;-;-;-;-;-;-;-;-;-
1514189303255;-;-;8.4292755;-2.77948;-0.9330597;-;-;-;-;-;-;-;-;-;-;-;-;-;-;-
1514189303274;-;-;5.4173737;-1.0137482;-8.527466;-;-;-;-;-;-;-;-;-;-;-;-;-;-;-
1514189303294;-;-;3.7617798;-0.36732483;-9.118835;-;-;-;-;-;-;-;-;-;-;-;-;-;-;-
1514189303315;-;-;7.576935;0.45988464;-4.088608;-;-;-;-;-;-;-;-;-;-;-;-;-;-;-
1514189303334;-;-;8.880585;0.08039856;-1.6680756;-;-;-;-;-;-;-;-;-;-;-;-;-;-;-
1514189303354;-;-;6.2828674;-0.2320404;-1.4502106;-;-;-;-;-;-;-;-;-;-;-;-;-;-;-
1514189303375;-;-;4.9540863;-0.4379425;-2.2331085;-;-;-;-;-;-;-;-;-;-;-;-;-;-;-
1514189303395;-;-;4.6548157;-1.2364197;-2.5287933;-;-;-;-;-;-;-;-;-;-;-;-;-;-;-
1514189303415;-;-;5.1671753;-1.107132;-3.04953;-;-;-;-;-;-;-;-;-;-;-;-;-;-;-
1514189303436;-;-;5.4676514;0.49339294;-3.6959686;-;-;-;-;-;-;-;-;-;-;-;-;-;-;-
1514189303456;-;-;4.4369507;2.1860962;-4.587799;-;-;-;-;-;-;-;-;-;-;-;-;-;-;-
1514189303476;-;-;4.6727753;2.7523193;-4.2178955;-;-;-;-;-;-;-;-;-;-;-;-;-;-;-
1514189303497;-;-;7.1878815;1.3122101;-3.401474;-;-;-;-;-;-;-;-;-;-;-;-;-;-;-
1514189303517;-;-;9.863403;-0.61990356;-4.519577;-;-;-;-;-;-;-;-;-;-;-;-;-;-;-
1514189303537;-;-;8.480759;-0.6438446;-4.7230835;-;-;-;-;-;-;-;-;-;-;-;-;-;-;-
1514189303558;-;-;9.09845;0.49578857;-2.9094696;-;-;-;-;-;-;-;-;-;-;-;-;-;-;-
1514189303578;-;-;10.93959;1.4965668;-3.203949;-;-;-;-;-;-;-;-;-;-;-;-;-;-;-
1514189303598;-;-;11.411255;2.9869537;-2.922638;-;-;-;-;-;-;-;-;-;-;-;-;-;-;-
1514189303619;-;-;11.815872;2.5739594;-2.084671;-;-;-;-;-;-;-;-;-;-;-;-;-;-;-
1514189303639;-;-;10.839035;1.6426086;-0.9917145;-;-;-;-;-;-;-;-;-;-;-;-;-;-;-
1514189303659;-;-;9.352234;1.0153351;-2.1062164;-;-;-;-;-;-;-;-;-;-;-;-;-;-;-
1514189303680;-;-;8.659119;0.51374817;-9.064957;-;-;-;-;-;-;-;-;-;-;-;-;-;-;-
1514189303699;-;-;12.151062;0.7986603;-5.270157;-;-;-;-;-;-;-;-;-;-;-;-;-;-;-
1514189303719;-;-;10.811508;0.88604736;-8.590912;-;-;-;-;-;-;-;-;-;-;-;-;-;-;-
1514189303739;-;-;9.955582;-1.0448761;-5.148041;-;-;-;-;-;-;-;-;-;-;-;-;-;-;-
1514189303760;-;-;6.8874054;-0.7707367;-6.7114563;-;-;-;-;-;-;-;-;-;-;-;-;-;-;-
1514189303781;-;-;6.6264496;-2.3760529;-6.1260834;-;-;-;-;-;-;-;-;-;-;-;-;-;-;-
1514189303802;-;-;6.84671;-3.2774658;-4.19516;-;-;-;-;-;-;-;-;-;-;-;-;-;-;-
1514189303822;-;-;8.489136;-1.2232513;-3.6325226;-;-;-;-;-;-;-;-;-;-;-;-;-;-;-
1514189303842;-;-;7.592499;1.0979309;-1.3640137;-;-;-;-;-;-;-;-;-;-;-;-;-;-;-
1514189303862;-;-;5.8351593;0.07081604;-2.23909;-;-;-;-;-;-;-;-;-;-;-;-;-;-;-
1514189303883;-;-;3.6588287;-2.1545868;-2.9046783;-;-;-;-;-;-;-;-;-;-;-;-;-;-;-
1514189303903;-;-;2.813675;-4.108261;-2.1337433;-;-;-;-;-;-;-;-;-;-;-;-;-;-;-
1514189303924;-;-;3.6181335;-4.582306;-2.1768494;-;-;-;-;-;-;-;-;-;-;-;-;-;-;-
1514189303944;-;-;4.4165955;-3.0392456;-3.0279846;-;-;-;-;-;-;-;-;-;-;-;-;-;-;-
1514189303964;-;-;6.7162323;-0.9539032;-3.1297302;-;-;-;-;-;-;-;-;-;-;-;-;-;-;-
1514189303985;-;-;8.2114105;0.5520477;-3.259018;-;-;-;-;-;-;-;-;-;-;-;-;-;-;-
1514189304005;-;-;9.003891;-0.3577423;-6.224243;-;-;-;-;-;-;-;-;-;-;-;-;-;-;-
1514189304025;-;-;7.9432526;-1.7607422;-6.895813;-;-;-;-;-;-;-;-;-;-;-;-;-;-;-
1514189304046;-;-;7.2680817;-3.4510498;-5.619705;-;-;-;-;-;-;-;-;-;-;-;-;-;-;-
1514189304065;-;-;9.912491;-4.18367;-3.5930176;-;-;-;-;-;-;-;-;-;-;-;-;-;-;-
1514189304085;-;-;13.021362;-4.357254;-2.4006958;-;-;-;-;-;-;-;-;-;-;-;-;-;-;-
1514189304106;-;-;14.336975;-3.8125763;-3.8491974;-;-;-;-;-;-;-;-;-;-;-;-;-;-;-
1514189304125;-;-;14.928345;-2.1701508;-3.0435486;-;-;-;-;-;-;-;-;-;-;-;-;-;-;-
1514189304145;-;-;12.863342;-1.0352936;-6.440918;-;-;-;-;-;-;-;-;-;-;-;-;-;-;-
1514189304165;-;-;10.338654;-3.5791473;-12.295944;-;-;-;-;-;-;-;-;-;-;-;-;-;-;-
1514189304186;-;-;10.79834;-7.4338074;-5.892639;-;-;-;-;-;-;-;-;-;-;-;-;-;-;-
1514189304206;-;-;8.935654;-4.700821;2.4284058;-;-;-;-;-;-;-;-;-;-;-;-;-;-;-
1514189304226;-;-;6.0290833;-2.214447;-8.723785;-;-;-;-;-;-;-;-;-;-;-;-;-;-;-
1514189304246;-;-;4.0251465;-1.6829376;-11.004272;-;-;-;-;-;-;-;-;-;-;-;-;-;-;-
1514189304267;-;-;6.913742;-0.17936707;-4.049103;-;-;-;-;-;-;-;-;-;-;-;-;-;-;-
1514189304287;-;-;7.3865967;0.62028503;-2.1253662;-;-;-;-;-;-;-;-;-;-;-;-;-;-;-
1514189304307;-;-;4.833191;-0.54689026;-1.7590485;-;-;-;-;-;-;-;-;-;-;-;-;-;-;-
1514189304328;-;-;4.793686;-0.70610046;-2.2929688;-;-;-;-;-;-;-;-;-;-;-;-;-;-;-
1514189304348;-;-;4.754181;-1.225647;-2.136139;-;-;-;-;-;-;-;-;-;-;-;-;-;-;-
1514189304368;-;-;5.9464874;-1.4889984;-3.3559875;-;-;-;-;-;-;-;-;-;-;-;-;-;-;-
1514189304389;-;-;5.9859924;0.23841858;-3.9533386;-;-;-;-;-;-;-;-;-;-;-;-;-;-;-
1514189304409;-;-;4.4716644;2.2184143;-4.2813416;-;-;-;-;-;-;-;-;-;-;-;-;-;-;-
1514189304429;-;-;3.8407898;2.842102;-3.970108;-;-;-;-;-;-;-;-;-;-;-;-;-;-;-
1514189304450;-;-;6.1871033;1.4115753;-3.072281;-;-;-;-;-;-;-;-;-;-;-;-;-;-;-
1514189304470;-;-;8.736938;-0.36132813;-3.2219086;-;-;-;-;-;-;-;-;-;-;-;-;-;-;-
1514189304490;-;-;8.527435;-0.98501587;-4.6560364;-;-;-;-;-;-;-;-;-;-;-;-;-;-;-
1514189304511;-;-;8.498703;0.107925415;-4.5111847;-;-;-;-;-;-;-;-;-;-;-;-;-;-;-
1514189304531;-;-;9.991501;1.1541901;-3.4373932;-;-;-;-;-;-;-;-;-;-;-;-;-;-;-
1514189304551;-;-;11.348999;1.595932;-2.9441833;-;-;-;-;-;-;-;-;-;-;-;-;-;-;-
1514189304571;-;-;11.246048;2.639801;-3.168045;-;-;-;-;-;-;-;-;-;-;-;-;-;-;-
1514189304592;-;-;11.8853;2.5332642;-3.1608582;-;-;-;-;-;-;-;-;-;-;-;-;-;-;-
1514189304612;-;-;11.034164;1.2739105;-1.7207489;-;-;-;-;-;-;-;-;-;-;-;-;-;-;-
1514189304632;-;-;8.922485;-0.37928772;-3.3511963;-;-;-;-;-;-;-;-;-;-;-;-;-;-;-
1514189304653;-;-;6.8921967;-0.6438446;-8.656754;-;-;-;-;-;-;-;-;-;-;-;-;-;-;-
1514189304673;-;-;8.677078;0.59994507;-8.237762;-;-;-;-;-;-;-;-;-;-;-;-;-;-;-
1514189304693;-;-;13.82222;2.5260773;-4.9613037;-;-;-;-;-;-;-;-;-;-;-;-;-;-;-
1514189304714;-;-;8.317947;1.1386414;-8.407761;-;-;-;-;-;-;-;-;-;-;-;-;-;-;-
1514189304733;-;-;7.5601807;1.4714355;-7.481201;-;-;-;-;-;-;-;-;-;-;-;-;-;-;-
1514189304753;-;-;5.93692;-0.0021972656;-4.4932404;-;-;-;-;-;-;-;-;-;-;-;-;-;-;-
1514189304774;-;-;6.102112;-3.1769104;-3.096222;-;-;-;-;-;-;-;-;-;-;-;-;-;-;-
1514189304794;-;-;7.1328125;-4.0077057;-2.500061;-;-;-;-;-;-;-;-;-;-;-;-;-;-;-
1514189304814;-;-;7.7696686;-0.9682617;-2.859192;-;-;-;-;-;-;-;-;-;-;-;-;-;-;-
1514189304835;-;-;6.9185333;1.9836426E-4;-2.5503387;-;-;-;-;-;-;-;-;-;-;-;-;-;-;-
1514189304855;-;-;6.1272583;-0.59477234;-2.9202423;-;-;-;-;-;-;-;-;-;-;-;-;-;-;-
1514189304875;-;-;4.8703003;-1.8768616;-3.0351715;-;-;-;-;-;-;-;-;-;-;-;-;-;-;-
1514189304895;-;-;4.2238617;-3.5276642;-2.591034;-;-;-;-;-;-;-;-;-;-;-;-;-;-;-
1514189304916;-;-;4.7912903;-4.6194153;-2.8663788;-;-;-;-;-;-;-;-;-;-;-;-;-;-;-
1514189304936;-;-;6.3499146;-3.8772125;-2.79216;-;-;-;-;-;-;-;-;-;-;-;-;-;-;-
1514189304956;-;-;8.417313;-2.3664703;-3.5738678;-;-;-;-;-;-;-;-;-;-;-;-;-;-;-
1514189304977;-;-;8.8207245;-0.8593292;-4.1987457;-;-;-;-;-;-;-;-;-;-;-;-;-;-;-
1514189304997;-;-;7.653549;0.2707367;-4.4118347;-;-;-;-;-;-;-;-;-;-;-;-;-;-;-
1514189305017;-;-;5.787277;0.809433;-4.2610016;-;-;-;-;-;-;-;-;-;-;-;-;-;-;-
