TimeStamp[ms];Prox[Cm];Lux[lux];AccX[m/s^2];AccY[m/s^2];AccZ[m/s^2];GyroX[rad/s];GyroY[rad/s];GyroZ[rad/s];MagnX[uT];MagnY[uT];MagnZ[uT];OrienYaw[degrees];OrienPitch[degrees];OrienRoll[degrees];Press[Pa];Temp[C°];Batt[%];Lat;Lng;Speed[m/s]
1512470564655;-;-;9.074509;-0.25837708;-0.123809814;-;-;-;-;-;-;-;-;-;-;-;-;-;-;-
1512470564660;-;-;9.184647;-0.29190063;-0.13937378;-;-;-;-;-;-;-;-;-;-;-;-;-;-;-
1512470564680;-;-;9.285202;-0.47625732;-5.187988E-4;-;-;-;-;-;-;-;-;-;-;-;-;-;-;-
1512470564701;-;-;9.622787;-0.27514648;-0.087905884;-;-;-;-;-;-;-;-;-;-;-;-;-;-;-
1512470564721;-;-;9.163101;0.19770813;-0.47576904;-;-;-;-;-;-;-;-;-;-;-;-;-;-;-
1512470564742;-;-;8.619614;0.055252075;-0.19204712;-;-;-;-;-;-;-;-;-;-;-;-;-;-;-
1512470564761;-;-;9.416885;-0.30625916;-0.7463074;-;-;-;-;-;-;-;-;-;-;-;-;-;-;-
1512470564781;-;-;9.268448;-0.1877594;-1.2251434;-;-;-;-;-;-;-;-;-;-;-;-;-;-;-
1512470564801;-;-;9.549759;-0.48223877;0.21496582;-;-;-;-;-;-;-;-;-;-;-;-;-;-;-
1512470564822;-;-;8.984726;-0.4271698;0.15870667;-;-;-;-;-;-;-;-;-;-;-;-;-;-;-
1512470564843;-;-;8.752487;-0.15663147;-0.35246277;-;-;-;-;-;-;-;-;-;-;-;-;-;-;-
1512470564863;-;-;9.087677;-0.4834442;0.011459351;-;-;-;-;-;-;-;-;-;-;-;-;-;-;-
1512470564884;-;-;9.066132;-0.39604187;-0.026855469;-;-;-;-;-;-;-;-;-;-;-;-;-;-;-
1512470564906;-;-;9.136765;-0.36253357;0.21736145;-;-;-;-;-;-;-;-;-;-;-;-;-;-;-
1512470564927;-;-;9.129578;-0.32182312;0.060531616;-;-;-;-;-;-;-;-;-;-;-;-;-;-;-
1512470564947;-;-;9.125992;-0.26914978;0.060531616;-;-;-;-;-;-;-;-;-;-;-;-;-;-;-
1512470564968;-;-;9.199005;-0.20809937;-0.087905884;-;-;-;-;-;-;-;-;-;-;-;-;-;-;-
1512470564987;-;-;9.155914;-0.26437378;-0.32133484;-;-;-;-;-;-;-;-;-;-;-;-;-;-;-
1512470565007;-;-;9.318726;-0.0728302;-0.45062256;-;-;-;-;-;-;-;-;-;-;-;-;-;-;-
1512470565030;-;-;9.323517;-0.22964478;-0.051986694;-;-;-;-;-;-;-;-;-;-;-;-;-;-;-
1512470565050;-;-;9.23732;-0.35176086;-0.012481689;-;-;-;-;-;-;-;-;-;-;-;-;-;-;-
1512470565071;-;-;9.240906;-0.34457397;-0.22077942;-;-;-;-;-;-;-;-;-;-;-;-;-;-;-
1512470565091;-;-;9.300766;-0.38168335;-0.24472046;-;-;-;-;-;-;-;-;-;-;-;-;-;-;-
1512470565111;-;-;9.920868;-0.44752502;-1.361618;-;-;-;-;-;-;-;-;-;-;-;-;-;-;-
1512470565131;-;-;9.861008;-0.28471375;-1.274231;-;-;-;-;-;-;-;-;-;-;-;-;-;-;-
1512470565152;-;-;9.041;-0.20211792;1.3725586;-;-;-;-;-;-;-;-;-;-;-;-;-;-;-
1512470565172;-;-;8.460403;-0.100372314;1.4910736;-;-;-;-;-;-;-;-;-;-;-;-;-;-;-
1512470565193;-;-;9.032608;-0.29788208;0.24369812;-;-;-;-;-;-;-;-;-;-;-;-;-;-;-
1512470565213;-;-;9.348648;-0.1925354;-0.803772;-;-;-;-;-;-;-;-;-;-;-;-;-;-;-
1512470565234;-;-;8.865021;-0.25958252;0.8877411;-;-;-;-;-;-;-;-;-;-;-;-;-;-;-
1512470565253;-;-;9.77243;-0.41400146;0.96913147;-;-;-;-;-;-;-;-;-;-;-;-;-;-;-
1512470565273;-;-;8.689041;-0.0728302;0.3885498;-;-;-;-;-;-;-;-;-;-;-;-;-;-;-
1512470565294;-;-;9.305557;0.15940857;1.0924377;-;-;-;-;-;-;-;-;-;-;-;-;-;-;-
1512470565314;-;-;9.187042;-0.11592102;0.29037476;-;-;-;-;-;-;-;-;-;-;-;-;-;-;-
1512470565334;-;-;9.25528;-0.121917725;0.24967957;-;-;-;-;-;-;-;-;-;-;-;-;-;-;-
1512470565355;-;-;9.106842;-0.07043457;-0.12620544;-;-;-;-;-;-;-;-;-;-;-;-;-;-;-
1512470565376;-;-;9.143951;-0.12550354;0.3993225;-;-;-;-;-;-;-;-;-;-;-;-;-;-;-
1512470565396;-;-;9.196625;-0.19374084;0.41249084;-;-;-;-;-;-;-;-;-;-;-;-;-;-;-
1512470565416;-;-;9.203796;-0.093185425;-0.042419434;-;-;-;-;-;-;-;-;-;-;-;-;-;-;-
1512470565437;-;-;9.14035;-0.16142273;-0.12261963;-;-;-;-;-;-;-;-;-;-;-;-;-;-;-
1512470565457;-;-;9.773621;-0.12908936;0.40649414;-;-;-;-;-;-;-;-;-;-;-;-;-;-;-
1512470565477;-;-;9.245697;-0.03213501;0.20658875;-;-;-;-;-;-;-;-;-;-;-;-;-;-;-
1512470565498;-;-;9.143951;-0.2966919;0.7943573;-;-;-;-;-;-;-;-;-;-;-;-;-;-;-
1512470565518;-;-;8.948822;-0.21528625;0.31552124;-;-;-;-;-;-;-;-;-;-;-;-;-;-;-
1512470565538;-;-;8.72496;-0.011779785;0.1874237;-;-;-;-;-;-;-;-;-;-;-;-;-;-;-
1512470565559;-;-;9.331894;-0.09437561;0.26763916;-;-;-;-;-;-;-;-;-;-;-;-;-;-;-
1512470565578;-;-;9.331894;-0.13508606;0.3933258;-;-;-;-;-;-;-;-;-;-;-;-;-;-;-
1512470565598;-;-;9.637146;-0.3182373;0.4112854;-;-;-;-;-;-;-;-;-;-;-;-;-;-;-
1512470565619;-;-;9.914871;-0.21768188;1.1630707;-;-;-;-;-;-;-;-;-;-;-;-;-;-;-
1512470565639;-;-;9.288788;-0.095581055;0.68782043;-;-;-;-;-;-;-;-;-;-;-;-;-;-;-
1512470565660;-;-;8.745316;-0.12908936;-0.0029144287;-;-;-;-;-;-;-;-;-;-;-;-;-;-;-
1512470565681;-;-;9.027832;-0.02494812;-0.31056213;-;-;-;-;-;-;-;-;-;-;-;-;-;-;-
1512470565701;-;-;9.135559;-0.31704712;0.42565918;-;-;-;-;-;-;-;-;-;-;-;-;-;-;-
1512470565721;-;-;9.262466;-0.25360107;0.40171814;-;-;-;-;-;-;-;-;-;-;-;-;-;-;-
1512470565742;-;-;9.151123;-0.16740417;0.24130249;-;-;-;-;-;-;-;-;-;-;-;-;-;-;-
1512470565763;-;-;9.106842;-0.16021729;-0.0017089844;-;-;-;-;-;-;-;-;-;-;-;-;-;-;-
1512470565783;-;-;8.787216;-0.038116455;-0.06994629;-;-;-;-;-;-;-;-;-;-;-;-;-;-;-
1512470565804;-;-;9.212173;-0.3182373;0.2843933;-;-;-;-;-;-;-;-;-;-;-;-;-;-;-
1512470565824;-;-;10.216553;-0.6977234;0.16468811;-;-;-;-;-;-;-;-;-;-;-;-;-;-;-
1512470565845;-;-;9.458786;-0.34576416;-0.0017089844;-;-;-;-;-;-;-;-;-;-;-;-;-;-;-
1512470565865;-;-;8.782425;0.11631775;0.65789795;-;-;-;-;-;-;-;-;-;-;-;-;-;-;-
1512470565886;-;-;9.251678;-0.24880981;0.8422394;-;-;-;-;-;-;-;-;-;-;-;-;-;-;-
1512470565908;-;-;8.559753;0.25398254;0.27720642;-;-;-;-;-;-;-;-;-;-;-;-;-;-;-
1512470565928;-;-;9.367798;-0.16500854;-0.8720093;-;-;-;-;-;-;-;-;-;-;-;-;-;-;-
1512470565948;-;-;9.795166;-0.35653687;1.1630707;-;-;-;-;-;-;-;-;-;-;-;-;-;-;-
1512470565969;-;-;8.560959;-0.0069885254;0.5345917;-;-;-;-;-;-;-;-;-;-;-;-;-;-;-
1512470565989;-;-;8.497513;-0.0021972656;0.29397583;-;-;-;-;-;-;-;-;-;-;-;-;-;-;-
1512470566009;-;-;9.635956;-0.38168335;-0.11663818;-;-;-;-;-;-;-;-;-;-;-;-;-;-;-
1512470566030;-;-;9.600037;-0.7312317;1.3402405;-;-;-;-;-;-;-;-;-;-;-;-;-;-;-
1512470566049;-;-;10.053741;-0.13508606;0.82907104;-;-;-;-;-;-;-;-;-;-;-;-;-;-;-
1512470566069;-;-;9.412094;-0.03213501;-0.22796631;-;-;-;-;-;-;-;-;-;-;-;-;-;-;-
1512470566090;-;-;9.0577545;1.1529999;-0.6840515;-;-;-;-;-;-;-;-;-;-;-;-;-;-;-
1512470566110;-;-;7.4644165;0.1510315;0.7931671;-;-;-;-;-;-;-;-;-;-;-;-;-;-;-
1512470566131;-;-;6.1128845;0.54367065;-1.0288239;-;-;-;-;-;-;-;-;-;-;-;-;-;-;-
1512470566152;-;-;12.426392;-2.605896;-2.2139587;-;-;-;-;-;-;-;-;-;-;-;-;-;-;-
1512470566172;-;-;11.899673;-2.190506;3.0054016;-;-;-;-;-;-;-;-;-;-;-;-;-;-;-
1512470566192;-;-;12.28154;-2.46344;1.0445557;-;-;-;-;-;-;-;-;-;-;-;-;-;-;-
1512470566213;-;-;10.712143;-2.3078156;1.2181396;-;-;-;-;-;-;-;-;-;-;-;-;-;-;-
1512470566233;-;-;8.835098;0.08518982;0.30116272;-;-;-;-;-;-;-;-;-;-;-;-;-;-;-
1512470566253;-;-;7.6978455;1.6258545;-0.03642273;-;-;-;-;-;-;-;-;-;-;-;-;-;-;-
1512470566274;-;-;9.251678;1.5145264;3.2304535;-;-;-;-;-;-;-;-;-;-;-;-;-;-;-
1512470566295;-;-;7.332733;1.164978;-3.5211945;-;-;-;-;-;-;-;-;-;-;-;-;-;-;-
1512470566315;-;-;5.411392;4.7059937;2.1051788;-;-;-;-;-;-;-;-;-;-;-;-;-;-;-
1512470566335;-;-;13.31105;-1.878067;-0.12860107;-;-;-;-;-;-;-;-;-;-;-;-;-;-;-
1512470566356;-;-;5.8878326;-0.46907043;-0.05558777;-;-;-;-;-;-;-;-;-;-;-;-;-;-;-
1512470566376;-;-;7.6308136;0.26115417;0.80992126;-;-;-;-;-;-;-;-;-;-;-;-;-;-;-
1512470566397;-;-;8.673492;0.13665771;0.42684937;-;-;-;-;-;-;-;-;-;-;-;-;-;-;-
1512470566417;-;-;9.4935;0.17616272;0.63275146;-;-;-;-;-;-;-;-;-;-;-;-;-;-;-
1512470566438;-;-;10.054947;0.07800293;0.57888794;-;-;-;-;-;-;-;-;-;-;-;-;-;-;-
1512470566458;-;-;9.793976;0.06602478;0.44360352;-;-;-;-;-;-;-;-;-;-;-;-;-;-;-
1512470566479;-;-;9.254074;0.19651794;0.47712708;-;-;-;-;-;-;-;-;-;-;-;-;-;-;-
1512470566499;-;-;8.844666;0.27911377;0.49150085;-;-;-;-;-;-;-;-;-;-;-;-;-;-;-
1512470566520;-;-;8.933258;0.27192688;0.54776;-;-;-;-;-;-;-;-;-;-;-;-;-;-;-
1512470566540;-;-;9.129578;0.34016418;0.51065063;-;-;-;-;-;-;-;-;-;-;-;-;-;-;-
1512470566561;-;-;9.274429;0.3461609;0.49508667;-;-;-;-;-;-;-;-;-;-;-;-;-;-;-
1512470566581;-;-;9.272034;0.23602295;0.49388123;-;-;-;-;-;-;-;-;-;-;-;-;-;-;-
1512470566602;-;-;9.201401;0.1330719;0.60043335;-;-;-;-;-;-;-;-;-;-;-;-;-;-;-
1512470566622;-;-;9.103241;0.08518982;0.61839294;-;-;-;-;-;-;-;-;-;-;-;-;-;-;-
1512470566642;-;-;9.084091;0.057647705;0.5848694;-;-;-;-;-;-;-;-;-;-;-;-;-;-;-
1512470566663;-;-;9.184647;0.06842041;0.60401917;-;-;-;-;-;-;-;-;-;-;-;-;-;-;-
1512470566683;-;-;9.276825;0.095962524;0.6064148;-;-;-;-;-;-;-;-;-;-;-;-;-;-;-
1512470566704;-;-;9.268448;0.1043396;0.6854248;-;-;-;-;-;-;-;-;-;-;-;-;-;-;-
1512470566724;-;-;9.243301;0.17137146;0.6279602;-;-;-;-;-;-;-;-;-;-;-;-;-;-;-
1512470566745;-;-;9.178665;0.12709045;0.56451416;-;-;-;-;-;-;-;-;-;-;-;-;-;-;-
1512470566765;-;-;9.128387;0.15342712;0.6531067;-;-;-;-;-;-;-;-;-;-;-;-;-;-;-
1512470566786;-;-;9.172684;0.15701294;0.6088104;-;-;-;-;-;-;-;-;-;-;-;-;-;-;-
1512470566806;-;-;9.208588;0.08039856;0.58247375;-;-;-;-;-;-;-;-;-;-;-;-;-;-;-
1512470566827;-;-;9.216965;0.07081604;0.5944519;-;-;-;-;-;-;-;-;-;-;-;-;-;-;-
1512470566847;-;-;9.183456;0.013366699;0.6531067;-;-;-;-;-;-;-;-;-;-;-;-;-;-;-
1512470566867;-;-;9.206192;-0.03453064;0.6950073;-;-;-;-;-;-;-;-;-;-;-;-;-;-;-
1512470566887;-;-;9.1918335;-0.014175415;0.6387329;-;-;-;-;-;-;-;-;-;-;-;-;-;-;-
1512470566909;-;-;9.155914;-0.03453064;0.6171875;-;-;-;-;-;-;-;-;-;-;-;-;-;-;-
1512470566930;-;-;9.136765;-0.035720825;0.6997833;-;-;-;-;-;-;-;-;-;-;-;-;-;-;-
1512470566951;-;-;9.160706;-0.018966675;0.65908813;-;-;-;-;-;-;-;-;-;-;-;-;-;-;-
1512470566971;-;-;9.187042;-0.02494812;0.6961975;-;-;-;-;-;-;-;-;-;-;-;-;-;-;-
1512470566992;-;-;9.183456;-0.0728302;0.60162354;-;-;-;-;-;-;-;-;-;-;-;-;-;-;-
1512470567012;-;-;9.182251;-0.090789795;0.61479187;-;-;-;-;-;-;-;-;-;-;-;-;-;-;-
1512470567033;-;-;9.201401;-0.2799225;0.63275146;-;-;-;-;-;-;-;-;-;-;-;-;-;-;-
1512470567053;-;-;9.2756195;-0.2715454;0.5597229;-;-;-;-;-;-;-;-;-;-;-;-;-;-;-
1512470567073;-;-;9.4133;-0.21528625;0.4040985;-;-;-;-;-;-;-;-;-;-;-;-;-;-;-
1512470567094;-;-;9.355835;-0.1877594;0.5489502;-;-;-;-;-;-;-;-;-;-;-;-;-;-;-
1512470567114;-;-;9.341461;-0.3002777;0.58128357;-;-;-;-;-;-;-;-;-;-;-;-;-;-;-
1512470567135;-;-;9.427658;-0.16619873;0.43164063;-;-;-;-;-;-;-;-;-;-;-;-;-;-;-
1512470567155;-;-;9.209793;-0.35055542;0.6566925;-;-;-;-;-;-;-;-;-;-;-;-;-;-;-
1512470567176;-;-;9.086487;-0.5456848;0.7225342;-;-;-;-;-;-;-;-;-;-;-;-;-;-;-
1512470567197;-;-;9.091278;-0.5720215;0.64112854;-;-;-;-;-;-;-;-;-;-;-;-;-;-;-
1512470567217;-;-;9.009872;-0.5313263;0.69740295;-;-;-;-;-;-;-;-;-;-;-;-;-;-;-
1512470567237;-;-;9.099655;-0.5217438;0.5561371;-;-;-;-;-;-;-;-;-;-;-;-;-;-;-
1512470567258;-;-;9.115219;-0.47027588;0.5776825;-;-;-;-;-;-;-;-;-;-;-;-;-;-;-
1512470567278;-;-;9.216965;-0.41879272;0.5154419;-;-;-;-;-;-;-;-;-;-;-;-;-;-;-
1512470567299;-;-;9.261261;-0.39964294;0.48191833;-;-;-;-;-;-;-;-;-;-;-;-;-;-;-
1512470567319;-;-;9.170288;-0.53012085;0.52381897;-;-;-;-;-;-;-;-;-;-;-;-;-;-;-
1512470567340;-;-;9.064941;-0.62828064;0.59085083;-;-;-;-;-;-;-;-;-;-;-;-;-;-;-
1512470567359;-;-;9.030228;-0.6941223;0.6854248;-;-;-;-;-;-;-;-;-;-;-;-;-;-;-
1512470567379;-;-;9.019455;-0.68455505;0.7716217;-;-;-;-;-;-;-;-;-;-;-;-;-;-;-
1512470567400;-;-;9.023041;-0.6905365;0.82907104;-;-;-;-;-;-;-;-;-;-;-;-;-;-;-
1512470567421;-;-;9.00029;-0.6294861;0.7799988;-;-;-;-;-;-;-;-;-;-;-;-;-;-;-
1512470567441;-;-;9.067337;-0.55166626;0.8027344;-;-;-;-;-;-;-;-;-;-;-;-;-;-;-
1512470567462;-;-;9.136765;-0.58877563;0.89012146;-;-;-;-;-;-;-;-;-;-;-;-;-;-;-
1512470567482;-;-;9.281616;-0.5780029;0.8326721;-;-;-;-;-;-;-;-;-;-;-;-;-;-;-
1512470567503;-;-;9.274429;-0.62350464;0.6447296;-;-;-;-;-;-;-;-;-;-;-;-;-;-;-
1512470567523;-;-;9.427658;-0.47625732;0.82069397;-;-;-;-;-;-;-;-;-;-;-;-;-;-;-
1512470567543;-;-;9.372589;-0.26316833;0.6961975;-;-;-;-;-;-;-;-;-;-;-;-;-;-;-
1512470567564;-;-;9.406113;0.0025787354;0.46875;-;-;-;-;-;-;-;-;-;-;-;-;-;-;-
1512470567585;-;-;9.21936;0.47424316;0.4005127;-;-;-;-;-;-;-;-;-;-;-;-;-;-;-
1512470567605;-;-;9.146347;0.82499695;0.429245;-;-;-;-;-;-;-;-;-;-;-;-;-;-;-
1512470567626;-;-;8.984726;0.8381653;0.63275146;-;-;-;-;-;-;-;-;-;-;-;-;-;-;-
1512470567646;-;-;8.72496;0.77830505;1.2181396;-;-;-;-;-;-;-;-;-;-;-;-;-;-;-
1512470567667;-;-;8.768051;0.8692932;2.0549011;-;-;-;-;-;-;-;-;-;-;-;-;-;-;-
1512470567687;-;-;9.390549;0.576004;2.8473816;-;-;-;-;-;-;-;-;-;-;-;-;-;-;-
1512470567708;-;-;9.932831;-0.28231812;2.836609;-;-;-;-;-;-;-;-;-;-;-;-;-;-;-
1512470567728;-;-;9.961563;-0.9395294;1.9926605;-;-;-;-;-;-;-;-;-;-;-;-;-;-;-
1512470567748;-;-;9.639542;-0.25958252;1.0481415;-;-;-;-;-;-;-;-;-;-;-;-;-;-;-
1512470567768;-;-;8.474762;1.0799713;1.1271515;-;-;-;-;-;-;-;-;-;-;-;-;-;-;-
1512470567789;-;-;8.519058;1.1817322;1.8561859;-;-;-;-;-;-;-;-;-;-;-;-;-;-;-
1512470567808;-;-;8.344284;1.101532;1.7676086;-;-;-;-;-;-;-;-;-;-;-;-;-;-;-
1512470567828;-;-;8.462799;0.87527466;1.5233917;-;-;-;-;-;-;-;-;-;-;-;-;-;-;-
1512470567849;-;-;8.450821;0.69091797;1.5844421;-;-;-;-;-;-;-;-;-;-;-;-;-;-;-
1512470567868;-;-;8.560959;0.40600586;1.6119843;-;-;-;-;-;-;-;-;-;-;-;-;-;-;-
1512470567888;-;-;8.540604;-0.02734375;1.7340851;-;-;-;-;-;-;-;-;-;-;-;-;-;-;-
1512470567909;-;-;8.222183;-0.46188354;1.5401611;-;-;-;-;-;-;-;-;-;-;-;-;-;-;-
1512470567929;-;-;8.689041;-0.7886963;1.2205353;-;-;-;-;-;-;-;-;-;-;-;-;-;-;-
1512470567950;-;-;9.222961;-0.85453796;0.80633545;-;-;-;-;-;-;-;-;-;-;-;-;-;-;-
1512470567970;-;-;9.665878;-0.5361023;0.93322754;-;-;-;-;-;-;-;-;-;-;-;-;-;-;-
1512470567991;-;-;9.221756;-0.29429626;0.5860596;-;-;-;-;-;-;-;-;-;-;-;-;-;-;-
1512470568011;-;-;8.247314;-0.44154358;0.69021606;-;-;-;-;-;-;-;-;-;-;-;-;-;-;-
1512470568032;-;-;8.478363;-0.88446045;0.5118408;-;-;-;-;-;-;-;-;-;-;-;-;-;-;-
1512470568053;-;-;9.4492035;-0.9838257;0.19221497;-;-;-;-;-;-;-;-;-;-;-;-;-;-;-
1512470568074;-;-;10.449982;-0.097976685;-0.41471863;-;-;-;-;-;-;-;-;-;-;-;-;-;-;-
1512470568093;-;-;12.911224;-1.4650574;2.8354187;-;-;-;-;-;-;-;-;-;-;-;-;-;-;-
1512470568114;-;-;11.279572;-2.4682312;1.5928345;-;-;-;-;-;-;-;-;-;-;-;-;-;-;-
1512470568134;-;-;9.203796;-2.6837158;3.5453033;-;-;-;-;-;-;-;-;-;-;-;-;-;-;-
1512470568154;-;-;8.669891;-1.4075928;3.556076;-;-;-;-;-;-;-;-;-;-;-;-;-;-;-
1512470568175;-;-;8.291611;-0.042907715;3.421997;-;-;-;-;-;-;-;-;-;-;-;-;-;-;-
1512470568195;-;-;7.5673676;0.21566772;3.2220764;-;-;-;-;-;-;-;-;-;-;-;-;-;-;-
1512470568216;-;-;7.9827576;-0.047698975;2.994629;-;-;-;-;-;-;-;-;-;-;-;-;-;-;-
1512470568236;-;-;8.680664;-0.77433777;2.496643;-;-;-;-;-;-;-;-;-;-;-;-;-;-;-
1512470568256;-;-;9.102051;-1.0975494;2.2296906;-;-;-;-;-;-;-;-;-;-;-;-;-;-;-
1512470568276;-;-;8.885376;-1.5548401;2.0824432;-;-;-;-;-;-;-;-;-;-;-;-;-;-;-
1512470568297;-;-;8.182678;-1.2364197;1.9495697;-;-;-;-;-;-;-;-;-;-;-;-;-;-;-
1512470568317;-;-;7.869034;-0.7384186;2.5145874;-;-;-;-;-;-;-;-;-;-;-;-;-;-;-
1512470568338;-;-;8.0138855;-0.4882202;2.6630402;-;-;-;-;-;-;-;-;-;-;-;-;-;-;-
1512470568358;-;-;8.654327;-0.5732269;1.8908997;-;-;-;-;-;-;-;-;-;-;-;-;-;-;-
1512470568379;-;-;8.801575;-0.20930481;0.7033844;-;-;-;-;-;-;-;-;-;-;-;-;-;-;-
1512470568399;-;-;8.474762;0.3222046;1.5641022;-;-;-;-;-;-;-;-;-;-;-;-;-;-;-
1512470568419;-;-;8.302383;0.46466064;2.575653;-;-;-;-;-;-;-;-;-;-;-;-;-;-;-
1512470568440;-;-;8.232956;-0.1817627;2.8928833;-;-;-;-;-;-;-;-;-;-;-;-;-;-;-
1512470568461;-;-;8.436462;-1.3190155;2.2392578;-;-;-;-;-;-;-;-;-;-;-;-;-;-;-
1512470568481;-;-;8.529831;-2.3712616;2.0082245;-;-;-;-;-;-;-;-;-;-;-;-;-;-;-
1512470568502;-;-;8.490326;-3.2846527;2.6091614;-;-;-;-;-;-;-;-;-;-;-;-;-;-;-
1512470568522;-;-;8.869812;-3.3433075;1.7687988;-;-;-;-;-;-;-;-;-;-;-;-;-;-;-
1512470568542;-;-;8.967972;-2.6884918;1.5054321;-;-;-;-;-;-;-;-;-;-;-;-;-;-;-
1512470568563;-;-;8.715378;-1.7607422;1.8573914;-;-;-;-;-;-;-;-;-;-;-;-;-;-;-
1512470568584;-;-;8.334702;-0.25360107;2.1542664;-;-;-;-;-;-;-;-;-;-;-;-;-;-;-
1512470568604;-;-;7.9552307;0.41079712;3.6386719;-;-;-;-;-;-;-;-;-;-;-;-;-;-;-
1512470568625;-;-;8.448425;-0.32781982;4.0085754;-;-;-;-;-;-;-;-;-;-;-;-;-;-;-
1512470568645;-;-;8.971558;-1.1717682;2.958725;-;-;-;-;-;-;-;-;-;-;-;-;-;-;-
1512470568666;-;-;9.185837;-1.1226959;0.8422394;-;-;-;-;-;-;-;-;-;-;-;-;-;-;-
1512470568686;-;-;9.042191;-0.6917267;0.13356018;-;-;-;-;-;-;-;-;-;-;-;-;-;-;-
1512470568707;-;-;8.984726;-0.43675232;0.38974;-;-;-;-;-;-;-;-;-;-;-;-;-;-;-
1512470568726;-;-;9.3103485;-0.19732666;-0.3476715;-;-;-;-;-;-;-;-;-;-;-;-;-;-;-
1512470568747;-;-;10.404495;0.40361023;-0.75468445;-;-;-;-;-;-;-;-;-;-;-;-;-;-;-
1512470568767;-;-;10.815094;1.4606476;-0.3261261;-;-;-;-;-;-;-;-;-;-;-;-;-;-;-
1512470568788;-;-;10.927628;1.8389435;-0.05079651;-;-;-;-;-;-;-;-;-;-;-;-;-;-;-
1512470568808;-;-;10.677429;1.5181122;-0.08192444;-;-;-;-;-;-;-;-;-;-;-;-;-;-;-
1512470568828;-;-;9.752075;1.3074188;0.004272461;-;-;-;-;-;-;-;-;-;-;-;-;-;-;-
1512470568848;-;-;9.446808;0.5257263;0.55015564;-;-;-;-;-;-;-;-;-;-;-;-;-;-;-
1512470568868;-;-;9.184647;-0.8138428;0.49269104;-;-;-;-;-;-;-;-;-;-;-;-;-;-;-
1512470568890;-;-;8.515472;-1.3788757;-0.03163147;-;-;-;-;-;-;-;-;-;-;-;-;-;-;-
1512470568909;-;-;9.585678;-1.6661682;0.42086792;-;-;-;-;-;-;-;-;-;-;-;-;-;-;-
1512470568930;-;-;9.785599;-0.85453796;-0.2004242;-;-;-;-;-;-;-;-;-;-;-;-;-;-;-
1512470568950;-;-;10.216553;-0.057266235;-0.3153534;-;-;-;-;-;-;-;-;-;-;-;-;-;-;-
1512470568970;-;-;10.256058;0.50177;-0.27345276;-;-;-;-;-;-;-;-;-;-;-;-;-;-;-
1512470568991;-;-;10.070496;0.49220276;-0.451828;-;-;-;-;-;-;-;-;-;-;-;-;-;-;-
1512470569012;-;-;9.911285;0.4359436;-0.6266022;-;-;-;-;-;-;-;-;-;-;-;-;-;-;-
1512470569032;-;-;9.434845;0.17497253;-0.38478088;-;-;-;-;-;-;-;-;-;-;-;-;-;-;-
1512470569053;-;-;8.730942;-0.2799225;-0.1776886;-;-;-;-;-;-;-;-;-;-;-;-;-;-;-
1512470569072;-;-;8.531036;-0.96707153;-0.0053100586;-;-;-;-;-;-;-;-;-;-;-;-;-;-;-
1512470569092;-;-;8.369415;-0.9910126;-0.0053100586;-;-;-;-;-;-;-;-;-;-;-;-;-;-;-
1512470569113;-;-;8.815933;-0.96946716;-0.34288025;-;-;-;-;-;-;-;-;-;-;-;-;-;-;-
1512470569133;-;-;8.898544;-0.72883606;-0.64933777;-;-;-;-;-;-;-;-;-;-;-;-;-;-;-
1512470569153;-;-;8.756088;-0.6929321;-0.7858124;-;-;-;-;-;-;-;-;-;-;-;-;-;-;-
1512470569174;-;-;8.733337;-0.6546173;-0.70680237;-;-;-;-;-;-;-;-;-;-;-;-;-;-;-
1512470569194;-;-;9.001495;-0.56604004;-0.590683;-;-;-;-;-;-;-;-;-;-;-;-;-;-;-
1512470569215;-;-;9.234924;-0.5456848;-0.46858215;-;-;-;-;-;-;-;-;-;-;-;-;-;-;-
1512470569236;-;-;9.530609;-0.2571869;-0.7403259;-;-;-;-;-;-;-;-;-;-;-;-;-;-;-
1512470569255;-;-;9.521027;0.09715271;-0.8325043;-;-;-;-;-;-;-;-;-;-;-;-;-;-;-
1512470569275;-;-;9.522232;0.15222168;-0.8169403;-;-;-;-;-;-;-;-;-;-;-;-;-;-;-
1512470569296;-;-;9.234924;0.25038147;-0.8001709;-;-;-;-;-;-;-;-;-;-;-;-;-;-;-
1512470569316;-;-;8.813553;0.10194397;-0.7475128;-;-;-;-;-;-;-;-;-;-;-;-;-;-;-
1512470569337;-;-;8.8051605;-0.1482544;-0.59547424;-;-;-;-;-;-;-;-;-;-;-;-;-;-;-
1512470569358;-;-;8.946426;-0.34217834;-0.2674713;-;-;-;-;-;-;-;-;-;-;-;-;-;-;-
1512470569378;-;-;9.380966;-0.4163971;-0.33929443;-;-;-;-;-;-;-;-;-;-;-;-;-;-;-
1512470569398;-;-;9.659897;-0.28112793;-0.36802673;-;-;-;-;-;-;-;-;-;-;-;-;-;-;-
1512470569419;-;-;9.657501;-0.3074646;-0.46618652;-;-;-;-;-;-;-;-;-;-;-;-;-;-;-
1512470569439;-;-;9.451599;-0.51216125;-0.5032959;-;-;-;-;-;-;-;-;-;-;-;-;-;-;-
1512470569460;-;-;9.104446;-0.6905365;-0.27703857;-;-;-;-;-;-;-;-;-;-;-;-;-;-;-
1512470569480;-;-;8.935654;-0.9945984;-0.34048462;-;-;-;-;-;-;-;-;-;-;-;-;-;-;-
1512470569501;-;-;9.058945;-1.0963593;-0.45062256;-;-;-;-;-;-;-;-;-;-;-;-;-;-;-
1512470569521;-;-;9.051773;-0.9107971;-0.16931152;-;-;-;-;-;-;-;-;-;-;-;-;-;-;-
1512470569542;-;-;9.124786;-0.6438446;-0.19085693;-;-;-;-;-;-;-;-;-;-;-;-;-;-;-
1512470569561;-;-;9.351044;-0.6139221;-0.39675903;-;-;-;-;-;-;-;-;-;-;-;-;-;-;-
1512470569582;-;-;9.571304;-0.4152069;-0.47097778;-;-;-;-;-;-;-;-;-;-;-;-;-;-;-
1512470569602;-;-;9.600037;-0.31584167;-0.2674713;-;-;-;-;-;-;-;-;-;-;-;-;-;-;-
1512470569623;-;-;9.658707;-0.6318817;0.14193726;-;-;-;-;-;-;-;-;-;-;-;-;-;-;-
1512470569643;-;-;9.823898;-1.0221252;0.17904663;-;-;-;-;-;-;-;-;-;-;-;-;-;-;-
1512470569664;-;-;9.623978;-1.4961853;0.36819458;-;-;-;-;-;-;-;-;-;-;-;-;-;-;-
1512470569684;-;-;9.312744;-1.664978;0.40530396;-;-;-;-;-;-;-;-;-;-;-;-;-;-;-
1512470569704;-;-;8.8997345;-1.5249176;0.57528687;-;-;-;-;-;-;-;-;-;-;-;-;-;-;-
1512470569725;-;-;8.630386;-1.4016113;0.6495056;-;-;-;-;-;-;-;-;-;-;-;-;-;-;-
1512470569744;-;-;8.44603;-1.4064026;0.52500916;-;-;-;-;-;-;-;-;-;-;-;-;-;-;-
1512470569764;-;-;8.274857;-1.1873322;0.6088104;-;-;-;-;-;-;-;-;-;-;-;-;-;-;-
1512470569785;-;-;8.526245;-1.1059265;0.37538147;-;-;-;-;-;-;-;-;-;-;-;-;-;-;-
1512470569805;-;-;8.774048;-1.107132;0.6830292;-;-;-;-;-;-;-;-;-;-;-;-;-;-;-
1512470569826;-;-;9.019455;-1.2843018;0.508255;-;-;-;-;-;-;-;-;-;-;-;-;-;-;-
1512470569846;-;-;8.985931;-1.5500488;0.25686646;-;-;-;-;-;-;-;-;-;-;-;-;-;-;-
1512470569867;-;-;8.926071;-1.4746399;0.35502625;-;-;-;-;-;-;-;-;-;-;-;-;-;-;-
1512470569888;-;-;8.793198;-1.3034515;0.4184723;-;-;-;-;-;-;-;-;-;-;-;-;-;-;-
1512470569907;-;-;8.847061;-1.1633911;0.5968323;-;-;-;-;-;-;-;-;-;-;-;-;-;-;-
1512470569928;-;-;8.829102;-1.1885223;0.63275146;-;-;-;-;-;-;-;-;-;-;-;-;-;-;-
1512470569948;-;-;8.367035;-1.4758301;0.6315613;-;-;-;-;-;-;-;-;-;-;-;-;-;-;-
1512470569968;-;-;8.162323;-1.6266632;0.44360352;-;-;-;-;-;-;-;-;-;-;-;-;-;-;-
1512470569989;-;-;8.262878;-1.6482086;0.41488647;-;-;-;-;-;-;-;-;-;-;-;-;-;-;-
1512470570009;-;-;8.180283;-1.5177307;0.6088104;-;-;-;-;-;-;-;-;-;-;-;-;-;-;-
1512470570030;-;-;7.889389;-1.7487793;0.30116272;-;-;-;-;-;-;-;-;-;-;-;-;-;-;-
1512470570050;-;-;7.7217865;-1.9881897;-0.11303711;-;-;-;-;-;-;-;-;-;-;-;-;-;-;-
1512470570071;-;-;7.635605;-1.8373566;0.9523773;-;-;-;-;-;-;-;-;-;-;-;-;-;-;-
1512470570091;-;-;7.640381;-1.7703247;0.6566925;-;-;-;-;-;-;-;-;-;-;-;-;-;-;-
1512470570112;-;-;8.217392;-2.0265045;0.20179749;-;-;-;-;-;-;-;-;-;-;-;-;-;-;-
1512470570131;-;-;8.001907;-1.8804474;-0.70440674;-;-;-;-;-;-;-;-;-;-;-;-;-;-;-
1512470570152;-;-;7.585327;-1.2112732;-0.33929443;-;-;-;-;-;-;-;-;-;-;-;-;-;-;-
1512470570172;-;-;7.6786957;-0.9766388;0.6638794;-;-;-;-;-;-;-;-;-;-;-;-;-;-;-
1512470570193;-;-;7.3698425;-1.0424805;0.2628479;-;-;-;-;-;-;-;-;-;-;-;-;-;-;-
1512470570213;-;-;8.540604;-1.8888397;-2.907074;-;-;-;-;-;-;-;-;-;-;-;-;-;-;-
1512470570234;-;-;8.167114;-2.4586487;-0.05079651;-;-;-;-;-;-;-;-;-;-;-;-;-;-;-
1512470570254;-;-;8.358643;-1.6972961;-0.01008606;-;-;-;-;-;-;-;-;-;-;-;-;-;-;-
1512470570274;-;-;9.260071;-0.68455505;-0.34048462;-;-;-;-;-;-;-;-;-;-;-;-;-;-;-
1512470570295;-;-;9.210983;-0.8856659;0.3825531;-;-;-;-;-;-;-;-;-;-;-;-;-;-;-
1512470570316;-;-;8.362244;-0.99220276;-0.09867859;-;-;-;-;-;-;-;-;-;-;-;-;-;-;-
1512470570336;-;-;7.3925934;-0.8688965;0.0030822754;-;-;-;-;-;-;-;-;-;-;-;-;-;-;-
1512470570357;-;-;6.904175;-1.3776703;0.4472046;-;-;-;-;-;-;-;-;-;-;-;-;-;-;-
1512470570376;-;-;7.7026367;-2.7076569;0.72372437;-;-;-;-;-;-;-;-;-;-;-;-;-;-;-
1512470570397;-;-;8.074936;-3.3947906;0.08328247;-;-;-;-;-;-;-;-;-;-;-;-;-;-;-
1512470570417;-;-;9.159515;-2.9746094;-0.5823059;-;-;-;-;-;-;-;-;-;-;-;-;-;-;-
1512470570437;-;-;10.48111;-2.5687866;-0.72595215;-;-;-;-;-;-;-;-;-;-;-;-;-;-;-
1512470570458;-;-;12.202545;-2.5340729;0.41368103;-;-;-;-;-;-;-;-;-;-;-;-;-;-;-
1512470570477;-;-;12.26239;-1.882843;0.7368927;-;-;-;-;-;-;-;-;-;-;-;-;-;-;-
1512470570498;-;-;10.831863;-1.5512543;0.8266754;-;-;-;-;-;-;-;-;-;-;-;-;-;-;-
1512470570517;-;-;9.457581;-2.0312958;-0.9546051;-;-;-;-;-;-;-;-;-;-;-;-;-;-;-
1512470570538;-;-;8.629196;-2.2168427;-1.2921906;-;-;-;-;-;-;-;-;-;-;-;-;-;-;-
1512470570558;-;-;8.499908;-2.1055145;-0.107055664;-;-;-;-;-;-;-;-;-;-;-;-;-;-;-
1512470570579;-;-;8.875793;-2.2192383;1.6826019;-;-;-;-;-;-;-;-;-;-;-;-;-;-;-
1512470570599;-;-;9.216965;-2.598709;1.4072723;-;-;-;-;-;-;-;-;-;-;-;-;-;-;-
1512470570619;-;-;9.422867;-2.9207306;0.844635;-;-;-;-;-;-;-;-;-;-;-;-;-;-;-
1512470570640;-;-;9.549759;-2.79982;-0.19085693;-;-;-;-;-;-;-;-;-;-;-;-;-;-;-
1512470570660;-;-;9.766434;-1.8002472;0.28799438;-;-;-;-;-;-;-;-;-;-;-;-;-;-;-
1512470570680;-;-;9.9077;-1.3226013;2.2847443;-;-;-;-;-;-;-;-;-;-;-;-;-;-;-
1512470570701;-;-;10.648697;-1.5153351;2.4667053;-;-;-;-;-;-;-;-;-;-;-;-;-;-;-
1512470570721;-;-;10.812698;-1.4650574;2.2105255;-;-;-;-;-;-;-;-;-;-;-;-;-;-;-
1512470570742;-;-;10.629547;-1.6362457;2.4427643;-;-;-;-;-;-;-;-;-;-;-;-;-;-;-
1512470570761;-;-;10.058533;-1.7176514;2.556488;-;-;-;-;-;-;-;-;-;-;-;-;-;-;-
1512470570781;-;-;9.434845;-1.0592499;3.4351654;-;-;-;-;-;-;-;-;-;-;-;-;-;-;-
1512470570802;-;-;10.490677;-0.3146515;4.5544586;-;-;-;-;-;-;-;-;-;-;-;-;-;-;-
1512470570822;-;-;12.239655;0.8525238;5.0727997;-;-;-;-;-;-;-;-;-;-;-;-;-;-;-
1512470570843;-;-;13.8090515;0.53170776;4.416794;-;-;-;-;-;-;-;-;-;-;-;-;-;-;-
1512470570863;-;-;14.973831;1.1398315;3.7547913;-;-;-;-;-;-;-;-;-;-;-;-;-;-;-
1512470570884;-;-;11.259216;0.8213959;3.4471436;-;-;-;-;-;-;-;-;-;-;-;-;-;-;-
1512470570904;-;-;8.8207245;0.5592346;4.6538086;-;-;-;-;-;-;-;-;-;-;-;-;-;-;-
1512470570925;-;-;6.6611633;0.65979004;3.8505554;-;-;-;-;-;-;-;-;-;-;-;-;-;-;-
1512470570945;-;-;5.495178;0.8022461;4.465866;-;-;-;-;-;-;-;-;-;-;-;-;-;-;-
1512470570966;-;-;5.434128;1.3636932;4.370102;-;-;-;-;-;-;-;-;-;-;-;-;-;-;-
1512470570986;-;-;6.2661133;1.798233;4.619095;-;-;-;-;-;-;-;-;-;-;-;-;-;-;-
1512470571007;-;-;7.1364136;1.7371826;5.2140503;-;-;-;-;-;-;-;-;-;-;-;-;-;-;-
1512470571027;-;-;6.419342;0.809433;6.172928;-;-;-;-;-;-;-;-;-;-;-;-;-;-;-
1512470571048;-;-;6.1248627;-0.018966675;7.7997894;-;-;-;-;-;-;-;-;-;-;-;-;-;-;-
1512470571067;-;-;5.5622253;-0.5708313;8.820923;-;-;-;-;-;-;-;-;-;-;-;-;-;-;-
1512470571089;-;-;6.268509;-0.9143982;8.779022;-;-;-;-;-;-;-;-;-;-;-;-;-;-;-
1512470571109;-;-;6.2481537;-0.7276459;7.678894;-;-;-;-;-;-;-;-;-;-;-;-;-;-;-
1512470571130;-;-;5.952469;-0.52293396;7.3377075;-;-;-;-;-;-;-;-;-;-;-;-;-;-;-
1512470571150;-;-;5.901001;-0.89164734;6.95224;-;-;-;-;-;-;-;-;-;-;-;-;-;-;-
1512470571171;-;-;6.3211823;-1.7715149;6.354889;-;-;-;-;-;-;-;-;-;-;-;-;-;-;-
1512470571192;-;-;6.825165;-2.1725464;5.540863;-;-;-;-;-;-;-;-;-;-;-;-;-;-;-
1512470571212;-;-;6.7880554;-2.0863495;5.5025635;-;-;-;-;-;-;-;-;-;-;-;-;-;-;-
1512470571233;-;-;7.6188354;-1.779892;5.3481293;-;-;-;-;-;-;-;-;-;-;-;-;-;-;-
1512470571253;-;-;8.108459;-1.4351349;5.4594574;-;-;-;-;-;-;-;-;-;-;-;-;-;-;-
1512470571274;-;-;7.8714294;-0.94073486;5.750351;-;-;-;-;-;-;-;-;-;-;-;-;-;-;-
1512470571293;-;-;7.02269;-0.1985321;6.986969;-;-;-;-;-;-;-;-;-;-;-;-;-;-;-
1512470571313;-;-;5.8962097;-0.13627625;8.881973;-;-;-;-;-;-;-;-;-;-;-;-;-;-;-
1512470571334;-;-;5.185135;-0.32063293;9.533203;-;-;-;-;-;-;-;-;-;-;-;-;-;-;-
1512470571354;-;-;5.097748;-0.6007538;8.7491;-;-;-;-;-;-;-;-;-;-;-;-;-;-;-
1512470571374;-;-;5.605316;-1.2591553;8.982529;-;-;-;-;-;-;-;-;-;-;-;-;-;-;-
1512470571395;-;-;5.648407;-0.84017944;8.667694;-;-;-;-;-;-;-;-;-;-;-;-;-;-;-
1512470571415;-;-;5.8363495;-0.55526733;8.320526;-;-;-;-;-;-;-;-;-;-;-;-;-;-;-
1512470571436;-;-;5.7717133;-0.24281311;7.829727;-;-;-;-;-;-;-;-;-;-;-;-;-;-;-
1512470571456;-;-;5.3563232;-0.12669373;6.12265;-;-;-;-;-;-;-;-;-;-;-;-;-;-;-
1512470571476;-;-;5.7010803;0.07081604;4.2659607;-;-;-;-;-;-;-;-;-;-;-;-;-;-;-
1512470571497;-;-;6.6024933;0.13067627;3.3178558;-;-;-;-;-;-;-;-;-;-;-;-;-;-;-
1512470571517;-;-;7.4488525;-0.00340271;3.4088287;-;-;-;-;-;-;-;-;-;-;-;-;-;-;-
1512470571538;-;-;8.228165;-0.121917725;5.513336;-;-;-;-;-;-;-;-;-;-;-;-;-;-;-
1512470571558;-;-;8.691437;0.22883606;6.1597595;-;-;-;-;-;-;-;-;-;-;-;-;-;-;-
1512470571579;-;-;9.005081;0.07081604;6.466217;-;-;-;-;-;-;-;-;-;-;-;-;-;-;-
1512470571599;-;-;9.037399;-0.704895;6.702057;-;-;-;-;-;-;-;-;-;-;-;-;-;-;-
1512470571620;-;-;8.315552;-1.8612976;7.165329;-;-;-;-;-;-;-;-;-;-;-;-;-;-;-
1512470571640;-;-;6.809601;-1.7152557;7.422714;-;-;-;-;-;-;-;-;-;-;-;-;-;-;-
1512470571661;-;-;4.8942413;-1.1837463;8.59227;-;-;-;-;-;-;-;-;-;-;-;-;-;-;-
1512470571681;-;-;4.020355;-1.2639465;9.051956;-;-;-;-;-;-;-;-;-;-;-;-;-;-;-
1512470571702;-;-;3.710312;-1.3142242;8.756271;-;-;-;-;-;-;-;-;-;-;-;-;-;-;-
1512470571722;-;-;3.845581;-1.2471924;8.605438;-;-;-;-;-;-;-;-;-;-;-;-;-;-;-
1512470571743;-;-;4.2178802;-0.85214233;8.644943;-;-;-;-;-;-;-;-;-;-;-;-;-;-;-
1512470571763;-;-;4.4632874;-0.4738617;8.279831;-;-;-;-;-;-;-;-;-;-;-;-;-;-;-
1512470571784;-;-;4.126892;-0.4163971;7.9302826;-;-;-;-;-;-;-;-;-;-;-;-;-;-;-
1512470571804;-;-;4.1628113;-0.09437561;7.7315674;-;-;-;-;-;-;-;-;-;-;-;-;-;-;-
1512470571824;-;-;4.5075684;0.4766388;7.555588;-;-;-;-;-;-;-;-;-;-;-;-;-;-;-
1512470571845;-;-;4.627289;0.50057983;7.0133057;-;-;-;-;-;-;-;-;-;-;-;-;-;-;-
1512470571865;-;-;4.3387756;0.4084015;6.805008;-;-;-;-;-;-;-;-;-;-;-;-;-;-;-
1512470571885;-;-;4.2573853;0.4119873;6.8708496;-;-;-;-;-;-;-;-;-;-;-;-;-;-;-
1512470571906;-;-;4.766144;0.5257263;6.8109894;-;-;-;-;-;-;-;-;-;-;-;-;-;-;-
1512470571927;-;-;5.5239105;0.83695984;6.821762;-;-;-;-;-;-;-;-;-;-;-;-;-;-;-
1512470571947;-;-;5.93692;1.046463;6.844513;-;-;-;-;-;-;-;-;-;-;-;-;-;-;-
1512470571968;-;-;6.936493;0.77711487;6.5177;-;-;-;-;-;-;-;-;-;-;-;-;-;-;-
1512470571988;-;-;7.655945;0.62028503;6.1908875;-;-;-;-;-;-;-;-;-;-;-;-;-;-;-
1512470572009;-;-;7.7804413;0.21447754;6.1406097;-;-;-;-;-;-;-;-;-;-;-;-;-;-;-
1512470572030;-;-;7.166336;-0.10635376;6.496155;-;-;-;-;-;-;-;-;-;-;-;-;-;-;-
1512470572051;-;-;6.394211;-0.21528625;7.141388;-;-;-;-;-;-;-;-;-;-;-;-;-;-;-
1512470572073;-;-;5.8878326;-0.5241394;7.599884;-;-;-;-;-;-;-;-;-;-;-;-;-;-;-
1512470572092;-;-;5.916565;-0.45111084;7.9254913;-;-;-;-;-;-;-;-;-;-;-;-;-;-;-
1512470572112;-;-;6.1045074;-0.51815796;8.23674;-;-;-;-;-;-;-;-;-;-;-;-;-;-;-
1512470572133;-;-;6.038666;-0.5157623;8.069138;-;-;-;-;-;-;-;-;-;-;-;-;-;-;-
1512470572153;-;-;5.9189606;-0.27394104;8.154144;-;-;-;-;-;-;-;-;-;-;-;-;-;-;-
1512470572173;-;-;5.624466;-0.1925354;8.277435;-;-;-;-;-;-;-;-;-;-;-;-;-;-;-
1512470572194;-;-;5.2916718;-0.24880981;8.199631;-;-;-;-;-;-;-;-;-;-;-;-;-;-;-
1512470572214;-;-;4.5363007;-0.35176086;8.242722;-;-;-;-;-;-;-;-;-;-;-;-;-;-;-
1512470572234;-;-;4.220276;-0.3002777;8.440247;-;-;-;-;-;-;-;-;-;-;-;-;-;-;-
1512470572254;-;-;4.0610504;-0.2799225;8.71199;-;-;-;-;-;-;-;-;-;-;-;-;-;-;-
1512470572275;-;-;4.169998;-0.040512085;8.844864;-;-;-;-;-;-;-;-;-;-;-;-;-;-;-
1512470572296;-;-;4.5351105;-0.0105896;8.782608;-;-;-;-;-;-;-;-;-;-;-;-;-;-;-
1512470572316;-;-;4.9888153;-0.2679596;8.39476;-;-;-;-;-;-;-;-;-;-;-;-;-;-;-
1512470572336;-;-;5.177948;-0.47146606;8.339691;-;-;-;-;-;-;-;-;-;-;-;-;-;-;-
1512470572357;-;-;5.4257507;-0.58877563;8.240326;-;-;-;-;-;-;-;-;-;-;-;-;-;-;-
1512470572377;-;-;5.6184845;-0.5061798;7.972183;-;-;-;-;-;-;-;-;-;-;-;-;-;-;-
1512470572398;-;-;5.8040314;-0.23803711;7.7243805;-;-;-;-;-;-;-;-;-;-;-;-;-;-;-
1512470572418;-;-;5.9393005;-0.0045928955;7.7160034;-;-;-;-;-;-;-;-;-;-;-;-;-;-;-
1512470572439;-;-;5.9548645;0.2192688;7.537628;-;-;-;-;-;-;-;-;-;-;-;-;-;-;-
1512470572459;-;-;5.9931793;0.2420044;7.4239044;-;-;-;-;-;-;-;-;-;-;-;-;-;-;-
1512470572480;-;-;6.395401;0.41079712;7.6609344;-;-;-;-;-;-;-;-;-;-;-;-;-;-;-
1512470572500;-;-;6.651581;0.30426025;7.314972;-;-;-;-;-;-;-;-;-;-;-;-;-;-;-
1512470572521;-;-;6.7341766;0.0756073;6.473404;-;-;-;-;-;-;-;-;-;-;-;-;-;-;-
1512470572542;-;-;6.415756;-0.07762146;5.896408;-;-;-;-;-;-;-;-;-;-;-;-;-;-;-
1512470572562;-;-;6.1128845;-0.13867188;5.8988037;-;-;-;-;-;-;-;-;-;-;-;-;-;-;-
1512470572582;-;-;5.813614;0.007369995;6.6972656;-;-;-;-;-;-;-;-;-;-;-;-;-;-;-
1512470572602;-;-;5.5083466;0.013366699;7.1820984;-;-;-;-;-;-;-;-;-;-;-;-;-;-;-
1512470572623;-;-;5.1396484;-0.07043457;7.4957275;-;-;-;-;-;-;-;-;-;-;-;-;-;-;-
1512470572644;-;-;4.869095;-0.39126587;7.8428955;-;-;-;-;-;-;-;-;-;-;-;-;-;-;-
1512470572664;-;-;4.80925;-0.8102417;8.067947;-;-;-;-;-;-;-;-;-;-;-;-;-;-;-
1512470572685;-;-;4.8164215;-0.996994;8.228363;-;-;-;-;-;-;-;-;-;-;-;-;-;-;-
1512470572704;-;-;4.769745;-0.9395294;8.366028;-;-;-;-;-;-;-;-;-;-;-;-;-;-;-
1512470572725;-;-;4.684738;-0.7084961;8.43306;-;-;-;-;-;-;-;-;-;-;-;-;-;-;-
1512470572744;-;-;4.469269;-0.58039856;8.509674;-;-;-;-;-;-;-;-;-;-;-;-;-;-;-
1512470572764;-;-;4.276535;-0.50857544;8.503693;-;-;-;-;-;-;-;-;-;-;-;-;-;-;-
1512470572785;-;-;4.2154846;-0.44273376;8.525238;-;-;-;-;-;-;-;-;-;-;-;-;-;-;-
1512470572805;-;-;4.3184357;-0.31584167;8.526428;-;-;-;-;-;-;-;-;-;-;-;-;-;-;-
1512470572826;-;-;4.6416473;-0.19732666;8.409119;-;-;-;-;-;-;-;-;-;-;-;-;-;-;-
1512470572846;-;-;4.9421234;-0.08241272;8.185257;-;-;-;-;-;-;-;-;-;-;-;-;-;-;-
1512470572867;-;-;5.2234344;-0.03453064;7.9614105;-;-;-;-;-;-;-;-;-;-;-;-;-;-;-
1512470572888;-;-;5.3575134;-0.0010070801;7.730362;-;-;-;-;-;-;-;-;-;-;-;-;-;-;-
1512470572907;-;-;5.3958282;0.07321167;7.611847;-;-;-;-;-;-;-;-;-;-;-;-;-;-;-
1512470572927;-;-;5.5119476;0.067230225;7.698044;-;-;-;-;-;-;-;-;-;-;-;-;-;-;-
1512470572947;-;-;5.648407;-0.033325195;7.4394684;-;-;-;-;-;-;-;-;-;-;-;-;-;-;-
1512470572968;-;-;5.79805;-0.2392273;7.311371;-;-;-;-;-;-;-;-;-;-;-;-;-;-;-
1512470572989;-;-;5.8411407;-0.2571869;7.304199;-;-;-;-;-;-;-;-;-;-;-;-;-;-;-
1512470573008;-;-;5.6699524;-0.21289063;7.5591736;-;-;-;-;-;-;-;-;-;-;-;-;-;-;-
1512470573029;-;-;5.4532776;-0.35176086;7.797394;-;-;-;-;-;-;-;-;-;-;-;-;-;-;-
1512470573050;-;-;5.1683807;-0.51216125;8.006897;-;-;-;-;-;-;-;-;-;-;-;-;-;-;-
1512470573070;-;-;5.058243;-0.5732269;7.943451;-;-;-;-;-;-;-;-;-;-;-;-;-;-;-
1512470573090;-;-;4.8750916;-0.6318817;8.0212555;-;-;-;-;-;-;-;-;-;-;-;-;-;-;-
1512470573110;-;-;4.762558;-0.5061798;8.087097;-;-;-;-;-;-;-;-;-;-;-;-;-;-;-
1512470573131;-;-;4.754181;-0.46548462;8.304977;-;-;-;-;-;-;-;-;-;-;-;-;-;-;-
1512470573150;-;-;4.8367767;-0.51934814;8.349258;-;-;-;-;-;-;-;-;-;-;-;-;-;-;-
1512470573171;-;-;5.035492;-0.6151123;8.208008;-;-;-;-;-;-;-;-;-;-;-;-;-;-;-
1512470573191;-;-;5.1444244;-0.6115265;8.032028;-;-;-;-;-;-;-;-;-;-;-;-;-;-;-
1512470573212;-;-;5.193512;-0.39604187;7.963791;-;-;-;-;-;-;-;-;-;-;-;-;-;-;-
1512470573232;-;-;5.185135;-0.20930481;8.0212555;-;-;-;-;-;-;-;-;-;-;-;-;-;-;-
1512470573252;-;-;5.1827393;-0.05368042;7.7650757;-;-;-;-;-;-;-;-;-;-;-;-;-;-;-
1512470573273;-;-;5.2665405;0.13186646;7.6681213;-;-;-;-;-;-;-;-;-;-;-;-;-;-;-
1512470573293;-;-;5.2306213;0.20010376;7.8153534;-;-;-;-;-;-;-;-;-;-;-;-;-;-;-
1512470573314;-;-;5.407791;0.1330719;7.9937286;-;-;-;-;-;-;-;-;-;-;-;-;-;-;-
1512470573335;-;-;5.4329376;-0.47027588;7.951828;-;-;-;-;-;-;-;-;-;-;-;-;-;-;-
1512470573355;-;-;5.4724426;-0.7815094;7.7363434;-;-;-;-;-;-;-;-;-;-;-;-;-;-;-
1512470573376;-;-;5.410187;-0.69651794;7.5699463;-;-;-;-;-;-;-;-;-;-;-;-;-;-;-
1512470573395;-;-;5.237808;-0.5732269;7.6286163;-;-;-;-;-;-;-;-;-;-;-;-;-;-;-
1512470573416;-;-;5.1947174;-0.48223877;7.750717;-;-;-;-;-;-;-;-;-;-;-;-;-;-;-
1512470573437;-;-;5.2389984;-0.48703003;7.871628;-;-;-;-;-;-;-;-;-;-;-;-;-;-;-
1512470573457;-;-;5.316818;-0.5061798;7.8859863;-;-;-;-;-;-;-;-;-;-;-;-;-;-;-
1512470573478;-;-;5.30484;-0.55166626;7.951828;-;-;-;-;-;-;-;-;-;-;-;-;-;-;-
1512470573498;-;-;5.276108;-0.5600586;7.9661865;-;-;-;-;-;-;-;-;-;-;-;-;-;-;-
1512470573518;-;-;5.2521667;-0.5217438;7.8596497;-;-;-;-;-;-;-;-;-;-;-;-;-;-;-
1512470573539;-;-;5.260544;-0.36372375;7.896759;-;-;-;-;-;-;-;-;-;-;-;-;-;-;-
1512470573561;-;-;5.249771;-0.27275085;7.872818;-;-;-;-;-;-;-;-;-;-;-;-;-;-;-
1512470573582;-;-;5.2222443;-0.3074646;7.84169;-;-;-;-;-;-;-;-;-;-;-;-;-;-;-
1512470573602;-;-;5.2186584;-0.28352356;7.8752136;-;-;-;-;-;-;-;-;-;-;-;-;-;-;-
1512470573622;-;-;5.192322;-0.26914978;7.8596497;-;-;-;-;-;-;-;-;-;-;-;-;-;-;-
1512470573643;-;-;5.1635895;-0.29429626;7.880005;-;-;-;-;-;-;-;-;-;-;-;-;-;-;-
1512470573663;-;-;5.177948;-0.32901;7.9506226;-;-;-;-;-;-;-;-;-;-;-;-;-;-;-
1512470573684;-;-;5.2389984;-0.3182373;7.872818;-;-;-;-;-;-;-;-;-;-;-;-;-;-;-
1512470573704;-;-;5.2473755;-0.31225586;7.864441;-;-;-;-;-;-;-;-;-;-;-;-;-;-;-
1512470573725;-;-;5.192322;-0.29548645;7.8871765;-;-;-;-;-;-;-;-;-;-;-;-;-;-;-
1512470573745;-;-;5.1492157;-0.26914978;7.913513;-;-;-;-;-;-;-;-;-;-;-;-;-;-;-
1512470573766;-;-;5.1671753;-0.25837708;7.943451;-;-;-;-;-;-;-;-;-;-;-;-;-;-;-
1512470573788;-;-;5.1755524;-0.30506897;7.903946;-;-;-;-;-;-;-;-;-;-;-;-;-;-;-
1512470573808;-;-;5.186325;-0.28352356;7.869232;-;-;-;-;-;-;-;-;-;-;-;-;-;-;-
1512470573828;-;-;5.142044;-0.29429626;7.884796;-;-;-;-;-;-;-;-;-;-;-;-;-;-;-
1512470573848;-;-;5.2222443;-0.29908752;7.84169;-;-;-;-;-;-;-;-;-;-;-;-;-;-;-
1512470573869;-;-;5.280899;-0.33140564;7.8512726;-;-;-;-;-;-;-;-;-;-;-;-;-;-;-
1512470573889;-;-;5.297653;-0.3697052;7.8392944;-;-;-;-;-;-;-;-;-;-;-;-;-;-;-
1512470573910;-;-;5.3072357;-0.36132813;7.8440857;-;-;-;-;-;-;-;-;-;-;-;-;-;-;-
1512470573930;-;-;5.2916718;-0.3864746;7.8464813;-;-;-;-;-;-;-;-;-;-;-;-;-;-;-
1512470573951;-;-;5.216263;-0.34576416;7.8620453;-;-;-;-;-;-;-;-;-;-;-;-;-;-;-
1512470573971;-;-;5.134857;-0.37449646;7.884796;-;-;-;-;-;-;-;-;-;-;-;-;-;-;-
1512470573992;-;-;5.1396484;-0.36372375;7.8620453;-;-;-;-;-;-;-;-;-;-;-;-;-;-;-
1512470574014;-;-;5.169571;-0.3757019;7.884796;-;-;-;-;-;-;-;-;-;-;-;-;-;-;-
1512470574035;-;-;5.185135;-0.3757019;7.8680267;-;-;-;-;-;-;-;-;-;-;-;-;-;-;-
1512470574055;-;-;5.264145;-0.36253357;7.896759;-;-;-;-;-;-;-;-;-;-;-;-;-;-;-
1512470574075;-;-;5.255768;-0.36132813;7.8871765;-;-;-;-;-;-;-;-;-;-;-;-;-;-;-
1512470574096;-;-;5.2354126;-0.3254242;7.86084;-;-;-;-;-;-;-;-;-;-;-;-;-;-;-
1512470574116;-;-;5.240204;-0.29788208;7.8309174;-;-;-;-;-;-;-;-;-;-;-;-;-;-;-
1512470574137;-;-;5.288086;-0.31584167;7.812958;-;-;-;-;-;-;-;-;-;-;-;-;-;-;-
1512470574158;-;-;5.2904816;-0.2966919;7.8464813;-;-;-;-;-;-;-;-;-;-;-;-;-;-;-
1512470574178;-;-;5.3024445;-0.33738708;7.800995;-;-;-;-;-;-;-;-;-;-;-;-;-;-;-
1512470574198;-;-;5.3455505;-0.34457397;7.785431;-;-;-;-;-;-;-;-;-;-;-;-;-;-;-
1512470574219;-;-;5.3012543;-0.35295105;7.7878265;-;-;-;-;-;-;-;-;-;-;-;-;-;-;-
1512470574239;-;-;5.292877;-0.3589325;7.845291;-;-;-;-;-;-;-;-;-;-;-;-;-;-;-
1512470574259;-;-;5.2545624;-0.368515;7.836899;-;-;-;-;-;-;-;-;-;-;-;-;-;-;-
1512470574279;-;-;5.2186584;-0.34576416;7.8824005;-;-;-;-;-;-;-;-;-;-;-;-;-;-;-
1512470574300;-;-;5.2078857;-0.29908752;7.8835907;-;-;-;-;-;-;-;-;-;-;-;-;-;-;-
1512470574320;-;-;5.1947174;-0.33738708;7.9171143;-;-;-;-;-;-;-;-;-;-;-;-;-;-;-
1512470574341;-;-;5.170761;-0.3864746;7.8776093;-;-;-;-;-;-;-;-;-;-;-;-;-;-;-
1512470574361;-;-;5.165985;-0.39485168;7.8632355;-;-;-;-;-;-;-;-;-;-;-;-;-;-;-
1512470574382;-;-;5.1887207;-0.38407898;7.880005;-;-;-;-;-;-;-;-;-;-;-;-;-;-;-
1512470574402;-;-;5.1827393;-0.39006042;7.881195;-;-;-;-;-;-;-;-;-;-;-;-;-;-;-
1512470574423;-;-;5.2521667;-0.37091064;7.9063416;-;-;-;-;-;-;-;-;-;-;-;-;-;-;-
1512470574443;-;-;5.237808;-0.39006042;7.895569;-;-;-;-;-;-;-;-;-;-;-;-;-;-;-
1512470574464;-;-;5.3216095;-0.38526917;7.8680267;-;-;-;-;-;-;-;-;-;-;-;-;-;-;-
1512470574485;-;-;5.279709;-0.38168335;7.774658;-;-;-;-;-;-;-;-;-;-;-;-;-;-;-
1512470574506;-;-;5.2150574;-0.34936523;7.8237305;-;-;-;-;-;-;-;-;-;-;-;-;-;-;-
1512470574526;-;-;5.189926;-0.36253357;7.8776093;-;-;-;-;-;-;-;-;-;-;-;-;-;-;-
1512470574546;-;-;5.192322;-0.34936523;7.8859863;-;-;-;-;-;-;-;-;-;-;-;-;-;-;-
1512470574567;-;-;5.1959076;-0.34576416;7.913513;-;-;-;-;-;-;-;-;-;-;-;-;-;-;-
1512470574588;-;-;5.1803436;-0.33259583;7.924286;-;-;-;-;-;-;-;-;-;-;-;-;-;-;-
1512470574609;-;-;5.158798;-0.30986023;7.8871765;-;-;-;-;-;-;-;-;-;-;-;-;-;-;-
1512470574629;-;-;5.1168976;-0.30387878;7.932678;-;-;-;-;-;-;-;-;-;-;-;-;-;-;-
1512470574650;-;-;5.142044;-0.28831482;7.900345;-;-;-;-;-;-;-;-;-;-;-;-;-;-;-
1512470574669;-;-;5.1683807;-0.29429626;7.9075317;-;-;-;-;-;-;-;-;-;-;-;-;-;-;-
1512470574689;-;-;5.1887207;-0.34576416;7.927887;-;-;-;-;-;-;-;-;-;-;-;-;-;-;-
1512470574710;-;-;5.20549;-0.34098816;7.91951;-;-;-;-;-;-;-;-;-;-;-;-;-;-;-
1512470574730;-;-;5.229431;-0.3086548;7.900345;-;-;-;-;-;-;-;-;-;-;-;-;-;-;-
1512470574751;-;-;5.201889;-0.32302856;7.8907776;-;-;-;-;-;-;-;-;-;-;-;-;-;-;-
1512470574771;-;-;5.1791534;-0.32421875;7.8381042;-;-;-;-;-;-;-;-;-;-;-;-;-;-;-
1512470574792;-;-;5.174362;-0.37330627;7.857254;-;-;-;-;-;-;-;-;-;-;-;-;-;-;-
1512470574812;-;-;5.2030945;-0.37449646;7.931473;-;-;-;-;-;-;-;-;-;-;-;-;-;-;-
1512470574832;-;-;5.2078857;-0.42358398;7.905136;-;-;-;-;-;-;-;-;-;-;-;-;-;-;-
1512470574853;-;-;5.2078857;-0.3864746;7.876404;-;-;-;-;-;-;-;-;-;-;-;-;-;-;-
1512470574873;-;-;5.161194;-0.36253357;7.876404;-;-;-;-;-;-;-;-;-;-;-;-;-;-;-
1512470574894;-;-;5.1683807;-0.34217834;7.8776093;-;-;-;-;-;-;-;-;-;-;-;-;-;-;-
1512470574914;-;-;5.174362;-0.32302856;7.8907776;-;-;-;-;-;-;-;-;-;-;-;-;-;-;-
1512470574934;-;-;5.217453;-0.32661438;7.876404;-;-;-;-;-;-;-;-;-;-;-;-;-;-;-
1512470574954;-;-;5.233017;-0.36253357;7.911133;-;-;-;-;-;-;-;-;-;-;-;-;-;-;-
1512470574975;-;-;5.200699;-0.33380127;7.8596497;-;-;-;-;-;-;-;-;-;-;-;-;-;-;-
1512470574996;-;-;5.1994934;-0.36253357;7.8752136;-;-;-;-;-;-;-;-;-;-;-;-;-;-;-
1512470575015;-;-;5.1647797;-0.35534668;7.884796;-;-;-;-;-;-;-;-;-;-;-;-;-;-;-
1512470575036;-;-;5.200699;-0.30625916;7.884796;-;-;-;-;-;-;-;-;-;-;-;-;-;-;-
1512470575056;-;-;5.1827393;-0.3146515;7.872818;-;-;-;-;-;-;-;-;-;-;-;-;-;-;-
1512470575077;-;-;5.192322;-0.3589325;7.8680267;-;-;-;-;-;-;-;-;-;-;-;-;-;-;-
1512470575097;-;-;5.2042847;-0.32901;7.852463;-;-;-;-;-;-;-;-;-;-;-;-;-;-;-
1512470575118;-;-;5.2042847;-0.33021545;7.905136;-;-;-;-;-;-;-;-;-;-;-;-;-;-;-
1512470575138;-;-;5.200699;-0.33859253;7.8548584;-;-;-;-;-;-;-;-;-;-;-;-;-;-;-
1512470575159;-;-;5.177948;-0.3577423;7.884796;-;-;-;-;-;-;-;-;-;-;-;-;-;-;-
1512470575180;-;-;5.2114716;-0.32421875;7.856064;-;-;-;-;-;-;-;-;-;-;-;-;-;-;-
1512470575201;-;-;5.2198486;-0.33499146;7.8584595;-;-;-;-;-;-;-;-;-;-;-;-;-;-;-
1512470575221;-;-;5.197098;-0.3589325;7.896759;-;-;-;-;-;-;-;-;-;-;-;-;-;-;-
1512470575241;-;-;5.2126617;-0.3361969;7.9338684;-;-;-;-;-;-;-;-;-;-;-;-;-;-;-
1512470575261;-;-;5.2821045;-0.33499146;7.871628;-;-;-;-;-;-;-;-;-;-;-;-;-;-;-
1512470575281;-;-;5.2785034;-0.30625916;7.8153534;-;-;-;-;-;-;-;-;-;-;-;-;-;-;-
1512470575301;-;-;5.248581;-0.32661438;7.808182;-;-;-;-;-;-;-;-;-;-;-;-;-;-;-
1512470575322;-;-;5.193512;-0.36013794;7.82135;-;-;-;-;-;-;-;-;-;-;-;-;-;-;-
1512470575342;-;-;5.1947174;-0.36132813;7.869232;-;-;-;-;-;-;-;-;-;-;-;-;-;-;-
1512470575363;-;-;5.176758;-0.38168335;7.8943634;-;-;-;-;-;-;-;-;-;-;-;-;-;-;-
1512470575383;-;-;5.1887207;-0.3481598;7.884796;-;-;-;-;-;-;-;-;-;-;-;-;-;-;-
1512470575403;-;-;5.1719666;-0.3757019;7.896759;-;-;-;-;-;-;-;-;-;-;-;-;-;-;-
1512470575424;-;-;5.189926;-0.33140564;7.895569;-;-;-;-;-;-;-;-;-;-;-;-;-;-;-
1512470575444;-;-;5.181549;-0.34217834;7.872818;-;-;-;-;-;-;-;-;-;-;-;-;-;-;-
1512470575465;-;-;5.2282257;-0.36372375;7.8979645;-;-;-;-;-;-;-;-;-;-;-;-;-;-;-
1512470575485;-;-;5.22464;-0.36372375;7.911133;-;-;-;-;-;-;-;-;-;-;-;-;-;-;-
1512470575506;-;-;5.22583;-0.31344604;7.908737;-;-;-;-;-;-;-;-;-;-;-;-;-;-;-
1512470575526;-;-;5.2282257;-0.33380127;7.884796;-;-;-;-;-;-;-;-;-;-;-;-;-;-;-
1512470575546;-;-;5.2282257;-0.29190063;7.8548584;-;-;-;-;-;-;-;-;-;-;-;-;-;-;-
1512470575566;-;-;5.217453;-0.31584167;7.864441;-;-;-;-;-;-;-;-;-;-;-;-;-;-;-
1512470575587;-;-;5.1887207;-0.33380127;7.8584595;-;-;-;-;-;-;-;-;-;-;-;-;-;-;-
1512470575607;-;-;5.2042847;-0.3254242;7.8991547;-;-;-;-;-;-;-;-;-;-;-;-;-;-;-
1512470575627;-;-;5.213867;-0.3194275;7.8776093;-;-;-;-;-;-;-;-;-;-;-;-;-;-;-
1512470575647;-;-;5.209076;-0.33738708;7.9219055;-;-;-;-;-;-;-;-;-;-;-;-;-;-;-
1512470575668;-;-;5.2114716;-0.34098816;7.929077;-;-;-;-;-;-;-;-;-;-;-;-;-;-;-
1512470575688;-;-;5.1875305;-0.34217834;7.874008;-;-;-;-;-;-;-;-;-;-;-;-;-;-;-
1512470575709;-;-;5.210266;-0.34576416;7.852463;-;-;-;-;-;-;-;-;-;-;-;-;-;-;-
1512470575729;-;-;5.22583;-0.36611938;7.8464813;-;-;-;-;-;-;-;-;-;-;-;-;-;-;-
1512470575750;-;-;5.277313;-0.36372375;7.8776093;-;-;-;-;-;-;-;-;-;-;-;-;-;-;-
1512470575769;-;-;5.2425995;-0.3649292;7.8907776;-;-;-;-;-;-;-;-;-;-;-;-;-;-;-
1512470575790;-;-;5.248581;-0.3541565;7.856064;-;-;-;-;-;-;-;-;-;-;-;-;-;-;-
1512470575810;-;-;5.229431;-0.35176086;7.8512726;-;-;-;-;-;-;-;-;-;-;-;-;-;-;-
1512470575831;-;-;5.1839294;-0.38887024;7.8824005;-;-;-;-;-;-;-;-;-;-;-;-;-;-;-
1512470575851;-;-;5.2234344;-0.35176086;7.8859863;-;-;-;-;-;-;-;-;-;-;-;-;-;-;-
1512470575871;-;-;5.234207;-0.3182373;7.8859863;-;-;-;-;-;-;-;-;-;-;-;-;-;-;-
1512470575892;-;-;5.1994934;-0.3541565;7.9075317;-;-;-;-;-;-;-;-;-;-;-;-;-;-;-
1512470575913;-;-;5.2126617;-0.31344604;7.908737;-;-;-;-;-;-;-;-;-;-;-;-;-;-;-
1512470575934;-;-;5.198303;-0.34098816;7.8835907;-;-;-;-;-;-;-;-;-;-;-;-;-;-;-
1512470575954;-;-;5.1947174;-0.33021545;7.891968;-;-;-;-;-;-;-;-;-;-;-;-;-;-;-
1512470575974;-;-;5.2078857;-0.30986023;7.884796;-;-;-;-;-;-;-;-;-;-;-;-;-;-;-
1512470575995;-;-;5.231827;-0.3469696;7.8835907;-;-;-;-;-;-;-;-;-;-;-;-;-;-;-
1512470576015;-;-;5.210266;-0.32063293;7.893173;-;-;-;-;-;-;-;-;-;-;-;-;-;-;-
1512470576036;-;-;5.174362;-0.33380127;7.884796;-;-;-;-;-;-;-;-;-;-;-;-;-;-;-
1512470576056;-;-;5.1731567;-0.33140564;7.8632355;-;-;-;-;-;-;-;-;-;-;-;-;-;-;-
1512470576077;-;-;5.192322;-0.3469696;7.856064;-;-;-;-;-;-;-;-;-;-;-;-;-;-;-
1512470576096;-;-;5.1791534;-0.31344604;7.888382;-;-;-;-;-;-;-;-;-;-;-;-;-;-;-
1512470576117;-;-;5.1875305;-0.3481598;7.8824005;-;-;-;-;-;-;-;-;-;-;-;-;-;-;-
1512470576136;-;-;5.197098;-0.32901;7.932678;-;-;-;-;-;-;-;-;-;-;-;-;-;-;-
1512470576157;-;-;5.276108;-0.33738708;7.912323;-;-;-;-;-;-;-;-;-;-;-;-;-;-;-
1512470576177;-;-;5.249771;-0.33859253;7.7997894;-;-;-;-;-;-;-;-;-;-;-;-;-;-;-
1512470576198;-;-;5.1887207;-0.3397827;7.891968;-;-;-;-;-;-;-;-;-;-;-;-;-;-;-
1512470576219;-;-;5.186325;-0.37330627;7.8596497;-;-;-;-;-;-;-;-;-;-;-;-;-;-;-
1512470576239;-;-;5.201889;-0.3757019;7.888382;-;-;-;-;-;-;-;-;-;-;-;-;-;-;-
1512470576259;-;-;5.210266;-0.37091064;7.9183044;-;-;-;-;-;-;-;-;-;-;-;-;-;-;-
1512470576280;-;-;5.1719666;-0.33499146;7.9063416;-;-;-;-;-;-;-;-;-;-;-;-;-;-;-
1512470576300;-;-;5.1599884;-0.34098816;7.8991547;-;-;-;-;-;-;-;-;-;-;-;-;-;-;-
1512470576320;-;-;5.1719666;-0.32421875;7.8979645;-;-;-;-;-;-;-;-;-;-;-;-;-;-;-
1512470576341;-;-;5.1911163;-0.32661438;7.8273315;-;-;-;-;-;-;-;-;-;-;-;-;-;-;-
1512470576361;-;-;5.237808;-0.33259583;7.8668365;-;-;-;-;-;-;-;-;-;-;-;-;-;-;-
1512470576382;-;-;5.236603;-0.34098816;7.9075317;-;-;-;-;-;-;-;-;-;-;-;-;-;-;-
1512470576402;-;-;5.216263;-0.32661438;7.8943634;-;-;-;-;-;-;-;-;-;-;-;-;-;-;-
1512470576422;-;-;5.1827393;-0.34217834;7.9015503;-;-;-;-;-;-;-;-;-;-;-;-;-;-;-
1512470576443;-;-;5.2066803;-0.32901;7.884796;-;-;-;-;-;-;-;-;-;-;-;-;-;-;-
1512470576463;-;-;5.193512;-0.3541565;7.845291;-;-;-;-;-;-;-;-;-;-;-;-;-;-;-
1512470576484;-;-;5.213867;-0.3397827;7.850067;-;-;-;-;-;-;-;-;-;-;-;-;-;-;-
1512470576503;-;-;5.2126617;-0.34217834;7.8979645;-;-;-;-;-;-;-;-;-;-;-;-;-;-;-
1512470576523;-;-;5.237808;-0.3577423;7.872818;-;-;-;-;-;-;-;-;-;-;-;-;-;-;-
1512470576544;-;-;5.229431;-0.3361969;7.8428955;-;-;-;-;-;-;-;-;-;-;-;-;-;-;-
1512470576564;-;-;5.229431;-0.3397827;7.8596497;-;-;-;-;-;-;-;-;-;-;-;-;-;-;-
1512470576584;-;-;5.231827;-0.3254242;7.8428955;-;-;-;-;-;-;-;-;-;-;-;-;-;-;-
1512470576605;-;-;5.2389984;-0.30625916;7.8476715;-;-;-;-;-;-;-;-;-;-;-;-;-;-;-
1512470576626;-;-;5.2677307;-0.30387878;7.812958;-;-;-;-;-;-;-;-;-;-;-;-;-;-;-
1512470576645;-;-;5.2821045;-0.3146515;7.8405;-;-;-;-;-;-;-;-;-;-;-;-;-;-;-
1512470576666;-;-;5.2617493;-0.3481598;7.8776093;-;-;-;-;-;-;-;-;-;-;-;-;-;-;-
1512470576685;-;-;5.253372;-0.35295105;7.872818;-;-;-;-;-;-;-;-;-;-;-;-;-;-;-
1512470576706;-;-;5.2126617;-0.32421875;7.86084;-;-;-;-;-;-;-;-;-;-;-;-;-;-;-
1512470576726;-;-;5.185135;-0.3433838;7.856064;-;-;-;-;-;-;-;-;-;-;-;-;-;-;-
1512470576746;-;-;5.1947174;-0.34217834;7.911133;-;-;-;-;-;-;-;-;-;-;-;-;-;-;-
1512470576768;-;-;5.189926;-0.34936523;7.874008;-;-;-;-;-;-;-;-;-;-;-;-;-;-;-
1512470576788;-;-;5.221039;-0.34936523;7.872818;-;-;-;-;-;-;-;-;-;-;-;-;-;-;-
1512470576808;-;-;5.229431;-0.33859253;7.8512726;-;-;-;-;-;-;-;-;-;-;-;-;-;-;-
1512470576829;-;-;5.2186584;-0.35295105;7.8548584;-;-;-;-;-;-;-;-;-;-;-;-;-;-;-
1512470576849;-;-;5.2186584;-0.35534668;7.8680267;-;-;-;-;-;-;-;-;-;-;-;-;-;-;-
1512470576869;-;-;5.2126617;-0.33259583;7.896759;-;-;-;-;-;-;-;-;-;-;-;-;-;-;-
1512470576890;-;-;5.2078857;-0.36013794;7.8476715;-;-;-;-;-;-;-;-;-;-;-;-;-;-;-
1512470576910;-;-;5.2198486;-0.3433838;7.8835907;-;-;-;-;-;-;-;-;-;-;-;-;-;-;-
1512470576931;-;-;5.2186584;-0.3433838;7.8189545;-;-;-;-;-;-;-;-;-;-;-;-;-;-;-
1512470576950;-;-;5.2030945;-0.35176086;7.8405;-;-;-;-;-;-;-;-;-;-;-;-;-;-;-
1512470576971;-;-;5.200699;-0.3541565;7.871628;-;-;-;-;-;-;-;-;-;-;-;-;-;-;-
1512470576991;-;-;5.221039;-0.35176086;7.850067;-;-;-;-;-;-;-;-;-;-;-;-;-;-;-
1512470577011;-;-;5.253372;-0.32421875;7.8871765;-;-;-;-;-;-;-;-;-;-;-;-;-;-;-
1512470577032;-;-;5.221039;-0.33738708;7.8787994;-;-;-;-;-;-;-;-;-;-;-;-;-;-;-
1512470577051;-;-;5.2126617;-0.32781982;7.8859863;-;-;-;-;-;-;-;-;-;-;-;-;-;-;-
1512470577072;-;-;5.231827;-0.35055542;7.8979645;-;-;-;-;-;-;-;-;-;-;-;-;-;-;-
1512470577093;-;-;5.264145;-0.35055542;7.8225403;-;-;-;-;-;-;-;-;-;-;-;-;-;-;-
1512470577112;-;-;5.221039;-0.3397827;7.8237305;-;-;-;-;-;-;-;-;-;-;-;-;-;-;-
1512470577133;-;-;5.201889;-0.35295105;7.82135;-;-;-;-;-;-;-;-;-;-;-;-;-;-;-
1512470577153;-;-;5.2030945;-0.3589325;7.8620453;-;-;-;-;-;-;-;-;-;-;-;-;-;-;-
1512470577174;-;-;5.2306213;-0.3541565;7.893173;-;-;-;-;-;-;-;-;-;-;-;-;-;-;-
1512470577194;-;-;5.210266;-0.33021545;7.915909;-;-;-;-;-;-;-;-;-;-;-;-;-;-;-
1512470577214;-;-;5.1683807;-0.30267334;7.8548584;-;-;-;-;-;-;-;-;-;-;-;-;-;-;-
1512470577235;-;-;5.1647797;-0.30267334;7.869232;-;-;-;-;-;-;-;-;-;-;-;-;-;-;-
1512470577255;-;-;5.165985;-0.31225586;7.874008;-;-;-;-;-;-;-;-;-;-;-;-;-;-;-
1512470577275;-;-;5.1947174;-0.31344604;7.8776093;-;-;-;-;-;-;-;-;-;-;-;-;-;-;-
1512470577296;-;-;5.2354126;-0.35176086;7.864441;-;-;-;-;-;-;-;-;-;-;-;-;-;-;-
1512470577316;-;-;5.2186584;-0.32781982;7.888382;-;-;-;-;-;-;-;-;-;-;-;-;-;-;-
1512470577336;-;-;5.236603;-0.35055542;7.8752136;-;-;-;-;-;-;-;-;-;-;-;-;-;-;-
1512470577356;-;-;5.2234344;-0.34098816;7.8596497;-;-;-;-;-;-;-;-;-;-;-;-;-;-;-
1512470577377;-;-;5.201889;-0.36132813;7.8596497;-;-;-;-;-;-;-;-;-;-;-;-;-;-;-
1512470577398;-;-;5.209076;-0.32901;7.8787994;-;-;-;-;-;-;-;-;-;-;-;-;-;-;-
1512470577417;-;-;5.210266;-0.35295105;7.8871765;-;-;-;-;-;-;-;-;-;-;-;-;-;-;-
1512470577438;-;-;5.20549;-0.34576416;7.913513;-;-;-;-;-;-;-;-;-;-;-;-;-;-;-
1512470577458;-;-;5.1803436;-0.34098816;7.891968;-;-;-;-;-;-;-;-;-;-;-;-;-;-;-
1512470577478;-;-;5.1959076;-0.35295105;7.936264;-;-;-;-;-;-;-;-;-;-;-;-;-;-;-
1512470577499;-;-;5.1875305;-0.35176086;7.893173;-;-;-;-;-;-;-;-;-;-;-;-;-;-;-
1512470577519;-;-;5.2270355;-0.35176086;7.889572;-;-;-;-;-;-;-;-;-;-;-;-;-;-;-
1512470577539;-;-;5.280899;-0.34457397;7.817749;-;-;-;-;-;-;-;-;-;-;-;-;-;-;-
1512470577560;-;-;5.2988586;-0.3589325;7.816559;-;-;-;-;-;-;-;-;-;-;-;-;-;-;-
1512470577580;-;-;5.3060455;-0.36611938;7.8440857;-;-;-;-;-;-;-;-;-;-;-;-;-;-;-
1512470577601;-;-;5.2461853;-0.30267334;7.911133;-;-;-;-;-;-;-;-;-;-;-;-;-;-;-
1512470577621;-;-;5.2078857;-0.33259583;7.911133;-;-;-;-;-;-;-;-;-;-;-;-;-;-;-
1512470577641;-;-;5.1791534;-0.30986023;7.982956;-;-;-;-;-;-;-;-;-;-;-;-;-;-;-
1512470577661;-;-;5.1444244;-0.3697052;7.9817505;-;-;-;-;-;-;-;-;-;-;-;-;-;-;-
1512470577682;-;-;4.9935913;-0.35176086;7.9937286;-;-;-;-;-;-;-;-;-;-;-;-;-;-;-
1512470577702;-;-;5.007965;-0.35534668;7.968582;-;-;-;-;-;-;-;-;-;-;-;-;-;-;-
1512470577723;-;-;5.0223236;-0.31584167;7.93985;-;-;-;-;-;-;-;-;-;-;-;-;-;-;-
1512470577744;-;-;4.984024;-0.28710938;7.896759;-;-;-;-;-;-;-;-;-;-;-;-;-;-;-
1512470577764;-;-;5.071411;-0.3194275;7.937454;-;-;-;-;-;-;-;-;-;-;-;-;-;-;-
1512470577785;-;-;5.1157074;-0.29190063;7.93985;-;-;-;-;-;-;-;-;-;-;-;-;-;-;-
1512470577805;-;-;5.177948;-0.29548645;7.9266815;-;-;-;-;-;-;-;-;-;-;-;-;-;-;-
1512470577826;-;-;5.209076;-0.36132813;7.937454;-;-;-;-;-;-;-;-;-;-;-;-;-;-;-
1512470577846;-;-;5.200699;-0.37449646;7.8824005;-;-;-;-;-;-;-;-;-;-;-;-;-;-;-
1512470577866;-;-;5.209076;-0.36013794;7.871628;-;-;-;-;-;-;-;-;-;-;-;-;-;-;-
1512470577887;-;-;5.201889;-0.38049316;7.8776093;-;-;-;-;-;-;-;-;-;-;-;-;-;-;-
1512470577906;-;-;5.2066803;-0.3768921;7.8620453;-;-;-;-;-;-;-;-;-;-;-;-;-;-;-
1512470577927;-;-;5.186325;-0.37091064;7.9015503;-;-;-;-;-;-;-;-;-;-;-;-;-;-;-
1512470577947;-;-;5.1324615;-0.37091064;7.9219055;-;-;-;-;-;-;-;-;-;-;-;-;-;-;-
1512470577968;-;-;5.150421;-0.38887024;7.9410553;-;-;-;-;-;-;-;-;-;-;-;-;-;-;-
1512470577988;-;-;5.1647797;-0.3397827;7.9219055;-;-;-;-;-;-;-;-;-;-;-;-;-;-;-
1512470578009;-;-;5.176758;-0.36253357;7.970978;-;-;-;-;-;-;-;-;-;-;-;-;-;-;-
1512470578030;-;-;5.1288757;-0.35055542;7.8596497;-;-;-;-;-;-;-;-;-;-;-;-;-;-;-
1512470578050;-;-;5.119293;-0.36372375;7.91951;-;-;-;-;-;-;-;-;-;-;-;-;-;-;-
1512470578070;-;-;5.1013336;-0.3469696;7.9254913;-;-;-;-;-;-;-;-;-;-;-;-;-;-;-
1512470578091;-;-;5.073807;-0.35176086;7.9649963;-;-;-;-;-;-;-;-;-;-;-;-;-;-;-
1512470578111;-;-;5.110916;-0.33380127;7.9266815;-;-;-;-;-;-;-;-;-;-;-;-;-;-;-
1512470578130;-;-;5.107315;-0.34457397;7.943451;-;-;-;-;-;-;-;-;-;-;-;-;-;-;-
1512470578150;-;-;5.1240845;-0.31105042;7.915909;-;-;-;-;-;-;-;-;-;-;-;-;-;-;-
1512470578171;-;-;5.1635895;-0.33499146;7.9219055;-;-;-;-;-;-;-;-;-;-;-;-;-;-;-
1512470578192;-;-;5.1671753;-0.34217834;7.9338684;-;-;-;-;-;-;-;-;-;-;-;-;-;-;-
1512470578211;-;-;5.1444244;-0.34098816;7.943451;-;-;-;-;-;-;-;-;-;-;-;-;-;-;-
1512470578232;-;-;5.1168976;-0.36132813;7.963791;-;-;-;-;-;-;-;-;-;-;-;-;-;-;-
1512470578252;-;-;5.0965424;-0.33859253;7.9853516;-;-;-;-;-;-;-;-;-;-;-;-;-;-;-
1512470578273;-;-;5.102539;-0.35295105;7.9937286;-;-;-;-;-;-;-;-;-;-;-;-;-;-;-
1512470578295;-;-;5.0917664;-0.36132813;7.951828;-;-;-;-;-;-;-;-;-;-;-;-;-;-;-
1512470578317;-;-;5.114502;-0.37091064;7.968582;-;-;-;-;-;-;-;-;-;-;-;-;-;-;-
1512470578337;-;-;5.134857;-0.38168335;7.9614105;-;-;-;-;-;-;-;-;-;-;-;-;-;-;-
1512470578358;-;-;5.1276703;-0.35295105;7.9973145;-;-;-;-;-;-;-;-;-;-;-;-;-;-;-
1512470578378;-;-;5.1157074;-0.35653687;7.9254913;-;-;-;-;-;-;-;-;-;-;-;-;-;-;-
1512470578399;-;-;5.1049347;-0.3577423;7.951828;-;-;-;-;-;-;-;-;-;-;-;-;-;-;-
1512470578418;-;-;5.0881653;-0.35295105;7.960205;-;-;-;-;-;-;-;-;-;-;-;-;-;-;-
1512470578439;-;-;5.1001434;-0.3397827;7.9015503;-;-;-;-;-;-;-;-;-;-;-;-;-;-;-
1512470578458;-;-;5.0929565;-0.34217834;7.9171143;-;-;-;-;-;-;-;-;-;-;-;-;-;-;-
1512470578478;-;-;5.1013336;-0.32781982;7.929077;-;-;-;-;-;-;-;-;-;-;-;-;-;-;-
1512470578499;-;-;5.106125;-0.34098816;8.014069;-;-;-;-;-;-;-;-;-;-;-;-;-;-;-
1512470578519;-;-;5.0522614;-0.3254242;8.011688;-;-;-;-;-;-;-;-;-;-;-;-;-;-;-
1512470578540;-;-;5.0917664;-0.36253357;7.994919;-;-;-;-;-;-;-;-;-;-;-;-;-;-;-
1512470578560;-;-;5.06662;-0.34217834;7.9817505;-;-;-;-;-;-;-;-;-;-;-;-;-;-;-
1512470578581;-;-;5.063034;-0.32421875;7.9805603;-;-;-;-;-;-;-;-;-;-;-;-;-;-;-
1512470578601;-;-;5.086975;-0.3074646;7.979355;-;-;-;-;-;-;-;-;-;-;-;-;-;-;-
1512470578621;-;-;5.119293;-0.31105042;7.9961243;-;-;-;-;-;-;-;-;-;-;-;-;-;-;-
1512470578642;-;-;5.0809784;-0.3194275;7.9230957;-;-;-;-;-;-;-;-;-;-;-;-;-;-;-
1512470578662;-;-;5.06781;-0.30387878;7.9386597;-;-;-;-;-;-;-;-;-;-;-;-;-;-;-
1512470578683;-;-;5.0534515;-0.33738708;7.955414;-;-;-;-;-;-;-;-;-;-;-;-;-;-;-
1512470578704;-;-;5.059433;-0.3697052;8.002106;-;-;-;-;-;-;-;-;-;-;-;-;-;-;-
1512470578724;-;-;5.063034;-0.38526917;8.004501;-;-;-;-;-;-;-;-;-;-;-;-;-;-;-
1512470578746;-;-;5.063034;-0.37330627;7.9649963;-;-;-;-;-;-;-;-;-;-;-;-;-;-;-
1512470578766;-;-;5.0809784;-0.35055542;7.9961243;-;-;-;-;-;-;-;-;-;-;-;-;-;-;-
1512470578786;-;-;5.0762024;-0.3433838;7.9817505;-;-;-;-;-;-;-;-;-;-;-;-;-;-;-
1512470578807;-;-;5.0929565;-0.37330627;7.9542236;-;-;-;-;-;-;-;-;-;-;-;-;-;-;-
1512470578828;-;-;5.0606384;-0.3469696;7.99971;-;-;-;-;-;-;-;-;-;-;-;-;-;-;-
1512470578847;-;-;5.0773926;-0.31105042;7.99971;-;-;-;-;-;-;-;-;-;-;-;-;-;-;-
1512470578868;-;-;5.0726013;-0.32182312;8.003296;-;-;-;-;-;-;-;-;-;-;-;-;-;-;-
1512470578888;-;-;5.0845795;-0.3194275;8.026047;-;-;-;-;-;-;-;-;-;-;-;-;-;-;-
1512470578908;-;-;5.1312714;-0.3433838;7.9338684;-;-;-;-;-;-;-;-;-;-;-;-;-;-;-
1512470578929;-;-;5.073807;-0.35534668;7.903946;-;-;-;-;-;-;-;-;-;-;-;-;-;-;-
1512470578949;-;-;5.0414886;-0.35055542;7.943451;-;-;-;-;-;-;-;-;-;-;-;-;-;-;-
1512470578970;-;-;5.040283;-0.37809753;7.9817505;-;-;-;-;-;-;-;-;-;-;-;-;-;-;-
1512470578990;-;-;5.027115;-0.37330627;8.047592;-;-;-;-;-;-;-;-;-;-;-;-;-;-;-
1512470579010;-;-;4.999588;-0.33499146;8.003296;-;-;-;-;-;-;-;-;-;-;-;-;-;-;-
1512470579031;-;-;5.0055695;-0.29429626;8.015274;-;-;-;-;-;-;-;-;-;-;-;-;-;-;-
1512470579050;-;-;5.0378876;-0.30148315;8.004501;-;-;-;-;-;-;-;-;-;-;-;-;-;-;-
1512470579070;-;-;5.0702057;-0.32421875;7.9661865;-;-;-;-;-;-;-;-;-;-;-;-;-;-;-
1512470579091;-;-;5.0642242;-0.33140564;7.974579;-;-;-;-;-;-;-;-;-;-;-;-;-;-;-
1512470579112;-;-;5.04747;-0.3194275;7.9805603;-;-;-;-;-;-;-;-;-;-;-;-;-;-;-
1512470579132;-;-;5.035492;-0.30625916;8.016464;-;-;-;-;-;-;-;-;-;-;-;-;-;-;-
1512470579152;-;-;5.071411;-0.33140564;8.027237;-;-;-;-;-;-;-;-;-;-;-;-;-;-;-
1512470579173;-;-;5.0175323;-0.3469696;8.003296;-;-;-;-;-;-;-;-;-;-;-;-;-;-;-
1512470579193;-;-;5.0259247;-0.34217834;7.9901276;-;-;-;-;-;-;-;-;-;-;-;-;-;-;-
1512470579213;-;-;5.015152;-0.34457397;8.015274;-;-;-;-;-;-;-;-;-;-;-;-;-;-;-
1512470579234;-;-;5.040283;-0.35055542;8.035629;-;-;-;-;-;-;-;-;-;-;-;-;-;-;-
1512470579254;-;-;5.035492;-0.32781982;8.027237;-;-;-;-;-;-;-;-;-;-;-;-;-;-;-
1512470579275;-;-;5.0450745;-0.33738708;8.022461;-;-;-;-;-;-;-;-;-;-;-;-;-;-;-
1512470579295;-;-;5.0283203;-0.33738708;7.987747;-;-;-;-;-;-;-;-;-;-;-;-;-;-;-
1512470579315;-;-;5.0330963;-0.3697052;7.970978;-;-;-;-;-;-;-;-;-;-;-;-;-;-;-
1512470579336;-;-;5.0546417;-0.34576416;7.991333;-;-;-;-;-;-;-;-;-;-;-;-;-;-;-
1512470579357;-;-;5.027115;-0.33738708;8.010483;-;-;-;-;-;-;-;-;-;-;-;-;-;-;-
1512470579376;-;-;5.06662;-0.3146515;8.01886;-;-;-;-;-;-;-;-;-;-;-;-;-;-;-
1512470579397;-;-;5.035492;-0.32421875;7.984146;-;-;-;-;-;-;-;-;-;-;-;-;-;-;-
1512470579417;-;-;5.0378876;-0.30625916;8.041611;-;-;-;-;-;-;-;-;-;-;-;-;-;-;-
1512470579437;-;-;5.027115;-0.3433838;8.009293;-;-;-;-;-;-;-;-;-;-;-;-;-;-;-
1512470579457;-;-;5.018738;-0.3481598;8.023651;-;-;-;-;-;-;-;-;-;-;-;-;-;-;-
1512470579478;-;-;4.972046;-0.35176086;7.991333;-;-;-;-;-;-;-;-;-;-;-;-;-;-;-
1512470579498;-;-;5.004364;-0.36132813;8.011688;-;-;-;-;-;-;-;-;-;-;-;-;-;-;-
1512470579519;-;-;4.9900055;-0.3649292;8.011688;-;-;-;-;-;-;-;-;-;-;-;-;-;-;-
1512470579539;-;-;5.0067596;-0.3254242;7.99971;-;-;-;-;-;-;-;-;-;-;-;-;-;-;-
1512470579560;-;-;5.023529;-0.36013794;7.974579;-;-;-;-;-;-;-;-;-;-;-;-;-;-;-
1512470579580;-;-;5.027115;-0.3541565;8.070343;-;-;-;-;-;-;-;-;-;-;-;-;-;-;-
1512470579601;-;-;5.0570374;-0.32063293;8.040405;-;-;-;-;-;-;-;-;-;-;-;-;-;-;-
1512470579621;-;-;5.0462646;-0.34936523;8.076324;-;-;-;-;-;-;-;-;-;-;-;-;-;-;-
1512470579641;-;-;4.9935913;-0.33259583;8.036819;-;-;-;-;-;-;-;-;-;-;-;-;-;-;-
1512470579662;-;-;5.0091553;-0.36611938;8.024857;-;-;-;-;-;-;-;-;-;-;-;-;-;-;-
1512470579683;-;-;5.004364;-0.35653687;8.05957;-;-;-;-;-;-;-;-;-;-;-;-;-;-;-
1512470579703;-;-;4.956482;-0.37809753;8.095474;-;-;-;-;-;-;-;-;-;-;-;-;-;-;-
1512470579724;-;-;5.0091553;-0.3589325;8.071533;-;-;-;-;-;-;-;-;-;-;-;-;-;-;-
1512470579744;-;-;4.992401;-0.30625916;8.061966;-;-;-;-;-;-;-;-;-;-;-;-;-;-;-
1512470579764;-;-;5.000778;-0.368515;8.016464;-;-;-;-;-;-;-;-;-;-;-;-;-;-;-
1512470579785;-;-;5.059433;-0.3086548;8.011688;-;-;-;-;-;-;-;-;-;-;-;-;-;-;-
1512470579805;-;-;5.0941467;-0.30267334;7.9458466;-;-;-;-;-;-;-;-;-;-;-;-;-;-;-
1512470579826;-;-;5.14682;-0.33499146;7.974579;-;-;-;-;-;-;-;-;-;-;-;-;-;-;-
1512470579847;-;-;5.0809784;-0.29788208;7.8871765;-;-;-;-;-;-;-;-;-;-;-;-;-;-;-
1512470579867;-;-;5.055847;-0.35653687;7.8704224;-;-;-;-;-;-;-;-;-;-;-;-;-;-;-
1512470579887;-;-;5.063034;-0.34936523;7.9901276;-;-;-;-;-;-;-;-;-;-;-;-;-;-;-
1512470579908;-;-;5.0139465;-0.36732483;8.014069;-;-;-;-;-;-;-;-;-;-;-;-;-;-;-
1512470579929;-;-;5.0175323;-0.39006042;8.002106;-;-;-;-;-;-;-;-;-;-;-;-;-;-;-
1512470579950;-;-;5.018738;-0.36013794;7.975769;-;-;-;-;-;-;-;-;-;-;-;-;-;-;-
1512470579970;-;-;5.0498657;-0.32421875;7.968582;-;-;-;-;-;-;-;-;-;-;-;-;-;-;-
1512470579989;-;-;5.0762024;-0.31704712;8.002106;-;-;-;-;-;-;-;-;-;-;-;-;-;-;-
1512470580010;-;-;5.0881653;-0.31105042;7.979355;-;-;-;-;-;-;-;-;-;-;-;-;-;-;-
1512470580030;-;-;5.0773926;-0.3254242;7.979355;-;-;-;-;-;-;-;-;-;-;-;-;-;-;-
1512470580051;-;-;5.0307007;-0.33021545;8.004501;-;-;-;-;-;-;-;-;-;-;-;-;-;-;-
1512470580072;-;-;5.0570374;-0.30387878;8.002106;-;-;-;-;-;-;-;-;-;-;-;-;-;-;-
1512470580092;-;-;5.06662;-0.35653687;7.9853516;-;-;-;-;-;-;-;-;-;-;-;-;-;-;-
1512470580113;-;-;5.0618286;-0.34936523;7.951828;-;-;-;-;-;-;-;-;-;-;-;-;-;-;-
