TimeStamp[ms];Prox[Cm];Lux[lux];AccX[m/s^2];AccY[m/s^2];AccZ[m/s^2];GyroX[rad/s];GyroY[rad/s];GyroZ[rad/s];MagnX[uT];MagnY[uT];MagnZ[uT];OrienYaw[degrees];OrienPitch[degrees];OrienRoll[degrees];Press[Pa];Temp[C°];Batt[%];Lat;Lng;Speed[m/s]
1512470268832;-;-;9.142746;-0.7192688;-0.18247986;-;-;-;-;-;-;-;-;-;-;-;-;-;-;-
1512470268870;-;-;9.049377;-0.5899811;-0.43865967;-;-;-;-;-;-;-;-;-;-;-;-;-;-;-
1512470268872;-;-;9.049377;-0.5899811;-0.43865967;-;-;-;-;-;-;-;-;-;-;-;-;-;-;-
1512470268892;-;-;9.305557;-0.6330719;-0.20281982;-;-;-;-;-;-;-;-;-;-;-;-;-;-;-
1512470268912;-;-;9.210983;-0.52653503;-0.30218506;-;-;-;-;-;-;-;-;-;-;-;-;-;-;-
1512470268932;-;-;8.958389;-0.5792084;-0.41111755;-;-;-;-;-;-;-;-;-;-;-;-;-;-;-
1512470268954;-;-;9.509064;-0.80307007;-0.109451294;-;-;-;-;-;-;-;-;-;-;-;-;-;-;-
1512470268974;-;-;9.872986;-0.6941223;-0.16931152;-;-;-;-;-;-;-;-;-;-;-;-;-;-;-
1512470268995;-;-;9.570114;-0.55526733;-0.34288025;-;-;-;-;-;-;-;-;-;-;-;-;-;-;-
1512470269017;-;-;9.227737;-0.6402588;-0.099868774;-;-;-;-;-;-;-;-;-;-;-;-;-;-;-
1512470269036;-;-;8.910507;-0.463089;-0.16212463;-;-;-;-;-;-;-;-;-;-;-;-;-;-;-
1512470269057;-;-;9.104446;-0.51216125;-0.19085693;-;-;-;-;-;-;-;-;-;-;-;-;-;-;-
1512470269078;-;-;8.997894;-0.4559021;-0.16331482;-;-;-;-;-;-;-;-;-;-;-;-;-;-;-
1512470269099;-;-;9.200211;-0.7156677;0.022232056;-;-;-;-;-;-;-;-;-;-;-;-;-;-;-
1512470269119;-;-;9.145142;-0.76594543;-0.29978943;-;-;-;-;-;-;-;-;-;-;-;-;-;-;-
1512470269139;-;-;9.31752;-0.89404297;-0.377594;-;-;-;-;-;-;-;-;-;-;-;-;-;-;-
1512470269159;-;-;9.489914;-1.028122;-0.333313;-;-;-;-;-;-;-;-;-;-;-;-;-;-;-
1512470269180;-;-;9.404907;-0.9539032;-0.33091736;-;-;-;-;-;-;-;-;-;-;-;-;-;-;-
1512470269201;-;-;9.3546295;-0.9479065;-0.20162964;-;-;-;-;-;-;-;-;-;-;-;-;-;-;-
1512470269222;-;-;9.006287;-0.7156677;-0.30577087;-;-;-;-;-;-;-;-;-;-;-;-;-;-;-
1512470269243;-;-;9.066132;-0.8868561;-0.109451294;-;-;-;-;-;-;-;-;-;-;-;-;-;-;-
1512470269263;-;-;8.964386;-0.8593292;-0.22436523;-;-;-;-;-;-;-;-;-;-;-;-;-;-;-
1512470269284;-;-;9.045776;-0.74679565;-0.3045807;-;-;-;-;-;-;-;-;-;-;-;-;-;-;-
1512470269305;-;-;9.346252;-0.7228546;-0.39794922;-;-;-;-;-;-;-;-;-;-;-;-;-;-;-
1512470269324;-;-;9.169083;-1.0221252;0.015045166;-;-;-;-;-;-;-;-;-;-;-;-;-;-;-
1512470269345;-;-;8.809952;-1.348938;0.2233429;-;-;-;-;-;-;-;-;-;-;-;-;-;-;-
1512470269365;-;-;8.454422;-1.3142242;-0.27824402;-;-;-;-;-;-;-;-;-;-;-;-;-;-;-
1512470269385;-;-;9.353439;-0.8186188;0.38974;-;-;-;-;-;-;-;-;-;-;-;-;-;-;-
1512470269406;-;-;9.594055;-0.6031494;-0.18606567;-;-;-;-;-;-;-;-;-;-;-;-;-;-;-
1512470269425;-;-;9.917267;-0.69651794;-0.14057922;-;-;-;-;-;-;-;-;-;-;-;-;-;-;-
1512470269446;-;-;9.691025;-1.0448761;-0.28182983;-;-;-;-;-;-;-;-;-;-;-;-;-;-;-
1512470269465;-;-;9.9986725;-0.44992065;-0.16571045;-;-;-;-;-;-;-;-;-;-;-;-;-;-;-
1512470269486;-;-;8.98114;-0.45350647;-0.45899963;-;-;-;-;-;-;-;-;-;-;-;-;-;-;-
1512470269506;-;-;8.914108;-0.8533478;-0.5224457;-;-;-;-;-;-;-;-;-;-;-;-;-;-;-
1512470269527;-;-;9.012268;-0.48703003;-0.0914917;-;-;-;-;-;-;-;-;-;-;-;-;-;-;-
1512470269547;-;-;9.102051;-0.27035522;-0.5439911;-;-;-;-;-;-;-;-;-;-;-;-;-;-;-
1512470269568;-;-;9.023041;-0.41400146;-0.51885986;-;-;-;-;-;-;-;-;-;-;-;-;-;-;-
1512470269587;-;-;9.874176;0.14982605;-0.6002655;-;-;-;-;-;-;-;-;-;-;-;-;-;-;-
1512470269608;-;-;9.8598175;0.3102417;-1.2706451;-;-;-;-;-;-;-;-;-;-;-;-;-;-;-
1512470269627;-;-;9.485123;-0.29190063;-1.0336151;-;-;-;-;-;-;-;-;-;-;-;-;-;-;-
1512470269648;-;-;9.463577;-1.0173492;-0.7199707;-;-;-;-;-;-;-;-;-;-;-;-;-;-;-
1512470269668;-;-;9.406113;-0.22605896;0.8769531;-;-;-;-;-;-;-;-;-;-;-;-;-;-;-
1512470269689;-;-;9.285202;-0.58399963;0.012649536;-;-;-;-;-;-;-;-;-;-;-;-;-;-;-
1512470269709;-;-;10.390121;-1.1777496;-0.5128784;-;-;-;-;-;-;-;-;-;-;-;-;-;-;-
1512470269730;-;-;9.926849;0.1330719;-1.2921906;-;-;-;-;-;-;-;-;-;-;-;-;-;-;-
1512470269750;-;-;9.650314;0.03251648;0.043777466;-;-;-;-;-;-;-;-;-;-;-;-;-;-;-
1512470269771;-;-;9.319916;-0.58399963;-0.45780945;-;-;-;-;-;-;-;-;-;-;-;-;-;-;-
1512470269792;-;-;7.6942596;1.2846832;-0.25430298;-;-;-;-;-;-;-;-;-;-;-;-;-;-;-
1512470269812;-;-;10.962341;-0.7108917;-1.2119751;-;-;-;-;-;-;-;-;-;-;-;-;-;-;-
1512470269832;-;-;7.248932;-0.27633667;-0.85884094;-;-;-;-;-;-;-;-;-;-;-;-;-;-;-
1512470269853;-;-;7.93367;-0.70610046;1.1451111;-;-;-;-;-;-;-;-;-;-;-;-;-;-;-
1512470269874;-;-;10.183029;-0.30506897;-0.7702484;-;-;-;-;-;-;-;-;-;-;-;-;-;-;-
1512470269894;-;-;7.655945;0.45628357;1.04216;-;-;-;-;-;-;-;-;-;-;-;-;-;-;-
1512470269915;-;-;9.935226;0.7136688;1.0984192;-;-;-;-;-;-;-;-;-;-;-;-;-;-;-
1512470269936;-;-;9.463577;0.060043335;-0.28182983;-;-;-;-;-;-;-;-;-;-;-;-;-;-;-
1512470269956;-;-;10.379349;0.43832397;-0.6732788;-;-;-;-;-;-;-;-;-;-;-;-;-;-;-
1512470269977;-;-;11.140717;0.20968628;-1.1916351;-;-;-;-;-;-;-;-;-;-;-;-;-;-;-
1512470269997;-;-;9.729324;-0.07762146;-0.42907715;-;-;-;-;-;-;-;-;-;-;-;-;-;-;-
1512470270018;-;-;9.856216;-0.20570374;-0.9043274;-;-;-;-;-;-;-;-;-;-;-;-;-;-;-
1512470270038;-;-;10.440399;-0.4738617;0.012649536;-;-;-;-;-;-;-;-;-;-;-;-;-;-;-
1512470270059;-;-;8.043808;-0.720459;-1.1940308;-;-;-;-;-;-;-;-;-;-;-;-;-;-;-
1512470270079;-;-;9.001495;-0.45948792;0.88653564;-;-;-;-;-;-;-;-;-;-;-;-;-;-;-
1512470270099;-;-;7.9432526;-0.41760254;0.5262146;-;-;-;-;-;-;-;-;-;-;-;-;-;-;-
1512470270120;-;-;8.004303;-0.31225586;-0.25909424;-;-;-;-;-;-;-;-;-;-;-;-;-;-;-
1512470270139;-;-;8.507095;0.01574707;-0.020858765;-;-;-;-;-;-;-;-;-;-;-;-;-;-;-
1512470270159;-;-;8.717773;-0.51934814;0.13595581;-;-;-;-;-;-;-;-;-;-;-;-;-;-;-
1512470270180;-;-;9.444412;-0.66659546;0.32389832;-;-;-;-;-;-;-;-;-;-;-;-;-;-;-
1512470270201;-;-;10.242889;-0.6917267;0.07369995;-;-;-;-;-;-;-;-;-;-;-;-;-;-;-
1512470270221;-;-;9.3151245;-1.3609161;-0.9941101;-;-;-;-;-;-;-;-;-;-;-;-;-;-;-
1512470270241;-;-;8.76207;-1.364502;-0.01727295;-;-;-;-;-;-;-;-;-;-;-;-;-;-;-
1512470270261;-;-;9.576096;-0.5732269;0.46037292;-;-;-;-;-;-;-;-;-;-;-;-;-;-;-
1512470270282;-;-;10.661865;0.46466064;0.8434448;-;-;-;-;-;-;-;-;-;-;-;-;-;-;-
1512470270302;-;-;9.962769;0.27313232;0.18981934;-;-;-;-;-;-;-;-;-;-;-;-;-;-;-
1512470270323;-;-;10.871368;0.16059875;-0.74272156;-;-;-;-;-;-;-;-;-;-;-;-;-;-;-
1512470270343;-;-;9.559341;-0.7731323;-0.74272156;-;-;-;-;-;-;-;-;-;-;-;-;-;-;-
1512470270364;-;-;9.3546295;-1.9307251;-0.42070007;-;-;-;-;-;-;-;-;-;-;-;-;-;-;-
1512470270384;-;-;9.093674;-2.432312;0.8015442;-;-;-;-;-;-;-;-;-;-;-;-;-;-;-
1512470270405;-;-;8.568146;-1.9307251;0.62916565;-;-;-;-;-;-;-;-;-;-;-;-;-;-;-
1512470270425;-;-;9.106842;-1.4806213;1.1044159;-;-;-;-;-;-;-;-;-;-;-;-;-;-;-
1512470270446;-;-;8.790802;-1.6985016;0.8374634;-;-;-;-;-;-;-;-;-;-;-;-;-;-;-
1512470270466;-;-;7.2465363;-0.98023987;0.28799438;-;-;-;-;-;-;-;-;-;-;-;-;-;-;-
1512470270487;-;-;7.542221;-1.661377;-0.078323364;-;-;-;-;-;-;-;-;-;-;-;-;-;-;-
1512470270507;-;-;9.207397;-1.0712128;1.0158234;-;-;-;-;-;-;-;-;-;-;-;-;-;-;-
1512470270528;-;-;9.898117;-2.2994385;1.4623413;-;-;-;-;-;-;-;-;-;-;-;-;-;-;-
1512470270548;-;-;9.444412;-1.8265839;-0.2459259;-;-;-;-;-;-;-;-;-;-;-;-;-;-;-
1512470270568;-;-;9.420471;-1.5955505;0.71894836;-;-;-;-;-;-;-;-;-;-;-;-;-;-;-
1512470270589;-;-;9.276825;-2.04924;0.79556274;-;-;-;-;-;-;-;-;-;-;-;-;-;-;-
1512470270609;-;-;8.503494;-0.93115234;1.0912476;-;-;-;-;-;-;-;-;-;-;-;-;-;-;-
1512470270630;-;-;9.300766;-0.9479065;1.2959442;-;-;-;-;-;-;-;-;-;-;-;-;-;-;-
1512470270651;-;-;10.989868;-1.0508575;1.7484436;-;-;-;-;-;-;-;-;-;-;-;-;-;-;-
1512470270671;-;-;2.1408997;-0.7587738;-2.1421204;-;-;-;-;-;-;-;-;-;-;-;-;-;-;-
1512470270691;-;-;9.851425;-1.6087189;3.5357208;-;-;-;-;-;-;-;-;-;-;-;-;-;-;-
1512470270712;-;-;9.790375;-1.6123047;1.5700836;-;-;-;-;-;-;-;-;-;-;-;-;-;-;-
1512470270732;-;-;8.976349;-2.3078156;2.2141266;-;-;-;-;-;-;-;-;-;-;-;-;-;-;-
1512470270753;-;-;11.156265;-1.7715149;-3.472107;-;-;-;-;-;-;-;-;-;-;-;-;-;-;-
1512470270773;-;-;6.491165;0.19172668;1.4826965;-;-;-;-;-;-;-;-;-;-;-;-;-;-;-
1512470270794;-;-;5.249771;-1.4064026;0.9535675;-;-;-;-;-;-;-;-;-;-;-;-;-;-;-
1512470270813;-;-;7.2357635;-1.2136688;2.6953583;-;-;-;-;-;-;-;-;-;-;-;-;-;-;-
1512470270833;-;-;8.784821;-1.3860474;2.8473816;-;-;-;-;-;-;-;-;-;-;-;-;-;-;-
1512470270854;-;-;9.658707;-1.186142;3.0939941;-;-;-;-;-;-;-;-;-;-;-;-;-;-;-
1512470270875;-;-;9.706589;-1.451889;1.354599;-;-;-;-;-;-;-;-;-;-;-;-;-;-;-
1512470270895;-;-;9.823898;-1.6434326;1.4707184;-;-;-;-;-;-;-;-;-;-;-;-;-;-;-
1512470270915;-;-;9.816711;-1.3824615;1.2851715;-;-;-;-;-;-;-;-;-;-;-;-;-;-;-
1512470270936;-;-;9.609619;-1.2244415;1.7065582;-;-;-;-;-;-;-;-;-;-;-;-;-;-;-
1512470270956;-;-;8.951218;-1.5680084;1.3330536;-;-;-;-;-;-;-;-;-;-;-;-;-;-;-
1512470270976;-;-;8.632782;-1.0496674;0.99427795;-;-;-;-;-;-;-;-;-;-;-;-;-;-;-
1512470270997;-;-;9.613205;-0.98143005;1.8609772;-;-;-;-;-;-;-;-;-;-;-;-;-;-;-
1512470271018;-;-;8.590881;-0.7264557;2.1829987;-;-;-;-;-;-;-;-;-;-;-;-;-;-;-
1512470271037;-;-;9.096069;-1.3453522;1.0254059;-;-;-;-;-;-;-;-;-;-;-;-;-;-;-
1512470271057;-;-;12.018188;-1.7691193;1.5018463;-;-;-;-;-;-;-;-;-;-;-;-;-;-;-
1512470271078;-;-;8.261688;-1.0496674;1.7867584;-;-;-;-;-;-;-;-;-;-;-;-;-;-;-
1512470271098;-;-;8.246124;-1.7092743;1.2420807;-;-;-;-;-;-;-;-;-;-;-;-;-;-;-
1512470271120;-;-;9.282806;-2.04805;1.1822205;-;-;-;-;-;-;-;-;-;-;-;-;-;-;-
1512470271140;-;-;8.758484;-1.4734344;0.6710663;-;-;-;-;-;-;-;-;-;-;-;-;-;-;-
1512470271160;-;-;9.428848;-1.9941711;0.7967529;-;-;-;-;-;-;-;-;-;-;-;-;-;-;-
1512470271181;-;-;8.9392395;-2.2204285;-0.040023804;-;-;-;-;-;-;-;-;-;-;-;-;-;-;-
1512470271201;-;-;8.520264;-1.3381653;1.8908997;-;-;-;-;-;-;-;-;-;-;-;-;-;-;-
1512470271222;-;-;8.851852;-1.5129395;1.5006561;-;-;-;-;-;-;-;-;-;-;-;-;-;-;-
1512470271241;-;-;8.693832;-1.9415131;-0.38957214;-;-;-;-;-;-;-;-;-;-;-;-;-;-;-
1512470271262;-;-;8.64476;-1.5033722;0.29756165;-;-;-;-;-;-;-;-;-;-;-;-;-;-;-
1512470271282;-;-;8.778824;-1.1442413;0.47712708;-;-;-;-;-;-;-;-;-;-;-;-;-;-;-
1512470271303;-;-;9.155914;-1.1346588;0.27720642;-;-;-;-;-;-;-;-;-;-;-;-;-;-;-
1512470271324;-;-;9.164291;-1.4267578;-0.014877319;-;-;-;-;-;-;-;-;-;-;-;-;-;-;-
1512470271344;-;-;8.651932;-1.3932343;-0.54878235;-;-;-;-;-;-;-;-;-;-;-;-;-;-;-
1512470271365;-;-;8.437653;-1.7607422;-0.075927734;-;-;-;-;-;-;-;-;-;-;-;-;-;-;-
1512470271385;-;-;8.01268;-2.190506;0.06173706;-;-;-;-;-;-;-;-;-;-;-;-;-;-;-
1512470271406;-;-;7.949234;-2.1222687;0.06892395;-;-;-;-;-;-;-;-;-;-;-;-;-;-;-
1512470271427;-;-;8.1874695;-2.0779724;0.51304626;-;-;-;-;-;-;-;-;-;-;-;-;-;-;-
1512470271447;-;-;8.905716;-2.0528412;-0.097473145;-;-;-;-;-;-;-;-;-;-;-;-;-;-;-
1512470271467;-;-;9.165497;-1.9546814;-0.6325836;-;-;-;-;-;-;-;-;-;-;-;-;-;-;-
1512470271488;-;-;8.958389;-1.937912;-1.1581116;-;-;-;-;-;-;-;-;-;-;-;-;-;-;-
1512470271508;-;-;8.588486;-2.0157318;-0.91030884;-;-;-;-;-;-;-;-;-;-;-;-;-;-;-
1512470271528;-;-;8.441254;-2.1976929;-0.8576355;-;-;-;-;-;-;-;-;-;-;-;-;-;-;-
1512470271549;-;-;8.617218;-2.3820343;-0.62060547;-;-;-;-;-;-;-;-;-;-;-;-;-;-;-
1512470271569;-;-;8.617218;-2.5041504;-1.0360107;-;-;-;-;-;-;-;-;-;-;-;-;-;-;-
1512470271590;-;-;8.195847;-2.245575;-1.3316956;-;-;-;-;-;-;-;-;-;-;-;-;-;-;-
1512470271610;-;-;7.2752686;-1.3070374;-1.6022339;-;-;-;-;-;-;-;-;-;-;-;-;-;-;-
1512470271631;-;-;6.419342;-1.2843018;-0.9366455;-;-;-;-;-;-;-;-;-;-;-;-;-;-;-
1512470271651;-;-;6.9269104;-0.7096863;-0.26507568;-;-;-;-;-;-;-;-;-;-;-;-;-;-;-
1512470271672;-;-;6.9424744;-0.9323425;-1.0240326;-;-;-;-;-;-;-;-;-;-;-;-;-;-;-
1512470271692;-;-;7.4955444;-1.1645813;-0.35725403;-;-;-;-;-;-;-;-;-;-;-;-;-;-;-
1512470271712;-;-;8.373016;-1.273529;0.09046936;-;-;-;-;-;-;-;-;-;-;-;-;-;-;-
1512470271733;-;-;9.111618;-2.1797333;-1.1078339;-;-;-;-;-;-;-;-;-;-;-;-;-;-;-
1512470271753;-;-;9.407303;-2.4442902;-1.4130859;-;-;-;-;-;-;-;-;-;-;-;-;-;-;-
1512470271774;-;-;8.630386;-1.5177307;-4.741028;-;-;-;-;-;-;-;-;-;-;-;-;-;-;-
1512470271794;-;-;10.885727;-0.51815796;-1.6728668;-;-;-;-;-;-;-;-;-;-;-;-;-;-;-
1512470271815;-;-;10.649902;-0.7276459;1.5940247;-;-;-;-;-;-;-;-;-;-;-;-;-;-;-
1512470271834;-;-;9.538986;-1.2447968;0.53578186;-;-;-;-;-;-;-;-;-;-;-;-;-;-;-
1512470271855;-;-;8.917694;-2.2563477;-0.9354553;-;-;-;-;-;-;-;-;-;-;-;-;-;-;-
1512470271874;-;-;7.4297028;-1.5799866;-1.1652985;-;-;-;-;-;-;-;-;-;-;-;-;-;-;-
1512470271895;-;-;8.017471;0.5281067;1.0325775;-;-;-;-;-;-;-;-;-;-;-;-;-;-;-
1512470271915;-;-;7.8163605;0.42156982;1.0708923;-;-;-;-;-;-;-;-;-;-;-;-;-;-;-
1512470271936;-;-;7.5961;-1.9869995;0.048568726;-;-;-;-;-;-;-;-;-;-;-;-;-;-;-
1512470271956;-;-;7.9779663;-2.669342;-0.23394775;-;-;-;-;-;-;-;-;-;-;-;-;-;-;-
1512470271977;-;-;9.111618;-2.2324066;-0.24951172;-;-;-;-;-;-;-;-;-;-;-;-;-;-;-
1512470271998;-;-;9.45639;-1.8792572;-1.7303314;-;-;-;-;-;-;-;-;-;-;-;-;-;-;-
1512470272018;-;-;9.771225;-0.9826355;-2.1983948;-;-;-;-;-;-;-;-;-;-;-;-;-;-;-
1512470272038;-;-;9.847839;0.038497925;-2.017624;-;-;-;-;-;-;-;-;-;-;-;-;-;-;-
1512470272059;-;-;9.084091;-0.117126465;-2.100235;-;-;-;-;-;-;-;-;-;-;-;-;-;-;-
1512470272079;-;-;8.432861;-1.1011353;-1.2730255;-;-;-;-;-;-;-;-;-;-;-;-;-;-;-
1512470272100;-;-;8.382584;-1.7272186;-1.3712006;-;-;-;-;-;-;-;-;-;-;-;-;-;-;-
1512470272119;-;-;8.622009;-2.143814;-1.7961731;-;-;-;-;-;-;-;-;-;-;-;-;-;-;-
1512470272140;-;-;9.0972595;-1.9211578;-2.302536;-;-;-;-;-;-;-;-;-;-;-;-;-;-;-
1512470272160;-;-;9.756866;-1.9151764;-2.207962;-;-;-;-;-;-;-;-;-;-;-;-;-;-;-
1512470272181;-;-;10.750458;-2.0851593;-1.085083;-;-;-;-;-;-;-;-;-;-;-;-;-;-;-
1512470272201;-;-;10.927628;-2.356903;-2.093048;-;-;-;-;-;-;-;-;-;-;-;-;-;-;-
1512470272222;-;-;10.634338;-2.0731812;-2.5503387;-;-;-;-;-;-;-;-;-;-;-;-;-;-;-
1512470272242;-;-;10.505051;-2.2324066;-2.4246368;-;-;-;-;-;-;-;-;-;-;-;-;-;-;-
1512470272263;-;-;10.288376;-2.261139;-2.310913;-;-;-;-;-;-;-;-;-;-;-;-;-;-;-
1512470272283;-;-;10.773193;-1.6793365;-1.0814972;-;-;-;-;-;-;-;-;-;-;-;-;-;-;-
1512470272304;-;-;10.604416;-1.0317078;6.866455E-4;-;-;-;-;-;-;-;-;-;-;-;-;-;-;-
1512470272324;-;-;10.575684;-0.9766388;1.0912476;-;-;-;-;-;-;-;-;-;-;-;-;-;-;-
1512470272344;-;-;10.367386;-1.7212372;0.15270996;-;-;-;-;-;-;-;-;-;-;-;-;-;-;-
1512470272365;-;-;10.141129;-2.4526672;0.508255;-;-;-;-;-;-;-;-;-;-;-;-;-;-;-
1512470272385;-;-;10.612793;-2.5951233;1.0158234;-;-;-;-;-;-;-;-;-;-;-;-;-;-;-
1512470272407;-;-;11.146698;-2.3185883;2.0513153;-;-;-;-;-;-;-;-;-;-;-;-;-;-;-
1512470272427;-;-;10.989868;-2.0121307;2.1686249;-;-;-;-;-;-;-;-;-;-;-;-;-;-;-
1512470272447;-;-;10.072891;-0.9323425;1.4862823;-;-;-;-;-;-;-;-;-;-;-;-;-;-;-
1512470272468;-;-;11.023392;-0.25598145;1.1738434;-;-;-;-;-;-;-;-;-;-;-;-;-;-;-
1512470272489;-;-;11.820663;0.008575439;0.9930725;-;-;-;-;-;-;-;-;-;-;-;-;-;-;-
1512470272509;-;-;10.873764;0.24440002;1.0481415;-;-;-;-;-;-;-;-;-;-;-;-;-;-;-
1512470272530;-;-;9.790375;0.44432068;1.334259;-;-;-;-;-;-;-;-;-;-;-;-;-;-;-
1512470272550;-;-;9.243301;0.3569336;2.1602478;-;-;-;-;-;-;-;-;-;-;-;-;-;-;-
1512470272571;-;-;8.46759;0.4694519;2.4200287;-;-;-;-;-;-;-;-;-;-;-;-;-;-;-
1512470272591;-;-;8.466385;0.7687378;2.2009583;-;-;-;-;-;-;-;-;-;-;-;-;-;-;-
1512470272612;-;-;8.121628;1.2116547;2.6486664;-;-;-;-;-;-;-;-;-;-;-;-;-;-;-
1512470272633;-;-;8.021072;1.671341;3.0125885;-;-;-;-;-;-;-;-;-;-;-;-;-;-;-
1512470272652;-;-;8.054581;1.8568878;3.061676;-;-;-;-;-;-;-;-;-;-;-;-;-;-;-
1512470272673;-;-;8.363434;1.5863495;4.043289;-;-;-;-;-;-;-;-;-;-;-;-;-;-;-
1512470272693;-;-;8.34668;1.0296936;3.8888702;-;-;-;-;-;-;-;-;-;-;-;-;-;-;-
1512470272713;-;-;8.693832;0.47305298;4.2144775;-;-;-;-;-;-;-;-;-;-;-;-;-;-;-
1512470272734;-;-;8.466385;-0.0010070801;4.0001984;-;-;-;-;-;-;-;-;-;-;-;-;-;-;-
1512470272753;-;-;8.180283;-0.1530304;4.307846;-;-;-;-;-;-;-;-;-;-;-;-;-;-;-
1512470272774;-;-;7.884598;-0.29309082;4.9650574;-;-;-;-;-;-;-;-;-;-;-;-;-;-;-
1512470272794;-;-;7.9600067;-0.27514648;5.460663;-;-;-;-;-;-;-;-;-;-;-;-;-;-;-
1512470272815;-;-;7.4201202;-0.46548462;5.6138916;-;-;-;-;-;-;-;-;-;-;-;-;-;-;-
1512470272835;-;-;7.090912;-0.49661255;5.6881104;-;-;-;-;-;-;-;-;-;-;-;-;-;-;-
1512470272856;-;-;7.332733;-0.31584167;5.6258545;-;-;-;-;-;-;-;-;-;-;-;-;-;-;-
1512470272876;-;-;7.5637665;0.39881897;6.0771637;-;-;-;-;-;-;-;-;-;-;-;-;-;-;-
1512470272897;-;-;7.4201202;0.71965027;5.741974;-;-;-;-;-;-;-;-;-;-;-;-;-;-;-
1512470272918;-;-;7.343506;0.39283752;4.8118286;-;-;-;-;-;-;-;-;-;-;-;-;-;-;-
1512470272937;-;-;7.6068726;-0.36013794;4.9566803;-;-;-;-;-;-;-;-;-;-;-;-;-;-;-
1512470272958;-;-;8.222183;-0.89045715;4.7160645;-;-;-;-;-;-;-;-;-;-;-;-;-;-;-
1512470272978;-;-;8.577713;-0.6641998;4.311447;-;-;-;-;-;-;-;-;-;-;-;-;-;-;-
1512470272999;-;-;8.896149;-0.34576416;4.236023;-;-;-;-;-;-;-;-;-;-;-;-;-;-;-
1512470273019;-;-;9.030228;0.13067627;4.030121;-;-;-;-;-;-;-;-;-;-;-;-;-;-;-
1512470273039;-;-;8.794388;0.5927582;3.9571075;-;-;-;-;-;-;-;-;-;-;-;-;-;-;-
1512470273060;-;-;8.48793;0.65141296;4.117508;-;-;-;-;-;-;-;-;-;-;-;-;-;-;-
1512470273079;-;-;8.138382;0.48860168;4.4072113;-;-;-;-;-;-;-;-;-;-;-;-;-;-;-
1512470273099;-;-;7.8319244;0.15701294;4.385666;-;-;-;-;-;-;-;-;-;-;-;-;-;-;-
1512470273119;-;-;7.6475677;-0.23683167;4.7914734;-;-;-;-;-;-;-;-;-;-;-;-;-;-;-
1512470273140;-;-;7.5386353;-0.22845459;4.880066;-;-;-;-;-;-;-;-;-;-;-;-;-;-;-
1512470273159;-;-;7.511093;-0.35534668;4.908798;-;-;-;-;-;-;-;-;-;-;-;-;-;-;-
1512470273179;-;-;7.511093;-0.4774475;4.9626617;-;-;-;-;-;-;-;-;-;-;-;-;-;-;-
1512470273199;-;-;7.530258;-0.51815796;5.160187;-;-;-;-;-;-;-;-;-;-;-;-;-;-;-
1512470273219;-;-;7.4500427;-0.35534668;5.5276947;-;-;-;-;-;-;-;-;-;-;-;-;-;-;-
1512470273240;-;-;7.317169;-0.18894958;5.7671204;-;-;-;-;-;-;-;-;-;-;-;-;-;-;-
1512470273260;-;-;7.2704773;0.07081604;5.7647247;-;-;-;-;-;-;-;-;-;-;-;-;-;-;-
1512470273280;-;-;7.3028107;0.30784607;5.6952972;-;-;-;-;-;-;-;-;-;-;-;-;-;-;-
1512470273300;-;-;7.2860413;0.54966736;5.697693;-;-;-;-;-;-;-;-;-;-;-;-;-;-;-
1512470273322;-;-;7.398575;0.73521423;5.6497955;-;-;-;-;-;-;-;-;-;-;-;-;-;-;-
1512470273341;-;-;7.4991302;0.67774963;5.666565;-;-;-;-;-;-;-;-;-;-;-;-;-;-;-
1512470273362;-;-;7.5781403;0.6023407;5.6893005;-;-;-;-;-;-;-;-;-;-;-;-;-;-;-
1512470273382;-;-;7.545822;0.45030212;5.642624;-;-;-;-;-;-;-;-;-;-;-;-;-;-;-
1512470273402;-;-;7.375824;0.35812378;5.733597;-;-;-;-;-;-;-;-;-;-;-;-;-;-;-
1512470273423;-;-;7.2980194;0.36410522;5.652191;-;-;-;-;-;-;-;-;-;-;-;-;-;-;-
1512470273443;-;-;7.3052063;0.17736816;5.659378;-;-;-;-;-;-;-;-;-;-;-;-;-;-;-
1512470273464;-;-;7.5051117;0.18095398;5.555237;-;-;-;-;-;-;-;-;-;-;-;-;-;-;-
1512470273484;-;-;7.6415863;0.19770813;5.4594574;-;-;-;-;-;-;-;-;-;-;-;-;-;-;-
1512470273504;-;-;7.758896;0.19412231;5.3445435;-;-;-;-;-;-;-;-;-;-;-;-;-;-;-
1512470273524;-;-;7.748123;0.1618042;5.378067;-;-;-;-;-;-;-;-;-;-;-;-;-;-;-
1512470273545;-;-;7.659546;0.0756073;5.3696747;-;-;-;-;-;-;-;-;-;-;-;-;-;-;-
1512470273565;-;-;7.5278625;0.050476074;5.2667236;-;-;-;-;-;-;-;-;-;-;-;-;-;-;-
1512470273586;-;-;7.462021;0.07081604;5.3541107;-;-;-;-;-;-;-;-;-;-;-;-;-;-;-
1512470273607;-;-;7.473984;0.110321045;5.31102;-;-;-;-;-;-;-;-;-;-;-;-;-;-;-
1512470273626;-;-;7.541031;0.1845398;5.3170013;-;-;-;-;-;-;-;-;-;-;-;-;-;-;-
1512470273647;-;-;7.6475677;0.27313232;5.379257;-;-;-;-;-;-;-;-;-;-;-;-;-;-;-
1512470273667;-;-;7.629608;0.3569336;5.3493347;-;-;-;-;-;-;-;-;-;-;-;-;-;-;-
1512470273688;-;-;7.632004;0.3617096;5.3852386;-;-;-;-;-;-;-;-;-;-;-;-;-;-;-
1512470273709;-;-;7.6966553;0.26235962;5.4008026;-;-;-;-;-;-;-;-;-;-;-;-;-;-;-
1512470273729;-;-;7.770874;0.1845398;5.3612976;-;-;-;-;-;-;-;-;-;-;-;-;-;-;-
1512470273750;-;-;7.770874;0.1330719;5.2930603;-;-;-;-;-;-;-;-;-;-;-;-;-;-;-
1512470273770;-;-;7.7373505;0.16539001;5.318207;-;-;-;-;-;-;-;-;-;-;-;-;-;-;-
1512470273790;-;-;7.6415863;0.21687317;5.378067;-;-;-;-;-;-;-;-;-;-;-;-;-;-;-
1512470273811;-;-;7.5470123;0.17497253;5.355316;-;-;-;-;-;-;-;-;-;-;-;-;-;-;-
1512470273831;-;-;7.4572296;0.1043396;5.37088;-;-;-;-;-;-;-;-;-;-;-;-;-;-;-
1512470273852;-;-;7.3937836;0.088775635;5.4079895;-;-;-;-;-;-;-;-;-;-;-;-;-;-;-
1512470273872;-;-;7.3494873;0.12109375;5.4953766;-;-;-;-;-;-;-;-;-;-;-;-;-;-;-
1512470273893;-;-;7.379425;0.124694824;5.5384674;-;-;-;-;-;-;-;-;-;-;-;-;-;-;-
1512470273913;-;-;7.5793304;0.1330719;5.47023;-;-;-;-;-;-;-;-;-;-;-;-;-;-;-
1512470273933;-;-;7.6547546;0.20610046;5.3325653;-;-;-;-;-;-;-;-;-;-;-;-;-;-;-
1512470273954;-;-;7.724182;0.31622314;5.307434;-;-;-;-;-;-;-;-;-;-;-;-;-;-;-
1512470273974;-;-;7.700241;0.35453796;5.3517303;-;-;-;-;-;-;-;-;-;-;-;-;-;-;-
1512470273995;-;-;7.6631317;0.34735107;5.3684845;-;-;-;-;-;-;-;-;-;-;-;-;-;-;-
1512470274015;-;-;7.6415863;0.32699585;5.3541107;-;-;-;-;-;-;-;-;-;-;-;-;-;-;-
1512470274035;-;-;7.572159;0.3605194;5.382843;-;-;-;-;-;-;-;-;-;-;-;-;-;-;-
1512470274056;-;-;7.533844;0.31861877;5.4319305;-;-;-;-;-;-;-;-;-;-;-;-;-;-;-
1512470274077;-;-;7.494339;0.2922821;5.485794;-;-;-;-;-;-;-;-;-;-;-;-;-;-;-
1512470274096;-;-;7.478775;0.23602295;5.4869995;-;-;-;-;-;-;-;-;-;-;-;-;-;-;-
1512470274116;-;-;7.4991302;0.1330719;5.5276947;-;-;-;-;-;-;-;-;-;-;-;-;-;-;-
1512470274137;-;-;7.5278625;0.028915405;5.500168;-;-;-;-;-;-;-;-;-;-;-;-;-;-;-
1512470274158;-;-;7.5865173;0.026535034;5.4438934;-;-;-;-;-;-;-;-;-;-;-;-;-;-;-
1512470274177;-;-;7.5948944;0.04447937;5.4630585;-;-;-;-;-;-;-;-;-;-;-;-;-;-;-
1512470274198;-;-;7.5278625;0.06842041;5.397217;-;-;-;-;-;-;-;-;-;-;-;-;-;-;-
1512470274218;-;-;7.4991302;0.100753784;5.418762;-;-;-;-;-;-;-;-;-;-;-;-;-;-;-
1512470274238;-;-;7.458435;0.086380005;5.497772;-;-;-;-;-;-;-;-;-;-;-;-;-;-;-
1512470274259;-;-;7.4680023;0.06602478;5.5276947;-;-;-;-;-;-;-;-;-;-;-;-;-;-;-
1512470274279;-;-;7.4763794;0.079193115;5.4750214;-;-;-;-;-;-;-;-;-;-;-;-;-;-;-
1512470274299;-;-;7.501526;0.18095398;5.363693;-;-;-;-;-;-;-;-;-;-;-;-;-;-;-
1512470274320;-;-;7.511093;0.31861877;5.3996124;-;-;-;-;-;-;-;-;-;-;-;-;-;-;-
1512470274341;-;-;7.532654;0.41079712;5.4271393;-;-;-;-;-;-;-;-;-;-;-;-;-;-;-
1512470274361;-;-;7.530258;0.33657837;5.4678497;-;-;-;-;-;-;-;-;-;-;-;-;-;-;-
1512470274381;-;-;7.5122986;0.37249756;5.457062;-;-;-;-;-;-;-;-;-;-;-;-;-;-;-
1512470274402;-;-;7.43808;0.2850952;5.500168;-;-;-;-;-;-;-;-;-;-;-;-;-;-;-
1512470274422;-;-;7.458435;0.24559021;5.615082;-;-;-;-;-;-;-;-;-;-;-;-;-;-;-
1512470274443;-;-;7.4452667;0.21447754;5.6294556;-;-;-;-;-;-;-;-;-;-;-;-;-;-;-
1512470274462;-;-;7.451248;0.22285461;5.6701508;-;-;-;-;-;-;-;-;-;-;-;-;-;-;-
1512470274483;-;-;7.4572296;0.21087646;5.6294556;-;-;-;-;-;-;-;-;-;-;-;-;-;-;-
1512470274502;-;-;7.462021;0.22883606;5.6091003;-;-;-;-;-;-;-;-;-;-;-;-;-;-;-
1512470274523;-;-;7.502716;0.2240448;5.5145264;-;-;-;-;-;-;-;-;-;-;-;-;-;-;-
1512470274543;-;-;7.5075073;0.13426208;5.5145264;-;-;-;-;-;-;-;-;-;-;-;-;-;-;-
1512470274563;-;-;7.533844;0.16539001;5.461853;-;-;-;-;-;-;-;-;-;-;-;-;-;-;-
1512470274584;-;-;7.526657;0.13186646;5.4331207;-;-;-;-;-;-;-;-;-;-;-;-;-;-;-
1512470274605;-;-;7.509903;0.081588745;5.44989;-;-;-;-;-;-;-;-;-;-;-;-;-;-;-
1512470274625;-;-;7.5194855;0.045684814;5.476227;-;-;-;-;-;-;-;-;-;-;-;-;-;-;-
1512470274646;-;-;7.4895477;-0.011779785;5.4331207;-;-;-;-;-;-;-;-;-;-;-;-;-;-;-
1512470274666;-;-;7.5230713;0.036102295;5.4678497;-;-;-;-;-;-;-;-;-;-;-;-;-;-;-
1512470274686;-;-;7.4991302;0.076812744;5.516922;-;-;-;-;-;-;-;-;-;-;-;-;-;-;-
1512470274707;-;-;7.4955444;0.18814087;5.5037537;-;-;-;-;-;-;-;-;-;-;-;-;-;-;-
1512470274727;-;-;7.4835663;0.21208191;5.568405;-;-;-;-;-;-;-;-;-;-;-;-;-;-;-
1512470274748;-;-;7.478775;0.26235962;5.5540314;-;-;-;-;-;-;-;-;-;-;-;-;-;-;-
1512470274768;-;-;7.51828;0.2707367;5.54924;-;-;-;-;-;-;-;-;-;-;-;-;-;-;-
1512470274789;-;-;7.4524384;0.25756836;5.583954;-;-;-;-;-;-;-;-;-;-;-;-;-;-;-
1512470274808;-;-;7.454834;0.18334961;5.540863;-;-;-;-;-;-;-;-;-;-;-;-;-;-;-
1512470274828;-;-;7.478775;0.1905365;5.5217133;-;-;-;-;-;-;-;-;-;-;-;-;-;-;-
1512470274848;-;-;7.497925;0.16897583;5.504959;-;-;-;-;-;-;-;-;-;-;-;-;-;-;-
1512470274869;-;-;7.4644165;0.17736816;5.520508;-;-;-;-;-;-;-;-;-;-;-;-;-;-;-
1512470274889;-;-;7.4644165;0.12709045;5.5217133;-;-;-;-;-;-;-;-;-;-;-;-;-;-;-
1512470274910;-;-;7.508713;0.15461731;5.571991;-;-;-;-;-;-;-;-;-;-;-;-;-;-;-
1512470274930;-;-;7.53743;0.12109375;5.533676;-;-;-;-;-;-;-;-;-;-;-;-;-;-;-
1512470274951;-;-;7.4955444;0.13426208;5.5109406;-;-;-;-;-;-;-;-;-;-;-;-;-;-;-
1512470274971;-;-;7.4608154;0.16659546;5.597122;-;-;-;-;-;-;-;-;-;-;-;-;-;-;-
1512470274992;-;-;7.4261017;0.22045898;5.6174774;-;-;-;-;-;-;-;-;-;-;-;-;-;-;-
1512470275012;-;-;7.4488525;0.23242188;5.5432587;-;-;-;-;-;-;-;-;-;-;-;-;-;-;-
1512470275033;-;-;7.4500427;0.259964;5.537277;-;-;-;-;-;-;-;-;-;-;-;-;-;-;-
1512470275053;-;-;7.430893;0.25756836;5.5516357;-;-;-;-;-;-;-;-;-;-;-;-;-;-;-
1512470275074;-;-;7.4644165;0.21447754;5.580368;-;-;-;-;-;-;-;-;-;-;-;-;-;-;-
1512470275093;-;-;7.4680023;0.2132721;5.576782;-;-;-;-;-;-;-;-;-;-;-;-;-;-;-
1512470275114;-;-;7.4656067;0.14863586;5.604309;-;-;-;-;-;-;-;-;-;-;-;-;-;-;-
1512470275134;-;-;7.454834;0.074417114;5.5899506;-;-;-;-;-;-;-;-;-;-;-;-;-;-;-
1512470275154;-;-;7.4452667;0.06842041;5.556427;-;-;-;-;-;-;-;-;-;-;-;-;-;-;-
1512470275175;-;-;7.4021606;0.081588745;5.54805;-;-;-;-;-;-;-;-;-;-;-;-;-;-;-
1512470275194;-;-;7.4500427;0.124694824;5.5671997;-;-;-;-;-;-;-;-;-;-;-;-;-;-;-
1512470275215;-;-;7.447647;0.18334961;5.5181274;-;-;-;-;-;-;-;-;-;-;-;-;-;-;-
1512470275234;-;-;7.4895477;0.23721313;5.5181274;-;-;-;-;-;-;-;-;-;-;-;-;-;-;-
1512470275255;-;-;7.5039215;0.19172668;5.592346;-;-;-;-;-;-;-;-;-;-;-;-;-;-;-
1512470275275;-;-;7.502716;0.23123169;5.5851593;-;-;-;-;-;-;-;-;-;-;-;-;-;-;-
1512470275296;-;-;7.501526;0.26834106;5.544464;-;-;-;-;-;-;-;-;-;-;-;-;-;-;-
1512470275316;-;-;7.4488525;0.27313232;5.5851593;-;-;-;-;-;-;-;-;-;-;-;-;-;-;-
1512470275336;-;-;7.422516;0.27192688;5.597122;-;-;-;-;-;-;-;-;-;-;-;-;-;-;-
1512470275357;-;-;7.406952;0.2300415;5.5624084;-;-;-;-;-;-;-;-;-;-;-;-;-;-;-
1512470275377;-;-;7.4249115;0.22764587;5.6210785;-;-;-;-;-;-;-;-;-;-;-;-;-;-;-
1512470275398;-;-;7.442871;0.21687317;5.62825;-;-;-;-;-;-;-;-;-;-;-;-;-;-;-
1512470275418;-;-;7.4213104;0.2300415;5.603119;-;-;-;-;-;-;-;-;-;-;-;-;-;-;-
1512470275438;-;-;7.485962;0.15940857;5.5983276;-;-;-;-;-;-;-;-;-;-;-;-;-;-;-
1512470275459;-;-;7.462021;0.21806335;5.6055145;-;-;-;-;-;-;-;-;-;-;-;-;-;-;-
1512470275479;-;-;7.4297028;0.17376709;5.595932;-;-;-;-;-;-;-;-;-;-;-;-;-;-;-
1512470275500;-;-;7.3973694;0.23841858;5.623459;-;-;-;-;-;-;-;-;-;-;-;-;-;-;-
1512470275521;-;-;7.372238;0.21087646;5.6330414;-;-;-;-;-;-;-;-;-;-;-;-;-;-;-
1512470275541;-;-;7.348297;0.1510315;5.721634;-;-;-;-;-;-;-;-;-;-;-;-;-;-;-
1512470275561;-;-;7.3542786;0.112716675;5.6701508;-;-;-;-;-;-;-;-;-;-;-;-;-;-;-
1512470275582;-;-;7.34111;0.117507935;5.6306458;-;-;-;-;-;-;-;-;-;-;-;-;-;-;-
1512470275601;-;-;7.398575;0.17736816;5.683319;-;-;-;-;-;-;-;-;-;-;-;-;-;-;-
1512470275621;-;-;7.383011;0.20729065;5.709656;-;-;-;-;-;-;-;-;-;-;-;-;-;-;-
1512470275642;-;-;7.384201;0.17616272;5.7240295;-;-;-;-;-;-;-;-;-;-;-;-;-;-;-
1512470275662;-;-;7.3662567;0.17616272;5.6773376;-;-;-;-;-;-;-;-;-;-;-;-;-;-;-
1512470275683;-;-;7.3889923;0.21687317;5.6964874;-;-;-;-;-;-;-;-;-;-;-;-;-;-;-
1512470275703;-;-;7.4165344;0.22764587;5.639023;-;-;-;-;-;-;-;-;-;-;-;-;-;-;-
1512470275724;-;-;7.3818207;0.31622314;5.619873;-;-;-;-;-;-;-;-;-;-;-;-;-;-;-
1512470275744;-;-;7.3375244;0.30065918;5.671356;-;-;-;-;-;-;-;-;-;-;-;-;-;-;-
1512470275765;-;-;7.3782196;0.30545044;5.698883;-;-;-;-;-;-;-;-;-;-;-;-;-;-;-
1512470275785;-;-;7.387802;0.28988647;5.6641693;-;-;-;-;-;-;-;-;-;-;-;-;-;-;-
1512470275808;-;-;7.3231506;0.30903625;5.730011;-;-;-;-;-;-;-;-;-;-;-;-;-;-;-
1512470275827;-;-;7.3459015;0.2886963;5.718033;-;-;-;-;-;-;-;-;-;-;-;-;-;-;-
1512470275848;-;-;7.3052063;0.2527771;5.745575;-;-;-;-;-;-;-;-;-;-;-;-;-;-;-
1512470275868;-;-;7.300415;0.24320984;5.7599335;-;-;-;-;-;-;-;-;-;-;-;-;-;-;-
1512470275889;-;-;7.3111877;0.21447754;5.741974;-;-;-;-;-;-;-;-;-;-;-;-;-;-;-
1512470275909;-;-;7.3387146;0.18095398;5.72641;-;-;-;-;-;-;-;-;-;-;-;-;-;-;-
1512470275929;-;-;7.3782196;0.1725769;5.70726;-;-;-;-;-;-;-;-;-;-;-;-;-;-;-
1512470275950;-;-;7.4105377;0.18814087;5.6450195;-;-;-;-;-;-;-;-;-;-;-;-;-;-;-
1512470275971;-;-;7.423706;0.20010376;5.658188;-;-;-;-;-;-;-;-;-;-;-;-;-;-;-
1512470275991;-;-;7.4488525;0.1797638;5.642624;-;-;-;-;-;-;-;-;-;-;-;-;-;-;-
1512470276012;-;-;7.454834;0.16059875;5.5983276;-;-;-;-;-;-;-;-;-;-;-;-;-;-;-
1512470276034;-;-;7.4727936;0.16778564;5.5983276;-;-;-;-;-;-;-;-;-;-;-;-;-;-;-
1512470276054;-;-;7.4596252;0.24081421;5.6462097;-;-;-;-;-;-;-;-;-;-;-;-;-;-;-
1512470276074;-;-;7.4045563;0.21566772;5.676132;-;-;-;-;-;-;-;-;-;-;-;-;-;-;-
1512470276095;-;-;7.363861;0.21208191;5.7048645;-;-;-;-;-;-;-;-;-;-;-;-;-;-;-
1512470276116;-;-;7.3375244;0.18814087;5.721634;-;-;-;-;-;-;-;-;-;-;-;-;-;-;-
1512470276136;-;-;7.3147736;0.20370483;5.7168427;-;-;-;-;-;-;-;-;-;-;-;-;-;-;-
1512470276157;-;-;7.3135834;0.25038147;5.7527466;-;-;-;-;-;-;-;-;-;-;-;-;-;-;-
1512470276177;-;-;7.3494873;0.338974;5.7192383;-;-;-;-;-;-;-;-;-;-;-;-;-;-;-
1512470276197;-;-;7.3530884;0.39164734;5.698883;-;-;-;-;-;-;-;-;-;-;-;-;-;-;-
1512470276218;-;-;7.367447;0.4359436;5.7132416;-;-;-;-;-;-;-;-;-;-;-;-;-;-;-
1512470276237;-;-;7.3925934;0.4407196;5.667755;-;-;-;-;-;-;-;-;-;-;-;-;-;-;-
1512470276257;-;-;7.3973694;0.37608337;5.635437;-;-;-;-;-;-;-;-;-;-;-;-;-;-;-
1512470276278;-;-;7.374634;0.29109192;5.618683;-;-;-;-;-;-;-;-;-;-;-;-;-;-;-
1512470276299;-;-;7.3542786;0.24081421;5.6007233;-;-;-;-;-;-;-;-;-;-;-;-;-;-;-
1512470276319;-;-;7.3578644;0.1725769;5.655792;-;-;-;-;-;-;-;-;-;-;-;-;-;-;-
1512470276339;-;-;7.348297;0.09236145;5.70607;-;-;-;-;-;-;-;-;-;-;-;-;-;-;-
1512470276360;-;-;7.3698425;0.122299194;5.6952972;-;-;-;-;-;-;-;-;-;-;-;-;-;-;-
1512470276381;-;-;7.3710327;0.14624023;5.6533966;-;-;-;-;-;-;-;-;-;-;-;-;-;-;-
1512470276403;-;-;7.3865967;0.18574524;5.6725464;-;-;-;-;-;-;-;-;-;-;-;-;-;-;-
1512470276423;-;-;7.411743;0.2707367;5.6881104;-;-;-;-;-;-;-;-;-;-;-;-;-;-;-
1512470276444;-;-;7.4045563;0.2743225;5.6845245;-;-;-;-;-;-;-;-;-;-;-;-;-;-;-
1512470276464;-;-;7.355484;0.25875854;5.631851;-;-;-;-;-;-;-;-;-;-;-;-;-;-;-
1512470276485;-;-;7.293228;0.24919128;5.6701508;-;-;-;-;-;-;-;-;-;-;-;-;-;-;-
1512470276505;-;-;7.34111;0.22883606;5.7204285;-;-;-;-;-;-;-;-;-;-;-;-;-;-;-
1512470276526;-;-;7.399765;0.25875854;5.682129;-;-;-;-;-;-;-;-;-;-;-;-;-;-;-
1512470276546;-;-;7.396179;0.26834106;5.690506;-;-;-;-;-;-;-;-;-;-;-;-;-;-;-
1512470276567;-;-;7.367447;0.26235962;5.7252197;-;-;-;-;-;-;-;-;-;-;-;-;-;-;-
1512470276588;-;-;7.3578644;0.2886963;5.691696;-;-;-;-;-;-;-;-;-;-;-;-;-;-;-
1512470276608;-;-;7.3375244;0.31263733;5.678528;-;-;-;-;-;-;-;-;-;-;-;-;-;-;-
1512470276629;-;-;7.374634;0.28271484;5.5863495;-;-;-;-;-;-;-;-;-;-;-;-;-;-;-
1512470276649;-;-;7.4297028;0.26834106;5.660568;-;-;-;-;-;-;-;-;-;-;-;-;-;-;-
1512470276669;-;-;7.4045563;0.27911377;5.683319;-;-;-;-;-;-;-;-;-;-;-;-;-;-;-
1512470276691;-;-;7.469208;0.2815094;5.730011;-;-;-;-;-;-;-;-;-;-;-;-;-;-;-
1512470276710;-;-;7.4177246;0.3317871;5.7838745;-;-;-;-;-;-;-;-;-;-;-;-;-;-;-
1512470276731;-;-;7.336319;0.3222046;5.777893;-;-;-;-;-;-;-;-;-;-;-;-;-;-;-
1512470276752;-;-;7.3028107;0.27552795;5.7348022;-;-;-;-;-;-;-;-;-;-;-;-;-;-;-
1512470276772;-;-;7.320755;0.25517273;5.7288055;-;-;-;-;-;-;-;-;-;-;-;-;-;-;-
1512470276792;-;-;7.2393646;0.24679565;5.769516;-;-;-;-;-;-;-;-;-;-;-;-;-;-;-
1512470276812;-;-;7.198654;0.24320984;5.8030243;-;-;-;-;-;-;-;-;-;-;-;-;-;-;-
1512470276833;-;-;7.2082367;0.23242188;5.8556976;-;-;-;-;-;-;-;-;-;-;-;-;-;-;-
1512470276853;-;-;7.228592;0.1510315;5.8748627;-;-;-;-;-;-;-;-;-;-;-;-;-;-;-
1512470276874;-;-;7.301605;0.15940857;5.7958527;-;-;-;-;-;-;-;-;-;-;-;-;-;-;-
1512470276894;-;-;7.3770294;0.14503479;5.78508;-;-;-;-;-;-;-;-;-;-;-;-;-;-;-
1512470276915;-;-;7.4320984;0.13426208;5.755142;-;-;-;-;-;-;-;-;-;-;-;-;-;-;-
1512470276934;-;-;7.4165344;0.15342712;5.6797333;-;-;-;-;-;-;-;-;-;-;-;-;-;-;-
1512470276954;-;-;7.4009705;0.16059875;5.6055145;-;-;-;-;-;-;-;-;-;-;-;-;-;-;-
1512470276975;-;-;7.363861;0.20848083;5.587555;-;-;-;-;-;-;-;-;-;-;-;-;-;-;-
1512470276995;-;-;7.3183746;0.17736816;5.6258545;-;-;-;-;-;-;-;-;-;-;-;-;-;-;-
1512470277016;-;-;7.3686523;0.24919128;5.683319;-;-;-;-;-;-;-;-;-;-;-;-;-;-;-
1512470277036;-;-;7.3578644;0.25038147;5.7683105;-;-;-;-;-;-;-;-;-;-;-;-;-;-;-
1512470277057;-;-;7.344696;0.34376526;5.7324066;-;-;-;-;-;-;-;-;-;-;-;-;-;-;-
1512470277077;-;-;7.344696;0.35572815;5.7120514;-;-;-;-;-;-;-;-;-;-;-;-;-;-;-
1512470277098;-;-;7.3470917;0.37727356;5.741974;-;-;-;-;-;-;-;-;-;-;-;-;-;-;-
1512470277118;-;-;7.300415;0.32580566;5.745575;-;-;-;-;-;-;-;-;-;-;-;-;-;-;-
1512470277139;-;-;7.2357635;0.30186462;5.8317566;-;-;-;-;-;-;-;-;-;-;-;-;-;-;-
1512470277159;-;-;7.2872467;0.31143188;5.8425293;-;-;-;-;-;-;-;-;-;-;-;-;-;-;-
1512470277178;-;-;7.319565;0.2850952;5.770706;-;-;-;-;-;-;-;-;-;-;-;-;-;-;-
1512470277199;-;-;7.324356;0.25398254;5.6533966;-;-;-;-;-;-;-;-;-;-;-;-;-;-;-
1512470277219;-;-;7.3387146;0.24081421;5.6857147;-;-;-;-;-;-;-;-;-;-;-;-;-;-;-
1512470277240;-;-;7.379425;0.16897583;5.72641;-;-;-;-;-;-;-;-;-;-;-;-;-;-;-
1512470277260;-;-;7.4093475;0.12109375;5.718033;-;-;-;-;-;-;-;-;-;-;-;-;-;-;-
1512470277281;-;-;7.36026;0.18814087;5.686905;-;-;-;-;-;-;-;-;-;-;-;-;-;-;-
1512470277301;-;-;7.379425;0.2348175;5.6474;-;-;-;-;-;-;-;-;-;-;-;-;-;-;-
1512470277322;-;-;7.348297;0.24919128;5.6893005;-;-;-;-;-;-;-;-;-;-;-;-;-;-;-
1512470277342;-;-;7.2896423;0.29109192;5.714447;-;-;-;-;-;-;-;-;-;-;-;-;-;-;-
1512470277363;-;-;7.3650513;0.23123169;5.731201;-;-;-;-;-;-;-;-;-;-;-;-;-;-;-
1512470277384;-;-;7.3734283;0.24679565;5.7012787;-;-;-;-;-;-;-;-;-;-;-;-;-;-;-
1512470277404;-;-;7.3494873;0.22525024;5.7359924;-;-;-;-;-;-;-;-;-;-;-;-;-;-;-
1512470277425;-;-;7.3459015;0.25517273;5.7288055;-;-;-;-;-;-;-;-;-;-;-;-;-;-;-
1512470277446;-;-;7.3231506;0.25637817;5.731201;-;-;-;-;-;-;-;-;-;-;-;-;-;-;-
1512470277466;-;-;7.3028107;0.29588318;5.733597;-;-;-;-;-;-;-;-;-;-;-;-;-;-;-
1512470277486;-;-;7.308792;0.26715088;5.757538;-;-;-;-;-;-;-;-;-;-;-;-;-;-;-
1512470277507;-;-;7.3542786;0.28271484;5.733597;-;-;-;-;-;-;-;-;-;-;-;-;-;-;-
1512470277527;-;-;7.380615;0.22164917;5.7036743;-;-;-;-;-;-;-;-;-;-;-;-;-;-;-
1512470277548;-;-;7.372238;0.18334961;5.6964874;-;-;-;-;-;-;-;-;-;-;-;-;-;-;-
1512470277569;-;-;7.4093475;0.2132721;5.6964874;-;-;-;-;-;-;-;-;-;-;-;-;-;-;-
1512470277589;-;-;7.391388;0.22285461;5.671356;-;-;-;-;-;-;-;-;-;-;-;-;-;-;-
1512470277610;-;-;7.344696;0.23841858;5.634247;-;-;-;-;-;-;-;-;-;-;-;-;-;-;-
1512470277630;-;-;7.356674;0.24679565;5.70607;-;-;-;-;-;-;-;-;-;-;-;-;-;-;-
1512470277651;-;-;7.3375244;0.25756836;5.6964874;-;-;-;-;-;-;-;-;-;-;-;-;-;-;-
1512470277671;-;-;7.3818207;0.2707367;5.746765;-;-;-;-;-;-;-;-;-;-;-;-;-;-;-
1512470277692;-;-;7.3614655;0.259964;5.7324066;-;-;-;-;-;-;-;-;-;-;-;-;-;-;-
1512470277712;-;-;7.356674;0.26834106;5.7371826;-;-;-;-;-;-;-;-;-;-;-;-;-;-;-
1512470277733;-;-;7.327942;0.24798584;5.715637;-;-;-;-;-;-;-;-;-;-;-;-;-;-;-
1512470277753;-;-;7.317169;0.24559021;5.731201;-;-;-;-;-;-;-;-;-;-;-;-;-;-;-
1512470277773;-;-;7.3147736;0.22285461;5.730011;-;-;-;-;-;-;-;-;-;-;-;-;-;-;-
1512470277794;-;-;7.308792;0.27552795;5.7324066;-;-;-;-;-;-;-;-;-;-;-;-;-;-;-
1512470277814;-;-;7.34111;0.27552795;5.731201;-;-;-;-;-;-;-;-;-;-;-;-;-;-;-
1512470277835;-;-;7.398575;0.27552795;5.674942;-;-;-;-;-;-;-;-;-;-;-;-;-;-;-
1512470277854;-;-;7.4165344;0.2803192;5.691696;-;-;-;-;-;-;-;-;-;-;-;-;-;-;-
1512470277874;-;-;7.3901978;0.29348755;5.655792;-;-;-;-;-;-;-;-;-;-;-;-;-;-;-
1512470277895;-;-;7.3542786;0.30545044;5.690506;-;-;-;-;-;-;-;-;-;-;-;-;-;-;-
1512470277914;-;-;7.324356;0.27911377;5.7407837;-;-;-;-;-;-;-;-;-;-;-;-;-;-;-
1512470277934;-;-;7.3542786;0.32939148;5.7407837;-;-;-;-;-;-;-;-;-;-;-;-;-;-;-
1512470277955;-;-;7.374634;0.259964;5.741974;-;-;-;-;-;-;-;-;-;-;-;-;-;-;-
1512470277975;-;-;7.2896423;0.26235962;5.6725464;-;-;-;-;-;-;-;-;-;-;-;-;-;-;-
1512470277996;-;-;7.2704773;0.22164917;5.709656;-;-;-;-;-;-;-;-;-;-;-;-;-;-;-
1512470278017;-;-;7.3075867;0.15342712;5.7443695;-;-;-;-;-;-;-;-;-;-;-;-;-;-;-
1512470278037;-;-;7.3650513;0.16897583;5.698883;-;-;-;-;-;-;-;-;-;-;-;-;-;-;-
1512470278058;-;-;7.4201202;0.21208191;5.7192383;-;-;-;-;-;-;-;-;-;-;-;-;-;-;-
1512470278078;-;-;7.4129333;0.27911377;5.7192383;-;-;-;-;-;-;-;-;-;-;-;-;-;-;-
1512470278099;-;-;7.33992;0.30426025;5.662964;-;-;-;-;-;-;-;-;-;-;-;-;-;-;-
1512470278120;-;-;7.2992096;0.33537292;5.636627;-;-;-;-;-;-;-;-;-;-;-;-;-;-;-
1512470278140;-;-;7.3052063;0.31861877;5.690506;-;-;-;-;-;-;-;-;-;-;-;-;-;-;-
1512470278160;-;-;7.387802;0.2743225;5.702469;-;-;-;-;-;-;-;-;-;-;-;-;-;-;-
1512470278181;-;-;7.3614655;0.2707367;5.718033;-;-;-;-;-;-;-;-;-;-;-;-;-;-;-
1512470278200;-;-;7.343506;0.25875854;5.70726;-;-;-;-;-;-;-;-;-;-;-;-;-;-;-
1512470278221;-;-;7.394989;0.22764587;5.6773376;-;-;-;-;-;-;-;-;-;-;-;-;-;-;-
1512470278241;-;-;7.3889923;0.25038147;5.666565;-;-;-;-;-;-;-;-;-;-;-;-;-;-;-
1512470278262;-;-;7.3650513;0.24679565;5.7012787;-;-;-;-;-;-;-;-;-;-;-;-;-;-;-
1512470278284;-;-;7.34111;0.26475525;5.710861;-;-;-;-;-;-;-;-;-;-;-;-;-;-;-
1512470278303;-;-;7.295624;0.2707367;5.7288055;-;-;-;-;-;-;-;-;-;-;-;-;-;-;-
1512470278323;-;-;7.3099823;0.29826355;5.721634;-;-;-;-;-;-;-;-;-;-;-;-;-;-;-
1512470278344;-;-;7.2836456;0.2815094;5.738388;-;-;-;-;-;-;-;-;-;-;-;-;-;-;-
1512470278365;-;-;7.355484;0.26235962;5.6617737;-;-;-;-;-;-;-;-;-;-;-;-;-;-;-
1512470278385;-;-;7.348297;0.24081421;5.7084656;-;-;-;-;-;-;-;-;-;-;-;-;-;-;-
1512470278406;-;-;7.411743;0.22045898;5.6929016;-;-;-;-;-;-;-;-;-;-;-;-;-;-;-
1512470278426;-;-;7.3818207;0.24320984;5.7276154;-;-;-;-;-;-;-;-;-;-;-;-;-;-;-
1512470278446;-;-;7.372238;0.26834106;5.7084656;-;-;-;-;-;-;-;-;-;-;-;-;-;-;-
1512470278466;-;-;7.3339233;0.25038147;5.6964874;-;-;-;-;-;-;-;-;-;-;-;-;-;-;-
1512470278487;-;-;7.3578644;0.22525024;5.7192383;-;-;-;-;-;-;-;-;-;-;-;-;-;-;-
1512470278508;-;-;7.348297;0.23242188;5.7084656;-;-;-;-;-;-;-;-;-;-;-;-;-;-;-
1512470278529;-;-;7.3375244;0.22764587;5.7563477;-;-;-;-;-;-;-;-;-;-;-;-;-;-;-
1512470278549;-;-;7.300415;0.28630066;5.7276154;-;-;-;-;-;-;-;-;-;-;-;-;-;-;-
1512470278569;-;-;7.335129;0.27313232;5.7132416;-;-;-;-;-;-;-;-;-;-;-;-;-;-;-
1512470278590;-;-;7.367447;0.28390503;5.6964874;-;-;-;-;-;-;-;-;-;-;-;-;-;-;-
1512470278611;-;-;7.36026;0.26834106;5.6617737;-;-;-;-;-;-;-;-;-;-;-;-;-;-;-
1512470278631;-;-;7.35907;0.27911377;5.7132416;-;-;-;-;-;-;-;-;-;-;-;-;-;-;-
1512470278651;-;-;7.36026;0.23602295;5.70726;-;-;-;-;-;-;-;-;-;-;-;-;-;-;-
1512470278672;-;-;7.3650513;0.26594543;5.6725464;-;-;-;-;-;-;-;-;-;-;-;-;-;-;-
1512470278692;-;-;7.327942;0.2515869;5.6857147;-;-;-;-;-;-;-;-;-;-;-;-;-;-;-
1512470278713;-;-;7.3339233;0.25756836;5.7395782;-;-;-;-;-;-;-;-;-;-;-;-;-;-;-
1512470278733;-;-;7.387802;0.3030548;5.7479706;-;-;-;-;-;-;-;-;-;-;-;-;-;-;-
1512470278754;-;-;7.415329;0.2803192;5.7000732;-;-;-;-;-;-;-;-;-;-;-;-;-;-;-
1512470278774;-;-;7.4105377;0.23960876;5.6462097;-;-;-;-;-;-;-;-;-;-;-;-;-;-;-
1512470278795;-;-;7.355484;0.27792358;5.6773376;-;-;-;-;-;-;-;-;-;-;-;-;-;-;-
1512470278815;-;-;7.3147736;0.20489502;5.7743073;-;-;-;-;-;-;-;-;-;-;-;-;-;-;-
1512470278836;-;-;7.300415;0.2348175;5.755142;-;-;-;-;-;-;-;-;-;-;-;-;-;-;-
1512470278856;-;-;7.3099823;0.2527771;5.7276154;-;-;-;-;-;-;-;-;-;-;-;-;-;-;-
1512470278877;-;-;7.3063965;0.30065918;5.7599335;-;-;-;-;-;-;-;-;-;-;-;-;-;-;-
1512470278898;-;-;7.344696;0.33059692;5.7204285;-;-;-;-;-;-;-;-;-;-;-;-;-;-;-
1512470278918;-;-;7.3818207;0.30903625;5.674942;-;-;-;-;-;-;-;-;-;-;-;-;-;-;-
1512470278939;-;-;7.3889923;0.32460022;5.6881104;-;-;-;-;-;-;-;-;-;-;-;-;-;-;-
1512470278959;-;-;7.396179;0.29707336;5.714447;-;-;-;-;-;-;-;-;-;-;-;-;-;-;-
1512470278980;-;-;7.335129;0.27313232;5.755142;-;-;-;-;-;-;-;-;-;-;-;-;-;-;-
1512470279000;-;-;7.3770294;0.22164917;5.7204285;-;-;-;-;-;-;-;-;-;-;-;-;-;-;-
1512470279020;-;-;7.36026;0.23242188;5.697693;-;-;-;-;-;-;-;-;-;-;-;-;-;-;-
1512470279042;-;-;7.3387146;0.19651794;5.7000732;-;-;-;-;-;-;-;-;-;-;-;-;-;-;-
1512470279061;-;-;7.308792;0.18214417;5.7443695;-;-;-;-;-;-;-;-;-;-;-;-;-;-;-
1512470279082;-;-;7.3459015;0.23960876;5.7288055;-;-;-;-;-;-;-;-;-;-;-;-;-;-;-
1512470279102;-;-;7.3315277;0.2803192;5.753952;-;-;-;-;-;-;-;-;-;-;-;-;-;-;-
1512470279123;-;-;7.3494873;0.28988647;5.714447;-;-;-;-;-;-;-;-;-;-;-;-;-;-;-
1512470279142;-;-;7.3291473;0.28749084;5.683319;-;-;-;-;-;-;-;-;-;-;-;-;-;-;-
1512470279163;-;-;7.35907;0.28271484;5.70607;-;-;-;-;-;-;-;-;-;-;-;-;-;-;-
1512470279183;-;-;7.355484;0.25756836;5.6964874;-;-;-;-;-;-;-;-;-;-;-;-;-;-;-
1512470279203;-;-;7.356674;0.26235962;5.686905;-;-;-;-;-;-;-;-;-;-;-;-;-;-;-
1512470279223;-;-;7.3494873;0.28749084;5.6929016;-;-;-;-;-;-;-;-;-;-;-;-;-;-;-
1512470279244;-;-;7.344696;0.2803192;5.730011;-;-;-;-;-;-;-;-;-;-;-;-;-;-;-
1512470279264;-;-;7.3183746;0.27192688;5.7204285;-;-;-;-;-;-;-;-;-;-;-;-;-;-;-
1512470279285;-;-;7.363861;0.25875854;5.715637;-;-;-;-;-;-;-;-;-;-;-;-;-;-;-
1512470279305;-;-;7.355484;0.28271484;5.722824;-;-;-;-;-;-;-;-;-;-;-;-;-;-;-
1512470279326;-;-;7.3578644;0.25875854;5.745575;-;-;-;-;-;-;-;-;-;-;-;-;-;-;-
1512470279347;-;-;7.332733;0.26834106;5.769516;-;-;-;-;-;-;-;-;-;-;-;-;-;-;-
1512470279367;-;-;7.308792;0.26475525;5.761139;-;-;-;-;-;-;-;-;-;-;-;-;-;-;-
1512470279388;-;-;7.3219604;0.27192688;5.745575;-;-;-;-;-;-;-;-;-;-;-;-;-;-;-
1512470279411;-;-;7.3231506;0.28749084;5.70726;-;-;-;-;-;-;-;-;-;-;-;-;-;-;-
1512470279429;-;-;7.3650513;0.2803192;5.7000732;-;-;-;-;-;-;-;-;-;-;-;-;-;-;-
1512470279450;-;-;7.3494873;0.27911377;5.746765;-;-;-;-;-;-;-;-;-;-;-;-;-;-;-
1512470279470;-;-;7.351883;0.2348175;5.6952972;-;-;-;-;-;-;-;-;-;-;-;-;-;-;-
1512470279490;-;-;7.3626556;0.25398254;5.7012787;-;-;-;-;-;-;-;-;-;-;-;-;-;-;-
1512470279511;-;-;7.320755;0.23960876;5.70726;-;-;-;-;-;-;-;-;-;-;-;-;-;-;-
1512470279531;-;-;7.3387146;0.27313232;5.7084656;-;-;-;-;-;-;-;-;-;-;-;-;-;-;-
1512470279552;-;-;7.3542786;0.31503296;5.757538;-;-;-;-;-;-;-;-;-;-;-;-;-;-;-
1512470279572;-;-;7.379425;0.25637817;5.7240295;-;-;-;-;-;-;-;-;-;-;-;-;-;-;-
1512470279593;-;-;7.3303375;0.26834106;5.686905;-;-;-;-;-;-;-;-;-;-;-;-;-;-;-
1512470279613;-;-;7.2872467;0.25756836;5.7359924;-;-;-;-;-;-;-;-;-;-;-;-;-;-;-
1512470279632;-;-;7.315979;0.22285461;5.789856;-;-;-;-;-;-;-;-;-;-;-;-;-;-;-
1512470279653;-;-;7.3183746;0.23721313;5.781479;-;-;-;-;-;-;-;-;-;-;-;-;-;-;-
1512470279673;-;-;7.292038;0.26115417;5.715637;-;-;-;-;-;-;-;-;-;-;-;-;-;-;-
1512470279694;-;-;7.324356;0.27911377;5.70607;-;-;-;-;-;-;-;-;-;-;-;-;-;-;-
1512470279715;-;-;7.320755;0.3210144;5.749161;-;-;-;-;-;-;-;-;-;-;-;-;-;-;-
1512470279735;-;-;7.332733;0.3222046;5.7240295;-;-;-;-;-;-;-;-;-;-;-;-;-;-;-
1512470279755;-;-;7.3470917;0.2850952;5.7168427;-;-;-;-;-;-;-;-;-;-;-;-;-;-;-
1512470279776;-;-;7.348297;0.28390503;5.7036743;-;-;-;-;-;-;-;-;-;-;-;-;-;-;-
1512470279795;-;-;7.351883;0.2132721;5.762329;-;-;-;-;-;-;-;-;-;-;-;-;-;-;-
1512470279816;-;-;7.3219604;0.24679565;5.72641;-;-;-;-;-;-;-;-;-;-;-;-;-;-;-
1512470279837;-;-;7.3459015;0.26235962;5.7288055;-;-;-;-;-;-;-;-;-;-;-;-;-;-;-
1512470279857;-;-;7.3530884;0.28271484;5.6881104;-;-;-;-;-;-;-;-;-;-;-;-;-;-;-
1512470279878;-;-;7.320755;0.3102417;5.762329;-;-;-;-;-;-;-;-;-;-;-;-;-;-;-
1512470279897;-;-;7.3303375;0.2420044;5.746765;-;-;-;-;-;-;-;-;-;-;-;-;-;-;-
1512470279918;-;-;7.3183746;0.22285461;5.7371826;-;-;-;-;-;-;-;-;-;-;-;-;-;-;-
1512470279938;-;-;7.2992096;0.21208191;5.730011;-;-;-;-;-;-;-;-;-;-;-;-;-;-;-
1512470279959;-;-;7.327942;0.25637817;5.7084656;-;-;-;-;-;-;-;-;-;-;-;-;-;-;-
1512470279978;-;-;7.3315277;0.2707367;5.7192383;-;-;-;-;-;-;-;-;-;-;-;-;-;-;-
1512470279999;-;-;7.351883;0.2850952;5.7132416;-;-;-;-;-;-;-;-;-;-;-;-;-;-;-
1512470280019;-;-;7.351883;0.3174286;5.730011;-;-;-;-;-;-;-;-;-;-;-;-;-;-;-
1512470280039;-;-;7.343506;0.32341003;5.7395782;-;-;-;-;-;-;-;-;-;-;-;-;-;-;-
1512470280060;-;-;7.3231506;0.33059692;5.718033;-;-;-;-;-;-;-;-;-;-;-;-;-;-;-
1512470280080;-;-;7.3219604;0.31622314;5.741974;-;-;-;-;-;-;-;-;-;-;-;-;-;-;-
1512470280100;-;-;7.312378;0.2922821;5.7587433;-;-;-;-;-;-;-;-;-;-;-;-;-;-;-
1512470280119;-;-;7.3219604;0.25517273;5.7587433;-;-;-;-;-;-;-;-;-;-;-;-;-;-;-
1512470280139;-;-;7.324356;0.27671814;5.7371826;-;-;-;-;-;-;-;-;-;-;-;-;-;-;-
1512470280159;-;-;7.3423157;0.24440002;5.7204285;-;-;-;-;-;-;-;-;-;-;-;-;-;-;-
1512470280180;-;-;7.336319;0.2240448;5.746765;-;-;-;-;-;-;-;-;-;-;-;-;-;-;-
1512470280199;-;-;7.3255463;0.22525024;5.7371826;-;-;-;-;-;-;-;-;-;-;-;-;-;-;-
1512470280219;-;-;7.3291473;0.25875854;5.731201;-;-;-;-;-;-;-;-;-;-;-;-;-;-;-
1512470280240;-;-;7.336319;0.3138275;5.702469;-;-;-;-;-;-;-;-;-;-;-;-;-;-;-
1512470280259;-;-;7.336319;0.27911377;5.7036743;-;-;-;-;-;-;-;-;-;-;-;-;-;-;-
1512470280280;-;-;7.3339233;0.27313232;5.710861;-;-;-;-;-;-;-;-;-;-;-;-;-;-;-
1512470280299;-;-;7.336319;0.29826355;5.6845245;-;-;-;-;-;-;-;-;-;-;-;-;-;-;-
1512470280319;-;-;7.3650513;0.2803192;5.691696;-;-;-;-;-;-;-;-;-;-;-;-;-;-;-
1512470280340;-;-;7.3231506;0.2922821;5.733597;-;-;-;-;-;-;-;-;-;-;-;-;-;-;-
1512470280359;-;-;7.3470917;0.26115417;5.762329;-;-;-;-;-;-;-;-;-;-;-;-;-;-;-
1512470280380;-;-;7.372238;0.28749084;5.7647247;-;-;-;-;-;-;-;-;-;-;-;-;-;-;-
1512470280400;-;-;7.3662567;0.23602295;5.636627;-;-;-;-;-;-;-;-;-;-;-;-;-;-;-
1512470280420;-;-;7.3315277;0.21447754;5.676132;-;-;-;-;-;-;-;-;-;-;-;-;-;-;-
1512470280441;-;-;7.34111;0.2515869;5.698883;-;-;-;-;-;-;-;-;-;-;-;-;-;-;-
1512470280462;-;-;7.3530884;0.26475525;5.7348022;-;-;-;-;-;-;-;-;-;-;-;-;-;-;-
1512470280482;-;-;7.3255463;0.25038147;5.698883;-;-;-;-;-;-;-;-;-;-;-;-;-;-;-
1512470280502;-;-;7.3255463;0.35214233;5.686905;-;-;-;-;-;-;-;-;-;-;-;-;-;-;-
1512470280523;-;-;7.3303375;0.31982422;5.718033;-;-;-;-;-;-;-;-;-;-;-;-;-;-;-
1512470280543;-;-;7.3375244;0.3030548;5.718033;-;-;-;-;-;-;-;-;-;-;-;-;-;-;-
1512470280563;-;-;7.348297;0.30065918;5.6450195;-;-;-;-;-;-;-;-;-;-;-;-;-;-;-
1512470280584;-;-;7.3626556;0.28988647;5.7204285;-;-;-;-;-;-;-;-;-;-;-;-;-;-;-
1512470280604;-;-;7.383011;0.29707336;5.6881104;-;-;-;-;-;-;-;-;-;-;-;-;-;-;-
1512470280625;-;-;7.4045563;0.24440002;5.694092;-;-;-;-;-;-;-;-;-;-;-;-;-;-;-
1512470280646;-;-;7.3650513;0.2695465;5.6845245;-;-;-;-;-;-;-;-;-;-;-;-;-;-;-
1512470280666;-;-;7.355484;0.25875854;5.666565;-;-;-;-;-;-;-;-;-;-;-;-;-;-;-
1512470280686;-;-;7.3494873;0.2420044;5.697693;-;-;-;-;-;-;-;-;-;-;-;-;-;-;-
1512470280707;-;-;7.35907;0.23242188;5.682129;-;-;-;-;-;-;-;-;-;-;-;-;-;-;-
1512470280728;-;-;7.363861;0.27313232;5.697693;-;-;-;-;-;-;-;-;-;-;-;-;-;-;-
1512470280747;-;-;7.3770294;0.26115417;5.6929016;-;-;-;-;-;-;-;-;-;-;-;-;-;-;-
1512470280768;-;-;7.3662567;0.27792358;5.6737366;-;-;-;-;-;-;-;-;-;-;-;-;-;-;-
1512470280788;-;-;7.356674;0.2635498;5.686905;-;-;-;-;-;-;-;-;-;-;-;-;-;-;-
1512470280809;-;-;7.396179;0.26115417;5.6845245;-;-;-;-;-;-;-;-;-;-;-;-;-;-;-
1512470280829;-;-;7.384201;0.2300415;5.652191;-;-;-;-;-;-;-;-;-;-;-;-;-;-;-
1512470280850;-;-;7.406952;0.25038147;5.6653595;-;-;-;-;-;-;-;-;-;-;-;-;-;-;-
1512470280870;-;-;7.3818207;0.2515869;5.660568;-;-;-;-;-;-;-;-;-;-;-;-;-;-;-
1512470280891;-;-;7.391388;0.30545044;5.6569824;-;-;-;-;-;-;-;-;-;-;-;-;-;-;-
1512470280911;-;-;7.379425;0.3102417;5.6773376;-;-;-;-;-;-;-;-;-;-;-;-;-;-;-
1512470280931;-;-;7.379425;0.299469;5.691696;-;-;-;-;-;-;-;-;-;-;-;-;-;-;-
1512470280952;-;-;7.363861;0.30186462;5.6929016;-;-;-;-;-;-;-;-;-;-;-;-;-;-;-
1512470280971;-;-;7.3291473;0.29467773;5.7120514;-;-;-;-;-;-;-;-;-;-;-;-;-;-;-
1512470280991;-;-;7.33992;0.26235962;5.7000732;-;-;-;-;-;-;-;-;-;-;-;-;-;-;-
1512470281012;-;-;7.3470917;0.29826355;5.7084656;-;-;-;-;-;-;-;-;-;-;-;-;-;-;-
1512470281032;-;-;7.335129;0.27552795;5.697693;-;-;-;-;-;-;-;-;-;-;-;-;-;-;-
1512470281053;-;-;7.34111;0.26115417;5.660568;-;-;-;-;-;-;-;-;-;-;-;-;-;-;-
1512470281073;-;-;7.3423157;0.26594543;5.691696;-;-;-;-;-;-;-;-;-;-;-;-;-;-;-
1512470281094;-;-;7.3614655;0.31861877;5.682129;-;-;-;-;-;-;-;-;-;-;-;-;-;-;-
1512470281114;-;-;7.3865967;0.31982422;5.702469;-;-;-;-;-;-;-;-;-;-;-;-;-;-;-
1512470281134;-;-;7.4368744;0.27313232;5.683319;-;-;-;-;-;-;-;-;-;-;-;-;-;-;-
1512470281155;-;-;7.4249115;0.22045898;5.659378;-;-;-;-;-;-;-;-;-;-;-;-;-;-;-
1512470281175;-;-;7.379425;0.22525024;5.658188;-;-;-;-;-;-;-;-;-;-;-;-;-;-;-
1512470281197;-;-;7.351883;0.20848083;5.70726;-;-;-;-;-;-;-;-;-;-;-;-;-;-;-
1512470281216;-;-;7.379425;0.23602295;5.7599335;-;-;-;-;-;-;-;-;-;-;-;-;-;-;-
1512470281237;-;-;7.3147736;0.23242188;5.662964;-;-;-;-;-;-;-;-;-;-;-;-;-;-;-
1512470281257;-;-;7.2908325;0.29109192;5.733597;-;-;-;-;-;-;-;-;-;-;-;-;-;-;-
1512470281278;-;-;7.2944183;0.3222046;5.749161;-;-;-;-;-;-;-;-;-;-;-;-;-;-;-
1512470281298;-;-;7.3099823;0.35214233;5.7587433;-;-;-;-;-;-;-;-;-;-;-;-;-;-;-
1512470281319;-;-;7.301605;0.35333252;5.731201;-;-;-;-;-;-;-;-;-;-;-;-;-;-;-
1512470281339;-;-;7.2872467;0.3605194;5.7324066;-;-;-;-;-;-;-;-;-;-;-;-;-;-;-
1512470281359;-;-;7.3183746;0.30784607;5.7407837;-;-;-;-;-;-;-;-;-;-;-;-;-;-;-
1512470281380;-;-;7.312378;0.28988647;5.714447;-;-;-;-;-;-;-;-;-;-;-;-;-;-;-
1512470281400;-;-;7.3494873;0.24559021;5.694092;-;-;-;-;-;-;-;-;-;-;-;-;-;-;-
1512470281421;-;-;7.3710327;0.1905365;5.6857147;-;-;-;-;-;-;-;-;-;-;-;-;-;-;-
1512470281442;-;-;7.33992;0.1797638;5.6689606;-;-;-;-;-;-;-;-;-;-;-;-;-;-;-
1512470281462;-;-;7.3219604;0.098358154;5.6809235;-;-;-;-;-;-;-;-;-;-;-;-;-;-;-
1512470281482;-;-;7.3267517;0.07081604;5.6091003;-;-;-;-;-;-;-;-;-;-;-;-;-;-;-
1512470281503;-;-;7.343506;0.21566772;5.6378326;-;-;-;-;-;-;-;-;-;-;-;-;-;-;-
1512470281522;-;-;7.3734283;0.28390503;5.659378;-;-;-;-;-;-;-;-;-;-;-;-;-;-;-
1512470281543;-;-;7.4284973;0.2515869;5.556427;-;-;-;-;-;-;-;-;-;-;-;-;-;-;-
1512470281564;-;-;7.4416656;0.26235962;5.494171;-;-;-;-;-;-;-;-;-;-;-;-;-;-;-
1512470281584;-;-;7.5230713;0.3461609;5.460663;-;-;-;-;-;-;-;-;-;-;-;-;-;-;-
1512470281605;-;-;7.550598;0.4359436;5.458267;-;-;-;-;-;-;-;-;-;-;-;-;-;-;-
1512470281625;-;-;7.5314484;0.4287567;5.5193176;-;-;-;-;-;-;-;-;-;-;-;-;-;-;-
1512470281646;-;-;7.4368744;0.39164734;5.597122;-;-;-;-;-;-;-;-;-;-;-;-;-;-;-
1512470281668;-;-;7.320755;0.2886963;5.6378326;-;-;-;-;-;-;-;-;-;-;-;-;-;-;-
1512470281688;-;-;7.3231506;0.22164917;5.6330414;-;-;-;-;-;-;-;-;-;-;-;-;-;-;-
1512470281708;-;-;7.442871;0.26235962;5.595932;-;-;-;-;-;-;-;-;-;-;-;-;-;-;-
1512470281730;-;-;7.604477;0.31143188;5.5695953;-;-;-;-;-;-;-;-;-;-;-;-;-;-;-
1512470281749;-;-;7.693054;0.40481567;5.568405;-;-;-;-;-;-;-;-;-;-;-;-;-;-;-
1512470281770;-;-;7.6176453;0.47543335;5.5504456;-;-;-;-;-;-;-;-;-;-;-;-;-;-;-
1512470281790;-;-;7.4967346;0.4909973;5.642624;-;-;-;-;-;-;-;-;-;-;-;-;-;-;-
1512470281810;-;-;7.4680023;0.46826172;5.639023;-;-;-;-;-;-;-;-;-;-;-;-;-;-;-
1512470281831;-;-;7.4716034;0.36291504;5.5540314;-;-;-;-;-;-;-;-;-;-;-;-;-;-;-
1512470281852;-;-;7.453644;0.32699585;5.5827637;-;-;-;-;-;-;-;-;-;-;-;-;-;-;-
1512470281871;-;-;7.4452667;0.35932922;5.603119;-;-;-;-;-;-;-;-;-;-;-;-;-;-;-
1512470281893;-;-;7.4105377;0.43354797;5.6474;-;-;-;-;-;-;-;-;-;-;-;-;-;-;-
1512470281913;-;-;7.4057617;0.44311523;5.594742;-;-;-;-;-;-;-;-;-;-;-;-;-;-;-
1512470281934;-;-;7.396179;0.4084015;5.539673;-;-;-;-;-;-;-;-;-;-;-;-;-;-;-
1512470281953;-;-;7.41893;0.32580566;5.5229034;-;-;-;-;-;-;-;-;-;-;-;-;-;-;-
1512470281974;-;-;7.4440613;0.21687317;5.579178;-;-;-;-;-;-;-;-;-;-;-;-;-;-;-
1512470281994;-;-;7.4847565;0.13905334;5.5707855;-;-;-;-;-;-;-;-;-;-;-;-;-;-;-
1512470282015;-;-;7.475189;0.115112305;5.489395;-;-;-;-;-;-;-;-;-;-;-;-;-;-;-
1512470282035;-;-;7.5075073;0.098358154;5.481018;-;-;-;-;-;-;-;-;-;-;-;-;-;-;-
1512470282055;-;-;7.470398;0.12709045;5.5456543;-;-;-;-;-;-;-;-;-;-;-;-;-;-;-
1512470282076;-;-;7.485962;0.062438965;5.642624;-;-;-;-;-;-;-;-;-;-;-;-;-;-;-
1512470282096;-;-;7.446457;-0.012969971;5.6641693;-;-;-;-;-;-;-;-;-;-;-;-;-;-;-
1512470282117;-;-;7.4955444;0.05645752;5.678528;-;-;-;-;-;-;-;-;-;-;-;-;-;-;-
1512470282137;-;-;7.4656067;0.13786316;5.6689606;-;-;-;-;-;-;-;-;-;-;-;-;-;-;-
1512470282157;-;-;7.383011;0.33776855;5.6569824;-;-;-;-;-;-;-;-;-;-;-;-;-;-;-
1512470282178;-;-;7.3375244;0.49699402;5.587555;-;-;-;-;-;-;-;-;-;-;-;-;-;-;-
1512470282199;-;-;7.317169;0.56521606;5.5073395;-;-;-;-;-;-;-;-;-;-;-;-;-;-;-
1512470282219;-;-;7.296814;0.39283752;5.485794;-;-;-;-;-;-;-;-;-;-;-;-;-;-;-
1512470282240;-;-;7.398575;0.14503479;5.4905853;-;-;-;-;-;-;-;-;-;-;-;-;-;-;-
1512470282259;-;-;7.501526;-0.0021972656;5.485794;-;-;-;-;-;-;-;-;-;-;-;-;-;-;-
1512470282280;-;-;7.6547546;-0.0440979;5.5660095;-;-;-;-;-;-;-;-;-;-;-;-;-;-;-
1512470282299;-;-;7.6104584;0.064834595;5.634247;-;-;-;-;-;-;-;-;-;-;-;-;-;-;-
1512470282320;-;-;7.508713;0.13067627;5.6569824;-;-;-;-;-;-;-;-;-;-;-;-;-;-;-
1512470282340;-;-;7.406952;0.1845398;5.651001;-;-;-;-;-;-;-;-;-;-;-;-;-;-;-
1512470282360;-;-;7.277664;0.18574524;5.7132416;-;-;-;-;-;-;-;-;-;-;-;-;-;-;-
1512470282381;-;-;7.28125;0.11392212;5.698883;-;-;-;-;-;-;-;-;-;-;-;-;-;-;-
1512470282401;-;-;7.3339233;0.07081604;5.674942;-;-;-;-;-;-;-;-;-;-;-;-;-;-;-
1512470282422;-;-;7.391388;0.055252075;5.660568;-;-;-;-;-;-;-;-;-;-;-;-;-;-;-
1512470282442;-;-;7.435684;0.107925415;5.634247;-;-;-;-;-;-;-;-;-;-;-;-;-;-;-
1512470282463;-;-;7.4656067;0.14743042;5.6474;-;-;-;-;-;-;-;-;-;-;-;-;-;-;-
1512470282483;-;-;7.490753;0.13905334;5.6306458;-;-;-;-;-;-;-;-;-;-;-;-;-;-;-
1512470282503;-;-;7.5051117;0.115112305;5.651001;-;-;-;-;-;-;-;-;-;-;-;-;-;-;-
1512470282524;-;-;7.458435;0.21447754;5.555237;-;-;-;-;-;-;-;-;-;-;-;-;-;-;-
1512470282546;-;-;7.355484;0.29588318;5.5432587;-;-;-;-;-;-;-;-;-;-;-;-;-;-;-
1512470282566;-;-;7.2992096;0.35453796;5.619873;-;-;-;-;-;-;-;-;-;-;-;-;-;-;-
1512470282587;-;-;7.335129;0.3497467;5.643814;-;-;-;-;-;-;-;-;-;-;-;-;-;-;-
1512470282607;-;-;7.34111;0.3102417;5.6617737;-;-;-;-;-;-;-;-;-;-;-;-;-;-;-
1512470282627;-;-;7.4045563;0.3174286;5.7084656;-;-;-;-;-;-;-;-;-;-;-;-;-;-;-
1512470282648;-;-;7.451248;0.30545044;5.7204285;-;-;-;-;-;-;-;-;-;-;-;-;-;-;-
1512470282667;-;-;7.469208;0.24798584;5.674942;-;-;-;-;-;-;-;-;-;-;-;-;-;-;-
1512470282688;-;-;7.4213104;0.20010376;5.611496;-;-;-;-;-;-;-;-;-;-;-;-;-;-;-
1512470282708;-;-;7.399765;0.14982605;5.6486053;-;-;-;-;-;-;-;-;-;-;-;-;-;-;-
1512470282729;-;-;7.4009705;0.13067627;5.6462097;-;-;-;-;-;-;-;-;-;-;-;-;-;-;-
1512470282750;-;-;7.408142;0.08279419;5.612686;-;-;-;-;-;-;-;-;-;-;-;-;-;-;-
1512470282771;-;-;7.415329;0.12828064;5.6210785;-;-;-;-;-;-;-;-;-;-;-;-;-;-;-
1512470282791;-;-;7.430893;0.17376709;5.6402283;-;-;-;-;-;-;-;-;-;-;-;-;-;-;-
1512470282812;-;-;7.399765;0.21566772;5.659378;-;-;-;-;-;-;-;-;-;-;-;-;-;-;-
1512470282832;-;-;7.408142;0.22525024;5.7012787;-;-;-;-;-;-;-;-;-;-;-;-;-;-;-
1512470282853;-;-;7.391388;0.23841858;5.6964874;-;-;-;-;-;-;-;-;-;-;-;-;-;-;-
1512470282872;-;-;7.3494873;0.299469;5.6845245;-;-;-;-;-;-;-;-;-;-;-;-;-;-;-
1512470282893;-;-;7.344696;0.33537292;5.667755;-;-;-;-;-;-;-;-;-;-;-;-;-;-;-
1512470282913;-;-;7.394989;0.38804626;5.714447;-;-;-;-;-;-;-;-;-;-;-;-;-;-;-
1512470282934;-;-;7.3889923;0.42755127;5.7000732;-;-;-;-;-;-;-;-;-;-;-;-;-;-;-
1512470282954;-;-;7.2836456;0.40600586;5.6773376;-;-;-;-;-;-;-;-;-;-;-;-;-;-;-
1512470282975;-;-;7.12204;0.4119873;5.698883;-;-;-;-;-;-;-;-;-;-;-;-;-;-;-
1512470282997;-;-;7.1411896;0.38087463;5.810211;-;-;-;-;-;-;-;-;-;-;-;-;-;-;-
1512470283018;-;-;7.2740784;0.30065918;5.8545074;-;-;-;-;-;-;-;-;-;-;-;-;-;-;-
1512470283038;-;-;7.414139;0.27911377;5.80542;-;-;-;-;-;-;-;-;-;-;-;-;-;-;-
1512470283059;-;-;7.4955444;0.25398254;5.631851;-;-;-;-;-;-;-;-;-;-;-;-;-;-;-
1512470283079;-;-;7.4440613;0.3210144;5.525299;-;-;-;-;-;-;-;-;-;-;-;-;-;-;-
1512470283100;-;-;7.332733;0.38206482;5.5863495;-;-;-;-;-;-;-;-;-;-;-;-;-;-;-
1512470283120;-;-;7.3818207;0.36410522;5.70726;-;-;-;-;-;-;-;-;-;-;-;-;-;-;-
1512470283141;-;-;7.4716034;0.2420044;5.5827637;-;-;-;-;-;-;-;-;-;-;-;-;-;-;-
1512470283161;-;-;7.5446167;0.17376709;5.4319305;-;-;-;-;-;-;-;-;-;-;-;-;-;-;-
1512470283182;-;-;7.580536;0.18095398;5.3541107;-;-;-;-;-;-;-;-;-;-;-;-;-;-;-
1512470283202;-;-;7.588913;0.21687317;5.3876343;-;-;-;-;-;-;-;-;-;-;-;-;-;-;-
1512470283223;-;-;7.5518036;0.31982422;5.421158;-;-;-;-;-;-;-;-;-;-;-;-;-;-;-
1512470283242;-;-;7.525467;0.34016418;5.4199524;-;-;-;-;-;-;-;-;-;-;-;-;-;-;-
1512470283263;-;-;7.501526;0.36650085;5.457062;-;-;-;-;-;-;-;-;-;-;-;-;-;-;-
1512470283283;-;-;7.4883575;0.29109192;5.4989624;-;-;-;-;-;-;-;-;-;-;-;-;-;-;-
1512470283303;-;-;7.5242615;0.2815094;5.492981;-;-;-;-;-;-;-;-;-;-;-;-;-;-;-
1512470283324;-;-;7.508713;0.31982422;5.532486;-;-;-;-;-;-;-;-;-;-;-;-;-;-;-
1512470283344;-;-;7.4895477;0.3222046;5.575577;-;-;-;-;-;-;-;-;-;-;-;-;-;-;-
1512470283365;-;-;7.4201202;0.31861877;5.568405;-;-;-;-;-;-;-;-;-;-;-;-;-;-;-
1512470283384;-;-;7.3901978;0.22525024;5.588745;-;-;-;-;-;-;-;-;-;-;-;-;-;-;-
1512470283405;-;-;7.375824;0.21566772;5.564804;-;-;-;-;-;-;-;-;-;-;-;-;-;-;-
1512470283426;-;-;7.411743;0.19293213;5.583954;-;-;-;-;-;-;-;-;-;-;-;-;-;-;-
1512470283446;-;-;7.469208;0.20489502;5.560013;-;-;-;-;-;-;-;-;-;-;-;-;-;-;-
1512470283466;-;-;7.532654;0.26115417;5.5504456;-;-;-;-;-;-;-;-;-;-;-;-;-;-;-
1512470283487;-;-;7.557785;0.26834106;5.532486;-;-;-;-;-;-;-;-;-;-;-;-;-;-;-
1512470283508;-;-;7.5051117;0.30903625;5.524109;-;-;-;-;-;-;-;-;-;-;-;-;-;-;-
1512470283528;-;-;7.4440613;0.33418274;5.5145264;-;-;-;-;-;-;-;-;-;-;-;-;-;-;-
1512470283549;-;-;7.4608154;0.33418274;5.5348816;-;-;-;-;-;-;-;-;-;-;-;-;-;-;-
1512470283569;-;-;7.391388;0.27671814;5.588745;-;-;-;-;-;-;-;-;-;-;-;-;-;-;-
1512470283589;-;-;7.4165344;0.20010376;5.62706;-;-;-;-;-;-;-;-;-;-;-;-;-;-;-
1512470283610;-;-;7.3973694;0.12588501;5.374466;-;-;-;-;-;-;-;-;-;-;-;-;-;-;-
1512470283631;-;-;7.5362396;0.16778564;5.5695953;-;-;-;-;-;-;-;-;-;-;-;-;-;-;-
1512470283651;-;-;7.590103;0.13786316;5.492981;-;-;-;-;-;-;-;-;-;-;-;-;-;-;-
1512470283671;-;-;7.6380005;0.20729065;5.4091797;-;-;-;-;-;-;-;-;-;-;-;-;-;-;-
1512470283692;-;-;7.556595;0.299469;5.4678497;-;-;-;-;-;-;-;-;-;-;-;-;-;-;-
1512470283712;-;-;7.502716;0.33299255;5.4798126;-;-;-;-;-;-;-;-;-;-;-;-;-;-;-
1512470283733;-;-;7.4297028;0.3569336;5.5193176;-;-;-;-;-;-;-;-;-;-;-;-;-;-;-
1512470283753;-;-;7.4261017;0.3461609;5.579178;-;-;-;-;-;-;-;-;-;-;-;-;-;-;-
1512470283774;-;-;7.3901978;0.32939148;5.5983276;-;-;-;-;-;-;-;-;-;-;-;-;-;-;-
1512470283794;-;-;7.3818207;0.37368774;5.597122;-;-;-;-;-;-;-;-;-;-;-;-;-;-;-
1512470283814;-;-;7.394989;0.34495544;5.564804;-;-;-;-;-;-;-;-;-;-;-;-;-;-;-
1512470283835;-;-;7.3698425;0.41079712;5.5851593;-;-;-;-;-;-;-;-;-;-;-;-;-;-;-
1512470283855;-;-;7.384201;0.42037964;5.6055145;-;-;-;-;-;-;-;-;-;-;-;-;-;-;-
1512470283876;-;-;7.4524384;0.43234253;5.5229034;-;-;-;-;-;-;-;-;-;-;-;-;-;-;-
1512470283896;-;-;7.435684;0.36531067;5.4750214;-;-;-;-;-;-;-;-;-;-;-;-;-;-;-
1512470283917;-;-;7.3686523;0.31861877;5.5025635;-;-;-;-;-;-;-;-;-;-;-;-;-;-;-
1512470283937;-;-;7.372238;0.24798584;5.5863495;-;-;-;-;-;-;-;-;-;-;-;-;-;-;-
1512470283957;-;-;7.485962;0.21566772;5.54924;-;-;-;-;-;-;-;-;-;-;-;-;-;-;-
1512470283977;-;-;7.653549;0.19293213;5.3996124;-;-;-;-;-;-;-;-;-;-;-;-;-;-;-
1512470283998;-;-;7.8007965;0.2300415;5.284683;-;-;-;-;-;-;-;-;-;-;-;-;-;-;-
1512470284018;-;-;7.8438873;0.2348175;5.247574;-;-;-;-;-;-;-;-;-;-;-;-;-;-;-
1512470284038;-;-;7.787628;0.18095398;5.2966614;-;-;-;-;-;-;-;-;-;-;-;-;-;-;-
1512470284059;-;-;7.748123;0.20489502;5.331375;-;-;-;-;-;-;-;-;-;-;-;-;-;-;-
1512470284080;-;-;7.632004;0.24320984;5.3936157;-;-;-;-;-;-;-;-;-;-;-;-;-;-;-
1512470284100;-;-;7.51709;0.22883606;5.405594;-;-;-;-;-;-;-;-;-;-;-;-;-;-;-
1512470284120;-;-;7.4045563;0.27192688;5.509735;-;-;-;-;-;-;-;-;-;-;-;-;-;-;-
1512470284141;-;-;7.4021606;0.22883606;5.508545;-;-;-;-;-;-;-;-;-;-;-;-;-;-;-
1512470284160;-;-;7.5051117;0.23242188;5.5181274;-;-;-;-;-;-;-;-;-;-;-;-;-;-;-
1512470284180;-;-;7.5637665;0.19891357;5.441513;-;-;-;-;-;-;-;-;-;-;-;-;-;-;-
1512470284201;-;-;7.621231;0.20848083;5.422348;-;-;-;-;-;-;-;-;-;-;-;-;-;-;-
1512470284221;-;-;7.609268;0.27792358;5.394821;-;-;-;-;-;-;-;-;-;-;-;-;-;-;-
1512470284242;-;-;7.550598;0.30665588;5.379257;-;-;-;-;-;-;-;-;-;-;-;-;-;-;-
1512470284263;-;-;7.5122986;0.338974;5.326584;-;-;-;-;-;-;-;-;-;-;-;-;-;-;-
1512470284283;-;-;7.550598;0.33776855;5.3565063;-;-;-;-;-;-;-;-;-;-;-;-;-;-;-
1512470284303;-;-;7.51828;0.26235962;5.4151764;-;-;-;-;-;-;-;-;-;-;-;-;-;-;-
1512470284324;-;-;7.5589905;0.2815094;5.437912;-;-;-;-;-;-;-;-;-;-;-;-;-;-;-
1512470284345;-;-;7.605667;0.25637817;5.4486847;-;-;-;-;-;-;-;-;-;-;-;-;-;-;-
1512470284366;-;-;7.620041;0.2300415;5.4786224;-;-;-;-;-;-;-;-;-;-;-;-;-;-;-
1512470284386;-;-;7.5553894;0.1905365;5.491791;-;-;-;-;-;-;-;-;-;-;-;-;-;-;-
1512470284406;-;-;7.506317;0.16539001;5.508545;-;-;-;-;-;-;-;-;-;-;-;-;-;-;-
