TimeStamp[ms];Prox[Cm];Lux[lux];AccX[m/s^2];AccY[m/s^2];AccZ[m/s^2];GyroX[rad/s];GyroY[rad/s];GyroZ[rad/s];MagnX[uT];MagnY[uT];MagnZ[uT];OrienYaw[degrees];OrienPitch[degrees];OrienRoll[degrees];Press[Pa];Temp[C°];Batt[%];Lat;Lng;Speed[m/s]
1512470917375;-;-;9.011063;-0.98143005;2.4906464;-;-;-;-;-;-;-;-;-;-;-;-;-;-;-
1512470917375;-;-;9.011063;-0.98143005;2.4906464;-;-;-;-;-;-;-;-;-;-;-;-;-;-;-
1512470917391;-;-;9.020645;-0.66539;2.7396545;-;-;-;-;-;-;-;-;-;-;-;-;-;-;-
1512470917413;-;-;9.020645;-0.6701813;2.2021484;-;-;-;-;-;-;-;-;-;-;-;-;-;-;-
1512470917434;-;-;8.922485;-0.641449;2.2931366;-;-;-;-;-;-;-;-;-;-;-;-;-;-;-
1512470917454;-;-;8.873398;-0.81503296;2.4319916;-;-;-;-;-;-;-;-;-;-;-;-;-;-;-
1512470917474;-;-;9.033813;-0.8760834;2.6893768;-;-;-;-;-;-;-;-;-;-;-;-;-;-;-
1512470917494;-;-;8.8997345;-0.8018646;2.5074158;-;-;-;-;-;-;-;-;-;-;-;-;-;-;-
1512470917515;-;-;8.90213;-0.6725769;2.1925812;-;-;-;-;-;-;-;-;-;-;-;-;-;-;-
1512470917535;-;-;9.104446;-1.0065765;2.4942474;-;-;-;-;-;-;-;-;-;-;-;-;-;-;-
1512470917556;-;-;8.859039;-0.91200256;2.2787628;-;-;-;-;-;-;-;-;-;-;-;-;-;-;-
1512470917576;-;-;8.690247;-0.8186188;2.015396;-;-;-;-;-;-;-;-;-;-;-;-;-;-;-
1512470917599;-;-;8.545395;-0.7156677;2.402069;-;-;-;-;-;-;-;-;-;-;-;-;-;-;-
1512470917633;-;-;8.971558;-0.7120819;2.2225037;-;-;-;-;-;-;-;-;-;-;-;-;-;-;-
1512470917639;-;-;9.012268;-0.77433777;2.2763672;-;-;-;-;-;-;-;-;-;-;-;-;-;-;-
1512470917660;-;-;9.041;-0.6522217;2.125534;-;-;-;-;-;-;-;-;-;-;-;-;-;-;-
1512470917681;-;-;9.499481;-1.6182861;2.721695;-;-;-;-;-;-;-;-;-;-;-;-;-;-;-
1512470917700;-;-;10.599625;-0.9562988;9.026825;-;-;-;-;-;-;-;-;-;-;-;-;-;-;-
1512470917720;-;-;7.600876;0.14263916;-8.654358;-;-;-;-;-;-;-;-;-;-;-;-;-;-;-
1512470917741;-;-;8.887772;0.04927063;2.619934;-;-;-;-;-;-;-;-;-;-;-;-;-;-;-
1512470917761;-;-;9.142746;-0.7851105;1.8873138;-;-;-;-;-;-;-;-;-;-;-;-;-;-;-
1512470917782;-;-;8.952408;-0.8533478;2.8031006;-;-;-;-;-;-;-;-;-;-;-;-;-;-;-
1512470917802;-;-;8.951218;-0.641449;1.7843628;-;-;-;-;-;-;-;-;-;-;-;-;-;-;-
1512470917822;-;-;9.0577545;-0.59477234;1.4515686;-;-;-;-;-;-;-;-;-;-;-;-;-;-;-
1512470917843;-;-;9.039795;-0.77911377;1.4324188;-;-;-;-;-;-;-;-;-;-;-;-;-;-;-
1512470917863;-;-;8.291611;-0.6546173;0.69140625;-;-;-;-;-;-;-;-;-;-;-;-;-;-;-
1512470917884;-;-;8.734543;-0.21289063;2.022583;-;-;-;-;-;-;-;-;-;-;-;-;-;-;-
1512470917904;-;-;9.438431;-0.63067627;3.1442719;-;-;-;-;-;-;-;-;-;-;-;-;-;-;-
1512470917924;-;-;9.200211;-0.66778564;1.8095093;-;-;-;-;-;-;-;-;-;-;-;-;-;-;-
1512470917946;-;-;9.303162;-0.7096863;1.3115082;-;-;-;-;-;-;-;-;-;-;-;-;-;-;-
1512470917965;-;-;8.928467;-0.8353882;2.0357513;-;-;-;-;-;-;-;-;-;-;-;-;-;-;-
1512470917986;-;-;8.973953;-0.64505005;2.5971985;-;-;-;-;-;-;-;-;-;-;-;-;-;-;-
1512470918006;-;-;8.648346;-0.20809937;1.8549957;-;-;-;-;-;-;-;-;-;-;-;-;-;-;-
1512470918027;-;-;8.774048;-0.52293396;1.7340851;-;-;-;-;-;-;-;-;-;-;-;-;-;-;-
1512470918049;-;-;8.790802;-0.8665161;1.1271515;-;-;-;-;-;-;-;-;-;-;-;-;-;-;-
1512470918068;-;-;9.374985;-0.7779236;1.8849182;-;-;-;-;-;-;-;-;-;-;-;-;-;-;-
1512470918089;-;-;9.49469;-0.90122986;1.670639;-;-;-;-;-;-;-;-;-;-;-;-;-;-;-
1512470918109;-;-;9.355835;-0.95150757;1.5449371;-;-;-;-;-;-;-;-;-;-;-;-;-;-;-
1512470918129;-;-;9.294785;-0.7671509;2.101593;-;-;-;-;-;-;-;-;-;-;-;-;-;-;-
1512470918150;-;-;8.807556;-0.5756073;1.8753357;-;-;-;-;-;-;-;-;-;-;-;-;-;-;-
1512470918170;-;-;8.510681;-0.6534271;1.7472534;-;-;-;-;-;-;-;-;-;-;-;-;-;-;-
1512470918190;-;-;8.732147;-0.6641998;2.0094147;-;-;-;-;-;-;-;-;-;-;-;-;-;-;-
1512470918211;-;-;8.884171;-0.32063293;1.5509338;-;-;-;-;-;-;-;-;-;-;-;-;-;-;-
1512470918231;-;-;9.538986;-0.54927063;2.2236938;-;-;-;-;-;-;-;-;-;-;-;-;-;-;-
1512470918253;-;-;9.244507;-0.39604187;1.543747;-;-;-;-;-;-;-;-;-;-;-;-;-;-;-
1512470918272;-;-;8.837494;-0.92037964;1.9770966;-;-;-;-;-;-;-;-;-;-;-;-;-;-;-
1512470918293;-;-;8.322739;-1.0388947;1.6897888;-;-;-;-;-;-;-;-;-;-;-;-;-;-;-
1512470918314;-;-;9.355835;-0.36013794;1.0565186;-;-;-;-;-;-;-;-;-;-;-;-;-;-;-
1512470918334;-;-;8.940445;-0.13986206;2.1039886;-;-;-;-;-;-;-;-;-;-;-;-;-;-;-
1512470918354;-;-;9.383362;-0.86531067;3.3441925;-;-;-;-;-;-;-;-;-;-;-;-;-;-;-
1512470918375;-;-;8.541809;-0.37928772;1.6766205;-;-;-;-;-;-;-;-;-;-;-;-;-;-;-
1512470918395;-;-;8.027054;-0.52293396;0.8147125;-;-;-;-;-;-;-;-;-;-;-;-;-;-;-
1512470918416;-;-;8.519058;-1.0149536;1.6155701;-;-;-;-;-;-;-;-;-;-;-;-;-;-;-
1512470918436;-;-;8.16951;-0.54089355;1.9926605;-;-;-;-;-;-;-;-;-;-;-;-;-;-;-
1512470918455;-;-;10.746857;-0.90960693;2.6378937;-;-;-;-;-;-;-;-;-;-;-;-;-;-;-
1512470918476;-;-;8.790802;-0.8425598;1.1546936;-;-;-;-;-;-;-;-;-;-;-;-;-;-;-
1512470918497;-;-;9.360626;-0.9898071;1.5772705;-;-;-;-;-;-;-;-;-;-;-;-;-;-;-
1512470918517;-;-;8.341888;-0.6510315;1.7197266;-;-;-;-;-;-;-;-;-;-;-;-;-;-;-
1512470918538;-;-;8.952408;-0.6941223;2.0189972;-;-;-;-;-;-;-;-;-;-;-;-;-;-;-
1512470918558;-;-;10.035782;-1.2076874;2.5493164;-;-;-;-;-;-;-;-;-;-;-;-;-;-;-
1512470918578;-;-;9.779602;-0.9562988;1.9160461;-;-;-;-;-;-;-;-;-;-;-;-;-;-;-
1512470918599;-;-;8.204224;-0.70370483;0.007858276;-;-;-;-;-;-;-;-;-;-;-;-;-;-;-
1512470918620;-;-;9.936432;-0.48942566;0.2448883;-;-;-;-;-;-;-;-;-;-;-;-;-;-;-
1512470918640;-;-;9.2708435;-0.8270111;1.8154907;-;-;-;-;-;-;-;-;-;-;-;-;-;-;-
1512470918660;-;-;9.103241;-1.1981049;2.117157;-;-;-;-;-;-;-;-;-;-;-;-;-;-;-
1512470918680;-;-;9.12001;-1.0855713;1.1822205;-;-;-;-;-;-;-;-;-;-;-;-;-;-;-
1512470918701;-;-;10.270416;-0.81503296;1.4767151;-;-;-;-;-;-;-;-;-;-;-;-;-;-;-
1512470918720;-;-;10.2907715;-0.016571045;-0.1669159;-;-;-;-;-;-;-;-;-;-;-;-;-;-;-
1512470918740;-;-;8.68306;0.18814087;0.8410492;-;-;-;-;-;-;-;-;-;-;-;-;-;-;-
1512470918761;-;-;7.3099823;1.2272186;1.6885986;-;-;-;-;-;-;-;-;-;-;-;-;-;-;-
1512470918782;-;-;9.754471;-0.7192688;1.3641815;-;-;-;-;-;-;-;-;-;-;-;-;-;-;-
1512470918801;-;-;7.837906;0.28749084;0.8506317;-;-;-;-;-;-;-;-;-;-;-;-;-;-;-
1512470918821;-;-;8.833893;-0.01776123;-0.42549133;-;-;-;-;-;-;-;-;-;-;-;-;-;-;-
1512470918842;-;-;10.818695;-0.076416016;-0.7295532;-;-;-;-;-;-;-;-;-;-;-;-;-;-;-
1512470918863;-;-;10.710953;-0.40083313;-0.1309967;-;-;-;-;-;-;-;-;-;-;-;-;-;-;-
1512470918883;-;-;10.947983;0.3282013;0.60162354;-;-;-;-;-;-;-;-;-;-;-;-;-;-;-
1512470918904;-;-;7.6188354;0.8992157;0.5597229;-;-;-;-;-;-;-;-;-;-;-;-;-;-;-
1512470918924;-;-;9.264847;0.50297546;0.8554077;-;-;-;-;-;-;-;-;-;-;-;-;-;-;-
1512470918945;-;-;7.7253876;0.7232361;0.1826477;-;-;-;-;-;-;-;-;-;-;-;-;-;-;-
1512470918965;-;-;9.884949;-0.090789795;0.5202179;-;-;-;-;-;-;-;-;-;-;-;-;-;-;-
1512470918985;-;-;9.856216;-0.02973938;1.4060822;-;-;-;-;-;-;-;-;-;-;-;-;-;-;-
1512470919006;-;-;10.441605;-0.117126465;1.330658;-;-;-;-;-;-;-;-;-;-;-;-;-;-;-
1512470919026;-;-;8.7261505;0.055252075;0.9918823;-;-;-;-;-;-;-;-;-;-;-;-;-;-;-
1512470919047;-;-;9.163101;-0.033325195;-1.234726;-;-;-;-;-;-;-;-;-;-;-;-;-;-;-
1512470919067;-;-;6.924515;0.9399109;3.49263;-;-;-;-;-;-;-;-;-;-;-;-;-;-;-
1512470919090;-;-;8.278442;-0.06324768;0.5704956;-;-;-;-;-;-;-;-;-;-;-;-;-;-;-
1512470919108;-;-;6.9077606;-0.14225769;1.6179657;-;-;-;-;-;-;-;-;-;-;-;-;-;-;-
1512470919129;-;-;7.9660034;-0.015365601;3.6566315;-;-;-;-;-;-;-;-;-;-;-;-;-;-;-
1512470919150;-;-;9.857422;-0.36253357;2.6223297;-;-;-;-;-;-;-;-;-;-;-;-;-;-;-
1512470919170;-;-;8.969162;-0.2212677;1.8705597;-;-;-;-;-;-;-;-;-;-;-;-;-;-;-
1512470919191;-;-;9.210983;0.03970337;2.0345612;-;-;-;-;-;-;-;-;-;-;-;-;-;-;-
1512470919211;-;-;9.052963;0.10673523;2.1123657;-;-;-;-;-;-;-;-;-;-;-;-;-;-;-
1512470919232;-;-;8.933258;0.18933105;2.026184;-;-;-;-;-;-;-;-;-;-;-;-;-;-;-
1512470919252;-;-;8.957199;0.23242188;1.8717499;-;-;-;-;-;-;-;-;-;-;-;-;-;-;-
1512470919272;-;-;9.154724;0.2300415;1.859787;-;-;-;-;-;-;-;-;-;-;-;-;-;-;-
1512470919292;-;-;9.206192;0.32460022;1.6119843;-;-;-;-;-;-;-;-;-;-;-;-;-;-;-
1512470919312;-;-;9.041;0.6023407;1.4683228;-;-;-;-;-;-;-;-;-;-;-;-;-;-;-
1512470919333;-;-;8.838684;0.7687378;1.5150146;-;-;-;-;-;-;-;-;-;-;-;-;-;-;-
1512470919353;-;-;8.833893;0.80822754;1.3821411;-;-;-;-;-;-;-;-;-;-;-;-;-;-;-
1512470919373;-;-;8.934448;0.58677673;1.5880432;-;-;-;-;-;-;-;-;-;-;-;-;-;-;-
1512470919394;-;-;7.8151703;0.4909973;1.6502838;-;-;-;-;-;-;-;-;-;-;-;-;-;-;-
1512470919414;-;-;9.755661;0.052871704;2.4284058;-;-;-;-;-;-;-;-;-;-;-;-;-;-;-
1512470919434;-;-;9.88974;-0.1410675;1.2672119;-;-;-;-;-;-;-;-;-;-;-;-;-;-;-
1512470919455;-;-;9.857422;-0.3194275;1.4312134;-;-;-;-;-;-;-;-;-;-;-;-;-;-;-
1512470919476;-;-;9.595245;-0.45350647;1.349823;-;-;-;-;-;-;-;-;-;-;-;-;-;-;-
1512470919496;-;-;9.181061;-0.50019836;1.2636261;-;-;-;-;-;-;-;-;-;-;-;-;-;-;-
1512470919516;-;-;8.541809;-0.3481598;1.3222809;-;-;-;-;-;-;-;-;-;-;-;-;-;-;-
1512470919537;-;-;8.544205;-0.3361969;1.4779053;-;-;-;-;-;-;-;-;-;-;-;-;-;-;-
1512470919557;-;-;8.833893;-0.30986023;1.528183;-;-;-;-;-;-;-;-;-;-;-;-;-;-;-
1512470919578;-;-;9.0577545;-0.41281128;1.5293732;-;-;-;-;-;-;-;-;-;-;-;-;-;-;-
1512470919599;-;-;9.051773;-0.33738708;1.4850922;-;-;-;-;-;-;-;-;-;-;-;-;-;-;-
1512470919619;-;-;9.002686;-0.3757019;1.4874878;-;-;-;-;-;-;-;-;-;-;-;-;-;-;-
1512470919639;-;-;9.020645;-0.3757019;1.3558044;-;-;-;-;-;-;-;-;-;-;-;-;-;-;-
1512470919659;-;-;9.129578;-0.40682983;1.160675;-;-;-;-;-;-;-;-;-;-;-;-;-;-;-
1512470919680;-;-;9.228943;-0.37449646;1.0409698;-;-;-;-;-;-;-;-;-;-;-;-;-;-;-
1512470919701;-;-;9.25528;-0.40322876;0.75006104;-;-;-;-;-;-;-;-;-;-;-;-;-;-;-
1512470919721;-;-;9.104446;-0.25239563;0.5884552;-;-;-;-;-;-;-;-;-;-;-;-;-;-;-
1512470919742;-;-;9.082901;-0.076416016;0.642334;-;-;-;-;-;-;-;-;-;-;-;-;-;-;-
1512470919763;-;-;9.06134;0.13786316;0.8733673;-;-;-;-;-;-;-;-;-;-;-;-;-;-;-
1512470919783;-;-;9.130783;0.040893555;0.9894867;-;-;-;-;-;-;-;-;-;-;-;-;-;-;-
1512470919802;-;-;9.228943;-0.23803711;0.96315;-;-;-;-;-;-;-;-;-;-;-;-;-;-;-
1512470919822;-;-;9.245697;-0.3984375;0.96195984;-;-;-;-;-;-;-;-;-;-;-;-;-;-;-
1512470919843;-;-;9.167892;-0.4834442;0.9918823;-;-;-;-;-;-;-;-;-;-;-;-;-;-;-
1512470919863;-;-;8.994308;-0.52293396;1.0541382;-;-;-;-;-;-;-;-;-;-;-;-;-;-;-
1512470919884;-;-;9.007477;-0.62350464;1.0481415;-;-;-;-;-;-;-;-;-;-;-;-;-;-;-
1512470919904;-;-;8.929672;-0.6917267;0.99786377;-;-;-;-;-;-;-;-;-;-;-;-;-;-;-
1512470919925;-;-;8.964386;-0.71447754;0.8889313;-;-;-;-;-;-;-;-;-;-;-;-;-;-;-
1512470919945;-;-;9.13916;-0.52893066;0.9703369;-;-;-;-;-;-;-;-;-;-;-;-;-;-;-
1512470919966;-;-;9.406113;-0.47027588;0.8769531;-;-;-;-;-;-;-;-;-;-;-;-;-;-;-
1512470919985;-;-;9.612015;-0.42956543;0.88653564;-;-;-;-;-;-;-;-;-;-;-;-;-;-;-
1512470920005;-;-;9.583282;-0.33738708;0.82907104;-;-;-;-;-;-;-;-;-;-;-;-;-;-;-
1512470920027;-;-;9.3893585;-0.2607727;0.7548523;-;-;-;-;-;-;-;-;-;-;-;-;-;-;-
1512470920047;-;-;9.160706;-0.25958252;0.7943573;-;-;-;-;-;-;-;-;-;-;-;-;-;-;-
1512470920067;-;-;9.212173;-0.39126587;0.82788086;-;-;-;-;-;-;-;-;-;-;-;-;-;-;-
1512470920088;-;-;9.282806;-0.60554504;0.7620392;-;-;-;-;-;-;-;-;-;-;-;-;-;-;-
1512470920108;-;-;9.274429;-0.6222992;0.8817444;-;-;-;-;-;-;-;-;-;-;-;-;-;-;-
1512470920129;-;-;9.328293;-0.5648346;0.9176636;-;-;-;-;-;-;-;-;-;-;-;-;-;-;-
1512470920149;-;-;9.268448;-0.3649292;0.91407776;-;-;-;-;-;-;-;-;-;-;-;-;-;-;-
1512470920170;-;-;9.175064;-0.105148315;0.83865356;-;-;-;-;-;-;-;-;-;-;-;-;-;-;-
1512470920191;-;-;9.086487;-0.023742676;0.765625;-;-;-;-;-;-;-;-;-;-;-;-;-;-;-
1512470920212;-;-;9.076904;-0.1482544;0.8877411;-;-;-;-;-;-;-;-;-;-;-;-;-;-;-
1512470920233;-;-;9.052963;-0.4152069;0.92485046;-;-;-;-;-;-;-;-;-;-;-;-;-;-;-
1512470920252;-;-;9.094864;-0.55166626;0.9966736;-;-;-;-;-;-;-;-;-;-;-;-;-;-;-
1512470920273;-;-;9.149933;-0.48582458;0.91885376;-;-;-;-;-;-;-;-;-;-;-;-;-;-;-
1512470920293;-;-;9.173874;-0.4918213;0.8913269;-;-;-;-;-;-;-;-;-;-;-;-;-;-;-
1512470920314;-;-;9.148727;-0.42118835;0.71055603;-;-;-;-;-;-;-;-;-;-;-;-;-;-;-
1512470920334;-;-;9.15831;-0.38887024;0.8027344;-;-;-;-;-;-;-;-;-;-;-;-;-;-;-
1512470920355;-;-;9.246902;-0.38887024;0.83506775;-;-;-;-;-;-;-;-;-;-;-;-;-;-;-
1512470920375;-;-;9.380966;-0.39964294;0.80513;-;-;-;-;-;-;-;-;-;-;-;-;-;-;-
1512470920396;-;-;9.4096985;-0.48104858;0.73809814;-;-;-;-;-;-;-;-;-;-;-;-;-;-;-
1512470920416;-;-;9.342667;-0.41999817;0.8159027;-;-;-;-;-;-;-;-;-;-;-;-;-;-;-
1512470920436;-;-;9.197815;-0.35295105;0.9092865;-;-;-;-;-;-;-;-;-;-;-;-;-;-;-
1512470920456;-;-;9.096069;-0.36253357;0.91645813;-;-;-;-;-;-;-;-;-;-;-;-;-;-;-
1512470920477;-;-;9.09845;-0.38526917;0.92245483;-;-;-;-;-;-;-;-;-;-;-;-;-;-;-
1512470920497;-;-;9.200211;-0.34576416;0.92245483;-;-;-;-;-;-;-;-;-;-;-;-;-;-;-
1512470920518;-;-;9.216965;-0.36253357;1.0134277;-;-;-;-;-;-;-;-;-;-;-;-;-;-;-
1512470920538;-;-;9.327103;-0.502594;0.86857605;-;-;-;-;-;-;-;-;-;-;-;-;-;-;-
1512470920559;-;-;9.086487;-0.51097107;0.8434448;-;-;-;-;-;-;-;-;-;-;-;-;-;-;-
1512470920580;-;-;9.12001;-0.37210083;0.9822998;-;-;-;-;-;-;-;-;-;-;-;-;-;-;-
1512470920600;-;-;8.941635;-0.14225769;1.033783;-;-;-;-;-;-;-;-;-;-;-;-;-;-;-
1512470920620;-;-;9.23851;0.31622314;1.0122375;-;-;-;-;-;-;-;-;-;-;-;-;-;-;-
1512470920641;-;-;9.384567;0.043289185;1.1415253;-;-;-;-;-;-;-;-;-;-;-;-;-;-;-
1512470920661;-;-;9.500687;-0.28831482;0.79914856;-;-;-;-;-;-;-;-;-;-;-;-;-;-;-
1512470920681;-;-;9.09845;-0.04888916;0.82069397;-;-;-;-;-;-;-;-;-;-;-;-;-;-;-
1512470920702;-;-;9.00029;-0.057266235;0.96435547;-;-;-;-;-;-;-;-;-;-;-;-;-;-;-
1512470920722;-;-;8.947617;0.124694824;1.033783;-;-;-;-;-;-;-;-;-;-;-;-;-;-;-
1512470920742;-;-;9.188232;-0.069244385;1.057724;-;-;-;-;-;-;-;-;-;-;-;-;-;-;-
1512470920763;-;-;9.25647;-0.040512085;0.88414;-;-;-;-;-;-;-;-;-;-;-;-;-;-;-
1512470920783;-;-;9.068527;0.028915405;1.0206146;-;-;-;-;-;-;-;-;-;-;-;-;-;-;-
1512470920803;-;-;8.971558;-0.08720398;1.0158234;-;-;-;-;-;-;-;-;-;-;-;-;-;-;-
1512470920824;-;-;9.0733185;-0.25837708;0.8422394;-;-;-;-;-;-;-;-;-;-;-;-;-;-;-
1512470920843;-;-;8.40892;-1.6529999;0.23651123;-;-;-;-;-;-;-;-;-;-;-;-;-;-;-
1512470920863;-;-;8.356247;-0.8018646;0.76683044;-;-;-;-;-;-;-;-;-;-;-;-;-;-;-
1512470920884;-;-;8.437653;-0.74320984;1.1223602;-;-;-;-;-;-;-;-;-;-;-;-;-;-;-
1512470920903;-;-;9.627579;-0.34576416;-0.06994629;-;-;-;-;-;-;-;-;-;-;-;-;-;-;-
1512470920923;-;-;9.342667;1.1841278;-0.2758484;-;-;-;-;-;-;-;-;-;-;-;-;-;-;-
1512470920944;-;-;9.358231;1.4522705;-0.44703674;-;-;-;-;-;-;-;-;-;-;-;-;-;-;-
1512470920964;-;-;9.521027;0.77111816;-1.1257935;-;-;-;-;-;-;-;-;-;-;-;-;-;-;-
1512470920984;-;-;9.343857;0.8405609;-0.58470154;-;-;-;-;-;-;-;-;-;-;-;-;-;-;-
1512470921004;-;-;9.291183;0.5089569;-0.7570801;-;-;-;-;-;-;-;-;-;-;-;-;-;-;-
1512470921025;-;-;9.407303;0.6562042;-0.51885986;-;-;-;-;-;-;-;-;-;-;-;-;-;-;-
1512470921046;-;-;9.125992;0.18814087;-0.3368988;-;-;-;-;-;-;-;-;-;-;-;-;-;-;-
1512470921066;-;-;9.155914;-0.014175415;-0.6613159;-;-;-;-;-;-;-;-;-;-;-;-;-;-;-
1512470921086;-;-;8.970367;0.04927063;-0.3297119;-;-;-;-;-;-;-;-;-;-;-;-;-;-;-
1512470921107;-;-;9.220566;0.048080444;0.19581604;-;-;-;-;-;-;-;-;-;-;-;-;-;-;-
1512470921127;-;-;9.2756195;0.21087646;0.4400177;-;-;-;-;-;-;-;-;-;-;-;-;-;-;-
1512470921148;-;-;9.189438;0.18214417;0.49150085;-;-;-;-;-;-;-;-;-;-;-;-;-;-;-
1512470921170;-;-;9.288788;0.13905334;0.29995728;-;-;-;-;-;-;-;-;-;-;-;-;-;-;-
1512470921190;-;-;9.242111;0.1043396;0.27601624;-;-;-;-;-;-;-;-;-;-;-;-;-;-;-
1512470921211;-;-;9.0733185;0.13067627;0.6171875;-;-;-;-;-;-;-;-;-;-;-;-;-;-;-
1512470921231;-;-;8.948822;0.17018127;0.22094727;-;-;-;-;-;-;-;-;-;-;-;-;-;-;-
1512470921251;-;-;9.013458;-0.035720825;0.39093018;-;-;-;-;-;-;-;-;-;-;-;-;-;-;-
1512470921272;-;-;9.200211;-0.07522583;0.4974823;-;-;-;-;-;-;-;-;-;-;-;-;-;-;-
1512470921292;-;-;9.291183;-0.28471375;0.37538147;-;-;-;-;-;-;-;-;-;-;-;-;-;-;-
1512470921313;-;-;9.45639;-0.26556396;0.42445374;-;-;-;-;-;-;-;-;-;-;-;-;-;-;-
1512470921333;-;-;9.341461;-0.24401855;0.48431396;-;-;-;-;-;-;-;-;-;-;-;-;-;-;-
1512470921353;-;-;9.261261;-0.31225586;0.5046692;-;-;-;-;-;-;-;-;-;-;-;-;-;-;-
1512470921373;-;-;9.067337;-0.289505;0.39093018;-;-;-;-;-;-;-;-;-;-;-;-;-;-;-
1512470921394;-;-;9.17746;-0.5732269;0.72013855;-;-;-;-;-;-;-;-;-;-;-;-;-;-;-
1512470921415;-;-;9.378571;-0.878479;0.3777771;-;-;-;-;-;-;-;-;-;-;-;-;-;-;-
1512470921435;-;-;9.657501;-1.0065765;0.04019165;-;-;-;-;-;-;-;-;-;-;-;-;-;-;-
1512470921456;-;-;9.477936;-1.0185394;0.15270996;-;-;-;-;-;-;-;-;-;-;-;-;-;-;-
1512470921476;-;-;9.294785;-0.9359436;0.67225647;-;-;-;-;-;-;-;-;-;-;-;-;-;-;-
1512470921496;-;-;9.322311;-0.7420044;0.4100952;-;-;-;-;-;-;-;-;-;-;-;-;-;-;-
1512470921517;-;-;9.392944;-0.680954;0.55015564;-;-;-;-;-;-;-;-;-;-;-;-;-;-;-
1512470921538;-;-;9.658707;-0.76116943;0.5585327;-;-;-;-;-;-;-;-;-;-;-;-;-;-;-
1512470921558;-;-;9.348648;-1.1358643;0.78118896;-;-;-;-;-;-;-;-;-;-;-;-;-;-;-
1512470921578;-;-;9.281616;-1.5739899;0.60043335;-;-;-;-;-;-;-;-;-;-;-;-;-;-;-
1512470921599;-;-;9.055359;-1.2603607;0.6495056;-;-;-;-;-;-;-;-;-;-;-;-;-;-;-
1512470921619;-;-;8.679474;-1.2986603;1.1259613;-;-;-;-;-;-;-;-;-;-;-;-;-;-;-
1512470921639;-;-;8.794388;-1.2675323;1.097229;-;-;-;-;-;-;-;-;-;-;-;-;-;-;-
1512470921659;-;-;8.874603;-1.2232513;1.2456665;-;-;-;-;-;-;-;-;-;-;-;-;-;-;-
1512470921680;-;-;8.96199;-1.3034515;1.1403198;-;-;-;-;-;-;-;-;-;-;-;-;-;-;-
1512470921700;-;-;9.074509;-1.3956299;1.0792694;-;-;-;-;-;-;-;-;-;-;-;-;-;-;-
1512470921721;-;-;9.013458;-1.289093;1.0625153;-;-;-;-;-;-;-;-;-;-;-;-;-;-;-
1512470921740;-;-;9.067337;-0.84495544;1.112793;-;-;-;-;-;-;-;-;-;-;-;-;-;-;-
1512470921760;-;-;9.160706;-0.4152069;1.033783;-;-;-;-;-;-;-;-;-;-;-;-;-;-;-
1512470921781;-;-;9.23613;-0.0045928955;0.97631836;-;-;-;-;-;-;-;-;-;-;-;-;-;-;-
1512470921801;-;-;9.21817;-0.076416016;0.7716217;-;-;-;-;-;-;-;-;-;-;-;-;-;-;-
1512470921821;-;-;9.246902;-0.035720825;0.5956421;-;-;-;-;-;-;-;-;-;-;-;-;-;-;-
1512470921842;-;-;9.187042;-0.11114502;0.3143158;-;-;-;-;-;-;-;-;-;-;-;-;-;-;-
1512470921862;-;-;9.669479;-0.28352356;0.048568726;-;-;-;-;-;-;-;-;-;-;-;-;-;-;-
1512470921883;-;-;10.056137;-0.7815094;0.05455017;-;-;-;-;-;-;-;-;-;-;-;-;-;-;-
1512470921903;-;-;9.579697;-1.1957092;-0.10586548;-;-;-;-;-;-;-;-;-;-;-;-;-;-;-
1512470921923;-;-;9.462372;-1.0376892;0.3215027;-;-;-;-;-;-;-;-;-;-;-;-;-;-;-
1512470921944;-;-;9.331894;-0.7108917;0.42445374;-;-;-;-;-;-;-;-;-;-;-;-;-;-;-
1512470921964;-;-;9.035004;-0.3972473;0.6950073;-;-;-;-;-;-;-;-;-;-;-;-;-;-;-
1512470921985;-;-;9.104446;-0.3194275;0.89372253;-;-;-;-;-;-;-;-;-;-;-;-;-;-;-
1512470922006;-;-;9.439636;-0.2859192;0.6100006;-;-;-;-;-;-;-;-;-;-;-;-;-;-;-
1512470922026;-;-;9.586868;-0.14346313;0.3310852;-;-;-;-;-;-;-;-;-;-;-;-;-;-;-
1512470922046;-;-;9.483917;-0.03213501;0.2233429;-;-;-;-;-;-;-;-;-;-;-;-;-;-;-
1512470922067;-;-;8.984726;0.1797638;-0.016082764;-;-;-;-;-;-;-;-;-;-;-;-;-;-;-
1512470922087;-;-;8.4292755;0.16659546;-0.123809814;-;-;-;-;-;-;-;-;-;-;-;-;-;-;-
1512470922108;-;-;7.851074;0.05885315;-0.2674713;-;-;-;-;-;-;-;-;-;-;-;-;-;-;-
1512470922127;-;-;7.272873;-0.035720825;0.20898438;-;-;-;-;-;-;-;-;-;-;-;-;-;-;-
1512470922149;-;-;7.134018;0.112716675;0.860199;-;-;-;-;-;-;-;-;-;-;-;-;-;-;-
1512470922169;-;-;8.796783;0.28390503;1.6263428;-;-;-;-;-;-;-;-;-;-;-;-;-;-;-
1512470922190;-;-;10.702576;0.35932922;1.7867584;-;-;-;-;-;-;-;-;-;-;-;-;-;-;-
1512470922210;-;-;11.438782;0.122299194;1.6670532;-;-;-;-;-;-;-;-;-;-;-;-;-;-;-
1512470922235;-;-;10.846222;0.008575439;1.6024017;-;-;-;-;-;-;-;-;-;-;-;-;-;-;-
1512470922250;-;-;10.058533;-0.10635376;2.4080505;-;-;-;-;-;-;-;-;-;-;-;-;-;-;-
1512470922271;-;-;9.477936;0.0013885498;2.7336578;-;-;-;-;-;-;-;-;-;-;-;-;-;-;-
1512470922292;-;-;8.984726;0.3796692;2.3984833;-;-;-;-;-;-;-;-;-;-;-;-;-;-;-
1512470922312;-;-;8.435257;0.6645813;1.9806824;-;-;-;-;-;-;-;-;-;-;-;-;-;-;-
1512470922332;-;-;8.107254;0.44911194;2.1004028;-;-;-;-;-;-;-;-;-;-;-;-;-;-;-
1512470922353;-;-;7.8247375;-0.07762146;2.0728607;-;-;-;-;-;-;-;-;-;-;-;-;-;-;-
1512470922374;-;-;7.8642426;-0.5145569;2.3948822;-;-;-;-;-;-;-;-;-;-;-;-;-;-;-
1512470922394;-;-;8.048599;-0.58758545;2.4523468;-;-;-;-;-;-;-;-;-;-;-;-;-;-;-
1512470922414;-;-;8.66391;-0.088394165;2.2691956;-;-;-;-;-;-;-;-;-;-;-;-;-;-;-
1512470922434;-;-;9.024231;0.7340088;1.8849182;-;-;-;-;-;-;-;-;-;-;-;-;-;-;-
1512470922455;-;-;9.072113;1.5624084;1.5892334;-;-;-;-;-;-;-;-;-;-;-;-;-;-;-
1512470922475;-;-;8.786011;1.877243;0.87815857;-;-;-;-;-;-;-;-;-;-;-;-;-;-;-
1512470922496;-;-;8.316742;1.4163666;0.27601624;-;-;-;-;-;-;-;-;-;-;-;-;-;-;-
1512470922517;-;-;7.9947357;1.0632172;-0.37042236;-;-;-;-;-;-;-;-;-;-;-;-;-;-;-
1512470922538;-;-;8.296402;1.0751953;0.06892395;-;-;-;-;-;-;-;-;-;-;-;-;-;-;-
1512470922558;-;-;9.547363;1.1841278;0.7572479;-;-;-;-;-;-;-;-;-;-;-;-;-;-;-
1512470922578;-;-;10.903687;0.78907776;1.1798248;-;-;-;-;-;-;-;-;-;-;-;-;-;-;-
1512470922599;-;-;11.284363;-0.095581055;0.9499817;-;-;-;-;-;-;-;-;-;-;-;-;-;-;-
1512470922619;-;-;10.227325;-0.8174286;0.7368927;-;-;-;-;-;-;-;-;-;-;-;-;-;-;-
1512470922640;-;-;9.130783;-1.2651367;0.9104767;-;-;-;-;-;-;-;-;-;-;-;-;-;-;-
1512470922660;-;-;8.973953;-1.5524445;0.8266754;-;-;-;-;-;-;-;-;-;-;-;-;-;-;-
1512470922682;-;-;9.604828;-1.4985809;0.63394165;-;-;-;-;-;-;-;-;-;-;-;-;-;-;-
1512470922703;-;-;10.18782;-0.83657837;0.7153473;-;-;-;-;-;-;-;-;-;-;-;-;-;-;-
1512470922724;-;-;10.072891;-0.20211792;0.6746521;-;-;-;-;-;-;-;-;-;-;-;-;-;-;-
1512470922744;-;-;9.556946;0.13067627;0.6746521;-;-;-;-;-;-;-;-;-;-;-;-;-;-;-
1512470922765;-;-;8.48793;0.03251648;0.8985138;-;-;-;-;-;-;-;-;-;-;-;-;-;-;-
1512470922785;-;-;8.022263;-0.45111084;1.0601196;-;-;-;-;-;-;-;-;-;-;-;-;-;-;-
1512470922805;-;-;7.997116;-0.8174286;1.0948334;-;-;-;-;-;-;-;-;-;-;-;-;-;-;-
1512470922826;-;-;8.345474;-0.71447754;0.94400024;-;-;-;-;-;-;-;-;-;-;-;-;-;-;-
1512470922847;-;-;8.98233;-0.42358398;0.6052246;-;-;-;-;-;-;-;-;-;-;-;-;-;-;-
1512470922867;-;-;9.543777;-0.24880981;0.29637146;-;-;-;-;-;-;-;-;-;-;-;-;-;-;-
1512470922887;-;-;10.039383;-0.069244385;0.23890686;-;-;-;-;-;-;-;-;-;-;-;-;-;-;-
1512470922910;-;-;9.673065;0.122299194;0.2053833;-;-;-;-;-;-;-;-;-;-;-;-;-;-;-
1512470922931;-;-;9.171478;0.2300415;0.17904663;-;-;-;-;-;-;-;-;-;-;-;-;-;-;-
1512470922951;-;-;8.861435;0.10913086;0.21257019;-;-;-;-;-;-;-;-;-;-;-;-;-;-;-
1512470922971;-;-;9.142746;-0.15065002;0.16348267;-;-;-;-;-;-;-;-;-;-;-;-;-;-;-
1512470922991;-;-;9.3701935;-0.24281311;0.22932434;-;-;-;-;-;-;-;-;-;-;-;-;-;-;-
1512470923011;-;-;9.500687;-0.23564148;0.27122498;-;-;-;-;-;-;-;-;-;-;-;-;-;-;-
1512470923032;-;-;9.385757;-0.1817627;0.3598175;-;-;-;-;-;-;-;-;-;-;-;-;-;-;-
1512470923052;-;-;9.183456;-0.15184021;0.40769958;-;-;-;-;-;-;-;-;-;-;-;-;-;-;-
1512470923073;-;-;9.125992;-0.26316833;0.46516418;-;-;-;-;-;-;-;-;-;-;-;-;-;-;-
1512470923094;-;-;9.145142;-0.4846344;0.51065063;-;-;-;-;-;-;-;-;-;-;-;-;-;-;-
1512470923115;-;-;9.372589;-0.783905;0.36938477;-;-;-;-;-;-;-;-;-;-;-;-;-;-;-
1512470923135;-;-;9.55455;-0.68574524;0.3322754;-;-;-;-;-;-;-;-;-;-;-;-;-;-;-
1512470923156;-;-;9.410904;-0.49780273;0.4902954;-;-;-;-;-;-;-;-;-;-;-;-;-;-;-
1512470923176;-;-;9.210983;-0.46188354;0.6638794;-;-;-;-;-;-;-;-;-;-;-;-;-;-;-
1512470923196;-;-;9.027832;-0.38887024;0.5513458;-;-;-;-;-;-;-;-;-;-;-;-;-;-;-
1512470923217;-;-;8.898544;-0.36013794;0.57170105;-;-;-;-;-;-;-;-;-;-;-;-;-;-;-
1512470923237;-;-;8.959595;-0.34217834;0.429245;-;-;-;-;-;-;-;-;-;-;-;-;-;-;-
1512470923258;-;-;9.109222;-0.36253357;0.3610077;-;-;-;-;-;-;-;-;-;-;-;-;-;-;-
1512470923277;-;-;9.212173;-0.38287354;0.29516602;-;-;-;-;-;-;-;-;-;-;-;-;-;-;-
1512470923298;-;-;9.242111;-0.3074646;0.2987671;-;-;-;-;-;-;-;-;-;-;-;-;-;-;-
1512470923318;-;-;9.23851;-0.25479126;0.3131256;-;-;-;-;-;-;-;-;-;-;-;-;-;-;-
1512470923339;-;-;9.232529;-0.22486877;0.30116272;-;-;-;-;-;-;-;-;-;-;-;-;-;-;-
1512470923358;-;-;9.311539;-0.19374084;0.24130249;-;-;-;-;-;-;-;-;-;-;-;-;-;-;-
1512470923379;-;-;9.325912;-0.22845459;0.20777893;-;-;-;-;-;-;-;-;-;-;-;-;-;-;-
1512470923399;-;-;9.29718;-0.26437378;0.23770142;-;-;-;-;-;-;-;-;-;-;-;-;-;-;-
1512470923419;-;-;9.263657;-0.32063293;0.22932434;-;-;-;-;-;-;-;-;-;-;-;-;-;-;-
1512470923440;-;-;9.194229;-0.33499146;0.32987976;-;-;-;-;-;-;-;-;-;-;-;-;-;-;-
1512470923461;-;-;9.196625;-0.3936615;0.28918457;-;-;-;-;-;-;-;-;-;-;-;-;-;-;-
1512470923481;-;-;9.179855;-0.4152069;0.27601624;-;-;-;-;-;-;-;-;-;-;-;-;-;-;-
1512470923500;-;-;9.175064;-0.3768921;0.3023529;-;-;-;-;-;-;-;-;-;-;-;-;-;-;-
1512470923521;-;-;9.160706;-0.31105042;0.35861206;-;-;-;-;-;-;-;-;-;-;-;-;-;-;-
1512470923542;-;-;9.205002;-0.22247314;0.35263062;-;-;-;-;-;-;-;-;-;-;-;-;-;-;-
1512470923562;-;-;9.224152;-0.18655396;0.2987671;-;-;-;-;-;-;-;-;-;-;-;-;-;-;-
1512470923582;-;-;9.291183;-0.1817627;0.24728394;-;-;-;-;-;-;-;-;-;-;-;-;-;-;-
1512470923603;-;-;9.303162;-0.20809937;0.21736145;-;-;-;-;-;-;-;-;-;-;-;-;-;-;-
1512470923622;-;-;9.3103485;-0.18415833;0.18504333;-;-;-;-;-;-;-;-;-;-;-;-;-;-;-
1512470923642;-;-;9.307953;-0.21409607;0.21017456;-;-;-;-;-;-;-;-;-;-;-;-;-;-;-
1512470923663;-;-;9.305557;-0.30267334;0.26643372;-;-;-;-;-;-;-;-;-;-;-;-;-;-;-
1512470923683;-;-;9.264847;-0.35534668;0.24848938;-;-;-;-;-;-;-;-;-;-;-;-;-;-;-
1512470923703;-;-;9.201401;-0.35653687;0.2233429;-;-;-;-;-;-;-;-;-;-;-;-;-;-;-
1512470923723;-;-;9.148727;-0.3589325;0.28678894;-;-;-;-;-;-;-;-;-;-;-;-;-;-;-
1512470923744;-;-;9.146347;-0.36253357;0.28678894;-;-;-;-;-;-;-;-;-;-;-;-;-;-;-
1512470923764;-;-;9.189438;-0.38526917;0.3215027;-;-;-;-;-;-;-;-;-;-;-;-;-;-;-
1512470923785;-;-;9.208588;-0.38049316;0.32510376;-;-;-;-;-;-;-;-;-;-;-;-;-;-;-
1512470923805;-;-;9.254074;-0.33140564;0.3610077;-;-;-;-;-;-;-;-;-;-;-;-;-;-;-
1512470923826;-;-;9.250488;-0.3002777;0.34664917;-;-;-;-;-;-;-;-;-;-;-;-;-;-;-
1512470923846;-;-;9.189438;-0.25360107;0.2915802;-;-;-;-;-;-;-;-;-;-;-;-;-;-;-
1512470923867;-;-;9.171478;-0.3182373;0.122787476;-;-;-;-;-;-;-;-;-;-;-;-;-;-;-
1512470923887;-;-;9.088882;-0.39485168;0.04498291;-;-;-;-;-;-;-;-;-;-;-;-;-;-;-
1512470923908;-;-;9.027832;-0.4882202;0.1251831;-;-;-;-;-;-;-;-;-;-;-;-;-;-;-
1512470923928;-;-;9.063736;-0.5325165;0.24369812;-;-;-;-;-;-;-;-;-;-;-;-;-;-;-
1512470923948;-;-;9.067337;-0.54089355;0.35861206;-;-;-;-;-;-;-;-;-;-;-;-;-;-;-
1512470923969;-;-;8.989517;-0.52293396;0.4220581;-;-;-;-;-;-;-;-;-;-;-;-;-;-;-
1512470923989;-;-;9.012268;-0.3936615;0.33348083;-;-;-;-;-;-;-;-;-;-;-;-;-;-;-
1512470924010;-;-;9.050568;-0.0010070801;0.30593872;-;-;-;-;-;-;-;-;-;-;-;-;-;-;-
1512470924030;-;-;9.23613;0.11869812;0.27841187;-;-;-;-;-;-;-;-;-;-;-;-;-;-;-
1512470924050;-;-;9.450409;0.105529785;0.12757874;-;-;-;-;-;-;-;-;-;-;-;-;-;-;-
1512470924071;-;-;9.562927;-0.16500854;0.12876892;-;-;-;-;-;-;-;-;-;-;-;-;-;-;-
1512470924092;-;-;9.39534;-0.20451355;0.20898438;-;-;-;-;-;-;-;-;-;-;-;-;-;-;-
1512470924112;-;-;9.230133;-0.09437561;0.3131256;-;-;-;-;-;-;-;-;-;-;-;-;-;-;-
1512470924132;-;-;9.206192;-0.09437561;0.3322754;-;-;-;-;-;-;-;-;-;-;-;-;-;-;-
1512470924153;-;-;9.213379;-0.3182373;0.27601624;-;-;-;-;-;-;-;-;-;-;-;-;-;-;-
1512470924173;-;-;9.248093;-0.4774475;0.3215027;-;-;-;-;-;-;-;-;-;-;-;-;-;-;-
1512470924193;-;-;9.147537;-0.46548462;0.4507904;-;-;-;-;-;-;-;-;-;-;-;-;-;-;-
1512470924214;-;-;9.190628;-0.39126587;0.46516418;-;-;-;-;-;-;-;-;-;-;-;-;-;-;-
1512470924235;-;-;9.284012;-0.32302856;0.38494873;-;-;-;-;-;-;-;-;-;-;-;-;-;-;-
1512470924257;-;-;9.304352;-0.29548645;0.32629395;-;-;-;-;-;-;-;-;-;-;-;-;-;-;-
1512470924277;-;-;9.224152;-0.23443604;0.4040985;-;-;-;-;-;-;-;-;-;-;-;-;-;-;-
1512470924297;-;-;9.153519;-0.3541565;0.4579773;-;-;-;-;-;-;-;-;-;-;-;-;-;-;-
1512470924317;-;-;9.124786;-0.34217834;0.39692688;-;-;-;-;-;-;-;-;-;-;-;-;-;-;-
1512470924338;-;-;9.17746;-0.14465332;0.3215027;-;-;-;-;-;-;-;-;-;-;-;-;-;-;-
1512470924357;-;-;9.301956;-0.04649353;0.29756165;-;-;-;-;-;-;-;-;-;-;-;-;-;-;-
1512470924378;-;-;9.232529;0.02293396;0.2843933;-;-;-;-;-;-;-;-;-;-;-;-;-;-;-
1512470924398;-;-;9.15831;-0.08958435;0.16108704;-;-;-;-;-;-;-;-;-;-;-;-;-;-;-
1512470924418;-;-;9.254074;-0.2320404;-0.03881836;-;-;-;-;-;-;-;-;-;-;-;-;-;-;-
1512470924439;-;-;9.194229;-0.27514648;-0.071136475;-;-;-;-;-;-;-;-;-;-;-;-;-;-;-
1512470924459;-;-;9.248093;-0.30387878;0.010253906;-;-;-;-;-;-;-;-;-;-;-;-;-;-;-
1512470924479;-;-;9.222961;-0.34576416;-0.0053100586;-;-;-;-;-;-;-;-;-;-;-;-;-;-;-
1512470924500;-;-;9.267242;-0.35176086;-0.11424255;-;-;-;-;-;-;-;-;-;-;-;-;-;-;-
1512470924520;-;-;9.300766;-0.3697052;-0.14537048;-;-;-;-;-;-;-;-;-;-;-;-;-;-;-
1512470924540;-;-;9.2708435;-0.30148315;-0.10346985;-;-;-;-;-;-;-;-;-;-;-;-;-;-;-
1512470924560;-;-;9.323517;-0.12669373;-0.15614319;-;-;-;-;-;-;-;-;-;-;-;-;-;-;-
1512470924581;-;-;9.272034;-0.18536377;-0.13220215;-;-;-;-;-;-;-;-;-;-;-;-;-;-;-
1512470924601;-;-;9.263657;-0.24641418;-0.11782837;-;-;-;-;-;-;-;-;-;-;-;-;-;-;-
1512470924621;-;-;9.143951;-0.14704895;0.021026611;-;-;-;-;-;-;-;-;-;-;-;-;-;-;-
1512470924642;-;-;9.110428;-0.1302948;0.16108704;-;-;-;-;-;-;-;-;-;-;-;-;-;-;-
1512470924663;-;-;9.131973;-0.14225769;0.15631104;-;-;-;-;-;-;-;-;-;-;-;-;-;-;-
1512470924683;-;-;9.151123;-0.093185425;0.13954163;-;-;-;-;-;-;-;-;-;-;-;-;-;-;-
1512470924704;-;-;9.167892;-0.08720398;0.20059204;-;-;-;-;-;-;-;-;-;-;-;-;-;-;-
1512470924727;-;-;9.161896;-0.10635376;0.15870667;-;-;-;-;-;-;-;-;-;-;-;-;-;-;-
1512470924748;-;-;9.147537;-0.114730835;0.13116455;-;-;-;-;-;-;-;-;-;-;-;-;-;-;-
1512470924767;-;-;9.190628;-0.17936707;0.15870667;-;-;-;-;-;-;-;-;-;-;-;-;-;-;-
1512470924791;-;-;9.194229;-0.18536377;0.2053833;-;-;-;-;-;-;-;-;-;-;-;-;-;-;-
1512470924810;-;-;9.23732;-0.22366333;0.24609375;-;-;-;-;-;-;-;-;-;-;-;-;-;-;-
1512470924831;-;-;9.274429;-0.3002777;0.1826477;-;-;-;-;-;-;-;-;-;-;-;-;-;-;-
1512470924851;-;-;9.331894;-0.30986023;0.1539154;-;-;-;-;-;-;-;-;-;-;-;-;-;-;-
1512470924872;-;-;9.263657;-0.3541565;0.22813416;-;-;-;-;-;-;-;-;-;-;-;-;-;-;-
1512470924891;-;-;9.281616;-0.33859253;0.21496582;-;-;-;-;-;-;-;-;-;-;-;-;-;-;-
1512470924911;-;-;9.286407;-0.29548645;0.27720642;-;-;-;-;-;-;-;-;-;-;-;-;-;-;-
1512470924931;-;-;9.248093;-0.25360107;0.29397583;-;-;-;-;-;-;-;-;-;-;-;-;-;-;-
1512470924952;-;-;9.261261;-0.25598145;0.3095398;-;-;-;-;-;-;-;-;-;-;-;-;-;-;-
1512470924971;-;-;9.208588;-0.31704712;0.28678894;-;-;-;-;-;-;-;-;-;-;-;-;-;-;-
1512470924992;-;-;9.15831;-0.33499146;0.2520752;-;-;-;-;-;-;-;-;-;-;-;-;-;-;-
1512470925011;-;-;9.108032;-0.23443604;0.20658875;-;-;-;-;-;-;-;-;-;-;-;-;-;-;-
1512470925032;-;-;9.134369;-0.16261292;0.2987671;-;-;-;-;-;-;-;-;-;-;-;-;-;-;-
1512470925052;-;-;9.171478;-0.16142273;0.32510376;-;-;-;-;-;-;-;-;-;-;-;-;-;-;-
1512470925072;-;-;9.21817;-0.17817688;0.2987671;-;-;-;-;-;-;-;-;-;-;-;-;-;-;-
1512470925093;-;-;9.261261;-0.2775421;0.43522644;-;-;-;-;-;-;-;-;-;-;-;-;-;-;-
1512470925112;-;-;9.25528;-0.29071045;0.38974;-;-;-;-;-;-;-;-;-;-;-;-;-;-;-
1512470925133;-;-;9.269638;-0.2033081;0.35621643;-;-;-;-;-;-;-;-;-;-;-;-;-;-;-
1512470925153;-;-;9.312744;-0.23564148;0.38734436;-;-;-;-;-;-;-;-;-;-;-;-;-;-;-
1512470925172;-;-;9.29718;-0.36253357;0.33946228;-;-;-;-;-;-;-;-;-;-;-;-;-;-;-
1512470925193;-;-;9.382172;-0.34576416;0.36221313;-;-;-;-;-;-;-;-;-;-;-;-;-;-;-
1512470925213;-;-;9.289993;-0.38287354;0.5190277;-;-;-;-;-;-;-;-;-;-;-;-;-;-;-
1512470925233;-;-;9.169083;-0.4092102;0.5453644;-;-;-;-;-;-;-;-;-;-;-;-;-;-;-
1512470925254;-;-;9.225342;-0.3757019;0.4974823;-;-;-;-;-;-;-;-;-;-;-;-;-;-;-
1512470925274;-;-;9.075714;-0.3361969;0.47473145;-;-;-;-;-;-;-;-;-;-;-;-;-;-;-
1512470925295;-;-;9.166687;-0.3481598;0.5226135;-;-;-;-;-;-;-;-;-;-;-;-;-;-;-
1512470925315;-;-;9.221756;-0.36611938;0.58128357;-;-;-;-;-;-;-;-;-;-;-;-;-;-;-
1512470925336;-;-;9.23613;-0.32661438;0.53938293;-;-;-;-;-;-;-;-;-;-;-;-;-;-;-
1512470925355;-;-;9.210983;-0.22247314;0.54296875;-;-;-;-;-;-;-;-;-;-;-;-;-;-;-
1512470925377;-;-;9.121201;-0.30267334;0.57528687;-;-;-;-;-;-;-;-;-;-;-;-;-;-;-
1512470925396;-;-;9.088882;-0.28352356;0.6243744;-;-;-;-;-;-;-;-;-;-;-;-;-;-;-
1512470925416;-;-;9.084091;-0.3397827;0.5944519;-;-;-;-;-;-;-;-;-;-;-;-;-;-;-
1512470925436;-;-;9.141556;-0.3182373;0.5513458;-;-;-;-;-;-;-;-;-;-;-;-;-;-;-
1512470925457;-;-;9.221756;-0.35176086;0.5704956;-;-;-;-;-;-;-;-;-;-;-;-;-;-;-
1512470925477;-;-;9.228943;-0.32781982;0.5740967;-;-;-;-;-;-;-;-;-;-;-;-;-;-;-
1512470925497;-;-;9.319916;-0.3757019;0.5657196;-;-;-;-;-;-;-;-;-;-;-;-;-;-;-
1512470925518;-;-;9.307953;-0.42237854;0.55015564;-;-;-;-;-;-;-;-;-;-;-;-;-;-;-
1512470925539;-;-;9.312744;-0.46788025;0.5669098;-;-;-;-;-;-;-;-;-;-;-;-;-;-;-
1512470925559;-;-;9.224152;-0.3876648;0.61839294;-;-;-;-;-;-;-;-;-;-;-;-;-;-;-
1512470925579;-;-;9.216965;-0.36013794;0.65908813;-;-;-;-;-;-;-;-;-;-;-;-;-;-;-
1512470925600;-;-;9.182251;-0.3577423;0.6997833;-;-;-;-;-;-;-;-;-;-;-;-;-;-;-
1512470925619;-;-;9.090073;-0.2033081;0.80033875;-;-;-;-;-;-;-;-;-;-;-;-;-;-;-
1512470925639;-;-;9.105637;-0.083602905;0.9116821;-;-;-;-;-;-;-;-;-;-;-;-;-;-;-
1512470925659;-;-;9.106842;0.100753784;0.8877411;-;-;-;-;-;-;-;-;-;-;-;-;-;-;-
1512470925680;-;-;8.928467;0.29109192;0.9380188;-;-;-;-;-;-;-;-;-;-;-;-;-;-;-
1512470925700;-;-;8.903336;0.074417114;0.9918823;-;-;-;-;-;-;-;-;-;-;-;-;-;-;-
1512470925721;-;-;9.115219;-0.18296814;0.78837585;-;-;-;-;-;-;-;-;-;-;-;-;-;-;-
1512470925740;-;-;9.232529;-0.20211792;0.83506775;-;-;-;-;-;-;-;-;-;-;-;-;-;-;-
1512470925761;-;-;9.2708435;-0.12789917;0.9032898;-;-;-;-;-;-;-;-;-;-;-;-;-;-;-
1512470925780;-;-;9.403717;-0.2392273;0.7859802;-;-;-;-;-;-;-;-;-;-;-;-;-;-;-
1512470925801;-;-;9.3893585;-0.23564148;0.67225647;-;-;-;-;-;-;-;-;-;-;-;-;-;-;-
1512470925821;-;-;9.115219;-0.24281311;0.7464752;-;-;-;-;-;-;-;-;-;-;-;-;-;-;-
1512470925842;-;-;9.085281;-0.21170044;0.87576294;-;-;-;-;-;-;-;-;-;-;-;-;-;-;-
1512470925862;-;-;9.032608;-0.2212677;1.0038605;-;-;-;-;-;-;-;-;-;-;-;-;-;-;-
1512470925883;-;-;9.042191;-0.26197815;1.1080017;-;-;-;-;-;-;-;-;-;-;-;-;-;-;-
1512470925904;-;-;9.130783;-0.25120544;1.0409698;-;-;-;-;-;-;-;-;-;-;-;-;-;-;-
1512470925923;-;-;9.151123;-0.16381836;0.95477295;-;-;-;-;-;-;-;-;-;-;-;-;-;-;-
1512470925944;-;-;9.0972595;-0.071640015;0.8949127;-;-;-;-;-;-;-;-;-;-;-;-;-;-;-
1512470925964;-;-;9.108032;-0.08241272;0.9200592;-;-;-;-;-;-;-;-;-;-;-;-;-;-;-
1512470925984;-;-;9.1523285;-0.102752686;0.9380188;-;-;-;-;-;-;-;-;-;-;-;-;-;-;-
1512470926005;-;-;9.130783;-0.109939575;1.0349731;-;-;-;-;-;-;-;-;-;-;-;-;-;-;-
1512470926025;-;-;9.179855;-0.22366333;0.9751282;-;-;-;-;-;-;-;-;-;-;-;-;-;-;-
1512470926046;-;-;9.129578;-0.27035522;0.89730835;-;-;-;-;-;-;-;-;-;-;-;-;-;-;-
1512470926066;-;-;9.072113;-0.20451355;0.8925171;-;-;-;-;-;-;-;-;-;-;-;-;-;-;-
1512470926086;-;-;8.976349;-0.1530304;0.85780334;-;-;-;-;-;-;-;-;-;-;-;-;-;-;-
1512470926106;-;-;9.005081;-0.07762146;0.89611816;-;-;-;-;-;-;-;-;-;-;-;-;-;-;-
1512470926126;-;-;9.100845;-0.13627625;0.83625793;-;-;-;-;-;-;-;-;-;-;-;-;-;-;-
1512470926146;-;-;9.207397;-0.1697998;0.81710815;-;-;-;-;-;-;-;-;-;-;-;-;-;-;-
1512470926167;-;-;9.195419;-0.16740417;0.8374634;-;-;-;-;-;-;-;-;-;-;-;-;-;-;-
1512470926187;-;-;9.205002;-0.117126465;0.82788086;-;-;-;-;-;-;-;-;-;-;-;-;-;-;-
1512470926208;-;-;9.159515;-0.071640015;0.7572479;-;-;-;-;-;-;-;-;-;-;-;-;-;-;-
1512470926229;-;-;9.1523285;-0.11592102;0.7823944;-;-;-;-;-;-;-;-;-;-;-;-;-;-;-
1512470926249;-;-;9.190628;-0.13148499;0.73091125;-;-;-;-;-;-;-;-;-;-;-;-;-;-;-
1512470926269;-;-;9.278015;-0.100372314;0.7117615;-;-;-;-;-;-;-;-;-;-;-;-;-;-;-
1512470926290;-;-;9.282806;-0.109939575;0.69021606;-;-;-;-;-;-;-;-;-;-;-;-;-;-;-
1512470926310;-;-;9.268448;-0.07522583;0.681839;-;-;-;-;-;-;-;-;-;-;-;-;-;-;-
1512470926331;-;-;9.358231;-0.22366333;0.602829;-;-;-;-;-;-;-;-;-;-;-;-;-;-;-
1512470926352;-;-;9.325912;-0.13148499;0.58128357;-;-;-;-;-;-;-;-;-;-;-;-;-;-;-
1512470926372;-;-;9.195419;0.02053833;0.721344;-;-;-;-;-;-;-;-;-;-;-;-;-;-;-
1512470926393;-;-;9.201401;0.013366699;0.7177429;-;-;-;-;-;-;-;-;-;-;-;-;-;-;-
1512470926413;-;-;9.115219;-0.015365601;0.75845337;-;-;-;-;-;-;-;-;-;-;-;-;-;-;-
1512470926434;-;-;9.108032;-0.066848755;0.78956604;-;-;-;-;-;-;-;-;-;-;-;-;-;-;-
1512470926453;-;-;9.14035;-0.17817688;0.7943573;-;-;-;-;-;-;-;-;-;-;-;-;-;-;-
1512470926474;-;-;9.170288;-0.27275085;0.76683044;-;-;-;-;-;-;-;-;-;-;-;-;-;-;-
1512470926494;-;-;9.209793;-0.31225586;0.7333069;-;-;-;-;-;-;-;-;-;-;-;-;-;-;-
1512470926514;-;-;9.227737;-0.28352356;0.681839;-;-;-;-;-;-;-;-;-;-;-;-;-;-;-
1512470926534;-;-;9.220566;-0.24162292;0.6854248;-;-;-;-;-;-;-;-;-;-;-;-;-;-;-
1512470926555;-;-;9.195419;-0.21170044;0.66986084;-;-;-;-;-;-;-;-;-;-;-;-;-;-;-
1512470926575;-;-;9.153519;-0.20930481;0.6531067;-;-;-;-;-;-;-;-;-;-;-;-;-;-;-
1512470926596;-;-;9.149933;-0.22007751;0.6758423;-;-;-;-;-;-;-;-;-;-;-;-;-;-;-
1512470926615;-;-;9.221756;-0.23085022;0.666275;-;-;-;-;-;-;-;-;-;-;-;-;-;-;-
1512470926635;-;-;9.258865;-0.1697998;0.63394165;-;-;-;-;-;-;-;-;-;-;-;-;-;-;-
1512470926656;-;-;9.257675;-0.09197998;0.6136017;-;-;-;-;-;-;-;-;-;-;-;-;-;-;-
1512470926677;-;-;9.228943;-0.12071228;0.57888794;-;-;-;-;-;-;-;-;-;-;-;-;-;-;-
1512470926698;-;-;9.155914;-0.1482544;0.5884552;-;-;-;-;-;-;-;-;-;-;-;-;-;-;-
1512470926717;-;-;9.123596;-0.13748169;0.5800781;-;-;-;-;-;-;-;-;-;-;-;-;-;-;-
1512470926737;-;-;9.149933;-0.17936707;0.60043335;-;-;-;-;-;-;-;-;-;-;-;-;-;-;-
1512470926758;-;-;9.163101;-0.20570374;0.6363373;-;-;-;-;-;-;-;-;-;-;-;-;-;-;-
1512470926779;-;-;9.169083;-0.19732666;0.6375427;-;-;-;-;-;-;-;-;-;-;-;-;-;-;-
1512470926798;-;-;9.12001;-0.18296814;0.62316895;-;-;-;-;-;-;-;-;-;-;-;-;-;-;-
1512470926819;-;-;9.142746;-0.15663147;0.63035583;-;-;-;-;-;-;-;-;-;-;-;-;-;-;-
1512470926839;-;-;9.197815;-0.17578125;0.6375427;-;-;-;-;-;-;-;-;-;-;-;-;-;-;-
1512470926859;-;-;9.196625;-0.2033081;0.6207886;-;-;-;-;-;-;-;-;-;-;-;-;-;-;-
1512470926879;-;-;9.160706;-0.21887207;0.69740295;-;-;-;-;-;-;-;-;-;-;-;-;-;-;-
1512470926900;-;-;9.147537;-0.21768188;0.6997833;-;-;-;-;-;-;-;-;-;-;-;-;-;-;-
1512470926919;-;-;9.195419;-0.24043274;0.67344666;-;-;-;-;-;-;-;-;-;-;-;-;-;-;-
1512470926939;-;-;9.185837;-0.20092773;0.60043335;-;-;-;-;-;-;-;-;-;-;-;-;-;-;-
1512470926959;-;-;9.239716;-0.1877594;0.61239624;-;-;-;-;-;-;-;-;-;-;-;-;-;-;-
1512470926980;-;-;9.214569;-0.1817627;0.6315613;-;-;-;-;-;-;-;-;-;-;-;-;-;-;-
1512470927000;-;-;9.166687;-0.16142273;0.65071106;-;-;-;-;-;-;-;-;-;-;-;-;-;-;-
1512470927021;-;-;9.185837;-0.18057251;0.642334;-;-;-;-;-;-;-;-;-;-;-;-;-;-;-
1512470927040;-;-;9.171478;-0.16261292;0.5968323;-;-;-;-;-;-;-;-;-;-;-;-;-;-;-
1512470927060;-;-;9.228943;-0.20930481;0.642334;-;-;-;-;-;-;-;-;-;-;-;-;-;-;-
1512470927081;-;-;9.23851;-0.16859436;0.62197876;-;-;-;-;-;-;-;-;-;-;-;-;-;-;-
1512470927101;-;-;9.250488;-0.18296814;0.5920563;-;-;-;-;-;-;-;-;-;-;-;-;-;-;-
1512470927122;-;-;9.21936;-0.23324585;0.6890106;-;-;-;-;-;-;-;-;-;-;-;-;-;-;-
1512470927142;-;-;9.201401;-0.22007751;0.66148376;-;-;-;-;-;-;-;-;-;-;-;-;-;-;-
1512470927163;-;-;9.195419;-0.24880981;0.6279602;-;-;-;-;-;-;-;-;-;-;-;-;-;-;-
1512470927183;-;-;9.232529;-0.2679596;0.60043335;-;-;-;-;-;-;-;-;-;-;-;-;-;-;-
1512470927204;-;-;9.221756;-0.23803711;0.62916565;-;-;-;-;-;-;-;-;-;-;-;-;-;-;-
1512470927224;-;-;9.215775;-0.1985321;0.62916565;-;-;-;-;-;-;-;-;-;-;-;-;-;-;-
1512470927245;-;-;9.190628;-0.15542603;0.61479187;-;-;-;-;-;-;-;-;-;-;-;-;-;-;-
1512470927266;-;-;9.17746;-0.13986206;0.62316895;-;-;-;-;-;-;-;-;-;-;-;-;-;-;-
1512470927285;-;-;9.173874;-0.20092773;0.62677;-;-;-;-;-;-;-;-;-;-;-;-;-;-;-
1512470927306;-;-;9.15712;-0.17459106;0.6375427;-;-;-;-;-;-;-;-;-;-;-;-;-;-;-
1512470927326;-;-;9.127182;-0.19972229;0.6255646;-;-;-;-;-;-;-;-;-;-;-;-;-;-;-
1512470927346;-;-;9.167892;-0.19013977;0.63394165;-;-;-;-;-;-;-;-;-;-;-;-;-;-;-
1512470927367;-;-;9.195419;-0.17936707;0.6100006;-;-;-;-;-;-;-;-;-;-;-;-;-;-;-
1512470927387;-;-;9.15831;-0.22964478;0.62677;-;-;-;-;-;-;-;-;-;-;-;-;-;-;-
1512470927407;-;-;9.17746;-0.21170044;0.62677;-;-;-;-;-;-;-;-;-;-;-;-;-;-;-
1512470927430;-;-;9.196625;-0.25479126;0.62197876;-;-;-;-;-;-;-;-;-;-;-;-;-;-;-
1512470927451;-;-;9.169083;-0.24520874;0.6483154;-;-;-;-;-;-;-;-;-;-;-;-;-;-;-
1512470927471;-;-;9.13916;-0.2212677;0.642334;-;-;-;-;-;-;-;-;-;-;-;-;-;-;-
1512470927491;-;-;9.171478;-0.25;0.62677;-;-;-;-;-;-;-;-;-;-;-;-;-;-;-
1512470927512;-;-;9.1523285;-0.21289063;0.6459198;-;-;-;-;-;-;-;-;-;-;-;-;-;-;-
1512470927532;-;-;9.220566;-0.22845459;0.6171875;-;-;-;-;-;-;-;-;-;-;-;-;-;-;-
1512470927553;-;-;9.239716;-0.21768188;0.63394165;-;-;-;-;-;-;-;-;-;-;-;-;-;-;-
1512470927573;-;-;9.23732;-0.22247314;0.6171875;-;-;-;-;-;-;-;-;-;-;-;-;-;-;-
1512470927593;-;-;9.233734;-0.17098999;0.5968323;-;-;-;-;-;-;-;-;-;-;-;-;-;-;-
1512470927614;-;-;9.230133;-0.21528625;0.58966064;-;-;-;-;-;-;-;-;-;-;-;-;-;-;-
1512470927635;-;-;9.197815;-0.19732666;0.6255646;-;-;-;-;-;-;-;-;-;-;-;-;-;-;-
1512470927655;-;-;9.184647;-0.19013977;0.61958313;-;-;-;-;-;-;-;-;-;-;-;-;-;-;-
1512470927675;-;-;9.17746;-0.1877594;0.6315613;-;-;-;-;-;-;-;-;-;-;-;-;-;-;-
1512470927696;-;-;9.21936;-0.1769867;0.61839294;-;-;-;-;-;-;-;-;-;-;-;-;-;-;-
1512470927715;-;-;9.215775;-0.19972229;0.5860596;-;-;-;-;-;-;-;-;-;-;-;-;-;-;-
1512470927735;-;-;9.224152;-0.18057251;0.5585327;-;-;-;-;-;-;-;-;-;-;-;-;-;-;-
1512470927756;-;-;9.196625;-0.19134521;0.5980377;-;-;-;-;-;-;-;-;-;-;-;-;-;-;-
1512470927776;-;-;9.163101;-0.15542603;0.5956421;-;-;-;-;-;-;-;-;-;-;-;-;-;-;-
1512470927796;-;-;9.169083;-0.14225769;0.5968323;-;-;-;-;-;-;-;-;-;-;-;-;-;-;-
1512470927817;-;-;9.222961;-0.20690918;0.5848694;-;-;-;-;-;-;-;-;-;-;-;-;-;-;-
1512470927838;-;-;9.225342;-0.1877594;0.5585327;-;-;-;-;-;-;-;-;-;-;-;-;-;-;-
1512470927857;-;-;9.21817;-0.20930481;0.5764923;-;-;-;-;-;-;-;-;-;-;-;-;-;-;-
1512470927878;-;-;9.213379;-0.210495;0.587265;-;-;-;-;-;-;-;-;-;-;-;-;-;-;-
1512470927898;-;-;9.161896;-0.21289063;0.5860596;-;-;-;-;-;-;-;-;-;-;-;-;-;-;-
1512470927918;-;-;9.183456;-0.21528625;0.6052246;-;-;-;-;-;-;-;-;-;-;-;-;-;-;-
1512470927939;-;-;9.216965;-0.16261292;0.5944519;-;-;-;-;-;-;-;-;-;-;-;-;-;-;-
1512470927959;-;-;9.213379;-0.20570374;0.5776825;-;-;-;-;-;-;-;-;-;-;-;-;-;-;-
1512470927980;-;-;9.178665;-0.22007751;0.5776825;-;-;-;-;-;-;-;-;-;-;-;-;-;-;-
1512470928000;-;-;9.165497;-0.1697998;0.6100006;-;-;-;-;-;-;-;-;-;-;-;-;-;-;-
1512470928021;-;-;9.148727;-0.19613647;0.5848694;-;-;-;-;-;-;-;-;-;-;-;-;-;-;-
1512470928041;-;-;9.117615;-0.16619873;0.60401917;-;-;-;-;-;-;-;-;-;-;-;-;-;-;-
1512470928062;-;-;9.118805;-0.17817688;0.6207886;-;-;-;-;-;-;-;-;-;-;-;-;-;-;-
1512470928083;-;-;9.137955;-0.16021729;0.62197876;-;-;-;-;-;-;-;-;-;-;-;-;-;-;-
1512470928103;-;-;9.169083;-0.1769867;0.6255646;-;-;-;-;-;-;-;-;-;-;-;-;-;-;-
1512470928124;-;-;9.146347;-0.13986206;0.60043335;-;-;-;-;-;-;-;-;-;-;-;-;-;-;-
1512470928145;-;-;9.182251;-0.17459106;0.5980377;-;-;-;-;-;-;-;-;-;-;-;-;-;-;-
1512470928165;-;-;9.193024;-0.1925354;0.58966064;-;-;-;-;-;-;-;-;-;-;-;-;-;-;-
1512470928185;-;-;9.206192;-0.1817627;0.5980377;-;-;-;-;-;-;-;-;-;-;-;-;-;-;-
1512470928205;-;-;9.1523285;-0.16619873;0.5920563;-;-;-;-;-;-;-;-;-;-;-;-;-;-;-
1512470928226;-;-;9.137955;-0.15663147;0.5693054;-;-;-;-;-;-;-;-;-;-;-;-;-;-;-
1512470928246;-;-;9.169083;-0.18415833;0.5980377;-;-;-;-;-;-;-;-;-;-;-;-;-;-;-
1512470928267;-;-;9.199005;-0.18536377;0.5956421;-;-;-;-;-;-;-;-;-;-;-;-;-;-;-
1512470928287;-;-;9.190628;-0.1769867;0.59324646;-;-;-;-;-;-;-;-;-;-;-;-;-;-;-
1512470928308;-;-;9.203796;-0.19972229;0.5776825;-;-;-;-;-;-;-;-;-;-;-;-;-;-;-
1512470928330;-;-;9.199005;-0.19374084;0.54776;-;-;-;-;-;-;-;-;-;-;-;-;-;-;-
1512470928350;-;-;9.228943;-0.20809937;0.5956421;-;-;-;-;-;-;-;-;-;-;-;-;-;-;-
1512470928370;-;-;9.190628;-0.21887207;0.602829;-;-;-;-;-;-;-;-;-;-;-;-;-;-;-
1512470928390;-;-;9.194229;-0.1769867;0.60162354;-;-;-;-;-;-;-;-;-;-;-;-;-;-;-
1512470928411;-;-;9.184647;-0.19374084;0.5968323;-;-;-;-;-;-;-;-;-;-;-;-;-;-;-
1512470928431;-;-;9.184647;-0.1925354;0.59324646;-;-;-;-;-;-;-;-;-;-;-;-;-;-;-
1512470928452;-;-;9.205002;-0.16381836;0.54296875;-;-;-;-;-;-;-;-;-;-;-;-;-;-;-
1512470928471;-;-;9.203796;-0.1482544;0.53338623;-;-;-;-;-;-;-;-;-;-;-;-;-;-;-
1512470928491;-;-;9.114014;-0.16021729;0.563324;-;-;-;-;-;-;-;-;-;-;-;-;-;-;-
1512470928512;-;-;9.205002;-0.16142273;0.54296875;-;-;-;-;-;-;-;-;-;-;-;-;-;-;-
1512470928533;-;-;9.199005;-0.19134521;0.5549469;-;-;-;-;-;-;-;-;-;-;-;-;-;-;-
1512470928553;-;-;9.243301;-0.12071228;0.54776;-;-;-;-;-;-;-;-;-;-;-;-;-;-;-
1512470928573;-;-;9.230133;-0.07762146;0.53100586;-;-;-;-;-;-;-;-;-;-;-;-;-;-;-
1512470928594;-;-;9.187042;-0.093185425;0.5274048;-;-;-;-;-;-;-;-;-;-;-;-;-;-;-
1512470928614;-;-;9.161896;-0.08480835;0.5274048;-;-;-;-;-;-;-;-;-;-;-;-;-;-;-
1512470928635;-;-;9.17746;-0.08958435;0.52500916;-;-;-;-;-;-;-;-;-;-;-;-;-;-;-
1512470928655;-;-;9.202606;-0.13748169;0.5920563;-;-;-;-;-;-;-;-;-;-;-;-;-;-;-
1512470928676;-;-;9.183456;-0.114730835;0.563324;-;-;-;-;-;-;-;-;-;-;-;-;-;-;-
1512470928696;-;-;9.181061;-0.14465332;0.56451416;-;-;-;-;-;-;-;-;-;-;-;-;-;-;-
1512470928716;-;-;9.199005;-0.13388062;0.5597229;-;-;-;-;-;-;-;-;-;-;-;-;-;-;-
1512470928737;-;-;9.199005;-0.1697998;0.5704956;-;-;-;-;-;-;-;-;-;-;-;-;-;-;-
1512470928758;-;-;9.173874;-0.17459106;0.5740967;-;-;-;-;-;-;-;-;-;-;-;-;-;-;-
1512470928778;-;-;9.207397;-0.17817688;0.52500916;-;-;-;-;-;-;-;-;-;-;-;-;-;-;-
1512470928799;-;-;9.163101;-0.1590271;0.5405731;-;-;-;-;-;-;-;-;-;-;-;-;-;-;-
1512470928819;-;-;9.245697;-0.17219543;0.5118408;-;-;-;-;-;-;-;-;-;-;-;-;-;-;-
1512470928838;-;-;9.225342;-0.18894958;0.5094452;-;-;-;-;-;-;-;-;-;-;-;-;-;-;-
1512470928859;-;-;9.220566;-0.22964478;0.52381897;-;-;-;-;-;-;-;-;-;-;-;-;-;-;-
1512470928879;-;-;9.232529;-0.23443604;0.44599915;-;-;-;-;-;-;-;-;-;-;-;-;-;-;-
1512470928899;-;-;9.172684;-0.22007751;0.53578186;-;-;-;-;-;-;-;-;-;-;-;-;-;-;-
1512470928919;-;-;9.181061;-0.1985321;0.53219604;-;-;-;-;-;-;-;-;-;-;-;-;-;-;-
1512470928940;-;-;9.17627;-0.19613647;0.5453644;-;-;-;-;-;-;-;-;-;-;-;-;-;-;-
1512470928961;-;-;9.193024;-0.17936707;0.54177856;-;-;-;-;-;-;-;-;-;-;-;-;-;-;-
1512470928981;-;-;9.189438;-0.17219543;0.5166321;-;-;-;-;-;-;-;-;-;-;-;-;-;-;-
1512470929001;-;-;9.160706;-0.121917725;0.5274048;-;-;-;-;-;-;-;-;-;-;-;-;-;-;-
1512470929022;-;-;9.17627;-0.12550354;0.5226135;-;-;-;-;-;-;-;-;-;-;-;-;-;-;-
1512470929041;-;-;9.205002;-0.10635376;0.5190277;-;-;-;-;-;-;-;-;-;-;-;-;-;-;-
1512470929061;-;-;9.205002;-0.14465332;0.49627686;-;-;-;-;-;-;-;-;-;-;-;-;-;-;-
1512470929082;-;-;9.175064;-0.14225769;0.55255127;-;-;-;-;-;-;-;-;-;-;-;-;-;-;-
1512470929102;-;-;9.165497;-0.14225769;0.5178375;-;-;-;-;-;-;-;-;-;-;-;-;-;-;-
1512470929123;-;-;9.1918335;-0.1530304;0.5274048;-;-;-;-;-;-;-;-;-;-;-;-;-;-;-
1512470929143;-;-;9.188232;-0.15423584;0.55374146;-;-;-;-;-;-;-;-;-;-;-;-;-;-;-
1512470929163;-;-;9.187042;-0.17338562;0.54655457;-;-;-;-;-;-;-;-;-;-;-;-;-;-;-
1512470929184;-;-;9.189438;-0.14585876;0.55015564;-;-;-;-;-;-;-;-;-;-;-;-;-;-;-
1512470929204;-;-;9.181061;-0.14585876;0.49508667;-;-;-;-;-;-;-;-;-;-;-;-;-;-;-
1512470929227;-;-;9.242111;-0.1769867;0.508255;-;-;-;-;-;-;-;-;-;-;-;-;-;-;-
1512470929247;-;-;9.206192;-0.15184021;0.48431396;-;-;-;-;-;-;-;-;-;-;-;-;-;-;-
1512470929268;-;-;9.251678;-0.14944458;0.5178375;-;-;-;-;-;-;-;-;-;-;-;-;-;-;-
1512470929288;-;-;9.214569;-0.1530304;0.5286102;-;-;-;-;-;-;-;-;-;-;-;-;-;-;-
1512470929309;-;-;9.172684;-0.1410675;0.47354126;-;-;-;-;-;-;-;-;-;-;-;-;-;-;-
1512470929330;-;-;9.1523285;-0.13748169;0.49150085;-;-;-;-;-;-;-;-;-;-;-;-;-;-;-
1512470929349;-;-;9.155914;-0.1530304;0.53938293;-;-;-;-;-;-;-;-;-;-;-;-;-;-;-
1512470929369;-;-;9.197815;-0.13508606;0.5154419;-;-;-;-;-;-;-;-;-;-;-;-;-;-;-
1512470929389;-;-;9.230133;-0.15065002;0.48550415;-;-;-;-;-;-;-;-;-;-;-;-;-;-;-
1512470929410;-;-;9.245697;-0.13627625;0.48431396;-;-;-;-;-;-;-;-;-;-;-;-;-;-;-
1512470929431;-;-;9.182251;-0.117126465;0.52500916;-;-;-;-;-;-;-;-;-;-;-;-;-;-;-
1512470929451;-;-;9.1523285;-0.090789795;0.4699402;-;-;-;-;-;-;-;-;-;-;-;-;-;-;-
1512470929471;-;-;9.179855;-0.10635376;0.40769958;-;-;-;-;-;-;-;-;-;-;-;-;-;-;-
1512470929492;-;-;9.221756;-0.109939575;0.4759369;-;-;-;-;-;-;-;-;-;-;-;-;-;-;-
1512470929513;-;-;9.206192;-0.09437561;0.4759369;-;-;-;-;-;-;-;-;-;-;-;-;-;-;-
1512470929533;-;-;9.230133;-0.100372314;0.48191833;-;-;-;-;-;-;-;-;-;-;-;-;-;-;-
1512470929553;-;-;9.182251;-0.11114502;0.508255;-;-;-;-;-;-;-;-;-;-;-;-;-;-;-
1512470929574;-;-;9.141556;-0.13388062;0.50704956;-;-;-;-;-;-;-;-;-;-;-;-;-;-;-
1512470929593;-;-;9.130783;-0.13867188;0.5286102;-;-;-;-;-;-;-;-;-;-;-;-;-;-;-
1512470929614;-;-;9.196625;-0.09197998;0.53338623;-;-;-;-;-;-;-;-;-;-;-;-;-;-;-
1512470929635;-;-;9.230133;-0.100372314;0.48789978;-;-;-;-;-;-;-;-;-;-;-;-;-;-;-
1512470929655;-;-;9.216965;-0.121917725;0.52500916;-;-;-;-;-;-;-;-;-;-;-;-;-;-;-
1512470929676;-;-;9.246902;-0.15423584;0.47712708;-;-;-;-;-;-;-;-;-;-;-;-;-;-;-
1512470929696;-;-;9.179855;-0.14346313;0.49627686;-;-;-;-;-;-;-;-;-;-;-;-;-;-;-
1512470929716;-;-;9.182251;-0.17338562;0.4974823;-;-;-;-;-;-;-;-;-;-;-;-;-;-;-
1512470929737;-;-;9.171478;-0.16619873;0.5848694;-;-;-;-;-;-;-;-;-;-;-;-;-;-;-
1512470929757;-;-;9.170288;-0.18296814;0.5453644;-;-;-;-;-;-;-;-;-;-;-;-;-;-;-
1512470929778;-;-;9.213379;-0.15542603;0.5585327;-;-;-;-;-;-;-;-;-;-;-;-;-;-;-
1512470929797;-;-;9.21817;-0.17459106;0.5657196;-;-;-;-;-;-;-;-;-;-;-;-;-;-;-
1512470929817;-;-;9.179855;-0.1530304;0.5489502;-;-;-;-;-;-;-;-;-;-;-;-;-;-;-
1512470929838;-;-;9.15831;-0.19374084;0.5860596;-;-;-;-;-;-;-;-;-;-;-;-;-;-;-
1512470929858;-;-;9.172684;-0.18296814;0.56211853;-;-;-;-;-;-;-;-;-;-;-;-;-;-;-
1512470929879;-;-;9.175064;-0.17098999;0.54655457;-;-;-;-;-;-;-;-;-;-;-;-;-;-;-
1512470929901;-;-;9.226547;-0.16261292;0.563324;-;-;-;-;-;-;-;-;-;-;-;-;-;-;-
1512470929921;-;-;9.240906;-0.1410675;0.57289124;-;-;-;-;-;-;-;-;-;-;-;-;-;-;-
1512470929941;-;-;9.205002;-0.21528625;0.5884552;-;-;-;-;-;-;-;-;-;-;-;-;-;-;-
1512470929961;-;-;9.215775;-0.21170044;0.5513458;-;-;-;-;-;-;-;-;-;-;-;-;-;-;-
1512470929982;-;-;9.188232;-0.21768188;0.54177856;-;-;-;-;-;-;-;-;-;-;-;-;-;-;-
1512470930003;-;-;9.212173;-0.20690918;0.5513458;-;-;-;-;-;-;-;-;-;-;-;-;-;-;-
1512470930023;-;-;9.200211;-0.17338562;0.5274048;-;-;-;-;-;-;-;-;-;-;-;-;-;-;-
1512470930043;-;-;9.199005;-0.16021729;0.5178375;-;-;-;-;-;-;-;-;-;-;-;-;-;-;-
1512470930064;-;-;9.200211;-0.1817627;0.53578186;-;-;-;-;-;-;-;-;-;-;-;-;-;-;-
1512470930084;-;-;9.206192;-0.11831665;0.5166321;-;-;-;-;-;-;-;-;-;-;-;-;-;-;-
1512470930104;-;-;9.210983;-0.13986206;0.5369873;-;-;-;-;-;-;-;-;-;-;-;-;-;-;-
1512470930125;-;-;9.212173;-0.16381836;0.5405731;-;-;-;-;-;-;-;-;-;-;-;-;-;-;-
1512470930146;-;-;9.197815;-0.14944458;0.53578186;-;-;-;-;-;-;-;-;-;-;-;-;-;-;-
1512470930166;-;-;9.17746;-0.14465332;0.49269104;-;-;-;-;-;-;-;-;-;-;-;-;-;-;-
1512470930186;-;-;9.160706;-0.16142273;0.5704956;-;-;-;-;-;-;-;-;-;-;-;-;-;-;-
1512470930207;-;-;9.149933;-0.13269043;0.6279602;-;-;-;-;-;-;-;-;-;-;-;-;-;-;-
1512470930227;-;-;9.184647;-0.1877594;0.5992279;-;-;-;-;-;-;-;-;-;-;-;-;-;-;-
1512470930248;-;-;9.200211;-0.22486877;0.5968323;-;-;-;-;-;-;-;-;-;-;-;-;-;-;-
1512470930269;-;-;9.184647;-0.20451355;0.61958313;-;-;-;-;-;-;-;-;-;-;-;-;-;-;-
1512470930290;-;-;9.17746;-0.1817627;0.63993835;-;-;-;-;-;-;-;-;-;-;-;-;-;-;-
1512470930310;-;-;9.205002;-0.18057251;0.6052246;-;-;-;-;-;-;-;-;-;-;-;-;-;-;-
1512470930330;-;-;9.203796;-0.13867188;0.5669098;-;-;-;-;-;-;-;-;-;-;-;-;-;-;-
1512470930351;-;-;9.195419;-0.16142273;0.6064148;-;-;-;-;-;-;-;-;-;-;-;-;-;-;-
1512470930373;-;-;9.232529;-0.17936707;0.61958313;-;-;-;-;-;-;-;-;-;-;-;-;-;-;-
1512470930393;-;-;9.21936;-0.19134521;0.5657196;-;-;-;-;-;-;-;-;-;-;-;-;-;-;-
1512470930414;-;-;9.169083;-0.1925354;0.5920563;-;-;-;-;-;-;-;-;-;-;-;-;-;-;-
1512470930434;-;-;9.17746;-0.16381836;0.62197876;-;-;-;-;-;-;-;-;-;-;-;-;-;-;-
1512470930455;-;-;9.136765;-0.1697998;0.68063354;-;-;-;-;-;-;-;-;-;-;-;-;-;-;-
1512470930474;-;-;9.111618;-0.16142273;0.6255646;-;-;-;-;-;-;-;-;-;-;-;-;-;-;-
1512470930494;-;-;9.123596;-0.117126465;0.6171875;-;-;-;-;-;-;-;-;-;-;-;-;-;-;-
1512470930515;-;-;9.197815;-0.1302948;0.6375427;-;-;-;-;-;-;-;-;-;-;-;-;-;-;-
1512470930535;-;-;9.221756;-0.15423584;0.62677;-;-;-;-;-;-;-;-;-;-;-;-;-;-;-
1512470930556;-;-;9.214569;-0.14346313;0.5669098;-;-;-;-;-;-;-;-;-;-;-;-;-;-;-
1512470930577;-;-;9.208588;-0.15782166;0.58966064;-;-;-;-;-;-;-;-;-;-;-;-;-;-;-
1512470930598;-;-;9.216965;-0.15663147;0.6100006;-;-;-;-;-;-;-;-;-;-;-;-;-;-;-
1512470930617;-;-;9.169083;-0.11831665;0.61120605;-;-;-;-;-;-;-;-;-;-;-;-;-;-;-
1512470930638;-;-;9.147537;-0.14704895;0.6255646;-;-;-;-;-;-;-;-;-;-;-;-;-;-;-
1512470930658;-;-;9.185837;-0.12310791;0.6375427;-;-;-;-;-;-;-;-;-;-;-;-;-;-;-
1512470930678;-;-;9.23732;-0.15542603;0.5920563;-;-;-;-;-;-;-;-;-;-;-;-;-;-;-
1512470930699;-;-;9.194229;-0.15184021;0.60762024;-;-;-;-;-;-;-;-;-;-;-;-;-;-;-
1512470930719;-;-;9.195419;-0.16619873;0.61839294;-;-;-;-;-;-;-;-;-;-;-;-;-;-;-
1512470930739;-;-;9.169083;-0.15423584;0.6171875;-;-;-;-;-;-;-;-;-;-;-;-;-;-;-
1512470930760;-;-;9.169083;-0.15542603;0.6088104;-;-;-;-;-;-;-;-;-;-;-;-;-;-;-
1512470930779;-;-;9.203796;-0.1302948;0.5920563;-;-;-;-;-;-;-;-;-;-;-;-;-;-;-
1512470930800;-;-;9.203796;-0.109939575;0.602829;-;-;-;-;-;-;-;-;-;-;-;-;-;-;-
1512470930821;-;-;9.213379;-0.11114502;0.6088104;-;-;-;-;-;-;-;-;-;-;-;-;-;-;-
1512470930840;-;-;9.193024;-0.11831665;0.5920563;-;-;-;-;-;-;-;-;-;-;-;-;-;-;-
1512470930860;-;-;9.181061;-0.102752686;0.5968323;-;-;-;-;-;-;-;-;-;-;-;-;-;-;-
1512470930881;-;-;9.188232;-0.14465332;0.5992279;-;-;-;-;-;-;-;-;-;-;-;-;-;-;-
1512470930901;-;-;9.227737;-0.15782166;0.55015564;-;-;-;-;-;-;-;-;-;-;-;-;-;-;-
1512470930921;-;-;9.199005;-0.114730835;0.5956421;-;-;-;-;-;-;-;-;-;-;-;-;-;-;-
1512470930942;-;-;9.224152;-0.121917725;0.5597229;-;-;-;-;-;-;-;-;-;-;-;-;-;-;-
1512470930963;-;-;9.216965;-0.1817627;0.58366394;-;-;-;-;-;-;-;-;-;-;-;-;-;-;-
1512470930983;-;-;9.234924;-0.18296814;0.5884552;-;-;-;-;-;-;-;-;-;-;-;-;-;-;-
1512470931004;-;-;9.202606;-0.19374084;0.52381897;-;-;-;-;-;-;-;-;-;-;-;-;-;-;-
1512470931023;-;-;9.118805;-0.09677124;0.5764923;-;-;-;-;-;-;-;-;-;-;-;-;-;-;-
1512470931044;-;-;9.134369;-0.13867188;0.587265;-;-;-;-;-;-;-;-;-;-;-;-;-;-;-
1512470931064;-;-;9.195419;-0.16261292;0.5657196;-;-;-;-;-;-;-;-;-;-;-;-;-;-;-
1512470931084;-;-;9.201401;-0.16859436;0.5453644;-;-;-;-;-;-;-;-;-;-;-;-;-;-;-
1512470931105;-;-;9.201401;-0.13627625;0.56451416;-;-;-;-;-;-;-;-;-;-;-;-;-;-;-
1512470931124;-;-;9.148727;-0.12310791;0.587265;-;-;-;-;-;-;-;-;-;-;-;-;-;-;-
1512470931145;-;-;9.147537;-0.112335205;0.58366394;-;-;-;-;-;-;-;-;-;-;-;-;-;-;-
1512470931165;-;-;9.163101;-0.17219543;0.5453644;-;-;-;-;-;-;-;-;-;-;-;-;-;-;-
1512470931186;-;-;9.21936;-0.1410675;0.5573273;-;-;-;-;-;-;-;-;-;-;-;-;-;-;-
1512470931206;-;-;9.240906;-0.15184021;0.5561371;-;-;-;-;-;-;-;-;-;-;-;-;-;-;-
1512470931226;-;-;9.197815;-0.15184021;0.5549469;-;-;-;-;-;-;-;-;-;-;-;-;-;-;-
1512470931247;-;-;9.154724;-0.15542603;0.54296875;-;-;-;-;-;-;-;-;-;-;-;-;-;-;-
1512470931267;-;-;9.161896;-0.17338562;0.5405731;-;-;-;-;-;-;-;-;-;-;-;-;-;-;-
1512470931288;-;-;9.220566;-0.1302948;0.5669098;-;-;-;-;-;-;-;-;-;-;-;-;-;-;-
1512470931308;-;-;9.183456;-0.15184021;0.58366394;-;-;-;-;-;-;-;-;-;-;-;-;-;-;-
1512470931329;-;-;9.179855;-0.15423584;0.56092834;-;-;-;-;-;-;-;-;-;-;-;-;-;-;-
1512470931349;-;-;9.17627;-0.13388062;0.5920563;-;-;-;-;-;-;-;-;-;-;-;-;-;-;-
1512470931370;-;-;9.206192;-0.15065002;0.5489502;-;-;-;-;-;-;-;-;-;-;-;-;-;-;-
1512470931390;-;-;9.184647;-0.1530304;0.5489502;-;-;-;-;-;-;-;-;-;-;-;-;-;-;-
1512470931411;-;-;9.17627;-0.17219543;0.5585327;-;-;-;-;-;-;-;-;-;-;-;-;-;-;-
1512470931431;-;-;9.142746;-0.13269043;0.55015564;-;-;-;-;-;-;-;-;-;-;-;-;-;-;-
1512470931452;-;-;9.189438;-0.1530304;0.5549469;-;-;-;-;-;-;-;-;-;-;-;-;-;-;-
1512470931472;-;-;9.183456;-0.1410675;0.5549469;-;-;-;-;-;-;-;-;-;-;-;-;-;-;-
1512470931492;-;-;9.212173;-0.15542603;0.5597229;-;-;-;-;-;-;-;-;-;-;-;-;-;-;-
1512470931513;-;-;9.194229;-0.1410675;0.56092834;-;-;-;-;-;-;-;-;-;-;-;-;-;-;-
1512470931533;-;-;9.179855;-0.13269043;0.5585327;-;-;-;-;-;-;-;-;-;-;-;-;-;-;-
1512470931554;-;-;9.207397;-0.14346313;0.5405731;-;-;-;-;-;-;-;-;-;-;-;-;-;-;-
1512470931574;-;-;9.182251;-0.19732666;0.56211853;-;-;-;-;-;-;-;-;-;-;-;-;-;-;-
1512470931595;-;-;9.153519;-0.1817627;0.55374146;-;-;-;-;-;-;-;-;-;-;-;-;-;-;-
1512470931615;-;-;9.210983;-0.13748169;0.5381775;-;-;-;-;-;-;-;-;-;-;-;-;-;-;-
1512470931635;-;-;9.220566;-0.1530304;0.5561371;-;-;-;-;-;-;-;-;-;-;-;-;-;-;-
1512470931656;-;-;9.21817;-0.14585876;0.53219604;-;-;-;-;-;-;-;-;-;-;-;-;-;-;-
1512470931675;-;-;9.189438;-0.13867188;0.55374146;-;-;-;-;-;-;-;-;-;-;-;-;-;-;-
1512470931695;-;-;9.195419;-0.15663147;0.5262146;-;-;-;-;-;-;-;-;-;-;-;-;-;-;-
1512470931716;-;-;9.199005;-0.17459106;0.5298004;-;-;-;-;-;-;-;-;-;-;-;-;-;-;-
1512470931736;-;-;9.171478;-0.14225769;0.5345917;-;-;-;-;-;-;-;-;-;-;-;-;-;-;-
1512470931756;-;-;9.154724;-0.09677124;0.5202179;-;-;-;-;-;-;-;-;-;-;-;-;-;-;-
1512470931777;-;-;9.201401;-0.12310791;0.508255;-;-;-;-;-;-;-;-;-;-;-;-;-;-;-
1512470931797;-;-;9.189438;-0.19013977;0.53578186;-;-;-;-;-;-;-;-;-;-;-;-;-;-;-
1512470931817;-;-;9.188232;-0.15423584;0.4902954;-;-;-;-;-;-;-;-;-;-;-;-;-;-;-
1512470931838;-;-;9.194229;-0.13867188;0.50227356;-;-;-;-;-;-;-;-;-;-;-;-;-;-;-
1512470931858;-;-;9.184647;-0.13748169;0.5441742;-;-;-;-;-;-;-;-;-;-;-;-;-;-;-
1512470931879;-;-;9.245697;-0.11831665;0.5166321;-;-;-;-;-;-;-;-;-;-;-;-;-;-;-
1512470931899;-;-;9.201401;-0.17338562;0.5058594;-;-;-;-;-;-;-;-;-;-;-;-;-;-;-
1512470931919;-;-;9.220566;-0.13508606;0.49150085;-;-;-;-;-;-;-;-;-;-;-;-;-;-;-
1512470931940;-;-;9.178665;-0.13748169;0.5154419;-;-;-;-;-;-;-;-;-;-;-;-;-;-;-
1512470931960;-;-;9.169083;-0.124313354;0.5178375;-;-;-;-;-;-;-;-;-;-;-;-;-;-;-
1512470931981;-;-;9.163101;-0.14346313;0.50346375;-;-;-;-;-;-;-;-;-;-;-;-;-;-;-
1512470932001;-;-;9.214569;-0.1769867;0.5094452;-;-;-;-;-;-;-;-;-;-;-;-;-;-;-
1512470932022;-;-;9.234924;-0.17098999;0.5657196;-;-;-;-;-;-;-;-;-;-;-;-;-;-;-
1512470932042;-;-;9.2313385;-0.15542603;0.53578186;-;-;-;-;-;-;-;-;-;-;-;-;-;-;-
1512470932063;-;-;9.147537;-0.16859436;0.53219604;-;-;-;-;-;-;-;-;-;-;-;-;-;-;-
1512470932083;-;-;9.17627;-0.1590271;0.50346375;-;-;-;-;-;-;-;-;-;-;-;-;-;-;-
1512470932104;-;-;9.185837;-0.15782166;0.54776;-;-;-;-;-;-;-;-;-;-;-;-;-;-;-
1512470932125;-;-;9.190628;-0.11352539;0.5489502;-;-;-;-;-;-;-;-;-;-;-;-;-;-;-
1512470932145;-;-;9.199005;-0.117126465;0.5118408;-;-;-;-;-;-;-;-;-;-;-;-;-;-;-
1512470932165;-;-;9.188232;-0.15542603;0.5657196;-;-;-;-;-;-;-;-;-;-;-;-;-;-;-
1512470932185;-;-;9.183456;-0.14944458;0.5274048;-;-;-;-;-;-;-;-;-;-;-;-;-;-;-
1512470932206;-;-;9.201401;-0.15065002;0.5298004;-;-;-;-;-;-;-;-;-;-;-;-;-;-;-
1512470932226;-;-;9.195419;-0.16500854;0.5298004;-;-;-;-;-;-;-;-;-;-;-;-;-;-;-
1512470932247;-;-;9.201401;-0.15782166;0.5669098;-;-;-;-;-;-;-;-;-;-;-;-;-;-;-
1512470932268;-;-;9.141556;-0.15782166;0.53100586;-;-;-;-;-;-;-;-;-;-;-;-;-;-;-
1512470932289;-;-;9.183456;-0.1590271;0.54177856;-;-;-;-;-;-;-;-;-;-;-;-;-;-;-
1512470932309;-;-;9.221756;-0.1302948;0.53219604;-;-;-;-;-;-;-;-;-;-;-;-;-;-;-
1512470932329;-;-;9.245697;-0.13986206;0.53100586;-;-;-;-;-;-;-;-;-;-;-;-;-;-;-
1512470932350;-;-;9.209793;-0.1530304;0.5274048;-;-;-;-;-;-;-;-;-;-;-;-;-;-;-
1512470932370;-;-;9.166687;-0.1410675;0.55255127;-;-;-;-;-;-;-;-;-;-;-;-;-;-;-
1512470932391;-;-;9.147537;-0.13748169;0.56211853;-;-;-;-;-;-;-;-;-;-;-;-;-;-;-
1512470932411;-;-;9.167892;-0.1482544;0.55255127;-;-;-;-;-;-;-;-;-;-;-;-;-;-;-
1512470932432;-;-;9.194229;-0.11831665;0.53938293;-;-;-;-;-;-;-;-;-;-;-;-;-;-;-
1512470932451;-;-;9.200211;-0.16381836;0.5740967;-;-;-;-;-;-;-;-;-;-;-;-;-;-;-
1512470932471;-;-;9.185837;-0.14346313;0.5381775;-;-;-;-;-;-;-;-;-;-;-;-;-;-;-
1512470932491;-;-;9.200211;-0.14225769;0.5597229;-;-;-;-;-;-;-;-;-;-;-;-;-;-;-
1512470932512;-;-;9.197815;-0.09916687;0.5776825;-;-;-;-;-;-;-;-;-;-;-;-;-;-;-
1512470932533;-;-;9.200211;-0.10874939;0.5669098;-;-;-;-;-;-;-;-;-;-;-;-;-;-;-
1512470932554;-;-;9.179855;-0.13508606;0.5405731;-;-;-;-;-;-;-;-;-;-;-;-;-;-;-
1512470932574;-;-;9.173874;-0.14225769;0.5980377;-;-;-;-;-;-;-;-;-;-;-;-;-;-;-
1512470932594;-;-;9.200211;-0.15782166;0.52381897;-;-;-;-;-;-;-;-;-;-;-;-;-;-;-
1512470932615;-;-;9.179855;-0.10395813;0.5549469;-;-;-;-;-;-;-;-;-;-;-;-;-;-;-
1512470932635;-;-;9.164291;-0.12789917;0.5860596;-;-;-;-;-;-;-;-;-;-;-;-;-;-;-
1512470932656;-;-;9.175064;-0.17459106;0.60401917;-;-;-;-;-;-;-;-;-;-;-;-;-;-;-
1512470932678;-;-;9.175064;-0.16261292;0.56211853;-;-;-;-;-;-;-;-;-;-;-;-;-;-;-
1512470932698;-;-;9.216965;-0.14346313;0.5489502;-;-;-;-;-;-;-;-;-;-;-;-;-;-;-
1512470932718;-;-;9.17627;-0.12310791;0.5704956;-;-;-;-;-;-;-;-;-;-;-;-;-;-;-
1512470932738;-;-;9.163101;-0.13508606;0.5669098;-;-;-;-;-;-;-;-;-;-;-;-;-;-;-
1512470932759;-;-;9.194229;-0.109939575;0.56211853;-;-;-;-;-;-;-;-;-;-;-;-;-;-;-
