TimeStamp[ms];Prox[Cm];Lux[lux];AccX[m/s^2];AccY[m/s^2];AccZ[m/s^2];GyroX[rad/s];GyroY[rad/s];GyroZ[rad/s];MagnX[uT];MagnY[uT];MagnZ[uT];OrienYaw[degrees];OrienPitch[degrees];OrienRoll[degrees];Press[Pa];Temp[C°];Batt[%];Lat;Lng;Speed[m/s]
1512471243727;-;-;9.137955;-0.7731323;-1.0108643;-;-;-;-;-;-;-;-;-;-;-;-;-;-;-
1512471243752;-;-;8.936844;-0.5037842;-0.7570801;-;-;-;-;-;-;-;-;-;-;-;-;-;-;-
1512471243767;-;-;8.967972;-0.54089355;-0.8145447;-;-;-;-;-;-;-;-;-;-;-;-;-;-;-
1512471243787;-;-;9.182251;-0.46788025;-0.95939636;-;-;-;-;-;-;-;-;-;-;-;-;-;-;-
1512471243808;-;-;9.233734;-0.3182373;-1.0599518;-;-;-;-;-;-;-;-;-;-;-;-;-;-;-
1512471243828;-;-;9.149933;-0.7013092;-0.8779907;-;-;-;-;-;-;-;-;-;-;-;-;-;-;-
1512471243849;-;-;9.121201;-0.7922821;-0.9833374;-;-;-;-;-;-;-;-;-;-;-;-;-;-;-
1512471243868;-;-;9.122391;-0.4834442;-0.8767853;-;-;-;-;-;-;-;-;-;-;-;-;-;-;-
1512471243891;-;-;9.0733185;-0.6318817;-0.67448425;-;-;-;-;-;-;-;-;-;-;-;-;-;-;-
1512471243911;-;-;8.660324;-0.6043396;-0.26268005;-;-;-;-;-;-;-;-;-;-;-;-;-;-;-
1512471243932;-;-;9.221756;-0.48223877;-0.63616943;-;-;-;-;-;-;-;-;-;-;-;-;-;-;-
1512471243952;-;-;9.385757;-0.5540619;-0.98573303;-;-;-;-;-;-;-;-;-;-;-;-;-;-;-
1512471243973;-;-;9.181061;-0.51815796;-0.70321655;-;-;-;-;-;-;-;-;-;-;-;-;-;-;-
1512471244005;-;-;9.31633;-0.53730774;-0.68167114;-;-;-;-;-;-;-;-;-;-;-;-;-;-;-
1512471244014;-;-;9.116409;-0.7108917;-0.35604858;-;-;-;-;-;-;-;-;-;-;-;-;-;-;-
1512471244034;-;-;9.133179;-0.5827942;-0.63497925;-;-;-;-;-;-;-;-;-;-;-;-;-;-;-
1512471244055;-;-;9.230133;-0.37809753;-0.72476196;-;-;-;-;-;-;-;-;-;-;-;-;-;-;-
1512471244075;-;-;9.216965;-0.36732483;-0.8648224;-;-;-;-;-;-;-;-;-;-;-;-;-;-;-
1512471244095;-;-;9.026627;-0.30625916;-0.5966644;-;-;-;-;-;-;-;-;-;-;-;-;-;-;-
1512471244116;-;-;9.244507;-0.6103363;-0.7391205;-;-;-;-;-;-;-;-;-;-;-;-;-;-;-
1512471244136;-;-;9.212173;-0.5313263;-0.6876526;-;-;-;-;-;-;-;-;-;-;-;-;-;-;-
1512471244156;-;-;9.127182;-0.5205536;-1.0132599;-;-;-;-;-;-;-;-;-;-;-;-;-;-;-
1512471244177;-;-;8.963181;-0.33140564;-0.59547424;-;-;-;-;-;-;-;-;-;-;-;-;-;-;-
1512471244197;-;-;8.844666;-0.3397827;-0.77264404;-;-;-;-;-;-;-;-;-;-;-;-;-;-;-
1512471244218;-;-;8.600464;-0.8102417;-0.37521362;-;-;-;-;-;-;-;-;-;-;-;-;-;-;-
1512471244239;-;-;9.244507;-0.8748932;-1.0791016;-;-;-;-;-;-;-;-;-;-;-;-;-;-;-
1512471244259;-;-;9.473145;-0.14465332;-0.3189392;-;-;-;-;-;-;-;-;-;-;-;-;-;-;-
1512471244279;-;-;9.220566;-0.60913086;-0.44822693;-;-;-;-;-;-;-;-;-;-;-;-;-;-;-
1512471244299;-;-;9.149933;-0.2859192;-0.90312195;-;-;-;-;-;-;-;-;-;-;-;-;-;-;-
1512471244325;-;-;9.0972595;-0.24641418;-0.70321655;-;-;-;-;-;-;-;-;-;-;-;-;-;-;-
1512471244345;-;-;9.45639;-0.63427734;-0.6002655;-;-;-;-;-;-;-;-;-;-;-;-;-;-;-
1512471244365;-;-;9.444412;0.11152649;-0.5823059;-;-;-;-;-;-;-;-;-;-;-;-;-;-;-
1512471244386;-;-;9.443222;-0.210495;-0.43745422;-;-;-;-;-;-;-;-;-;-;-;-;-;-;-
1512471244405;-;-;9.505478;-0.6151123;-0.6613159;-;-;-;-;-;-;-;-;-;-;-;-;-;-;-
1512471244426;-;-;7.35907;-1.2316284;-1.6453247;-;-;-;-;-;-;-;-;-;-;-;-;-;-;-
1512471244446;-;-;10.276398;-0.38168335;-0.25190735;-;-;-;-;-;-;-;-;-;-;-;-;-;-;-
1512471244467;-;-;9.469559;-0.42358398;-0.7475128;-;-;-;-;-;-;-;-;-;-;-;-;-;-;-
1512471244487;-;-;9.360626;-0.39604187;-0.81573486;-;-;-;-;-;-;-;-;-;-;-;-;-;-;-
1512471244508;-;-;9.465973;-0.30148315;-0.8540497;-;-;-;-;-;-;-;-;-;-;-;-;-;-;-
1512471244527;-;-;8.918884;-0.55166626;-0.88157654;-;-;-;-;-;-;-;-;-;-;-;-;-;-;-
1512471244547;-;-;10.011841;-0.92996216;-0.8325043;-;-;-;-;-;-;-;-;-;-;-;-;-;-;-
1512471244568;-;-;9.014664;-0.32901;-0.5930786;-;-;-;-;-;-;-;-;-;-;-;-;-;-;-
1512471244588;-;-;8.938049;-0.3254242;-0.7187805;-;-;-;-;-;-;-;-;-;-;-;-;-;-;-
1512471244610;-;-;9.170288;-0.41281128;-0.7750397;-;-;-;-;-;-;-;-;-;-;-;-;-;-;-
1512471244630;-;-;9.189438;-0.44631958;-0.7451172;-;-;-;-;-;-;-;-;-;-;-;-;-;-;-
1512471244650;-;-;9.17627;-0.39245605;-0.748703;-;-;-;-;-;-;-;-;-;-;-;-;-;-;-
1512471244671;-;-;9.188232;-0.4152069;-0.66729736;-;-;-;-;-;-;-;-;-;-;-;-;-;-;-
1512471244691;-;-;8.885376;-0.48104858;-1.0144653;-;-;-;-;-;-;-;-;-;-;-;-;-;-;-
1512471244712;-;-;9.717361;-0.45710754;-1.1389618;-;-;-;-;-;-;-;-;-;-;-;-;-;-;-
1512471244732;-;-;9.571304;-0.581604;-0.70680237;-;-;-;-;-;-;-;-;-;-;-;-;-;-;-
1512471244752;-;-;9.015854;-0.56604004;-0.42189026;-;-;-;-;-;-;-;-;-;-;-;-;-;-;-
1512471244773;-;-;9.005081;-0.26675415;0.16827393;-;-;-;-;-;-;-;-;-;-;-;-;-;-;-
1512471244793;-;-;8.885376;-0.368515;-0.97735596;-;-;-;-;-;-;-;-;-;-;-;-;-;-;-
1512471244814;-;-;8.853058;-0.16859436;-0.372818;-;-;-;-;-;-;-;-;-;-;-;-;-;-;-
1512471244833;-;-;8.345474;-0.4559021;-0.90193176;-;-;-;-;-;-;-;-;-;-;-;-;-;-;-
1512471244854;-;-;9.318726;-0.5564575;-0.39675903;-;-;-;-;-;-;-;-;-;-;-;-;-;-;-
1512471244874;-;-;9.623978;-0.3074646;-0.65652466;-;-;-;-;-;-;-;-;-;-;-;-;-;-;-
1512471244895;-;-;8.714188;-0.09197998;-0.3249359;-;-;-;-;-;-;-;-;-;-;-;-;-;-;-
1512471244915;-;-;8.469971;-0.47625732;-0.29380798;-;-;-;-;-;-;-;-;-;-;-;-;-;-;-
1512471244936;-;-;9.522232;-0.700119;-0.8396759;-;-;-;-;-;-;-;-;-;-;-;-;-;-;-
1512471244956;-;-;10.586456;-0.4379425;-0.86242676;-;-;-;-;-;-;-;-;-;-;-;-;-;-;-
1512471244978;-;-;9.00029;-0.68455505;-1.5052643;-;-;-;-;-;-;-;-;-;-;-;-;-;-;-
1512471244997;-;-;9.565323;-0.45231628;-0.81933594;-;-;-;-;-;-;-;-;-;-;-;-;-;-;-
1512471245018;-;-;9.160706;-0.44273376;-0.1309967;-;-;-;-;-;-;-;-;-;-;-;-;-;-;-
1512471245037;-;-;9.260071;-0.17817688;-0.09867859;-;-;-;-;-;-;-;-;-;-;-;-;-;-;-
1512471245058;-;-;8.940445;-0.19013977;-0.36442566;-;-;-;-;-;-;-;-;-;-;-;-;-;-;-
1512471245078;-;-;9.521027;-0.60913086;-1.2179718;-;-;-;-;-;-;-;-;-;-;-;-;-;-;-
1512471245097;-;-;8.876999;-0.66539;-0.33091736;-;-;-;-;-;-;-;-;-;-;-;-;-;-;-
1512471245118;-;-;9.442017;-0.50138855;-1.1688843;-;-;-;-;-;-;-;-;-;-;-;-;-;-;-
1512471245137;-;-;10.12796;-0.38526917;-0.18606567;-;-;-;-;-;-;-;-;-;-;-;-;-;-;-
1512471245158;-;-;10.100433;-0.39245605;-0.3189392;-;-;-;-;-;-;-;-;-;-;-;-;-;-;-
1512471245179;-;-;7.699051;0.39523315;-1.4502106;-;-;-;-;-;-;-;-;-;-;-;-;-;-;-
1512471245199;-;-;9.248093;-0.03213501;0.053359985;-;-;-;-;-;-;-;-;-;-;-;-;-;-;-
1512471245219;-;-;8.344284;-0.04888916;-0.42907715;-;-;-;-;-;-;-;-;-;-;-;-;-;-;-
1512471245239;-;-;9.922058;-0.35653687;-0.8312988;-;-;-;-;-;-;-;-;-;-;-;-;-;-;-
1512471245260;-;-;9.273239;-0.24880981;-0.9474182;-;-;-;-;-;-;-;-;-;-;-;-;-;-;-
1512471245280;-;-;9.742493;0.04208374;-0.5679474;-;-;-;-;-;-;-;-;-;-;-;-;-;-;-
1512471245300;-;-;9.227737;-0.02973938;-0.4673767;-;-;-;-;-;-;-;-;-;-;-;-;-;-;-
1512471245321;-;-;7.7205963;0.14624023;-0.20402527;-;-;-;-;-;-;-;-;-;-;-;-;-;-;-
1512471245341;-;-;13.118317;0.23960876;0.33587646;-;-;-;-;-;-;-;-;-;-;-;-;-;-;-
1512471245362;-;-;7.3267517;0.05166626;0.6710663;-;-;-;-;-;-;-;-;-;-;-;-;-;-;-
1512471245381;-;-;7.4009705;-0.5720215;0.12637329;-;-;-;-;-;-;-;-;-;-;-;-;-;-;-
1512471245402;-;-;7.3063965;-0.07043457;-0.4338684;-;-;-;-;-;-;-;-;-;-;-;-;-;-;-
1512471245422;-;-;8.570541;-0.17936707;0.12757874;-;-;-;-;-;-;-;-;-;-;-;-;-;-;-
1512471245443;-;-;9.21817;-0.100372314;0.8913269;-;-;-;-;-;-;-;-;-;-;-;-;-;-;-
1512471245464;-;-;9.249298;-0.25120544;0.3789673;-;-;-;-;-;-;-;-;-;-;-;-;-;-;-
1512471245483;-;-;9.658707;-0.08241272;0.40290833;-;-;-;-;-;-;-;-;-;-;-;-;-;-;-
1512471245504;-;-;9.300766;-0.04888916;0.108428955;-;-;-;-;-;-;-;-;-;-;-;-;-;-;-
1512471245524;-;-;9.538986;0.06602478;0.0856781;-;-;-;-;-;-;-;-;-;-;-;-;-;-;-
1512471245545;-;-;9.862213;-0.018966675;-0.24711609;-;-;-;-;-;-;-;-;-;-;-;-;-;-;-
1512471245566;-;-;9.347458;-0.3182373;-0.6996155;-;-;-;-;-;-;-;-;-;-;-;-;-;-;-
1512471245586;-;-;8.430481;-0.38526917;-1.1988068;-;-;-;-;-;-;-;-;-;-;-;-;-;-;-
1512471245606;-;-;8.944031;-0.1817627;-0.8205261;-;-;-;-;-;-;-;-;-;-;-;-;-;-;-
1512471245626;-;-;9.364212;-0.25360107;-0.3656311;-;-;-;-;-;-;-;-;-;-;-;-;-;-;-
1512471245647;-;-;9.724533;-0.2715454;0.12757874;-;-;-;-;-;-;-;-;-;-;-;-;-;-;-
1512471245667;-;-;9.213379;0.18095398;-0.29380798;-;-;-;-;-;-;-;-;-;-;-;-;-;-;-
1512471245688;-;-;9.076904;-0.17338562;-0.56674194;-;-;-;-;-;-;-;-;-;-;-;-;-;-;-
1512471245708;-;-;9.23732;-0.54089355;-0.6625061;-;-;-;-;-;-;-;-;-;-;-;-;-;-;-
1512471245729;-;-;9.426468;-0.3577423;-0.4637909;-;-;-;-;-;-;-;-;-;-;-;-;-;-;-
1512471245749;-;-;9.430054;-0.21887207;-0.5523834;-;-;-;-;-;-;-;-;-;-;-;-;-;-;-
1512471245770;-;-;9.312744;-0.5528717;-0.3871765;-;-;-;-;-;-;-;-;-;-;-;-;-;-;-
1512471245790;-;-;9.346252;-0.39485168;-0.6625061;-;-;-;-;-;-;-;-;-;-;-;-;-;-;-
1512471245811;-;-;9.252884;-0.43554688;-0.39315796;-;-;-;-;-;-;-;-;-;-;-;-;-;-;-
1512471245830;-;-;9.037399;-0.5097656;-0.96058655;-;-;-;-;-;-;-;-;-;-;-;-;-;-;-
1512471245850;-;-;9.2313385;-0.4882202;-0.5021057;-;-;-;-;-;-;-;-;-;-;-;-;-;-;-
1512471245871;-;-;8.633987;-0.2799225;-0.3440857;-;-;-;-;-;-;-;-;-;-;-;-;-;-;-
1512471245891;-;-;9.307953;0.58078;-0.21958923;-;-;-;-;-;-;-;-;-;-;-;-;-;-;-
1512471245912;-;-;9.279221;0.03730774;0.66867065;-;-;-;-;-;-;-;-;-;-;-;-;-;-;-
1512471245933;-;-;9.044586;-0.66778564;0.51304626;-;-;-;-;-;-;-;-;-;-;-;-;-;-;-
1512471245953;-;-;8.666306;-0.52893066;0.38494873;-;-;-;-;-;-;-;-;-;-;-;-;-;-;-
1512471245973;-;-;8.88298;-0.6127167;0.49627686;-;-;-;-;-;-;-;-;-;-;-;-;-;-;-
1512471245994;-;-;8.712982;-0.15423584;0.350235;-;-;-;-;-;-;-;-;-;-;-;-;-;-;-
1512471246015;-;-;8.854248;-0.33499146;-0.6720886;-;-;-;-;-;-;-;-;-;-;-;-;-;-;-
1512471246035;-;-;9.523422;-0.34217834;2.7803497;-;-;-;-;-;-;-;-;-;-;-;-;-;-;-
1512471246055;-;-;9.6862335;-0.6187134;-3.3978882;-;-;-;-;-;-;-;-;-;-;-;-;-;-;-
1512471246076;-;-;10.612793;-0.61990356;-0.18367004;-;-;-;-;-;-;-;-;-;-;-;-;-;-;-
1512471246096;-;-;9.304352;-0.11831665;-0.33570862;-;-;-;-;-;-;-;-;-;-;-;-;-;-;-
1512471246117;-;-;9.085281;-0.22366333;-0.38957214;-;-;-;-;-;-;-;-;-;-;-;-;-;-;-
1512471246138;-;-;9.0972595;-0.2272644;-0.33210754;-;-;-;-;-;-;-;-;-;-;-;-;-;-;-
1512471246158;-;-;9.051773;-0.20809937;-0.27464294;-;-;-;-;-;-;-;-;-;-;-;-;-;-;-
1512471246179;-;-;9.130783;-0.24281311;-0.31414795;-;-;-;-;-;-;-;-;-;-;-;-;-;-;-
1512471246198;-;-;9.212173;-0.25598145;-0.35964966;-;-;-;-;-;-;-;-;-;-;-;-;-;-;-
1512471246219;-;-;9.226547;-0.21528625;-0.32133484;-;-;-;-;-;-;-;-;-;-;-;-;-;-;-
1512471246239;-;-;9.226547;-0.210495;-0.26986694;-;-;-;-;-;-;-;-;-;-;-;-;-;-;-
1512471246260;-;-;9.199005;-0.24043274;-0.32014465;-;-;-;-;-;-;-;-;-;-;-;-;-;-;-
1512471246280;-;-;9.214569;-0.30267334;-0.2962036;-;-;-;-;-;-;-;-;-;-;-;-;-;-;-
1512471246301;-;-;9.281616;-0.31225586;-0.3584442;-;-;-;-;-;-;-;-;-;-;-;-;-;-;-
1512471246321;-;-;9.272034;-0.3002777;-0.3764038;-;-;-;-;-;-;-;-;-;-;-;-;-;-;-
1512471246342;-;-;9.209793;-0.2799225;-0.3764038;-;-;-;-;-;-;-;-;-;-;-;-;-;-;-
1512471246362;-;-;9.182251;-0.24281311;-0.3476715;-;-;-;-;-;-;-;-;-;-;-;-;-;-;-
1512471246382;-;-;9.15831;-0.24043274;-0.2902069;-;-;-;-;-;-;-;-;-;-;-;-;-;-;-
1512471246402;-;-;9.127182;-0.30267334;-0.29260254;-;-;-;-;-;-;-;-;-;-;-;-;-;-;-
1512471246423;-;-;9.135559;-0.35295105;-0.31774902;-;-;-;-;-;-;-;-;-;-;-;-;-;-;-
1512471246443;-;-;9.205002;-0.3541565;-0.35365295;-;-;-;-;-;-;-;-;-;-;-;-;-;-;-
1512471246463;-;-;9.23613;-0.35055542;-0.43626404;-;-;-;-;-;-;-;-;-;-;-;-;-;-;-
1512471246484;-;-;9.230133;-0.33140564;-0.41471863;-;-;-;-;-;-;-;-;-;-;-;-;-;-;-
1512471246504;-;-;9.267242;-0.32421875;-0.44104004;-;-;-;-;-;-;-;-;-;-;-;-;-;-;-
1512471246524;-;-;9.23851;-0.29309082;-0.44343567;-;-;-;-;-;-;-;-;-;-;-;-;-;-;-
1512471246544;-;-;9.199005;-0.29190063;-0.44703674;-;-;-;-;-;-;-;-;-;-;-;-;-;-;-
1512471246565;-;-;9.188232;-0.31225586;-0.41351318;-;-;-;-;-;-;-;-;-;-;-;-;-;-;-
1512471246585;-;-;9.209793;-0.27514648;-0.44343567;-;-;-;-;-;-;-;-;-;-;-;-;-;-;-
1512471246606;-;-;9.13916;-0.30625916;-0.37879944;-;-;-;-;-;-;-;-;-;-;-;-;-;-;-
1512471246627;-;-;9.159515;-0.25958252;-0.37879944;-;-;-;-;-;-;-;-;-;-;-;-;-;-;-
1512471246646;-;-;9.189438;-0.26914978;-0.44224548;-;-;-;-;-;-;-;-;-;-;-;-;-;-;-
1512471246666;-;-;9.189438;-0.31225586;-0.4278717;-;-;-;-;-;-;-;-;-;-;-;-;-;-;-
1512471246686;-;-;9.123596;-0.3254242;-0.4733734;-;-;-;-;-;-;-;-;-;-;-;-;-;-;-
1512471246707;-;-;9.166687;-0.31704712;-0.42907715;-;-;-;-;-;-;-;-;-;-;-;-;-;-;-
1512471246727;-;-;9.251678;-0.23085022;-0.46139526;-;-;-;-;-;-;-;-;-;-;-;-;-;-;-
1512471246748;-;-;9.25528;-0.2859192;-0.5068817;-;-;-;-;-;-;-;-;-;-;-;-;-;-;-
1512471246768;-;-;9.279221;-0.33259583;-0.57751465;-;-;-;-;-;-;-;-;-;-;-;-;-;-;-
1512471246789;-;-;9.289993;-0.34217834;-0.5523834;-;-;-;-;-;-;-;-;-;-;-;-;-;-;-
1512471246809;-;-;9.25528;-0.35295105;-0.5834961;-;-;-;-;-;-;-;-;-;-;-;-;-;-;-
1512471246829;-;-;9.257675;-0.2966919;-0.6888428;-;-;-;-;-;-;-;-;-;-;-;-;-;-;-
1512471246850;-;-;9.348648;-0.26675415;-0.788208;-;-;-;-;-;-;-;-;-;-;-;-;-;-;-
1512471246870;-;-;9.269638;-0.18894958;-0.72595215;-;-;-;-;-;-;-;-;-;-;-;-;-;-;-
1512471246891;-;-;9.227737;-0.29190063;-0.590683;-;-;-;-;-;-;-;-;-;-;-;-;-;-;-
1512471246911;-;-;8.988327;-0.20930481;-0.5930786;-;-;-;-;-;-;-;-;-;-;-;-;-;-;-
1512471246932;-;-;8.963181;-0.09916687;-0.45780945;-;-;-;-;-;-;-;-;-;-;-;-;-;-;-
1512471246953;-;-;9.021835;-0.03213501;-0.3871765;-;-;-;-;-;-;-;-;-;-;-;-;-;-;-
1512471246973;-;-;8.997894;-0.02494812;-0.42070007;-;-;-;-;-;-;-;-;-;-;-;-;-;-;-
1512471246994;-;-;9.027832;0.0025787354;-0.44703674;-;-;-;-;-;-;-;-;-;-;-;-;-;-;-
1512471247014;-;-;9.261261;-0.015365601;-0.50927734;-;-;-;-;-;-;-;-;-;-;-;-;-;-;-
1512471247035;-;-;9.224152;-0.0728302;-0.7080078;-;-;-;-;-;-;-;-;-;-;-;-;-;-;-
1512471247055;-;-;9.3546295;-0.10874939;-0.7199707;-;-;-;-;-;-;-;-;-;-;-;-;-;-;-
1512471247076;-;-;9.385757;-0.08958435;-0.60743713;-;-;-;-;-;-;-;-;-;-;-;-;-;-;-
1512471247096;-;-;9.436035;-0.16859436;-0.6337738;-;-;-;-;-;-;-;-;-;-;-;-;-;-;-
1512471247117;-;-;9.287598;-0.13508606;-0.64216614;-;-;-;-;-;-;-;-;-;-;-;-;-;-;-
1512471247136;-;-;9.233734;-0.08958435;-0.56674194;-;-;-;-;-;-;-;-;-;-;-;-;-;-;-
1512471247157;-;-;9.216965;0.009765625;-0.6720886;-;-;-;-;-;-;-;-;-;-;-;-;-;-;-
1512471247176;-;-;9.250488;0.100753784;-0.6661072;-;-;-;-;-;-;-;-;-;-;-;-;-;-;-
1512471247197;-;-;9.109222;0.13665771;-0.6792755;-;-;-;-;-;-;-;-;-;-;-;-;-;-;-
1512471247218;-;-;8.946426;0.069625854;-0.5416107;-;-;-;-;-;-;-;-;-;-;-;-;-;-;-
1512471247238;-;-;9.011063;0.05885315;-0.5404053;-;-;-;-;-;-;-;-;-;-;-;-;-;-;-
1512471247258;-;-;8.971558;0.07321167;-0.52723694;-;-;-;-;-;-;-;-;-;-;-;-;-;-;-
1512471247278;-;-;9.036209;0.01574707;-0.5715332;-;-;-;-;-;-;-;-;-;-;-;-;-;-;-
1512471247299;-;-;8.942825;-0.011779785;-0.62060547;-;-;-;-;-;-;-;-;-;-;-;-;-;-;-
1512471247319;-;-;8.989517;-0.03213501;-0.60983276;-;-;-;-;-;-;-;-;-;-;-;-;-;-;-
1512471247340;-;-;9.049377;0.016952515;-0.61582947;-;-;-;-;-;-;-;-;-;-;-;-;-;-;-
1512471247360;-;-;9.106842;0.13186646;-0.63856506;-;-;-;-;-;-;-;-;-;-;-;-;-;-;-
1512471247380;-;-;9.007477;0.13786316;-0.64575195;-;-;-;-;-;-;-;-;-;-;-;-;-;-;-
1512471247401;-;-;8.966782;0.17855835;-0.65652466;-;-;-;-;-;-;-;-;-;-;-;-;-;-;-
1512471247421;-;-;9.0182495;0.13786316;-0.6792755;-;-;-;-;-;-;-;-;-;-;-;-;-;-;-
1512471247442;-;-;8.927277;0.14743042;-0.7391205;-;-;-;-;-;-;-;-;-;-;-;-;-;-;-
1512471247461;-;-;8.972763;0.045684814;-0.827713;-;-;-;-;-;-;-;-;-;-;-;-;-;-;-
1512471247482;-;-;9.131973;-0.07043457;-0.8097534;-;-;-;-;-;-;-;-;-;-;-;-;-;-;-
1512471247503;-;-;9.182251;-0.090789795;-0.946228;-;-;-;-;-;-;-;-;-;-;-;-;-;-;-
1512471247523;-;-;9.358231;-0.109939575;-1.040802;-;-;-;-;-;-;-;-;-;-;-;-;-;-;-
1512471247544;-;-;9.455185;-0.059661865;-1.0683289;-;-;-;-;-;-;-;-;-;-;-;-;-;-;-
1512471247564;-;-;9.628769;0.093566895;-1.0922699;-;-;-;-;-;-;-;-;-;-;-;-;-;-;-
1512471247585;-;-;9.704193;0.19651794;-1.2478943;-;-;-;-;-;-;-;-;-;-;-;-;-;-;-
1512471247606;-;-;9.631165;0.21566772;-1.2802124;-;-;-;-;-;-;-;-;-;-;-;-;-;-;-
1512471247626;-;-;9.418076;0.088775635;-1.1210022;-;-;-;-;-;-;-;-;-;-;-;-;-;-;-
1512471247646;-;-;9.249298;0.026535034;-1.0443878;-;-;-;-;-;-;-;-;-;-;-;-;-;-;-
1512471247667;-;-;9.195419;0.0025787354;-0.90193176;-;-;-;-;-;-;-;-;-;-;-;-;-;-;-
1512471247688;-;-;9.181061;-0.021362305;-0.8312988;-;-;-;-;-;-;-;-;-;-;-;-;-;-;-
1512471247707;-;-;9.164291;-0.012969971;-0.7570801;-;-;-;-;-;-;-;-;-;-;-;-;-;-;-
1512471247728;-;-;9.074509;0.06602478;-0.748703;-;-;-;-;-;-;-;-;-;-;-;-;-;-;-
1512471247749;-;-;9.108032;0.02053833;-0.6266022;-;-;-;-;-;-;-;-;-;-;-;-;-;-;-
1512471247769;-;-;9.170288;-0.03691101;-0.5930786;-;-;-;-;-;-;-;-;-;-;-;-;-;-;-
1512471247789;-;-;9.25647;-0.08001709;-0.511673;-;-;-;-;-;-;-;-;-;-;-;-;-;-;-
1512471247810;-;-;9.096069;-0.035720825;-0.63856506;-;-;-;-;-;-;-;-;-;-;-;-;-;-;-
1512471247830;-;-;9.208588;-0.04170227;-0.68644714;-;-;-;-;-;-;-;-;-;-;-;-;-;-;-
1512471247851;-;-;9.246902;0.03012085;-0.7738342;-;-;-;-;-;-;-;-;-;-;-;-;-;-;-
1512471247871;-;-;9.1918335;0.08279419;-0.73672485;-;-;-;-;-;-;-;-;-;-;-;-;-;-;-
1512471247892;-;-;9.155914;0.1845398;-0.7187805;-;-;-;-;-;-;-;-;-;-;-;-;-;-;-
1512471247912;-;-;9.187042;0.20729065;-0.81095886;-;-;-;-;-;-;-;-;-;-;-;-;-;-;-
1512471247932;-;-;9.224152;0.21566772;-0.88757324;-;-;-;-;-;-;-;-;-;-;-;-;-;-;-
1512471247952;-;-;9.243301;0.18814087;-0.8720093;-;-;-;-;-;-;-;-;-;-;-;-;-;-;-
1512471247973;-;-;9.214569;0.20370483;-0.7965851;-;-;-;-;-;-;-;-;-;-;-;-;-;-;-
1512471247993;-;-;9.248093;0.14982605;-0.80856323;-;-;-;-;-;-;-;-;-;-;-;-;-;-;-
1512471248014;-;-;9.2313385;0.07321167;-0.78341675;-;-;-;-;-;-;-;-;-;-;-;-;-;-;-
1512471248034;-;-;9.17746;0.060043335;-0.83010864;-;-;-;-;-;-;-;-;-;-;-;-;-;-;-
1512471248055;-;-;9.23851;0.050476074;-0.79418945;-;-;-;-;-;-;-;-;-;-;-;-;-;-;-
1512471248075;-;-;9.200211;-0.02015686;-0.79060364;-;-;-;-;-;-;-;-;-;-;-;-;-;-;-
1512471248095;-;-;9.130783;-0.059661865;-0.8025665;-;-;-;-;-;-;-;-;-;-;-;-;-;-;-
1512471248116;-;-;9.090073;-0.107543945;-0.7846222;-;-;-;-;-;-;-;-;-;-;-;-;-;-;-
1512471248138;-;-;9.081696;-0.06086731;-0.6768799;-;-;-;-;-;-;-;-;-;-;-;-;-;-;-
1512471248159;-;-;9.248093;-0.062057495;-0.7786255;-;-;-;-;-;-;-;-;-;-;-;-;-;-;-
1512471248178;-;-;9.230133;-0.08001709;-0.8348999;-;-;-;-;-;-;-;-;-;-;-;-;-;-;-
1512471248198;-;-;9.15831;-0.052474976;-0.77983093;-;-;-;-;-;-;-;-;-;-;-;-;-;-;-
1512471248219;-;-;9.122391;-0.06564331;-0.7738342;-;-;-;-;-;-;-;-;-;-;-;-;-;-;-
1512471248240;-;-;9.136765;-0.030929565;-0.81573486;-;-;-;-;-;-;-;-;-;-;-;-;-;-;-
1512471248260;-;-;9.141556;-0.00819397;-0.7690582;-;-;-;-;-;-;-;-;-;-;-;-;-;-;-
1512471248281;-;-;9.108032;0.008575439;-0.788208;-;-;-;-;-;-;-;-;-;-;-;-;-;-;-
1512471248300;-;-;9.160706;0.050476074;-0.85284424;-;-;-;-;-;-;-;-;-;-;-;-;-;-;-
1512471248321;-;-;9.172684;0.04447937;-0.86361694;-;-;-;-;-;-;-;-;-;-;-;-;-;-;-
1512471248341;-;-;9.166687;0.06124878;-0.89115906;-;-;-;-;-;-;-;-;-;-;-;-;-;-;-
1512471248363;-;-;9.164291;0.03970337;-0.82173157;-;-;-;-;-;-;-;-;-;-;-;-;-;-;-
1512471248383;-;-;9.092468;0.028915405;-0.85884094;-;-;-;-;-;-;-;-;-;-;-;-;-;-;-
1512471248404;-;-;9.106842;0.09475708;-0.906723;-;-;-;-;-;-;-;-;-;-;-;-;-;-;-
1512471248424;-;-;9.104446;0.08998108;-0.8312988;-;-;-;-;-;-;-;-;-;-;-;-;-;-;-
1512471248444;-;-;9.093674;0.10913086;-0.8504486;-;-;-;-;-;-;-;-;-;-;-;-;-;-;-
1512471248465;-;-;9.0577545;0.16539001;-0.81214905;-;-;-;-;-;-;-;-;-;-;-;-;-;-;-
1512471248486;-;-;9.055359;0.2013092;-0.86961365;-;-;-;-;-;-;-;-;-;-;-;-;-;-;-
1512471248506;-;-;9.096069;0.22525024;-0.9007416;-;-;-;-;-;-;-;-;-;-;-;-;-;-;-
1512471248527;-;-;9.135559;0.19651794;-0.9007416;-;-;-;-;-;-;-;-;-;-;-;-;-;-;-
1512471248548;-;-;9.175064;0.2707367;-0.94262695;-;-;-;-;-;-;-;-;-;-;-;-;-;-;-
1512471248569;-;-;9.178665;0.29707336;-0.91989136;-;-;-;-;-;-;-;-;-;-;-;-;-;-;-
1512471248591;-;-;9.135559;0.29348755;-0.97854614;-;-;-;-;-;-;-;-;-;-;-;-;-;-;-
1512471248611;-;-;9.163101;0.30065918;-0.9546051;-;-;-;-;-;-;-;-;-;-;-;-;-;-;-
1512471248632;-;-;9.159515;0.30545044;-0.9653778;-;-;-;-;-;-;-;-;-;-;-;-;-;-;-
1512471248652;-;-;9.105637;0.3030548;-0.97854614;-;-;-;-;-;-;-;-;-;-;-;-;-;-;-
1512471248673;-;-;9.122391;0.24679565;-1.0072784;-;-;-;-;-;-;-;-;-;-;-;-;-;-;-
1512471248693;-;-;9.096069;0.21566772;-0.9522095;-;-;-;-;-;-;-;-;-;-;-;-;-;-;-
1512471248714;-;-;9.178665;0.25517273;-0.9641876;-;-;-;-;-;-;-;-;-;-;-;-;-;-;-
1512471248734;-;-;9.170288;0.26594543;-1.0120697;-;-;-;-;-;-;-;-;-;-;-;-;-;-;-
1512471248755;-;-;9.187042;0.22644043;-1.0288239;-;-;-;-;-;-;-;-;-;-;-;-;-;-;-
1512471248775;-;-;9.220566;0.17376709;-1.0491791;-;-;-;-;-;-;-;-;-;-;-;-;-;-;-
1512471248796;-;-;9.1918335;0.21447754;-1.0587463;-;-;-;-;-;-;-;-;-;-;-;-;-;-;-
1512471248816;-;-;9.190628;0.20610046;-1.064743;-;-;-;-;-;-;-;-;-;-;-;-;-;-;-
1512471248836;-;-;9.136765;0.21447754;-1.0515747;-;-;-;-;-;-;-;-;-;-;-;-;-;-;-
1512471248857;-;-;9.210983;0.18334961;-1.0767059;-;-;-;-;-;-;-;-;-;-;-;-;-;-;-
1512471248877;-;-;9.142746;0.12948608;-1.1593018;-;-;-;-;-;-;-;-;-;-;-;-;-;-;-
1512471248897;-;-;9.167892;0.2132721;-1.100647;-;-;-;-;-;-;-;-;-;-;-;-;-;-;-
1512471248918;-;-;9.154724;0.25637817;-1.0599518;-;-;-;-;-;-;-;-;-;-;-;-;-;-;-
1512471248939;-;-;9.15712;0.27192688;-1.0970612;-;-;-;-;-;-;-;-;-;-;-;-;-;-;-
1512471248959;-;-;9.09845;0.22883606;-1.0994568;-;-;-;-;-;-;-;-;-;-;-;-;-;-;-
1512471248979;-;-;9.067337;0.19651794;-1.0719147;-;-;-;-;-;-;-;-;-;-;-;-;-;-;-
1512471249000;-;-;9.148727;0.19891357;-1.0348053;-;-;-;-;-;-;-;-;-;-;-;-;-;-;-
1512471249020;-;-;9.137955;0.2132721;-1.0072784;-;-;-;-;-;-;-;-;-;-;-;-;-;-;-
1512471249040;-;-;9.0733185;0.19293213;-1.0000916;-;-;-;-;-;-;-;-;-;-;-;-;-;-;-
1512471249061;-;-;9.081696;0.22045898;-1.001297;-;-;-;-;-;-;-;-;-;-;-;-;-;-;-
1512471249081;-;-;9.104446;0.17137146;-0.9450226;-;-;-;-;-;-;-;-;-;-;-;-;-;-;-
1512471249102;-;-;9.066132;0.1905365;-1.0192413;-;-;-;-;-;-;-;-;-;-;-;-;-;-;-
1512471249122;-;-;9.110428;0.16659546;-0.9833374;-;-;-;-;-;-;-;-;-;-;-;-;-;-;-
1512471249143;-;-;9.102051;0.20010376;-1.0467834;-;-;-;-;-;-;-;-;-;-;-;-;-;-;-
1512471249163;-;-;9.172684;0.2192688;-1.0168457;-;-;-;-;-;-;-;-;-;-;-;-;-;-;-
1512471249184;-;-;9.181061;0.20848083;-1.064743;-;-;-;-;-;-;-;-;-;-;-;-;-;-;-
1512471249204;-;-;9.178665;0.21087646;-1.0838928;-;-;-;-;-;-;-;-;-;-;-;-;-;-;-
1512471249225;-;-;9.141556;0.22764587;-1.0671387;-;-;-;-;-;-;-;-;-;-;-;-;-;-;-
1512471249244;-;-;9.1128235;0.18214417;-1.0791016;-;-;-;-;-;-;-;-;-;-;-;-;-;-;-
1512471249265;-;-;9.084091;0.21087646;-1.006073;-;-;-;-;-;-;-;-;-;-;-;-;-;-;-
1512471249284;-;-;9.17746;0.14982605;-1.045578;-;-;-;-;-;-;-;-;-;-;-;-;-;-;-
1512471249304;-;-;9.143951;0.15940857;-1.045578;-;-;-;-;-;-;-;-;-;-;-;-;-;-;-
1512471249325;-;-;9.17746;0.15820313;-0.9953003;-;-;-;-;-;-;-;-;-;-;-;-;-;-;-
1512471249345;-;-;9.164291;0.16778564;-1.0036774;-;-;-;-;-;-;-;-;-;-;-;-;-;-;-
1512471249366;-;-;9.175064;0.086380005;-1.0419922;-;-;-;-;-;-;-;-;-;-;-;-;-;-;-
1512471249386;-;-;9.15831;0.11631775;-1.021637;-;-;-;-;-;-;-;-;-;-;-;-;-;-;-
1512471249407;-;-;9.070923;0.110321045;-0.99290466;-;-;-;-;-;-;-;-;-;-;-;-;-;-;-
1512471249428;-;-;9.183456;0.10673523;-0.9186859;-;-;-;-;-;-;-;-;-;-;-;-;-;-;-
1512471249448;-;-;9.175064;0.1905365;-0.9749603;-;-;-;-;-;-;-;-;-;-;-;-;-;-;-
1512471249468;-;-;9.251678;0.3138275;-0.9294586;-;-;-;-;-;-;-;-;-;-;-;-;-;-;-
1512471249488;-;-;9.228943;0.18095398;-1.0132599;-;-;-;-;-;-;-;-;-;-;-;-;-;-;-
1512471249509;-;-;9.13916;0.06364441;-1.0575562;-;-;-;-;-;-;-;-;-;-;-;-;-;-;-
1512471249530;-;-;9.092468;0.014556885;-0.9354553;-;-;-;-;-;-;-;-;-;-;-;-;-;-;-
1512471249549;-;-;9.029022;0.040893555;-0.90911865;-;-;-;-;-;-;-;-;-;-;-;-;-;-;-
1512471249570;-;-;9.092468;0.019348145;-1.0096741;-;-;-;-;-;-;-;-;-;-;-;-;-;-;-
1512471249590;-;-;9.099655;0.08998108;-0.96777344;-;-;-;-;-;-;-;-;-;-;-;-;-;-;-
1512471249611;-;-;9.087677;0.20848083;-0.98812866;-;-;-;-;-;-;-;-;-;-;-;-;-;-;-
1512471249632;-;-;9.116409;0.30903625;-0.78700256;-;-;-;-;-;-;-;-;-;-;-;-;-;-;-
1512471249652;-;-;9.245697;0.19891357;-0.7163849;-;-;-;-;-;-;-;-;-;-;-;-;-;-;-
1512471249673;-;-;9.446808;-0.02494812;-0.9174957;-;-;-;-;-;-;-;-;-;-;-;-;-;-;-
1512471249693;-;-;9.47435;-0.15542603;-1.0372009;-;-;-;-;-;-;-;-;-;-;-;-;-;-;-
1512471249714;-;-;9.23613;-0.078811646;-0.93066406;-;-;-;-;-;-;-;-;-;-;-;-;-;-;-
1512471249734;-;-;9.115219;0.076812744;-0.81333923;-;-;-;-;-;-;-;-;-;-;-;-;-;-;-
1512471249754;-;-;9.048172;0.10913086;-0.7810211;-;-;-;-;-;-;-;-;-;-;-;-;-;-;-
1512471249775;-;-;9.020645;0.14144897;-0.76426697;-;-;-;-;-;-;-;-;-;-;-;-;-;-;-
1512471249795;-;-;9.15712;0.112716675;-0.7391205;-;-;-;-;-;-;-;-;-;-;-;-;-;-;-
1512471249818;-;-;9.197815;0.079193115;-0.7283478;-;-;-;-;-;-;-;-;-;-;-;-;-;-;-
1512471249836;-;-;9.201401;-0.00340271;-0.803772;-;-;-;-;-;-;-;-;-;-;-;-;-;-;-
1512471249857;-;-;9.160706;-0.04170227;-0.80137634;-;-;-;-;-;-;-;-;-;-;-;-;-;-;-
1512471249877;-;-;9.137955;-0.014175415;-0.7283478;-;-;-;-;-;-;-;-;-;-;-;-;-;-;-
1512471249898;-;-;9.091278;-0.02973938;-0.709198;-;-;-;-;-;-;-;-;-;-;-;-;-;-;-
1512471249918;-;-;9.160706;-0.00579834;-0.70440674;-;-;-;-;-;-;-;-;-;-;-;-;-;-;-
1512471249939;-;-;9.197815;-0.13508606;-0.7103882;-;-;-;-;-;-;-;-;-;-;-;-;-;-;-
1512471249959;-;-;9.197815;-0.13748169;-0.81933594;-;-;-;-;-;-;-;-;-;-;-;-;-;-;-
1512471249979;-;-;9.202606;-0.119522095;-0.78222656;-;-;-;-;-;-;-;-;-;-;-;-;-;-;-
1512471250000;-;-;9.252884;-0.112335205;-0.77983093;-;-;-;-;-;-;-;-;-;-;-;-;-;-;-
1512471250020;-;-;9.226547;-0.08480835;-0.7738342;-;-;-;-;-;-;-;-;-;-;-;-;-;-;-
1512471250041;-;-;9.276825;-0.07762146;-0.8348999;-;-;-;-;-;-;-;-;-;-;-;-;-;-;-
1512471250061;-;-;9.251678;-0.10635376;-0.803772;-;-;-;-;-;-;-;-;-;-;-;-;-;-;-
1512471250082;-;-;9.23851;-0.0728302;-0.77983093;-;-;-;-;-;-;-;-;-;-;-;-;-;-;-
1512471250102;-;-;9.182251;-0.085998535;-0.80856323;-;-;-;-;-;-;-;-;-;-;-;-;-;-;-
1512471250122;-;-;9.153519;-0.03930664;-0.76187134;-;-;-;-;-;-;-;-;-;-;-;-;-;-;-
1512471250142;-;-;9.155914;-0.03213501;-0.7522888;-;-;-;-;-;-;-;-;-;-;-;-;-;-;-
1512471250163;-;-;9.210983;-0.07522583;-0.8001709;-;-;-;-;-;-;-;-;-;-;-;-;-;-;-
1512471250183;-;-;9.183456;-0.05847168;-0.81933594;-;-;-;-;-;-;-;-;-;-;-;-;-;-;-
1512471250204;-;-;9.147537;0.0181427;-0.81214905;-;-;-;-;-;-;-;-;-;-;-;-;-;-;-
1512471250225;-;-;9.183456;1.9836426E-4;-0.79060364;-;-;-;-;-;-;-;-;-;-;-;-;-;-;-
1512471250244;-;-;9.167892;0.076812744;-0.7403259;-;-;-;-;-;-;-;-;-;-;-;-;-;-;-
1512471250265;-;-;9.205002;0.124694824;-0.7594757;-;-;-;-;-;-;-;-;-;-;-;-;-;-;-
1512471250284;-;-;9.201401;0.107925415;-0.7702484;-;-;-;-;-;-;-;-;-;-;-;-;-;-;-
1512471250305;-;-;9.153519;0.081588745;-0.8241272;-;-;-;-;-;-;-;-;-;-;-;-;-;-;-
1512471250324;-;-;9.080505;0.014556885;-0.7846222;-;-;-;-;-;-;-;-;-;-;-;-;-;-;-
1512471250344;-;-;9.064941;0.040893555;-0.7977905;-;-;-;-;-;-;-;-;-;-;-;-;-;-;-
1512471250365;-;-;9.055359;0.013366699;-0.8289032;-;-;-;-;-;-;-;-;-;-;-;-;-;-;-
1512471250386;-;-;9.111618;-0.030929565;-0.8181305;-;-;-;-;-;-;-;-;-;-;-;-;-;-;-
1512471250405;-;-;9.085281;0.0013885498;-0.88157654;-;-;-;-;-;-;-;-;-;-;-;-;-;-;-
1512471250426;-;-;9.121201;0.05885315;-0.8504486;-;-;-;-;-;-;-;-;-;-;-;-;-;-;-
1512471250446;-;-;9.135559;0.064834595;-0.8971405;-;-;-;-;-;-;-;-;-;-;-;-;-;-;-
1512471250466;-;-;9.117615;0.045684814;-0.9629822;-;-;-;-;-;-;-;-;-;-;-;-;-;-;-
1512471250487;-;-;9.128387;0.05406189;-1.0048828;-;-;-;-;-;-;-;-;-;-;-;-;-;-;-
1512471250507;-;-;9.169083;0.045684814;-0.961792;-;-;-;-;-;-;-;-;-;-;-;-;-;-;-
1512471250528;-;-;9.193024;0.1043396;-1.030014;-;-;-;-;-;-;-;-;-;-;-;-;-;-;-
1512471250547;-;-;9.169083;0.08279419;-1.0048828;-;-;-;-;-;-;-;-;-;-;-;-;-;-;-
1512471250568;-;-;9.160706;0.098358154;-1.0779114;-;-;-;-;-;-;-;-;-;-;-;-;-;-;-
1512471250589;-;-;9.169083;0.18933105;-1.0946655;-;-;-;-;-;-;-;-;-;-;-;-;-;-;-
1512471250609;-;-;9.114014;0.15461731;-1.0551605;-;-;-;-;-;-;-;-;-;-;-;-;-;-;-
1512471250629;-;-;9.143951;0.16059875;-1.0276337;-;-;-;-;-;-;-;-;-;-;-;-;-;-;-
1512471250649;-;-;9.154724;0.10913086;-1.0767059;-;-;-;-;-;-;-;-;-;-;-;-;-;-;-
1512471250670;-;-;9.128387;0.1510315;-1.0755157;-;-;-;-;-;-;-;-;-;-;-;-;-;-;-
1512471250691;-;-;9.141556;0.122299194;-1.0671387;-;-;-;-;-;-;-;-;-;-;-;-;-;-;-
1512471250711;-;-;9.145142;0.08518982;-1.0240326;-;-;-;-;-;-;-;-;-;-;-;-;-;-;-
1512471250731;-;-;9.137955;0.095962524;-1.0743103;-;-;-;-;-;-;-;-;-;-;-;-;-;-;-
1512471250752;-;-;9.147537;0.09236145;-1.0084686;-;-;-;-;-;-;-;-;-;-;-;-;-;-;-
1512471250771;-;-;9.161896;0.100753784;-0.9905243;-;-;-;-;-;-;-;-;-;-;-;-;-;-;-
1512471250792;-;-;9.134369;0.052871704;-0.98573303;-;-;-;-;-;-;-;-;-;-;-;-;-;-;-
1512471250812;-;-;9.123596;0.10673523;-0.92108154;-;-;-;-;-;-;-;-;-;-;-;-;-;-;-
1512471250833;-;-;9.12001;0.09236145;-0.8468628;-;-;-;-;-;-;-;-;-;-;-;-;-;-;-
1512471250853;-;-;9.172684;0.10673523;-0.89953613;-;-;-;-;-;-;-;-;-;-;-;-;-;-;-
1512471250873;-;-;9.200211;0.103149414;-0.89234924;-;-;-;-;-;-;-;-;-;-;-;-;-;-;-
1512471250894;-;-;9.190628;0.124694824;-0.86361694;-;-;-;-;-;-;-;-;-;-;-;-;-;-;-
1512471250914;-;-;9.137955;0.08758545;-0.88757324;-;-;-;-;-;-;-;-;-;-;-;-;-;-;-
1512471250935;-;-;9.117615;0.11152649;-0.8887634;-;-;-;-;-;-;-;-;-;-;-;-;-;-;-
1512471250955;-;-;9.093674;0.1043396;-0.882782;-;-;-;-;-;-;-;-;-;-;-;-;-;-;-
1512471250976;-;-;9.182251;0.14503479;-0.8755951;-;-;-;-;-;-;-;-;-;-;-;-;-;-;-
1512471250997;-;-;9.228943;0.12828064;-0.8744049;-;-;-;-;-;-;-;-;-;-;-;-;-;-;-
1512471251016;-;-;9.169083;0.05885315;-0.8468628;-;-;-;-;-;-;-;-;-;-;-;-;-;-;-
1512471251037;-;-;9.155914;0.026535034;-0.7858124;-;-;-;-;-;-;-;-;-;-;-;-;-;-;-
1512471251057;-;-;9.190628;0.045684814;-0.748703;-;-;-;-;-;-;-;-;-;-;-;-;-;-;-
1512471251078;-;-;9.215775;0.02053833;-0.748703;-;-;-;-;-;-;-;-;-;-;-;-;-;-;-
1512471251098;-;-;9.210983;0.013366699;-0.7463074;-;-;-;-;-;-;-;-;-;-;-;-;-;-;-
1512471251118;-;-;9.215775;-0.05847168;-0.76187134;-;-;-;-;-;-;-;-;-;-;-;-;-;-;-
1512471251139;-;-;9.207397;-0.02015686;-0.7738342;-;-;-;-;-;-;-;-;-;-;-;-;-;-;-
1512471251160;-;-;9.179855;0.010971069;-0.73313904;-;-;-;-;-;-;-;-;-;-;-;-;-;-;-
1512471251180;-;-;9.179855;0.03251648;-0.77622986;-;-;-;-;-;-;-;-;-;-;-;-;-;-;-
1512471251200;-;-;9.202606;0.02532959;-0.73672485;-;-;-;-;-;-;-;-;-;-;-;-;-;-;-
1512471251221;-;-;9.184647;0.06842041;-0.7558899;-;-;-;-;-;-;-;-;-;-;-;-;-;-;-
1512471251242;-;-;9.197815;0.02532959;-0.7702484;-;-;-;-;-;-;-;-;-;-;-;-;-;-;-
1512471251262;-;-;9.149933;0.04927063;-0.748703;-;-;-;-;-;-;-;-;-;-;-;-;-;-;-
1512471251283;-;-;9.076904;0.091171265;-0.7199707;-;-;-;-;-;-;-;-;-;-;-;-;-;-;-
1512471251302;-;-;9.102051;0.10194397;-0.6768799;-;-;-;-;-;-;-;-;-;-;-;-;-;-;-
1512471251323;-;-;9.081696;0.055252075;-0.68644714;-;-;-;-;-;-;-;-;-;-;-;-;-;-;-
1512471251343;-;-;9.155914;0.013366699;-0.6888428;-;-;-;-;-;-;-;-;-;-;-;-;-;-;-
1512471251363;-;-;9.166687;0.02532959;-0.7163849;-;-;-;-;-;-;-;-;-;-;-;-;-;-;-
1512471251384;-;-;9.185837;0.0025787354;-0.7008209;-;-;-;-;-;-;-;-;-;-;-;-;-;-;-
1512471251405;-;-;9.209793;0.050476074;-0.6888428;-;-;-;-;-;-;-;-;-;-;-;-;-;-;-
1512471251425;-;-;9.187042;0.07081604;-0.6996155;-;-;-;-;-;-;-;-;-;-;-;-;-;-;-
1512471251445;-;-;9.141556;0.02772522;-0.7163849;-;-;-;-;-;-;-;-;-;-;-;-;-;-;-
1512471251466;-;-;9.169083;0.060043335;-0.6996155;-;-;-;-;-;-;-;-;-;-;-;-;-;-;-
1512471251486;-;-;9.209793;0.05166626;-0.69721985;-;-;-;-;-;-;-;-;-;-;-;-;-;-;-
1512471251507;-;-;9.216965;0.093566895;-0.709198;-;-;-;-;-;-;-;-;-;-;-;-;-;-;-
1512471251528;-;-;9.212173;0.09475708;-0.6984253;-;-;-;-;-;-;-;-;-;-;-;-;-;-;-
1512471251548;-;-;9.23851;0.067230225;-0.6984253;-;-;-;-;-;-;-;-;-;-;-;-;-;-;-
1512471251568;-;-;9.15712;0.05406189;-0.70321655;-;-;-;-;-;-;-;-;-;-;-;-;-;-;-
1512471251589;-;-;9.170288;0.05166626;-0.72117615;-;-;-;-;-;-;-;-;-;-;-;-;-;-;-
1512471251609;-;-;9.166687;0.06602478;-0.71517944;-;-;-;-;-;-;-;-;-;-;-;-;-;-;-
1512471251630;-;-;9.172684;0.057647705;-0.7020111;-;-;-;-;-;-;-;-;-;-;-;-;-;-;-
1512471251651;-;-;9.166687;0.05166626;-0.6768799;-;-;-;-;-;-;-;-;-;-;-;-;-;-;-
1512471251671;-;-;9.102051;0.040893555;-0.6732788;-;-;-;-;-;-;-;-;-;-;-;-;-;-;-
1512471251692;-;-;9.117615;0.05885315;-0.6888428;-;-;-;-;-;-;-;-;-;-;-;-;-;-;-
1512471251712;-;-;9.193024;0.09475708;-0.69721985;-;-;-;-;-;-;-;-;-;-;-;-;-;-;-
1512471251732;-;-;9.069733;0.08039856;-0.79299927;-;-;-;-;-;-;-;-;-;-;-;-;-;-;-
1512471251752;-;-;9.234924;0.01574707;-0.7187805;-;-;-;-;-;-;-;-;-;-;-;-;-;-;-
1512471251773;-;-;9.15712;0.019348145;-0.7295532;-;-;-;-;-;-;-;-;-;-;-;-;-;-;-
1512471251793;-;-;9.149933;0.0061798096;-0.73672485;-;-;-;-;-;-;-;-;-;-;-;-;-;-;-
1512471251814;-;-;9.145142;0.0181427;-0.77264404;-;-;-;-;-;-;-;-;-;-;-;-;-;-;-
1512471251835;-;-;9.181061;0.014556885;-0.77264404;-;-;-;-;-;-;-;-;-;-;-;-;-;-;-
1512471251855;-;-;9.193024;0.07321167;-0.78341675;-;-;-;-;-;-;-;-;-;-;-;-;-;-;-
1512471251876;-;-;9.202606;0.083984375;-0.82292175;-;-;-;-;-;-;-;-;-;-;-;-;-;-;-
1512471251896;-;-;9.195419;0.100753784;-0.8169403;-;-;-;-;-;-;-;-;-;-;-;-;-;-;-
1512471251917;-;-;9.128387;0.057647705;-0.8504486;-;-;-;-;-;-;-;-;-;-;-;-;-;-;-
1512471251937;-;-;9.164291;0.050476074;-0.8684082;-;-;-;-;-;-;-;-;-;-;-;-;-;-;-
1512471251958;-;-;9.169083;0.05166626;-0.8648224;-;-;-;-;-;-;-;-;-;-;-;-;-;-;-
1512471251978;-;-;9.145142;0.08518982;-0.9043274;-;-;-;-;-;-;-;-;-;-;-;-;-;-;-
1512471251998;-;-;9.143951;0.060043335;-0.8564453;-;-;-;-;-;-;-;-;-;-;-;-;-;-;-
1512471252017;-;-;9.130783;0.014556885;-0.8767853;-;-;-;-;-;-;-;-;-;-;-;-;-;-;-
1512471252038;-;-;9.149933;0.0037841797;-0.8097534;-;-;-;-;-;-;-;-;-;-;-;-;-;-;-
1512471252057;-;-;9.166687;0.02293396;-0.8600311;-;-;-;-;-;-;-;-;-;-;-;-;-;-;-
1512471252078;-;-;9.149933;0.0181427;-0.8360901;-;-;-;-;-;-;-;-;-;-;-;-;-;-;-
1512471252098;-;-;9.188232;0.040893555;-0.88397217;-;-;-;-;-;-;-;-;-;-;-;-;-;-;-
1512471252119;-;-;9.220566;0.038497925;-0.9258728;-;-;-;-;-;-;-;-;-;-;-;-;-;-;-
1512471252139;-;-;9.169083;0.05645752;-0.9510193;-;-;-;-;-;-;-;-;-;-;-;-;-;-;-
1512471252160;-;-;9.116409;0.02293396;-0.8744049;-;-;-;-;-;-;-;-;-;-;-;-;-;-;-
1512471252180;-;-;9.149933;0.021743774;-0.8025665;-;-;-;-;-;-;-;-;-;-;-;-;-;-;-
1512471252201;-;-;9.131973;0.014556885;-0.87319946;-;-;-;-;-;-;-;-;-;-;-;-;-;-;-
1512471252221;-;-;9.197815;-0.02255249;-0.89953613;-;-;-;-;-;-;-;-;-;-;-;-;-;-;-
1512471252242;-;-;8.997894;0.0037841797;-0.97135925;-;-;-;-;-;-;-;-;-;-;-;-;-;-;-
1512471252262;-;-;9.212173;-0.014175415;-0.8564453;-;-;-;-;-;-;-;-;-;-;-;-;-;-;-
1512471252283;-;-;9.190628;0.0037841797;-0.87080383;-;-;-;-;-;-;-;-;-;-;-;-;-;-;-
1512471252304;-;-;9.213379;0.0013885498;-0.89834595;-;-;-;-;-;-;-;-;-;-;-;-;-;-;-
1512471252324;-;-;9.197815;0.016952515;-0.9234772;-;-;-;-;-;-;-;-;-;-;-;-;-;-;-
1512471252345;-;-;9.245697;-0.012969971;-0.90312195;-;-;-;-;-;-;-;-;-;-;-;-;-;-;-
1512471252365;-;-;9.224152;-0.021362305;-0.95339966;-;-;-;-;-;-;-;-;-;-;-;-;-;-;-
1512471252385;-;-;9.181061;-0.057266235;-0.93066406;-;-;-;-;-;-;-;-;-;-;-;-;-;-;-
1512471252406;-;-;9.105637;0.02053833;-0.9258728;-;-;-;-;-;-;-;-;-;-;-;-;-;-;-
1512471252426;-;-;9.025436;0.098358154;-0.8564453;-;-;-;-;-;-;-;-;-;-;-;-;-;-;-
1512471252446;-;-;9.0793;0.10673523;-0.8755951;-;-;-;-;-;-;-;-;-;-;-;-;-;-;-
1512471252468;-;-;9.0793;0.093566895;-0.89834595;-;-;-;-;-;-;-;-;-;-;-;-;-;-;-
1512471252488;-;-;9.130783;0.052871704;-1.0443878;-;-;-;-;-;-;-;-;-;-;-;-;-;-;-
1512471252508;-;-;9.185837;0.06364441;-1.061142;-;-;-;-;-;-;-;-;-;-;-;-;-;-;-
1512471252529;-;-;9.151123;0.103149414;-1.0767059;-;-;-;-;-;-;-;-;-;-;-;-;-;-;-
1512471252549;-;-;9.194229;0.1438446;-1.1257935;-;-;-;-;-;-;-;-;-;-;-;-;-;-;-
1512471252569;-;-;9.197815;0.13426208;-1.1174164;-;-;-;-;-;-;-;-;-;-;-;-;-;-;-
1512471252590;-;-;9.216965;0.08998108;-1.0491791;-;-;-;-;-;-;-;-;-;-;-;-;-;-;-
1512471252611;-;-;9.214569;0.072021484;-1.001297;-;-;-;-;-;-;-;-;-;-;-;-;-;-;-
1512471252631;-;-;9.21817;-0.00340271;-0.98812866;-;-;-;-;-;-;-;-;-;-;-;-;-;-;-
1512471252652;-;-;9.166687;-0.02255249;-0.8947449;-;-;-;-;-;-;-;-;-;-;-;-;-;-;-
1512471252672;-;-;9.196625;-0.100372314;-0.85284424;-;-;-;-;-;-;-;-;-;-;-;-;-;-;-
1512471252692;-;-;9.23613;-0.10874939;-0.8684082;-;-;-;-;-;-;-;-;-;-;-;-;-;-;-
1512471252713;-;-;9.252884;-0.06803894;-0.8744049;-;-;-;-;-;-;-;-;-;-;-;-;-;-;-
1512471252733;-;-;9.17746;0.0061798096;-0.9246826;-;-;-;-;-;-;-;-;-;-;-;-;-;-;-
1512471252754;-;-;9.104446;0.10194397;-0.8720093;-;-;-;-;-;-;-;-;-;-;-;-;-;-;-
1512471252775;-;-;9.068527;0.103149414;-0.81933594;-;-;-;-;-;-;-;-;-;-;-;-;-;-;-
1512471252795;-;-;9.105637;0.091171265;-0.8684082;-;-;-;-;-;-;-;-;-;-;-;-;-;-;-
1512471252815;-;-;9.13916;0.055252075;-0.8600311;-;-;-;-;-;-;-;-;-;-;-;-;-;-;-
1512471252836;-;-;9.197815;0.04927063;-0.867218;-;-;-;-;-;-;-;-;-;-;-;-;-;-;-
1512471252857;-;-;9.260071;0.043289185;-0.91270447;-;-;-;-;-;-;-;-;-;-;-;-;-;-;-
1512471252876;-;-;9.207397;0.031311035;-0.9246826;-;-;-;-;-;-;-;-;-;-;-;-;-;-;-
1512471252897;-;-;9.166687;0.04927063;-0.89234924;-;-;-;-;-;-;-;-;-;-;-;-;-;-;-
1512471252918;-;-;9.116409;0.05885315;-0.91389465;-;-;-;-;-;-;-;-;-;-;-;-;-;-;-
1512471252938;-;-;9.0793;0.08518982;-0.8755951;-;-;-;-;-;-;-;-;-;-;-;-;-;-;-
1512471252958;-;-;9.12001;0.11631775;-0.882782;-;-;-;-;-;-;-;-;-;-;-;-;-;-;-
1512471252978;-;-;9.17746;0.083984375;-0.9151001;-;-;-;-;-;-;-;-;-;-;-;-;-;-;-
1512471252997;-;-;9.1523285;0.07800293;-0.8863678;-;-;-;-;-;-;-;-;-;-;-;-;-;-;-
1512471253018;-;-;9.099655;0.064834595;-0.88397217;-;-;-;-;-;-;-;-;-;-;-;-;-;-;-
1512471253038;-;-;9.099655;0.08279419;-0.91030884;-;-;-;-;-;-;-;-;-;-;-;-;-;-;-
1512471253059;-;-;9.096069;0.100753784;-0.966568;-;-;-;-;-;-;-;-;-;-;-;-;-;-;-
1512471253079;-;-;9.104446;0.17137146;-0.9845276;-;-;-;-;-;-;-;-;-;-;-;-;-;-;-
1512471253100;-;-;9.090073;0.15820313;-0.8851776;-;-;-;-;-;-;-;-;-;-;-;-;-;-;-
1512471253119;-;-;9.116409;0.09715271;-0.8755951;-;-;-;-;-;-;-;-;-;-;-;-;-;-;-
1512471253140;-;-;9.181061;0.02772522;-0.9055176;-;-;-;-;-;-;-;-;-;-;-;-;-;-;-
1512471253160;-;-;9.208588;-0.021362305;-0.95939636;-;-;-;-;-;-;-;-;-;-;-;-;-;-;-
1512471253181;-;-;9.225342;0.009765625;-0.9689636;-;-;-;-;-;-;-;-;-;-;-;-;-;-;-
1512471253201;-;-;9.212173;0.081588745;-0.92826843;-;-;-;-;-;-;-;-;-;-;-;-;-;-;-
1512471253221;-;-;9.159515;0.13067627;-0.9629822;-;-;-;-;-;-;-;-;-;-;-;-;-;-;-
1512471253242;-;-;9.159515;0.13186646;-0.95339966;-;-;-;-;-;-;-;-;-;-;-;-;-;-;-
1512471253261;-;-;9.105637;0.1043396;-0.8612366;-;-;-;-;-;-;-;-;-;-;-;-;-;-;-
1512471253282;-;-;9.148727;0.12948608;-0.90312195;-;-;-;-;-;-;-;-;-;-;-;-;-;-;-
1512471253301;-;-;9.183456;0.095962524;-0.89234924;-;-;-;-;-;-;-;-;-;-;-;-;-;-;-
1512471253322;-;-;9.193024;0.098358154;-0.97854614;-;-;-;-;-;-;-;-;-;-;-;-;-;-;-
1512471253342;-;-;9.15831;0.11869812;-0.9629822;-;-;-;-;-;-;-;-;-;-;-;-;-;-;-
1512471253363;-;-;9.166687;0.086380005;-0.9151001;-;-;-;-;-;-;-;-;-;-;-;-;-;-;-
1512471253384;-;-;9.147537;0.09954834;-0.91389465;-;-;-;-;-;-;-;-;-;-;-;-;-;-;-
1512471253404;-;-;9.182251;0.06842041;-0.95339966;-;-;-;-;-;-;-;-;-;-;-;-;-;-;-
1512471253424;-;-;9.216965;0.074417114;-0.961792;-;-;-;-;-;-;-;-;-;-;-;-;-;-;-
1512471253445;-;-;9.153519;0.10913086;-0.96777344;-;-;-;-;-;-;-;-;-;-;-;-;-;-;-
1512471253465;-;-;9.104446;0.15342712;-0.96058655;-;-;-;-;-;-;-;-;-;-;-;-;-;-;-
1512471253486;-;-;9.072113;0.1330719;-0.9522095;-;-;-;-;-;-;-;-;-;-;-;-;-;-;-
1512471253506;-;-;9.074509;0.095962524;-0.8935547;-;-;-;-;-;-;-;-;-;-;-;-;-;-;-
1512471253527;-;-;9.181061;0.036102295;-0.9402313;-;-;-;-;-;-;-;-;-;-;-;-;-;-;-
1512471253548;-;-;9.222961;0.048080444;-0.9809418;-;-;-;-;-;-;-;-;-;-;-;-;-;-;-
1512471253568;-;-;9.172684;0.02772522;-0.9474182;-;-;-;-;-;-;-;-;-;-;-;-;-;-;-
1512471253588;-;-;9.135559;0.03491211;-0.94981384;-;-;-;-;-;-;-;-;-;-;-;-;-;-;-
1512471253609;-;-;9.108032;0.05406189;-0.9653778;-;-;-;-;-;-;-;-;-;-;-;-;-;-;-
1512471253629;-;-;9.109222;0.088775635;-0.9641876;-;-;-;-;-;-;-;-;-;-;-;-;-;-;-
1512471253650;-;-;9.110428;0.1510315;-0.88397217;-;-;-;-;-;-;-;-;-;-;-;-;-;-;-
1512471253670;-;-;9.17746;0.088775635;-0.7977905;-;-;-;-;-;-;-;-;-;-;-;-;-;-;-
1512471253691;-;-;9.164291;-0.045303345;-0.7295532;-;-;-;-;-;-;-;-;-;-;-;-;-;-;-
1512471253711;-;-;9.257675;-0.13748169;-0.7893982;-;-;-;-;-;-;-;-;-;-;-;-;-;-;-
1512471253732;-;-;9.25528;-0.1410675;-0.85884094;-;-;-;-;-;-;-;-;-;-;-;-;-;-;-
1512471253752;-;-;9.15712;-0.1015625;-0.8348999;-;-;-;-;-;-;-;-;-;-;-;-;-;-;-
1512471253773;-;-;9.0793;-0.03213501;-0.77622986;-;-;-;-;-;-;-;-;-;-;-;-;-;-;-
1512471253793;-;-;9.066132;0.012161255;-0.8396759;-;-;-;-;-;-;-;-;-;-;-;-;-;-;-
1512471253813;-;-;9.154724;0.046875;-0.85523987;-;-;-;-;-;-;-;-;-;-;-;-;-;-;-
1512471253834;-;-;9.233734;0.1330719;-0.9258728;-;-;-;-;-;-;-;-;-;-;-;-;-;-;-
1512471253854;-;-;9.246902;0.12109375;-1.0384064;-;-;-;-;-;-;-;-;-;-;-;-;-;-;-
1512471253874;-;-;9.203796;0.07800293;-1.0826874;-;-;-;-;-;-;-;-;-;-;-;-;-;-;-
1512471253895;-;-;9.175064;0.055252075;-1.0240326;-;-;-;-;-;-;-;-;-;-;-;-;-;-;-
1512471253916;-;-;9.1918335;0.0181427;-1.0108643;-;-;-;-;-;-;-;-;-;-;-;-;-;-;-
1512471253936;-;-;9.183456;0.0037841797;-1.0240326;-;-;-;-;-;-;-;-;-;-;-;-;-;-;-
1512471253956;-;-;9.184647;0.021743774;-1.0838928;-;-;-;-;-;-;-;-;-;-;-;-;-;-;-
1512471253977;-;-;9.161896;0.060043335;-1.0108643;-;-;-;-;-;-;-;-;-;-;-;-;-;-;-
1512471253997;-;-;9.110428;0.14624023;-0.9869232;-;-;-;-;-;-;-;-;-;-;-;-;-;-;-
1512471254017;-;-;9.14035;0.11152649;-1.0659332;-;-;-;-;-;-;-;-;-;-;-;-;-;-;-
1512471254038;-;-;9.14035;0.10194397;-1.0982513;-;-;-;-;-;-;-;-;-;-;-;-;-;-;-
1512471254058;-;-;9.155914;0.09715271;-1.0982513;-;-;-;-;-;-;-;-;-;-;-;-;-;-;-
1512471254079;-;-;9.170288;0.05406189;-1.1605072;-;-;-;-;-;-;-;-;-;-;-;-;-;-;-
1512471254099;-;-;9.245697;0.012161255;-1.0826874;-;-;-;-;-;-;-;-;-;-;-;-;-;-;-
1512471254120;-;-;9.216965;0.040893555;-1.0539703;-;-;-;-;-;-;-;-;-;-;-;-;-;-;-
1512471254140;-;-;9.261261;0.02772522;-1.0635376;-;-;-;-;-;-;-;-;-;-;-;-;-;-;-
1512471254161;-;-;9.23732;0.019348145;-0.98812866;-;-;-;-;-;-;-;-;-;-;-;-;-;-;-
1512471254182;-;-;9.205002;-0.028533936;-0.9342499;-;-;-;-;-;-;-;-;-;-;-;-;-;-;-
1512471254201;-;-;9.163101;-0.02255249;-0.9761505;-;-;-;-;-;-;-;-;-;-;-;-;-;-;-
1512471254222;-;-;9.160706;0.048080444;-0.9354553;-;-;-;-;-;-;-;-;-;-;-;-;-;-;-
1512471254241;-;-;9.118805;0.14982605;-0.9354553;-;-;-;-;-;-;-;-;-;-;-;-;-;-;-
1512471254262;-;-;9.074509;0.12828064;-0.92826843;-;-;-;-;-;-;-;-;-;-;-;-;-;-;-
1512471254281;-;-;9.006287;0.08758545;-0.922287;-;-;-;-;-;-;-;-;-;-;-;-;-;-;-
1512471254302;-;-;9.013458;0.08518982;-0.9294586;-;-;-;-;-;-;-;-;-;-;-;-;-;-;-
1512471254322;-;-;9.045776;0.11392212;-0.9845276;-;-;-;-;-;-;-;-;-;-;-;-;-;-;-
1512471254344;-;-;9.025436;0.13665771;-1.0419922;-;-;-;-;-;-;-;-;-;-;-;-;-;-;-
1512471254364;-;-;8.995499;0.12948608;-1.1186066;-;-;-;-;-;-;-;-;-;-;-;-;-;-;-
1512471254384;-;-;9.049377;0.13186646;-1.1233978;-;-;-;-;-;-;-;-;-;-;-;-;-;-;-
1512471254405;-;-;9.160706;0.14982605;-1.1509247;-;-;-;-;-;-;-;-;-;-;-;-;-;-;-
1512471254426;-;-;9.206192;0.1845398;-1.2359161;-;-;-;-;-;-;-;-;-;-;-;-;-;-;-
1512471254446;-;-;9.212173;0.16897583;-1.188034;-;-;-;-;-;-;-;-;-;-;-;-;-;-;-
1512471254467;-;-;9.263657;0.115112305;-1.2143707;-;-;-;-;-;-;-;-;-;-;-;-;-;-;-
1512471254487;-;-;9.183456;0.093566895;-1.2071991;-;-;-;-;-;-;-;-;-;-;-;-;-;-;-
1512471254508;-;-;9.148727;0.067230225;-1.0671387;-;-;-;-;-;-;-;-;-;-;-;-;-;-;-
1512471254528;-;-;9.202606;0.060043335;-1.0431824;-;-;-;-;-;-;-;-;-;-;-;-;-;-;-
1512471254549;-;-;9.242111;0.079193115;-1.085083;-;-;-;-;-;-;-;-;-;-;-;-;-;-;-
1512471254569;-;-;9.189438;0.08758545;-0.99890137;-;-;-;-;-;-;-;-;-;-;-;-;-;-;-
1512471254590;-;-;9.194229;0.069625854;-1.0503693;-;-;-;-;-;-;-;-;-;-;-;-;-;-;-
1512471254611;-;-;9.221756;0.13905334;-1.0719147;-;-;-;-;-;-;-;-;-;-;-;-;-;-;-
1512471254631;-;-;9.173874;0.08039856;-0.94862366;-;-;-;-;-;-;-;-;-;-;-;-;-;-;-
1512471254651;-;-;9.125992;0.086380005;-0.946228;-;-;-;-;-;-;-;-;-;-;-;-;-;-;-
1512471254671;-;-;9.116409;0.06602478;-0.85284424;-;-;-;-;-;-;-;-;-;-;-;-;-;-;-
1512471254692;-;-;9.116409;0.08998108;-0.88757324;-;-;-;-;-;-;-;-;-;-;-;-;-;-;-
1512471254713;-;-;9.1128235;0.076812744;-0.8935547;-;-;-;-;-;-;-;-;-;-;-;-;-;-;-
1512471254733;-;-;9.117615;0.04208374;-0.8612366;-;-;-;-;-;-;-;-;-;-;-;-;-;-;-
1512471254753;-;-;9.130783;0.05645752;-0.8612366;-;-;-;-;-;-;-;-;-;-;-;-;-;-;-
1512471254774;-;-;9.109222;0.043289185;-0.8720093;-;-;-;-;-;-;-;-;-;-;-;-;-;-;-
1512471254795;-;-;9.115219;1.9836426E-4;-0.8660126;-;-;-;-;-;-;-;-;-;-;-;-;-;-;-
1512471254815;-;-;9.082901;0.02532959;-0.8001709;-;-;-;-;-;-;-;-;-;-;-;-;-;-;-
1512471254836;-;-;9.110428;0.10913086;-0.7690582;-;-;-;-;-;-;-;-;-;-;-;-;-;-;-
1512471254856;-;-;9.160706;0.119903564;-0.82650757;-;-;-;-;-;-;-;-;-;-;-;-;-;-;-
1512471254877;-;-;9.199005;0.057647705;-0.8504486;-;-;-;-;-;-;-;-;-;-;-;-;-;-;-
1512471254897;-;-;9.202606;0.008575439;-0.80137634;-;-;-;-;-;-;-;-;-;-;-;-;-;-;-
1512471254918;-;-;9.193024;-0.08480835;-0.7666626;-;-;-;-;-;-;-;-;-;-;-;-;-;-;-
1512471254938;-;-;9.203796;-0.052474976;-0.7379303;-;-;-;-;-;-;-;-;-;-;-;-;-;-;-
1512471254958;-;-;9.212173;-0.035720825;-0.7582855;-;-;-;-;-;-;-;-;-;-;-;-;-;-;-
1512471254979;-;-;9.243301;0.03251648;-0.7702484;-;-;-;-;-;-;-;-;-;-;-;-;-;-;-
1512471254999;-;-;9.1918335;0.052871704;-0.80137634;-;-;-;-;-;-;-;-;-;-;-;-;-;-;-
1512471255020;-;-;9.188232;0.1330719;-0.7846222;-;-;-;-;-;-;-;-;-;-;-;-;-;-;-
1512471255040;-;-;9.179855;0.0756073;-0.7391205;-;-;-;-;-;-;-;-;-;-;-;-;-;-;-
1512471255060;-;-;9.15712;0.02532959;-0.75349426;-;-;-;-;-;-;-;-;-;-;-;-;-;-;-
1512471255081;-;-;9.149933;0.03251648;-0.7235565;-;-;-;-;-;-;-;-;-;-;-;-;-;-;-
1512471255101;-;-;9.161896;0.028915405;-0.7451172;-;-;-;-;-;-;-;-;-;-;-;-;-;-;-
1512471255123;-;-;9.145142;0.024139404;-0.73553467;-;-;-;-;-;-;-;-;-;-;-;-;-;-;-
1512471255142;-;-;9.09845;-0.033325195;-0.73313904;-;-;-;-;-;-;-;-;-;-;-;-;-;-;-
1512471255163;-;-;9.154724;-0.05128479;-0.6900482;-;-;-;-;-;-;-;-;-;-;-;-;-;-;-
1512471255183;-;-;9.170288;-0.02973938;-0.6720886;-;-;-;-;-;-;-;-;-;-;-;-;-;-;-
1512471255203;-;-;9.115219;-0.0010070801;-0.7451172;-;-;-;-;-;-;-;-;-;-;-;-;-;-;-
1512471255224;-;-;9.131973;-0.0045928955;-0.7199707;-;-;-;-;-;-;-;-;-;-;-;-;-;-;-
1512471255244;-;-;9.1523285;-0.023742676;-0.6888428;-;-;-;-;-;-;-;-;-;-;-;-;-;-;-
1512471255265;-;-;9.160706;-0.021362305;-0.67567444;-;-;-;-;-;-;-;-;-;-;-;-;-;-;-
1512471255285;-;-;9.214569;-0.023742676;-0.67448425;-;-;-;-;-;-;-;-;-;-;-;-;-;-;-
1512471255305;-;-;9.194229;-0.054870605;-0.6984253;-;-;-;-;-;-;-;-;-;-;-;-;-;-;-
1512471255326;-;-;9.171478;-0.0440979;-0.71398926;-;-;-;-;-;-;-;-;-;-;-;-;-;-;-
1512471255346;-;-;9.165497;-0.12908936;-0.6900482;-;-;-;-;-;-;-;-;-;-;-;-;-;-;-
1512471255368;-;-;9.15712;-0.09437561;-0.7163849;-;-;-;-;-;-;-;-;-;-;-;-;-;-;-
1512471255388;-;-;9.166687;-0.0728302;-0.74272156;-;-;-;-;-;-;-;-;-;-;-;-;-;-;-
1512471255408;-;-;9.17746;-0.06324768;-0.73194885;-;-;-;-;-;-;-;-;-;-;-;-;-;-;-
1512471255429;-;-;9.1918335;-0.026138306;-0.8025665;-;-;-;-;-;-;-;-;-;-;-;-;-;-;-
1512471255450;-;-;9.194229;0.033706665;-0.803772;-;-;-;-;-;-;-;-;-;-;-;-;-;-;-
1512471255470;-;-;9.193024;0.095962524;-0.83369446;-;-;-;-;-;-;-;-;-;-;-;-;-;-;-
1512471255490;-;-;9.182251;0.09236145;-0.8097534;-;-;-;-;-;-;-;-;-;-;-;-;-;-;-
1512471255511;-;-;9.175064;0.091171265;-0.84207153;-;-;-;-;-;-;-;-;-;-;-;-;-;-;-
1512471255531;-;-;9.207397;0.10194397;-0.8253174;-;-;-;-;-;-;-;-;-;-;-;-;-;-;-
1512471255552;-;-;9.209793;0.100753784;-0.8791809;-;-;-;-;-;-;-;-;-;-;-;-;-;-;-
1512471255572;-;-;9.17627;0.043289185;-0.88757324;-;-;-;-;-;-;-;-;-;-;-;-;-;-;-
1512471255593;-;-;9.159515;0.06602478;-0.86242676;-;-;-;-;-;-;-;-;-;-;-;-;-;-;-
1512471255614;-;-;9.15712;0.06602478;-0.9079132;-;-;-;-;-;-;-;-;-;-;-;-;-;-;-
1512471255634;-;-;9.171478;0.072021484;-0.9402313;-;-;-;-;-;-;-;-;-;-;-;-;-;-;-
1512471255654;-;-;9.17627;0.06364441;-0.88397217;-;-;-;-;-;-;-;-;-;-;-;-;-;-;-
1512471255675;-;-;9.134369;0.03012085;-0.9330597;-;-;-;-;-;-;-;-;-;-;-;-;-;-;-
1512471255695;-;-;9.179855;0.016952515;-0.9522095;-;-;-;-;-;-;-;-;-;-;-;-;-;-;-
1512471255715;-;-;9.131973;0.012161255;-0.9354553;-;-;-;-;-;-;-;-;-;-;-;-;-;-;-
1512471255736;-;-;9.155914;0.038497925;-0.92826843;-;-;-;-;-;-;-;-;-;-;-;-;-;-;-
1512471255757;-;-;9.17746;0.074417114;-0.9917145;-;-;-;-;-;-;-;-;-;-;-;-;-;-;-
1512471255777;-;-;9.169083;0.064834595;-1.025238;-;-;-;-;-;-;-;-;-;-;-;-;-;-;-
1512471255797;-;-;9.172684;0.07081604;-1.0228424;-;-;-;-;-;-;-;-;-;-;-;-;-;-;-
1512471255817;-;-;9.161896;0.088775635;-1.0395966;-;-;-;-;-;-;-;-;-;-;-;-;-;-;-
1512471255838;-;-;9.167892;0.103149414;-1.021637;-;-;-;-;-;-;-;-;-;-;-;-;-;-;-
1512471255858;-;-;9.142746;0.08279419;-1.0372009;-;-;-;-;-;-;-;-;-;-;-;-;-;-;-
1512471255879;-;-;9.160706;0.13905334;-0.9833374;-;-;-;-;-;-;-;-;-;-;-;-;-;-;-
1512471255899;-;-;9.181061;0.12709045;-1.0802917;-;-;-;-;-;-;-;-;-;-;-;-;-;-;-
1512471255920;-;-;9.208588;0.105529785;-1.0419922;-;-;-;-;-;-;-;-;-;-;-;-;-;-;-
1512471255940;-;-;9.160706;0.11631775;-1.0503693;-;-;-;-;-;-;-;-;-;-;-;-;-;-;-
1512471255960;-;-;9.159515;0.09475708;-1.0443878;-;-;-;-;-;-;-;-;-;-;-;-;-;-;-
1512471255981;-;-;9.169083;0.05406189;-1.0539703;-;-;-;-;-;-;-;-;-;-;-;-;-;-;-
1512471256002;-;-;9.193024;0.055252075;-1.0527649;-;-;-;-;-;-;-;-;-;-;-;-;-;-;-
1512471256022;-;-;9.214569;0.04447937;-1.0180511;-;-;-;-;-;-;-;-;-;-;-;-;-;-;-
1512471256043;-;-;9.195419;0.07321167;-1.006073;-;-;-;-;-;-;-;-;-;-;-;-;-;-;-
1512471256064;-;-;9.172684;0.021743774;-0.8899536;-;-;-;-;-;-;-;-;-;-;-;-;-;-;-
1512471256084;-;-;9.190628;0.008575439;-0.922287;-;-;-;-;-;-;-;-;-;-;-;-;-;-;-
1512471256105;-;-;9.12001;0.03012085;-0.88757324;-;-;-;-;-;-;-;-;-;-;-;-;-;-;-
1512471256126;-;-;9.1128235;0.010971069;-0.8612366;-;-;-;-;-;-;-;-;-;-;-;-;-;-;-
1512471256146;-;-;9.111618;0.052871704;-0.84446716;-;-;-;-;-;-;-;-;-;-;-;-;-;-;-
1512471256166;-;-;9.105637;0.0756073;-0.95339966;-;-;-;-;-;-;-;-;-;-;-;-;-;-;-
1512471256186;-;-;9.149933;0.079193115;-0.92108154;-;-;-;-;-;-;-;-;-;-;-;-;-;-;-
1512471256207;-;-;9.164291;0.057647705;-0.927063;-;-;-;-;-;-;-;-;-;-;-;-;-;-;-
1512471256228;-;-;9.155914;0.103149414;-0.9330597;-;-;-;-;-;-;-;-;-;-;-;-;-;-;-
1512471256248;-;-;9.155914;0.07321167;-0.8851776;-;-;-;-;-;-;-;-;-;-;-;-;-;-;-
1512471256269;-;-;9.118805;0.07321167;-0.87080383;-;-;-;-;-;-;-;-;-;-;-;-;-;-;-
1512471256290;-;-;9.124786;0.03251648;-0.8576355;-;-;-;-;-;-;-;-;-;-;-;-;-;-;-
1512471256310;-;-;9.130783;-0.023742676;-0.8504486;-;-;-;-;-;-;-;-;-;-;-;-;-;-;-
1512471256330;-;-;9.118805;1.9836426E-4;-0.8205261;-;-;-;-;-;-;-;-;-;-;-;-;-;-;-
1512471256351;-;-;9.131973;0.014556885;-0.827713;-;-;-;-;-;-;-;-;-;-;-;-;-;-;-
1512471256372;-;-;9.221756;0.031311035;-0.8744049;-;-;-;-;-;-;-;-;-;-;-;-;-;-;-
1512471256392;-;-;9.25528;0.02053833;-0.85523987;-;-;-;-;-;-;-;-;-;-;-;-;-;-;-
1512471256411;-;-;9.276825;-0.0105896;-0.82650757;-;-;-;-;-;-;-;-;-;-;-;-;-;-;-
1512471256432;-;-;9.244507;-0.016571045;-0.79299927;-;-;-;-;-;-;-;-;-;-;-;-;-;-;-
1512471256451;-;-;9.170288;-0.06564331;-0.81573486;-;-;-;-;-;-;-;-;-;-;-;-;-;-;-
1512471256472;-;-;9.123596;-0.07522583;-0.76426697;-;-;-;-;-;-;-;-;-;-;-;-;-;-;-
1512471256492;-;-;9.148727;-0.01776123;-0.74391174;-;-;-;-;-;-;-;-;-;-;-;-;-;-;-
1512471256513;-;-;9.161896;-0.028533936;-0.7379303;-;-;-;-;-;-;-;-;-;-;-;-;-;-;-
1512471256533;-;-;9.170288;-0.026138306;-0.7020111;-;-;-;-;-;-;-;-;-;-;-;-;-;-;-
1512471256554;-;-;9.17627;-0.05607605;-0.73194885;-;-;-;-;-;-;-;-;-;-;-;-;-;-;-
1512471256574;-;-;9.163101;-0.06803894;-0.70440674;-;-;-;-;-;-;-;-;-;-;-;-;-;-;-
1512471256594;-;-;9.130783;-0.088394165;-0.7103882;-;-;-;-;-;-;-;-;-;-;-;-;-;-;-
1512471256615;-;-;9.130783;-0.08241272;-0.72595215;-;-;-;-;-;-;-;-;-;-;-;-;-;-;-
1512471256635;-;-;9.160706;-0.033325195;-0.7307434;-;-;-;-;-;-;-;-;-;-;-;-;-;-;-
1512471256656;-;-;9.133179;-0.07043457;-0.7702484;-;-;-;-;-;-;-;-;-;-;-;-;-;-;-
1512471256676;-;-;9.166687;-0.064453125;-0.7415161;-;-;-;-;-;-;-;-;-;-;-;-;-;-;-
1512471256697;-;-;9.154724;-0.08720398;-0.75109863;-;-;-;-;-;-;-;-;-;-;-;-;-;-;-
1512471256717;-;-;9.118805;-0.10395813;-0.7175751;-;-;-;-;-;-;-;-;-;-;-;-;-;-;-
1512471256738;-;-;9.102051;-0.105148315;-0.7295532;-;-;-;-;-;-;-;-;-;-;-;-;-;-;-
1512471256757;-;-;9.141556;-0.085998535;-0.7295532;-;-;-;-;-;-;-;-;-;-;-;-;-;-;-
1512471256778;-;-;9.199005;-0.035720825;-0.72476196;-;-;-;-;-;-;-;-;-;-;-;-;-;-;-
1512471256798;-;-;9.202606;0.02772522;-0.7678528;-;-;-;-;-;-;-;-;-;-;-;-;-;-;-
1512471256818;-;-;9.203796;0.060043335;-0.72595215;-;-;-;-;-;-;-;-;-;-;-;-;-;-;-
1512471256839;-;-;9.17746;0.06602478;-0.77622986;-;-;-;-;-;-;-;-;-;-;-;-;-;-;-
1512471256860;-;-;9.167892;0.021743774;-0.7965851;-;-;-;-;-;-;-;-;-;-;-;-;-;-;-
1512471256880;-;-;9.163101;-0.012969971;-0.803772;-;-;-;-;-;-;-;-;-;-;-;-;-;-;-
1512471256900;-;-;9.17627;0.0061798096;-0.8253174;-;-;-;-;-;-;-;-;-;-;-;-;-;-;-
1512471256921;-;-;9.205002;0.008575439;-0.7989807;-;-;-;-;-;-;-;-;-;-;-;-;-;-;-
1512471256940;-;-;9.182251;-0.0021972656;-0.8360901;-;-;-;-;-;-;-;-;-;-;-;-;-;-;-
1512471256961;-;-;9.224152;-0.023742676;-0.8504486;-;-;-;-;-;-;-;-;-;-;-;-;-;-;-
1512471256983;-;-;9.243301;-0.0105896;-0.88757324;-;-;-;-;-;-;-;-;-;-;-;-;-;-;-
1512471257003;-;-;9.274429;-0.023742676;-0.8348999;-;-;-;-;-;-;-;-;-;-;-;-;-;-;-
1512471257024;-;-;9.23851;-0.030929565;-0.867218;-;-;-;-;-;-;-;-;-;-;-;-;-;-;-
1512471257044;-;-;9.181061;0.012161255;-0.8241272;-;-;-;-;-;-;-;-;-;-;-;-;-;-;-
1512471257065;-;-;9.170288;-0.0069885254;-0.8492584;-;-;-;-;-;-;-;-;-;-;-;-;-;-;-
1512471257086;-;-;9.205002;-0.011779785;-0.8384857;-;-;-;-;-;-;-;-;-;-;-;-;-;-;-
1512471257106;-;-;9.196625;-0.011779785;-0.8325043;-;-;-;-;-;-;-;-;-;-;-;-;-;-;-
1512471257126;-;-;9.197815;0.02532959;-0.83010864;-;-;-;-;-;-;-;-;-;-;-;-;-;-;-
1512471257147;-;-;9.184647;0.03730774;-0.84088135;-;-;-;-;-;-;-;-;-;-;-;-;-;-;-
1512471257168;-;-;9.172684;0.03251648;-0.82292175;-;-;-;-;-;-;-;-;-;-;-;-;-;-;-
1512471257189;-;-;9.147537;0.05645752;-0.80856323;-;-;-;-;-;-;-;-;-;-;-;-;-;-;-
1512471257208;-;-;9.09845;0.0181427;-0.77264404;-;-;-;-;-;-;-;-;-;-;-;-;-;-;-
1512471257229;-;-;9.100845;0.02293396;-0.75349426;-;-;-;-;-;-;-;-;-;-;-;-;-;-;-
1512471257248;-;-;9.134369;0.008575439;-0.76545715;-;-;-;-;-;-;-;-;-;-;-;-;-;-;-
1512471257268;-;-;9.169083;0.043289185;-0.8025665;-;-;-;-;-;-;-;-;-;-;-;-;-;-;-
1512471257289;-;-;9.178665;0.08039856;-0.8779907;-;-;-;-;-;-;-;-;-;-;-;-;-;-;-
1512471257309;-;-;9.201401;0.09715271;-0.8348999;-;-;-;-;-;-;-;-;-;-;-;-;-;-;-
1512471257329;-;-;9.153519;0.072021484;-0.8241272;-;-;-;-;-;-;-;-;-;-;-;-;-;-;-
1512471257350;-;-;9.121201;0.05166626;-0.81573486;-;-;-;-;-;-;-;-;-;-;-;-;-;-;-
1512471257370;-;-;9.153519;0.06602478;-0.7810211;-;-;-;-;-;-;-;-;-;-;-;-;-;-;-
1512471257391;-;-;9.1918335;0.060043335;-0.84806824;-;-;-;-;-;-;-;-;-;-;-;-;-;-;-
1512471257411;-;-;9.14035;0.019348145;-0.8540497;-;-;-;-;-;-;-;-;-;-;-;-;-;-;-
1512471257431;-;-;9.155914;0.021743774;-0.85165405;-;-;-;-;-;-;-;-;-;-;-;-;-;-;-
1512471257452;-;-;9.131973;0.014556885;-0.8145447;-;-;-;-;-;-;-;-;-;-;-;-;-;-;-
1512471257472;-;-;9.106842;0.02293396;-0.7893982;-;-;-;-;-;-;-;-;-;-;-;-;-;-;-
1512471257493;-;-;9.159515;0.01574707;-0.8325043;-;-;-;-;-;-;-;-;-;-;-;-;-;-;-
1512471257513;-;-;9.172684;1.9836426E-4;-0.8360901;-;-;-;-;-;-;-;-;-;-;-;-;-;-;-
1512471257534;-;-;9.199005;0.012161255;-0.8289032;-;-;-;-;-;-;-;-;-;-;-;-;-;-;-
1512471257554;-;-;9.155914;0.046875;-0.8312988;-;-;-;-;-;-;-;-;-;-;-;-;-;-;-
1512471257574;-;-;9.096069;0.02772522;-0.8384857;-;-;-;-;-;-;-;-;-;-;-;-;-;-;-
1512471257595;-;-;9.124786;0.050476074;-0.8372803;-;-;-;-;-;-;-;-;-;-;-;-;-;-;-
1512471257615;-;-;9.121201;0.036102295;-0.8684082;-;-;-;-;-;-;-;-;-;-;-;-;-;-;-
1512471257636;-;-;9.175064;0.06602478;-0.8312988;-;-;-;-;-;-;-;-;-;-;-;-;-;-;-
1512471257656;-;-;9.181061;0.010971069;-0.8001709;-;-;-;-;-;-;-;-;-;-;-;-;-;-;-
1512471257677;-;-;9.173874;0.040893555;-0.8456726;-;-;-;-;-;-;-;-;-;-;-;-;-;-;-
1512471257698;-;-;9.15831;0.024139404;-0.8456726;-;-;-;-;-;-;-;-;-;-;-;-;-;-;-
1512471257718;-;-;9.145142;0.036102295;-0.8492584;-;-;-;-;-;-;-;-;-;-;-;-;-;-;-
1512471257739;-;-;9.167892;0.052871704;-0.84806824;-;-;-;-;-;-;-;-;-;-;-;-;-;-;-
1512471257759;-;-;9.209793;0.03970337;-0.8540497;-;-;-;-;-;-;-;-;-;-;-;-;-;-;-
1512471257780;-;-;9.190628;0.072021484;-0.8755951;-;-;-;-;-;-;-;-;-;-;-;-;-;-;-
1512471257800;-;-;9.207397;0.052871704;-0.88038635;-;-;-;-;-;-;-;-;-;-;-;-;-;-;-
1512471257820;-;-;9.169083;0.045684814;-0.882782;-;-;-;-;-;-;-;-;-;-;-;-;-;-;-
1512471257841;-;-;9.181061;0.02053833;-0.83369446;-;-;-;-;-;-;-;-;-;-;-;-;-;-;-
1512471257861;-;-;9.17627;-0.0010070801;-0.8325043;-;-;-;-;-;-;-;-;-;-;-;-;-;-;-
1512471257882;-;-;9.179855;-0.012969971;-0.8396759;-;-;-;-;-;-;-;-;-;-;-;-;-;-;-
1512471257903;-;-;9.205002;0.014556885;-0.86361694;-;-;-;-;-;-;-;-;-;-;-;-;-;-;-
1512471257924;-;-;9.21936;-0.00340271;-0.79060364;-;-;-;-;-;-;-;-;-;-;-;-;-;-;-
1512471257944;-;-;9.200211;-0.04888916;-0.77264404;-;-;-;-;-;-;-;-;-;-;-;-;-;-;-
1512471257964;-;-;9.196625;-0.030929565;-0.7403259;-;-;-;-;-;-;-;-;-;-;-;-;-;-;-
1512471257984;-;-;9.194229;-0.078811646;-0.7187805;-;-;-;-;-;-;-;-;-;-;-;-;-;-;-
1512471258005;-;-;9.216965;-0.085998535;-0.748703;-;-;-;-;-;-;-;-;-;-;-;-;-;-;-
1512471258025;-;-;9.203796;-0.07522583;-0.7020111;-;-;-;-;-;-;-;-;-;-;-;-;-;-;-
1512471258046;-;-;9.185837;-0.057266235;-0.709198;-;-;-;-;-;-;-;-;-;-;-;-;-;-;-
1512471258066;-;-;9.193024;-0.042907715;-0.6625061;-;-;-;-;-;-;-;-;-;-;-;-;-;-;-
1512471258086;-;-;9.154724;-0.00819397;-0.7163849;-;-;-;-;-;-;-;-;-;-;-;-;-;-;-
1512471258107;-;-;9.124786;-0.0045928955;-0.6768799;-;-;-;-;-;-;-;-;-;-;-;-;-;-;-
1512471258126;-;-;9.141556;1.9836426E-4;-0.654129;-;-;-;-;-;-;-;-;-;-;-;-;-;-;-
1512471258146;-;-;9.122391;0.02053833;-0.669693;-;-;-;-;-;-;-;-;-;-;-;-;-;-;-
1512471258166;-;-;9.130783;0.021743774;-0.6433563;-;-;-;-;-;-;-;-;-;-;-;-;-;-;-
1512471258187;-;-;9.091278;0.01574707;-0.59906006;-;-;-;-;-;-;-;-;-;-;-;-;-;-;-
1512471258208;-;-;9.13916;-0.035720825;-0.69602966;-;-;-;-;-;-;-;-;-;-;-;-;-;-;-
1512471258228;-;-;9.21936;0.012161255;-0.6996155;-;-;-;-;-;-;-;-;-;-;-;-;-;-;-
1512471258248;-;-;9.23613;0.079193115;-0.7175751;-;-;-;-;-;-;-;-;-;-;-;-;-;-;-
1512471258268;-;-;9.249298;0.060043335;-0.66371155;-;-;-;-;-;-;-;-;-;-;-;-;-;-;-
1512471258289;-;-;9.25647;-0.016571045;-0.65652466;-;-;-;-;-;-;-;-;-;-;-;-;-;-;-
1512471258309;-;-;9.257675;-0.04888916;-0.6122284;-;-;-;-;-;-;-;-;-;-;-;-;-;-;-
1512471258330;-;-;9.149933;-0.05607605;-0.6038513;-;-;-;-;-;-;-;-;-;-;-;-;-;-;-
1512471258350;-;-;9.127182;-0.08001709;-0.70321655;-;-;-;-;-;-;-;-;-;-;-;-;-;-;-
1512471258371;-;-;9.124786;-0.05128479;-0.6373749;-;-;-;-;-;-;-;-;-;-;-;-;-;-;-
1512471258391;-;-;9.122391;-0.012969971;-0.6505432;-;-;-;-;-;-;-;-;-;-;-;-;-;-;-
1512471258412;-;-;9.143951;0.069625854;-0.6553345;-;-;-;-;-;-;-;-;-;-;-;-;-;-;-
1512471258432;-;-;9.190628;0.048080444;-0.67567444;-;-;-;-;-;-;-;-;-;-;-;-;-;-;-
1512471258453;-;-;9.245697;0.03491211;-0.6876526;-;-;-;-;-;-;-;-;-;-;-;-;-;-;-
1512471258473;-;-;9.225342;1.9836426E-4;-0.654129;-;-;-;-;-;-;-;-;-;-;-;-;-;-;-
1512471258494;-;-;9.262466;-0.0045928955;-0.6613159;-;-;-;-;-;-;-;-;-;-;-;-;-;-;-
1512471258515;-;-;9.274429;-0.045303345;-0.6625061;-;-;-;-;-;-;-;-;-;-;-;-;-;-;-
1512471258535;-;-;9.196625;0.0025787354;-0.69244385;-;-;-;-;-;-;-;-;-;-;-;-;-;-;-
1512471258556;-;-;9.129578;0.031311035;-0.6601105;-;-;-;-;-;-;-;-;-;-;-;-;-;-;-
1512471258576;-;-;9.17746;0.02772522;-0.5894928;-;-;-;-;-;-;-;-;-;-;-;-;-;-;-
1512471258597;-;-;9.226547;-0.015365601;-0.60983276;-;-;-;-;-;-;-;-;-;-;-;-;-;-;-
1512471258617;-;-;9.212173;0.05166626;-0.6517334;-;-;-;-;-;-;-;-;-;-;-;-;-;-;-
1512471258637;-;-;9.220566;0.016952515;-0.5942688;-;-;-;-;-;-;-;-;-;-;-;-;-;-;-
1512471258658;-;-;9.226547;-0.016571045;-0.614624;-;-;-;-;-;-;-;-;-;-;-;-;-;-;-
1512471258678;-;-;9.226547;-0.05607605;-0.64575195;-;-;-;-;-;-;-;-;-;-;-;-;-;-;-
1512471258699;-;-;9.23732;-0.059661865;-0.5834961;-;-;-;-;-;-;-;-;-;-;-;-;-;-;-
1512471258719;-;-;9.266052;-0.02734375;-0.60743713;-;-;-;-;-;-;-;-;-;-;-;-;-;-;-
1512471258740;-;-;9.224152;-0.02973938;-0.54519653;-;-;-;-;-;-;-;-;-;-;-;-;-;-;-
1512471258760;-;-;9.216965;0.014556885;-0.551178;-;-;-;-;-;-;-;-;-;-;-;-;-;-;-
1512471258780;-;-;9.188232;-0.0069885254;-0.49731445;-;-;-;-;-;-;-;-;-;-;-;-;-;-;-
1512471258801;-;-;9.146347;0.0061798096;-0.5068817;-;-;-;-;-;-;-;-;-;-;-;-;-;-;-
1512471258821;-;-;9.165497;-0.052474976;-0.5428009;-;-;-;-;-;-;-;-;-;-;-;-;-;-;-
1512471258842;-;-;9.146347;0.024139404;-0.5284424;-;-;-;-;-;-;-;-;-;-;-;-;-;-;-
1512471258862;-;-;9.127182;0.086380005;-0.5463867;-;-;-;-;-;-;-;-;-;-;-;-;-;-;-
1512471258883;-;-;9.110428;0.06842041;-0.49491882;-;-;-;-;-;-;-;-;-;-;-;-;-;-;-
1512471258903;-;-;9.066132;0.031311035;-0.29978943;-;-;-;-;-;-;-;-;-;-;-;-;-;-;-
1512471258924;-;-;9.082901;0.09236145;-0.412323;-;-;-;-;-;-;-;-;-;-;-;-;-;-;-
1512471258945;-;-;9.09845;0.04927063;-0.3656311;-;-;-;-;-;-;-;-;-;-;-;-;-;-;-
1512471258964;-;-;9.062546;-0.023742676;-0.4350586;-;-;-;-;-;-;-;-;-;-;-;-;-;-;-
1512471258985;-;-;9.111618;-0.02973938;-0.3955536;-;-;-;-;-;-;-;-;-;-;-;-;-;-;-
