TimeStamp[ms];Prox[Cm];Lux[lux];AccX[m/s^2];AccY[m/s^2];AccZ[m/s^2];GyroX[rad/s];GyroY[rad/s];GyroZ[rad/s];MagnX[uT];MagnY[uT];MagnZ[uT];OrienYaw[degrees];OrienPitch[degrees];OrienRoll[degrees];Press[Pa];Temp[C°];Batt[%];Lat;Lng;Speed[m/s]
1512472128697;-;-;9.655106;-0.23564148;-0.040023804;-;-;-;-;-;-;-;-;-;-;-;-;-;-;-
1512472128731;-;-;9.082901;-0.34576416;0.084472656;-;-;-;-;-;-;-;-;-;-;-;-;-;-;-
1512472128732;-;-;9.215775;-0.34936523;0.017440796;-;-;-;-;-;-;-;-;-;-;-;-;-;-;-
1512472128751;-;-;9.215775;-0.33738708;0.04736328;-;-;-;-;-;-;-;-;-;-;-;-;-;-;-
1512472128770;-;-;9.499481;-0.4738617;0.106033325;-;-;-;-;-;-;-;-;-;-;-;-;-;-;-
1512472128791;-;-;9.201401;-0.49899292;0.1251831;-;-;-;-;-;-;-;-;-;-;-;-;-;-;-
1512472128811;-;-;9.07811;-0.42956543;0.16229248;-;-;-;-;-;-;-;-;-;-;-;-;-;-;-
1512472128831;-;-;9.17627;-0.31105042;-0.10107422;-;-;-;-;-;-;-;-;-;-;-;-;-;-;-
1512472128852;-;-;9.114014;-0.46907043;0.15750122;-;-;-;-;-;-;-;-;-;-;-;-;-;-;-
1512472128872;-;-;9.206192;-0.4834442;0.35742188;-;-;-;-;-;-;-;-;-;-;-;-;-;-;-
1512472128893;-;-;9.506668;-0.18296814;-0.14416504;-;-;-;-;-;-;-;-;-;-;-;-;-;-;-
1512472128913;-;-;8.911713;-1.867279;-1.0479736;-;-;-;-;-;-;-;-;-;-;-;-;-;-;-
1512472128935;-;-;9.655106;-0.21170044;0.71055603;-;-;-;-;-;-;-;-;-;-;-;-;-;-;-
1512472128956;-;-;9.094864;-0.4666748;0.25326538;-;-;-;-;-;-;-;-;-;-;-;-;-;-;-
1512472128980;-;-;9.081696;-0.37330627;0.053359985;-;-;-;-;-;-;-;-;-;-;-;-;-;-;-
1512472128995;-;-;9.142746;-0.39006042;0.025817871;-;-;-;-;-;-;-;-;-;-;-;-;-;-;-
1512472129016;-;-;9.276825;-0.4056244;0.12757874;-;-;-;-;-;-;-;-;-;-;-;-;-;-;-
1512472129037;-;-;9.325912;-0.41879272;0.0856781;-;-;-;-;-;-;-;-;-;-;-;-;-;-;-
1512472129057;-;-;9.294785;-0.17098999;-0.13697815;-;-;-;-;-;-;-;-;-;-;-;-;-;-;-
1512472129077;-;-;9.434845;-0.6821594;0.029418945;-;-;-;-;-;-;-;-;-;-;-;-;-;-;-
1512472129098;-;-;9.364212;-0.67736816;0.10961914;-;-;-;-;-;-;-;-;-;-;-;-;-;-;-
1512472129117;-;-;8.923676;-0.4774475;0.03060913;-;-;-;-;-;-;-;-;-;-;-;-;-;-;-
1512472129138;-;-;9.104446;-0.23803711;0.2736206;-;-;-;-;-;-;-;-;-;-;-;-;-;-;-
1512472129158;-;-;9.325912;-0.16381836;0.171875;-;-;-;-;-;-;-;-;-;-;-;-;-;-;-
1512472129178;-;-;9.184647;-0.62828064;-0.24472046;-;-;-;-;-;-;-;-;-;-;-;-;-;-;-
1512472129199;-;-;9.039795;-0.3194275;0.3538208;-;-;-;-;-;-;-;-;-;-;-;-;-;-;-
1512472129219;-;-;9.432449;-0.66778564;-0.28422546;-;-;-;-;-;-;-;-;-;-;-;-;-;-;-
1512472129239;-;-;9.0182495;-0.5337219;0.40290833;-;-;-;-;-;-;-;-;-;-;-;-;-;-;-
1512472129260;-;-;8.837494;0.06842041;0.16229248;-;-;-;-;-;-;-;-;-;-;-;-;-;-;-
1512472129280;-;-;9.781998;-0.13508606;-0.10346985;-;-;-;-;-;-;-;-;-;-;-;-;-;-;-
1512472129301;-;-;9.422867;-0.39485168;-0.1956482;-;-;-;-;-;-;-;-;-;-;-;-;-;-;-
1512472129321;-;-;8.908112;-0.4343567;-0.29260254;-;-;-;-;-;-;-;-;-;-;-;-;-;-;-
1512472129342;-;-;8.862625;-0.23085022;-0.52604675;-;-;-;-;-;-;-;-;-;-;-;-;-;-;-
1512472129364;-;-;9.041;-0.6929321;0.07130432;-;-;-;-;-;-;-;-;-;-;-;-;-;-;-
1512472129383;-;-;9.485123;-0.41041565;0.34544373;-;-;-;-;-;-;-;-;-;-;-;-;-;-;-
1512472129404;-;-;9.418076;-0.44154358;0.9380188;-;-;-;-;-;-;-;-;-;-;-;-;-;-;-
1512472129423;-;-;9.785599;-0.3254242;-0.059173584;-;-;-;-;-;-;-;-;-;-;-;-;-;-;-
1512472129444;-;-;8.633987;-0.2679596;-0.1381836;-;-;-;-;-;-;-;-;-;-;-;-;-;-;-
1512472129465;-;-;8.666306;-0.5037842;0.26045227;-;-;-;-;-;-;-;-;-;-;-;-;-;-;-
1512472129485;-;-;8.554977;-0.011779785;1.196579;-;-;-;-;-;-;-;-;-;-;-;-;-;-;-
1512472129505;-;-;9.3546295;-0.062057495;-0.085510254;-;-;-;-;-;-;-;-;-;-;-;-;-;-;-
1512472129526;-;-;9.837067;-0.13627625;0.2053833;-;-;-;-;-;-;-;-;-;-;-;-;-;-;-
1512472129546;-;-;9.470749;-0.093185425;0.28559875;-;-;-;-;-;-;-;-;-;-;-;-;-;-;-
1512472129567;-;-;9.3103485;-0.31225586;-0.32254028;-;-;-;-;-;-;-;-;-;-;-;-;-;-;-
1512472129587;-;-;10.38414;-0.3936615;-0.94262695;-;-;-;-;-;-;-;-;-;-;-;-;-;-;-
1512472129608;-;-;9.506668;-0.29788208;-0.073532104;-;-;-;-;-;-;-;-;-;-;-;-;-;-;-
1512472129627;-;-;8.077332;-0.85214233;-0.46499634;-;-;-;-;-;-;-;-;-;-;-;-;-;-;-
1512472129648;-;-;7.466812;0.7340088;-0.042419434;-;-;-;-;-;-;-;-;-;-;-;-;-;-;-
1512472129668;-;-;8.92009;0.8597107;-0.535614;-;-;-;-;-;-;-;-;-;-;-;-;-;-;-
1512472129689;-;-;8.784821;1.0249176;-0.31295776;-;-;-;-;-;-;-;-;-;-;-;-;-;-;-
1512472129709;-;-;9.473145;0.8704834;-0.6002655;-;-;-;-;-;-;-;-;-;-;-;-;-;-;-
1512472129729;-;-;9.797562;1.2164459;-0.4458313;-;-;-;-;-;-;-;-;-;-;-;-;-;-;-
1512472129750;-;-;10.24408;1.3936157;0.4615631;-;-;-;-;-;-;-;-;-;-;-;-;-;-;-
1512472129771;-;-;10.222534;1.0656128;0.1874237;-;-;-;-;-;-;-;-;-;-;-;-;-;-;-
1512472129790;-;-;10.22612;0.4766388;0.48910522;-;-;-;-;-;-;-;-;-;-;-;-;-;-;-
1512472129810;-;-;8.443649;0.14025879;-0.6613159;-;-;-;-;-;-;-;-;-;-;-;-;-;-;-
1512472129831;-;-;8.655533;0.6394501;0.6542969;-;-;-;-;-;-;-;-;-;-;-;-;-;-;-
1512472129851;-;-;8.212601;0.4359436;0.39692688;-;-;-;-;-;-;-;-;-;-;-;-;-;-;-
1512472129872;-;-;8.481949;0.46228027;0.098846436;-;-;-;-;-;-;-;-;-;-;-;-;-;-;-
1512472129892;-;-;8.236542;0.5161438;0.28559875;-;-;-;-;-;-;-;-;-;-;-;-;-;-;-
1512472129913;-;-;8.932053;0.31861877;0.21496582;-;-;-;-;-;-;-;-;-;-;-;-;-;-;-
1512472129933;-;-;9.282806;0.33418274;0.065322876;-;-;-;-;-;-;-;-;-;-;-;-;-;-;-
1512472129954;-;-;9.558136;0.3617096;0.043777466;-;-;-;-;-;-;-;-;-;-;-;-;-;-;-
1512472129974;-;-;9.530609;0.38327026;0.053359985;-;-;-;-;-;-;-;-;-;-;-;-;-;-;-
1512472129994;-;-;9.340271;0.3677063;0.096450806;-;-;-;-;-;-;-;-;-;-;-;-;-;-;-
1512472130015;-;-;9.181061;0.38327026;0.04019165;-;-;-;-;-;-;-;-;-;-;-;-;-;-;-
1512472130036;-;-;9.070923;0.45030212;0.06652832;-;-;-;-;-;-;-;-;-;-;-;-;-;-;-
1512472130056;-;-;9.019455;0.45509338;0.16468811;-;-;-;-;-;-;-;-;-;-;-;-;-;-;-
1512472130076;-;-;9.030228;0.45388794;0.18144226;-;-;-;-;-;-;-;-;-;-;-;-;-;-;-
1512472130096;-;-;9.039795;0.41558838;0.18383789;-;-;-;-;-;-;-;-;-;-;-;-;-;-;-
1512472130117;-;-;9.072113;0.38446045;0.19102478;-;-;-;-;-;-;-;-;-;-;-;-;-;-;-
1512472130137;-;-;9.129578;0.4072113;0.19342041;-;-;-;-;-;-;-;-;-;-;-;-;-;-;-
1512472130158;-;-;9.210983;0.43832397;0.110809326;-;-;-;-;-;-;-;-;-;-;-;-;-;-;-
1512472130179;-;-;9.267242;0.41438293;0.074905396;-;-;-;-;-;-;-;-;-;-;-;-;-;-;-
1512472130199;-;-;9.23851;0.34136963;0.034194946;-;-;-;-;-;-;-;-;-;-;-;-;-;-;-
1512472130220;-;-;9.146347;0.42755127;-0.056777954;-;-;-;-;-;-;-;-;-;-;-;-;-;-;-
1512472130240;-;-;9.056564;0.596344;-0.035232544;-;-;-;-;-;-;-;-;-;-;-;-;-;-;-
1512472130261;-;-;9.048172;0.6442261;-0.03163147;-;-;-;-;-;-;-;-;-;-;-;-;-;-;-
1512472130281;-;-;9.043396;0.7435913;-0.04121399;-;-;-;-;-;-;-;-;-;-;-;-;-;-;-
1512472130302;-;-;8.782425;1.382843;5.410385;-;-;-;-;-;-;-;-;-;-;-;-;-;-;-
1512472130322;-;-;9.088882;1.358902;-2.2534637;-;-;-;-;-;-;-;-;-;-;-;-;-;-;-
1512472130343;-;-;9.963959;0.076812744;-0.62779236;-;-;-;-;-;-;-;-;-;-;-;-;-;-;-
1512472130363;-;-;9.242111;-0.13627625;0.12876892;-;-;-;-;-;-;-;-;-;-;-;-;-;-;-
1512472130384;-;-;8.398148;0.5987396;-0.19444275;-;-;-;-;-;-;-;-;-;-;-;-;-;-;-
1512472130405;-;-;8.68306;0.4802246;-0.35964966;-;-;-;-;-;-;-;-;-;-;-;-;-;-;-
1512472130425;-;-;8.701019;0.67056274;-0.09269714;-;-;-;-;-;-;-;-;-;-;-;-;-;-;-
1512472130446;-;-;8.88298;0.6538086;-0.5631561;-;-;-;-;-;-;-;-;-;-;-;-;-;-;-
1512472130466;-;-;10.193802;-0.1015625;-0.32373047;-;-;-;-;-;-;-;-;-;-;-;-;-;-;-
1512472130486;-;-;9.3151245;0.013366699;-0.3045807;-;-;-;-;-;-;-;-;-;-;-;-;-;-;-
1512472130507;-;-;8.72377;-0.102752686;-0.2674713;-;-;-;-;-;-;-;-;-;-;-;-;-;-;-
1512472130527;-;-;9.29837;0.2348175;-0.16091919;-;-;-;-;-;-;-;-;-;-;-;-;-;-;-
1512472130548;-;-;9.205002;0.7124634;-0.38598633;-;-;-;-;-;-;-;-;-;-;-;-;-;-;-
1512472130568;-;-;9.366608;-0.2320404;-0.52005005;-;-;-;-;-;-;-;-;-;-;-;-;-;-;-
1512472130588;-;-;10.088455;-0.28112793;-0.159729;-;-;-;-;-;-;-;-;-;-;-;-;-;-;-
1512472130609;-;-;8.940445;0.36291504;0.086868286;-;-;-;-;-;-;-;-;-;-;-;-;-;-;-
1512472130629;-;-;10.223724;0.074417114;-0.29260254;-;-;-;-;-;-;-;-;-;-;-;-;-;-;-
1512472130650;-;-;8.838684;0.007369995;-0.68525696;-;-;-;-;-;-;-;-;-;-;-;-;-;-;-
1512472130670;-;-;9.085281;0.083984375;-0.85284424;-;-;-;-;-;-;-;-;-;-;-;-;-;-;-
1512472130690;-;-;8.622009;-0.28471375;0.13835144;-;-;-;-;-;-;-;-;-;-;-;-;-;-;-
1512472130711;-;-;9.250488;0.0013885498;-0.34048462;-;-;-;-;-;-;-;-;-;-;-;-;-;-;-
1512472130731;-;-;9.015854;0.13546753;-0.6194153;-;-;-;-;-;-;-;-;-;-;-;-;-;-;-
1512472130752;-;-;8.789597;1.070404;-0.9162903;-;-;-;-;-;-;-;-;-;-;-;-;-;-;-
1512472130772;-;-;8.668701;0.9087982;-1.3843689;-;-;-;-;-;-;-;-;-;-;-;-;-;-;-
1512472130793;-;-;8.722565;1.3900299;-0.9115143;-;-;-;-;-;-;-;-;-;-;-;-;-;-;-
1512472130814;-;-;8.556168;1.9358978;0.4867096;-;-;-;-;-;-;-;-;-;-;-;-;-;-;-
1512472130834;-;-;9.118805;1.7479553;1.1582794;-;-;-;-;-;-;-;-;-;-;-;-;-;-;-
1512472130854;-;-;9.635956;0.95547485;1.9555511;-;-;-;-;-;-;-;-;-;-;-;-;-;-;-
1512472130875;-;-;10.76123;-0.1817627;0.70936584;-;-;-;-;-;-;-;-;-;-;-;-;-;-;-
1512472130896;-;-;10.202179;-0.75756836;0.4400177;-;-;-;-;-;-;-;-;-;-;-;-;-;-;-
1512472130916;-;-;9.013458;0.06124878;1.3115082;-;-;-;-;-;-;-;-;-;-;-;-;-;-;-
1512472130936;-;-;8.240128;1.0500488;0.9966736;-;-;-;-;-;-;-;-;-;-;-;-;-;-;-
1512472130958;-;-;8.705811;1.3565063;0.86738586;-;-;-;-;-;-;-;-;-;-;-;-;-;-;-
1512472130979;-;-;9.364212;1.5157166;0.7345123;-;-;-;-;-;-;-;-;-;-;-;-;-;-;-
1512472130998;-;-;8.9787445;1.6078949;0.6207886;-;-;-;-;-;-;-;-;-;-;-;-;-;-;-
1512472131019;-;-;8.363434;1.5983276;0.666275;-;-;-;-;-;-;-;-;-;-;-;-;-;-;-
1512472131038;-;-;8.155136;1.4953766;0.96195984;-;-;-;-;-;-;-;-;-;-;-;-;-;-;-
1512472131059;-;-;7.9109344;1.3002472;1.4300232;-;-;-;-;-;-;-;-;-;-;-;-;-;-;-
1512472131080;-;-;8.017471;0.7950592;1.5760651;-;-;-;-;-;-;-;-;-;-;-;-;-;-;-
1512472131100;-;-;8.499908;0.46107483;1.3402405;-;-;-;-;-;-;-;-;-;-;-;-;-;-;-
1512472131120;-;-;8.757278;0.54248047;1.0218048;-;-;-;-;-;-;-;-;-;-;-;-;-;-;-
1512472131141;-;-;10.123169;-0.704895;1.4659271;-;-;-;-;-;-;-;-;-;-;-;-;-;-;-
1512472131161;-;-;9.96875;0.38327026;1.0840607;-;-;-;-;-;-;-;-;-;-;-;-;-;-;-
1512472131182;-;-;9.582092;1.5911407;1.7556305;-;-;-;-;-;-;-;-;-;-;-;-;-;-;-
1512472131202;-;-;9.172684;2.426712;1.6155701;-;-;-;-;-;-;-;-;-;-;-;-;-;-;-
1512472131222;-;-;8.912903;2.474594;1.4958649;-;-;-;-;-;-;-;-;-;-;-;-;-;-;-
1512472131243;-;-;8.225769;2.1585693;2.1817932;-;-;-;-;-;-;-;-;-;-;-;-;-;-;-
1512472131263;-;-;8.355057;1.6330414;2.8928833;-;-;-;-;-;-;-;-;-;-;-;-;-;-;-
1512472131283;-;-;8.539413;0.95428467;3.5177612;-;-;-;-;-;-;-;-;-;-;-;-;-;-;-
1512472131304;-;-;8.598068;0.9590759;3.3872833;-;-;-;-;-;-;-;-;-;-;-;-;-;-;-
1512472131324;-;-;9.0793;1.5659943;3.1023712;-;-;-;-;-;-;-;-;-;-;-;-;-;-;-
1512472131345;-;-;10.946777;2.196869;1.4252319;-;-;-;-;-;-;-;-;-;-;-;-;-;-;-
1512472131365;-;-;14.253174;2.9821625;0.84703064;-;-;-;-;-;-;-;-;-;-;-;-;-;-;-
1512472131387;-;-;13.734833;2.6649323;-0.669693;-;-;-;-;-;-;-;-;-;-;-;-;-;-;-
1512472131407;-;-;12.55928;2.1873016;-1.6525116;-;-;-;-;-;-;-;-;-;-;-;-;-;-;-
1512472131428;-;-;12.565262;2.2627106;-1.8656006;-;-;-;-;-;-;-;-;-;-;-;-;-;-;-
1512472131449;-;-;11.260422;1.3732605;-1.9314423;-;-;-;-;-;-;-;-;-;-;-;-;-;-;-
1512472131469;-;-;8.222183;-0.17578125;-2.9142609;-;-;-;-;-;-;-;-;-;-;-;-;-;-;-
1512472131489;-;-;6.209854;-1.3872528;-1.8344727;-;-;-;-;-;-;-;-;-;-;-;-;-;-;-
1512472131510;-;-;4.721863;-2.882431;-1.0072784;-;-;-;-;-;-;-;-;-;-;-;-;-;-;-
1512472131529;-;-;4.7338257;-3.423523;-1.0419922;-;-;-;-;-;-;-;-;-;-;-;-;-;-;-
1512472131549;-;-;6.4049835;-1.3860474;-2.4461975;-;-;-;-;-;-;-;-;-;-;-;-;-;-;-
1512472131570;-;-;9.066132;0.3317871;-2.3935242;-;-;-;-;-;-;-;-;-;-;-;-;-;-;-
1512472131590;-;-;9.82988;1.8173981;-2.148117;-;-;-;-;-;-;-;-;-;-;-;-;-;-;-
1512472131610;-;-;10.269226;2.1980743;-1.5543518;-;-;-;-;-;-;-;-;-;-;-;-;-;-;-
1512472131630;-;-;9.839462;0.9973755;-1.8093262;-;-;-;-;-;-;-;-;-;-;-;-;-;-;-
1512472131650;-;-;9.262466;0.06602478;-1.7099762;-;-;-;-;-;-;-;-;-;-;-;-;-;-;-
1512472131671;-;-;8.2317505;-0.8712921;-1.7147675;-;-;-;-;-;-;-;-;-;-;-;-;-;-;-
1512472131690;-;-;7.921707;-1.036499;-1.5615387;-;-;-;-;-;-;-;-;-;-;-;-;-;-;-
1512472131710;-;-;8.598068;-1.6075134;-0.72117615;-;-;-;-;-;-;-;-;-;-;-;-;-;-;-
1512472131731;-;-;8.790802;-1.7236328;-0.7391205;-;-;-;-;-;-;-;-;-;-;-;-;-;-;-
1512472131751;-;-;8.866211;-1.3944244;-0.20881653;-;-;-;-;-;-;-;-;-;-;-;-;-;-;-
1512472131771;-;-;9.062546;-1.0496674;-0.025650024;-;-;-;-;-;-;-;-;-;-;-;-;-;-;-
1512472131792;-;-;8.975159;-1.0568542;-0.07234192;-;-;-;-;-;-;-;-;-;-;-;-;-;-;-
1512472131812;-;-;8.862625;-1.0592499;0.46037292;-;-;-;-;-;-;-;-;-;-;-;-;-;-;-
1512472131833;-;-;9.036209;-0.9503021;0.686615;-;-;-;-;-;-;-;-;-;-;-;-;-;-;-
1512472131852;-;-;8.859039;-0.6641998;0.978714;-;-;-;-;-;-;-;-;-;-;-;-;-;-;-
1512472131872;-;-;8.696228;-0.44752502;0.7368927;-;-;-;-;-;-;-;-;-;-;-;-;-;-;-
1512472131893;-;-;8.369415;-0.20930481;0.6351471;-;-;-;-;-;-;-;-;-;-;-;-;-;-;-
1512472131912;-;-;8.288025;0.17137146;0.76322937;-;-;-;-;-;-;-;-;-;-;-;-;-;-;-
1512472131932;-;-;8.317947;0.56881714;0.75964355;-;-;-;-;-;-;-;-;-;-;-;-;-;-;-
1512472131953;-;-;8.806366;0.77111816;0.42445374;-;-;-;-;-;-;-;-;-;-;-;-;-;-;-
1512472131973;-;-;9.051773;1.0584259;0.41966248;-;-;-;-;-;-;-;-;-;-;-;-;-;-;-
1512472131994;-;-;9.172684;0.45030212;0.2843933;-;-;-;-;-;-;-;-;-;-;-;-;-;-;-
1512472132014;-;-;9.923264;-0.8353882;0.019836426;-;-;-;-;-;-;-;-;-;-;-;-;-;-;-
1512472132035;-;-;9.942413;-1.858902;0.16947937;-;-;-;-;-;-;-;-;-;-;-;-;-;-;-
1512472132055;-;-;9.868195;-2.104309;1.2025757;-;-;-;-;-;-;-;-;-;-;-;-;-;-;-
1512472132076;-;-;9.307953;-1.8768616;1.844223;-;-;-;-;-;-;-;-;-;-;-;-;-;-;-
1512472132096;-;-;8.867416;-1.7344055;2.3338318;-;-;-;-;-;-;-;-;-;-;-;-;-;-;-
1512472132117;-;-;8.833893;-2.4502716;0.53578186;-;-;-;-;-;-;-;-;-;-;-;-;-;-;-
1512472132136;-;-;11.345413;-1.5680084;-0.748703;-;-;-;-;-;-;-;-;-;-;-;-;-;-;-
1512472132157;-;-;12.688568;-1.3932343;-2.3228912;-;-;-;-;-;-;-;-;-;-;-;-;-;-;-
1512472132177;-;-;12.602371;-2.064804;-6.1177063;-;-;-;-;-;-;-;-;-;-;-;-;-;-;-
1512472132198;-;-;11.562088;-2.0456543;-6.4205627;-;-;-;-;-;-;-;-;-;-;-;-;-;-;-
1512472132217;-;-;8.752487;0.77711487;-2.0750885;-;-;-;-;-;-;-;-;-;-;-;-;-;-;-
1512472132238;-;-;8.157532;2.679306;1.3318634;-;-;-;-;-;-;-;-;-;-;-;-;-;-;-
1512472132257;-;-;9.035004;2.6146545;0.65789795;-;-;-;-;-;-;-;-;-;-;-;-;-;-;-
1512472132278;-;-;9.993881;0.61190796;0.022232056;-;-;-;-;-;-;-;-;-;-;-;-;-;-;-
1512472132298;-;-;9.875381;-1.1023407;-1.0743103;-;-;-;-;-;-;-;-;-;-;-;-;-;-;-
1512472132318;-;-;9.638351;-1.562027;-1.5172424;-;-;-;-;-;-;-;-;-;-;-;-;-;-;-
1512472132339;-;-;8.576523;-0.68574524;-1.401123;-;-;-;-;-;-;-;-;-;-;-;-;-;-;-
1512472132359;-;-;7.447647;0.42755127;-0.8384857;-;-;-;-;-;-;-;-;-;-;-;-;-;-;-
1512472132379;-;-;7.688278;1.0596313;-0.9402313;-;-;-;-;-;-;-;-;-;-;-;-;-;-;-
1512472132400;-;-;7.5865173;1.4606476;-1.1545258;-;-;-;-;-;-;-;-;-;-;-;-;-;-;-
1512472132420;-;-;7.6224365;0.7830963;-0.7163849;-;-;-;-;-;-;-;-;-;-;-;-;-;-;-
1512472132440;-;-;7.252533;0.71606445;-0.5535736;-;-;-;-;-;-;-;-;-;-;-;-;-;-;-
1512472132460;-;-;6.4480743;0.2886963;-0.14537048;-;-;-;-;-;-;-;-;-;-;-;-;-;-;-
1512472132481;-;-;6.537857;-0.100372314;0.686615;-;-;-;-;-;-;-;-;-;-;-;-;-;-;-
1512472132501;-;-;7.28125;-0.32781982;1.3294678;-;-;-;-;-;-;-;-;-;-;-;-;-;-;-
1512472132522;-;-;8.556168;-0.4439392;1.3845367;-;-;-;-;-;-;-;-;-;-;-;-;-;-;-
1512472132542;-;-;8.595673;-0.1530304;1.2109528;-;-;-;-;-;-;-;-;-;-;-;-;-;-;-
1512472132562;-;-;8.272461;0.13186646;0.47233582;-;-;-;-;-;-;-;-;-;-;-;-;-;-;-
1512472132583;-;-;8.112045;0.5747986;-0.13697815;-;-;-;-;-;-;-;-;-;-;-;-;-;-;-
1512472132604;-;-;7.952835;0.8154144;0.92962646;-;-;-;-;-;-;-;-;-;-;-;-;-;-;-
1512472132623;-;-;7.5996857;0.5640259;1.7783813;-;-;-;-;-;-;-;-;-;-;-;-;-;-;-
1512472132644;-;-;7.628418;0.25875854;1.5186005;-;-;-;-;-;-;-;-;-;-;-;-;-;-;-
1512472132664;-;-;7.2190094;0.064834595;0.9451904;-;-;-;-;-;-;-;-;-;-;-;-;-;-;-
1512472132685;-;-;6.335541;-0.03691101;1.0074463;-;-;-;-;-;-;-;-;-;-;-;-;-;-;-
1512472132705;-;-;6.1080933;0.24679565;1.4719238;-;-;-;-;-;-;-;-;-;-;-;-;-;-;-
1512472132724;-;-;6.3858185;0.56521606;1.8370361;-;-;-;-;-;-;-;-;-;-;-;-;-;-;-
1512472132745;-;-;6.712631;1.2439728;1.7221069;-;-;-;-;-;-;-;-;-;-;-;-;-;-;-
1512472132765;-;-;6.668335;1.6701508;1.1080017;-;-;-;-;-;-;-;-;-;-;-;-;-;-;-
1512472132785;-;-;7.135208;1.9921722;0.20059204;-;-;-;-;-;-;-;-;-;-;-;-;-;-;-
1512472132806;-;-;9.257675;1.0656128;-3.725891;-;-;-;-;-;-;-;-;-;-;-;-;-;-;-
1512472132826;-;-;11.942764;0.14503479;-6.0758057;-;-;-;-;-;-;-;-;-;-;-;-;-;-;-
1512472132847;-;-;12.371323;-2.2443695;-4.3172607;-;-;-;-;-;-;-;-;-;-;-;-;-;-;-
1512472132867;-;-;11.9236145;-1.6110992;1.2887573;-;-;-;-;-;-;-;-;-;-;-;-;-;-;-
1512472132888;-;-;19.63414;-2.7387695;4.8549194;-;-;-;-;-;-;-;-;-;-;-;-;-;-;-
1512472132908;-;-;24.71225;-5.3664093;-3.3212738;-;-;-;-;-;-;-;-;-;-;-;-;-;-;-
1512472132929;-;-;17.332123;-3.03685;-2.1612854;-;-;-;-;-;-;-;-;-;-;-;-;-;-;-
1512472132948;-;-;10.830658;0.14863586;1.670639;-;-;-;-;-;-;-;-;-;-;-;-;-;-;-
1512472132969;-;-;7.3662567;0.6573944;3.587204;-;-;-;-;-;-;-;-;-;-;-;-;-;-;-
1512472132988;-;-;5.662781;-0.33859253;4.548462;-;-;-;-;-;-;-;-;-;-;-;-;-;-;-
1512472133009;-;-;4.1711884;-1.2400055;2.469101;-;-;-;-;-;-;-;-;-;-;-;-;-;-;-
1512472133029;-;-;6.060211;-0.13269043;2.0285645;-;-;-;-;-;-;-;-;-;-;-;-;-;-;-
1512472133049;-;-;8.545395;0.84654236;2.1063843;-;-;-;-;-;-;-;-;-;-;-;-;-;-;-
1512472133070;-;-;9.510254;1.0249176;1.9220276;-;-;-;-;-;-;-;-;-;-;-;-;-;-;-
1512472133089;-;-;8.377808;-0.289505;1.3258667;-;-;-;-;-;-;-;-;-;-;-;-;-;-;-
1512472133110;-;-;7.6272125;-1.0975494;1.3486176;-;-;-;-;-;-;-;-;-;-;-;-;-;-;-
1512472133129;-;-;7.2429504;-1.0448761;1.8549957;-;-;-;-;-;-;-;-;-;-;-;-;-;-;-
1512472133149;-;-;7.2585144;-0.5157623;2.1638489;-;-;-;-;-;-;-;-;-;-;-;-;-;-;-
1512472133170;-;-;7.3315277;-0.289505;1.6395111;-;-;-;-;-;-;-;-;-;-;-;-;-;-;-
1512472133190;-;-;7.6236267;-0.48942566;1.2217255;-;-;-;-;-;-;-;-;-;-;-;-;-;-;-
1512472133212;-;-;6.968811;-1.1897278;1.7328949;-;-;-;-;-;-;-;-;-;-;-;-;-;-;-
1512472133231;-;-;6.6875;-2.0971222;1.848999;-;-;-;-;-;-;-;-;-;-;-;-;-;-;-
1512472133251;-;-;6.7341766;-3.1194458;0.96195984;-;-;-;-;-;-;-;-;-;-;-;-;-;-;-
1512472133271;-;-;5.6508026;-3.3397217;-0.29859924;-;-;-;-;-;-;-;-;-;-;-;-;-;-;-
1512472133292;-;-;5.1516113;-2.4849854;-0.66490173;-;-;-;-;-;-;-;-;-;-;-;-;-;-;-
1512472133312;-;-;5.130066;-1.3633118;-0.32254028;-;-;-;-;-;-;-;-;-;-;-;-;-;-;-
1512472133333;-;-;4.995987;-0.2212677;-0.107055664;-;-;-;-;-;-;-;-;-;-;-;-;-;-;-
1512472133353;-;-;5.4927826;0.6945038;-0.30218506;-;-;-;-;-;-;-;-;-;-;-;-;-;-;-
1512472133374;-;-;7.5781403;2.512909;-2.5599213;-;-;-;-;-;-;-;-;-;-;-;-;-;-;-
1512472133394;-;-;10.658279;3.0755463;-1.0036774;-;-;-;-;-;-;-;-;-;-;-;-;-;-;-
1512472133415;-;-;14.251968;2.2495422;-0.93785095;-;-;-;-;-;-;-;-;-;-;-;-;-;-;-
1512472133434;-;-;18.144943;1.3565063;-1.571106;-;-;-;-;-;-;-;-;-;-;-;-;-;-;-
1512472133455;-;-;19.63295;0.80584717;-0.024459839;-;-;-;-;-;-;-;-;-;-;-;-;-;-;-
1512472133475;-;-;16.838913;3.1054688;0.20419312;-;-;-;-;-;-;-;-;-;-;-;-;-;-;-
1512472133496;-;-;14.822998;2.9151306;1.5473328;-;-;-;-;-;-;-;-;-;-;-;-;-;-;-
1512472133516;-;-;11.636307;1.651001;0.7979584;-;-;-;-;-;-;-;-;-;-;-;-;-;-;-
1512472133537;-;-;9.29718;0.028915405;1.354599;-;-;-;-;-;-;-;-;-;-;-;-;-;-;-
1512472133558;-;-;8.247314;0.23362732;1.5497284;-;-;-;-;-;-;-;-;-;-;-;-;-;-;-
1512472133578;-;-;7.2752686;0.8776703;2.4667053;-;-;-;-;-;-;-;-;-;-;-;-;-;-;-
1512472133599;-;-;5.9117737;1.0680084;2.1506805;-;-;-;-;-;-;-;-;-;-;-;-;-;-;-
1512472133619;-;-;5.823181;0.23362732;3.2627869;-;-;-;-;-;-;-;-;-;-;-;-;-;-;-
1512472133640;-;-;5.470047;-0.117126465;2.8150635;-;-;-;-;-;-;-;-;-;-;-;-;-;-;-
1512472133660;-;-;6.1009216;0.024139404;2.5133972;-;-;-;-;-;-;-;-;-;-;-;-;-;-;-
1512472133680;-;-;6.3175964;-0.22605896;2.0166016;-;-;-;-;-;-;-;-;-;-;-;-;-;-;-
1512472133701;-;-;6.1033173;-0.38287354;2.1901855;-;-;-;-;-;-;-;-;-;-;-;-;-;-;-
1512472133722;-;-;5.4724426;-0.37210083;1.6790161;-;-;-;-;-;-;-;-;-;-;-;-;-;-;-
1512472133742;-;-;4.999588;0.115112305;0.8661804;-;-;-;-;-;-;-;-;-;-;-;-;-;-;-
1512472133763;-;-;5.6747437;1.358902;-0.45899963;-;-;-;-;-;-;-;-;-;-;-;-;-;-;-
1512472133783;-;-;5.0893707;2.3094025;-0.75349426;-;-;-;-;-;-;-;-;-;-;-;-;-;-;-
1512472133803;-;-;5.2940674;2.5117035;-1.0779114;-;-;-;-;-;-;-;-;-;-;-;-;-;-;-
1512472133824;-;-;7.031067;0.9028015;-4.2969055;-;-;-;-;-;-;-;-;-;-;-;-;-;-;-
1512472133845;-;-;11.094025;-0.6043396;-4.863144;-;-;-;-;-;-;-;-;-;-;-;-;-;-;-
1512472133865;-;-;14.089172;-1.3202057;-3.9796753;-;-;-;-;-;-;-;-;-;-;-;-;-;-;-
1512472133886;-;-;15.569977;-1.0436859;-0.07473755;-;-;-;-;-;-;-;-;-;-;-;-;-;-;-
1512472133907;-;-;19.462952;0.97224426;1.1295471;-;-;-;-;-;-;-;-;-;-;-;-;-;-;-
1512472133926;-;-;22.502396;-2.5831451;0.587265;-;-;-;-;-;-;-;-;-;-;-;-;-;-;-
1512472133947;-;-;16.382813;-3.8652496;-0.01966858;-;-;-;-;-;-;-;-;-;-;-;-;-;-;-
1512472133968;-;-;11.296326;-4.491333;1.6119843;-;-;-;-;-;-;-;-;-;-;-;-;-;-;-
1512472133987;-;-;9.159515;-4.175293;3.0712433;-;-;-;-;-;-;-;-;-;-;-;-;-;-;-
1512472134008;-;-;8.10965;-2.598709;2.9647064;-;-;-;-;-;-;-;-;-;-;-;-;-;-;-
1512472134028;-;-;6.7569275;-0.917984;1.4874878;-;-;-;-;-;-;-;-;-;-;-;-;-;-;-
1512472134049;-;-;6.1320343;-0.41400146;1.9100647;-;-;-;-;-;-;-;-;-;-;-;-;-;-;-
1512472134069;-;-;5.1432343;-0.25239563;1.8585815;-;-;-;-;-;-;-;-;-;-;-;-;-;-;-
1512472134090;-;-;5.565811;-0.39964294;1.828659;-;-;-;-;-;-;-;-;-;-;-;-;-;-;-
1512472134110;-;-;6.596512;-0.6103363;2.3757324;-;-;-;-;-;-;-;-;-;-;-;-;-;-;-
1512472134131;-;-;6.941284;-0.73602295;1.8226776;-;-;-;-;-;-;-;-;-;-;-;-;-;-;-
1512472134151;-;-;6.874237;-0.3481598;0.8877411;-;-;-;-;-;-;-;-;-;-;-;-;-;-;-
1512472134172;-;-;6.3966064;0.6250763;0.7907715;-;-;-;-;-;-;-;-;-;-;-;-;-;-;-
1512472134192;-;-;6.015915;0.7220459;0.350235;-;-;-;-;-;-;-;-;-;-;-;-;-;-;-
1512472134213;-;-;4.7577667;-0.50019836;0.27601624;-;-;-;-;-;-;-;-;-;-;-;-;-;-;-
1512472134232;-;-;4.745804;-2.3497162;-2.2139587;-;-;-;-;-;-;-;-;-;-;-;-;-;-;-
1512472134252;-;-;4.1197205;-2.4658356;-2.9633331;-;-;-;-;-;-;-;-;-;-;-;-;-;-;-
1512472134273;-;-;3.58461;-0.7192688;-0.24832153;-;-;-;-;-;-;-;-;-;-;-;-;-;-;-
1512472134294;-;-;6.5354614;0.89682007;1.528183;-;-;-;-;-;-;-;-;-;-;-;-;-;-;-
1512472134315;-;-;12.110367;1.837738;1.6849976;-;-;-;-;-;-;-;-;-;-;-;-;-;-;-
1512472134335;-;-;19.002075;2.9690094;-0.33929443;-;-;-;-;-;-;-;-;-;-;-;-;-;-;-
1512472134356;-;-;20.40268;3.924286;-1.5244293;-;-;-;-;-;-;-;-;-;-;-;-;-;-;-
1512472134377;-;-;16.45105;2.0412445;-0.73672485;-;-;-;-;-;-;-;-;-;-;-;-;-;-;-
1512472134397;-;-;14.862503;1.5300903;0.6566925;-;-;-;-;-;-;-;-;-;-;-;-;-;-;-
1512472134417;-;-;13.777924;1.6306458;2.01062;-;-;-;-;-;-;-;-;-;-;-;-;-;-;-
1512472134438;-;-;9.944809;0.16659546;3.8960419;-;-;-;-;-;-;-;-;-;-;-;-;-;-;-
1512472134458;-;-;7.5984955;0.055252075;4.9686584;-;-;-;-;-;-;-;-;-;-;-;-;-;-;-
1512472134478;-;-;5.652008;0.793869;3.7404327;-;-;-;-;-;-;-;-;-;-;-;-;-;-;-
1512472134499;-;-;4.185547;1.2391968;3.6937408;-;-;-;-;-;-;-;-;-;-;-;-;-;-;-
1512472134520;-;-;3.7917023;0.65141296;3.9571075;-;-;-;-;-;-;-;-;-;-;-;-;-;-;-
1512472134539;-;-;3.8982544;-0.72406006;3.5512848;-;-;-;-;-;-;-;-;-;-;-;-;-;-;-
1512472134560;-;-;5.3898315;-0.91319275;2.1458893;-;-;-;-;-;-;-;-;-;-;-;-;-;-;-
1512472134580;-;-;5.9309235;-0.26197815;1.2983398;-;-;-;-;-;-;-;-;-;-;-;-;-;-;-
1512472134600;-;-;7.4608154;0.45628357;0.29637146;-;-;-;-;-;-;-;-;-;-;-;-;-;-;-
1512472134621;-;-;6.8083954;1.8078156;0.115600586;-;-;-;-;-;-;-;-;-;-;-;-;-;-;-
1512472134641;-;-;6.84671;3.0432281;-1.7578583;-;-;-;-;-;-;-;-;-;-;-;-;-;-;-
1512472134662;-;-;7.5637665;3.0911102;-4.5494995;-;-;-;-;-;-;-;-;-;-;-;-;-;-;-
1512472134683;-;-;10.749252;1.7299957;-5.254593;-;-;-;-;-;-;-;-;-;-;-;-;-;-;-
1512472134703;-;-;12.700531;-0.18655396;-1.0024872;-;-;-;-;-;-;-;-;-;-;-;-;-;-;-
1512472134724;-;-;16.561188;-2.1234589;1.2660217;-;-;-;-;-;-;-;-;-;-;-;-;-;-;-
1512472134743;-;-;20.111786;-2.8620758;0.9116821;-;-;-;-;-;-;-;-;-;-;-;-;-;-;-
1512472134763;-;-;20.569077;-4.2842255;-3.2015686;-;-;-;-;-;-;-;-;-;-;-;-;-;-;-
1512472134784;-;-;16.423523;-2.6106873;0.97273254;-;-;-;-;-;-;-;-;-;-;-;-;-;-;-
1512472134804;-;-;11.59082;-1.9606628;3.0317383;-;-;-;-;-;-;-;-;-;-;-;-;-;-;-
1512472134825;-;-;9.306747;-1.8505249;3.453125;-;-;-;-;-;-;-;-;-;-;-;-;-;-;-
1512472134845;-;-;6.3618774;-2.519699;3.2113037;-;-;-;-;-;-;-;-;-;-;-;-;-;-;-
1512472134865;-;-;5.485611;-2.8213806;1.1499023;-;-;-;-;-;-;-;-;-;-;-;-;-;-;-
1512472134885;-;-;6.3894196;-1.1633911;1.4467773;-;-;-;-;-;-;-;-;-;-;-;-;-;-;-
1512472134906;-;-;6.76651;0.6442261;2.6941528;-;-;-;-;-;-;-;-;-;-;-;-;-;-;-
1512472134926;-;-;7.1675262;0.99497986;2.2248993;-;-;-;-;-;-;-;-;-;-;-;-;-;-;-
1512472134946;-;-;7.4895477;0.51135254;1.4228363;-;-;-;-;-;-;-;-;-;-;-;-;-;-;-
1512472134967;-;-;7.6571503;-0.33259583;2.0608978;-;-;-;-;-;-;-;-;-;-;-;-;-;-;-
1512472134988;-;-;7.3291473;-0.8688965;1.6957703;-;-;-;-;-;-;-;-;-;-;-;-;-;-;-
1512472135008;-;-;6.577362;-0.9167938;1.0433502;-;-;-;-;-;-;-;-;-;-;-;-;-;-;-
1512472135029;-;-;5.2581635;-0.58877563;1.373764;-;-;-;-;-;-;-;-;-;-;-;-;-;-;-
1512472135049;-;-;4.762558;-1.3980255;1.840622;-;-;-;-;-;-;-;-;-;-;-;-;-;-;-
1512472135069;-;-;6.1332397;-2.8249664;0.28199768;-;-;-;-;-;-;-;-;-;-;-;-;-;-;-
1512472135090;-;-;5.9548645;-2.842926;-0.73313904;-;-;-;-;-;-;-;-;-;-;-;-;-;-;-
1512472135110;-;-;4.9588776;-2.4837952;-0.91989136;-;-;-;-;-;-;-;-;-;-;-;-;-;-;-
1512472135131;-;-;5.710663;-1.3860474;-0.53800964;-;-;-;-;-;-;-;-;-;-;-;-;-;-;-
1512472135150;-;-;7.2441406;1.6258545;-0.9749603;-;-;-;-;-;-;-;-;-;-;-;-;-;-;-
1512472135170;-;-;11.210144;3.7674713;0.41488647;-;-;-;-;-;-;-;-;-;-;-;-;-;-;-
1512472135191;-;-;14.41478;4.0882874;-2.5814667;-;-;-;-;-;-;-;-;-;-;-;-;-;-;-
1512472135211;-;-;16.94426;2.2196198;-2.1852264;-;-;-;-;-;-;-;-;-;-;-;-;-;-;-
1512472135232;-;-;15.087555;2.0125122;-0.748703;-;-;-;-;-;-;-;-;-;-;-;-;-;-;-
1512472135252;-;-;15.5759735;2.8624573;3.3022919;-;-;-;-;-;-;-;-;-;-;-;-;-;-;-
1512472135273;-;-;15.423935;2.7212067;2.912033;-;-;-;-;-;-;-;-;-;-;-;-;-;-;-
1512472135293;-;-;14.231628;1.106308;0.83625793;-;-;-;-;-;-;-;-;-;-;-;-;-;-;-
1512472135313;-;-;11.301117;0.64064026;0.7249298;-;-;-;-;-;-;-;-;-;-;-;-;-;-;-
1512472135333;-;-;7.93248;0.119903564;2.1973572;-;-;-;-;-;-;-;-;-;-;-;-;-;-;-
1512472135354;-;-;4.8954315;-0.4918213;4.2336273;-;-;-;-;-;-;-;-;-;-;-;-;-;-;-
1512472135373;-;-;3.395462;-1.0269165;4.981827;-;-;-;-;-;-;-;-;-;-;-;-;-;-;-
1512472135393;-;-;3.1644287;-1.131073;3.5034027;-;-;-;-;-;-;-;-;-;-;-;-;-;-;-
1512472135414;-;-;4.280121;-1.3285828;2.062088;-;-;-;-;-;-;-;-;-;-;-;-;-;-;-
1512472135434;-;-;5.181549;-0.5349121;1.373764;-;-;-;-;-;-;-;-;-;-;-;-;-;-;-
1512472135455;-;-;5.6508026;0.7076721;1.033783;-;-;-;-;-;-;-;-;-;-;-;-;-;-;-
1512472135475;-;-;6.1296387;1.5420532;1.057724;-;-;-;-;-;-;-;-;-;-;-;-;-;-;-
1512472135495;-;-;6.703064;2.3094025;0.57289124;-;-;-;-;-;-;-;-;-;-;-;-;-;-;-
1512472135515;-;-;5.823181;2.7690887;-0.7475128;-;-;-;-;-;-;-;-;-;-;-;-;-;-;-
1512472135536;-;-;6.0566254;2.3896027;-3.729477;-;-;-;-;-;-;-;-;-;-;-;-;-;-;-
1512472135557;-;-;7.8965607;1.3732605;-5.188751;-;-;-;-;-;-;-;-;-;-;-;-;-;-;-
1512472135578;-;-;12.066071;0.13186646;-3.9868622;-;-;-;-;-;-;-;-;-;-;-;-;-;-;-
1512472135598;-;-;15.166565;-2.3401337;-0.23275757;-;-;-;-;-;-;-;-;-;-;-;-;-;-;-
1512472135619;-;-;17.564346;-1.6757507;-0.8684082;-;-;-;-;-;-;-;-;-;-;-;-;-;-;-
1512472135639;-;-;18.76744;-2.6657562;-0.07473755;-;-;-;-;-;-;-;-;-;-;-;-;-;-;-
1512472135660;-;-;17.48056;-4.211212;0.40769958;-;-;-;-;-;-;-;-;-;-;-;-;-;-;-
1512472135680;-;-;14.467453;-2.4383087;1.5233917;-;-;-;-;-;-;-;-;-;-;-;-;-;-;-
1512472135701;-;-;11.647079;-2.151001;1.5102234;-;-;-;-;-;-;-;-;-;-;-;-;-;-;-
1512472135721;-;-;8.8003845;-1.530899;1.9028778;-;-;-;-;-;-;-;-;-;-;-;-;-;-;-
1512472135741;-;-;6.980789;-0.92037964;1.7556305;-;-;-;-;-;-;-;-;-;-;-;-;-;-;-
1512472135762;-;-;6.376251;-0.8425598;1.45755;-;-;-;-;-;-;-;-;-;-;-;-;-;-;-
1512472135782;-;-;6.4528656;-0.06086731;2.149475;-;-;-;-;-;-;-;-;-;-;-;-;-;-;-
1512472135803;-;-;6.45166;0.57240295;2.433197;-;-;-;-;-;-;-;-;-;-;-;-;-;-;-
1512472135824;-;-;6.2876587;0.5987396;2.4822693;-;-;-;-;-;-;-;-;-;-;-;-;-;-;-
1512472135844;-;-;5.999161;0.117507935;2.864151;-;-;-;-;-;-;-;-;-;-;-;-;-;-;-
1512472135865;-;-;5.9548645;-0.7264557;2.3589783;-;-;-;-;-;-;-;-;-;-;-;-;-;-;-
1512472135885;-;-;6.680313;-2.3952026;1.8478088;-;-;-;-;-;-;-;-;-;-;-;-;-;-;-
1512472135905;-;-;6.8131866;-3.107483;1.835846;-;-;-;-;-;-;-;-;-;-;-;-;-;-;-
1512472135925;-;-;6.0266876;-3.1050873;2.0991974;-;-;-;-;-;-;-;-;-;-;-;-;-;-;-
1512472135946;-;-;5.3958282;-3.4809723;1.2779846;-;-;-;-;-;-;-;-;-;-;-;-;-;-;-
1512472135966;-;-;5.391037;-3.823349;-1.0659332;-;-;-;-;-;-;-;-;-;-;-;-;-;-;-
1512472135987;-;-;4.906204;-3.313385;-2.8687744;-;-;-;-;-;-;-;-;-;-;-;-;-;-;-
1512472136007;-;-;5.313217;0.14263916;-3.001648;-;-;-;-;-;-;-;-;-;-;-;-;-;-;-
1512472136028;-;-;7.4452667;3.3221436;0.76683044;-;-;-;-;-;-;-;-;-;-;-;-;-;-;-
1512472136047;-;-;13.975449;5.0579376;1.215744;-;-;-;-;-;-;-;-;-;-;-;-;-;-;-
1512472136067;-;-;19.684418;4.4833374;0.74528503;-;-;-;-;-;-;-;-;-;-;-;-;-;-;-
1512472136087;-;-;19.771805;1.8604889;-1.8679962;-;-;-;-;-;-;-;-;-;-;-;-;-;-;-
1512472136108;-;-;19.17685;0.18933105;-0.788208;-;-;-;-;-;-;-;-;-;-;-;-;-;-;-
1512472136129;-;-;17.771454;2.232788;3.4231873;-;-;-;-;-;-;-;-;-;-;-;-;-;-;-
1512472136148;-;-;13.527725;2.739151;2.793518;-;-;-;-;-;-;-;-;-;-;-;-;-;-;-
1512472136169;-;-;10.0381775;1.4606476;2.9922333;-;-;-;-;-;-;-;-;-;-;-;-;-;-;-
1512472136189;-;-;5.186325;-1.0089569;2.5816345;-;-;-;-;-;-;-;-;-;-;-;-;-;-;-
1512472136209;-;-;2.8711395;-2.4766083;2.4679108;-;-;-;-;-;-;-;-;-;-;-;-;-;-;-
1512472136230;-;-;2.399475;-3.3385162;4.3880615;-;-;-;-;-;-;-;-;-;-;-;-;-;-;-
1512472136250;-;-;3.32724;-2.7220154;3.8026733;-;-;-;-;-;-;-;-;-;-;-;-;-;-;-
1512472136271;-;-;5.4006042;-0.6534271;3.200531;-;-;-;-;-;-;-;-;-;-;-;-;-;-;-
1512472136292;-;-;7.1723175;1.2763062;2.9168243;-;-;-;-;-;-;-;-;-;-;-;-;-;-;-
1512472136312;-;-;7.7577057;1.6701508;1.473114;-;-;-;-;-;-;-;-;-;-;-;-;-;-;-
1512472136333;-;-;7.7421417;0.7424011;0.77041626;-;-;-;-;-;-;-;-;-;-;-;-;-;-;-
1512472136355;-;-;8.819534;0.43234253;2.2584076;-;-;-;-;-;-;-;-;-;-;-;-;-;-;-
1512472136373;-;-;7.7050323;1.7814789;2.6953583;-;-;-;-;-;-;-;-;-;-;-;-;-;-;-
1512472136394;-;-;6.3331604;3.3532715;2.0130157;-;-;-;-;-;-;-;-;-;-;-;-;-;-;-
1512472136414;-;-;5.4568787;3.1521606;2.8270416;-;-;-;-;-;-;-;-;-;-;-;-;-;-;-
1512472136435;-;-;5.3958282;1.8832245;3.7308502;-;-;-;-;-;-;-;-;-;-;-;-;-;-;-
1512472136455;-;-;8.247314;0.4874115;1.9651184;-;-;-;-;-;-;-;-;-;-;-;-;-;-;-
1512472136475;-;-;15.748352;-2.6262512;-2.7167358;-;-;-;-;-;-;-;-;-;-;-;-;-;-;-
1512472136496;-;-;17.882782;-5.377182;-1.258667;-;-;-;-;-;-;-;-;-;-;-;-;-;-;-
1512472136516;-;-;16.319366;-6.285782;-3.1452942;-;-;-;-;-;-;-;-;-;-;-;-;-;-;-
1512472136537;-;-;16.367249;-7.0758667;-5.0630493;-;-;-;-;-;-;-;-;-;-;-;-;-;-;-
1512472136557;-;-;15.832153;-3.9957275;0.8542175;-;-;-;-;-;-;-;-;-;-;-;-;-;-;-
1512472136578;-;-;13.078812;-1.5057678;0.2843933;-;-;-;-;-;-;-;-;-;-;-;-;-;-;-
1512472136598;-;-;11.611176;0.83218384;0.75845337;-;-;-;-;-;-;-;-;-;-;-;-;-;-;-
1512472136618;-;-;10.250061;1.8568878;1.686203;-;-;-;-;-;-;-;-;-;-;-;-;-;-;-
1512472136639;-;-;8.526245;2.129837;0.9859009;-;-;-;-;-;-;-;-;-;-;-;-;-;-;-
1512472136659;-;-;8.672287;1.5217133;0.4112854;-;-;-;-;-;-;-;-;-;-;-;-;-;-;-
1512472136680;-;-;9.304352;1.4822083;0.24009705;-;-;-;-;-;-;-;-;-;-;-;-;-;-;-
1512472136701;-;-;9.586868;-0.117126465;0.7368927;-;-;-;-;-;-;-;-;-;-;-;-;-;-;-
1512472136721;-;-;9.33548;-1.4051971;0.5489502;-;-;-;-;-;-;-;-;-;-;-;-;-;-;-
1512472136741;-;-;7.3459015;-2.8309479;1.0289917;-;-;-;-;-;-;-;-;-;-;-;-;-;-;-
1512472136762;-;-;6.0494385;-3.7395477;1.825058;-;-;-;-;-;-;-;-;-;-;-;-;-;-;-
1512472136782;-;-;5.6196747;-4.00531;2.086029;-;-;-;-;-;-;-;-;-;-;-;-;-;-;-
1512472136803;-;-;5.4796143;-4.048401;2.1075745;-;-;-;-;-;-;-;-;-;-;-;-;-;-;-
1512472136823;-;-;6.434906;-3.8796082;2.8521729;-;-;-;-;-;-;-;-;-;-;-;-;-;-;-
1512472136843;-;-;7.968399;-2.8680573;1.4168549;-;-;-;-;-;-;-;-;-;-;-;-;-;-;-
1512472136863;-;-;8.443649;-1.759552;2.6498718;-;-;-;-;-;-;-;-;-;-;-;-;-;-;-
1512472136884;-;-;8.812347;-0.6151123;2.6378937;-;-;-;-;-;-;-;-;-;-;-;-;-;-;-
1512472136904;-;-;11.679413;0.7531738;3.1322937;-;-;-;-;-;-;-;-;-;-;-;-;-;-;-
1512472136924;-;-;13.531326;1.2942505;3.2903137;-;-;-;-;-;-;-;-;-;-;-;-;-;-;-
1512472136945;-;-;12.216904;0.107925415;1.7759857;-;-;-;-;-;-;-;-;-;-;-;-;-;-;-
1512472136966;-;-;8.084518;-2.6489868;-2.5802612;-;-;-;-;-;-;-;-;-;-;-;-;-;-;-
1512472136986;-;-;11.272385;-4.5607605;-5.6053467;-;-;-;-;-;-;-;-;-;-;-;-;-;-;-
1512472137007;-;-;14.869675;-4.937851;-4.6476593;-;-;-;-;-;-;-;-;-;-;-;-;-;-;-
1512472137026;-;-;12.099594;-1.3752747;-4.258606;-;-;-;-;-;-;-;-;-;-;-;-;-;-;-
1512472137046;-;-;9.710175;2.3896027;-0.5392151;-;-;-;-;-;-;-;-;-;-;-;-;-;-;-
1512472137067;-;-;10.635529;2.169342;-1.061142;-;-;-;-;-;-;-;-;-;-;-;-;-;-;-
1512472137087;-;-;10.805527;-0.12908936;-1.8679962;-;-;-;-;-;-;-;-;-;-;-;-;-;-;-
1512472137108;-;-;10.740875;-1.4746399;0.19581604;-;-;-;-;-;-;-;-;-;-;-;-;-;-;-
1512472137128;-;-;10.451187;-2.2802887;0.6566925;-;-;-;-;-;-;-;-;-;-;-;-;-;-;-
1512472137148;-;-;9.196625;-2.9530487;-1.3269043;-;-;-;-;-;-;-;-;-;-;-;-;-;-;-
1512472137169;-;-;8.599258;-2.6873016;-1.5974426;-;-;-;-;-;-;-;-;-;-;-;-;-;-;-
1512472137188;-;-;7.734955;-1.2555695;-0.66729736;-;-;-;-;-;-;-;-;-;-;-;-;-;-;-
1512472137208;-;-;7.806778;0.4371338;-0.15014648;-;-;-;-;-;-;-;-;-;-;-;-;-;-;-
1512472137229;-;-;7.645172;1.6234589;-0.25549316;-;-;-;-;-;-;-;-;-;-;-;-;-;-;-
1512472137249;-;-;7.348297;2.2854614;-0.9294586;-;-;-;-;-;-;-;-;-;-;-;-;-;-;-
1512472137270;-;-;7.0178986;1.7180328;-1.0719147;-;-;-;-;-;-;-;-;-;-;-;-;-;-;-
1512472137290;-;-;6.755722;0.62628174;-0.59906006;-;-;-;-;-;-;-;-;-;-;-;-;-;-;-
1512472137311;-;-;6.959244;-0.19732666;-0.33570862;-;-;-;-;-;-;-;-;-;-;-;-;-;-;-
1512472137330;-;-;7.549408;-0.61750793;-0.1669159;-;-;-;-;-;-;-;-;-;-;-;-;-;-;-
1512472137351;-;-;8.942825;0.40960693;0.44122314;-;-;-;-;-;-;-;-;-;-;-;-;-;-;-
1512472137371;-;-;9.322311;1.0895538;0.31910706;-;-;-;-;-;-;-;-;-;-;-;-;-;-;-
1512472137392;-;-;9.100845;0.99497986;0.78718567;-;-;-;-;-;-;-;-;-;-;-;-;-;-;-
1512472137412;-;-;8.777634;0.29348755;0.5561371;-;-;-;-;-;-;-;-;-;-;-;-;-;-;-
1512472137433;-;-;8.630386;-0.02015686;0.12997437;-;-;-;-;-;-;-;-;-;-;-;-;-;-;-
1512472137454;-;-;8.72496;0.050476074;0.44599915;-;-;-;-;-;-;-;-;-;-;-;-;-;-;-
1512472137474;-;-;9.2708435;0.15461731;0.19102478;-;-;-;-;-;-;-;-;-;-;-;-;-;-;-
1512472137495;-;-;10.186615;0.8668976;-0.43026733;-;-;-;-;-;-;-;-;-;-;-;-;-;-;-
1512472137514;-;-;10.619965;1.1769409;0.2927704;-;-;-;-;-;-;-;-;-;-;-;-;-;-;-
1512472137534;-;-;10.477524;1.022522;1.5880432;-;-;-;-;-;-;-;-;-;-;-;-;-;-;-
1512472137555;-;-;9.570114;0.28988647;2.7612;-;-;-;-;-;-;-;-;-;-;-;-;-;-;-
1512472137576;-;-;8.09169;-0.9072113;3.444748;-;-;-;-;-;-;-;-;-;-;-;-;-;-;-
1512472137595;-;-;7.5625763;-1.6087189;3.619522;-;-;-;-;-;-;-;-;-;-;-;-;-;-;-
1512472137616;-;-;8.0138855;-1.0592499;2.9778748;-;-;-;-;-;-;-;-;-;-;-;-;-;-;-
1512472137635;-;-;10.319504;1.5827637;0.32987976;-;-;-;-;-;-;-;-;-;-;-;-;-;-;-
1512472137656;-;-;16.403168;0.9135742;-0.97135925;-;-;-;-;-;-;-;-;-;-;-;-;-;-;-
1512472137675;-;-;17.532028;1.5863495;-6.8610992;-;-;-;-;-;-;-;-;-;-;-;-;-;-;-
1512472137695;-;-;14.21846;2.9725952;-5.611328;-;-;-;-;-;-;-;-;-;-;-;-;-;-;-
1512472137718;-;-;9.307953;-0.31704712;-1.1724701;-;-;-;-;-;-;-;-;-;-;-;-;-;-;-
1512472137738;-;-;6.649185;-3.3097992;-1.3903503;-;-;-;-;-;-;-;-;-;-;-;-;-;-;-
1512472137759;-;-;6.7485504;-3.7431488;0.96195984;-;-;-;-;-;-;-;-;-;-;-;-;-;-;-
1512472137780;-;-;7.8714294;-2.5867462;0.5262146;-;-;-;-;-;-;-;-;-;-;-;-;-;-;-
1512472137800;-;-;9.155914;-1.700882;-3.429016;-;-;-;-;-;-;-;-;-;-;-;-;-;-;-
1512472137820;-;-;10.040573;0.20010376;-2.883133;-;-;-;-;-;-;-;-;-;-;-;-;-;-;-
1512472137841;-;-;9.844254;1.4738159;-0.81333923;-;-;-;-;-;-;-;-;-;-;-;-;-;-;-
1512472137862;-;-;9.312744;2.3405304;-0.4278717;-;-;-;-;-;-;-;-;-;-;-;-;-;-;-
1512472137882;-;-;8.378998;1.4738159;0.06173706;-;-;-;-;-;-;-;-;-;-;-;-;-;-;-
1512472137902;-;-;7.0190887;-0.12550354;-0.05558777;-;-;-;-;-;-;-;-;-;-;-;-;-;-;-
1512472137923;-;-;6.2266083;-1.2795105;0.86380005;-;-;-;-;-;-;-;-;-;-;-;-;-;-;-
1512472137943;-;-;6.383438;-2.0791779;1.5150146;-;-;-;-;-;-;-;-;-;-;-;-;-;-;-
1512472137964;-;-;7.003525;-2.2036743;0.9990692;-;-;-;-;-;-;-;-;-;-;-;-;-;-;-
1512472137984;-;-;7.4177246;-1.8170013;1.2061615;-;-;-;-;-;-;-;-;-;-;-;-;-;-;-
1512472138005;-;-;8.224579;-1.3812561;2.1231384;-;-;-;-;-;-;-;-;-;-;-;-;-;-;-
1512472138025;-;-;9.019455;-0.9275665;1.9340057;-;-;-;-;-;-;-;-;-;-;-;-;-;-;-
1512472138046;-;-;9.716156;-0.6761627;1.6921844;-;-;-;-;-;-;-;-;-;-;-;-;-;-;-
1512472138065;-;-;10.069305;-0.9443207;1.0445557;-;-;-;-;-;-;-;-;-;-;-;-;-;-;-
1512472138085;-;-;10.253662;-0.3589325;0.16348267;-;-;-;-;-;-;-;-;-;-;-;-;-;-;-
1512472138106;-;-;9.595245;0.9794159;0.31910706;-;-;-;-;-;-;-;-;-;-;-;-;-;-;-
1512472138127;-;-;8.121628;0.98420715;0.47233582;-;-;-;-;-;-;-;-;-;-;-;-;-;-;-
1512472138147;-;-;6.838333;0.30545044;0.8530121;-;-;-;-;-;-;-;-;-;-;-;-;-;-;-
1512472138168;-;-;5.2425995;-0.8760834;0.5740967;-;-;-;-;-;-;-;-;-;-;-;-;-;-;-
1512472138188;-;-;4.865509;-1.4578705;1.5485382;-;-;-;-;-;-;-;-;-;-;-;-;-;-;-
1512472138207;-;-;4.7445984;-1.2759247;2.235672;-;-;-;-;-;-;-;-;-;-;-;-;-;-;-
1512472138228;-;-;4.486023;-1.3046417;2.211731;-;-;-;-;-;-;-;-;-;-;-;-;-;-;-
1512472138248;-;-;4.371109;-1.9726257;2.3050995;-;-;-;-;-;-;-;-;-;-;-;-;-;-;-
1512472138269;-;-;5.376663;-2.5292816;2.690567;-;-;-;-;-;-;-;-;-;-;-;-;-;-;-
1512472138288;-;-;7.4644165;-2.8453217;1.9148407;-;-;-;-;-;-;-;-;-;-;-;-;-;-;-
1512472138309;-;-;9.062546;-2.4993591;1.2061615;-;-;-;-;-;-;-;-;-;-;-;-;-;-;-
1512472138330;-;-;9.403717;-2.4538574;0.57289124;-;-;-;-;-;-;-;-;-;-;-;-;-;-;-
1512472138350;-;-;9.268448;-2.9087677;-2.6473083;-;-;-;-;-;-;-;-;-;-;-;-;-;-;-
1512472138370;-;-;10.804321;-1.2603607;-4.733856;-;-;-;-;-;-;-;-;-;-;-;-;-;-;-
1512472138391;-;-;11.977478;2.3572845;-2.7514496;-;-;-;-;-;-;-;-;-;-;-;-;-;-;-
1512472138410;-;-;13.938339;5.984497;0.036590576;-;-;-;-;-;-;-;-;-;-;-;-;-;-;-
1512472138431;-;-;13.894043;7.0858307;2.7468262;-;-;-;-;-;-;-;-;-;-;-;-;-;-;-
1512472138452;-;-;11.568069;3.335312;0.37417603;-;-;-;-;-;-;-;-;-;-;-;-;-;-;-
1512472138472;-;-;12.949524;1.9622345;0.56811523;-;-;-;-;-;-;-;-;-;-;-;-;-;-;-
1512472138493;-;-;19.003265;2.3213654;3.4626923;-;-;-;-;-;-;-;-;-;-;-;-;-;-;-
1512472138513;-;-;16.023682;0.08039856;0.6961975;-;-;-;-;-;-;-;-;-;-;-;-;-;-;-
1512472138534;-;-;12.422806;-0.704895;1.2743988;-;-;-;-;-;-;-;-;-;-;-;-;-;-;-
1512472138553;-;-;10.295563;-0.8090515;1.6443024;-;-;-;-;-;-;-;-;-;-;-;-;-;-;-
1512472138573;-;-;7.600876;-0.5720215;2.484665;-;-;-;-;-;-;-;-;-;-;-;-;-;-;-
1512472138594;-;-;5.1516113;-0.37330627;2.6678162;-;-;-;-;-;-;-;-;-;-;-;-;-;-;-
1512472138615;-;-;3.6732025;0.67774963;2.2141266;-;-;-;-;-;-;-;-;-;-;-;-;-;-;-
1512472138635;-;-;2.6173553;1.4187622;3.820633;-;-;-;-;-;-;-;-;-;-;-;-;-;-;-
1512472138655;-;-;2.7514343;0.24559021;2.3685455;-;-;-;-;-;-;-;-;-;-;-;-;-;-;-
1512472138675;-;-;5.157593;0.40600586;2.6797943;-;-;-;-;-;-;-;-;-;-;-;-;-;-;-
1512472138696;-;-;5.328781;1.2930603;1.883728;-;-;-;-;-;-;-;-;-;-;-;-;-;-;-
1512472138717;-;-;5.0917664;1.3062286;0.9535675;-;-;-;-;-;-;-;-;-;-;-;-;-;-;-
1512472138737;-;-;4.707489;0.29588318;1.7041626;-;-;-;-;-;-;-;-;-;-;-;-;-;-;-
1512472138758;-;-;4.3016663;-0.7491913;2.4547424;-;-;-;-;-;-;-;-;-;-;-;-;-;-;-
1512472138777;-;-;6.4217377;-1.210083;1.725708;-;-;-;-;-;-;-;-;-;-;-;-;-;-;-
1512472138798;-;-;6.1116943;0.6861267;0.9966736;-;-;-;-;-;-;-;-;-;-;-;-;-;-;-
1512472138818;-;-;5.9225464;2.3022156;-0.8097534;-;-;-;-;-;-;-;-;-;-;-;-;-;-;-
1512472138838;-;-;7.513489;1.7659149;-3.7749786;-;-;-;-;-;-;-;-;-;-;-;-;-;-;-
1512472138858;-;-;14.382462;-1.230423;-5.4976044;-;-;-;-;-;-;-;-;-;-;-;-;-;-;-
1512472138879;-;-;15.018112;-6.4318237;0.87457275;-;-;-;-;-;-;-;-;-;-;-;-;-;-;-
1512472138899;-;-;15.7148285;-4.000519;-0.46139526;-;-;-;-;-;-;-;-;-;-;-;-;-;-;-
1512472138920;-;-;19.308533;-1.1011353;0.65908813;-;-;-;-;-;-;-;-;-;-;-;-;-;-;-
1512472138940;-;-;21.37233;-2.7375793;3.0604706;-;-;-;-;-;-;-;-;-;-;-;-;-;-;-
1512472138961;-;-;16.434296;-2.3497162;2.1590576;-;-;-;-;-;-;-;-;-;-;-;-;-;-;-
1512472138981;-;-;12.795105;-0.7300415;4.0253296;-;-;-;-;-;-;-;-;-;-;-;-;-;-;-
1512472139002;-;-;10.811508;-0.7503967;3.2508087;-;-;-;-;-;-;-;-;-;-;-;-;-;-;-
1512472139021;-;-;8.150345;-1.1083221;1.2324982;-;-;-;-;-;-;-;-;-;-;-;-;-;-;-
1512472139041;-;-;7.1447906;-0.90122986;0.55255127;-;-;-;-;-;-;-;-;-;-;-;-;-;-;-
1512472139062;-;-;5.959656;-0.19013977;1.255249;-;-;-;-;-;-;-;-;-;-;-;-;-;-;-
1512472139082;-;-;5.2066803;0.20489502;1.8035126;-;-;-;-;-;-;-;-;-;-;-;-;-;-;-
1512472139102;-;-;4.6141205;0.16897583;1.6143799;-;-;-;-;-;-;-;-;-;-;-;-;-;-;-
1512472139123;-;-;4.4010315;-0.24641418;1.4551544;-;-;-;-;-;-;-;-;-;-;-;-;-;-;-
1512472139143;-;-;4.8152313;-0.89404297;2.4583282;-;-;-;-;-;-;-;-;-;-;-;-;-;-;-
1512472139164;-;-;5.2198486;-1.0616302;2.6283264;-;-;-;-;-;-;-;-;-;-;-;-;-;-;-
1512472139184;-;-;5.8555145;-0.6079407;1.6610565;-;-;-;-;-;-;-;-;-;-;-;-;-;-;-
1512472139204;-;-;5.4927826;-0.8760834;0.5166321;-;-;-;-;-;-;-;-;-;-;-;-;-;-;-
1512472139225;-;-;4.7577667;-1.5632172;-0.82292175;-;-;-;-;-;-;-;-;-;-;-;-;-;-;-
1512472139244;-;-;3.6277008;-2.111496;-0.9546051;-;-;-;-;-;-;-;-;-;-;-;-;-;-;-
1512472139265;-;-;3.1129456;-2.221634;-2.3935242;-;-;-;-;-;-;-;-;-;-;-;-;-;-;-
1512472139284;-;-;3.493637;-2.1737366;-1.2814178;-;-;-;-;-;-;-;-;-;-;-;-;-;-;-
1512472139304;-;-;6.005142;-0.86531067;2.6965485;-;-;-;-;-;-;-;-;-;-;-;-;-;-;-
1512472139325;-;-;9.627579;0.66578674;4.1917267;-;-;-;-;-;-;-;-;-;-;-;-;-;-;-
1512472139345;-;-;17.674484;2.6457825;-1.7482758;-;-;-;-;-;-;-;-;-;-;-;-;-;-;-
1512472139366;-;-;23.607315;3.5376282;-2.8939056;-;-;-;-;-;-;-;-;-;-;-;-;-;-;-
1512472139386;-;-;25.674713;4.743103;-1.5854797;-;-;-;-;-;-;-;-;-;-;-;-;-;-;-
1512472139407;-;-;20.312897;5.0004883;3.1418762;-;-;-;-;-;-;-;-;-;-;-;-;-;-;-
1512472139427;-;-;12.202545;2.5799408;2.3134766;-;-;-;-;-;-;-;-;-;-;-;-;-;-;-
1512472139447;-;-;8.258087;0.26715088;5.216446;-;-;-;-;-;-;-;-;-;-;-;-;-;-;-
1512472139468;-;-;5.765732;-1.3238068;5.7359924;-;-;-;-;-;-;-;-;-;-;-;-;-;-;-
1512472139488;-;-;4.161606;0.01574707;3.781128;-;-;-;-;-;-;-;-;-;-;-;-;-;-;-
1512472139508;-;-;3.253006;0.24320984;3.931961;-;-;-;-;-;-;-;-;-;-;-;-;-;-;-
1512472139529;-;-;3.1584473;-0.58399963;3.6650085;-;-;-;-;-;-;-;-;-;-;-;-;-;-;-
1512472139550;-;-;4.7517853;-1.8361664;2.6546478;-;-;-;-;-;-;-;-;-;-;-;-;-;-;-
1512472139570;-;-;6.1835175;-1.617096;2.046524;-;-;-;-;-;-;-;-;-;-;-;-;-;-;-
1512472139591;-;-;5.2198486;-1.5237122;-0.36323547;-;-;-;-;-;-;-;-;-;-;-;-;-;-;-
1512472139611;-;-;6.8526917;-1.6709595;-3.2458496;-;-;-;-;-;-;-;-;-;-;-;-;-;-;-
1512472139631;-;-;4.09816;-1.0173492;-2.6676483;-;-;-;-;-;-;-;-;-;-;-;-;-;-;-
1512472139652;-;-;4.259781;-1.2388;-4.0562897;-;-;-;-;-;-;-;-;-;-;-;-;-;-;-
1512472139672;-;-;9.4492035;-0.9586792;-6.2254333;-;-;-;-;-;-;-;-;-;-;-;-;-;-;-
1512472139692;-;-;18.085098;0.5532532;-0.93185425;-;-;-;-;-;-;-;-;-;-;-;-;-;-;-
1512472139713;-;-;21.2191;3.1916656;3.1382904;-;-;-;-;-;-;-;-;-;-;-;-;-;-;-
1512472139733;-;-;21.416626;1.7264099;2.2955322;-;-;-;-;-;-;-;-;-;-;-;-;-;-;-
1512472139753;-;-;14.405197;-2.1162872;0.7835846;-;-;-;-;-;-;-;-;-;-;-;-;-;-;-
1512472139773;-;-;12.461105;-5.629776;3.128708;-;-;-;-;-;-;-;-;-;-;-;-;-;-;-
1512472139794;-;-;9.995087;-5.313736;3.9798431;-;-;-;-;-;-;-;-;-;-;-;-;-;-;-
1512472139814;-;-;6.2325897;-3.7431488;3.0939941;-;-;-;-;-;-;-;-;-;-;-;-;-;-;-
1512472139835;-;-;3.1428833;-3.1924744;3.066452;-;-;-;-;-;-;-;-;-;-;-;-;-;-;-
1512472139854;-;-;2.4353943;-1.8696747;3.0449066;-;-;-;-;-;-;-;-;-;-;-;-;-;-;-
1512472139875;-;-;3.6612244;0.8046417;3.3178558;-;-;-;-;-;-;-;-;-;-;-;-;-;-;-
1512472139894;-;-;6.094925;2.2256012;1.7711945;-;-;-;-;-;-;-;-;-;-;-;-;-;-;-
1512472139915;-;-;6.9185333;1.5181122;-3.3835144;-;-;-;-;-;-;-;-;-;-;-;-;-;-;-
1512472139935;-;-;6.525879;1.006958;-3.393097;-;-;-;-;-;-;-;-;-;-;-;-;-;-;-
1512472139956;-;-;3.2937164;-0.16381836;-2.7753906;-;-;-;-;-;-;-;-;-;-;-;-;-;-;-
1512472139976;-;-;2.5120087;0.25875854;-0.5966644;-;-;-;-;-;-;-;-;-;-;-;-;-;-;-
1512472139997;-;-;4.458496;0.35453796;0.44241333;-;-;-;-;-;-;-;-;-;-;-;-;-;-;-
1512472140017;-;-;7.9755707;0.5472717;0.034194946;-;-;-;-;-;-;-;-;-;-;-;-;-;-;-
1512472140037;-;-;14.062836;0.8788605;0.844635;-;-;-;-;-;-;-;-;-;-;-;-;-;-;-
1512472140057;-;-;16.933487;0.5185394;0.089263916;-;-;-;-;-;-;-;-;-;-;-;-;-;-;-
1512472140077;-;-;19.727509;1.9682312;-1.674057;-;-;-;-;-;-;-;-;-;-;-;-;-;-;-
1512472140098;-;-;22.705902;2.991745;2.2129211;-;-;-;-;-;-;-;-;-;-;-;-;-;-;-
1512472140118;-;-;18.070724;2.6350098;5.465454;-;-;-;-;-;-;-;-;-;-;-;-;-;-;-
1512472140139;-;-;10.069305;0.4299469;4.785492;-;-;-;-;-;-;-;-;-;-;-;-;-;-;-
1512472140158;-;-;6.331955;-0.47865295;3.7224731;-;-;-;-;-;-;-;-;-;-;-;-;-;-;-
1512472140178;-;-;1.6357269;-0.10874939;4.5616302;-;-;-;-;-;-;-;-;-;-;-;-;-;-;-
1512472140199;-;-;-0.95718384;-0.36132813;4.058853;-;-;-;-;-;-;-;-;-;-;-;-;-;-;-
1512472140219;-;-;-0.9069061;-2.2766876;3.3405914;-;-;-;-;-;-;-;-;-;-;-;-;-;-;-
1512472140240;-;-;1.1138;-2.6873016;2.2105255;-;-;-;-;-;-;-;-;-;-;-;-;-;-;-
1512472140260;-;-;8.246124;-1.3118286;-1.8332825;-;-;-;-;-;-;-;-;-;-;-;-;-;-;-
1512472140280;-;-;8.709396;0.5185394;-4.307678;-;-;-;-;-;-;-;-;-;-;-;-;-;-;-
1512472140301;-;-;9.841858;1.4391022;-5.001999;-;-;-;-;-;-;-;-;-;-;-;-;-;-;-
1512472140320;-;-;13.637863;1.8640747;-5.9644775;-;-;-;-;-;-;-;-;-;-;-;-;-;-;-
1512472140340;-;-;19.422256;1.5384674;-2.3240814;-;-;-;-;-;-;-;-;-;-;-;-;-;-;-
1512472140361;-;-;21.662033;-1.5141449;4.5736084;-;-;-;-;-;-;-;-;-;-;-;-;-;-;-
1512472140381;-;-;18.984116;-4.939041;-3.8168793;-;-;-;-;-;-;-;-;-;-;-;-;-;-;-
1512472140401;-;-;14.155014;-4.230362;-0.28901672;-;-;-;-;-;-;-;-;-;-;-;-;-;-;-
1512472140421;-;-;9.276825;-3.3038025;2.9144287;-;-;-;-;-;-;-;-;-;-;-;-;-;-;-
1512472140443;-;-;8.633987;-0.2571869;3.9451294;-;-;-;-;-;-;-;-;-;-;-;-;-;-;-
1512472140463;-;-;9.232529;-0.29071045;3.6302948;-;-;-;-;-;-;-;-;-;-;-;-;-;-;-
1512472140483;-;-;7.0729675;-0.48223877;1.6371155;-;-;-;-;-;-;-;-;-;-;-;-;-;-;-
1512472140504;-;-;6.4001923;-1.4411163;2.5265656;-;-;-;-;-;-;-;-;-;-;-;-;-;-;-
1512472140524;-;-;6.505539;-1.4303436;3.0880127;-;-;-;-;-;-;-;-;-;-;-;-;-;-;-
1512472140544;-;-;6.2661133;-0.96347046;3.1622314;-;-;-;-;-;-;-;-;-;-;-;-;-;-;-
1512472140565;-;-;6.331955;-0.47146606;3.0748444;-;-;-;-;-;-;-;-;-;-;-;-;-;-;-
1512472140586;-;-;6.983185;0.11869812;1.8466187;-;-;-;-;-;-;-;-;-;-;-;-;-;-;-
1512472140606;-;-;7.916916;0.22764587;1.176239;-;-;-;-;-;-;-;-;-;-;-;-;-;-;-
1512472140626;-;-;7.6978455;-0.20690918;0.5381775;-;-;-;-;-;-;-;-;-;-;-;-;-;-;-
1512472140647;-;-;7.015503;-0.7216644;-0.48294067;-;-;-;-;-;-;-;-;-;-;-;-;-;-;-
1512472140668;-;-;5.592148;-1.2507782;-3.7821503;-;-;-;-;-;-;-;-;-;-;-;-;-;-;-
1512472140688;-;-;2.054718;-1.1179047;-2.9669342;-;-;-;-;-;-;-;-;-;-;-;-;-;-;-
1512472140708;-;-;1.7087555;0.14144897;-1.6130066;-;-;-;-;-;-;-;-;-;-;-;-;-;-;-
1512472140728;-;-;4.411804;1.1362457;1.0996246;-;-;-;-;-;-;-;-;-;-;-;-;-;-;-
1512472140749;-;-;9.288788;1.619873;0.019836426;-;-;-;-;-;-;-;-;-;-;-;-;-;-;-
1512472140769;-;-;15.470627;2.4291077;-2.0331879;-;-;-;-;-;-;-;-;-;-;-;-;-;-;-
1512472140790;-;-;19.405487;3.0480042;-2.9896698;-;-;-;-;-;-;-;-;-;-;-;-;-;-;-
1512472140810;-;-;19.866379;0.8309784;-0.05796814;-;-;-;-;-;-;-;-;-;-;-;-;-;-;-
1512472140831;-;-;17.925873;2.1920776;2.3481903;-;-;-;-;-;-;-;-;-;-;-;-;-;-;-
1512472140851;-;-;13.26796;2.0460358;4.872879;-;-;-;-;-;-;-;-;-;-;-;-;-;-;-
1512472140871;-;-;10.44519;0.66218567;5.8772583;-;-;-;-;-;-;-;-;-;-;-;-;-;-;-
1512472140892;-;-;6.8515015;0.08279419;4.0684357;-;-;-;-;-;-;-;-;-;-;-;-;-;-;-
1512472140912;-;-;3.411026;0.08279419;3.3286285;-;-;-;-;-;-;-;-;-;-;-;-;-;-;-
1512472140933;-;-;1.2933655;0.17855835;3.9702759;-;-;-;-;-;-;-;-;-;-;-;-;-;-;-
1512472140953;-;-;2.5587006;-1.3441467;3.7404327;-;-;-;-;-;-;-;-;-;-;-;-;-;-;-
1512472140974;-;-;5.6891174;-2.1186829;3.3394012;-;-;-;-;-;-;-;-;-;-;-;-;-;-;-
1512472140993;-;-;7.001129;-1.4925995;2.9455566;-;-;-;-;-;-;-;-;-;-;-;-;-;-;-
1512472141014;-;-;10.087265;-0.53730774;2.101593;-;-;-;-;-;-;-;-;-;-;-;-;-;-;-
1512472141033;-;-;9.537796;1.2212372;-0.25190735;-;-;-;-;-;-;-;-;-;-;-;-;-;-;-
1512472141053;-;-;7.398575;2.5512085;-3.9497528;-;-;-;-;-;-;-;-;-;-;-;-;-;-;-
1512472141074;-;-;7.611664;1.3780518;-2.263031;-;-;-;-;-;-;-;-;-;-;-;-;-;-;-
1512472141094;-;-;9.29718;-0.6151123;-3.8683472;-;-;-;-;-;-;-;-;-;-;-;-;-;-;-
1512472141115;-;-;11.6315155;-2.7028656;0.22094727;-;-;-;-;-;-;-;-;-;-;-;-;-;-;-
1512472141136;-;-;15.765106;-2.174942;-0.49971008;-;-;-;-;-;-;-;-;-;-;-;-;-;-;-
1512472141156;-;-;20.06749;-1.913971;1.9411774;-;-;-;-;-;-;-;-;-;-;-;-;-;-;-
1512472141177;-;-;20.354797;-3.0739594;-4.3639526;-;-;-;-;-;-;-;-;-;-;-;-;-;-;-
1512472141197;-;-;16.893982;-1.3285828;2.0896301;-;-;-;-;-;-;-;-;-;-;-;-;-;-;-
1512472141218;-;-;11.196976;-0.96347046;4.311447;-;-;-;-;-;-;-;-;-;-;-;-;-;-;-
1512472141239;-;-;7.937271;-1.6494141;3.1825714;-;-;-;-;-;-;-;-;-;-;-;-;-;-;-
1512472141258;-;-;5.9584656;-1.7296143;3.6434631;-;-;-;-;-;-;-;-;-;-;-;-;-;-;-
1512472141278;-;-;4.482437;-1.2986603;2.7827454;-;-;-;-;-;-;-;-;-;-;-;-;-;-;-
1512472141299;-;-;3.8348083;-0.51216125;1.5952148;-;-;-;-;-;-;-;-;-;-;-;-;-;-;-
1512472141320;-;-;4.09816;-0.04170227;1.7149353;-;-;-;-;-;-;-;-;-;-;-;-;-;-;-
1512472141340;-;-;5.1168976;-0.40682983;2.132721;-;-;-;-;-;-;-;-;-;-;-;-;-;-;-
1512472141361;-;-;6.1559753;-1.289093;2.0357513;-;-;-;-;-;-;-;-;-;-;-;-;-;-;-
1512472141382;-;-;7.1842957;-2.0731812;2.3685455;-;-;-;-;-;-;-;-;-;-;-;-;-;-;-
1512472141402;-;-;7.884598;-1.743988;2.2524261;-;-;-;-;-;-;-;-;-;-;-;-;-;-;-
1512472141422;-;-;7.348297;-1.5739899;2.2560272;-;-;-;-;-;-;-;-;-;-;-;-;-;-;-
1512472141443;-;-;6.663559;-2.001358;2.1746216;-;-;-;-;-;-;-;-;-;-;-;-;-;-;-
1512472141464;-;-;6.560608;-2.3796387;3.128708;-;-;-;-;-;-;-;-;-;-;-;-;-;-;-
1512472141484;-;-;6.546234;-2.064804;4.722046;-;-;-;-;-;-;-;-;-;-;-;-;-;-;-
1512472141504;-;-;7.0693665;-2.4861908;3.9774475;-;-;-;-;-;-;-;-;-;-;-;-;-;-;-
1512472141524;-;-;6.600113;-5.7111816;-0.28063965;-;-;-;-;-;-;-;-;-;-;-;-;-;-;-
1512472141544;-;-;9.697006;-5.0348206;-5.10376;-;-;-;-;-;-;-;-;-;-;-;-;-;-;-
1512472141565;-;-;11.327454;-1.3106384;-4.7506104;-;-;-;-;-;-;-;-;-;-;-;-;-;-;-
1512472141585;-;-;14.550049;3.0827332;-3.9365845;-;-;-;-;-;-;-;-;-;-;-;-;-;-;-
1512472141606;-;-;22.417404;6.54953;-1.3400726;-;-;-;-;-;-;-;-;-;-;-;-;-;-;-
1512472141626;-;-;26.002716;6.3065186;-0.10586548;-;-;-;-;-;-;-;-;-;-;-;-;-;-;-
1512472141646;-;-;20.303314;2.7080383;-4.239441;-;-;-;-;-;-;-;-;-;-;-;-;-;-;-
1512472141667;-;-;13.003403;-0.5756073;1.2803802;-;-;-;-;-;-;-;-;-;-;-;-;-;-;-
1512472141687;-;-;8.807556;-1.9008026;1.45755;-;-;-;-;-;-;-;-;-;-;-;-;-;-;-
1512472141708;-;-;5.6172943;-1.9283447;0.71894836;-;-;-;-;-;-;-;-;-;-;-;-;-;-;-
1512472141728;-;-;3.355957;-1.7320099;0.012649536;-;-;-;-;-;-;-;-;-;-;-;-;-;-;-
1512472141749;-;-;4.0814056;-1.3740845;0.43643188;-;-;-;-;-;-;-;-;-;-;-;-;-;-;-
1512472141769;-;-;9.837067;-0.92277527;2.0585022;-;-;-;-;-;-;-;-;-;-;-;-;-;-;-
1512472141790;-;-;12.516174;-0.66300964;-0.013687134;-;-;-;-;-;-;-;-;-;-;-;-;-;-;-
1512472141810;-;-;11.332245;-0.54689026;0.26643372;-;-;-;-;-;-;-;-;-;-;-;-;-;-;-
1512472141831;-;-;7.169922;-0.76356506;0.62916565;-;-;-;-;-;-;-;-;-;-;-;-;-;-;-
1512472141850;-;-;6.084152;-0.53012085;0.62677;-;-;-;-;-;-;-;-;-;-;-;-;-;-;-
1512472141870;-;-;5.418564;-0.085998535;1.5820465;-;-;-;-;-;-;-;-;-;-;-;-;-;-;-
1512472141891;-;-;5.241394;-0.045303345;1.9723053;-;-;-;-;-;-;-;-;-;-;-;-;-;-;-
1512472141912;-;-;4.88945;-0.07522583;1.3222809;-;-;-;-;-;-;-;-;-;-;-;-;-;-;-
1512472141932;-;-;5.240204;0.112716675;-0.012481689;-;-;-;-;-;-;-;-;-;-;-;-;-;-;-
1512472141952;-;-;7.490753;0.22164917;-0.61701965;-;-;-;-;-;-;-;-;-;-;-;-;-;-;-
1512472141972;-;-;11.411255;0.5676117;-0.90193176;-;-;-;-;-;-;-;-;-;-;-;-;-;-;-
1512472141993;-;-;12.91481;2.7475433;0.71055603;-;-;-;-;-;-;-;-;-;-;-;-;-;-;-
1512472142013;-;-;11.1371155;4.25589;2.595993;-;-;-;-;-;-;-;-;-;-;-;-;-;-;-
1512472142034;-;-;10.422455;4.066742;2.9658966;-;-;-;-;-;-;-;-;-;-;-;-;-;-;-
1512472142054;-;-;17.838486;1.2619324;-0.16212463;-;-;-;-;-;-;-;-;-;-;-;-;-;-;-
1512472142074;-;-;19.482101;-1.1526184;-5.6879425;-;-;-;-;-;-;-;-;-;-;-;-;-;-;-
1512472142095;-;-;11.504623;-2.5687866;-0.5523834;-;-;-;-;-;-;-;-;-;-;-;-;-;-;-
1512472142116;-;-;6.8119965;-5.032425;1.5186005;-;-;-;-;-;-;-;-;-;-;-;-;-;-;-
1512472142136;-;-;6.525879;-6.5802765;-0.89115906;-;-;-;-;-;-;-;-;-;-;-;-;-;-;-
1512472142156;-;-;8.674683;-5.358032;0.13595581;-;-;-;-;-;-;-;-;-;-;-;-;-;-;-
1512472142177;-;-;9.426468;-2.0827637;-2.282196;-;-;-;-;-;-;-;-;-;-;-;-;-;-;-
1512472142197;-;-;10.651093;0.026535034;-2.421051;-;-;-;-;-;-;-;-;-;-;-;-;-;-;-
1512472142217;-;-;9.571304;2.8433075;-0.0076904297;-;-;-;-;-;-;-;-;-;-;-;-;-;-;-
1512472142238;-;-;7.9001617;2.5751495;0.17904663;-;-;-;-;-;-;-;-;-;-;-;-;-;-;-
1512472142257;-;-;7.142395;0.9530792;-0.53681946;-;-;-;-;-;-;-;-;-;-;-;-;-;-;-
1512472142278;-;-;7.0286713;-0.60194397;0.0856781;-;-;-;-;-;-;-;-;-;-;-;-;-;-;-
1512472142298;-;-;6.458847;-1.5524445;0.721344;-;-;-;-;-;-;-;-;-;-;-;-;-;-;-
1512472142319;-;-;6.7677;-2.7746887;0.7620392;-;-;-;-;-;-;-;-;-;-;-;-;-;-;-
1512472142339;-;-;7.2154236;-3.0117188;0.563324;-;-;-;-;-;-;-;-;-;-;-;-;-;-;-
1512472142360;-;-;8.116837;-2.3521118;0.8111267;-;-;-;-;-;-;-;-;-;-;-;-;-;-;-
1512472142379;-;-;9.096069;-1.6901093;1.2324982;-;-;-;-;-;-;-;-;-;-;-;-;-;-;-
1512472142400;-;-;10.14592;-1.175354;1.073288;-;-;-;-;-;-;-;-;-;-;-;-;-;-;-
1512472142419;-;-;10.630753;-1.2112732;0.7177429;-;-;-;-;-;-;-;-;-;-;-;-;-;-;-
1512472142440;-;-;10.296753;-1.8553162;0.7823944;-;-;-;-;-;-;-;-;-;-;-;-;-;-;-
1512472142460;-;-;9.469559;-2.2635193;1.1295471;-;-;-;-;-;-;-;-;-;-;-;-;-;-;-
1512472142480;-;-;8.897339;-2.3509216;1.5401611;-;-;-;-;-;-;-;-;-;-;-;-;-;-;-
1512472142501;-;-;8.651932;-2.4430847;1.4479828;-;-;-;-;-;-;-;-;-;-;-;-;-;-;-
1512472142521;-;-;8.837494;-1.9498901;1.0457458;-;-;-;-;-;-;-;-;-;-;-;-;-;-;-
1512472142542;-;-;9.397736;-0.29429626;0.42565918;-;-;-;-;-;-;-;-;-;-;-;-;-;-;-
1512472142562;-;-;8.977554;1.5827637;1.9268188;-;-;-;-;-;-;-;-;-;-;-;-;-;-;-
1512472142583;-;-;9.088882;-1.4614716;2.1351166;-;-;-;-;-;-;-;-;-;-;-;-;-;-;-
1512472142604;-;-;8.80397;-3.807785;2.5840302;-;-;-;-;-;-;-;-;-;-;-;-;-;-;-
1512472142624;-;-;10.177048;-8.063477;1.3270721;-;-;-;-;-;-;-;-;-;-;-;-;-;-;-
1512472142645;-;-;13.605545;-7.8563843;0.3035431;-;-;-;-;-;-;-;-;-;-;-;-;-;-;-
1512472142666;-;-;13.825806;-5.4334564;-1.8105316;-;-;-;-;-;-;-;-;-;-;-;-;-;-;-
1512472142686;-;-;11.550125;-2.5951233;-4.282547;-;-;-;-;-;-;-;-;-;-;-;-;-;-;-
1512472142705;-;-;10.289566;0.52931213;-5.5682373;-;-;-;-;-;-;-;-;-;-;-;-;-;-;-
1512472142726;-;-;7.335129;4.02005;-3.1022034;-;-;-;-;-;-;-;-;-;-;-;-;-;-;-
1512472142745;-;-;7.2309723;4.6341705;0.036590576;-;-;-;-;-;-;-;-;-;-;-;-;-;-;-
1512472142765;-;-;9.331894;1.9969635;0.84942627;-;-;-;-;-;-;-;-;-;-;-;-;-;-;-
1512472142786;-;-;10.46196;-1.131073;-0.2674713;-;-;-;-;-;-;-;-;-;-;-;-;-;-;-
1512472142807;-;-;10.71814;-2.1318512;-1.4729462;-;-;-;-;-;-;-;-;-;-;-;-;-;-;-
1512472142827;-;-;11.174225;-1.8062286;-1.6441345;-;-;-;-;-;-;-;-;-;-;-;-;-;-;-
1512472142848;-;-;11.139511;-1.107132;-0.77145386;-;-;-;-;-;-;-;-;-;-;-;-;-;-;-
1512472142869;-;-;9.71257;-0.1985321;-0.15853882;-;-;-;-;-;-;-;-;-;-;-;-;-;-;-
1512472142889;-;-;9.574905;0.0049743652;-0.9450226;-;-;-;-;-;-;-;-;-;-;-;-;-;-;-
1512472142908;-;-;8.927277;-0.3074646;-1.6094208;-;-;-;-;-;-;-;-;-;-;-;-;-;-;-
1512472142928;-;-;6.8479004;-1.0065765;-1.863205;-;-;-;-;-;-;-;-;-;-;-;-;-;-;-
1512472142949;-;-;5.295273;-0.5672302;-0.7582855;-;-;-;-;-;-;-;-;-;-;-;-;-;-;-
1512472142970;-;-;4.4764557;0.3497467;0.7763977;-;-;-;-;-;-;-;-;-;-;-;-;-;-;-
1512472142989;-;-;4.8595276;1.1793365;1.7364807;-;-;-;-;-;-;-;-;-;-;-;-;-;-;-
1512472143010;-;-;6.443283;1.2296143;1.3821411;-;-;-;-;-;-;-;-;-;-;-;-;-;-;-
1512472143030;-;-;8.042618;0.6825409;0.7440796;-;-;-;-;-;-;-;-;-;-;-;-;-;-;-
1512472143051;-;-;9.373795;0.1953125;0.58966064;-;-;-;-;-;-;-;-;-;-;-;-;-;-;-
1512472143071;-;-;9.910095;0.95547485;0.43522644;-;-;-;-;-;-;-;-;-;-;-;-;-;-;-
1512472143092;-;-;10.054947;1.6893005;1.4108734;-;-;-;-;-;-;-;-;-;-;-;-;-;-;-
1512472143112;-;-;9.55455;1.6545868;1.8262634;-;-;-;-;-;-;-;-;-;-;-;-;-;-;-
1512472143133;-;-;8.359848;0.5484619;0.8913269;-;-;-;-;-;-;-;-;-;-;-;-;-;-;-
1512472143153;-;-;7.427307;-0.47865295;0.39093018;-;-;-;-;-;-;-;-;-;-;-;-;-;-;-
1512472143174;-;-;6.7533417;-1.1406403;1.4683228;-;-;-;-;-;-;-;-;-;-;-;-;-;-;-
1512472143194;-;-;6.3223724;-1.0771942;1.0661011;-;-;-;-;-;-;-;-;-;-;-;-;-;-;-
1512472143214;-;-;6.699463;-0.32781982;1.1056061;-;-;-;-;-;-;-;-;-;-;-;-;-;-;-
1512472143235;-;-;7.276474;0.38565063;1.6263428;-;-;-;-;-;-;-;-;-;-;-;-;-;-;-
1512472143255;-;-;7.411743;1.1134949;1.701767;-;-;-;-;-;-;-;-;-;-;-;-;-;-;-
1512472143276;-;-;7.430893;1.6940918;1.6191559;-;-;-;-;-;-;-;-;-;-;-;-;-;-;-
1512472143297;-;-;7.4320984;2.0532227;1.8298492;-;-;-;-;-;-;-;-;-;-;-;-;-;-;-
1512472143317;-;-;7.612854;1.6102905;2.2883453;-;-;-;-;-;-;-;-;-;-;-;-;-;-;-
1512472143337;-;-;7.5757446;0.8441467;2.275177;-;-;-;-;-;-;-;-;-;-;-;-;-;-;-
1512472143357;-;-;7.224991;0.5484619;2.1829987;-;-;-;-;-;-;-;-;-;-;-;-;-;-;-
1512472143378;-;-;7.3231506;0.79267883;1.8777313;-;-;-;-;-;-;-;-;-;-;-;-;-;-;-
1512472143399;-;-;8.353867;0.6322632;-0.9761505;-;-;-;-;-;-;-;-;-;-;-;-;-;-;-
1512472143419;-;-;10.458359;-1.5883636;-4.148468;-;-;-;-;-;-;-;-;-;-;-;-;-;-;-
1512472143440;-;-;11.265213;-2.7734985;-3.3595734;-;-;-;-;-;-;-;-;-;-;-;-;-;-;-
1512472143460;-;-;10.971924;-4.0711517;-0.7965851;-;-;-;-;-;-;-;-;-;-;-;-;-;-;-
1512472143480;-;-;14.575195;-3.3816223;2.3924866;-;-;-;-;-;-;-;-;-;-;-;-;-;-;-
1512472143501;-;-;21.742233;-3.5372467;0.5848694;-;-;-;-;-;-;-;-;-;-;-;-;-;-;-
1512472143521;-;-;23.819199;-4.174103;-2.9166565;-;-;-;-;-;-;-;-;-;-;-;-;-;-;-
1512472143541;-;-;16.085938;-1.8241882;-1.6237793;-;-;-;-;-;-;-;-;-;-;-;-;-;-;-
1512472143561;-;-;9.853821;-1.5632172;1.5533295;-;-;-;-;-;-;-;-;-;-;-;-;-;-;-
1512472143582;-;-;6.403778;-0.39126587;2.2859497;-;-;-;-;-;-;-;-;-;-;-;-;-;-;-
1512472143601;-;-;4.0574646;0.6394501;2.8234406;-;-;-;-;-;-;-;-;-;-;-;-;-;-;-
1512472143621;-;-;3.4122314;1.051239;1.2648163;-;-;-;-;-;-;-;-;-;-;-;-;-;-;-
1512472143641;-;-;4.9277496;0.7627411;1.4503784;-;-;-;-;-;-;-;-;-;-;-;-;-;-;-
1512472143662;-;-;6.9149475;-0.1697998;1.3115082;-;-;-;-;-;-;-;-;-;-;-;-;-;-;-
1512472143682;-;-;7.909729;-0.8880615;1.2660217;-;-;-;-;-;-;-;-;-;-;-;-;-;-;-
1512472143703;-;-;8.121628;-1.7296143;1.057724;-;-;-;-;-;-;-;-;-;-;-;-;-;-;-
1512472143723;-;-;7.2477417;-1.913971;1.9112549;-;-;-;-;-;-;-;-;-;-;-;-;-;-;-
1512472143744;-;-;5.526306;-1.9750214;2.0321655;-;-;-;-;-;-;-;-;-;-;-;-;-;-;-
1512472143764;-;-;4.5985565;-2.344925;0.9032898;-;-;-;-;-;-;-;-;-;-;-;-;-;-;-
1512472143784;-;-;3.8120575;-2.1150818;0.63993835;-;-;-;-;-;-;-;-;-;-;-;-;-;-;-
1512472143805;-;-;4.362732;-1.2747192;0.42684937;-;-;-;-;-;-;-;-;-;-;-;-;-;-;-
1512472143825;-;-;4.102951;-0.9371338;0.30116272;-;-;-;-;-;-;-;-;-;-;-;-;-;-;-
1512472143846;-;-;4.6775665;-0.67736816;0.4100952;-;-;-;-;-;-;-;-;-;-;-;-;-;-;-
1512472143867;-;-;6.110489;-1.3812561;-0.4733734;-;-;-;-;-;-;-;-;-;-;-;-;-;-;-
1512472143887;-;-;5.0606384;-1.5548401;-2.89151;-;-;-;-;-;-;-;-;-;-;-;-;-;-;-
1512472143907;-;-;5.502365;-0.21170044;-2.8137054;-;-;-;-;-;-;-;-;-;-;-;-;-;-;-
1512472143928;-;-;7.9193115;3.9194946;2.1375122;-;-;-;-;-;-;-;-;-;-;-;-;-;-;-
1512472143948;-;-;16.340912;5.944992;-0.709198;-;-;-;-;-;-;-;-;-;-;-;-;-;-;-
1512472143968;-;-;24.739777;5.56192;-3.0040436;-;-;-;-;-;-;-;-;-;-;-;-;-;-;-
1512472143989;-;-;21.996017;2.1489868;-2.1744537;-;-;-;-;-;-;-;-;-;-;-;-;-;-;-
1512472144010;-;-;19.111008;1.5899353;2.3972778;-;-;-;-;-;-;-;-;-;-;-;-;-;-;-
1512472144029;-;-;14.4530945;1.3612976;3.4962158;-;-;-;-;-;-;-;-;-;-;-;-;-;-;-
1512472144050;-;-;11.378937;0.12948608;2.3254547;-;-;-;-;-;-;-;-;-;-;-;-;-;-;-
1512472144069;-;-;8.60405;0.39404297;4.0564575;-;-;-;-;-;-;-;-;-;-;-;-;-;-;-
1512472144090;-;-;5.7765045;1.0787811;5.6617737;-;-;-;-;-;-;-;-;-;-;-;-;-;-;-
1512472144110;-;-;2.8148804;1.3505249;4.5664215;-;-;-;-;-;-;-;-;-;-;-;-;-;-;-
1512472144131;-;-;2.5838318;1.2679291;5.7348022;-;-;-;-;-;-;-;-;-;-;-;-;-;-;-
