TimeStamp[ms];Prox[Cm];Lux[lux];AccX[m/s^2];AccY[m/s^2];AccZ[m/s^2];GyroX[rad/s];GyroY[rad/s];GyroZ[rad/s];MagnX[uT];MagnY[uT];MagnZ[uT];OrienYaw[degrees];OrienPitch[degrees];OrienRoll[degrees];Press[Pa];Temp[C°];Batt[%];Lat;Lng;Speed[m/s]
1512472167968;-;-;9.109222;-0.6222992;0.09286499;-;-;-;-;-;-;-;-;-;-;-;-;-;-;-
1512472167998;-;-;9.511459;-0.5337219;0.33706665;-;-;-;-;-;-;-;-;-;-;-;-;-;-;-
1512472168006;-;-;9.209793;-0.56243896;0.3490448;-;-;-;-;-;-;-;-;-;-;-;-;-;-;-
1512472168026;-;-;9.240906;-0.38049316;0.36579895;-;-;-;-;-;-;-;-;-;-;-;-;-;-;-
1512472168047;-;-;9.122391;-0.37091064;0.38974;-;-;-;-;-;-;-;-;-;-;-;-;-;-;-
1512472168067;-;-;9.304352;-0.43196106;0.46516418;-;-;-;-;-;-;-;-;-;-;-;-;-;-;-
1512472168088;-;-;9.272034;-0.9395294;0.4902954;-;-;-;-;-;-;-;-;-;-;-;-;-;-;-
1512472168109;-;-;9.263657;-0.66659546;0.24130249;-;-;-;-;-;-;-;-;-;-;-;-;-;-;-
1512472168129;-;-;9.3151245;-0.4547119;0.41488647;-;-;-;-;-;-;-;-;-;-;-;-;-;-;-
1512472168149;-;-;9.248093;-0.41999817;0.32510376;-;-;-;-;-;-;-;-;-;-;-;-;-;-;-
1512472168169;-;-;9.363022;-0.5504761;0.7357025;-;-;-;-;-;-;-;-;-;-;-;-;-;-;-
1512472168190;-;-;8.9392395;-0.40083313;0.6159973;-;-;-;-;-;-;-;-;-;-;-;-;-;-;-
1512472168210;-;-;8.922485;-0.54927063;0.42326355;-;-;-;-;-;-;-;-;-;-;-;-;-;-;-
1512472168231;-;-;8.714188;-0.9000244;0.5118408;-;-;-;-;-;-;-;-;-;-;-;-;-;-;-
1512472168251;-;-;8.794388;-0.6498413;0.6375427;-;-;-;-;-;-;-;-;-;-;-;-;-;-;-
1512472168272;-;-;8.894943;-0.7336273;0.5920563;-;-;-;-;-;-;-;-;-;-;-;-;-;-;-
1512472168291;-;-;7.643982;-1.9211578;-1.9230652;-;-;-;-;-;-;-;-;-;-;-;-;-;-;-
1512472168312;-;-;9.093674;0.064834595;1.4599457;-;-;-;-;-;-;-;-;-;-;-;-;-;-;-
1512472168332;-;-;10.125565;-0.13867188;0.7512665;-;-;-;-;-;-;-;-;-;-;-;-;-;-;-
1512472168353;-;-;9.707779;-0.49899292;2.1027985;-;-;-;-;-;-;-;-;-;-;-;-;-;-;-
1512472168373;-;-;9.299576;-0.24401855;-0.5691376;-;-;-;-;-;-;-;-;-;-;-;-;-;-;-
1512472168394;-;-;9.558136;-0.5612488;0.22453308;-;-;-;-;-;-;-;-;-;-;-;-;-;-;-
1512472168414;-;-;8.872208;-1.0173492;0.4699402;-;-;-;-;-;-;-;-;-;-;-;-;-;-;-
1512472168435;-;-;8.878189;-0.5217438;0.4040985;-;-;-;-;-;-;-;-;-;-;-;-;-;-;-
1512472168455;-;-;8.890167;-0.61750793;0.0856781;-;-;-;-;-;-;-;-;-;-;-;-;-;-;-
1512472168475;-;-;9.369003;-0.36013794;0.5704956;-;-;-;-;-;-;-;-;-;-;-;-;-;-;-
1512472168496;-;-;9.4133;-0.3649292;0.5010681;-;-;-;-;-;-;-;-;-;-;-;-;-;-;-
1512472168516;-;-;9.182251;-0.39126587;0.63035583;-;-;-;-;-;-;-;-;-;-;-;-;-;-;-
1512472168537;-;-;9.465973;-0.7851105;0.33348083;-;-;-;-;-;-;-;-;-;-;-;-;-;-;-
1512472168557;-;-;9.426468;-0.7300415;0.39093018;-;-;-;-;-;-;-;-;-;-;-;-;-;-;-
1512472168577;-;-;9.024231;-0.60913086;1.1786346;-;-;-;-;-;-;-;-;-;-;-;-;-;-;-
1512472168598;-;-;8.44603;-1.0999451;-0.24113464;-;-;-;-;-;-;-;-;-;-;-;-;-;-;-
1512472168618;-;-;8.089294;-0.30148315;0.5369873;-;-;-;-;-;-;-;-;-;-;-;-;-;-;-
1512472168639;-;-;8.865021;0.046875;0.5764923;-;-;-;-;-;-;-;-;-;-;-;-;-;-;-
1512472168659;-;-;9.720947;-0.13748169;0.95477295;-;-;-;-;-;-;-;-;-;-;-;-;-;-;-
1512472168680;-;-;9.9591675;-0.47984314;0.11680603;-;-;-;-;-;-;-;-;-;-;-;-;-;-;-
1512472168700;-;-;9.483917;-1.5536499;0.5345917;-;-;-;-;-;-;-;-;-;-;-;-;-;-;-
1512472168721;-;-;8.623199;0.060043335;1.018219;-;-;-;-;-;-;-;-;-;-;-;-;-;-;-
1512472168740;-;-;8.892548;0.38087463;1.0936432;-;-;-;-;-;-;-;-;-;-;-;-;-;-;-
1512472168761;-;-;9.289993;-0.49780273;1.0948334;-;-;-;-;-;-;-;-;-;-;-;-;-;-;-
1512472168780;-;-;10.804321;-0.7515869;0.9463959;-;-;-;-;-;-;-;-;-;-;-;-;-;-;-
1512472168801;-;-;8.431671;0.30426025;-0.05558777;-;-;-;-;-;-;-;-;-;-;-;-;-;-;-
1512472168821;-;-;9.604828;-0.9287567;1.4419861;-;-;-;-;-;-;-;-;-;-;-;-;-;-;-
1512472168842;-;-;9.341461;-0.066848755;-0.36323547;-;-;-;-;-;-;-;-;-;-;-;-;-;-;-
1512472168862;-;-;10.181839;-0.02015686;-0.13458252;-;-;-;-;-;-;-;-;-;-;-;-;-;-;-
1512472168883;-;-;10.9982605;-0.80307007;1.8130951;-;-;-;-;-;-;-;-;-;-;-;-;-;-;-
1512472168903;-;-;5.138443;0.73880005;1.2456665;-;-;-;-;-;-;-;-;-;-;-;-;-;-;-
1512472168923;-;-;8.050995;-0.7623596;1.1714478;-;-;-;-;-;-;-;-;-;-;-;-;-;-;-
1512472168944;-;-;9.505478;0.14144897;-0.9450226;-;-;-;-;-;-;-;-;-;-;-;-;-;-;-
1512472168965;-;-;11.935593;-0.0105896;-0.5727234;-;-;-;-;-;-;-;-;-;-;-;-;-;-;-
1512472168985;-;-;10.707367;-0.15782166;0.17546082;-;-;-;-;-;-;-;-;-;-;-;-;-;-;-
1512472169005;-;-;9.412094;1.6581726;-0.0041046143;-;-;-;-;-;-;-;-;-;-;-;-;-;-;-
1512472169026;-;-;11.852982;0.35453796;-1.2850037;-;-;-;-;-;-;-;-;-;-;-;-;-;-;-
1512472169046;-;-;7.633209;-0.46069336;-0.22317505;-;-;-;-;-;-;-;-;-;-;-;-;-;-;-
1512472169067;-;-;7.569763;-0.10874939;-0.35365295;-;-;-;-;-;-;-;-;-;-;-;-;-;-;-
1512472169087;-;-;8.098877;0.14263916;-0.04600525;-;-;-;-;-;-;-;-;-;-;-;-;-;-;-
1512472169108;-;-;8.629196;0.33299255;0.16468811;-;-;-;-;-;-;-;-;-;-;-;-;-;-;-
1512472169128;-;-;9.661087;0.36531067;-0.0076904297;-;-;-;-;-;-;-;-;-;-;-;-;-;-;-
1512472169148;-;-;9.610809;0.23960876;0.20898438;-;-;-;-;-;-;-;-;-;-;-;-;-;-;-
1512472169169;-;-;9.500687;0.12948608;-0.035232544;-;-;-;-;-;-;-;-;-;-;-;-;-;-;-
1512472169189;-;-;9.0972595;-0.3146515;0.5369873;-;-;-;-;-;-;-;-;-;-;-;-;-;-;-
1512472169210;-;-;8.517868;-0.6917267;0.05934143;-;-;-;-;-;-;-;-;-;-;-;-;-;-;-
1512472169230;-;-;8.480759;-1.5344849;0.8661804;-;-;-;-;-;-;-;-;-;-;-;-;-;-;-
1512472169251;-;-;8.48793;-2.3832397;1.2181396;-;-;-;-;-;-;-;-;-;-;-;-;-;-;-
1512472169271;-;-;8.718979;-3.0105133;1.0553284;-;-;-;-;-;-;-;-;-;-;-;-;-;-;-
1512472169291;-;-;8.775238;-2.8225708;1.3462219;-;-;-;-;-;-;-;-;-;-;-;-;-;-;-
1512472169311;-;-;9.130783;-1.9786224;1.275589;-;-;-;-;-;-;-;-;-;-;-;-;-;-;-
1512472169332;-;-;9.612015;-0.6151123;1.3294678;-;-;-;-;-;-;-;-;-;-;-;-;-;-;-
1512472169352;-;-;10.143524;0.5879669;1.4623413;-;-;-;-;-;-;-;-;-;-;-;-;-;-;-
1512472169373;-;-;9.880157;0.8621063;1.3067169;-;-;-;-;-;-;-;-;-;-;-;-;-;-;-
1512472169393;-;-;9.092468;-0.1302948;1.1941986;-;-;-;-;-;-;-;-;-;-;-;-;-;-;-
1512472169414;-;-;8.32872;-1.2603607;1.2181396;-;-;-;-;-;-;-;-;-;-;-;-;-;-;-
1512472169434;-;-;8.143173;-2.0779724;0.9990692;-;-;-;-;-;-;-;-;-;-;-;-;-;-;-
1512472169455;-;-;8.540604;-2.1773376;1.1032104;-;-;-;-;-;-;-;-;-;-;-;-;-;-;-
1512472169475;-;-;8.880585;-1.6434326;1.5641022;-;-;-;-;-;-;-;-;-;-;-;-;-;-;-
1512472169496;-;-;9.07811;-1.2459869;1.8106995;-;-;-;-;-;-;-;-;-;-;-;-;-;-;-
1512472169517;-;-;9.313934;-0.6546173;1.959137;-;-;-;-;-;-;-;-;-;-;-;-;-;-;-
1512472169537;-;-;9.348648;-0.3589325;1.7268982;-;-;-;-;-;-;-;-;-;-;-;-;-;-;-
1512472169557;-;-;9.072113;-0.9060211;1.5820465;-;-;-;-;-;-;-;-;-;-;-;-;-;-;-
1512472169578;-;-;8.709396;-1.6685638;1.2492523;-;-;-;-;-;-;-;-;-;-;-;-;-;-;-
1512472169599;-;-;8.689041;-2.0540314;1.3749542;-;-;-;-;-;-;-;-;-;-;-;-;-;-;-
1512472169619;-;-;8.906921;-2.1222687;1.7376709;-;-;-;-;-;-;-;-;-;-;-;-;-;-;-
1512472169640;-;-;9.510254;-2.5412598;1.7568359;-;-;-;-;-;-;-;-;-;-;-;-;-;-;-
1512472169660;-;-;9.73053;-3.0907288;1.0876465;-;-;-;-;-;-;-;-;-;-;-;-;-;-;-
1512472169681;-;-;9.816711;-2.3760529;1.3126984;-;-;-;-;-;-;-;-;-;-;-;-;-;-;-
1512472169701;-;-;9.360626;-1.4255524;1.7795715;-;-;-;-;-;-;-;-;-;-;-;-;-;-;-
1512472169722;-;-;9.288788;-1.7176514;0.8326721;-;-;-;-;-;-;-;-;-;-;-;-;-;-;-
1512472169742;-;-;10.712143;-0.7372284;0.85780334;-;-;-;-;-;-;-;-;-;-;-;-;-;-;-
1512472169762;-;-;12.137894;-1.9546814;0.20059204;-;-;-;-;-;-;-;-;-;-;-;-;-;-;-
1512472169783;-;-;12.637085;-3.3971863;-0.78700256;-;-;-;-;-;-;-;-;-;-;-;-;-;-;-
1512472169802;-;-;13.033325;-4.2207794;-0.5571594;-;-;-;-;-;-;-;-;-;-;-;-;-;-;-
1512472169823;-;-;12.368942;-3.265503;-0.53681946;-;-;-;-;-;-;-;-;-;-;-;-;-;-;-
1512472169843;-;-;10.494278;-0.43077087;-1.0180511;-;-;-;-;-;-;-;-;-;-;-;-;-;-;-
1512472169863;-;-;8.984726;0.7807007;-1.4980927;-;-;-;-;-;-;-;-;-;-;-;-;-;-;-
1512472169884;-;-;6.8455048;2.7954254;-1.155716;-;-;-;-;-;-;-;-;-;-;-;-;-;-;-
1512472169904;-;-;6.3738556;3.3484802;-0.21958923;-;-;-;-;-;-;-;-;-;-;-;-;-;-;-
1512472169925;-;-;6.651581;1.3074188;-0.35725403;-;-;-;-;-;-;-;-;-;-;-;-;-;-;-
1512472169946;-;-;7.648773;-1.0664215;-0.60624695;-;-;-;-;-;-;-;-;-;-;-;-;-;-;-
1512472169966;-;-;8.535812;-2.3161926;0.36819458;-;-;-;-;-;-;-;-;-;-;-;-;-;-;-
1512472169986;-;-;9.65152;-2.151001;1.0996246;-;-;-;-;-;-;-;-;-;-;-;-;-;-;-
1512472170007;-;-;10.581665;-1.0484619;0.60043335;-;-;-;-;-;-;-;-;-;-;-;-;-;-;-
1512472170027;-;-;11.139511;-0.076416016;-0.23634338;-;-;-;-;-;-;-;-;-;-;-;-;-;-;-
1512472170048;-;-;10.068115;0.73760986;-1.4190826;-;-;-;-;-;-;-;-;-;-;-;-;-;-;-
1512472170068;-;-;9.560532;0.9183655;-0.927063;-;-;-;-;-;-;-;-;-;-;-;-;-;-;-
1512472170089;-;-;8.186264;1.0835724;-0.6996155;-;-;-;-;-;-;-;-;-;-;-;-;-;-;-
1512472170109;-;-;7.5829315;1.0584259;-0.496109;-;-;-;-;-;-;-;-;-;-;-;-;-;-;-
1512472170130;-;-;7.383011;0.99858093;-0.32731628;-;-;-;-;-;-;-;-;-;-;-;-;-;-;-
1512472170150;-;-;7.7612915;1.0727997;-0.2902069;-;-;-;-;-;-;-;-;-;-;-;-;-;-;-
1512472170171;-;-;8.135986;1.2834778;0.072509766;-;-;-;-;-;-;-;-;-;-;-;-;-;-;-
1512472170191;-;-;8.4843445;1.240387;0.87934875;-;-;-;-;-;-;-;-;-;-;-;-;-;-;-
1512472170212;-;-;9.082901;0.73760986;2.0561066;-;-;-;-;-;-;-;-;-;-;-;-;-;-;-
1512472170232;-;-;8.906921;0.34735107;1.53656;-;-;-;-;-;-;-;-;-;-;-;-;-;-;-
1512472170253;-;-;8.679474;0.18574524;1.409668;-;-;-;-;-;-;-;-;-;-;-;-;-;-;-
1512472170274;-;-;7.336319;0.35932922;1.4443817;-;-;-;-;-;-;-;-;-;-;-;-;-;-;-
1512472170294;-;-;8.705811;-0.016571045;2.3374176;-;-;-;-;-;-;-;-;-;-;-;-;-;-;-
1512472170315;-;-;8.240128;0.05885315;2.0872345;-;-;-;-;-;-;-;-;-;-;-;-;-;-;-
1512472170335;-;-;8.088104;-0.109939575;1.9531555;-;-;-;-;-;-;-;-;-;-;-;-;-;-;-
1512472170355;-;-;7.724182;-0.02255249;1.9818878;-;-;-;-;-;-;-;-;-;-;-;-;-;-;-
1512472170376;-;-;7.858261;0.66578674;1.8908997;-;-;-;-;-;-;-;-;-;-;-;-;-;-;-
1512472170396;-;-;8.104858;1.0691986;2.4367828;-;-;-;-;-;-;-;-;-;-;-;-;-;-;-
1512472170417;-;-;7.995926;0.60113525;2.4559326;-;-;-;-;-;-;-;-;-;-;-;-;-;-;-
1512472170437;-;-;8.643555;0.08758545;1.7687988;-;-;-;-;-;-;-;-;-;-;-;-;-;-;-
1512472170458;-;-;8.24852;-0.040512085;1.6921844;-;-;-;-;-;-;-;-;-;-;-;-;-;-;-
1512472170478;-;-;9.930435;0.55804443;2.0788574;-;-;-;-;-;-;-;-;-;-;-;-;-;-;-
1512472170498;-;-;10.308731;1.9430847;1.7867584;-;-;-;-;-;-;-;-;-;-;-;-;-;-;-
1512472170519;-;-;10.159088;2.3249664;2.8018951;-;-;-;-;-;-;-;-;-;-;-;-;-;-;-
1512472170539;-;-;10.069305;2.1106873;3.5034027;-;-;-;-;-;-;-;-;-;-;-;-;-;-;-
1512472170560;-;-;8.475967;1.9586487;3.204132;-;-;-;-;-;-;-;-;-;-;-;-;-;-;-
1512472170580;-;-;7.6343994;2.0939178;3.757187;-;-;-;-;-;-;-;-;-;-;-;-;-;-;-
1512472170601;-;-;7.374634;2.1250458;2.4308014;-;-;-;-;-;-;-;-;-;-;-;-;-;-;-
1512472170621;-;-;11.796722;2.2974243;0.2808075;-;-;-;-;-;-;-;-;-;-;-;-;-;-;-
1512472170642;-;-;16.807785;-0.32901;-1.8524323;-;-;-;-;-;-;-;-;-;-;-;-;-;-;-
1512472170662;-;-;16.328949;1.5695953;-7.740967;-;-;-;-;-;-;-;-;-;-;-;-;-;-;-
1512472170683;-;-;16.146988;2.3608704;-3.7426453;-;-;-;-;-;-;-;-;-;-;-;-;-;-;-
1512472170704;-;-;11.78714;-0.7264557;-2.2175446;-;-;-;-;-;-;-;-;-;-;-;-;-;-;-
1512472170724;-;-;8.416107;-4.728363;-0.5787201;-;-;-;-;-;-;-;-;-;-;-;-;-;-;-
1512472170745;-;-;6.810791;-5.788986;0.37298584;-;-;-;-;-;-;-;-;-;-;-;-;-;-;-
1512472170765;-;-;6.9496613;-5.6477356;-0.23394775;-;-;-;-;-;-;-;-;-;-;-;-;-;-;-
1512472170786;-;-;7.9552307;-4.135788;-2.5766754;-;-;-;-;-;-;-;-;-;-;-;-;-;-;-
1512472170806;-;-;9.386963;-0.6426544;-2.2965546;-;-;-;-;-;-;-;-;-;-;-;-;-;-;-
1512472170827;-;-;9.521027;2.6098785;-0.48294067;-;-;-;-;-;-;-;-;-;-;-;-;-;-;-
1512472170847;-;-;9.181061;3.529251;0.7859802;-;-;-;-;-;-;-;-;-;-;-;-;-;-;-
1512472170868;-;-;9.072113;1.9011841;-0.14057922;-;-;-;-;-;-;-;-;-;-;-;-;-;-;-
1512472170888;-;-;7.909729;0.08998108;-0.5236511;-;-;-;-;-;-;-;-;-;-;-;-;-;-;-
1512472170908;-;-;6.4408875;-1.1921234;0.54296875;-;-;-;-;-;-;-;-;-;-;-;-;-;-;-
1512472170929;-;-;5.9824066;-2.4574585;1.9387817;-;-;-;-;-;-;-;-;-;-;-;-;-;-;-
1512472170950;-;-;6.398987;-2.9075623;2.1135712;-;-;-;-;-;-;-;-;-;-;-;-;-;-;-
1512472170970;-;-;7.5470123;-2.245575;1.0242004;-;-;-;-;-;-;-;-;-;-;-;-;-;-;-
1512472170990;-;-;8.695038;-1.2016907;0.6387329;-;-;-;-;-;-;-;-;-;-;-;-;-;-;-
1512472171010;-;-;9.2708435;-1.1741638;1.5329742;-;-;-;-;-;-;-;-;-;-;-;-;-;-;-
1512472171031;-;-;9.328293;-1.4902039;2.0836334;-;-;-;-;-;-;-;-;-;-;-;-;-;-;-
1512472171052;-;-;9.062546;-1.641037;2.1458893;-;-;-;-;-;-;-;-;-;-;-;-;-;-;-
1512472171072;-;-;8.736938;-1.3932343;2.1638489;-;-;-;-;-;-;-;-;-;-;-;-;-;-;-
1512472171093;-;-;9.103241;-0.7108917;1.9567413;-;-;-;-;-;-;-;-;-;-;-;-;-;-;-
1512472171113;-;-;9.127182;-0.3481598;1.6586609;-;-;-;-;-;-;-;-;-;-;-;-;-;-;-
1512472171133;-;-;8.401749;-0.105148315;1.0206146;-;-;-;-;-;-;-;-;-;-;-;-;-;-;-
1512472171154;-;-;6.746155;-0.06803894;0.70098877;-;-;-;-;-;-;-;-;-;-;-;-;-;-;-
1512472171174;-;-;4.4010315;-0.7300415;0.101242065;-;-;-;-;-;-;-;-;-;-;-;-;-;-;-
1512472171195;-;-;3.97966;-0.8461609;0.6531067;-;-;-;-;-;-;-;-;-;-;-;-;-;-;-
1512472171215;-;-;4.96846;0.010971069;2.0525208;-;-;-;-;-;-;-;-;-;-;-;-;-;-;-
1512472171236;-;-;5.528702;0.51493835;3.0437164;-;-;-;-;-;-;-;-;-;-;-;-;-;-;-
1512472171256;-;-;6.746155;0.62628174;2.8066864;-;-;-;-;-;-;-;-;-;-;-;-;-;-;-
1512472171276;-;-;8.872208;-0.61990356;1.6538849;-;-;-;-;-;-;-;-;-;-;-;-;-;-;-
1512472171297;-;-;10.212952;-2.4490814;0.78718567;-;-;-;-;-;-;-;-;-;-;-;-;-;-;-
1512472171318;-;-;9.0793;-2.9255219;0.5920563;-;-;-;-;-;-;-;-;-;-;-;-;-;-;-
1512472171338;-;-;7.4524384;-2.5316772;0.23890686;-;-;-;-;-;-;-;-;-;-;-;-;-;-;-
1512472171359;-;-;7.1795044;-1.1873322;-2.1564941;-;-;-;-;-;-;-;-;-;-;-;-;-;-;-
1512472171379;-;-;7.9468384;0.88723755;-4.0514984;-;-;-;-;-;-;-;-;-;-;-;-;-;-;-
1512472171399;-;-;9.813126;2.8385162;-2.4713287;-;-;-;-;-;-;-;-;-;-;-;-;-;-;-
1512472171420;-;-;11.920029;3.644165;0.45677185;-;-;-;-;-;-;-;-;-;-;-;-;-;-;-
1512472171441;-;-;13.288315;3.7926025;1.7268982;-;-;-;-;-;-;-;-;-;-;-;-;-;-;-
1512472171461;-;-;15.900391;4.7167664;-1.7171631;-;-;-;-;-;-;-;-;-;-;-;-;-;-;-
1512472171482;-;-;17.968979;3.6537476;1.002655;-;-;-;-;-;-;-;-;-;-;-;-;-;-;-
1512472171502;-;-;15.771103;-2.2120514;3.4758606;-;-;-;-;-;-;-;-;-;-;-;-;-;-;-
1512472171523;-;-;12.886078;-3.5121002;2.2584076;-;-;-;-;-;-;-;-;-;-;-;-;-;-;-
1512472171543;-;-;11.442383;-1.7930603;1.6933899;-;-;-;-;-;-;-;-;-;-;-;-;-;-;-
1512472171564;-;-;10.728912;1.7060547;1.45755;-;-;-;-;-;-;-;-;-;-;-;-;-;-;-
1512472171584;-;-;9.4133;3.158142;1.2181396;-;-;-;-;-;-;-;-;-;-;-;-;-;-;-
1512472171605;-;-;6.704254;2.5979004;1.7233124;-;-;-;-;-;-;-;-;-;-;-;-;-;-;-
1512472171624;-;-;4.9098053;1.5420532;2.1590576;-;-;-;-;-;-;-;-;-;-;-;-;-;-;-
1512472171644;-;-;3.7521973;0.31503296;2.6570435;-;-;-;-;-;-;-;-;-;-;-;-;-;-;-
1512472171665;-;-;3.8838806;-0.43914795;3.5393066;-;-;-;-;-;-;-;-;-;-;-;-;-;-;-
1512472171686;-;-;4.8523407;-0.095581055;3.6027527;-;-;-;-;-;-;-;-;-;-;-;-;-;-;-
1512472171706;-;-;5.574188;0.4359436;2.9443512;-;-;-;-;-;-;-;-;-;-;-;-;-;-;-
1512472171727;-;-;6.044647;1.0632172;3.1789856;-;-;-;-;-;-;-;-;-;-;-;-;-;-;-
1512472171747;-;-;5.868683;0.848938;3.1035614;-;-;-;-;-;-;-;-;-;-;-;-;-;-;-
1512472171768;-;-;6.1440125;-0.23443604;2.6630402;-;-;-;-;-;-;-;-;-;-;-;-;-;-;-
1512472171788;-;-;6.3331604;-0.9646759;1.9052734;-;-;-;-;-;-;-;-;-;-;-;-;-;-;-
1512472171809;-;-;6.7222137;-1.4494934;2.0596924;-;-;-;-;-;-;-;-;-;-;-;-;-;-;-
1512472171829;-;-;7.214218;-0.97184753;1.3558044;-;-;-;-;-;-;-;-;-;-;-;-;-;-;-
1512472171850;-;-;6.482788;1.1362457;-0.6553345;-;-;-;-;-;-;-;-;-;-;-;-;-;-;-
1512472171870;-;-;6.987961;2.205246;-4.2214966;-;-;-;-;-;-;-;-;-;-;-;-;-;-;-
1512472171890;-;-;9.63237;1.5492401;-5.859131;-;-;-;-;-;-;-;-;-;-;-;-;-;-;-
1512472171911;-;-;14.269928;-2.0025635;-2.2438812;-;-;-;-;-;-;-;-;-;-;-;-;-;-;-
1512472171930;-;-;14.096359;-3.2475433;0.6854248;-;-;-;-;-;-;-;-;-;-;-;-;-;-;-
1512472171951;-;-;17.982147;-2.183319;4.236023;-;-;-;-;-;-;-;-;-;-;-;-;-;-;-
1512472171971;-;-;23.46965;-1.0101624;0.83625793;-;-;-;-;-;-;-;-;-;-;-;-;-;-;-
1512472171992;-;-;20.334442;-1.7463837;-2.4797058;-;-;-;-;-;-;-;-;-;-;-;-;-;-;-
1512472172012;-;-;11.830246;-2.0839539;2.698944;-;-;-;-;-;-;-;-;-;-;-;-;-;-;-
1512472172033;-;-;8.356247;-3.0835419;4.033722;-;-;-;-;-;-;-;-;-;-;-;-;-;-;-
1512472172053;-;-;5.987198;-4.029251;4.32222;-;-;-;-;-;-;-;-;-;-;-;-;-;-;-
1512472172074;-;-;4.913391;-3.349289;2.7228851;-;-;-;-;-;-;-;-;-;-;-;-;-;-;-
1512472172093;-;-;5.818405;-2.9530487;0.6961975;-;-;-;-;-;-;-;-;-;-;-;-;-;-;-
1512472172114;-;-;7.238159;-1.6470184;1.6287384;-;-;-;-;-;-;-;-;-;-;-;-;-;-;-
1512472172134;-;-;7.7696686;0.024139404;2.5062103;-;-;-;-;-;-;-;-;-;-;-;-;-;-;-
1512472172155;-;-;7.5290527;0.9686432;1.4695282;-;-;-;-;-;-;-;-;-;-;-;-;-;-;-
1512472172175;-;-;6.2313995;0.69810486;2.0561066;-;-;-;-;-;-;-;-;-;-;-;-;-;-;-
1512472172196;-;-;4.5626373;0.19293213;2.409256;-;-;-;-;-;-;-;-;-;-;-;-;-;-;-
1512472172216;-;-;3.9652863;0.78549194;2.211731;-;-;-;-;-;-;-;-;-;-;-;-;-;-;-
1512472172236;-;-;4.027542;0.793869;2.1231384;-;-;-;-;-;-;-;-;-;-;-;-;-;-;-
1512472172257;-;-;4.4764557;-0.41400146;1.9304047;-;-;-;-;-;-;-;-;-;-;-;-;-;-;-
1512472172277;-;-;6.11409;-2.511322;1.37854;-;-;-;-;-;-;-;-;-;-;-;-;-;-;-
1512472172298;-;-;5.612503;-4.3704224;-0.102264404;-;-;-;-;-;-;-;-;-;-;-;-;-;-;-
1512472172318;-;-;4.8559265;-5.020447;-1.3807678;-;-;-;-;-;-;-;-;-;-;-;-;-;-;-
1512472172338;-;-;5.0809784;-3.202057;-1.8165131;-;-;-;-;-;-;-;-;-;-;-;-;-;-;-
1512472172359;-;-;5.14682;1.9191437;-3.4218292;-;-;-;-;-;-;-;-;-;-;-;-;-;-;-
1512472172380;-;-;8.630386;5.157303;2.5588837;-;-;-;-;-;-;-;-;-;-;-;-;-;-;-
1512472172401;-;-;14.0784;5.110611;2.0596924;-;-;-;-;-;-;-;-;-;-;-;-;-;-;-
1512472172421;-;-;19.00087;3.0982819;-1.7470856;-;-;-;-;-;-;-;-;-;-;-;-;-;-;-
1512472172442;-;-;31.247223;5.06752;-1.4968872;-;-;-;-;-;-;-;-;-;-;-;-;-;-;-
1512472172462;-;-;21.35437;2.4398804;2.8150635;-;-;-;-;-;-;-;-;-;-;-;-;-;-;-
1512472172482;-;-;12.312668;1.3253784;1.7149353;-;-;-;-;-;-;-;-;-;-;-;-;-;-;-
1512472172502;-;-;8.156342;-0.3397827;3.9642792;-;-;-;-;-;-;-;-;-;-;-;-;-;-;-
1512472172523;-;-;4.6500244;-0.8665161;5.812607;-;-;-;-;-;-;-;-;-;-;-;-;-;-;-
1512472172543;-;-;3.1033783;0.11392212;5.173355;-;-;-;-;-;-;-;-;-;-;-;-;-;-;-
1512472172564;-;-;1.9062805;1.8760529;4.034912;-;-;-;-;-;-;-;-;-;-;-;-;-;-;-
1512472172584;-;-;2.9154358;1.3098145;3.0999756;-;-;-;-;-;-;-;-;-;-;-;-;-;-;-
1512472172603;-;-;5.1001434;-0.9790344;2.117157;-;-;-;-;-;-;-;-;-;-;-;-;-;-;-
1512472172624;-;-;6.759323;-1.9822083;2.737259;-;-;-;-;-;-;-;-;-;-;-;-;-;-;-
1512472172644;-;-;4.8631134;-2.2994385;3.184967;-;-;-;-;-;-;-;-;-;-;-;-;-;-;-
1512472172665;-;-;6.2158356;-1.9103851;1.8968964;-;-;-;-;-;-;-;-;-;-;-;-;-;-;-
1512472172685;-;-;6.924515;0.28271484;-1.8500366;-;-;-;-;-;-;-;-;-;-;-;-;-;-;-
1512472172706;-;-;5.0055695;0.9782257;-4.19516;-;-;-;-;-;-;-;-;-;-;-;-;-;-;-
1512472172726;-;-;6.454056;-0.009384155;-2.9908752;-;-;-;-;-;-;-;-;-;-;-;-;-;-;-
1512472172747;-;-;8.234146;-1.0352936;-2.0786743;-;-;-;-;-;-;-;-;-;-;-;-;-;-;-
1512472172767;-;-;17.32373;0.122299194;2.5612793;-;-;-;-;-;-;-;-;-;-;-;-;-;-;-
1512472172788;-;-;20.429016;1.9430847;2.2129211;-;-;-;-;-;-;-;-;-;-;-;-;-;-;-
1512472172808;-;-;21.087418;0.9530792;1.2444763;-;-;-;-;-;-;-;-;-;-;-;-;-;-;-
1512472172829;-;-;23.144043;-5.1688843;1.6047974;-;-;-;-;-;-;-;-;-;-;-;-;-;-;-
1512472172849;-;-;15.359299;-6.945389;0.23052979;-;-;-;-;-;-;-;-;-;-;-;-;-;-;-
1512472172870;-;-;6.7090454;-5.8895416;4.1594086;-;-;-;-;-;-;-;-;-;-;-;-;-;-;-
1512472172890;-;-;3.806076;-3.0428314;3.6243134;-;-;-;-;-;-;-;-;-;-;-;-;-;-;-
1512472172910;-;-;4.429764;-0.45710754;4.153427;-;-;-;-;-;-;-;-;-;-;-;-;-;-;-
1512472172931;-;-;3.351181;0.8692932;3.41362;-;-;-;-;-;-;-;-;-;-;-;-;-;-;-
1512472172951;-;-;2.532364;1.3529205;2.0369568;-;-;-;-;-;-;-;-;-;-;-;-;-;-;-
1512472172972;-;-;3.2625885;1.6569824;3.1789856;-;-;-;-;-;-;-;-;-;-;-;-;-;-;-
1512472172992;-;-;6.6539764;2.0125122;3.0640564;-;-;-;-;-;-;-;-;-;-;-;-;-;-;-
1512472173012;-;-;8.254501;0.8513336;1.1582794;-;-;-;-;-;-;-;-;-;-;-;-;-;-;-
1512472173033;-;-;9.840652;-1.0113525;-0.25309753;-;-;-;-;-;-;-;-;-;-;-;-;-;-;-
1512472173053;-;-;8.9991;-2.1091003;0.110809326;-;-;-;-;-;-;-;-;-;-;-;-;-;-;-
1512472173074;-;-;7.734955;-3.7215881;0.20777893;-;-;-;-;-;-;-;-;-;-;-;-;-;-;-
1512472173093;-;-;5.406601;-4.293808;-1.322113;-;-;-;-;-;-;-;-;-;-;-;-;-;-;-
1512472173114;-;-;3.2542114;-3.3552856;-2.2774048;-;-;-;-;-;-;-;-;-;-;-;-;-;-;-
1512472173134;-;-;3.177597;-0.79467773;-3.0615082;-;-;-;-;-;-;-;-;-;-;-;-;-;-;-
1512472173154;-;-;3.9473267;1.9610443;1.4204407;-;-;-;-;-;-;-;-;-;-;-;-;-;-;-
1512472173175;-;-;10.221344;2.9151306;3.82901;-;-;-;-;-;-;-;-;-;-;-;-;-;-;-
1512472173195;-;-;15.73877;1.7323914;1.2109528;-;-;-;-;-;-;-;-;-;-;-;-;-;-;-
1512472173217;-;-;21.76857;1.0105438;-2.9358063;-;-;-;-;-;-;-;-;-;-;-;-;-;-;-
1512472173238;-;-;25.180313;2.6733246;-2.570694;-;-;-;-;-;-;-;-;-;-;-;-;-;-;-
1512472173258;-;-;17.833694;3.996109;3.1717987;-;-;-;-;-;-;-;-;-;-;-;-;-;-;-
1512472173278;-;-;11.095215;3.0719452;3.3932648;-;-;-;-;-;-;-;-;-;-;-;-;-;-;-
1512472173299;-;-;6.2230225;0.5352936;5.7000732;-;-;-;-;-;-;-;-;-;-;-;-;-;-;-
1512472173319;-;-;4.945709;-1.2316284;6.304611;-;-;-;-;-;-;-;-;-;-;-;-;-;-;-
1512472173340;-;-;4.7374115;-0.62709045;3.366928;-;-;-;-;-;-;-;-;-;-;-;-;-;-;-
1512472173360;-;-;4.201111;-0.36013794;2.8078918;-;-;-;-;-;-;-;-;-;-;-;-;-;-;-
1512472173381;-;-;3.2123108;-0.047698975;3.939148;-;-;-;-;-;-;-;-;-;-;-;-;-;-;-
1512472173401;-;-;4.47406;0.07800293;5.8592987;-;-;-;-;-;-;-;-;-;-;-;-;-;-;-
1512472173421;-;-;6.5198975;-0.32901;3.8457642;-;-;-;-;-;-;-;-;-;-;-;-;-;-;-
1512472173442;-;-;6.2517548;-1.0137482;0.8530121;-;-;-;-;-;-;-;-;-;-;-;-;-;-;-
1512472173462;-;-;7.1052856;-0.9191742;-0.81573486;-;-;-;-;-;-;-;-;-;-;-;-;-;-;-
1512472173483;-;-;6.1559753;1.0955353;-2.2558594;-;-;-;-;-;-;-;-;-;-;-;-;-;-;-
1512472173502;-;-;5.4449005;2.521286;-4.03714;-;-;-;-;-;-;-;-;-;-;-;-;-;-;-
1512472173523;-;-;6.6611633;1.382843;-2.946579;-;-;-;-;-;-;-;-;-;-;-;-;-;-;-
1512472173543;-;-;9.534195;-0.51815796;-3.1536713;-;-;-;-;-;-;-;-;-;-;-;-;-;-;-
1512472173563;-;-;14.255569;-1.4554901;2.6642303;-;-;-;-;-;-;-;-;-;-;-;-;-;-;-
1512472173584;-;-;22.60176;-1.8170013;5.70726;-;-;-;-;-;-;-;-;-;-;-;-;-;-;-
1512472173604;-;-;29.826263;-5.104248;-4.488449;-;-;-;-;-;-;-;-;-;-;-;-;-;-;-
1512472173625;-;-;18.974533;-4.166916;0.3035431;-;-;-;-;-;-;-;-;-;-;-;-;-;-;-
1512472173645;-;-;12.446747;-2.5628052;3.7224731;-;-;-;-;-;-;-;-;-;-;-;-;-;-;-
1512472173666;-;-;7.284851;-1.4028168;2.6917725;-;-;-;-;-;-;-;-;-;-;-;-;-;-;-
1512472173687;-;-;4.6655884;-2.7770844;2.532547;-;-;-;-;-;-;-;-;-;-;-;-;-;-;-
1512472173707;-;-;3.715088;-2.9470673;1.033783;-;-;-;-;-;-;-;-;-;-;-;-;-;-;-
1512472173727;-;-;3.813263;-0.14225769;1.5988159;-;-;-;-;-;-;-;-;-;-;-;-;-;-;-
1512472173747;-;-;4.5279236;1.358902;3.5859985;-;-;-;-;-;-;-;-;-;-;-;-;-;-;-
1512472173768;-;-;6.0290833;1.6019135;3.2376404;-;-;-;-;-;-;-;-;-;-;-;-;-;-;-
1512472173788;-;-;6.7892456;0.26834106;2.3769226;-;-;-;-;-;-;-;-;-;-;-;-;-;-;-
1512472173809;-;-;7.119644;-1.2687378;1.749649;-;-;-;-;-;-;-;-;-;-;-;-;-;-;-
1512472173829;-;-;7.3052063;-2.0157318;2.508606;-;-;-;-;-;-;-;-;-;-;-;-;-;-;-
1512472173850;-;-;7.011902;-0.5672302;2.6546478;-;-;-;-;-;-;-;-;-;-;-;-;-;-;-
1512472173870;-;-;6.059021;1.1134949;3.1035614;-;-;-;-;-;-;-;-;-;-;-;-;-;-;-
1512472173890;-;-;5.8878326;0.6394501;2.4798737;-;-;-;-;-;-;-;-;-;-;-;-;-;-;-
1512472173911;-;-;7.055008;-1.028122;-0.023254395;-;-;-;-;-;-;-;-;-;-;-;-;-;-;-
1512472173932;-;-;6.6300354;-2.8297577;-2.768219;-;-;-;-;-;-;-;-;-;-;-;-;-;-;-
1512472173952;-;-;4.7673492;-4.690048;-3.3296509;-;-;-;-;-;-;-;-;-;-;-;-;-;-;-
1512472173973;-;-;5.5275116;-1.7140503;-2.5982208;-;-;-;-;-;-;-;-;-;-;-;-;-;-;-
1512472173992;-;-;8.2114105;1.264328;2.1937714;-;-;-;-;-;-;-;-;-;-;-;-;-;-;-
1512472174013;-;-;14.208878;4.6748657;1.4755096;-;-;-;-;-;-;-;-;-;-;-;-;-;-;-
1512472174033;-;-;18.391556;4.90831;2.402069;-;-;-;-;-;-;-;-;-;-;-;-;-;-;-
1512472174054;-;-;17.547592;2.409958;-1.0958557;-;-;-;-;-;-;-;-;-;-;-;-;-;-;-
1512472174074;-;-;16.13861;2.4841766;-0.43984985;-;-;-;-;-;-;-;-;-;-;-;-;-;-;-
1512472174095;-;-;13.991013;1.8916168;3.200531;-;-;-;-;-;-;-;-;-;-;-;-;-;-;-
1512472174115;-;-;11.120361;1.398407;4.793869;-;-;-;-;-;-;-;-;-;-;-;-;-;-;-
1512472174136;-;-;9.019455;0.61550903;5.3924255;-;-;-;-;-;-;-;-;-;-;-;-;-;-;-
1512472174155;-;-;6.908966;-0.38887024;5.9490814;-;-;-;-;-;-;-;-;-;-;-;-;-;-;-
1512472174175;-;-;4.4632874;0.21806335;4.078003;-;-;-;-;-;-;-;-;-;-;-;-;-;-;-
1512472174196;-;-;3.560669;0.7878876;2.4738922;-;-;-;-;-;-;-;-;-;-;-;-;-;-;-
1512472174217;-;-;3.4756775;-0.26914978;2.4200287;-;-;-;-;-;-;-;-;-;-;-;-;-;-;-
1512472174236;-;-;3.9784546;-1.269928;3.5297394;-;-;-;-;-;-;-;-;-;-;-;-;-;-;-
1512472174257;-;-;3.7953033;-2.5675964;4.8980255;-;-;-;-;-;-;-;-;-;-;-;-;-;-;-
1512472174277;-;-;7.5290527;-1.4291534;1.591629;-;-;-;-;-;-;-;-;-;-;-;-;-;-;-
1512472174297;-;-;6.9819794;1.0021667;-0.9546051;-;-;-;-;-;-;-;-;-;-;-;-;-;-;-
1512472174318;-;-;7.2740784;2.727188;-2.8125;-;-;-;-;-;-;-;-;-;-;-;-;-;-;-
1512472174337;-;-;6.319992;2.797821;-3.9868622;-;-;-;-;-;-;-;-;-;-;-;-;-;-;-
1512472174358;-;-;8.095291;1.7491608;-3.6576538;-;-;-;-;-;-;-;-;-;-;-;-;-;-;-
1512472174378;-;-;10.715744;-1.6853333;1.5162201;-;-;-;-;-;-;-;-;-;-;-;-;-;-;-
1512472174399;-;-;12.595184;-2.399994;2.3182678;-;-;-;-;-;-;-;-;-;-;-;-;-;-;-
1512472174419;-;-;18.93982;-1.9462891;6.9055634;-;-;-;-;-;-;-;-;-;-;-;-;-;-;-
1512472174439;-;-;31.516571;-7.8336334;1.5054321;-;-;-;-;-;-;-;-;-;-;-;-;-;-;-
1512472174460;-;-;20.202759;-5.4980927;-2.9142609;-;-;-;-;-;-;-;-;-;-;-;-;-;-;-
1512472174481;-;-;11.347809;-4.10466;1.4372101;-;-;-;-;-;-;-;-;-;-;-;-;-;-;-
1512472174501;-;-;7.9193115;-3.0811462;2.9658966;-;-;-;-;-;-;-;-;-;-;-;-;-;-;-
1512472174522;-;-;3.7402344;-0.35176086;3.1717987;-;-;-;-;-;-;-;-;-;-;-;-;-;-;-
1512472174542;-;-;0.2961731;2.3465118;1.2337036;-;-;-;-;-;-;-;-;-;-;-;-;-;-;-
1512472174563;-;-;-0.26287842;3.0300598;0.6363373;-;-;-;-;-;-;-;-;-;-;-;-;-;-;-
1512472174583;-;-;1.9852753;2.0173035;3.061676;-;-;-;-;-;-;-;-;-;-;-;-;-;-;-
1512472174604;-;-;4.430954;0.6945038;3.5620575;-;-;-;-;-;-;-;-;-;-;-;-;-;-;-
1512472174624;-;-;5.497574;-0.9000244;3.1873627;-;-;-;-;-;-;-;-;-;-;-;-;-;-;-
1512472174645;-;-;5.485611;-2.0265045;2.548111;-;-;-;-;-;-;-;-;-;-;-;-;-;-;-
1512472174665;-;-;6.2589264;-2.736374;1.967514;-;-;-;-;-;-;-;-;-;-;-;-;-;-;-
1512472174686;-;-;7.193863;-3.526474;3.0712433;-;-;-;-;-;-;-;-;-;-;-;-;-;-;-
1512472174706;-;-;8.291611;-3.5695648;4.516144;-;-;-;-;-;-;-;-;-;-;-;-;-;-;-
1512472174726;-;-;9.497086;-1.6027222;6.8780212;-;-;-;-;-;-;-;-;-;-;-;-;-;-;-
1512472174747;-;-;10.811508;-1.1562042;4.1270905;-;-;-;-;-;-;-;-;-;-;-;-;-;-;-
1512472174768;-;-;11.478287;-5.5052795;-2.1337433;-;-;-;-;-;-;-;-;-;-;-;-;-;-;-
1512472174788;-;-;10.442795;-5.047989;-3.9102478;-;-;-;-;-;-;-;-;-;-;-;-;-;-;-
1512472174809;-;-;8.021072;-3.1721191;-2.282196;-;-;-;-;-;-;-;-;-;-;-;-;-;-;-
1512472174828;-;-;14.611099;2.6817017;-3.784546;-;-;-;-;-;-;-;-;-;-;-;-;-;-;-
1512472174849;-;-;26.389374;4.9190826;1.2492523;-;-;-;-;-;-;-;-;-;-;-;-;-;-;-
1512472174869;-;-;30.25122;4.662903;-1.6944122;-;-;-;-;-;-;-;-;-;-;-;-;-;-;-
1512472174890;-;-;21.328033;2.569168;1.0768738;-;-;-;-;-;-;-;-;-;-;-;-;-;-;-
1512472174910;-;-;13.15303;-2.5783691;0.97631836;-;-;-;-;-;-;-;-;-;-;-;-;-;-;-
1512472174931;-;-;7.463211;-3.6713104;-1.0539703;-;-;-;-;-;-;-;-;-;-;-;-;-;-;-
1512472174950;-;-;5.2749176;-2.6071014;-0.3548584;-;-;-;-;-;-;-;-;-;-;-;-;-;-;-
1512472174970;-;-;3.1704102;-0.6977234;-0.13339233;-;-;-;-;-;-;-;-;-;-;-;-;-;-;-
1512472174991;-;-;4.588974;0.6131134;1.2959442;-;-;-;-;-;-;-;-;-;-;-;-;-;-;-
1512472175010;-;-;6.2481537;0.9459076;2.8821106;-;-;-;-;-;-;-;-;-;-;-;-;-;-;-
1512472175031;-;-;9.534195;0.09954834;3.6817627;-;-;-;-;-;-;-;-;-;-;-;-;-;-;-
1512472175050;-;-;8.32753;-2.2479706;3.6171265;-;-;-;-;-;-;-;-;-;-;-;-;-;-;-
1512472175071;-;-;5.7489624;-3.1421967;2.7288818;-;-;-;-;-;-;-;-;-;-;-;-;-;-;-
1512472175091;-;-;5.723831;-2.0205078;2.0477295;-;-;-;-;-;-;-;-;-;-;-;-;-;-;-
1512472175112;-;-;6.5821533;-0.7922821;2.1913757;-;-;-;-;-;-;-;-;-;-;-;-;-;-;-
1512472175132;-;-;6.561798;-0.43196106;0.80633545;-;-;-;-;-;-;-;-;-;-;-;-;-;-;-
1512472175152;-;-;8.161133;-0.70370483;-1.0048828;-;-;-;-;-;-;-;-;-;-;-;-;-;-;-
1512472175173;-;-;7.403366;-0.088394165;-0.4745636;-;-;-;-;-;-;-;-;-;-;-;-;-;-;-
1512472175194;-;-;10.387741;2.3764343;1.8178864;-;-;-;-;-;-;-;-;-;-;-;-;-;-;-
1512472175213;-;-;11.993042;4.664093;1.3558044;-;-;-;-;-;-;-;-;-;-;-;-;-;-;-
1512472175234;-;-;10.835449;5.680435;3.0485077;-;-;-;-;-;-;-;-;-;-;-;-;-;-;-
1512472175253;-;-;12.2204895;4.482132;1.9495697;-;-;-;-;-;-;-;-;-;-;-;-;-;-;-
1512472175273;-;-;19.994461;2.3345337;-0.2004242;-;-;-;-;-;-;-;-;-;-;-;-;-;-;-
1512472175295;-;-;17.703217;-0.957489;-4.251419;-;-;-;-;-;-;-;-;-;-;-;-;-;-;-
1512472175315;-;-;10.239288;-3.2511292;1.1846161;-;-;-;-;-;-;-;-;-;-;-;-;-;-;-
1512472175335;-;-;6.6108856;-5.510071;-2.9765015;-;-;-;-;-;-;-;-;-;-;-;-;-;-;-
1512472175355;-;-;6.375046;-6.460556;-1.0683289;-;-;-;-;-;-;-;-;-;-;-;-;-;-;-
1512472175377;-;-;6.9664154;-4.503296;1.4443817;-;-;-;-;-;-;-;-;-;-;-;-;-;-;-
1512472175396;-;-;9.182251;-2.4658356;-0.52723694;-;-;-;-;-;-;-;-;-;-;-;-;-;-;-
1512472175416;-;-;10.93721;-1.1095276;-0.032836914;-;-;-;-;-;-;-;-;-;-;-;-;-;-;-
1512472175437;-;-;10.341049;-0.4846344;0.38015747;-;-;-;-;-;-;-;-;-;-;-;-;-;-;-
1512472175457;-;-;8.266464;-0.02494812;0.15151978;-;-;-;-;-;-;-;-;-;-;-;-;-;-;-
1512472175477;-;-;6.86467;-0.90122986;-0.6182251;-;-;-;-;-;-;-;-;-;-;-;-;-;-;-
1512472175498;-;-;7.02388;-1.4351349;0.30116272;-;-;-;-;-;-;-;-;-;-;-;-;-;-;-
1512472175518;-;-;6.443283;-1.7715149;1.1941986;-;-;-;-;-;-;-;-;-;-;-;-;-;-;-
1512472175538;-;-;6.339142;-2.5328674;0.93562317;-;-;-;-;-;-;-;-;-;-;-;-;-;-;-
1512472175559;-;-;6.6372223;-2.7687073;0.36819458;-;-;-;-;-;-;-;-;-;-;-;-;-;-;-
1512472175578;-;-;7.8750153;-2.456253;0.5369873;-;-;-;-;-;-;-;-;-;-;-;-;-;-;-
1512472175603;-;-;9.303162;-1.2112732;1.3234863;-;-;-;-;-;-;-;-;-;-;-;-;-;-;-
1512472175623;-;-;9.95079;-0.81503296;1.7340851;-;-;-;-;-;-;-;-;-;-;-;-;-;-;-
1512472175644;-;-;9.692215;-1.506958;1.9160461;-;-;-;-;-;-;-;-;-;-;-;-;-;-;-
1512472175664;-;-;9.007477;-3.0895233;1.4814911;-;-;-;-;-;-;-;-;-;-;-;-;-;-;-
1512472175685;-;-;8.97995;-4.5284424;0.30474854;-;-;-;-;-;-;-;-;-;-;-;-;-;-;-
1512472175705;-;-;9.169083;-3.9310913;0.38015747;-;-;-;-;-;-;-;-;-;-;-;-;-;-;-
1512472175724;-;-;10.121979;-1.6158905;1.0254059;-;-;-;-;-;-;-;-;-;-;-;-;-;-;-
1512472175744;-;-;11.461533;2.229187;2.8856964;-;-;-;-;-;-;-;-;-;-;-;-;-;-;-
1512472175765;-;-;10.991074;0.71006775;1.8142853;-;-;-;-;-;-;-;-;-;-;-;-;-;-;-
1512472175785;-;-;8.910507;-3.495346;2.1554718;-;-;-;-;-;-;-;-;-;-;-;-;-;-;-
1512472175806;-;-;7.5446167;-7.934189;1.0625153;-;-;-;-;-;-;-;-;-;-;-;-;-;-;-
1512472175826;-;-;11.870941;-8.725479;1.820282;-;-;-;-;-;-;-;-;-;-;-;-;-;-;-
1512472175846;-;-;12.925583;-4.257889;0.5489502;-;-;-;-;-;-;-;-;-;-;-;-;-;-;-
1512472175868;-;-;11.101212;-3.297821;-2.0559387;-;-;-;-;-;-;-;-;-;-;-;-;-;-;-
1512472175888;-;-;10.951569;-1.3106384;-1.8596191;-;-;-;-;-;-;-;-;-;-;-;-;-;-;-
1512472175909;-;-;10.744476;0.19412231;-3.409851;-;-;-;-;-;-;-;-;-;-;-;-;-;-;-
1512472175930;-;-;9.774811;1.9885712;-3.7342682;-;-;-;-;-;-;-;-;-;-;-;-;-;-;-
1512472175950;-;-;7.4177246;2.332138;0.9320221;-;-;-;-;-;-;-;-;-;-;-;-;-;-;-
1512472175971;-;-;6.288864;0.75556946;0.48310852;-;-;-;-;-;-;-;-;-;-;-;-;-;-;-
1512472175991;-;-;7.324356;-0.7276459;-0.3261261;-;-;-;-;-;-;-;-;-;-;-;-;-;-;-
1512472176012;-;-;8.668701;-1.7020874;-0.17887878;-;-;-;-;-;-;-;-;-;-;-;-;-;-;-
1512472176034;-;-;10.087265;-2.7627106;0.028213501;-;-;-;-;-;-;-;-;-;-;-;-;-;-;-
1512472176054;-;-;10.14473;-2.4550629;-0.29859924;-;-;-;-;-;-;-;-;-;-;-;-;-;-;-
1512472176075;-;-;11.013824;-1.6326599;-1.6513214;-;-;-;-;-;-;-;-;-;-;-;-;-;-;-
1512472176097;-;-;9.677856;-0.33380127;-1.4382324;-;-;-;-;-;-;-;-;-;-;-;-;-;-;-
1512472176117;-;-;8.66391;0.1953125;-0.81095886;-;-;-;-;-;-;-;-;-;-;-;-;-;-;-
1512472176138;-;-;7.633209;0.9183655;-0.3943634;-;-;-;-;-;-;-;-;-;-;-;-;-;-;-
1512472176158;-;-;7.414139;1.279892;0.40888977;-;-;-;-;-;-;-;-;-;-;-;-;-;-;-
1512472176179;-;-;7.727768;0.9925842;1.3234863;-;-;-;-;-;-;-;-;-;-;-;-;-;-;-
1512472176199;-;-;8.01268;0.09715271;1.5222015;-;-;-;-;-;-;-;-;-;-;-;-;-;-;-
1512472176220;-;-;8.503494;-0.64863586;1.0780792;-;-;-;-;-;-;-;-;-;-;-;-;-;-;-
1512472176240;-;-;8.341888;-0.6713867;1.4060822;-;-;-;-;-;-;-;-;-;-;-;-;-;-;-
1512472176261;-;-;7.581726;-0.040512085;1.7915497;-;-;-;-;-;-;-;-;-;-;-;-;-;-;-
1512472176281;-;-;7.0107117;1.0524445;2.9503326;-;-;-;-;-;-;-;-;-;-;-;-;-;-;-
1512472176301;-;-;7.5158844;1.7168274;2.539734;-;-;-;-;-;-;-;-;-;-;-;-;-;-;-
1512472176322;-;-;9.3546295;3.062378;0.47354126;-;-;-;-;-;-;-;-;-;-;-;-;-;-;-
1512472176342;-;-;9.67067;2.5440369;2.2883453;-;-;-;-;-;-;-;-;-;-;-;-;-;-;-
1512472176363;-;-;10.853409;-0.25239563;0.8542175;-;-;-;-;-;-;-;-;-;-;-;-;-;-;-
1512472176384;-;-;10.983887;-0.28352356;-0.23873901;-;-;-;-;-;-;-;-;-;-;-;-;-;-;-
1512472176404;-;-;10.483505;0.4694519;1.7819672;-;-;-;-;-;-;-;-;-;-;-;-;-;-;-
1512472176425;-;-;7.909729;1.327774;3.208908;-;-;-;-;-;-;-;-;-;-;-;-;-;-;-
1512472176445;-;-;6.8395233;1.734787;3.8493652;-;-;-;-;-;-;-;-;-;-;-;-;-;-;-
1512472176466;-;-;11.841019;-1.1059265;4.1187134;-;-;-;-;-;-;-;-;-;-;-;-;-;-;-
1512472176485;-;-;15.5233;-2.9506683;-3.326065;-;-;-;-;-;-;-;-;-;-;-;-;-;-;-
1512472176505;-;-;14.623077;0.28988647;-5.9213715;-;-;-;-;-;-;-;-;-;-;-;-;-;-;-
1512472176526;-;-;10.724121;0.97702026;-0.86361694;-;-;-;-;-;-;-;-;-;-;-;-;-;-;-
1512472176546;-;-;6.1284485;-2.6238556;1.4216461;-;-;-;-;-;-;-;-;-;-;-;-;-;-;-
1512472176566;-;-;5.489197;-4.4661865;-0.43626404;-;-;-;-;-;-;-;-;-;-;-;-;-;-;-
1512472176587;-;-;7.110077;-3.3876038;-0.03881836;-;-;-;-;-;-;-;-;-;-;-;-;-;-;-
1512472176608;-;-;9.337875;-0.77194214;0.5764923;-;-;-;-;-;-;-;-;-;-;-;-;-;-;-
1512472176628;-;-;11.089233;1.3337555;0.031814575;-;-;-;-;-;-;-;-;-;-;-;-;-;-;-
1512472176649;-;-;12.208527;1.4510803;-1.3951416;-;-;-;-;-;-;-;-;-;-;-;-;-;-;-
1512472176668;-;-;11.818268;0.7519684;-1.8955231;-;-;-;-;-;-;-;-;-;-;-;-;-;-;-
1512472176689;-;-;8.605255;0.08279419;-1.0276337;-;-;-;-;-;-;-;-;-;-;-;-;-;-;-
1512472176709;-;-;6.9352875;-0.23564148;0.14074707;-;-;-;-;-;-;-;-;-;-;-;-;-;-;-
1512472176729;-;-;6.8443146;-1.0101624;1.1846161;-;-;-;-;-;-;-;-;-;-;-;-;-;-;-
1512472176750;-;-;6.592926;-1.6003265;1.5425415;-;-;-;-;-;-;-;-;-;-;-;-;-;-;-
1512472176770;-;-;6.0685883;-1.31781;1.0840607;-;-;-;-;-;-;-;-;-;-;-;-;-;-;-
1512472176790;-;-;6.5318756;-0.8868561;1.1486969;-;-;-;-;-;-;-;-;-;-;-;-;-;-;-
1512472176811;-;-;7.653549;0.1510315;2.1949615;-;-;-;-;-;-;-;-;-;-;-;-;-;-;-
1512472176831;-;-;8.175491;0.6669769;2.5864258;-;-;-;-;-;-;-;-;-;-;-;-;-;-;-
1512472176852;-;-;8.1922455;0.5484619;1.9292145;-;-;-;-;-;-;-;-;-;-;-;-;-;-;-
1512472176872;-;-;7.6308136;-0.31225586;0.26763916;-;-;-;-;-;-;-;-;-;-;-;-;-;-;-
1512472176892;-;-;6.5749664;-1.0245209;-0.5631561;-;-;-;-;-;-;-;-;-;-;-;-;-;-;-
1512472176913;-;-;3.8312073;-1.4171753;0.7357025;-;-;-;-;-;-;-;-;-;-;-;-;-;-;-
1512472176933;-;-;1.8200836;-1.5428772;1.5796661;-;-;-;-;-;-;-;-;-;-;-;-;-;-;-
1512472176953;-;-;1.2885742;-0.6474457;3.5704346;-;-;-;-;-;-;-;-;-;-;-;-;-;-;-
1512472176973;-;-;3.5953827;-1.2603607;0.65190125;-;-;-;-;-;-;-;-;-;-;-;-;-;-;-
1512472176994;-;-;5.138443;-2.8860168;0.050964355;-;-;-;-;-;-;-;-;-;-;-;-;-;-;-
1512472177014;-;-;6.0087433;-4.1417847;-0.5535736;-;-;-;-;-;-;-;-;-;-;-;-;-;-;-
1512472177034;-;-;7.6224365;-3.4031677;-3.136917;-;-;-;-;-;-;-;-;-;-;-;-;-;-;-
1512472177055;-;-;9.63237;0.5065613;-3.8013153;-;-;-;-;-;-;-;-;-;-;-;-;-;-;-
1512472177075;-;-;14.684128;4.530014;-1.6465302;-;-;-;-;-;-;-;-;-;-;-;-;-;-;-
1512472177096;-;-;20.614563;4.8712006;0.08088684;-;-;-;-;-;-;-;-;-;-;-;-;-;-;-
1512472177116;-;-;27.715775;5.233917;0.32629395;-;-;-;-;-;-;-;-;-;-;-;-;-;-;-
1512472177136;-;-;21.937363;3.4634094;2.1865845;-;-;-;-;-;-;-;-;-;-;-;-;-;-;-
1512472177156;-;-;12.987839;0.30186462;2.8473816;-;-;-;-;-;-;-;-;-;-;-;-;-;-;-
1512472177177;-;-;9.5354;-1.1262817;2.86055;-;-;-;-;-;-;-;-;-;-;-;-;-;-;-
1512472177197;-;-;8.016281;-1.6937103;1.3091125;-;-;-;-;-;-;-;-;-;-;-;-;-;-;-
1512472177217;-;-;7.099304;0.5269165;2.1590576;-;-;-;-;-;-;-;-;-;-;-;-;-;-;-
1512472177238;-;-;7.628418;2.2543335;2.014206;-;-;-;-;-;-;-;-;-;-;-;-;-;-;-
1512472177259;-;-;6.9508514;3.2156067;2.3290405;-;-;-;-;-;-;-;-;-;-;-;-;-;-;-
1512472177279;-;-;6.2541504;2.6661377;3.7080994;-;-;-;-;-;-;-;-;-;-;-;-;-;-;-
1512472177300;-;-;5.7884674;0.833374;3.5153656;-;-;-;-;-;-;-;-;-;-;-;-;-;-;-
1512472177320;-;-;4.664398;-1.0005798;3.8002777;-;-;-;-;-;-;-;-;-;-;-;-;-;-;-
1512472177340;-;-;3.7258606;-1.7056732;1.7460632;-;-;-;-;-;-;-;-;-;-;-;-;-;-;-
1512472177361;-;-;3.4062347;-1.2843018;1.1151886;-;-;-;-;-;-;-;-;-;-;-;-;-;-;-
1512472177381;-;-;3.9377594;-0.38887024;1.3043213;-;-;-;-;-;-;-;-;-;-;-;-;-;-;-
1512472177402;-;-;3.4134216;-0.18415833;1.5162201;-;-;-;-;-;-;-;-;-;-;-;-;-;-;-
1512472177422;-;-;5.165985;-0.31105042;0.8913269;-;-;-;-;-;-;-;-;-;-;-;-;-;-;-
1512472177442;-;-;6.522293;0.8130188;-0.7953949;-;-;-;-;-;-;-;-;-;-;-;-;-;-;-
1512472177462;-;-;8.16951;1.8030243;-3.1500854;-;-;-;-;-;-;-;-;-;-;-;-;-;-;-
1512472177483;-;-;8.326324;1.6773376;-2.4569702;-;-;-;-;-;-;-;-;-;-;-;-;-;-;-
1512472177504;-;-;8.782425;0.14863586;-1.7183533;-;-;-;-;-;-;-;-;-;-;-;-;-;-;-
1512472177524;-;-;14.594345;-0.9060211;0.04258728;-;-;-;-;-;-;-;-;-;-;-;-;-;-;-
1512472177545;-;-;31.229263;-1.1346588;3.5261383;-;-;-;-;-;-;-;-;-;-;-;-;-;-;-
1512472177564;-;-;30.908432;-3.028473;-0.06636047;-;-;-;-;-;-;-;-;-;-;-;-;-;-;-
1512472177585;-;-;16.117065;-3.6126556;-1.8643951;-;-;-;-;-;-;-;-;-;-;-;-;-;-;-
1512472177605;-;-;7.5961;-3.0069275;2.8677368;-;-;-;-;-;-;-;-;-;-;-;-;-;-;-
1512472177626;-;-;3.4876404;-0.5600586;4.687332;-;-;-;-;-;-;-;-;-;-;-;-;-;-;-
1512472177646;-;-;3.6648102;0.38206482;5.065613;-;-;-;-;-;-;-;-;-;-;-;-;-;-;-
1512472177667;-;-;4.355545;0.15940857;3.3417969;-;-;-;-;-;-;-;-;-;-;-;-;-;-;-
1512472177687;-;-;5.0307007;-0.66659546;1.4204407;-;-;-;-;-;-;-;-;-;-;-;-;-;-;-
1512472177708;-;-;5.5394745;-0.80545044;2.1746216;-;-;-;-;-;-;-;-;-;-;-;-;-;-;-
1512472177727;-;-;5.940506;-0.46188354;2.0213928;-;-;-;-;-;-;-;-;-;-;-;-;-;-;-
1512472177747;-;-;6.098526;0.19293213;1.7747803;-;-;-;-;-;-;-;-;-;-;-;-;-;-;-
1512472177768;-;-;5.904587;0.62628174;2.7743683;-;-;-;-;-;-;-;-;-;-;-;-;-;-;-
1512472177788;-;-;6.1368256;0.9961853;2.299118;-;-;-;-;-;-;-;-;-;-;-;-;-;-;-
1512472177809;-;-;6.070984;0.6562042;-0.511673;-;-;-;-;-;-;-;-;-;-;-;-;-;-;-
1512472177830;-;-;5.8806458;-0.84017944;-1.6441345;-;-;-;-;-;-;-;-;-;-;-;-;-;-;-
1512472177850;-;-;5.347946;-2.834549;-4.3567657;-;-;-;-;-;-;-;-;-;-;-;-;-;-;-
1512472177870;-;-;4.3303986;-2.2671204;-2.9824982;-;-;-;-;-;-;-;-;-;-;-;-;-;-;-
1512472177891;-;-;4.323227;-0.89164734;0.33706665;-;-;-;-;-;-;-;-;-;-;-;-;-;-;-
1512472177911;-;-;9.001495;0.07321167;6.212433;-;-;-;-;-;-;-;-;-;-;-;-;-;-;-
1512472177932;-;-;17.467392;-0.074035645;1.0122375;-;-;-;-;-;-;-;-;-;-;-;-;-;-;-
1512472177952;-;-;21.002426;4.210388;-3.2087402;-;-;-;-;-;-;-;-;-;-;-;-;-;-;-
1512472177973;-;-;19.806519;4.208008;-0.94262695;-;-;-;-;-;-;-;-;-;-;-;-;-;-;-
1512472177993;-;-;17.685257;3.9302673;3.3992462;-;-;-;-;-;-;-;-;-;-;-;-;-;-;-
1512472178013;-;-;13.182968;2.5859222;4.884857;-;-;-;-;-;-;-;-;-;-;-;-;-;-;-
1512472178034;-;-;10.4487915;1.0739899;5.1314545;-;-;-;-;-;-;-;-;-;-;-;-;-;-;-
1512472178055;-;-;7.6739044;0.56521606;4.959076;-;-;-;-;-;-;-;-;-;-;-;-;-;-;-
1512472178076;-;-;4.2501984;0.50416565;4.656204;-;-;-;-;-;-;-;-;-;-;-;-;-;-;-
1512472178096;-;-;1.3544159;-0.26437378;4.4993896;-;-;-;-;-;-;-;-;-;-;-;-;-;-;-
1512472178116;-;-;0.7391052;-2.7495422;3.7990875;-;-;-;-;-;-;-;-;-;-;-;-;-;-;-
1512472178137;-;-;1.7769928;-4.2495117;1.5724792;-;-;-;-;-;-;-;-;-;-;-;-;-;-;-
1512472178157;-;-;2.8088837;-3.1649475;-0.31295776;-;-;-;-;-;-;-;-;-;-;-;-;-;-;-
1512472178178;-;-;4.508774;-2.2407837;-1.0443878;-;-;-;-;-;-;-;-;-;-;-;-;-;-;-
1512472178198;-;-;7.497925;-0.5456848;-5.1576233;-;-;-;-;-;-;-;-;-;-;-;-;-;-;-
1512472178219;-;-;6.9340973;1.106308;-5.3647156;-;-;-;-;-;-;-;-;-;-;-;-;-;-;-
1512472178240;-;-;12.147476;2.4781952;-2.8963013;-;-;-;-;-;-;-;-;-;-;-;-;-;-;-
1512472178260;-;-;19.874756;2.4805908;-3.1141663;-;-;-;-;-;-;-;-;-;-;-;-;-;-;-
1512472178281;-;-;23.558243;2.196869;5.5983276;-;-;-;-;-;-;-;-;-;-;-;-;-;-;-
1512472178301;-;-;27.335083;-0.35295105;2.675003;-;-;-;-;-;-;-;-;-;-;-;-;-;-;-
1512472178321;-;-;19.290573;-3.5635834;-3.1584625;-;-;-;-;-;-;-;-;-;-;-;-;-;-;-
1512472178342;-;-;10.902481;-4.431473;2.8150635;-;-;-;-;-;-;-;-;-;-;-;-;-;-;-
1512472178362;-;-;6.715027;-4.2950134;2.8294373;-;-;-;-;-;-;-;-;-;-;-;-;-;-;-
1512472178383;-;-;3.5115814;0.21447754;3.9104156;-;-;-;-;-;-;-;-;-;-;-;-;-;-;-
1512472178403;-;-;2.4665222;0.7005005;4.240814;-;-;-;-;-;-;-;-;-;-;-;-;-;-;-
1512472178424;-;-;1.8524017;-0.53730774;2.3805237;-;-;-;-;-;-;-;-;-;-;-;-;-;-;-
1512472178444;-;-;3.2865295;-1.8457336;1.6012115;-;-;-;-;-;-;-;-;-;-;-;-;-;-;-
1512472178465;-;-;4.995987;-1.2136688;2.8533783;-;-;-;-;-;-;-;-;-;-;-;-;-;-;-
1512472178485;-;-;6.3451233;0.6442261;1.6538849;-;-;-;-;-;-;-;-;-;-;-;-;-;-;-
1512472178505;-;-;7.0681763;1.734787;0.23171997;-;-;-;-;-;-;-;-;-;-;-;-;-;-;-
1512472178526;-;-;7.987549;1.4833984;-0.37042236;-;-;-;-;-;-;-;-;-;-;-;-;-;-;-
1512472178546;-;-;7.6188354;0.6573944;-0.6984253;-;-;-;-;-;-;-;-;-;-;-;-;-;-;-
1512472178567;-;-;7.3614655;-1.8373566;-2.1744537;-;-;-;-;-;-;-;-;-;-;-;-;-;-;-
1512472178586;-;-;4.9313507;-2.30542;-3.8539886;-;-;-;-;-;-;-;-;-;-;-;-;-;-;-
1512472178606;-;-;2.9537354;-1.1250763;-2.172058;-;-;-;-;-;-;-;-;-;-;-;-;-;-;-
1512472178627;-;-;5.1552124;-0.42837524;3.8960419;-;-;-;-;-;-;-;-;-;-;-;-;-;-;-
1512472178646;-;-;11.5082245;-1.7583466;4.627472;-;-;-;-;-;-;-;-;-;-;-;-;-;-;-
1512472178666;-;-;20.636108;-1.1394501;1.2624207;-;-;-;-;-;-;-;-;-;-;-;-;-;-;-
1512472178687;-;-;20.80371;4.128998;-4.2693787;-;-;-;-;-;-;-;-;-;-;-;-;-;-;-
1512472178707;-;-;16.41394;3.6226196;2.556488;-;-;-;-;-;-;-;-;-;-;-;-;-;-;-
1512472178728;-;-;13.521744;3.5148773;4.228836;-;-;-;-;-;-;-;-;-;-;-;-;-;-;-
1512472178748;-;-;11.219711;1.6629639;6.868454;-;-;-;-;-;-;-;-;-;-;-;-;-;-;-
1512472178768;-;-;10.58046;-1.0472717;6.030487;-;-;-;-;-;-;-;-;-;-;-;-;-;-;-
1512472178789;-;-;9.463577;0.008575439;2.6845856;-;-;-;-;-;-;-;-;-;-;-;-;-;-;-
1512472178809;-;-;6.383438;1.9275208;3.0113983;-;-;-;-;-;-;-;-;-;-;-;-;-;-;-
1512472178830;-;-;4.1711884;1.5456543;4.009781;-;-;-;-;-;-;-;-;-;-;-;-;-;-;-
1512472178850;-;-;2.576645;-0.37091064;3.7057037;-;-;-;-;-;-;-;-;-;-;-;-;-;-;-
1512472178871;-;-;2.9202118;-2.087555;3.0772247;-;-;-;-;-;-;-;-;-;-;-;-;-;-;-
1512472178890;-;-;2.9501495;-2.9315033;2.6941528;-;-;-;-;-;-;-;-;-;-;-;-;-;-;-
1512472178910;-;-;6.0853577;-2.7459564;0.99546814;-;-;-;-;-;-;-;-;-;-;-;-;-;-;-
1512472178931;-;-;7.125641;0.05166626;0.24967957;-;-;-;-;-;-;-;-;-;-;-;-;-;-;-
1512472178951;-;-;7.1603546;2.6721191;-0.827713;-;-;-;-;-;-;-;-;-;-;-;-;-;-;-
1512472178972;-;-;9.294785;3.3005981;-3.100998;-;-;-;-;-;-;-;-;-;-;-;-;-;-;-
1512472178992;-;-;9.347458;2.3740387;-5.1157227;-;-;-;-;-;-;-;-;-;-;-;-;-;-;-
1512472179012;-;-;9.760452;0.417984;-2.1696625;-;-;-;-;-;-;-;-;-;-;-;-;-;-;-
1512472179033;-;-;11.059311;-2.487381;1.0110321;-;-;-;-;-;-;-;-;-;-;-;-;-;-;-
1512472179053;-;-;11.999039;-2.7471619;1.6323242;-;-;-;-;-;-;-;-;-;-;-;-;-;-;-
1512472179074;-;-;19.350433;-3.1541748;2.307495;-;-;-;-;-;-;-;-;-;-;-;-;-;-;-
1512472179095;-;-;25.273682;-3.7742615;-0.29260254;-;-;-;-;-;-;-;-;-;-;-;-;-;-;-
1512472179115;-;-;17.760681;-1.8146057;0.9380188;-;-;-;-;-;-;-;-;-;-;-;-;-;-;-
1512472179136;-;-;11.108383;-0.8533478;3.7200775;-;-;-;-;-;-;-;-;-;-;-;-;-;-;-
1512472179156;-;-;6.5989075;-0.4271698;2.141098;-;-;-;-;-;-;-;-;-;-;-;-;-;-;-
1512472179176;-;-;4.9648743;-0.47027588;2.4116364;-;-;-;-;-;-;-;-;-;-;-;-;-;-;-
1512472179197;-;-;3.2996979;-0.933548;1.835846;-;-;-;-;-;-;-;-;-;-;-;-;-;-;-
1512472179218;-;-;2.8639526;-0.52293396;1.9208374;-;-;-;-;-;-;-;-;-;-;-;-;-;-;-
1512472179238;-;-;5.1599884;0.06602478;3.9140015;-;-;-;-;-;-;-;-;-;-;-;-;-;-;-
1512472179259;-;-;7.4835663;-0.05607605;3.224472;-;-;-;-;-;-;-;-;-;-;-;-;-;-;-
1512472179280;-;-;8.58371;-0.40322876;2.4798737;-;-;-;-;-;-;-;-;-;-;-;-;-;-;-
1512472179300;-;-;8.473572;-1.4937897;2.9922333;-;-;-;-;-;-;-;-;-;-;-;-;-;-;-
1512472179320;-;-;7.924103;-1.6925049;2.4714966;-;-;-;-;-;-;-;-;-;-;-;-;-;-;-
1512472179341;-;-;7.4320984;-1.1609955;2.0046234;-;-;-;-;-;-;-;-;-;-;-;-;-;-;-
1512472179362;-;-;6.6036987;-0.7192688;1.1247559;-;-;-;-;-;-;-;-;-;-;-;-;-;-;-
1512472179382;-;-;6.0877533;-1.4590759;0.7728119;-;-;-;-;-;-;-;-;-;-;-;-;-;-;-
1512472179402;-;-;6.280487;-2.5388641;-1.0348053;-;-;-;-;-;-;-;-;-;-;-;-;-;-;-
1512472179423;-;-;4.9098053;-3.5408325;-2.6233673;-;-;-;-;-;-;-;-;-;-;-;-;-;-;-
1512472179444;-;-;5.545456;-1.6697693;-5.223465;-;-;-;-;-;-;-;-;-;-;-;-;-;-;-
1512472179463;-;-;6.7653046;1.6809235;-0.32731628;-;-;-;-;-;-;-;-;-;-;-;-;-;-;-
1512472179484;-;-;11.135925;3.3544617;4.168991;-;-;-;-;-;-;-;-;-;-;-;-;-;-;-
1512472179504;-;-;15.628647;2.940277;0.93562317;-;-;-;-;-;-;-;-;-;-;-;-;-;-;-
1512472179525;-;-;19.729904;2.2806702;-1.085083;-;-;-;-;-;-;-;-;-;-;-;-;-;-;-
1512472179544;-;-;21.782944;2.6374054;0.05455017;-;-;-;-;-;-;-;-;-;-;-;-;-;-;-
1512472179564;-;-;18.323318;1.8832245;2.793518;-;-;-;-;-;-;-;-;-;-;-;-;-;-;-
1512472179585;-;-;12.780731;1.5659943;2.5971985;-;-;-;-;-;-;-;-;-;-;-;-;-;-;-
1512472179605;-;-;9.045776;1.2224274;2.580429;-;-;-;-;-;-;-;-;-;-;-;-;-;-;-
1512472179626;-;-;5.9788055;0.86569214;2.2416534;-;-;-;-;-;-;-;-;-;-;-;-;-;-;-
1512472179645;-;-;4.323227;0.81781006;1.2887573;-;-;-;-;-;-;-;-;-;-;-;-;-;-;-
1512472179666;-;-;3.4469452;0.3569336;0.8769531;-;-;-;-;-;-;-;-;-;-;-;-;-;-;-
1512472179686;-;-;3.0890045;-1.3405609;4.671768;-;-;-;-;-;-;-;-;-;-;-;-;-;-;-
1512472179706;-;-;3.5163727;-1.530899;3.6913452;-;-;-;-;-;-;-;-;-;-;-;-;-;-;-
1512472179727;-;-;5.6268616;-0.05607605;2.429596;-;-;-;-;-;-;-;-;-;-;-;-;-;-;-
1512472179748;-;-;8.513077;1.5791626;2.3948822;-;-;-;-;-;-;-;-;-;-;-;-;-;-;-
1512472179767;-;-;9.653915;1.8209839;3.4148102;-;-;-;-;-;-;-;-;-;-;-;-;-;-;-
1512472179788;-;-;9.391739;1.130249;5.022522;-;-;-;-;-;-;-;-;-;-;-;-;-;-;-
1512472179808;-;-;7.8714294;0.64782715;3.9738617;-;-;-;-;-;-;-;-;-;-;-;-;-;-;-
1512472179829;-;-;5.917755;-0.0010070801;1.8705597;-;-;-;-;-;-;-;-;-;-;-;-;-;-;-
1512472179850;-;-;5.85791;-0.02734375;-1.0096741;-;-;-;-;-;-;-;-;-;-;-;-;-;-;-
1512472179870;-;-;6.5917206;-0.68455505;-3.9329834;-;-;-;-;-;-;-;-;-;-;-;-;-;-;-
1512472179890;-;-;8.155136;-1.5392761;-3.4745026;-;-;-;-;-;-;-;-;-;-;-;-;-;-;-
1512472179911;-;-;11.238876;-1.076004;-2.7299042;-;-;-;-;-;-;-;-;-;-;-;-;-;-;-
1512472179930;-;-;14.53569;-0.20092773;0.7859802;-;-;-;-;-;-;-;-;-;-;-;-;-;-;-
1512472179951;-;-;19.767014;0.15342712;4.552063;-;-;-;-;-;-;-;-;-;-;-;-;-;-;-
1512472179972;-;-;22.662811;-2.6023102;0.90808105;-;-;-;-;-;-;-;-;-;-;-;-;-;-;-
1512472179992;-;-;15.773483;-4.0543823;-0.8205261;-;-;-;-;-;-;-;-;-;-;-;-;-;-;-
1512472180012;-;-;10.432022;-2.2635193;4.457489;-;-;-;-;-;-;-;-;-;-;-;-;-;-;-
1512472180033;-;-;8.201828;-1.3740845;4.3485565;-;-;-;-;-;-;-;-;-;-;-;-;-;-;-
1512472180053;-;-;7.9600067;-1.5632172;3.797882;-;-;-;-;-;-;-;-;-;-;-;-;-;-;-
1512472180073;-;-;6.790451;-1.7978516;2.4068604;-;-;-;-;-;-;-;-;-;-;-;-;-;-;-
1512472180093;-;-;5.3886414;-1.2208557;1.6299438;-;-;-;-;-;-;-;-;-;-;-;-;-;-;-
1512472180114;-;-;4.6057434;-1.3716888;2.6103668;-;-;-;-;-;-;-;-;-;-;-;-;-;-;-
1512472180134;-;-;5.162384;-0.7875061;2.836609;-;-;-;-;-;-;-;-;-;-;-;-;-;-;-
1512472180155;-;-;5.295273;-0.40083313;2.4427643;-;-;-;-;-;-;-;-;-;-;-;-;-;-;-
1512472180174;-;-;6.1200714;-0.8126373;2.1542664;-;-;-;-;-;-;-;-;-;-;-;-;-;-;-
1512472180195;-;-;6.7928467;-1.3752747;2.3948822;-;-;-;-;-;-;-;-;-;-;-;-;-;-;-
1512472180215;-;-;6.8479004;-2.4945679;2.900055;-;-;-;-;-;-;-;-;-;-;-;-;-;-;-
1512472180236;-;-;6.712631;-3.2870483;2.871338;-;-;-;-;-;-;-;-;-;-;-;-;-;-;-
1512472180256;-;-;6.5282745;-3.6425934;3.9032288;-;-;-;-;-;-;-;-;-;-;-;-;-;-;-
1512472180277;-;-;7.0693665;-3.399582;3.8972473;-;-;-;-;-;-;-;-;-;-;-;-;-;-;-
1512472180297;-;-;7.312378;-3.052414;4.789093;-;-;-;-;-;-;-;-;-;-;-;-;-;-;-
1512472180318;-;-;8.395752;-3.7874298;5.2068787;-;-;-;-;-;-;-;-;-;-;-;-;-;-;-
1512472180338;-;-;9.756866;-4.609848;3.6889496;-;-;-;-;-;-;-;-;-;-;-;-;-;-;-
1512472180358;-;-;7.6272125;-5.138962;0.7716217;-;-;-;-;-;-;-;-;-;-;-;-;-;-;-
1512472180379;-;-;7.062195;-3.6689148;-3.2099457;-;-;-;-;-;-;-;-;-;-;-;-;-;-;-
1512472180400;-;-;10.743271;1.8580933;-4.9445343;-;-;-;-;-;-;-;-;-;-;-;-;-;-;-
1512472180420;-;-;12.333023;6.0730896;-4.8272247;-;-;-;-;-;-;-;-;-;-;-;-;-;-;-
1512472180440;-;-;15.99855;7.067871;1.3055267;-;-;-;-;-;-;-;-;-;-;-;-;-;-;-
1512472180461;-;-;20.213531;3.3640442;-0.123809814;-;-;-;-;-;-;-;-;-;-;-;-;-;-;-
1512472180481;-;-;19.401901;-0.7515869;-2.859192;-;-;-;-;-;-;-;-;-;-;-;-;-;-;-
1512472180501;-;-;15.310211;-2.0229034;0.4388275;-;-;-;-;-;-;-;-;-;-;-;-;-;-;-
1512472180522;-;-;13.757568;-1.7236328;1.9914551;-;-;-;-;-;-;-;-;-;-;-;-;-;-;-
1512472180542;-;-;11.593216;-0.89404297;1.0397644;-;-;-;-;-;-;-;-;-;-;-;-;-;-;-
1512472180562;-;-;8.294006;-0.095581055;-0.20281982;-;-;-;-;-;-;-;-;-;-;-;-;-;-;-
1512472180583;-;-;6.746155;-0.1302948;0.8147125;-;-;-;-;-;-;-;-;-;-;-;-;-;-;-
1512472180603;-;-;7.51709;-0.46548462;2.1782074;-;-;-;-;-;-;-;-;-;-;-;-;-;-;-
1512472180624;-;-;9.482727;-1.4722443;3.8649292;-;-;-;-;-;-;-;-;-;-;-;-;-;-;-
1512472180645;-;-;9.637146;-1.819397;2.7683868;-;-;-;-;-;-;-;-;-;-;-;-;-;-;-
1512472180665;-;-;8.74292;-1.2280273;2.28714;-;-;-;-;-;-;-;-;-;-;-;-;-;-;-
1512472180685;-;-;8.114441;-1.2723236;2.3242493;-;-;-;-;-;-;-;-;-;-;-;-;-;-;-
1512472180705;-;-;6.7880554;-1.6063232;3.358551;-;-;-;-;-;-;-;-;-;-;-;-;-;-;-
1512472180726;-;-;5.3216095;-0.6917267;3.1191254;-;-;-;-;-;-;-;-;-;-;-;-;-;-;-
1512472180746;-;-;5.059433;0.1845398;2.635498;-;-;-;-;-;-;-;-;-;-;-;-;-;-;-
1512472180767;-;-;6.1356354;0.086380005;-0.49971008;-;-;-;-;-;-;-;-;-;-;-;-;-;-;-
1512472180787;-;-;6.3427277;1.3469238;0.43164063;-;-;-;-;-;-;-;-;-;-;-;-;-;-;-
1512472180808;-;-;9.110428;2.3297424;0.4986725;-;-;-;-;-;-;-;-;-;-;-;-;-;-;-
1512472180828;-;-;14.194519;4.623398;0.66148376;-;-;-;-;-;-;-;-;-;-;-;-;-;-;-
1512472180849;-;-;22.021164;2.6936646;-2.460556;-;-;-;-;-;-;-;-;-;-;-;-;-;-;-
1512472180868;-;-;16.37085;-1.827774;-3.4194336;-;-;-;-;-;-;-;-;-;-;-;-;-;-;-
1512472180888;-;-;11.694962;-4.901932;0.3418579;-;-;-;-;-;-;-;-;-;-;-;-;-;-;-
1512472180909;-;-;7.3494873;-6.4617615;-1.3496399;-;-;-;-;-;-;-;-;-;-;-;-;-;-;-
1512472180930;-;-;5.5191193;-5.6285706;-1.274231;-;-;-;-;-;-;-;-;-;-;-;-;-;-;-
1512472180950;-;-;5.5634155;-2.044464;-0.50927734;-;-;-;-;-;-;-;-;-;-;-;-;-;-;-
1512472180970;-;-;8.815933;0.63105774;-0.6732788;-;-;-;-;-;-;-;-;-;-;-;-;-;-;-
1512472180991;-;-;10.06572;1.5037537;-0.7666626;-;-;-;-;-;-;-;-;-;-;-;-;-;-;-
1512472181011;-;-;10.137543;2.0544128;-0.19444275;-;-;-;-;-;-;-;-;-;-;-;-;-;-;-
1512472181031;-;-;9.5354;0.35572815;1.4048767;-;-;-;-;-;-;-;-;-;-;-;-;-;-;-
1512472181052;-;-;8.572922;-2.7543335;0.9499817;-;-;-;-;-;-;-;-;-;-;-;-;-;-;-
1512472181071;-;-;8.07254;-3.155365;-0.38598633;-;-;-;-;-;-;-;-;-;-;-;-;-;-;-
1512472181092;-;-;7.256119;-3.3421173;0.27720642;-;-;-;-;-;-;-;-;-;-;-;-;-;-;-
1512472181112;-;-;6.588135;-2.9626312;1.1307526;-;-;-;-;-;-;-;-;-;-;-;-;-;-;-
1512472181133;-;-;7.4416656;-2.5005493;1.3234863;-;-;-;-;-;-;-;-;-;-;-;-;-;-;-
1512472181153;-;-;7.7421417;-1.1394501;0.7428894;-;-;-;-;-;-;-;-;-;-;-;-;-;-;-
1512472181173;-;-;7.43927;-0.4271698;1.0780792;-;-;-;-;-;-;-;-;-;-;-;-;-;-;-
1512472181195;-;-;7.040634;-0.1697998;1.4479828;-;-;-;-;-;-;-;-;-;-;-;-;-;-;-
1512472181215;-;-;6.659958;-0.5959625;1.2696075;-;-;-;-;-;-;-;-;-;-;-;-;-;-;-
1512472181234;-;-;7.3063965;-1.4578705;1.0768738;-;-;-;-;-;-;-;-;-;-;-;-;-;-;-
1512472181254;-;-;9.056564;-2.151001;1.5030518;-;-;-;-;-;-;-;-;-;-;-;-;-;-;-
1512472181274;-;-;11.164658;-1.8804474;1.9495697;-;-;-;-;-;-;-;-;-;-;-;-;-;-;-
1512472181295;-;-;13.247604;-0.3757019;2.6378937;-;-;-;-;-;-;-;-;-;-;-;-;-;-;-
1512472181315;-;-;12.105576;0.9650574;2.2225037;-;-;-;-;-;-;-;-;-;-;-;-;-;-;-
1512472181336;-;-;9.65152;-0.680954;-0.2794342;-;-;-;-;-;-;-;-;-;-;-;-;-;-;-
1512472181356;-;-;11.0820465;-2.4646454;-2.5922394;-;-;-;-;-;-;-;-;-;-;-;-;-;-;-
1512472181377;-;-;13.782715;-4.6864624;-4.179596;-;-;-;-;-;-;-;-;-;-;-;-;-;-;-
1512472181398;-;-;11.598007;-1.8792572;-4.990036;-;-;-;-;-;-;-;-;-;-;-;-;-;-;-
1512472181418;-;-;9.422867;0.062438965;-1.768631;-;-;-;-;-;-;-;-;-;-;-;-;-;-;-
1512472181438;-;-;10.20578;-0.8198242;0.5178375;-;-;-;-;-;-;-;-;-;-;-;-;-;-;-
1512472181459;-;-;11.486679;-1.661377;0.7967529;-;-;-;-;-;-;-;-;-;-;-;-;-;-;-
1512472181479;-;-;10.903687;-1.4387207;0.47473145;-;-;-;-;-;-;-;-;-;-;-;-;-;-;-
1512472181501;-;-;9.311539;-1.1621857;-0.03642273;-;-;-;-;-;-;-;-;-;-;-;-;-;-;-
1512472181521;-;-;9.094864;-0.7276459;-0.76426697;-;-;-;-;-;-;-;-;-;-;-;-;-;-;-
1512472181541;-;-;8.838684;-0.4882202;-1.3963318;-;-;-;-;-;-;-;-;-;-;-;-;-;-;-
1512472181562;-;-;7.7337646;-0.36253357;-0.7163849;-;-;-;-;-;-;-;-;-;-;-;-;-;-;-
1512472181582;-;-;7.355484;-0.24281311;-0.07952881;-;-;-;-;-;-;-;-;-;-;-;-;-;-;-
1512472181603;-;-;7.375824;0.0756073;-0.080718994;-;-;-;-;-;-;-;-;-;-;-;-;-;-;-
1512472181624;-;-;7.070572;0.8585205;-0.13339233;-;-;-;-;-;-;-;-;-;-;-;-;-;-;-
1512472181644;-;-;8.034241;1.1589813;0.20298767;-;-;-;-;-;-;-;-;-;-;-;-;-;-;-
1512472181664;-;-;7.758896;0.8046417;-0.34648132;-;-;-;-;-;-;-;-;-;-;-;-;-;-;-
1512472181685;-;-;8.043808;-0.016571045;0.5118408;-;-;-;-;-;-;-;-;-;-;-;-;-;-;-
1512472181705;-;-;8.456802;0.22644043;1.3258667;-;-;-;-;-;-;-;-;-;-;-;-;-;-;-
1512472181726;-;-;8.022263;0.85731506;1.4479828;-;-;-;-;-;-;-;-;-;-;-;-;-;-;-
1512472181745;-;-;7.1806946;1.4786072;1.6718292;-;-;-;-;-;-;-;-;-;-;-;-;-;-;-
1512472181766;-;-;7.0059204;1.0081482;1.5006561;-;-;-;-;-;-;-;-;-;-;-;-;-;-;-
1512472181786;-;-;8.3107605;1.200882;-1.7710266;-;-;-;-;-;-;-;-;-;-;-;-;-;-;-
1512472181806;-;-;9.758057;1.8090057;0.53338623;-;-;-;-;-;-;-;-;-;-;-;-;-;-;-
1512472181827;-;-;12.287537;1.3840332;1.0433502;-;-;-;-;-;-;-;-;-;-;-;-;-;-;-
1512472181847;-;-;12.257599;1.8796387;0.41488647;-;-;-;-;-;-;-;-;-;-;-;-;-;-;-
1512472181868;-;-;10.828262;1.7335968;1.928009;-;-;-;-;-;-;-;-;-;-;-;-;-;-;-
1512472181888;-;-;8.32991;0.58677673;3.6219177;-;-;-;-;-;-;-;-;-;-;-;-;-;-;-
1512472181909;-;-;5.8806458;-0.04649353;4.4443207;-;-;-;-;-;-;-;-;-;-;-;-;-;-;-
1512472181930;-;-;9.497086;-0.7886963;3.3477783;-;-;-;-;-;-;-;-;-;-;-;-;-;-;-
1512472181951;-;-;13.815033;-3.5540009;-0.74391174;-;-;-;-;-;-;-;-;-;-;-;-;-;-;-
1512472181971;-;-;14.97023;-2.001358;-5.575409;-;-;-;-;-;-;-;-;-;-;-;-;-;-;-
1512472181991;-;-;10.554138;-1.6889191;-3.5080261;-;-;-;-;-;-;-;-;-;-;-;-;-;-;-
1512472182011;-;-;7.088516;-3.1386108;-2.4006958;-;-;-;-;-;-;-;-;-;-;-;-;-;-;-
1512472182032;-;-;7.0765533;-2.377243;-0.39794922;-;-;-;-;-;-;-;-;-;-;-;-;-;-;-
1512472182053;-;-;8.710602;-0.54927063;-0.23873901;-;-;-;-;-;-;-;-;-;-;-;-;-;-;-
1512472182073;-;-;9.6862335;0.8632965;0.83984375;-;-;-;-;-;-;-;-;-;-;-;-;-;-;-
1512472182094;-;-;10.652298;0.9758301;-0.61701965;-;-;-;-;-;-;-;-;-;-;-;-;-;-;-
1512472182114;-;-;11.502228;0.19293213;-1.7482758;-;-;-;-;-;-;-;-;-;-;-;-;-;-;-
1512472182134;-;-;10.022614;-0.6222992;-1.361618;-;-;-;-;-;-;-;-;-;-;-;-;-;-;-
1512472182155;-;-;8.182678;-0.3864746;-0.50450134;-;-;-;-;-;-;-;-;-;-;-;-;-;-;-
1512472182176;-;-;6.275696;-0.03453064;0.33706665;-;-;-;-;-;-;-;-;-;-;-;-;-;-;-
1512472182196;-;-;5.8411407;-0.8473511;1.6323242;-;-;-;-;-;-;-;-;-;-;-;-;-;-;-
1512472182217;-;-;5.833969;-1.4111938;1.9866791;-;-;-;-;-;-;-;-;-;-;-;-;-;-;-
1512472182237;-;-;5.6184845;-1.7739105;1.5712738;-;-;-;-;-;-;-;-;-;-;-;-;-;-;-
1512472182257;-;-;6.3259735;-1.324997;1.4611511;-;-;-;-;-;-;-;-;-;-;-;-;-;-;-
1512472182278;-;-;6.5558167;-0.36253357;1.6562805;-;-;-;-;-;-;-;-;-;-;-;-;-;-;-
1512472182297;-;-;6.3666687;0.3461609;1.3977051;-;-;-;-;-;-;-;-;-;-;-;-;-;-;-
1512472182318;-;-;6.3511047;1.4091797;1.9878693;-;-;-;-;-;-;-;-;-;-;-;-;-;-;-
1512472182339;-;-;6.5917206;1.7431641;1.4168549;-;-;-;-;-;-;-;-;-;-;-;-;-;-;-
1512472182359;-;-;6.774887;0.43473816;0.28799438;-;-;-;-;-;-;-;-;-;-;-;-;-;-;-
1512472182380;-;-;4.827194;-1.5165405;0.77760315;-;-;-;-;-;-;-;-;-;-;-;-;-;-;-
1512472182400;-;-;3.3404083;-2.3066254;0.508255;-;-;-;-;-;-;-;-;-;-;-;-;-;-;-
1512472182421;-;-;2.5790405;-2.3796387;0.19940186;-;-;-;-;-;-;-;-;-;-;-;-;-;-;-
1512472182441;-;-;3.9964142;-2.795044;0.45558167;-;-;-;-;-;-;-;-;-;-;-;-;-;-;-
1512472182462;-;-;6.3906097;-3.103897;-1.2598572;-;-;-;-;-;-;-;-;-;-;-;-;-;-;-
1512472182482;-;-;10.236893;-1.1526184;-2.898697;-;-;-;-;-;-;-;-;-;-;-;-;-;-;-
1512472182503;-;-;14.459076;1.398407;-3.2733917;-;-;-;-;-;-;-;-;-;-;-;-;-;-;-
1512472182522;-;-;20.56668;3.1557465;-0.96777344;-;-;-;-;-;-;-;-;-;-;-;-;-;-;-
1512472182542;-;-;27.515854;3.5711365;-4.0251617;-;-;-;-;-;-;-;-;-;-;-;-;-;-;-
1512472182563;-;-;25.946457;4.940628;0.6961975;-;-;-;-;-;-;-;-;-;-;-;-;-;-;-
1512472182583;-;-;17.16333;2.4638214;2.5493164;-;-;-;-;-;-;-;-;-;-;-;-;-;-;-
1512472182603;-;-;11.891296;1.4319305;1.9148407;-;-;-;-;-;-;-;-;-;-;-;-;-;-;-
1512472182624;-;-;7.882202;1.5121307;0.56811523;-;-;-;-;-;-;-;-;-;-;-;-;-;-;-
1512472182644;-;-;5.0857697;2.6026917;0.64112854;-;-;-;-;-;-;-;-;-;-;-;-;-;-;-
1512472182664;-;-;4.146057;2.9474487;1.6766205;-;-;-;-;-;-;-;-;-;-;-;-;-;-;-
1512472182684;-;-;3.7222748;2.0065308;2.6570435;-;-;-;-;-;-;-;-;-;-;-;-;-;-;-
1512472182704;-;-;3.876709;1.0452576;3.5369263;-;-;-;-;-;-;-;-;-;-;-;-;-;-;-
1512472182725;-;-;4.2873077;-0.045303345;3.4327698;-;-;-;-;-;-;-;-;-;-;-;-;-;-;-
1512472182746;-;-;4.849945;-1.3944244;2.5612793;-;-;-;-;-;-;-;-;-;-;-;-;-;-;-
1512472182765;-;-;5.4485016;-1.6314545;1.5209961;-;-;-;-;-;-;-;-;-;-;-;-;-;-;-
1512472182786;-;-;5.5358887;-0.7815094;0.760849;-;-;-;-;-;-;-;-;-;-;-;-;-;-;-
1512472182806;-;-;5.576584;-0.46548462;1.4814911;-;-;-;-;-;-;-;-;-;-;-;-;-;-;-
1512472182826;-;-;4.690735;-0.7444;2.3793182;-;-;-;-;-;-;-;-;-;-;-;-;-;-;-
1512472182847;-;-;6.1440125;0.26594543;0.74887085;-;-;-;-;-;-;-;-;-;-;-;-;-;-;-
1512472182867;-;-;6.7377777;1.6785278;-0.7666626;-;-;-;-;-;-;-;-;-;-;-;-;-;-;-
1512472182888;-;-;6.0973206;2.9259033;-1.2395172;-;-;-;-;-;-;-;-;-;-;-;-;-;-;-
1512472182909;-;-;6.5007477;3.9398499;-0.48654175;-;-;-;-;-;-;-;-;-;-;-;-;-;-;-
1512472182930;-;-;7.9157257;3.3101807;-3.152481;-;-;-;-;-;-;-;-;-;-;-;-;-;-;-
1512472182950;-;-;12.329437;0.24081421;-4.7039185;-;-;-;-;-;-;-;-;-;-;-;-;-;-;-
1512472182969;-;-;13.755173;-2.7375793;-2.1074066;-;-;-;-;-;-;-;-;-;-;-;-;-;-;-
1512472182990;-;-;22.83519;-4.206421;5.9335175;-;-;-;-;-;-;-;-;-;-;-;-;-;-;-
1512472183009;-;-;28.100037;-5.4382324;-6.0746;-;-;-;-;-;-;-;-;-;-;-;-;-;-;-
1512472183029;-;-;20.530762;-2.6178741;0.93322754;-;-;-;-;-;-;-;-;-;-;-;-;-;-;-
1512472183050;-;-;12.73764;-0.25837708;1.5006561;-;-;-;-;-;-;-;-;-;-;-;-;-;-;-
1512472183071;-;-;8.684265;0.3102417;2.532547;-;-;-;-;-;-;-;-;-;-;-;-;-;-;-
1512472183090;-;-;8.005508;-2.6801147;3.4148102;-;-;-;-;-;-;-;-;-;-;-;-;-;-;-
1512472183111;-;-;6.13443;-4.448242;1.3366547;-;-;-;-;-;-;-;-;-;-;-;-;-;-;-
1512472183132;-;-;5.750168;-2.850113;0.50227356;-;-;-;-;-;-;-;-;-;-;-;-;-;-;-
1512472183152;-;-;6.446884;-0.8413696;2.560089;-;-;-;-;-;-;-;-;-;-;-;-;-;-;-
1512472183172;-;-;7.949234;-0.3757019;1.701767;-;-;-;-;-;-;-;-;-;-;-;-;-;-;-
1512472183194;-;-;8.181473;-0.34576416;0.8542175;-;-;-;-;-;-;-;-;-;-;-;-;-;-;-
1512472183213;-;-;7.501526;-0.7587738;0.4040985;-;-;-;-;-;-;-;-;-;-;-;-;-;-;-
1512472183234;-;-;6.9233246;-0.7503967;1.0098419;-;-;-;-;-;-;-;-;-;-;-;-;-;-;-
1512472183253;-;-;4.8906403;-0.65701294;1.196579;-;-;-;-;-;-;-;-;-;-;-;-;-;-;-
1512472183273;-;-;3.0171814;-0.29071045;1.4814911;-;-;-;-;-;-;-;-;-;-;-;-;-;-;-
1512472183293;-;-;2.6245422;1.674942;1.6670532;-;-;-;-;-;-;-;-;-;-;-;-;-;-;-
1512472183314;-;-;3.138092;2.8600616;0.78718567;-;-;-;-;-;-;-;-;-;-;-;-;-;-;-
1512472183334;-;-;4.0562744;1.5588226;-0.12860107;-;-;-;-;-;-;-;-;-;-;-;-;-;-;-
1512472183355;-;-;6.7210083;-1.867279;-2.1014252;-;-;-;-;-;-;-;-;-;-;-;-;-;-;-
1512472183376;-;-;4.939728;-3.8915863;-3.3404236;-;-;-;-;-;-;-;-;-;-;-;-;-;-;-
1512472183396;-;-;3.9078217;-3.2128296;-4.0670624;-;-;-;-;-;-;-;-;-;-;-;-;-;-;-
1512472183417;-;-;6.0302887;0.23362732;1.8106995;-;-;-;-;-;-;-;-;-;-;-;-;-;-;-
1512472183437;-;-;9.503082;1.3648834;4.0887756;-;-;-;-;-;-;-;-;-;-;-;-;-;-;-
1512472183458;-;-;17.134598;1.2667236;0.077301025;-;-;-;-;-;-;-;-;-;-;-;-;-;-;-
1512472183479;-;-;28.113205;1.8975983;-2.5802612;-;-;-;-;-;-;-;-;-;-;-;-;-;-;-
