TimeStamp[ms];Prox[Cm];Lux[lux];AccX[m/s^2];AccY[m/s^2];AccZ[m/s^2];GyroX[rad/s];GyroY[rad/s];GyroZ[rad/s];MagnX[uT];MagnY[uT];MagnZ[uT];OrienYaw[degrees];OrienPitch[degrees];OrienRoll[degrees];Press[Pa];Temp[C°];Batt[%];Lat;Lng;Speed[m/s]
1512472231522;-;-;8.876999;-0.9550934;1.294754;-;-;-;-;-;-;-;-;-;-;-;-;-;-;-
1512472231555;-;-;9.001495;-1.0149536;1.1475067;-;-;-;-;-;-;-;-;-;-;-;-;-;-;-
1512472231556;-;-;9.001495;-1.0149536;1.1475067;-;-;-;-;-;-;-;-;-;-;-;-;-;-;-
1512472231577;-;-;9.251678;-1.0448761;1.2193298;-;-;-;-;-;-;-;-;-;-;-;-;-;-;-
1512472231597;-;-;9.215775;-0.8533478;1.212143;-;-;-;-;-;-;-;-;-;-;-;-;-;-;-
1512472231618;-;-;9.068527;-0.7444;1.1810303;-;-;-;-;-;-;-;-;-;-;-;-;-;-;-
1512472231638;-;-;9.056564;-0.9838257;1.2743988;-;-;-;-;-;-;-;-;-;-;-;-;-;-;-
1512472231660;-;-;8.837494;-0.95150757;1.1199646;-;-;-;-;-;-;-;-;-;-;-;-;-;-;-
1512472231679;-;-;9.032608;-0.85095215;1.3821411;-;-;-;-;-;-;-;-;-;-;-;-;-;-;-
1512472231700;-;-;9.359421;-1.6518097;-1.1126251;-;-;-;-;-;-;-;-;-;-;-;-;-;-;-
1512472231721;-;-;9.511459;-0.783905;1.686203;-;-;-;-;-;-;-;-;-;-;-;-;-;-;-
1512472231741;-;-;9.293579;-1.0508575;1.3510132;-;-;-;-;-;-;-;-;-;-;-;-;-;-;-
1512472231762;-;-;9.260071;-1.0688171;1.1810303;-;-;-;-;-;-;-;-;-;-;-;-;-;-;-
1512472231782;-;-;8.386185;-0.86172485;0.25686646;-;-;-;-;-;-;-;-;-;-;-;-;-;-;-
1512472231804;-;-;8.675873;-0.8772888;-0.03642273;-;-;-;-;-;-;-;-;-;-;-;-;-;-;-
1512472231823;-;-;9.309143;-1.234024;2.1554718;-;-;-;-;-;-;-;-;-;-;-;-;-;-;-
1512472231842;-;-;9.207397;-1.1238861;0.9032898;-;-;-;-;-;-;-;-;-;-;-;-;-;-;-
1512472231863;-;-;9.321121;-1.3166199;1.1199646;-;-;-;-;-;-;-;-;-;-;-;-;-;-;-
1512472231882;-;-;8.560959;-1.4087982;0.9463959;-;-;-;-;-;-;-;-;-;-;-;-;-;-;-
1512472231903;-;-;8.745316;-1.3872528;1.45755;-;-;-;-;-;-;-;-;-;-;-;-;-;-;-
1512472231923;-;-;9.214569;-1.1921234;1.2324982;-;-;-;-;-;-;-;-;-;-;-;-;-;-;-
1512472231944;-;-;9.193024;-1.0903625;1.2037659;-;-;-;-;-;-;-;-;-;-;-;-;-;-;-
1512472231964;-;-;9.336685;-1.0724182;1.1391296;-;-;-;-;-;-;-;-;-;-;-;-;-;-;-
1512472231984;-;-;9.313934;-1.2555695;0.8925171;-;-;-;-;-;-;-;-;-;-;-;-;-;-;-
1512472232005;-;-;8.7608795;-0.80545044;1.3270721;-;-;-;-;-;-;-;-;-;-;-;-;-;-;-
1512472232025;-;-;10.2907715;-1.2603607;1.1714478;-;-;-;-;-;-;-;-;-;-;-;-;-;-;-
1512472232046;-;-;8.97995;-1.0269165;0.22215271;-;-;-;-;-;-;-;-;-;-;-;-;-;-;-
1512472232066;-;-;8.815933;-1.3393707;0.8135071;-;-;-;-;-;-;-;-;-;-;-;-;-;-;-
1512472232087;-;-;9.058945;-1.278305;1.1678619;-;-;-;-;-;-;-;-;-;-;-;-;-;-;-
1512472232108;-;-;9.011063;-0.7420044;1.3091125;-;-;-;-;-;-;-;-;-;-;-;-;-;-;-
1512472232128;-;-;8.5082855;-1.0077667;1.6454926;-;-;-;-;-;-;-;-;-;-;-;-;-;-;-
1512472232149;-;-;9.851425;-1.151413;0.8374634;-;-;-;-;-;-;-;-;-;-;-;-;-;-;-
1512472232169;-;-;10.208176;-1.4878082;0.57170105;-;-;-;-;-;-;-;-;-;-;-;-;-;-;-
1512472232190;-;-;9.258865;-0.9981842;5.2487793;-;-;-;-;-;-;-;-;-;-;-;-;-;-;-
1512472232210;-;-;8.334702;-1.6697693;0.6159973;-;-;-;-;-;-;-;-;-;-;-;-;-;-;-
1512472232231;-;-;9.443222;-0.32661438;0.46516418;-;-;-;-;-;-;-;-;-;-;-;-;-;-;-
1512472232251;-;-;7.897766;-0.071640015;-0.1309967;-;-;-;-;-;-;-;-;-;-;-;-;-;-;-
1512472232271;-;-;9.801147;-0.56604004;1.0469513;-;-;-;-;-;-;-;-;-;-;-;-;-;-;-
1512472232292;-;-;10.24408;-1.7260284;-1.2478943;-;-;-;-;-;-;-;-;-;-;-;-;-;-;-
1512472232313;-;-;12.128311;-1.9199524;0.26045227;-;-;-;-;-;-;-;-;-;-;-;-;-;-;-
1512472232334;-;-;8.349075;-0.6510315;0.5549469;-;-;-;-;-;-;-;-;-;-;-;-;-;-;-
1512472232353;-;-;7.763687;-0.4259796;1.6526794;-;-;-;-;-;-;-;-;-;-;-;-;-;-;-
1512472232374;-;-;10.754044;-1.7391968;2.769577;-;-;-;-;-;-;-;-;-;-;-;-;-;-;-
1512472232393;-;-;11.559692;-2.8249664;3.2268677;-;-;-;-;-;-;-;-;-;-;-;-;-;-;-
1512472232413;-;-;6.130844;-0.34217834;-0.8468628;-;-;-;-;-;-;-;-;-;-;-;-;-;-;-
1512472232434;-;-;4.0335236;2.098709;-3.2913513;-;-;-;-;-;-;-;-;-;-;-;-;-;-;-
1512472232454;-;-;7.4727936;1.4965668;-1.3640137;-;-;-;-;-;-;-;-;-;-;-;-;-;-;-
1512472232475;-;-;9.580887;-0.783905;-2.9369965;-;-;-;-;-;-;-;-;-;-;-;-;-;-;-
1512472232496;-;-;12.714905;0.57958984;-3.243454;-;-;-;-;-;-;-;-;-;-;-;-;-;-;-
1512472232516;-;-;10.791153;-0.15782166;-1.7961731;-;-;-;-;-;-;-;-;-;-;-;-;-;-;-
1512472232535;-;-;9.246902;0.23123169;-3.2841644;-;-;-;-;-;-;-;-;-;-;-;-;-;-;-
1512472232556;-;-;8.578918;-0.8198242;1.3953094;-;-;-;-;-;-;-;-;-;-;-;-;-;-;-
1512472232576;-;-;7.205841;-1.1657867;4.56044;-;-;-;-;-;-;-;-;-;-;-;-;-;-;-
1512472232597;-;-;7.987549;-1.0149536;1.9340057;-;-;-;-;-;-;-;-;-;-;-;-;-;-;-
1512472232617;-;-;9.182251;-0.6821594;3.1023712;-;-;-;-;-;-;-;-;-;-;-;-;-;-;-
1512472232638;-;-;8.695038;-1.1526184;1.3198853;-;-;-;-;-;-;-;-;-;-;-;-;-;-;-
1512472232658;-;-;9.990295;-0.21647644;2.065689;-;-;-;-;-;-;-;-;-;-;-;-;-;-;-
1512472232679;-;-;7.802002;-1.234024;2.4128418;-;-;-;-;-;-;-;-;-;-;-;-;-;-;-
1512472232699;-;-;9.579697;-0.3074646;1.5102234;-;-;-;-;-;-;-;-;-;-;-;-;-;-;-
1512472232720;-;-;8.82193;-0.109939575;1.3677673;-;-;-;-;-;-;-;-;-;-;-;-;-;-;-
1512472232741;-;-;9.323517;-0.6941223;1.2049713;-;-;-;-;-;-;-;-;-;-;-;-;-;-;-
1512472232761;-;-;8.514267;-1.111908;2.165039;-;-;-;-;-;-;-;-;-;-;-;-;-;-;-
1512472232782;-;-;9.881363;0.05166626;1.0649109;-;-;-;-;-;-;-;-;-;-;-;-;-;-;-
1512472232802;-;-;9.339081;-1.0783997;1.670639;-;-;-;-;-;-;-;-;-;-;-;-;-;-;-
1512472232823;-;-;8.945221;-0.7551727;1.4060822;-;-;-;-;-;-;-;-;-;-;-;-;-;-;-
1512472232843;-;-;9.179855;-0.88446045;1.6395111;-;-;-;-;-;-;-;-;-;-;-;-;-;-;-
1512472232864;-;-;9.318726;-0.9251709;1.3007355;-;-;-;-;-;-;-;-;-;-;-;-;-;-;-
1512472232885;-;-;9.31752;-0.9371338;1.2779846;-;-;-;-;-;-;-;-;-;-;-;-;-;-;-
1512472232905;-;-;9.2708435;-0.8198242;1.2624207;-;-;-;-;-;-;-;-;-;-;-;-;-;-;-
1512472232925;-;-;9.208588;-0.7216644;1.0361786;-;-;-;-;-;-;-;-;-;-;-;-;-;-;-
1512472232946;-;-;9.37619;-0.51216125;1.1223602;-;-;-;-;-;-;-;-;-;-;-;-;-;-;-
1512472232966;-;-;9.574905;-0.30387878;0.97631836;-;-;-;-;-;-;-;-;-;-;-;-;-;-;-
1512472232987;-;-;9.631165;0.074417114;0.62316895;-;-;-;-;-;-;-;-;-;-;-;-;-;-;-
1512472233008;-;-;9.706589;0.20848083;1.4599457;-;-;-;-;-;-;-;-;-;-;-;-;-;-;-
1512472233028;-;-;9.12001;-0.06803894;1.0900421;-;-;-;-;-;-;-;-;-;-;-;-;-;-;-
1512472233049;-;-;8.623199;-0.49661255;1.0086365;-;-;-;-;-;-;-;-;-;-;-;-;-;-;-
1512472233069;-;-;8.405334;-0.47625732;0.59085083;-;-;-;-;-;-;-;-;-;-;-;-;-;-;-
1512472233090;-;-;8.376602;0.067230225;0.62916565;-;-;-;-;-;-;-;-;-;-;-;-;-;-;-
1512472233109;-;-;8.462799;0.6968994;1.0852509;-;-;-;-;-;-;-;-;-;-;-;-;-;-;-
1512472233130;-;-;8.495117;1.1003265;1.5533295;-;-;-;-;-;-;-;-;-;-;-;-;-;-;-
1512472233150;-;-;8.739319;0.43832397;0.96195984;-;-;-;-;-;-;-;-;-;-;-;-;-;-;-
1512472233171;-;-;7.7816467;-0.13986206;0.44599915;-;-;-;-;-;-;-;-;-;-;-;-;-;-;-
1512472233192;-;-;10.222534;-0.43675232;0.76683044;-;-;-;-;-;-;-;-;-;-;-;-;-;-;-
1512472233212;-;-;9.473145;-0.19374084;0.99069214;-;-;-;-;-;-;-;-;-;-;-;-;-;-;-
1512472233233;-;-;9.288788;0.1558075;0.86499023;-;-;-;-;-;-;-;-;-;-;-;-;-;-;-
1512472233252;-;-;9.181061;0.40960693;0.8829498;-;-;-;-;-;-;-;-;-;-;-;-;-;-;-
1512472233273;-;-;8.44603;0.6143036;0.8614044;-;-;-;-;-;-;-;-;-;-;-;-;-;-;-
1512472233294;-;-;8.396957;0.5257263;1.0397644;-;-;-;-;-;-;-;-;-;-;-;-;-;-;-
1512472233314;-;-;8.182678;0.038497925;1.0014648;-;-;-;-;-;-;-;-;-;-;-;-;-;-;-
1512472233335;-;-;8.368225;-0.24281311;0.38494873;-;-;-;-;-;-;-;-;-;-;-;-;-;-;-
1512472233356;-;-;8.392166;-0.12310791;-0.25549316;-;-;-;-;-;-;-;-;-;-;-;-;-;-;-
1512472233376;-;-;8.707001;0.007369995;-0.33570862;-;-;-;-;-;-;-;-;-;-;-;-;-;-;-
1512472233397;-;-;10.22612;0.028915405;-0.41471863;-;-;-;-;-;-;-;-;-;-;-;-;-;-;-
1512472233417;-;-;12.477875;-0.4152069;-1.4885101;-;-;-;-;-;-;-;-;-;-;-;-;-;-;-
1512472233438;-;-;13.208099;-0.53970337;-2.1828308;-;-;-;-;-;-;-;-;-;-;-;-;-;-;-
1512472233458;-;-;12.012207;-0.8473511;-1.8141174;-;-;-;-;-;-;-;-;-;-;-;-;-;-;-
1512472233478;-;-;9.497086;-2.1186829;0.56451416;-;-;-;-;-;-;-;-;-;-;-;-;-;-;-
1512472233499;-;-;7.818756;-3.6461792;1.8226776;-;-;-;-;-;-;-;-;-;-;-;-;-;-;-
1512472233520;-;-;6.783264;-4.3704224;1.4719238;-;-;-;-;-;-;-;-;-;-;-;-;-;-;-
1512472233540;-;-;7.240555;-4.253113;2.1123657;-;-;-;-;-;-;-;-;-;-;-;-;-;-;-
1512472233561;-;-;7.304001;-2.977005;1.9507599;-;-;-;-;-;-;-;-;-;-;-;-;-;-;-
1512472233580;-;-;9.29837;-3.2846527;2.086029;-;-;-;-;-;-;-;-;-;-;-;-;-;-;-
1512472233600;-;-;10.04776;-3.9765778;1.53656;-;-;-;-;-;-;-;-;-;-;-;-;-;-;-
1512472233620;-;-;10.057327;-3.5911102;0.51423645;-;-;-;-;-;-;-;-;-;-;-;-;-;-;-
1512472233641;-;-;11.284363;-2.5053406;0.74528503;-;-;-;-;-;-;-;-;-;-;-;-;-;-;-
1512472233662;-;-;10.992264;-1.1478271;0.78956604;-;-;-;-;-;-;-;-;-;-;-;-;-;-;-
1512472233682;-;-;10.044159;-0.24641418;0.60762024;-;-;-;-;-;-;-;-;-;-;-;-;-;-;-
1512472233703;-;-;8.416107;-0.53012085;0.5657196;-;-;-;-;-;-;-;-;-;-;-;-;-;-;-
1512472233723;-;-;7.643982;-0.9754486;0.5884552;-;-;-;-;-;-;-;-;-;-;-;-;-;-;-
1512472233743;-;-;7.4129333;-1.1921234;0.9427948;-;-;-;-;-;-;-;-;-;-;-;-;-;-;-
1512472233763;-;-;7.8989563;-1.700882;1.0792694;-;-;-;-;-;-;-;-;-;-;-;-;-;-;-
1512472233784;-;-;8.374207;-1.8732758;0.6650696;-;-;-;-;-;-;-;-;-;-;-;-;-;-;-
1512472233804;-;-;8.917694;-2.250351;0.91526794;-;-;-;-;-;-;-;-;-;-;-;-;-;-;-
1512472233825;-;-;9.114014;-2.581955;0.92604065;-;-;-;-;-;-;-;-;-;-;-;-;-;-;-
1512472233845;-;-;9.37738;-2.9746094;0.83506775;-;-;-;-;-;-;-;-;-;-;-;-;-;-;-
1512472233865;-;-;9.420471;-3.1685333;0.64352417;-;-;-;-;-;-;-;-;-;-;-;-;-;-;-
1512472233886;-;-;9.301956;-3.3002167;0.45916748;-;-;-;-;-;-;-;-;-;-;-;-;-;-;-
1512472233906;-;-;8.984726;-3.392395;0.42326355;-;-;-;-;-;-;-;-;-;-;-;-;-;-;-
1512472233927;-;-;8.531036;-3.2116241;0.60043335;-;-;-;-;-;-;-;-;-;-;-;-;-;-;-
1512472233947;-;-;8.296402;-3.3074036;0.3789673;-;-;-;-;-;-;-;-;-;-;-;-;-;-;-
1512472233968;-;-;8.4448395;-3.325348;0.2843933;-;-;-;-;-;-;-;-;-;-;-;-;-;-;-
1512472233987;-;-;8.540604;-3.0153046;-0.13458252;-;-;-;-;-;-;-;-;-;-;-;-;-;-;-
1512472234008;-;-;8.722565;-2.9207306;-0.38478088;-;-;-;-;-;-;-;-;-;-;-;-;-;-;-
1512472234028;-;-;8.853058;-2.763916;-0.45420837;-;-;-;-;-;-;-;-;-;-;-;-;-;-;-
1512472234049;-;-;8.8003845;-2.9746094;-0.5032959;-;-;-;-;-;-;-;-;-;-;-;-;-;-;-
1512472234069;-;-;8.819534;-3.5061188;-0.24711609;-;-;-;-;-;-;-;-;-;-;-;-;-;-;-
1512472234090;-;-;8.963181;-3.7778625;-0.28182983;-;-;-;-;-;-;-;-;-;-;-;-;-;-;-
1512472234110;-;-;9.122391;-3.570755;-0.2004242;-;-;-;-;-;-;-;-;-;-;-;-;-;-;-
1512472234130;-;-;8.735733;-3.2834625;-0.087905884;-;-;-;-;-;-;-;-;-;-;-;-;-;-;-
1512472234151;-;-;8.080917;-2.5244904;-0.7271576;-;-;-;-;-;-;-;-;-;-;-;-;-;-;-
1512472234171;-;-;7.8750153;-1.5907593;-0.8767853;-;-;-;-;-;-;-;-;-;-;-;-;-;-;-
1512472234192;-;-;9.489914;-0.17817688;-2.2558594;-;-;-;-;-;-;-;-;-;-;-;-;-;-;-
1512472234213;-;-;10.915649;1.3014374;-3.298523;-;-;-;-;-;-;-;-;-;-;-;-;-;-;-
1512472234234;-;-;13.32782;3.1844788;-1.5914612;-;-;-;-;-;-;-;-;-;-;-;-;-;-;-
1512472234254;-;-;14.4973755;4.530014;-0.4350586;-;-;-;-;-;-;-;-;-;-;-;-;-;-;-
1512472234273;-;-;12.538925;4.5719147;-0.12261963;-;-;-;-;-;-;-;-;-;-;-;-;-;-;-
1512472234294;-;-;11.824249;3.5819244;-0.42907715;-;-;-;-;-;-;-;-;-;-;-;-;-;-;-
1512472234314;-;-;11.27478;2.469818;-0.8899536;-;-;-;-;-;-;-;-;-;-;-;-;-;-;-
1512472234334;-;-;8.976349;1.3792572;-0.97016907;-;-;-;-;-;-;-;-;-;-;-;-;-;-;-
1512472234356;-;-;8.335907;0.21087646;-0.15254211;-;-;-;-;-;-;-;-;-;-;-;-;-;-;-
1512472234376;-;-;6.163162;0.0756073;-0.0914917;-;-;-;-;-;-;-;-;-;-;-;-;-;-;-
1512472234397;-;-;5.837555;0.3892517;-0.35006714;-;-;-;-;-;-;-;-;-;-;-;-;-;-;-
1512472234417;-;-;6.68869;1.1781464;-0.11303711;-;-;-;-;-;-;-;-;-;-;-;-;-;-;-
1512472234437;-;-;6.987961;2.734375;-0.654129;-;-;-;-;-;-;-;-;-;-;-;-;-;-;-
1512472234458;-;-;8.358643;3.0420227;0.5405731;-;-;-;-;-;-;-;-;-;-;-;-;-;-;-
1512472234479;-;-;9.245697;1.9658356;1.4719238;-;-;-;-;-;-;-;-;-;-;-;-;-;-;-
1512472234499;-;-;10.444;0.63105774;0.61839294;-;-;-;-;-;-;-;-;-;-;-;-;-;-;-
1512472234520;-;-;9.576096;0.057647705;1.081665;-;-;-;-;-;-;-;-;-;-;-;-;-;-;-
1512472234540;-;-;8.933258;0.59394836;1.1163788;-;-;-;-;-;-;-;-;-;-;-;-;-;-;-
1512472234560;-;-;7.980362;1.1470184;1.7424622;-;-;-;-;-;-;-;-;-;-;-;-;-;-;-
1512472234580;-;-;8.024658;1.0081482;2.0872345;-;-;-;-;-;-;-;-;-;-;-;-;-;-;-
1512472234606;-;-;8.897339;0.7519684;2.251236;-;-;-;-;-;-;-;-;-;-;-;-;-;-;-
1512472234625;-;-;9.173874;0.7807007;1.9555511;-;-;-;-;-;-;-;-;-;-;-;-;-;-;-
1512472234646;-;-;9.280411;1.1506042;1.9842834;-;-;-;-;-;-;-;-;-;-;-;-;-;-;-
1512472234667;-;-;8.538208;1.9203491;1.7077484;-;-;-;-;-;-;-;-;-;-;-;-;-;-;-
1512472234686;-;-;8.18985;2.1884918;2.4798737;-;-;-;-;-;-;-;-;-;-;-;-;-;-;-
1512472234707;-;-;9.450409;2.600296;2.7815552;-;-;-;-;-;-;-;-;-;-;-;-;-;-;-
1512472234727;-;-;10.4092865;2.7044373;2.307495;-;-;-;-;-;-;-;-;-;-;-;-;-;-;-
1512472234748;-;-;11.791931;1.9514618;1.8502045;-;-;-;-;-;-;-;-;-;-;-;-;-;-;-
1512472234769;-;-;12.428787;1.9754028;0.025817871;-;-;-;-;-;-;-;-;-;-;-;-;-;-;-
1512472234789;-;-;13.588776;3.1330109;-2.1349487;-;-;-;-;-;-;-;-;-;-;-;-;-;-;-
1512472234810;-;-;15.512527;4.0284424;-2.9322205;-;-;-;-;-;-;-;-;-;-;-;-;-;-;-
1512472234829;-;-;14.854111;4.003296;-3.8288422;-;-;-;-;-;-;-;-;-;-;-;-;-;-;-
1512472234850;-;-;11.417236;2.390808;-3.28656;-;-;-;-;-;-;-;-;-;-;-;-;-;-;-
1512472234870;-;-;7.67511;0.5664215;-3.9054565;-;-;-;-;-;-;-;-;-;-;-;-;-;-;-
1512472234890;-;-;6.7605133;-0.074035645;-2.405487;-;-;-;-;-;-;-;-;-;-;-;-;-;-;-
1512472234911;-;-;6.245758;0.33657837;-1.7339172;-;-;-;-;-;-;-;-;-;-;-;-;-;-;-
1512472234932;-;-;9.911285;0.7759094;-3.875534;-;-;-;-;-;-;-;-;-;-;-;-;-;-;-
1512472234952;-;-;12.197754;-0.054870605;-1.7123718;-;-;-;-;-;-;-;-;-;-;-;-;-;-;-
1512472234972;-;-;11.459137;-0.42477417;-0.6289978;-;-;-;-;-;-;-;-;-;-;-;-;-;-;-
1512472234993;-;-;10.005859;-0.44992065;-0.07473755;-;-;-;-;-;-;-;-;-;-;-;-;-;-;-
1512472235013;-;-;8.204224;-0.94911194;-0.37521362;-;-;-;-;-;-;-;-;-;-;-;-;-;-;-
1512472235034;-;-;5.9536743;-1.5536499;-1.5136566;-;-;-;-;-;-;-;-;-;-;-;-;-;-;-
1512472235054;-;-;3.8108673;-1.8325653;-1.0623474;-;-;-;-;-;-;-;-;-;-;-;-;-;-;-
1512472235075;-;-;2.9202118;-1.9391174;-0.07713318;-;-;-;-;-;-;-;-;-;-;-;-;-;-;-
1512472235095;-;-;3.6097412;-2.2036743;0.15510559;-;-;-;-;-;-;-;-;-;-;-;-;-;-;-
1512472235116;-;-;5.1408386;-3.0093231;-0.4626007;-;-;-;-;-;-;-;-;-;-;-;-;-;-;-
1512472235136;-;-;6.778473;-3.3157806;-0.6948395;-;-;-;-;-;-;-;-;-;-;-;-;-;-;-
1512472235156;-;-;7.3255463;-2.6585693;-0.45062256;-;-;-;-;-;-;-;-;-;-;-;-;-;-;-
1512472235177;-;-;7.545822;-1.6625824;0.37417603;-;-;-;-;-;-;-;-;-;-;-;-;-;-;-
1512472235197;-;-;8.341888;-1.0305176;0.95118713;-;-;-;-;-;-;-;-;-;-;-;-;-;-;-
1512472235218;-;-;9.98671;-1.8110199;1.7795715;-;-;-;-;-;-;-;-;-;-;-;-;-;-;-
1512472235238;-;-;10.585251;-3.2164154;1.7460632;-;-;-;-;-;-;-;-;-;-;-;-;-;-;-
1512472235258;-;-;10.950378;-5.065933;1.7137299;-;-;-;-;-;-;-;-;-;-;-;-;-;-;-
1512472235279;-;-;11.0186;-6.261841;1.3905182;-;-;-;-;-;-;-;-;-;-;-;-;-;-;-
1512472235298;-;-;12.707718;-6.704773;1.1570892;-;-;-;-;-;-;-;-;-;-;-;-;-;-;-
1512472235319;-;-;13.697723;-4.2890167;-0.36921692;-;-;-;-;-;-;-;-;-;-;-;-;-;-;-
1512472235340;-;-;14.930725;-2.4287262;-2.5742798;-;-;-;-;-;-;-;-;-;-;-;-;-;-;-
1512472235359;-;-;17.642166;-2.5687866;-3.4948578;-;-;-;-;-;-;-;-;-;-;-;-;-;-;-
1512472235380;-;-;14.691315;-1.6913147;-3.7546234;-;-;-;-;-;-;-;-;-;-;-;-;-;-;-
1512472235400;-;-;12.100784;-0.8772888;-3.1476898;-;-;-;-;-;-;-;-;-;-;-;-;-;-;-
1512472235421;-;-;8.745316;0.4119873;-2.444992;-;-;-;-;-;-;-;-;-;-;-;-;-;-;-
1512472235441;-;-;8.153946;0.63345337;-0.33929443;-;-;-;-;-;-;-;-;-;-;-;-;-;-;-
1512472235462;-;-;8.216187;-0.12310791;0.17546082;-;-;-;-;-;-;-;-;-;-;-;-;-;-;-
1512472235483;-;-;7.8151703;-1.5428772;1.3079224;-;-;-;-;-;-;-;-;-;-;-;-;-;-;-
1512472235504;-;-;7.9815674;-2.3975983;0.587265;-;-;-;-;-;-;-;-;-;-;-;-;-;-;-
1512472235524;-;-;6.45047;-1.7559509;-2.187622;-;-;-;-;-;-;-;-;-;-;-;-;-;-;-
1512472235544;-;-;7.110077;-1.3585205;-2.6951904;-;-;-;-;-;-;-;-;-;-;-;-;-;-;-
1512472235565;-;-;6.268509;-0.49301147;-1.2131805;-;-;-;-;-;-;-;-;-;-;-;-;-;-;-
1512472235586;-;-;6.632431;0.17855835;0.28918457;-;-;-;-;-;-;-;-;-;-;-;-;-;-;-
1512472235606;-;-;7.020294;0.9087982;-0.5248413;-;-;-;-;-;-;-;-;-;-;-;-;-;-;-
1512472235626;-;-;5.334778;1.5145264;0.3705902;-;-;-;-;-;-;-;-;-;-;-;-;-;-;-
1512472235647;-;-;4.2621613;1.2104645;0.4040985;-;-;-;-;-;-;-;-;-;-;-;-;-;-;-
1512472235668;-;-;4.82959;0.4359436;0.031814575;-;-;-;-;-;-;-;-;-;-;-;-;-;-;-
1512472235687;-;-;6.4959564;0.596344;0.75605774;-;-;-;-;-;-;-;-;-;-;-;-;-;-;-
1512472235707;-;-;6.960434;1.477417;1.888504;-;-;-;-;-;-;-;-;-;-;-;-;-;-;-
1512472235728;-;-;8.3502655;2.6601563;2.8078918;-;-;-;-;-;-;-;-;-;-;-;-;-;-;-
1512472235748;-;-;9.487518;1.6737366;2.777954;-;-;-;-;-;-;-;-;-;-;-;-;-;-;-
1512472235769;-;-;11.611176;1.0081482;2.7348633;-;-;-;-;-;-;-;-;-;-;-;-;-;-;-
1512472235789;-;-;12.659836;1.1565857;2.951538;-;-;-;-;-;-;-;-;-;-;-;-;-;-;-
1512472235810;-;-;13.914398;0.6741638;-1.6812439;-;-;-;-;-;-;-;-;-;-;-;-;-;-;-
1512472235829;-;-;15.811798;1.0919495;-7.0646057;-;-;-;-;-;-;-;-;-;-;-;-;-;-;-
1512472235850;-;-;14.354919;0.49578857;-6.638443;-;-;-;-;-;-;-;-;-;-;-;-;-;-;-
1512472235870;-;-;10.499069;1.5671997;-1.9996796;-;-;-;-;-;-;-;-;-;-;-;-;-;-;-
1512472235891;-;-;14.338165;-5.3819733;-6.8311768;-;-;-;-;-;-;-;-;-;-;-;-;-;-;-
1512472235910;-;-;9.459976;-2.854889;-1.6704712;-;-;-;-;-;-;-;-;-;-;-;-;-;-;-
1512472235931;-;-;7.9552307;1.4091797;-0.60983276;-;-;-;-;-;-;-;-;-;-;-;-;-;-;-
1512472235950;-;-;9.23732;3.6142426;-0.70321655;-;-;-;-;-;-;-;-;-;-;-;-;-;-;-
1512472235971;-;-;8.288025;2.1681366;-0.58709717;-;-;-;-;-;-;-;-;-;-;-;-;-;-;-
1512472235991;-;-;6.2780914;0.9818115;-2.309723;-;-;-;-;-;-;-;-;-;-;-;-;-;-;-
1512472236012;-;-;4.6021423;-0.32901;-1.6788483;-;-;-;-;-;-;-;-;-;-;-;-;-;-;-
1512472236031;-;-;5.549057;-2.1091003;-0.18008423;-;-;-;-;-;-;-;-;-;-;-;-;-;-;-
1512472236051;-;-;6.2385864;-3.000946;-0.43026733;-;-;-;-;-;-;-;-;-;-;-;-;-;-;-
1512472236073;-;-;6.4792023;-4.0675507;0.7728119;-;-;-;-;-;-;-;-;-;-;-;-;-;-;-
1512472236092;-;-;6.249359;-4.846863;1.5497284;-;-;-;-;-;-;-;-;-;-;-;-;-;-;-
1512472236113;-;-;5.5310974;-4.3285217;-0.011291504;-;-;-;-;-;-;-;-;-;-;-;-;-;-;-
1512472236133;-;-;5.233017;-2.7938385;-0.0076904297;-;-;-;-;-;-;-;-;-;-;-;-;-;-;-
1512472236154;-;-;5.9381104;-2.2288055;0.4974823;-;-;-;-;-;-;-;-;-;-;-;-;-;-;-
1512472236173;-;-;6.6036987;-2.1893005;1.1810303;-;-;-;-;-;-;-;-;-;-;-;-;-;-;-
1512472236194;-;-;10.336258;-2.1162872;1.7352753;-;-;-;-;-;-;-;-;-;-;-;-;-;-;-
1512472236214;-;-;12.258804;-2.119873;1.9052734;-;-;-;-;-;-;-;-;-;-;-;-;-;-;-
1512472236235;-;-;12.209717;-2.6286469;0.39213562;-;-;-;-;-;-;-;-;-;-;-;-;-;-;-
1512472236256;-;-;12.386887;-4.00531;0.28199768;-;-;-;-;-;-;-;-;-;-;-;-;-;-;-
1512472236276;-;-;12.036148;-4.429077;0.086868286;-;-;-;-;-;-;-;-;-;-;-;-;-;-;-
1512472236296;-;-;11.667435;-4.2734528;-0.08909607;-;-;-;-;-;-;-;-;-;-;-;-;-;-;-
1512472236317;-;-;13.106354;-3.3756256;-1.0000916;-;-;-;-;-;-;-;-;-;-;-;-;-;-;-
1512472236337;-;-;14.729614;-2.435913;-2.1924133;-;-;-;-;-;-;-;-;-;-;-;-;-;-;-
1512472236357;-;-;14.618286;-1.6314545;-3.3907013;-;-;-;-;-;-;-;-;-;-;-;-;-;-;-
1512472236378;-;-;12.177399;-1.3776703;-4.5375214;-;-;-;-;-;-;-;-;-;-;-;-;-;-;-
1512472236398;-;-;9.774811;-0.91319275;-2.7275085;-;-;-;-;-;-;-;-;-;-;-;-;-;-;-
1512472236419;-;-;8.934448;-0.0010070801;-0.96777344;-;-;-;-;-;-;-;-;-;-;-;-;-;-;-
1512472236440;-;-;8.716583;-0.30387878;0.034194946;-;-;-;-;-;-;-;-;-;-;-;-;-;-;-
1512472236459;-;-;8.38858;-1.6458282;0.19581604;-;-;-;-;-;-;-;-;-;-;-;-;-;-;-
1512472236479;-;-;8.343079;-2.4778137;-0.016082764;-;-;-;-;-;-;-;-;-;-;-;-;-;-;-
1512472236500;-;-;8.261688;-1.9905853;-0.15493774;-;-;-;-;-;-;-;-;-;-;-;-;-;-;-
1512472236522;-;-;7.9743805;-0.6917267;-2.0786743;-;-;-;-;-;-;-;-;-;-;-;-;-;-;-
1512472236541;-;-;8.119232;-0.92996216;-2.978897;-;-;-;-;-;-;-;-;-;-;-;-;-;-;-
1512472236562;-;-;6.6659546;0.31143188;-0.8863678;-;-;-;-;-;-;-;-;-;-;-;-;-;-;-
1512472236582;-;-;7.150772;1.4810028;-0.13937378;-;-;-;-;-;-;-;-;-;-;-;-;-;-;-
1512472236603;-;-;7.9540253;1.2368011;-0.3656311;-;-;-;-;-;-;-;-;-;-;-;-;-;-;-
1512472236622;-;-;7.1483765;1.3146057;-0.121414185;-;-;-;-;-;-;-;-;-;-;-;-;-;-;-
1512472236643;-;-;6.2780914;0.9387207;-0.2566986;-;-;-;-;-;-;-;-;-;-;-;-;-;-;-
1512472236662;-;-;5.5466614;0.3964386;-0.36442566;-;-;-;-;-;-;-;-;-;-;-;-;-;-;-
1512472236683;-;-;5.1683807;0.008575439;-0.43626404;-;-;-;-;-;-;-;-;-;-;-;-;-;-;-
1512472236703;-;-;5.656784;0.35333252;1.3964996;-;-;-;-;-;-;-;-;-;-;-;-;-;-;-
1512472236724;-;-;7.031067;1.3337555;1.7568359;-;-;-;-;-;-;-;-;-;-;-;-;-;-;-
1512472236744;-;-;7.949234;1.5923309;3.33461;-;-;-;-;-;-;-;-;-;-;-;-;-;-;-
1512472236764;-;-;10.269226;1.1326447;0.92962646;-;-;-;-;-;-;-;-;-;-;-;-;-;-;-
1512472236785;-;-;11.378937;2.3536987;2.3087006;-;-;-;-;-;-;-;-;-;-;-;-;-;-;-
1512472236804;-;-;11.060501;2.857666;3.4866333;-;-;-;-;-;-;-;-;-;-;-;-;-;-;-
1512472236824;-;-;12.956711;1.8712616;-0.47576904;-;-;-;-;-;-;-;-;-;-;-;-;-;-;-
1512472236845;-;-;15.013336;1.5875549;-5.204315;-;-;-;-;-;-;-;-;-;-;-;-;-;-;-
1512472236865;-;-;14.607513;0.3605194;-5.3395844;-;-;-;-;-;-;-;-;-;-;-;-;-;-;-
1512472236886;-;-;10.465546;0.9997711;-3.997635;-;-;-;-;-;-;-;-;-;-;-;-;-;-;-
1512472236907;-;-;13.613922;-4.247116;-4.401062;-;-;-;-;-;-;-;-;-;-;-;-;-;-;-
1512472236926;-;-;9.011063;-2.6011047;-1.8931274;-;-;-;-;-;-;-;-;-;-;-;-;-;-;-
1512472236947;-;-;8.68306;-0.064453125;-2.4438019;-;-;-;-;-;-;-;-;-;-;-;-;-;-;-
1512472236967;-;-;10.728912;0.9638519;-2.7035675;-;-;-;-;-;-;-;-;-;-;-;-;-;-;-
1512472236987;-;-;10.613983;0.4371338;-2.326477;-;-;-;-;-;-;-;-;-;-;-;-;-;-;-
1512472237008;-;-;9.849045;0.3317871;-0.73672485;-;-;-;-;-;-;-;-;-;-;-;-;-;-;-
1512472237028;-;-;7.398575;0.6573944;-2.3288727;-;-;-;-;-;-;-;-;-;-;-;-;-;-;-
1512472237049;-;-;5.988388;-0.50738525;-1.3233032;-;-;-;-;-;-;-;-;-;-;-;-;-;-;-
1512472237069;-;-;6.5977173;-1.9462891;0.2700348;-;-;-;-;-;-;-;-;-;-;-;-;-;-;-
1512472237090;-;-;5.2677307;-2.535263;0.15989685;-;-;-;-;-;-;-;-;-;-;-;-;-;-;-
1512472237110;-;-;4.745804;-3.1493835;0.47114563;-;-;-;-;-;-;-;-;-;-;-;-;-;-;-
1512472237131;-;-;4.0023956;-3.3085938;0.074905396;-;-;-;-;-;-;-;-;-;-;-;-;-;-;-
1512472237151;-;-;2.7203064;-2.5532227;-0.46499634;-;-;-;-;-;-;-;-;-;-;-;-;-;-;-
1512472237172;-;-;3.4098358;-2.1102905;0.19700623;-;-;-;-;-;-;-;-;-;-;-;-;-;-;-
1512472237192;-;-;5.375473;-1.8349609;-0.026855469;-;-;-;-;-;-;-;-;-;-;-;-;-;-;-
1512472237213;-;-;8.814743;-2.0923462;1.4515686;-;-;-;-;-;-;-;-;-;-;-;-;-;-;-
1512472237233;-;-;11.991852;-2.456253;2.180603;-;-;-;-;-;-;-;-;-;-;-;-;-;-;-
1512472237254;-;-;14.016144;-2.6047058;0.9882965;-;-;-;-;-;-;-;-;-;-;-;-;-;-;-
1512472237274;-;-;14.55484;-2.1186829;0.082092285;-;-;-;-;-;-;-;-;-;-;-;-;-;-;-
1512472237295;-;-;14.5763855;-1.5165405;-0.01008606;-;-;-;-;-;-;-;-;-;-;-;-;-;-;-
1512472237314;-;-;13.068039;-1.7774963;-0.056777954;-;-;-;-;-;-;-;-;-;-;-;-;-;-;-
1512472237334;-;-;10.550537;-1.1179047;-0.961792;-;-;-;-;-;-;-;-;-;-;-;-;-;-;-
1512472237355;-;-;11.117966;-2.6094818;-3.6648407;-;-;-;-;-;-;-;-;-;-;-;-;-;-;-
1512472237375;-;-;11.068878;-4.451828;-5.769348;-;-;-;-;-;-;-;-;-;-;-;-;-;-;-
1512472237396;-;-;11.214935;-4.245926;-3.259018;-;-;-;-;-;-;-;-;-;-;-;-;-;-;-
1512472237416;-;-;11.253235;-2.3497162;0.098846436;-;-;-;-;-;-;-;-;-;-;-;-;-;-;-
1512472237436;-;-;11.411255;-1.3166199;-1.2526855;-;-;-;-;-;-;-;-;-;-;-;-;-;-;-
1512472237457;-;-;11.402878;-1.6134949;-1.990097;-;-;-;-;-;-;-;-;-;-;-;-;-;-;-
1512472237477;-;-;11.524979;-2.2431793;-1.243103;-;-;-;-;-;-;-;-;-;-;-;-;-;-;-
1512472237498;-;-;10.173447;-2.0684052;-0.5978699;-;-;-;-;-;-;-;-;-;-;-;-;-;-;-
1512472237518;-;-;8.088104;-1.625473;-1.0288239;-;-;-;-;-;-;-;-;-;-;-;-;-;-;-
1512472237539;-;-;6.7772827;-0.8018646;-2.4222565;-;-;-;-;-;-;-;-;-;-;-;-;-;-;-
1512472237558;-;-;6.123657;-0.19134521;-2.2881775;-;-;-;-;-;-;-;-;-;-;-;-;-;-;-
1512472237578;-;-;5.1444244;0.96624756;-1.4705505;-;-;-;-;-;-;-;-;-;-;-;-;-;-;-
1512472237599;-;-;4.4201813;1.7778931;-0.8576355;-;-;-;-;-;-;-;-;-;-;-;-;-;-;-
1512472237619;-;-;4.2908936;1.956253;0.5405731;-;-;-;-;-;-;-;-;-;-;-;-;-;-;-
1512472237639;-;-;4.57222;2.105896;0.8709717;-;-;-;-;-;-;-;-;-;-;-;-;-;-;-
1512472237659;-;-;5.3383636;0.5771942;0.96195984;-;-;-;-;-;-;-;-;-;-;-;-;-;-;-
1512472237680;-;-;6.118866;-0.6426544;-0.91030884;-;-;-;-;-;-;-;-;-;-;-;-;-;-;-
1512472237699;-;-;7.573349;-0.44273376;0.4579773;-;-;-;-;-;-;-;-;-;-;-;-;-;-;-
1512472237719;-;-;7.086136;0.54008484;1.8609772;-;-;-;-;-;-;-;-;-;-;-;-;-;-;-
1512472237740;-;-;9.267242;0.2515869;3.7679596;-;-;-;-;-;-;-;-;-;-;-;-;-;-;-
1512472237760;-;-;9.717361;0.5664215;3.231659;-;-;-;-;-;-;-;-;-;-;-;-;-;-;-
1512472237781;-;-;9.6072235;1.2810822;0.83506775;-;-;-;-;-;-;-;-;-;-;-;-;-;-;-
1512472237801;-;-;10.360199;1.4259338;2.1458893;-;-;-;-;-;-;-;-;-;-;-;-;-;-;-
1512472237821;-;-;10.381744;1.789856;2.1303253;-;-;-;-;-;-;-;-;-;-;-;-;-;-;-
1512472237842;-;-;12.503006;2.1633606;-4.2921143;-;-;-;-;-;-;-;-;-;-;-;-;-;-;-
1512472237862;-;-;13.344574;3.9793549;-5.7358246;-;-;-;-;-;-;-;-;-;-;-;-;-;-;-
1512472237882;-;-;15.03009;4.358841;-4.843979;-;-;-;-;-;-;-;-;-;-;-;-;-;-;-
1512472237902;-;-;16.953827;-1.9546814;-4.2885284;-;-;-;-;-;-;-;-;-;-;-;-;-;-;-
1512472237923;-;-;10.748062;-1.843338;-2.8879242;-;-;-;-;-;-;-;-;-;-;-;-;-;-;-
1512472237943;-;-;8.730942;-0.9790344;-1.7614441;-;-;-;-;-;-;-;-;-;-;-;-;-;-;-
1512472237964;-;-;8.745316;-0.12310791;-2.4342194;-;-;-;-;-;-;-;-;-;-;-;-;-;-;-
1512472237984;-;-;9.694611;-1.4686584;-2.4114685;-;-;-;-;-;-;-;-;-;-;-;-;-;-;-
1512472238005;-;-;10.5720825;-1.6374359;-1.4047089;-;-;-;-;-;-;-;-;-;-;-;-;-;-;-
1512472238025;-;-;10.807922;-0.41879272;-1.0324097;-;-;-;-;-;-;-;-;-;-;-;-;-;-;-
1512472238045;-;-;8.569336;0.17497253;-1.871582;-;-;-;-;-;-;-;-;-;-;-;-;-;-;-
1512472238066;-;-;7.660736;-1.1765594;-0.9007416;-;-;-;-;-;-;-;-;-;-;-;-;-;-;-
1512472238087;-;-;6.7724915;-2.2886658;-1.0922699;-;-;-;-;-;-;-;-;-;-;-;-;-;-;-
1512472238107;-;-;5.403;-2.7734985;0.04736328;-;-;-;-;-;-;-;-;-;-;-;-;-;-;-
1512472238127;-;-;4.647629;-2.2743073;0.7368927;-;-;-;-;-;-;-;-;-;-;-;-;-;-;-
1512472238148;-;-;4.5195465;-1.6925049;0.429245;-;-;-;-;-;-;-;-;-;-;-;-;-;-;-
1512472238168;-;-;3.9557037;-1.2819061;0.3143158;-;-;-;-;-;-;-;-;-;-;-;-;-;-;-
1512472238189;-;-;4.802063;-1.4351349;0.3095398;-;-;-;-;-;-;-;-;-;-;-;-;-;-;-
1512472238208;-;-;5.944092;-2.2359924;0.5010681;-;-;-;-;-;-;-;-;-;-;-;-;-;-;-
1512472238229;-;-;6.5989075;-2.4179535;1.191803;-;-;-;-;-;-;-;-;-;-;-;-;-;-;-
1512472238249;-;-;7.9671936;-2.3676758;1.2612305;-;-;-;-;-;-;-;-;-;-;-;-;-;-;-
1512472238270;-;-;8.601654;-2.3736572;1.2720032;-;-;-;-;-;-;-;-;-;-;-;-;-;-;-
1512472238292;-;-;10.153107;-2.755539;0.3143158;-;-;-;-;-;-;-;-;-;-;-;-;-;-;-
1512472238312;-;-;12.607162;-3.814972;1.1534882;-;-;-;-;-;-;-;-;-;-;-;-;-;-;-
1512472238332;-;-;14.2795105;-4.352463;1.349823;-;-;-;-;-;-;-;-;-;-;-;-;-;-;-
1512472238353;-;-;13.880875;-4.846863;0.8159027;-;-;-;-;-;-;-;-;-;-;-;-;-;-;-
1512472238374;-;-;13.919174;-2.3006287;0.5190277;-;-;-;-;-;-;-;-;-;-;-;-;-;-;-
1512472238393;-;-;12.9830475;-0.84495544;-3.2219086;-;-;-;-;-;-;-;-;-;-;-;-;-;-;-
1512472238414;-;-;12.936356;-1.1897278;-4.754196;-;-;-;-;-;-;-;-;-;-;-;-;-;-;-
1512472238434;-;-;10.671448;-2.4035797;-2.855606;-;-;-;-;-;-;-;-;-;-;-;-;-;-;-
1512472238455;-;-;9.689819;-2.6669464;-1.9170685;-;-;-;-;-;-;-;-;-;-;-;-;-;-;-
1512472238476;-;-;11.092819;-1.5380859;1.2253113;-;-;-;-;-;-;-;-;-;-;-;-;-;-;-
1512472238497;-;-;10.56012;-0.38168335;-0.8169403;-;-;-;-;-;-;-;-;-;-;-;-;-;-;-
1512472238517;-;-;9.714966;-0.25598145;-1.8584137;-;-;-;-;-;-;-;-;-;-;-;-;-;-;-
1512472238537;-;-;9.674255;0.40361023;-0.3368988;-;-;-;-;-;-;-;-;-;-;-;-;-;-;-
1512472238558;-;-;7.748123;1.0332947;-0.2064209;-;-;-;-;-;-;-;-;-;-;-;-;-;-;-
1512472238577;-;-;6.7294006;0.6430359;-0.26028442;-;-;-;-;-;-;-;-;-;-;-;-;-;-;-
1512472238599;-;-;6.5198975;-0.009384155;-0.30577087;-;-;-;-;-;-;-;-;-;-;-;-;-;-;-
1512472238618;-;-;6.3690643;-0.08720398;-0.84446716;-;-;-;-;-;-;-;-;-;-;-;-;-;-;-
1512472238638;-;-;5.533493;0.5053711;-1.9996796;-;-;-;-;-;-;-;-;-;-;-;-;-;-;-
1512472238659;-;-;4.624893;1.0153351;-0.30337524;-;-;-;-;-;-;-;-;-;-;-;-;-;-;-
1512472238678;-;-;4.608124;1.4199524;0.6100006;-;-;-;-;-;-;-;-;-;-;-;-;-;-;-
1512472238698;-;-;4.683548;1.7024689;1.3797455;-;-;-;-;-;-;-;-;-;-;-;-;-;-;-
1512472238719;-;-;5.6352386;1.2894745;1.112793;-;-;-;-;-;-;-;-;-;-;-;-;-;-;-
1512472238739;-;-;6.5354614;0.5951538;0.35502625;-;-;-;-;-;-;-;-;-;-;-;-;-;-;-
1512472238759;-;-;7.157959;0.37487793;0.6854248;-;-;-;-;-;-;-;-;-;-;-;-;-;-;-
1512472238780;-;-;8.42569;0.848938;1.7376709;-;-;-;-;-;-;-;-;-;-;-;-;-;-;-
1512472238800;-;-;8.527435;0.9075928;1.7149353;-;-;-;-;-;-;-;-;-;-;-;-;-;-;-
1512472238820;-;-;9.195419;0.17616272;1.8526001;-;-;-;-;-;-;-;-;-;-;-;-;-;-;-
1512472238840;-;-;9.37738;0.062438965;2.2620087;-;-;-;-;-;-;-;-;-;-;-;-;-;-;-
1512472238861;-;-;9.21936;0.46347046;1.983078;-;-;-;-;-;-;-;-;-;-;-;-;-;-;-
1512472238881;-;-;9.583282;0.9782257;3.193344;-;-;-;-;-;-;-;-;-;-;-;-;-;-;-
1512472238902;-;-;11.51062;1.4462891;4.5352936;-;-;-;-;-;-;-;-;-;-;-;-;-;-;-
1512472238922;-;-;13.13269;1.5384674;3.4878387;-;-;-;-;-;-;-;-;-;-;-;-;-;-;-
1512472238943;-;-;12.397659;1.9813995;3.3214417;-;-;-;-;-;-;-;-;-;-;-;-;-;-;-
1512472238963;-;-;11.285553;2.4075623;-4.1580505;-;-;-;-;-;-;-;-;-;-;-;-;-;-;-
1512472238984;-;-;13.277542;4.5000916;-5.1312866;-;-;-;-;-;-;-;-;-;-;-;-;-;-;-
1512472239003;-;-;11.9236145;4.691635;-0.5715332;-;-;-;-;-;-;-;-;-;-;-;-;-;-;-
1512472239023;-;-;9.694611;1.8975983;-2.4976654;-;-;-;-;-;-;-;-;-;-;-;-;-;-;-
1512472239044;-;-;10.969528;1.4630432;-6.466049;-;-;-;-;-;-;-;-;-;-;-;-;-;-;-
1512472239064;-;-;11.217331;2.6984558;-4.2562103;-;-;-;-;-;-;-;-;-;-;-;-;-;-;-
1512472239085;-;-;8.783615;2.1956787;-3.1309357;-;-;-;-;-;-;-;-;-;-;-;-;-;-;-
1512472239106;-;-;6.838333;0.6238861;-3.018402;-;-;-;-;-;-;-;-;-;-;-;-;-;-;-
1512472239126;-;-;7.7684784;0.29826355;-1.5531616;-;-;-;-;-;-;-;-;-;-;-;-;-;-;-
1512472239146;-;-;9.105637;-0.021362305;-0.44822693;-;-;-;-;-;-;-;-;-;-;-;-;-;-;-
1512472239167;-;-;9.363022;0.35932922;-1.1389618;-;-;-;-;-;-;-;-;-;-;-;-;-;-;-
1512472239188;-;-;9.948395;0.105529785;-1.5758972;-;-;-;-;-;-;-;-;-;-;-;-;-;-;-
1512472239209;-;-;9.687424;-0.9467163;-1.4142914;-;-;-;-;-;-;-;-;-;-;-;-;-;-;-
1512472239229;-;-;7.406952;-1.9798126;-1.7015991;-;-;-;-;-;-;-;-;-;-;-;-;-;-;-
1512472239248;-;-;6.0015564;-2.6166687;-1.3891449;-;-;-;-;-;-;-;-;-;-;-;-;-;-;-
1512472239268;-;-;5.416168;-3.0380554;-1.3963318;-;-;-;-;-;-;-;-;-;-;-;-;-;-;-
1512472239289;-;-;5.735794;-3.289444;-1.3400726;-;-;-;-;-;-;-;-;-;-;-;-;-;-;-
1512472239309;-;-;6.8215637;-2.70047;-1.2239532;-;-;-;-;-;-;-;-;-;-;-;-;-;-;-
1512472239330;-;-;8.473572;-1.6003265;-0.04600525;-;-;-;-;-;-;-;-;-;-;-;-;-;-;-
1512472239350;-;-;9.419281;-1.4770355;-0.40034485;-;-;-;-;-;-;-;-;-;-;-;-;-;-;-
1512472239371;-;-;8.513077;-1.7320099;-0.45420837;-;-;-;-;-;-;-;-;-;-;-;-;-;-;-
1512472239392;-;-;6.9101563;-1.882843;-0.07473755;-;-;-;-;-;-;-;-;-;-;-;-;-;-;-
1512472239412;-;-;6.375046;-1.7128601;0.3490448;-;-;-;-;-;-;-;-;-;-;-;-;-;-;-
1512472239432;-;-;6.802414;-1.8577118;0.42326355;-;-;-;-;-;-;-;-;-;-;-;-;-;-;-
1512472239453;-;-;6.5869446;-2.2012787;0.60401917;-;-;-;-;-;-;-;-;-;-;-;-;-;-;-
1512472239473;-;-;6.304428;-2.6178741;1.0924377;-;-;-;-;-;-;-;-;-;-;-;-;-;-;-
1512472239494;-;-;6.170349;-2.6741333;1.3653717;-;-;-;-;-;-;-;-;-;-;-;-;-;-;-
1512472239514;-;-;7.236969;-2.1952972;1.5808563;-;-;-;-;-;-;-;-;-;-;-;-;-;-;-
1512472239535;-;-;8.82312;-1.4483032;2.4858704;-;-;-;-;-;-;-;-;-;-;-;-;-;-;-
1512472239558;-;-;9.663483;-0.43675232;1.3222809;-;-;-;-;-;-;-;-;-;-;-;-;-;-;-
1512472239575;-;-;11.6267395;-1.7846832;1.4850922;-;-;-;-;-;-;-;-;-;-;-;-;-;-;-
1512472239595;-;-;11.441177;-2.5209045;1.7197266;-;-;-;-;-;-;-;-;-;-;-;-;-;-;-
1512472239616;-;-;12.192963;-2.949463;2.3948822;-;-;-;-;-;-;-;-;-;-;-;-;-;-;-
1512472239637;-;-;11.19339;-2.4335175;2.2979126;-;-;-;-;-;-;-;-;-;-;-;-;-;-;-
1512472239657;-;-;10.839035;-1.5332947;3.1167297;-;-;-;-;-;-;-;-;-;-;-;-;-;-;-
1512472239676;-;-;8.778824;-1.5189362;2.3589783;-;-;-;-;-;-;-;-;-;-;-;-;-;-;-
1512472239697;-;-;10.631943;-2.5041504;-2.429428;-;-;-;-;-;-;-;-;-;-;-;-;-;-;-
1512472239717;-;-;12.318665;-0.03213501;-1.753067;-;-;-;-;-;-;-;-;-;-;-;-;-;-;-
1512472239738;-;-;11.900864;-1.3118286;-6.9305267;-;-;-;-;-;-;-;-;-;-;-;-;-;-;-
1512472239757;-;-;9.884949;-1.5692139;-5.26178;-;-;-;-;-;-;-;-;-;-;-;-;-;-;-
1512472239777;-;-;9.940018;-1.1023407;0.7716217;-;-;-;-;-;-;-;-;-;-;-;-;-;-;-
1512472239798;-;-;11.638702;-1.5009766;-0.20162964;-;-;-;-;-;-;-;-;-;-;-;-;-;-;-
1512472239819;-;-;11.301117;-1.9343262;0.53219604;-;-;-;-;-;-;-;-;-;-;-;-;-;-;-
1512472239838;-;-;10.173447;-1.764328;0.95118713;-;-;-;-;-;-;-;-;-;-;-;-;-;-;-
1512472239859;-;-;9.595245;-0.8174286;-0.24353027;-;-;-;-;-;-;-;-;-;-;-;-;-;-;-
1512472239879;-;-;8.969162;-0.90122986;-1.2646484;-;-;-;-;-;-;-;-;-;-;-;-;-;-;-
1512472239900;-;-;8.280838;-1.898407;-0.3584442;-;-;-;-;-;-;-;-;-;-;-;-;-;-;-
1512472239919;-;-;8.139572;-1.4602661;0.57289124;-;-;-;-;-;-;-;-;-;-;-;-;-;-;-
1512472239939;-;-;7.3075867;-0.078811646;0.28559875;-;-;-;-;-;-;-;-;-;-;-;-;-;-;-
1512472239960;-;-;6.1452026;0.68733215;0.23890686;-;-;-;-;-;-;-;-;-;-;-;-;-;-;-
1512472239979;-;-;6.0063477;0.8501282;0.5693054;-;-;-;-;-;-;-;-;-;-;-;-;-;-;-
1512472240000;-;-;6.261322;0.65859985;1.2408752;-;-;-;-;-;-;-;-;-;-;-;-;-;-;-
1512472240021;-;-;6.6527863;-0.20809937;0.93562317;-;-;-;-;-;-;-;-;-;-;-;-;-;-;-
1512472240041;-;-;7.620041;-0.38526917;-0.37042236;-;-;-;-;-;-;-;-;-;-;-;-;-;-;-
1512472240061;-;-;8.353867;0.3174286;-0.47816467;-;-;-;-;-;-;-;-;-;-;-;-;-;-;-
1512472240082;-;-;7.7529144;1.1805267;1.5892334;-;-;-;-;-;-;-;-;-;-;-;-;-;-;-
1512472240102;-;-;6.991562;1.2152557;3.0090027;-;-;-;-;-;-;-;-;-;-;-;-;-;-;-
1512472240123;-;-;6.6970673;0.7842865;3.4782562;-;-;-;-;-;-;-;-;-;-;-;-;-;-;-
1512472240143;-;-;7.007126;-0.44992065;2.579239;-;-;-;-;-;-;-;-;-;-;-;-;-;-;-
1512472240164;-;-;8.619614;-2.3126068;0.78118896;-;-;-;-;-;-;-;-;-;-;-;-;-;-;-
1512472240185;-;-;9.740097;-2.9231262;2.0920105;-;-;-;-;-;-;-;-;-;-;-;-;-;-;-
1512472240205;-;-;9.803543;-1.6661682;2.8509827;-;-;-;-;-;-;-;-;-;-;-;-;-;-;-
1512472240226;-;-;12.050507;-2.4335175;3.8613281;-;-;-;-;-;-;-;-;-;-;-;-;-;-;-
1512472240245;-;-;10.995865;-1.7224426;0.14433289;-;-;-;-;-;-;-;-;-;-;-;-;-;-;-
1512472240266;-;-;14.63385;1.2763062;-0.8744049;-;-;-;-;-;-;-;-;-;-;-;-;-;-;-
1512472240286;-;-;18.787796;4.296585;-3.685196;-;-;-;-;-;-;-;-;-;-;-;-;-;-;-
1512472240307;-;-;13.475052;3.7590942;-1.737503;-;-;-;-;-;-;-;-;-;-;-;-;-;-;-
1512472240327;-;-;7.8881836;-1.1538086;-1.7566681;-;-;-;-;-;-;-;-;-;-;-;-;-;-;-
1512472240347;-;-;6.090149;-2.6837158;-2.0834656;-;-;-;-;-;-;-;-;-;-;-;-;-;-;-
1512472240367;-;-;7.7816467;-2.0121307;-1.2873993;-;-;-;-;-;-;-;-;-;-;-;-;-;-;-
1512472240388;-;-;10.4021;-1.1621857;-0.18247986;-;-;-;-;-;-;-;-;-;-;-;-;-;-;-
1512472240408;-;-;11.389709;-0.8581238;-0.8241272;-;-;-;-;-;-;-;-;-;-;-;-;-;-;-
1512472240429;-;-;11.123947;0.09715271;-2.4006958;-;-;-;-;-;-;-;-;-;-;-;-;-;-;-
1512472240450;-;-;10.87854;0.9889984;-2.788559;-;-;-;-;-;-;-;-;-;-;-;-;-;-;-
1512472240469;-;-;9.6072235;0.47543335;-1.9338379;-;-;-;-;-;-;-;-;-;-;-;-;-;-;-
1512472240490;-;-;7.2788696;-1.6697693;-1.3233032;-;-;-;-;-;-;-;-;-;-;-;-;-;-;-
1512472240510;-;-;5.731018;-3.1840973;-2.1409302;-;-;-;-;-;-;-;-;-;-;-;-;-;-;-
1512472240530;-;-;5.253372;-4.309372;-1.2000122;-;-;-;-;-;-;-;-;-;-;-;-;-;-;-
1512472240551;-;-;6.11409;-5.1293793;-1.006073;-;-;-;-;-;-;-;-;-;-;-;-;-;-;-
1512472240570;-;-;8.114441;-5.179657;-0.025650024;-;-;-;-;-;-;-;-;-;-;-;-;-;-;-
1512472240591;-;-;8.844666;-4.5990753;0.91645813;-;-;-;-;-;-;-;-;-;-;-;-;-;-;-
1512472240612;-;-;10.009445;-4.24234;1.2241211;-;-;-;-;-;-;-;-;-;-;-;-;-;-;-
1512472240633;-;-;9.031418;-3.3564758;0.63035583;-;-;-;-;-;-;-;-;-;-;-;-;-;-;-
1512472240653;-;-;8.143173;-2.4407043;0.6650696;-;-;-;-;-;-;-;-;-;-;-;-;-;-;-
1512472240673;-;-;9.171478;-2.4610443;1.1427155;-;-;-;-;-;-;-;-;-;-;-;-;-;-;-
1512472240694;-;-;11.485474;-2.3401337;1.3869324;-;-;-;-;-;-;-;-;-;-;-;-;-;-;-
1512472240714;-;-;10.137543;-2.5652008;1.796341;-;-;-;-;-;-;-;-;-;-;-;-;-;-;-
1512472240735;-;-;9.4935;-2.842926;3.0951843;-;-;-;-;-;-;-;-;-;-;-;-;-;-;-
1512472240755;-;-;9.476746;-3.5970917;2.5612793;-;-;-;-;-;-;-;-;-;-;-;-;-;-;-
1512472240775;-;-;10.030991;-3.9682007;3.1502533;-;-;-;-;-;-;-;-;-;-;-;-;-;-;-
1512472240796;-;-;11.556107;-4.171707;1.6718292;-;-;-;-;-;-;-;-;-;-;-;-;-;-;-
1512472240816;-;-;12.700531;-3.737152;-1.2694397;-;-;-;-;-;-;-;-;-;-;-;-;-;-;-
1512472240837;-;-;13.117126;-2.416748;-2.7143402;-;-;-;-;-;-;-;-;-;-;-;-;-;-;-
1512472240857;-;-;12.2994995;-1.8840485;-2.907074;-;-;-;-;-;-;-;-;-;-;-;-;-;-;-
1512472240878;-;-;10.508636;-1.5895538;-3.0243835;-;-;-;-;-;-;-;-;-;-;-;-;-;-;-
1512472240898;-;-;10.315903;-0.2033081;-2.6042023;-;-;-;-;-;-;-;-;-;-;-;-;-;-;-
1512472240918;-;-;10.277603;0.02532959;-2.4509735;-;-;-;-;-;-;-;-;-;-;-;-;-;-;-
1512472240939;-;-;10.095642;-1.4734344;-2.8544006;-;-;-;-;-;-;-;-;-;-;-;-;-;-;-
1512472240960;-;-;9.653915;-2.535263;-0.9629822;-;-;-;-;-;-;-;-;-;-;-;-;-;-;-
1512472240980;-;-;8.857834;-3.3277435;-0.22436523;-;-;-;-;-;-;-;-;-;-;-;-;-;-;-
1512472241001;-;-;9.510254;-3.6078644;0.24967957;-;-;-;-;-;-;-;-;-;-;-;-;-;-;-
1512472241021;-;-;9.286407;-1.6446228;-0.8061676;-;-;-;-;-;-;-;-;-;-;-;-;-;-;-
1512472241041;-;-;9.469559;-0.12310791;-1.555542;-;-;-;-;-;-;-;-;-;-;-;-;-;-;-
1512472241062;-;-;9.471954;0.5628357;-1.7578583;-;-;-;-;-;-;-;-;-;-;-;-;-;-;-
1512472241083;-;-;7.884598;0.36531067;-2.0750885;-;-;-;-;-;-;-;-;-;-;-;-;-;-;-
1512472241102;-;-;7.205841;0.14863586;-1.3280945;-;-;-;-;-;-;-;-;-;-;-;-;-;-;-
1512472241123;-;-;5.9225464;0.13186646;-0.085510254;-;-;-;-;-;-;-;-;-;-;-;-;-;-;-
1512472241143;-;-;5.399414;0.093566895;0.46276855;-;-;-;-;-;-;-;-;-;-;-;-;-;-;-
1512472241164;-;-;5.4844055;0.23602295;-0.26148987;-;-;-;-;-;-;-;-;-;-;-;-;-;-;-
1512472241184;-;-;5.466446;0.90400696;-0.6708832;-;-;-;-;-;-;-;-;-;-;-;-;-;-;-
1512472241205;-;-;6.075775;0.9973755;-0.083114624;-;-;-;-;-;-;-;-;-;-;-;-;-;-;-
1512472241226;-;-;6.9340973;0.9351349;-0.016082764;-;-;-;-;-;-;-;-;-;-;-;-;-;-;-
1512472241246;-;-;6.886215;1.3840332;0.36938477;-;-;-;-;-;-;-;-;-;-;-;-;-;-;-
1512472241266;-;-;7.8570557;1.8473206;1.0158234;-;-;-;-;-;-;-;-;-;-;-;-;-;-;-
1512472241287;-;-;8.738129;1.7718964;1.7747803;-;-;-;-;-;-;-;-;-;-;-;-;-;-;-
1512472241308;-;-;10.197388;2.1046906;2.3876953;-;-;-;-;-;-;-;-;-;-;-;-;-;-;-
1512472241328;-;-;11.225708;3.5627594;2.3158722;-;-;-;-;-;-;-;-;-;-;-;-;-;-;-
1512472241349;-;-;12.85376;3.165329;1.4790955;-;-;-;-;-;-;-;-;-;-;-;-;-;-;-
1512472241369;-;-;12.889679;1.1841278;2.1602478;-;-;-;-;-;-;-;-;-;-;-;-;-;-;-
1512472241390;-;-;13.246414;-0.6402588;-1.7674408;-;-;-;-;-;-;-;-;-;-;-;-;-;-;-
1512472241410;-;-;15.112686;1.5648041;-3.1273346;-;-;-;-;-;-;-;-;-;-;-;-;-;-;-
1512472241431;-;-;14.322601;2.5416412;-3.2793732;-;-;-;-;-;-;-;-;-;-;-;-;-;-;-
1512472241451;-;-;11.262817;1.4510803;-0.60505676;-;-;-;-;-;-;-;-;-;-;-;-;-;-;-
1512472241472;-;-;8.345474;-0.04649353;-5.7992706;-;-;-;-;-;-;-;-;-;-;-;-;-;-;-
1512472241491;-;-;7.69545;-0.6725769;-2.444992;-;-;-;-;-;-;-;-;-;-;-;-;-;-;-
1512472241512;-;-;7.494339;-0.028533936;-0.5643463;-;-;-;-;-;-;-;-;-;-;-;-;-;-;-
1512472241533;-;-;7.5206757;0.25398254;-1.0970612;-;-;-;-;-;-;-;-;-;-;-;-;-;-;-
1512472241553;-;-;8.531036;-0.22845459;-0.98812866;-;-;-;-;-;-;-;-;-;-;-;-;-;-;-
1512472241573;-;-;9.5737;-0.79348755;-0.26986694;-;-;-;-;-;-;-;-;-;-;-;-;-;-;-
1512472241594;-;-;9.584473;-1.3908386;-0.16091919;-;-;-;-;-;-;-;-;-;-;-;-;-;-;-
1512472241614;-;-;7.806778;-1.0424805;-1.2419128;-;-;-;-;-;-;-;-;-;-;-;-;-;-;-
1512472241635;-;-;7.317169;-0.838974;-0.9246826;-;-;-;-;-;-;-;-;-;-;-;-;-;-;-
1512472241656;-;-;6.6587677;-1.4578705;-0.27464294;-;-;-;-;-;-;-;-;-;-;-;-;-;-;-
1512472241676;-;-;5.0127563;-1.9594574;-0.7690582;-;-;-;-;-;-;-;-;-;-;-;-;-;-;-
1512472241696;-;-;4.117325;-1.9115753;-1.0000916;-;-;-;-;-;-;-;-;-;-;-;-;-;-;-
1512472241716;-;-;4.1532288;-1.9869995;-0.40274048;-;-;-;-;-;-;-;-;-;-;-;-;-;-;-
1512472241737;-;-;4.723053;-2.613083;-0.054382324;-;-;-;-;-;-;-;-;-;-;-;-;-;-;-
1512472241757;-;-;5.9309235;-3.005722;-0.41949463;-;-;-;-;-;-;-;-;-;-;-;-;-;-;-
1512472241778;-;-;8.265274;-2.7615204;0.8889313;-;-;-;-;-;-;-;-;-;-;-;-;-;-;-
1512472241799;-;-;11.37056;-3.0596008;1.8669586;-;-;-;-;-;-;-;-;-;-;-;-;-;-;-
1512472241819;-;-;11.930801;-3.0105133;0.7752075;-;-;-;-;-;-;-;-;-;-;-;-;-;-;-
1512472241839;-;-;11.168243;-3.6042786;0.6890106;-;-;-;-;-;-;-;-;-;-;-;-;-;-;-
1512472241859;-;-;12.319855;-5.0515747;1.2636261;-;-;-;-;-;-;-;-;-;-;-;-;-;-;-
1512472241880;-;-;12.566452;-5.669281;1.2923584;-;-;-;-;-;-;-;-;-;-;-;-;-;-;-
1512472241901;-;-;12.068466;-4.731949;0.6842346;-;-;-;-;-;-;-;-;-;-;-;-;-;-;-
1512472241921;-;-;11.762009;-2.803421;0.15510559;-;-;-;-;-;-;-;-;-;-;-;-;-;-;-
1512472241941;-;-;12.481461;-2.1677551;-2.2522583;-;-;-;-;-;-;-;-;-;-;-;-;-;-;-
1512472241961;-;-;13.187759;-2.6406097;-4.3603516;-;-;-;-;-;-;-;-;-;-;-;-;-;-;-
1512472241982;-;-;12.406052;-1.8325653;-3.041153;-;-;-;-;-;-;-;-;-;-;-;-;-;-;-
1512472242002;-;-;11.286758;-1.3417511;-3.511612;-;-;-;-;-;-;-;-;-;-;-;-;-;-;-
1512472242023;-;-;8.853058;-1.0161438;-3.2063446;-;-;-;-;-;-;-;-;-;-;-;-;-;-;-
1512472242043;-;-;8.07135;-0.47146606;-1.3640137;-;-;-;-;-;-;-;-;-;-;-;-;-;-;-
1512472242064;-;-;8.23056;-0.47265625;0.07609558;-;-;-;-;-;-;-;-;-;-;-;-;-;-;-
1512472242084;-;-;8.495117;-0.8593292;0.43522644;-;-;-;-;-;-;-;-;-;-;-;-;-;-;-
1512472242105;-;-;8.831497;-1.8253937;1.0313873;-;-;-;-;-;-;-;-;-;-;-;-;-;-;-
1512472242125;-;-;8.560959;-2.9985504;0.2448883;-;-;-;-;-;-;-;-;-;-;-;-;-;-;-
1512472242146;-;-;7.5948944;-3.0416412;-0.56674194;-;-;-;-;-;-;-;-;-;-;-;-;-;-;-
1512472242167;-;-;6.4839935;-1.7858887;-1.1102295;-;-;-;-;-;-;-;-;-;-;-;-;-;-;-
1512472242187;-;-;5.932129;-0.37330627;-1.0635376;-;-;-;-;-;-;-;-;-;-;-;-;-;-;-
1512472242207;-;-;5.679535;0.8154144;-0.8899536;-;-;-;-;-;-;-;-;-;-;-;-;-;-;-
1512472242228;-;-;5.8878326;1.4558716;-0.4338684;-;-;-;-;-;-;-;-;-;-;-;-;-;-;-
1512472242247;-;-;6.2637177;1.868866;0.074905396;-;-;-;-;-;-;-;-;-;-;-;-;-;-;-
1512472242267;-;-;6.2984314;2.4985352;0.12997437;-;-;-;-;-;-;-;-;-;-;-;-;-;-;-
1512472242288;-;-;6.2589264;2.45784;0.09526062;-;-;-;-;-;-;-;-;-;-;-;-;-;-;-
1512472242307;-;-;6.673126;1.4798126;-0.054382324;-;-;-;-;-;-;-;-;-;-;-;-;-;-;-
1512472242327;-;-;8.2114105;0.057647705;-0.0076904297;-;-;-;-;-;-;-;-;-;-;-;-;-;-;-
1512472242349;-;-;9.170288;-0.22845459;0.012649536;-;-;-;-;-;-;-;-;-;-;-;-;-;-;-
1512472242368;-;-;9.33548;-0.07762146;0.23651123;-;-;-;-;-;-;-;-;-;-;-;-;-;-;-
1512472242389;-;-;10.901291;0.20249939;1.5509338;-;-;-;-;-;-;-;-;-;-;-;-;-;-;-
1512472242410;-;-;12.275558;1.0057526;1.8873138;-;-;-;-;-;-;-;-;-;-;-;-;-;-;-
1512472242430;-;-;13.081207;2.0316772;1.0469513;-;-;-;-;-;-;-;-;-;-;-;-;-;-;-
1512472242450;-;-;12.7651825;2.6206512;2.7037354;-;-;-;-;-;-;-;-;-;-;-;-;-;-;-
1512472242471;-;-;11.948746;1.3217926;1.449173;-;-;-;-;-;-;-;-;-;-;-;-;-;-;-
1512472242492;-;-;13.661804;-0.5672302;-2.270218;-;-;-;-;-;-;-;-;-;-;-;-;-;-;-
1512472242512;-;-;14.534485;0.37010193;-2.7538452;-;-;-;-;-;-;-;-;-;-;-;-;-;-;-
1512472242533;-;-;12.585617;0.4909973;-0.45780945;-;-;-;-;-;-;-;-;-;-;-;-;-;-;-
1512472242553;-;-;9.767639;-1.1538086;-5.452118;-;-;-;-;-;-;-;-;-;-;-;-;-;-;-
1512472242573;-;-;8.304779;-0.21409607;-2.9178467;-;-;-;-;-;-;-;-;-;-;-;-;-;-;-
1512472242594;-;-;6.640808;0.7364044;-0.7391205;-;-;-;-;-;-;-;-;-;-;-;-;-;-;-
1512472242614;-;-;5.9033966;-0.39964294;-1.808136;-;-;-;-;-;-;-;-;-;-;-;-;-;-;-
1512472242635;-;-;6.7653046;-1.1238861;-2.148117;-;-;-;-;-;-;-;-;-;-;-;-;-;-;-
1512472242654;-;-;8.411316;-0.27514648;-1.440628;-;-;-;-;-;-;-;-;-;-;-;-;-;-;-
1512472242675;-;-;8.958389;0.27792358;0.38375854;-;-;-;-;-;-;-;-;-;-;-;-;-;-;-
1512472242695;-;-;8.1371765;0.41319275;0.2520752;-;-;-;-;-;-;-;-;-;-;-;-;-;-;-
1512472242715;-;-;7.4416656;0.43832397;-1.1221924;-;-;-;-;-;-;-;-;-;-;-;-;-;-;-
1512472242736;-;-;6.047043;0.13665771;-1.6285706;-;-;-;-;-;-;-;-;-;-;-;-;-;-;-
1512472242756;-;-;4.9780273;-1.1645813;0.04498291;-;-;-;-;-;-;-;-;-;-;-;-;-;-;-
1512472242777;-;-;4.244217;-2.265915;0.5920563;-;-;-;-;-;-;-;-;-;-;-;-;-;-;-
1512472242798;-;-;3.6971436;-2.9829865;-0.3081665;-;-;-;-;-;-;-;-;-;-;-;-;-;-;-
1512472242817;-;-;5.2150574;-3.5049133;-1.3017578;-;-;-;-;-;-;-;-;-;-;-;-;-;-;-
1512472242838;-;-;7.4057617;-3.4211273;-0.3620453;-;-;-;-;-;-;-;-;-;-;-;-;-;-;-
1512472242858;-;-;9.252884;-2.763916;-0.059173584;-;-;-;-;-;-;-;-;-;-;-;-;-;-;-
1512472242879;-;-;11.526184;-2.677719;1.4036865;-;-;-;-;-;-;-;-;-;-;-;-;-;-;-
1512472242899;-;-;12.783127;-3.3026123;2.2212982;-;-;-;-;-;-;-;-;-;-;-;-;-;-;-
1512472242920;-;-;12.613144;-3.2068481;0.38494873;-;-;-;-;-;-;-;-;-;-;-;-;-;-;-
1512472242940;-;-;12.238449;-2.3592987;0.9092865;-;-;-;-;-;-;-;-;-;-;-;-;-;-;-
1512472242961;-;-;10.793549;-3.8437042;0.721344;-;-;-;-;-;-;-;-;-;-;-;-;-;-;-
1512472242981;-;-;9.997482;-5.8416595;0.87934875;-;-;-;-;-;-;-;-;-;-;-;-;-;-;-
1512472243001;-;-;10.762421;-6.799347;1.4647369;-;-;-;-;-;-;-;-;-;-;-;-;-;-;-
1512472243022;-;-;10.501465;-5.6405487;0.49150085;-;-;-;-;-;-;-;-;-;-;-;-;-;-;-
1512472243042;-;-;11.101212;-2.6310425;-1.6884308;-;-;-;-;-;-;-;-;-;-;-;-;-;-;-
1512472243063;-;-;11.972702;-0.5899811;-2.7742004;-;-;-;-;-;-;-;-;-;-;-;-;-;-;-
1512472243083;-;-;12.16423;-0.3589325;-2.800537;-;-;-;-;-;-;-;-;-;-;-;-;-;-;-
1512472243104;-;-;11.832642;-1.6985016;-1.4753418;-;-;-;-;-;-;-;-;-;-;-;-;-;-;-
1512472243124;-;-;9.971146;-1.5739899;-2.0260162;-;-;-;-;-;-;-;-;-;-;-;-;-;-;-
1512472243144;-;-;9.705383;-1.3836517;-1.2299347;-;-;-;-;-;-;-;-;-;-;-;-;-;-;-
1512472243165;-;-;9.682648;-1.0424805;-0.74272156;-;-;-;-;-;-;-;-;-;-;-;-;-;-;-
1512472243185;-;-;8.739319;-0.9275665;-0.22557068;-;-;-;-;-;-;-;-;-;-;-;-;-;-;-
1512472243206;-;-;8.220978;-1.0221252;0.45439148;-;-;-;-;-;-;-;-;-;-;-;-;-;-;-
1512472243226;-;-;7.605667;-0.39485168;-0.4458313;-;-;-;-;-;-;-;-;-;-;-;-;-;-;-
1512472243246;-;-;6.680313;0.27192688;-0.95700073;-;-;-;-;-;-;-;-;-;-;-;-;-;-;-
1512472243267;-;-;7.011902;0.91238403;-1.0288239;-;-;-;-;-;-;-;-;-;-;-;-;-;-;-
1512472243287;-;-;6.9891663;0.8776703;-1.025238;-;-;-;-;-;-;-;-;-;-;-;-;-;-;-
1512472243308;-;-;6.330765;0.39164734;-0.8767853;-;-;-;-;-;-;-;-;-;-;-;-;-;-;-
1512472243329;-;-;6.2637177;0.3509369;-0.67448425;-;-;-;-;-;-;-;-;-;-;-;-;-;-;-
1512472243349;-;-;6.6144714;1.161377;-0.2459259;-;-;-;-;-;-;-;-;-;-;-;-;-;-;-
1512472243370;-;-;6.0614166;1.3636932;0.18025208;-;-;-;-;-;-;-;-;-;-;-;-;-;-;-
1512472243390;-;-;5.181549;0.6322632;0.8805542;-;-;-;-;-;-;-;-;-;-;-;-;-;-;-
1512472243411;-;-;6.158371;-0.35176086;1.2097473;-;-;-;-;-;-;-;-;-;-;-;-;-;-;-
1512472243431;-;-;7.126831;-0.5205536;1.239685;-;-;-;-;-;-;-;-;-;-;-;-;-;-;-
1512472243452;-;-;8.548981;-0.12789917;2.539734;-;-;-;-;-;-;-;-;-;-;-;-;-;-;-
1512472243472;-;-;10.234512;0.61909485;3.540512;-;-;-;-;-;-;-;-;-;-;-;-;-;-;-
1512472243493;-;-;12.124725;1.0261078;2.7719727;-;-;-;-;-;-;-;-;-;-;-;-;-;-;-
1512472243513;-;-;12.882492;1.5552216;2.0357513;-;-;-;-;-;-;-;-;-;-;-;-;-;-;-
1512472243534;-;-;12.469498;1.9227295;2.4355927;-;-;-;-;-;-;-;-;-;-;-;-;-;-;-
1512472243554;-;-;11.155075;2.0687866;2.125534;-;-;-;-;-;-;-;-;-;-;-;-;-;-;-
1512472243576;-;-;11.122757;1.7958374;-2.9717255;-;-;-;-;-;-;-;-;-;-;-;-;-;-;-
1512472243595;-;-;14.044876;2.137024;-4.250229;-;-;-;-;-;-;-;-;-;-;-;-;-;-;-
1512472243616;-;-;13.961075;3.2180023;0.3203125;-;-;-;-;-;-;-;-;-;-;-;-;-;-;-
1512472243636;-;-;15.30423;-2.8333435;-1.8392639;-;-;-;-;-;-;-;-;-;-;-;-;-;-;-
1512472243657;-;-;8.83989;-3.1098785;-3.7821503;-;-;-;-;-;-;-;-;-;-;-;-;-;-;-
1512472243677;-;-;7.5386353;-0.7491913;-0.63616943;-;-;-;-;-;-;-;-;-;-;-;-;-;-;-
1512472243698;-;-;6.8598785;-0.6438446;-1.990097;-;-;-;-;-;-;-;-;-;-;-;-;-;-;-
1512472243718;-;-;6.546234;-0.8880615;-1.9458008;-;-;-;-;-;-;-;-;-;-;-;-;-;-;-
1512472243739;-;-;6.5390472;0.28749084;-1.2670441;-;-;-;-;-;-;-;-;-;-;-;-;-;-;-
1512472243759;-;-;7.660736;0.9937897;-0.07234192;-;-;-;-;-;-;-;-;-;-;-;-;-;-;-
1512472243780;-;-;7.6703186;1.1170807;-0.12501526;-;-;-;-;-;-;-;-;-;-;-;-;-;-;-
1512472243800;-;-;7.2513275;0.512558;-1.1269836;-;-;-;-;-;-;-;-;-;-;-;-;-;-;-
1512472243821;-;-;6.8311462;-0.5528717;-0.55836487;-;-;-;-;-;-;-;-;-;-;-;-;-;-;-
1512472243841;-;-;5.231827;-2.1940918;0.23532104;-;-;-;-;-;-;-;-;-;-;-;-;-;-;-
1512472243862;-;-;4.624893;-3.218811;0.8590088;-;-;-;-;-;-;-;-;-;-;-;-;-;-;-
1512472243881;-;-;4.1089325;-3.2990112;0.2700348;-;-;-;-;-;-;-;-;-;-;-;-;-;-;-
1512472243901;-;-;4.4716644;-3.416336;-0.09867859;-;-;-;-;-;-;-;-;-;-;-;-;-;-;-
1512472243925;-;-;7.0693665;-3.7610931;0.36938477;-;-;-;-;-;-;-;-;-;-;-;-;-;-;-
1512472243945;-;-;8.458008;-3.3947906;0.60762024;-;-;-;-;-;-;-;-;-;-;-;-;-;-;-
1512472243965;-;-;10.65947;-2.471817;-0.32014465;-;-;-;-;-;-;-;-;-;-;-;-;-;-;-
1512472243986;-;-;11.593216;-2.6753235;0.070114136;-;-;-;-;-;-;-;-;-;-;-;-;-;-;-
1512472244006;-;-;11.480682;-3.0596008;0.40530396;-;-;-;-;-;-;-;-;-;-;-;-;-;-;-
1512472244027;-;-;10.77919;-2.8441162;1.29953;-;-;-;-;-;-;-;-;-;-;-;-;-;-;-
1512472244047;-;-;11.958328;-3.0488281;1.7472534;-;-;-;-;-;-;-;-;-;-;-;-;-;-;-
1512472244068;-;-;10.625961;-3.3720398;1.0206146;-;-;-;-;-;-;-;-;-;-;-;-;-;-;-
1512472244088;-;-;9.033813;-4.297394;0.60401917;-;-;-;-;-;-;-;-;-;-;-;-;-;-;-
1512472244108;-;-;10.125565;-5.7063904;2.0058289;-;-;-;-;-;-;-;-;-;-;-;-;-;-;-
1512472244130;-;-;11.347809;-5.575897;1.6826019;-;-;-;-;-;-;-;-;-;-;-;-;-;-;-
1512472244150;-;-;12.117538;-2.9506683;1.0110321;-;-;-;-;-;-;-;-;-;-;-;-;-;-;-
1512472244171;-;-;12.61673;-1.8421478;-1.2359161;-;-;-;-;-;-;-;-;-;-;-;-;-;-;-
1512472244191;-;-;14.506958;-2.6992645;-2.7167358;-;-;-;-;-;-;-;-;-;-;-;-;-;-;-
1512472244211;-;-;13.059662;-2.9386902;-3.6708221;-;-;-;-;-;-;-;-;-;-;-;-;-;-;-
1512472244232;-;-;11.09642;-3.0236816;-2.8544006;-;-;-;-;-;-;-;-;-;-;-;-;-;-;-
1512472244251;-;-;9.649124;-1.333374;-1.5651245;-;-;-;-;-;-;-;-;-;-;-;-;-;-;-
1512472244272;-;-;10.045364;-0.14346313;-1.1652985;-;-;-;-;-;-;-;-;-;-;-;-;-;-;-
1512472244292;-;-;9.092468;0.21806335;-1.6070251;-;-;-;-;-;-;-;-;-;-;-;-;-;-;-
1512472244313;-;-;8.197037;0.22045898;-0.29260254;-;-;-;-;-;-;-;-;-;-;-;-;-;-;-
1512472244334;-;-;8.009094;-0.5169525;0.8829498;-;-;-;-;-;-;-;-;-;-;-;-;-;-;-
1512472244354;-;-;7.355484;-1.2447968;-0.11303711;-;-;-;-;-;-;-;-;-;-;-;-;-;-;-
1512472244375;-;-;6.1871033;-1.5727997;-0.8360901;-;-;-;-;-;-;-;-;-;-;-;-;-;-;-
1512472244395;-;-;5.6855164;-1.2471924;-0.7008209;-;-;-;-;-;-;-;-;-;-;-;-;-;-;-
1512472244416;-;-;5.14682;-0.6067352;-0.5715332;-;-;-;-;-;-;-;-;-;-;-;-;-;-;-
1512472244436;-;-;5.273712;0.46705627;-0.8600311;-;-;-;-;-;-;-;-;-;-;-;-;-;-;-
1512472244457;-;-;5.628067;1.96344;-0.8456726;-;-;-;-;-;-;-;-;-;-;-;-;-;-;-
1512472244476;-;-;6.221817;2.2567291;-0.5787201;-;-;-;-;-;-;-;-;-;-;-;-;-;-;-
1512472244497;-;-;6.4061737;2.4075623;-0.44343567;-;-;-;-;-;-;-;-;-;-;-;-;-;-;-
1512472244517;-;-;6.2158356;2.086731;0.2448883;-;-;-;-;-;-;-;-;-;-;-;-;-;-;-
1512472244537;-;-;6.664749;1.0955353;0.64352417;-;-;-;-;-;-;-;-;-;-;-;-;-;-;-
1512472244558;-;-;7.766083;0.30065918;0.3789673;-;-;-;-;-;-;-;-;-;-;-;-;-;-;-
1512472244579;-;-;8.559753;-0.059661865;-0.016082764;-;-;-;-;-;-;-;-;-;-;-;-;-;-;-
1512472244599;-;-;8.424484;0.22525024;0.9990692;-;-;-;-;-;-;-;-;-;-;-;-;-;-;-
1512472244620;-;-;9.953186;0.32460022;1.785553;-;-;-;-;-;-;-;-;-;-;-;-;-;-;-
1512472244642;-;-;10.652298;1.051239;1.2181396;-;-;-;-;-;-;-;-;-;-;-;-;-;-;-
1512472244662;-;-;10.578079;1.5635986;1.3582001;-;-;-;-;-;-;-;-;-;-;-;-;-;-;-
1512472244682;-;-;10.588852;2.9318848;1.0565186;-;-;-;-;-;-;-;-;-;-;-;-;-;-;-
1512472244702;-;-;9.1128235;4.8424683;1.1499023;-;-;-;-;-;-;-;-;-;-;-;-;-;-;-
1512472244723;-;-;9.708984;4.161316;2.896469;-;-;-;-;-;-;-;-;-;-;-;-;-;-;-
1512472244742;-;-;10.889313;1.5600128;1.5569153;-;-;-;-;-;-;-;-;-;-;-;-;-;-;-
1512472244762;-;-;12.680176;0.2815094;-1.863205;-;-;-;-;-;-;-;-;-;-;-;-;-;-;-
1512472244783;-;-;14.906784;2.1801147;-3.7785645;-;-;-;-;-;-;-;-;-;-;-;-;-;-;-
1512472244803;-;-;18.471756;4.8041534;0.5118408;-;-;-;-;-;-;-;-;-;-;-;-;-;-;-
1512472244826;-;-;16.39;4.032028;-4.4477386;-;-;-;-;-;-;-;-;-;-;-;-;-;-;-
1512472244845;-;-;10.985092;1.1470184;-3.8396149;-;-;-;-;-;-;-;-;-;-;-;-;-;-;-
1512472244865;-;-;7.138809;-0.58399963;-1.4645691;-;-;-;-;-;-;-;-;-;-;-;-;-;-;-
1512472244885;-;-;4.438141;-1.8457336;-1.8823547;-;-;-;-;-;-;-;-;-;-;-;-;-;-;-
1512472244906;-;-;5.5191193;-2.8022156;-2.08107;-;-;-;-;-;-;-;-;-;-;-;-;-;-;-
1512472244926;-;-;8.216187;-2.5041504;-1.8248901;-;-;-;-;-;-;-;-;-;-;-;-;-;-;-
1512472244947;-;-;10.374573;-1.3860474;-1.5172424;-;-;-;-;-;-;-;-;-;-;-;-;-;-;-
1512472244967;-;-;10.862976;0.3282013;-0.5978699;-;-;-;-;-;-;-;-;-;-;-;-;-;-;-
1512472244987;-;-;8.630386;2.3465118;-0.42070007;-;-;-;-;-;-;-;-;-;-;-;-;-;-;-
1512472245008;-;-;6.525879;2.1585693;-0.121414185;-;-;-;-;-;-;-;-;-;-;-;-;-;-;-
1512472245027;-;-;4.7996674;0.92674255;-0.456604;-;-;-;-;-;-;-;-;-;-;-;-;-;-;-
1512472245047;-;-;3.9197998;-0.49661255;-0.7606659;-;-;-;-;-;-;-;-;-;-;-;-;-;-;-
1512472245068;-;-;3.4960175;-1.617096;-0.8899536;-;-;-;-;-;-;-;-;-;-;-;-;-;-;-
1512472245087;-;-;3.1632233;-2.6825104;-0.39315796;-;-;-;-;-;-;-;-;-;-;-;-;-;-;-
1512472245107;-;-;4.169998;-4.1178284;0.072509766;-;-;-;-;-;-;-;-;-;-;-;-;-;-;-
1512472245128;-;-;6.501938;-5.112625;0.3885498;-;-;-;-;-;-;-;-;-;-;-;-;-;-;-
1512472245148;-;-;8.435257;-4.921097;0.6531067;-;-;-;-;-;-;-;-;-;-;-;-;-;-;-
1512472245169;-;-;9.655106;-4.644562;0.5704956;-;-;-;-;-;-;-;-;-;-;-;-;-;-;-
1512472245190;-;-;9.5677185;-4.1142426;0.025817871;-;-;-;-;-;-;-;-;-;-;-;-;-;-;-
1512472245211;-;-;9.63475;-3.325348;-0.9258728;-;-;-;-;-;-;-;-;-;-;-;-;-;-;-
1512472245231;-;-;9.98671;-2.6513824;-1.2909851;-;-;-;-;-;-;-;-;-;-;-;-;-;-;-
1512472245252;-;-;8.932053;-1.8720703;-0.30937195;-;-;-;-;-;-;-;-;-;-;-;-;-;-;-
1512472245272;-;-;9.25528;-1.7882843;0.21855164;-;-;-;-;-;-;-;-;-;-;-;-;-;-;-
1512472245293;-;-;9.303162;-2.353302;0.065322876;-;-;-;-;-;-;-;-;-;-;-;-;-;-;-
1512472245313;-;-;9.541382;-2.9147491;-0.08430481;-;-;-;-;-;-;-;-;-;-;-;-;-;-;-
1512472245333;-;-;9.586868;-2.8884125;0.7428894;-;-;-;-;-;-;-;-;-;-;-;-;-;-;-
1512472245354;-;-;9.461182;-3.6114655;1.2348938;-;-;-;-;-;-;-;-;-;-;-;-;-;-;-
1512472245374;-;-;10.722916;-4.527237;1.8166809;-;-;-;-;-;-;-;-;-;-;-;-;-;-;-
1512472245394;-;-;11.542938;-5.318527;1.796341;-;-;-;-;-;-;-;-;-;-;-;-;-;-;-
1512472245415;-;-;11.489059;-6.172058;0.92245483;-;-;-;-;-;-;-;-;-;-;-;-;-;-;-
1512472245436;-;-;10.794754;-6.787369;0.31552124;-;-;-;-;-;-;-;-;-;-;-;-;-;-;-
1512472245456;-;-;11.271194;-7.223114;0.43043518;-;-;-;-;-;-;-;-;-;-;-;-;-;-;-
1512472245476;-;-;13.72525;-7.039963;0.065322876;-;-;-;-;-;-;-;-;-;-;-;-;-;-;-
1512472245497;-;-;14.991791;-4.5763245;0.25447083;-;-;-;-;-;-;-;-;-;-;-;-;-;-;-
1512472245517;-;-;13.895233;-0.2966919;-1.9410095;-;-;-;-;-;-;-;-;-;-;-;-;-;-;-
1512472245537;-;-;10.757645;2.7331696;-3.5032349;-;-;-;-;-;-;-;-;-;-;-;-;-;-;-
1512472245558;-;-;6.4001923;3.0899048;-1.8835602;-;-;-;-;-;-;-;-;-;-;-;-;-;-;-
1512472245578;-;-;7.0729675;-0.43554688;0.83625793;-;-;-;-;-;-;-;-;-;-;-;-;-;-;-
1512472245599;-;-;6.3846283;-2.4610443;1.136734;-;-;-;-;-;-;-;-;-;-;-;-;-;-;-
1512472245619;-;-;6.600113;-3.1601563;0.85780334;-;-;-;-;-;-;-;-;-;-;-;-;-;-;-
1512472245639;-;-;7.9552307;-3.052414;0.81710815;-;-;-;-;-;-;-;-;-;-;-;-;-;-;-
1512472245659;-;-;8.873398;-2.0624084;1.2193298;-;-;-;-;-;-;-;-;-;-;-;-;-;-;-
1512472245680;-;-;8.813553;-1.6781464;0.8314667;-;-;-;-;-;-;-;-;-;-;-;-;-;-;-
1512472245701;-;-;8.228165;-1.6529999;-2.175644;-;-;-;-;-;-;-;-;-;-;-;-;-;-;-
1512472245720;-;-;7.1687317;-1.4375305;-2.9753113;-;-;-;-;-;-;-;-;-;-;-;-;-;-;-
1512472245741;-;-;6.308014;-0.18057251;-1.4023132;-;-;-;-;-;-;-;-;-;-;-;-;-;-;-
1512472245761;-;-;4.75058;0.95428467;-0.72476196;-;-;-;-;-;-;-;-;-;-;-;-;-;-;-
1512472245782;-;-;3.7019196;1.7228241;0.27122498;-;-;-;-;-;-;-;-;-;-;-;-;-;-;-
1512472245802;-;-;4.271744;2.0532227;0.28799438;-;-;-;-;-;-;-;-;-;-;-;-;-;-;-
1512472245823;-;-;6.1871033;1.3373566;0.79556274;-;-;-;-;-;-;-;-;-;-;-;-;-;-;-
1512472245843;-;-;7.645172;0.17018127;0.80752563;-;-;-;-;-;-;-;-;-;-;-;-;-;-;-
1512472245864;-;-;8.712982;-0.28831482;0.55015564;-;-;-;-;-;-;-;-;-;-;-;-;-;-;-
1512472245884;-;-;9.448013;-0.24162292;0.13595581;-;-;-;-;-;-;-;-;-;-;-;-;-;-;-
1512472245905;-;-;9.661087;0.14743042;0.15151978;-;-;-;-;-;-;-;-;-;-;-;-;-;-;-
1512472245924;-;-;9.613205;0.61190796;0.6136017;-;-;-;-;-;-;-;-;-;-;-;-;-;-;-
1512472245945;-;-;9.3151245;0.96984863;1.3486176;-;-;-;-;-;-;-;-;-;-;-;-;-;-;-
1512472245966;-;-;8.673492;1.2966461;1.0050507;-;-;-;-;-;-;-;-;-;-;-;-;-;-;-
1512472245986;-;-;7.6655273;1.8161926;0.9272461;-;-;-;-;-;-;-;-;-;-;-;-;-;-;-
1512472246007;-;-;7.0418396;1.9466705;2.4152374;-;-;-;-;-;-;-;-;-;-;-;-;-;-;-
1512472246027;-;-;6.94368;1.4307251;3.8589325;-;-;-;-;-;-;-;-;-;-;-;-;-;-;-
1512472246048;-;-;6.554611;0.66937256;3.959488;-;-;-;-;-;-;-;-;-;-;-;-;-;-;-
1512472246068;-;-;8.455612;0.055252075;2.6893768;-;-;-;-;-;-;-;-;-;-;-;-;-;-;-
1512472246089;-;-;10.083664;-0.47027588;2.2009583;-;-;-;-;-;-;-;-;-;-;-;-;-;-;-
1512472246109;-;-;11.297531;-0.08241272;2.7803497;-;-;-;-;-;-;-;-;-;-;-;-;-;-;-
1512472246130;-;-;12.34021;0.02772522;3.7308502;-;-;-;-;-;-;-;-;-;-;-;-;-;-;-
1512472246150;-;-;11.083252;0.038497925;0.89730835;-;-;-;-;-;-;-;-;-;-;-;-;-;-;-
1512472246170;-;-;12.869324;-0.12789917;0.55015564;-;-;-;-;-;-;-;-;-;-;-;-;-;-;-
1512472246191;-;-;15.4574585;1.3074188;0.36938477;-;-;-;-;-;-;-;-;-;-;-;-;-;-;-
1512472246211;-;-;14.344147;0.61909485;-1.8847504;-;-;-;-;-;-;-;-;-;-;-;-;-;-;-
1512472246232;-;-;12.449142;-0.22845459;-4.044327;-;-;-;-;-;-;-;-;-;-;-;-;-;-;-
1512472246251;-;-;10.040573;-1.1430359;-4.3352203;-;-;-;-;-;-;-;-;-;-;-;-;-;-;-
1512472246272;-;-;5.921356;-1.906784;-2.100235;-;-;-;-;-;-;-;-;-;-;-;-;-;-;-
1512472246292;-;-;4.7050934;-1.4351349;-1.0910797;-;-;-;-;-;-;-;-;-;-;-;-;-;-;-
1512472246313;-;-;6.383438;-0.5756073;-1.2478943;-;-;-;-;-;-;-;-;-;-;-;-;-;-;-
1512472246332;-;-;7.375824;0.067230225;-2.115799;-;-;-;-;-;-;-;-;-;-;-;-;-;-;-
1512472246353;-;-;8.657928;1.1374359;-1.9529877;-;-;-;-;-;-;-;-;-;-;-;-;-;-;-
1512472246373;-;-;12.078033;1.1398315;-1.3735962;-;-;-;-;-;-;-;-;-;-;-;-;-;-;-
1512472246394;-;-;11.890091;0.088775635;-2.0283966;-;-;-;-;-;-;-;-;-;-;-;-;-;-;-
1512472246413;-;-;9.3546295;-0.7910919;-2.1780396;-;-;-;-;-;-;-;-;-;-;-;-;-;-;-
1512472246433;-;-;7.008316;-1.3357697;-1.990097;-;-;-;-;-;-;-;-;-;-;-;-;-;-;-
1512472246454;-;-;5.5394745;-2.2012787;-2.1672668;-;-;-;-;-;-;-;-;-;-;-;-;-;-;-
1512472246474;-;-;5.971634;-2.7196198;-1.2526855;-;-;-;-;-;-;-;-;-;-;-;-;-;-;-
1512472246495;-;-;7.61644;-3.2463531;0.4005127;-;-;-;-;-;-;-;-;-;-;-;-;-;-;-
1512472246515;-;-;9.546173;-3.6641388;1.0756836;-;-;-;-;-;-;-;-;-;-;-;-;-;-;-
1512472246535;-;-;9.980713;-4.0783234;0.90808105;-;-;-;-;-;-;-;-;-;-;-;-;-;-;-
1512472246556;-;-;9.876572;-4.2638855;0.65190125;-;-;-;-;-;-;-;-;-;-;-;-;-;-;-
1512472246577;-;-;9.285202;-3.471405;1.1905975;-;-;-;-;-;-;-;-;-;-;-;-;-;-;-
1512472246597;-;-;7.969589;-2.3497162;1.8825226;-;-;-;-;-;-;-;-;-;-;-;-;-;-;-
1512472246617;-;-;7.4799805;-1.7894745;2.1267395;-;-;-;-;-;-;-;-;-;-;-;-;-;-;-
1512472246638;-;-;8.18866;-1.6087189;1.8466187;-;-;-;-;-;-;-;-;-;-;-;-;-;-;-
1512472246657;-;-;9.066132;-2.0947418;1.3438263;-;-;-;-;-;-;-;-;-;-;-;-;-;-;-
1512472246678;-;-;9.33548;-2.7016602;1.4838867;-;-;-;-;-;-;-;-;-;-;-;-;-;-;-
1512472246698;-;-;9.37619;-2.2407837;1.6191559;-;-;-;-;-;-;-;-;-;-;-;-;-;-;-
1512472246719;-;-;9.667084;-1.3321838;1.4659271;-;-;-;-;-;-;-;-;-;-;-;-;-;-;-
1512472246740;-;-;9.464767;-0.60554504;0.23171997;-;-;-;-;-;-;-;-;-;-;-;-;-;-;-
1512472246760;-;-;9.617996;-0.095581055;1.5497284;-;-;-;-;-;-;-;-;-;-;-;-;-;-;-
1512472246780;-;-;8.875793;0.18334961;2.3206635;-;-;-;-;-;-;-;-;-;-;-;-;-;-;-
1512472246801;-;-;8.256897;-0.21647644;1.583252;-;-;-;-;-;-;-;-;-;-;-;-;-;-;-
1512472246821;-;-;9.434845;-1.6673737;-3.8791199;-;-;-;-;-;-;-;-;-;-;-;-;-;-;-
1512472246845;-;-;15.777084;-1.0903625;-2.6473083;-;-;-;-;-;-;-;-;-;-;-;-;-;-;-
1512472246863;-;-;18.897919;-4.6086426;-4.8188477;-;-;-;-;-;-;-;-;-;-;-;-;-;-;-
1512472246883;-;-;11.080856;-4.5847015;-5.859131;-;-;-;-;-;-;-;-;-;-;-;-;-;-;-
1512472246903;-;-;7.9228973;-2.9913635;-3.1716309;-;-;-;-;-;-;-;-;-;-;-;-;-;-;-
1512472246924;-;-;5.5191193;-0.49661255;0.06413269;-;-;-;-;-;-;-;-;-;-;-;-;-;-;-
1512472246945;-;-;8.382584;0.6214905;0.8123169;-;-;-;-;-;-;-;-;-;-;-;-;-;-;-
1512472246965;-;-;8.515472;1.6653595;0.8482361;-;-;-;-;-;-;-;-;-;-;-;-;-;-;-
