TimeStamp[ms];Prox[Cm];Lux[lux];AccX[m/s^2];AccY[m/s^2];AccZ[m/s^2];GyroX[rad/s];GyroY[rad/s];GyroZ[rad/s];MagnX[uT];MagnY[uT];MagnZ[uT];OrienYaw[degrees];OrienPitch[degrees];OrienRoll[degrees];Press[Pa];Temp[C°];Batt[%];Lat;Lng;Speed[m/s]
1512472277988;-;-;8.970367;-0.6689911;1.804718;-;-;-;-;-;-;-;-;-;-;-;-;-;-;-
1512472277992;-;-;8.973953;-0.6498413;1.6969757;-;-;-;-;-;-;-;-;-;-;-;-;-;-;-
1512472278013;-;-;9.14035;-0.77552795;1.3761444;-;-;-;-;-;-;-;-;-;-;-;-;-;-;-
1512472278033;-;-;9.125992;-0.5612488;1.6610565;-;-;-;-;-;-;-;-;-;-;-;-;-;-;-
1512472278053;-;-;8.98233;-0.5504761;1.8118896;-;-;-;-;-;-;-;-;-;-;-;-;-;-;-
1512472278074;-;-;9.487518;-1.190918;1.3522034;-;-;-;-;-;-;-;-;-;-;-;-;-;-;-
1512472278094;-;-;9.209793;-0.8186188;0.91526794;-;-;-;-;-;-;-;-;-;-;-;-;-;-;-
1512472278116;-;-;9.094864;-0.64505005;1.1798248;-;-;-;-;-;-;-;-;-;-;-;-;-;-;-
1512472278136;-;-;8.964386;-0.46188354;0.88414;-;-;-;-;-;-;-;-;-;-;-;-;-;-;-
1512472278156;-;-;10.944382;-2.5292816;14.654388;-;-;-;-;-;-;-;-;-;-;-;-;-;-;-
1512472278177;-;-;6.673126;0.9530792;-8.645981;-;-;-;-;-;-;-;-;-;-;-;-;-;-;-
1512472278198;-;-;11.730881;-0.9191742;0.4902954;-;-;-;-;-;-;-;-;-;-;-;-;-;-;-
1512472278218;-;-;7.3459015;-0.71687317;1.6526794;-;-;-;-;-;-;-;-;-;-;-;-;-;-;-
1512472278241;-;-;8.745316;-1.0843811;1.37854;-;-;-;-;-;-;-;-;-;-;-;-;-;-;-
1512472278260;-;-;8.97995;-0.3481598;0.14912415;-;-;-;-;-;-;-;-;-;-;-;-;-;-;-
1512472278279;-;-;9.566528;0.38685608;2.3637543;-;-;-;-;-;-;-;-;-;-;-;-;-;-;-
1512472278300;-;-;9.128387;-0.44752502;-0.07473755;-;-;-;-;-;-;-;-;-;-;-;-;-;-;-
1512472278320;-;-;7.9995117;-0.9910126;2.0752563;-;-;-;-;-;-;-;-;-;-;-;-;-;-;-
1512472278340;-;-;10.367386;-0.63905334;-0.69244385;-;-;-;-;-;-;-;-;-;-;-;-;-;-;-
1512472278361;-;-;9.007477;-0.6582184;-0.45541382;-;-;-;-;-;-;-;-;-;-;-;-;-;-;-
1512472278381;-;-;9.525818;-0.7671509;1.033783;-;-;-;-;-;-;-;-;-;-;-;-;-;-;-
1512472278402;-;-;9.210983;-0.96347046;0.15151978;-;-;-;-;-;-;-;-;-;-;-;-;-;-;-
1512472278422;-;-;9.930435;-0.85095215;0.18623352;-;-;-;-;-;-;-;-;-;-;-;-;-;-;-
1512472278443;-;-;9.658707;-0.42477417;0.9930725;-;-;-;-;-;-;-;-;-;-;-;-;-;-;-
1512472278463;-;-;9.419281;-0.38049316;0.73809814;-;-;-;-;-;-;-;-;-;-;-;-;-;-;-
1512472278484;-;-;9.301956;-0.3182373;0.6100006;-;-;-;-;-;-;-;-;-;-;-;-;-;-;-
1512472278504;-;-;8.784821;-0.60913086;0.62197876;-;-;-;-;-;-;-;-;-;-;-;-;-;-;-
1512472278523;-;-;9.181061;-0.4738617;1.2013702;-;-;-;-;-;-;-;-;-;-;-;-;-;-;-
1512472278544;-;-;8.562149;-0.37928772;0.57528687;-;-;-;-;-;-;-;-;-;-;-;-;-;-;-
1512472278564;-;-;8.885376;-0.463089;0.6638794;-;-;-;-;-;-;-;-;-;-;-;-;-;-;-
1512472278585;-;-;8.971558;-0.49421692;1.0828552;-;-;-;-;-;-;-;-;-;-;-;-;-;-;-
1512472278605;-;-;8.381393;-0.9934082;-0.04600525;-;-;-;-;-;-;-;-;-;-;-;-;-;-;-
1512472278626;-;-;8.569336;-0.8497467;0.3933258;-;-;-;-;-;-;-;-;-;-;-;-;-;-;-
1512472278646;-;-;10.494278;-0.75398254;0.44480896;-;-;-;-;-;-;-;-;-;-;-;-;-;-;-
1512472278666;-;-;8.562149;-0.023742676;0.68782043;-;-;-;-;-;-;-;-;-;-;-;-;-;-;-
1512472278687;-;-;9.679047;-0.89045715;1.5617065;-;-;-;-;-;-;-;-;-;-;-;-;-;-;-
1512472278707;-;-;10.260834;-1.1765594;2.002243;-;-;-;-;-;-;-;-;-;-;-;-;-;-;-
1512472278728;-;-;9.534195;-0.7551727;-3.2853546;-;-;-;-;-;-;-;-;-;-;-;-;-;-;-
1512472278748;-;-;7.106476;-0.6821594;-0.7666626;-;-;-;-;-;-;-;-;-;-;-;-;-;-;-
1512472278769;-;-;10.505051;-0.8772888;1.8825226;-;-;-;-;-;-;-;-;-;-;-;-;-;-;-
1512472278791;-;-;11.214935;-1.8660889;-0.09388733;-;-;-;-;-;-;-;-;-;-;-;-;-;-;-
1512472278811;-;-;9.205002;-0.23803711;1.53656;-;-;-;-;-;-;-;-;-;-;-;-;-;-;-
1512472278832;-;-;6.2828674;0.013366699;-0.7558899;-;-;-;-;-;-;-;-;-;-;-;-;-;-;-
1512472278852;-;-;9.841858;-1.2986603;1.2241211;-;-;-;-;-;-;-;-;-;-;-;-;-;-;-
1512472278873;-;-;10.104019;-0.7503967;-0.32014465;-;-;-;-;-;-;-;-;-;-;-;-;-;-;-
1512472278893;-;-;10.294357;0.8273926;0.9523773;-;-;-;-;-;-;-;-;-;-;-;-;-;-;-
1512472278914;-;-;8.450821;1.0452576;-0.4338684;-;-;-;-;-;-;-;-;-;-;-;-;-;-;-
1512472278934;-;-;7.881012;0.72802734;0.060531616;-;-;-;-;-;-;-;-;-;-;-;-;-;-;-
1512472278955;-;-;9.747284;-0.30625916;0.12637329;-;-;-;-;-;-;-;-;-;-;-;-;-;-;-
1512472278975;-;-;10.313507;0.0025787354;-0.044799805;-;-;-;-;-;-;-;-;-;-;-;-;-;-;-
1512472278996;-;-;9.972336;0.38565063;-0.6253967;-;-;-;-;-;-;-;-;-;-;-;-;-;-;-
1512472279016;-;-;9.461182;0.37368774;1.2241211;-;-;-;-;-;-;-;-;-;-;-;-;-;-;-
1512472279037;-;-;8.662704;-0.5564575;0.6746521;-;-;-;-;-;-;-;-;-;-;-;-;-;-;-
1512472279057;-;-;8.699814;0.29467773;1.2612305;-;-;-;-;-;-;-;-;-;-;-;-;-;-;-
1512472279077;-;-;10.107605;-0.42118835;3.3417969;-;-;-;-;-;-;-;-;-;-;-;-;-;-;-
1512472279098;-;-;8.283234;0.57121277;-2.0307922;-;-;-;-;-;-;-;-;-;-;-;-;-;-;-
1512472279118;-;-;6.9712067;0.069625854;0.9116821;-;-;-;-;-;-;-;-;-;-;-;-;-;-;-
1512472279139;-;-;9.628769;-0.14225769;1.6646576;-;-;-;-;-;-;-;-;-;-;-;-;-;-;-
1512472279159;-;-;8.8003845;-0.18296814;0.40290833;-;-;-;-;-;-;-;-;-;-;-;-;-;-;-
1512472279179;-;-;9.412094;-0.02973938;0.9607544;-;-;-;-;-;-;-;-;-;-;-;-;-;-;-
1512472279200;-;-;9.369003;-0.12908936;0.8661804;-;-;-;-;-;-;-;-;-;-;-;-;-;-;-
1512472279220;-;-;9.442017;-0.2966919;0.7033844;-;-;-;-;-;-;-;-;-;-;-;-;-;-;-
1512472279241;-;-;9.215775;-0.03930664;0.74528503;-;-;-;-;-;-;-;-;-;-;-;-;-;-;-
1512472279262;-;-;9.099655;0.04447937;0.95118713;-;-;-;-;-;-;-;-;-;-;-;-;-;-;-
1512472279282;-;-;9.346252;0.05645752;0.98350525;-;-;-;-;-;-;-;-;-;-;-;-;-;-;-
1512472279303;-;-;9.571304;-0.03453064;1.0158234;-;-;-;-;-;-;-;-;-;-;-;-;-;-;-
1512472279323;-;-;9.649124;0.012161255;0.9344177;-;-;-;-;-;-;-;-;-;-;-;-;-;-;-
1512472279342;-;-;9.500687;0.19412231;1.1463013;-;-;-;-;-;-;-;-;-;-;-;-;-;-;-
1512472279362;-;-;9.337875;0.38804626;1.1714478;-;-;-;-;-;-;-;-;-;-;-;-;-;-;-
1512472279383;-;-;9.250488;0.31263733;1.2085571;-;-;-;-;-;-;-;-;-;-;-;-;-;-;-
1512472279403;-;-;9.115219;0.2850952;1.2480621;-;-;-;-;-;-;-;-;-;-;-;-;-;-;-
1512472279424;-;-;8.750107;0.1618042;1.2767944;-;-;-;-;-;-;-;-;-;-;-;-;-;-;-
1512472279444;-;-;8.501099;0.040893555;1.4922638;-;-;-;-;-;-;-;-;-;-;-;-;-;-;-
1512472279465;-;-;8.149155;-0.074035645;1.9304047;-;-;-;-;-;-;-;-;-;-;-;-;-;-;-
1512472279485;-;-;8.18866;-0.2787323;2.132721;-;-;-;-;-;-;-;-;-;-;-;-;-;-;-
1512472279505;-;-;8.629196;-0.39964294;2.1662445;-;-;-;-;-;-;-;-;-;-;-;-;-;-;-
1512472279526;-;-;8.72377;-0.14704895;2.1004028;-;-;-;-;-;-;-;-;-;-;-;-;-;-;-
1512472279546;-;-;8.969162;0.25517273;1.9519501;-;-;-;-;-;-;-;-;-;-;-;-;-;-;-
1512472279566;-;-;9.215775;0.45988464;1.9052734;-;-;-;-;-;-;-;-;-;-;-;-;-;-;-
1512472279587;-;-;9.041;0.7902832;1.2815857;-;-;-;-;-;-;-;-;-;-;-;-;-;-;-
1512472279607;-;-;9.06015;0.8621063;1.2935486;-;-;-;-;-;-;-;-;-;-;-;-;-;-;-
1512472279627;-;-;9.155914;0.6837311;0.9499817;-;-;-;-;-;-;-;-;-;-;-;-;-;-;-
1512472279648;-;-;9.207397;0.41079712;0.79556274;-;-;-;-;-;-;-;-;-;-;-;-;-;-;-
1512472279667;-;-;9.263657;0.32699585;0.4507904;-;-;-;-;-;-;-;-;-;-;-;-;-;-;-
1512472279687;-;-;9.054169;-0.02255249;1.073288;-;-;-;-;-;-;-;-;-;-;-;-;-;-;-
1512472279708;-;-;8.847061;-0.660614;1.2648163;-;-;-;-;-;-;-;-;-;-;-;-;-;-;-
1512472279729;-;-;9.076904;-1.4638672;0.48789978;-;-;-;-;-;-;-;-;-;-;-;-;-;-;-
1512472279749;-;-;8.796783;-2.135437;0.75006104;-;-;-;-;-;-;-;-;-;-;-;-;-;-;-
1512472279770;-;-;8.229355;-2.8249664;1.5652924;-;-;-;-;-;-;-;-;-;-;-;-;-;-;-
1512472279789;-;-;7.8570557;-3.0141144;1.9914551;-;-;-;-;-;-;-;-;-;-;-;-;-;-;-
1512472279810;-;-;8.587296;-2.230011;2.0728607;-;-;-;-;-;-;-;-;-;-;-;-;-;-;-
1512472279831;-;-;10.167465;-1.234024;2.0201874;-;-;-;-;-;-;-;-;-;-;-;-;-;-;-
1512472279852;-;-;11.108383;-0.00579834;1.2324982;-;-;-;-;-;-;-;-;-;-;-;-;-;-;-
1512472279873;-;-;11.032974;0.43952942;1.4743195;-;-;-;-;-;-;-;-;-;-;-;-;-;-;-
1512472279893;-;-;9.47554;0.02772522;1.7664032;-;-;-;-;-;-;-;-;-;-;-;-;-;-;-
1512472279913;-;-;8.535812;-0.6701813;1.5114288;-;-;-;-;-;-;-;-;-;-;-;-;-;-;-
1512472279934;-;-;7.8367157;-1.4530945;1.5628967;-;-;-;-;-;-;-;-;-;-;-;-;-;-;-
1512472279954;-;-;7.8546753;-2.103119;1.6335297;-;-;-;-;-;-;-;-;-;-;-;-;-;-;-
1512472279975;-;-;8.126404;-2.0432587;1.4156494;-;-;-;-;-;-;-;-;-;-;-;-;-;-;-
1512472279994;-;-;8.558563;-1.9498901;1.6443024;-;-;-;-;-;-;-;-;-;-;-;-;-;-;-
1512472280015;-;-;8.542999;-1.8840485;1.7759857;-;-;-;-;-;-;-;-;-;-;-;-;-;-;-
1512472280036;-;-;8.507095;-1.819397;1.9112549;-;-;-;-;-;-;-;-;-;-;-;-;-;-;-
1512472280056;-;-;8.553772;-2.1713562;1.8980865;-;-;-;-;-;-;-;-;-;-;-;-;-;-;-
1512472280076;-;-;8.378998;-2.6023102;1.8585815;-;-;-;-;-;-;-;-;-;-;-;-;-;-;-
1512472280097;-;-;8.406525;-3.1924744;1.9076691;-;-;-;-;-;-;-;-;-;-;-;-;-;-;-
1512472280118;-;-;8.732147;-3.775467;1.9160461;-;-;-;-;-;-;-;-;-;-;-;-;-;-;-
1512472280140;-;-;9.392944;-4.24234;1.5976105;-;-;-;-;-;-;-;-;-;-;-;-;-;-;-
1512472280160;-;-;9.564133;-3.8065948;1.8106995;-;-;-;-;-;-;-;-;-;-;-;-;-;-;-
1512472280180;-;-;9.876572;-3.249939;1.9471741;-;-;-;-;-;-;-;-;-;-;-;-;-;-;-
1512472280201;-;-;9.8993225;-3.2307892;1.4707184;-;-;-;-;-;-;-;-;-;-;-;-;-;-;-
1512472280222;-;-;10.4092865;-2.317398;0.50704956;-;-;-;-;-;-;-;-;-;-;-;-;-;-;-
1512472280242;-;-;10.962341;-0.6618042;0.43643188;-;-;-;-;-;-;-;-;-;-;-;-;-;-;-
1512472280262;-;-;9.534195;-1.9103851;-0.44343567;-;-;-;-;-;-;-;-;-;-;-;-;-;-;-
1512472280282;-;-;9.195419;-3.0069275;0.57170105;-;-;-;-;-;-;-;-;-;-;-;-;-;-;-
1512472280303;-;-;10.995865;-3.6078644;0.18862915;-;-;-;-;-;-;-;-;-;-;-;-;-;-;-
1512472280323;-;-;12.227676;-3.0703735;0.115600586;-;-;-;-;-;-;-;-;-;-;-;-;-;-;-
1512472280344;-;-;11.407669;-2.0684052;-0.551178;-;-;-;-;-;-;-;-;-;-;-;-;-;-;-
1512472280364;-;-;9.9436035;-0.44752502;-0.9809418;-;-;-;-;-;-;-;-;-;-;-;-;-;-;-
1512472280385;-;-;8.680664;1.5193176;-0.6804657;-;-;-;-;-;-;-;-;-;-;-;-;-;-;-
1512472280406;-;-;7.530258;2.6170502;-0.58709717;-;-;-;-;-;-;-;-;-;-;-;-;-;-;-
1512472280426;-;-;7.161545;2.5033264;-0.41830444;-;-;-;-;-;-;-;-;-;-;-;-;-;-;-
1512472280446;-;-;7.885788;0.8190155;0.08088684;-;-;-;-;-;-;-;-;-;-;-;-;-;-;-
1512472280467;-;-;8.685455;-0.24641418;-0.25190735;-;-;-;-;-;-;-;-;-;-;-;-;-;-;-
1512472280487;-;-;9.37619;-0.40802002;-0.55596924;-;-;-;-;-;-;-;-;-;-;-;-;-;-;-
1512472280508;-;-;9.972336;0.04447937;-0.14656067;-;-;-;-;-;-;-;-;-;-;-;-;-;-;-
1512472280528;-;-;9.63356;0.8704834;-0.20521545;-;-;-;-;-;-;-;-;-;-;-;-;-;-;-
1512472280549;-;-;8.929672;1.4283295;-0.31774902;-;-;-;-;-;-;-;-;-;-;-;-;-;-;-
1512472280570;-;-;9.0972595;1.3804474;-0.5236511;-;-;-;-;-;-;-;-;-;-;-;-;-;-;-
1512472280589;-;-;9.251678;0.9710388;-0.27703857;-;-;-;-;-;-;-;-;-;-;-;-;-;-;-
1512472280610;-;-;9.080505;0.7531738;-0.15254211;-;-;-;-;-;-;-;-;-;-;-;-;-;-;-
1512472280629;-;-;8.7812195;0.7400055;-0.28422546;-;-;-;-;-;-;-;-;-;-;-;-;-;-;-
1512472280650;-;-;8.193451;0.5783844;-0.12501526;-;-;-;-;-;-;-;-;-;-;-;-;-;-;-
1512472280671;-;-;7.7493286;0.5628357;0.3705902;-;-;-;-;-;-;-;-;-;-;-;-;-;-;-
1512472280690;-;-;7.8750153;0.536499;0.81829834;-;-;-;-;-;-;-;-;-;-;-;-;-;-;-
1512472280711;-;-;8.44603;0.16419983;1.6431122;-;-;-;-;-;-;-;-;-;-;-;-;-;-;-
1512472280730;-;-;8.770447;-0.066848755;1.7592316;-;-;-;-;-;-;-;-;-;-;-;-;-;-;-
1512472280751;-;-;9.07811;-0.4343567;1.567688;-;-;-;-;-;-;-;-;-;-;-;-;-;-;-
1512472280771;-;-;8.680664;-0.44992065;1.3198853;-;-;-;-;-;-;-;-;-;-;-;-;-;-;-
1512472280791;-;-;8.8207245;-0.210495;1.5030518;-;-;-;-;-;-;-;-;-;-;-;-;-;-;-
1512472280812;-;-;8.947617;-0.052474976;1.4228363;-;-;-;-;-;-;-;-;-;-;-;-;-;-;-
1512472280833;-;-;8.906921;0.0756073;1.7149353;-;-;-;-;-;-;-;-;-;-;-;-;-;-;-
1512472280854;-;-;8.599258;0.08279419;1.7304993;-;-;-;-;-;-;-;-;-;-;-;-;-;-;-
1512472280873;-;-;8.716583;-0.045303345;1.9351959;-;-;-;-;-;-;-;-;-;-;-;-;-;-;-
1512472280893;-;-;8.847061;-0.19374084;1.7472534;-;-;-;-;-;-;-;-;-;-;-;-;-;-;-
1512472280914;-;-;9.045776;-0.04170227;1.6490936;-;-;-;-;-;-;-;-;-;-;-;-;-;-;-
1512472280934;-;-;8.746506;-0.00819397;1.8753357;-;-;-;-;-;-;-;-;-;-;-;-;-;-;-
1512472280955;-;-;8.502304;0.0049743652;2.0572968;-;-;-;-;-;-;-;-;-;-;-;-;-;-;-
1512472280976;-;-;8.677078;0.18933105;2.1901855;-;-;-;-;-;-;-;-;-;-;-;-;-;-;-
1512472280996;-;-;9.685028;0.40481567;1.7951355;-;-;-;-;-;-;-;-;-;-;-;-;-;-;-
1512472281016;-;-;9.744888;1.1793365;2.3242493;-;-;-;-;-;-;-;-;-;-;-;-;-;-;-
1512472281037;-;-;10.367386;2.1154633;2.8450012;-;-;-;-;-;-;-;-;-;-;-;-;-;-;-
1512472281057;-;-;10.70137;2.7439423;2.5050201;-;-;-;-;-;-;-;-;-;-;-;-;-;-;-
1512472281078;-;-;11.220917;3.4406586;0.41966248;-;-;-;-;-;-;-;-;-;-;-;-;-;-;-
1512472281098;-;-;12.762787;3.580719;-0.46139526;-;-;-;-;-;-;-;-;-;-;-;-;-;-;-
1512472281118;-;-;13.070435;2.6362152;-0.64933777;-;-;-;-;-;-;-;-;-;-;-;-;-;-;-
1512472281139;-;-;11.535751;1.6569824;-2.5455475;-;-;-;-;-;-;-;-;-;-;-;-;-;-;-
1512472281159;-;-;9.650314;0.8812561;-3.5175934;-;-;-;-;-;-;-;-;-;-;-;-;-;-;-
1512472281180;-;-;7.5206757;-0.54689026;-3.2817688;-;-;-;-;-;-;-;-;-;-;-;-;-;-;-
1512472281200;-;-;6.616867;-1.8541107;-2.084671;-;-;-;-;-;-;-;-;-;-;-;-;-;-;-
1512472281221;-;-;7.411743;-2.1761322;-1.2155762;-;-;-;-;-;-;-;-;-;-;-;-;-;-;-
1512472281241;-;-;9.202606;-1.9881897;-0.9905243;-;-;-;-;-;-;-;-;-;-;-;-;-;-;-
1512472281262;-;-;9.849045;-1.3764801;-0.73553467;-;-;-;-;-;-;-;-;-;-;-;-;-;-;-
1512472281282;-;-;10.485901;-1.6374359;-0.47816467;-;-;-;-;-;-;-;-;-;-;-;-;-;-;-
1512472281303;-;-;10.801926;-2.36409;-0.8851776;-;-;-;-;-;-;-;-;-;-;-;-;-;-;-
1512472281324;-;-;9.725739;-2.2826843;-0.58828735;-;-;-;-;-;-;-;-;-;-;-;-;-;-;-
1512472281344;-;-;8.332306;-1.5895538;-0.8061676;-;-;-;-;-;-;-;-;-;-;-;-;-;-;-
1512472281365;-;-;6.4887695;-0.82341003;-0.82650757;-;-;-;-;-;-;-;-;-;-;-;-;-;-;-
1512472281384;-;-;5.5406647;-0.95988464;-0.48773193;-;-;-;-;-;-;-;-;-;-;-;-;-;-;-
1512472281405;-;-;5.8746643;-1.7631378;-0.39794922;-;-;-;-;-;-;-;-;-;-;-;-;-;-;-
1512472281425;-;-;7.1244354;-2.6645508;0.3993225;-;-;-;-;-;-;-;-;-;-;-;-;-;-;-
1512472281445;-;-;9.894531;-3.3469086;0.7249298;-;-;-;-;-;-;-;-;-;-;-;-;-;-;-
1512472281466;-;-;10.379349;-3.3852081;0.71295166;-;-;-;-;-;-;-;-;-;-;-;-;-;-;-
1512472281486;-;-;9.546173;-3.0093231;1.6383209;-;-;-;-;-;-;-;-;-;-;-;-;-;-;-
1512472281507;-;-;10.333862;-2.5795593;1.5617065;-;-;-;-;-;-;-;-;-;-;-;-;-;-;-
1512472281527;-;-;8.459198;-2.9075623;1.073288;-;-;-;-;-;-;-;-;-;-;-;-;-;-;-
1512472281547;-;-;8.695038;-3.7120209;1.413269;-;-;-;-;-;-;-;-;-;-;-;-;-;-;-
1512472281568;-;-;7.9827576;-4.1381836;2.2524261;-;-;-;-;-;-;-;-;-;-;-;-;-;-;-
1512472281588;-;-;7.8558655;-4.2088165;2.520584;-;-;-;-;-;-;-;-;-;-;-;-;-;-;-
1512472281607;-;-;8.369415;-3.4761963;1.8190765;-;-;-;-;-;-;-;-;-;-;-;-;-;-;-
1512472281627;-;-;9.337875;-2.918335;1.488678;-;-;-;-;-;-;-;-;-;-;-;-;-;-;-
1512472281648;-;-;11.062897;-3.084732;1.5006561;-;-;-;-;-;-;-;-;-;-;-;-;-;-;-
1512472281667;-;-;12.6754;-3.4378815;1.864563;-;-;-;-;-;-;-;-;-;-;-;-;-;-;-
1512472281688;-;-;13.035721;-3.6952515;2.0034332;-;-;-;-;-;-;-;-;-;-;-;-;-;-;-
1512472281709;-;-;13.657013;-4.403946;1.2684174;-;-;-;-;-;-;-;-;-;-;-;-;-;-;-
1512472281729;-;-;13.710892;-4.1609344;0.5190277;-;-;-;-;-;-;-;-;-;-;-;-;-;-;-
1512472281749;-;-;13.68335;-3.404358;-0.026855469;-;-;-;-;-;-;-;-;-;-;-;-;-;-;-
1512472281769;-;-;13.758774;-2.8572845;-2.0499573;-;-;-;-;-;-;-;-;-;-;-;-;-;-;-
1512472281790;-;-;12.288727;-1.9271393;-3.7941284;-;-;-;-;-;-;-;-;-;-;-;-;-;-;-
1512472281809;-;-;10.06572;-1.0376892;-3.1895905;-;-;-;-;-;-;-;-;-;-;-;-;-;-;-
1512472281830;-;-;7.7050323;-0.6079407;-2.0283966;-;-;-;-;-;-;-;-;-;-;-;-;-;-;-
1512472281849;-;-;7.3925934;-0.996994;-2.057129;-;-;-;-;-;-;-;-;-;-;-;-;-;-;-
1512472281870;-;-;8.655533;-1.1442413;-1.2323303;-;-;-;-;-;-;-;-;-;-;-;-;-;-;-
1512472281891;-;-;8.971558;-0.739624;-0.22077942;-;-;-;-;-;-;-;-;-;-;-;-;-;-;-
1512472281912;-;-;9.008667;-1.4327393;0.15270996;-;-;-;-;-;-;-;-;-;-;-;-;-;-;-
1512472281932;-;-;9.284012;-1.9127808;-0.09269714;-;-;-;-;-;-;-;-;-;-;-;-;-;-;-
1512472281952;-;-;8.493927;-2.0983276;-0.69602966;-;-;-;-;-;-;-;-;-;-;-;-;-;-;-
1512472281972;-;-;7.746933;-1.5656128;-0.93904114;-;-;-;-;-;-;-;-;-;-;-;-;-;-;-
1512472281993;-;-;6.924515;-0.3589325;-0.28901672;-;-;-;-;-;-;-;-;-;-;-;-;-;-;-
1512472282013;-;-;6.3822327;0.5089569;0.33467102;-;-;-;-;-;-;-;-;-;-;-;-;-;-;-
1512472282034;-;-;4.80925;0.9794159;-0.2962036;-;-;-;-;-;-;-;-;-;-;-;-;-;-;-
1512472282054;-;-;4.277725;0.88723755;0.6495056;-;-;-;-;-;-;-;-;-;-;-;-;-;-;-
1512472282074;-;-;4.288498;1.0799713;0.30714417;-;-;-;-;-;-;-;-;-;-;-;-;-;-;-
1512472282095;-;-;5.234207;0.8788605;0.4974823;-;-;-;-;-;-;-;-;-;-;-;-;-;-;-
1512472282116;-;-;5.6436157;1.070404;0.4974823;-;-;-;-;-;-;-;-;-;-;-;-;-;-;-
1512472282136;-;-;6.4373016;1.1757507;1.2085571;-;-;-;-;-;-;-;-;-;-;-;-;-;-;-
1512472282156;-;-;7.7912292;1.3960114;0.9056854;-;-;-;-;-;-;-;-;-;-;-;-;-;-;-
1512472282178;-;-;10.032196;1.710846;1.7197266;-;-;-;-;-;-;-;-;-;-;-;-;-;-;-
1512472282197;-;-;10.446396;2.287857;2.3015137;-;-;-;-;-;-;-;-;-;-;-;-;-;-;-
1512472282218;-;-;10.337448;2.6565552;3.1598358;-;-;-;-;-;-;-;-;-;-;-;-;-;-;-
1512472282239;-;-;10.77919;2.339325;4.5341034;-;-;-;-;-;-;-;-;-;-;-;-;-;-;-
1512472282259;-;-;11.850586;2.663742;4.8740845;-;-;-;-;-;-;-;-;-;-;-;-;-;-;-
1512472282280;-;-;12.165436;2.7379608;3.0844116;-;-;-;-;-;-;-;-;-;-;-;-;-;-;-
1512472282300;-;-;14.624268;1.2727051;-1.4549866;-;-;-;-;-;-;-;-;-;-;-;-;-;-;-
1512472282321;-;-;16.350494;2.4530487;-1.9398193;-;-;-;-;-;-;-;-;-;-;-;-;-;-;-
1512472282341;-;-;15.604706;3.4179077;-0.4745636;-;-;-;-;-;-;-;-;-;-;-;-;-;-;-
1512472282361;-;-;11.250839;0.9087982;-1.0192413;-;-;-;-;-;-;-;-;-;-;-;-;-;-;-
1512472282382;-;-;8.546585;0.1845398;-3.159668;-;-;-;-;-;-;-;-;-;-;-;-;-;-;-
1512472282402;-;-;6.8311462;-0.84376526;-0.57032776;-;-;-;-;-;-;-;-;-;-;-;-;-;-;-
1512472282423;-;-;5.3970184;-0.93115234;-0.6122284;-;-;-;-;-;-;-;-;-;-;-;-;-;-;-
1512472282443;-;-;5.95607;-0.28831482;-2.467743;-;-;-;-;-;-;-;-;-;-;-;-;-;-;-
1512472282463;-;-;9.122391;0.33657837;-2.4030914;-;-;-;-;-;-;-;-;-;-;-;-;-;-;-
1512472282484;-;-;10.123169;0.15342712;-0.13937378;-;-;-;-;-;-;-;-;-;-;-;-;-;-;-
1512472282504;-;-;9.084091;-0.6402588;0.2616577;-;-;-;-;-;-;-;-;-;-;-;-;-;-;-
1512472282525;-;-;7.85347;-0.8581238;-0.078323364;-;-;-;-;-;-;-;-;-;-;-;-;-;-;-
1512472282545;-;-;7.04303;-0.8138428;-0.7127838;-;-;-;-;-;-;-;-;-;-;-;-;-;-;-
1512472282566;-;-;5.1408386;-1.1621857;-0.97854614;-;-;-;-;-;-;-;-;-;-;-;-;-;-;-
1512472282585;-;-;4.4213867;-1.254364;-0.80137634;-;-;-;-;-;-;-;-;-;-;-;-;-;-;-
1512472282605;-;-;4.3699036;-1.6338501;-0.4350586;-;-;-;-;-;-;-;-;-;-;-;-;-;-;-
1512472282626;-;-;4.585388;-2.3796387;-0.6768799;-;-;-;-;-;-;-;-;-;-;-;-;-;-;-
1512472282646;-;-;5.54187;-3.1290283;-1.3987274;-;-;-;-;-;-;-;-;-;-;-;-;-;-;-
1512472282666;-;-;7.4201202;-3.0260773;-0.6840515;-;-;-;-;-;-;-;-;-;-;-;-;-;-;-
1512472282686;-;-;8.216187;-2.0779724;0.46754456;-;-;-;-;-;-;-;-;-;-;-;-;-;-;-
1512472282707;-;-;10.268021;-1.8170013;0.38375854;-;-;-;-;-;-;-;-;-;-;-;-;-;-;-
1512472282728;-;-;10.9384;-1.8696747;1.0565186;-;-;-;-;-;-;-;-;-;-;-;-;-;-;-
1512472282747;-;-;11.979874;-2.5652008;1.8956909;-;-;-;-;-;-;-;-;-;-;-;-;-;-;-
1512472282767;-;-;12.716095;-4.1609344;1.0792694;-;-;-;-;-;-;-;-;-;-;-;-;-;-;-
1512472282788;-;-;11.959534;-5.270645;1.9148407;-;-;-;-;-;-;-;-;-;-;-;-;-;-;-
1512472282808;-;-;10.793549;-5.4454193;3.405243;-;-;-;-;-;-;-;-;-;-;-;-;-;-;-
1512472282829;-;-;10.554138;-4.7415314;3.3441925;-;-;-;-;-;-;-;-;-;-;-;-;-;-;-
1512472282849;-;-;10.947983;-3.067978;1.9926605;-;-;-;-;-;-;-;-;-;-;-;-;-;-;-
1512472282869;-;-;12.123535;-2.5759735;-0.35125732;-;-;-;-;-;-;-;-;-;-;-;-;-;-;-
1512472282890;-;-;12.513779;-3.249939;-2.4988708;-;-;-;-;-;-;-;-;-;-;-;-;-;-;-
1512472282910;-;-;11.681793;-3.0655823;-2.1672668;-;-;-;-;-;-;-;-;-;-;-;-;-;-;-
1512472282931;-;-;11.684189;-2.5831451;0.75845337;-;-;-;-;-;-;-;-;-;-;-;-;-;-;-
1512472282951;-;-;11.341827;-1.9690399;0.5489502;-;-;-;-;-;-;-;-;-;-;-;-;-;-;-
1512472282972;-;-;9.166687;-1.6051178;-4.3196564;-;-;-;-;-;-;-;-;-;-;-;-;-;-;-
1512472282991;-;-;7.964798;-1.1633911;-3.4780884;-;-;-;-;-;-;-;-;-;-;-;-;-;-;-
1512472283012;-;-;7.1447906;0.08279419;-1.3388672;-;-;-;-;-;-;-;-;-;-;-;-;-;-;-
1512472283032;-;-;7.415329;0.32580566;0.7943573;-;-;-;-;-;-;-;-;-;-;-;-;-;-;-
1512472283053;-;-;9.080505;-0.9754486;0.8434448;-;-;-;-;-;-;-;-;-;-;-;-;-;-;-
1512472283072;-;-;9.787979;-2.480194;-0.27703857;-;-;-;-;-;-;-;-;-;-;-;-;-;-;-
1512472283092;-;-;9.088882;-2.1055145;-0.31056213;-;-;-;-;-;-;-;-;-;-;-;-;-;-;-
1512472283113;-;-;7.743332;-1.1238861;-0.69363403;-;-;-;-;-;-;-;-;-;-;-;-;-;-;-
1512472283133;-;-;6.395401;-0.081207275;-0.85284424;-;-;-;-;-;-;-;-;-;-;-;-;-;-;-
1512472283153;-;-;5.667572;0.7759094;-0.5176544;-;-;-;-;-;-;-;-;-;-;-;-;-;-;-
1512472283174;-;-;5.0378876;1.240387;-0.06636047;-;-;-;-;-;-;-;-;-;-;-;-;-;-;-
1512472283195;-;-;4.2669525;1.5276947;0.077301025;-;-;-;-;-;-;-;-;-;-;-;-;-;-;-
1512472283215;-;-;3.9580994;1.9299164;0.25805664;-;-;-;-;-;-;-;-;-;-;-;-;-;-;-
1512472283236;-;-;4.6332703;1.7216187;0.6950073;-;-;-;-;-;-;-;-;-;-;-;-;-;-;-
1512472283255;-;-;7.1914673;1.1661682;1.3426361;-;-;-;-;-;-;-;-;-;-;-;-;-;-;-
1512472283275;-;-;10.229721;0.96266174;1.3964996;-;-;-;-;-;-;-;-;-;-;-;-;-;-;-
1512472283296;-;-;12.226486;1.9275208;0.4699402;-;-;-;-;-;-;-;-;-;-;-;-;-;-;-
1512472283316;-;-;13.253586;2.019699;1.136734;-;-;-;-;-;-;-;-;-;-;-;-;-;-;-
1512472283337;-;-;13.01297;1.4091797;1.9375916;-;-;-;-;-;-;-;-;-;-;-;-;-;-;-
1512472283358;-;-;11.493851;1.0476532;3.2113037;-;-;-;-;-;-;-;-;-;-;-;-;-;-;-
1512472283379;-;-;9.781998;2.967804;5.1829376;-;-;-;-;-;-;-;-;-;-;-;-;-;-;-
1512472283399;-;-;9.23613;3.0408325;7.417923;-;-;-;-;-;-;-;-;-;-;-;-;-;-;-
1512472283420;-;-;9.620392;0.7950592;1.4946594;-;-;-;-;-;-;-;-;-;-;-;-;-;-;-
1512472283440;-;-;14.935516;0.45388794;-5.0762177;-;-;-;-;-;-;-;-;-;-;-;-;-;-;-
1512472283461;-;-;13.054871;3.362854;-1.9721375;-;-;-;-;-;-;-;-;-;-;-;-;-;-;-
1512472283481;-;-;16.715607;-2.2192383;-0.37161255;-;-;-;-;-;-;-;-;-;-;-;-;-;-;-
1512472283502;-;-;9.669479;-3.6437836;-6.5307007;-;-;-;-;-;-;-;-;-;-;-;-;-;-;-
1512472283523;-;-;8.5849;-1.5452728;-0.1489563;-;-;-;-;-;-;-;-;-;-;-;-;-;-;-
1512472283542;-;-;6.0290833;0.77471924;0.7249298;-;-;-;-;-;-;-;-;-;-;-;-;-;-;-
1512472283562;-;-;5.1288757;1.1051178;-1.7662354;-;-;-;-;-;-;-;-;-;-;-;-;-;-;-
1512472283583;-;-;5.8722687;1.2751007;-2.0499573;-;-;-;-;-;-;-;-;-;-;-;-;-;-;-
1512472283603;-;-;7.2704773;0.9794159;0.10482788;-;-;-;-;-;-;-;-;-;-;-;-;-;-;-
1512472283624;-;-;7.1675262;0.848938;0.44480896;-;-;-;-;-;-;-;-;-;-;-;-;-;-;-
1512472283644;-;-;6.7377777;0.17137146;-0.42070007;-;-;-;-;-;-;-;-;-;-;-;-;-;-;-
1512472283664;-;-;5.6496124;-0.9981842;-1.148529;-;-;-;-;-;-;-;-;-;-;-;-;-;-;-
1512472283685;-;-;3.9772644;-2.7052612;0.2987671;-;-;-;-;-;-;-;-;-;-;-;-;-;-;-
1512472283706;-;-;4.062256;-3.6234283;-0.32254028;-;-;-;-;-;-;-;-;-;-;-;-;-;-;-
1512472283725;-;-;4.5039825;-3.4103546;-1.2000122;-;-;-;-;-;-;-;-;-;-;-;-;-;-;-
1512472283746;-;-;5.8160095;-3.079956;-1.1629028;-;-;-;-;-;-;-;-;-;-;-;-;-;-;-
1512472283766;-;-;8.031845;-2.8082123;0.062927246;-;-;-;-;-;-;-;-;-;-;-;-;-;-;-
1512472283786;-;-;9.115219;-2.056427;0.6052246;-;-;-;-;-;-;-;-;-;-;-;-;-;-;-
1512472283806;-;-;12.157043;-2.1617737;1.0074463;-;-;-;-;-;-;-;-;-;-;-;-;-;-;-
1512472283827;-;-;13.682159;-3.5959015;1.6431122;-;-;-;-;-;-;-;-;-;-;-;-;-;-;-
1512472283846;-;-;14.37648;-4.4183044;2.2703857;-;-;-;-;-;-;-;-;-;-;-;-;-;-;-
1512472283866;-;-;13.680954;-4.293808;2.0441284;-;-;-;-;-;-;-;-;-;-;-;-;-;-;-
1512472283887;-;-;11.377731;-4.771454;0.6052246;-;-;-;-;-;-;-;-;-;-;-;-;-;-;-
1512472283908;-;-;9.33548;-5.162903;2.204544;-;-;-;-;-;-;-;-;-;-;-;-;-;-;-
1512472283928;-;-;10.585251;-3.831726;3.1957397;-;-;-;-;-;-;-;-;-;-;-;-;-;-;-
1512472283948;-;-;12.408447;-2.3365479;1.6826019;-;-;-;-;-;-;-;-;-;-;-;-;-;-;-
1512472283969;-;-;14.272324;-2.526886;-3.001648;-;-;-;-;-;-;-;-;-;-;-;-;-;-;-
1512472283989;-;-;13.115921;-2.0157318;-4.3555603;-;-;-;-;-;-;-;-;-;-;-;-;-;-;-
1512472284009;-;-;12.385696;-1.7930603;-0.3871765;-;-;-;-;-;-;-;-;-;-;-;-;-;-;-
1512472284030;-;-;12.147476;-0.18057251;1.8753357;-;-;-;-;-;-;-;-;-;-;-;-;-;-;-
1512472284051;-;-;11.158661;-0.30506897;-0.6948395;-;-;-;-;-;-;-;-;-;-;-;-;-;-;-
1512472284071;-;-;11.138321;-1.4758301;-2.1433258;-;-;-;-;-;-;-;-;-;-;-;-;-;-;-
1512472284092;-;-;8.880585;-1.799057;-1.1664886;-;-;-;-;-;-;-;-;-;-;-;-;-;-;-
1512472284112;-;-;6.2936554;-1.5237122;0.15870667;-;-;-;-;-;-;-;-;-;-;-;-;-;-;-
1512472284132;-;-;4.1436615;-1.0329132;-0.24113464;-;-;-;-;-;-;-;-;-;-;-;-;-;-;-
1512472284153;-;-;2.2151337;0.016952515;-1.1748657;-;-;-;-;-;-;-;-;-;-;-;-;-;-;-
1512472284175;-;-;1.7314911;1.3636932;-1.8512268;-;-;-;-;-;-;-;-;-;-;-;-;-;-;-
1512472284194;-;-;3.2733612;2.0843506;-1.1473389;-;-;-;-;-;-;-;-;-;-;-;-;-;-;-
1512472284214;-;-;4.604538;2.1801147;-0.5021057;-;-;-;-;-;-;-;-;-;-;-;-;-;-;-
1512472284234;-;-;6.244568;2.0951233;-0.97854614;-;-;-;-;-;-;-;-;-;-;-;-;-;-;-
1512472284255;-;-;7.4297028;1.5887451;-0.4063263;-;-;-;-;-;-;-;-;-;-;-;-;-;-;-
1512472284275;-;-;7.43808;1.4295349;-0.2507019;-;-;-;-;-;-;-;-;-;-;-;-;-;-;-
1512472284295;-;-;7.469208;0.44192505;0.060531616;-;-;-;-;-;-;-;-;-;-;-;-;-;-;-
1512472284316;-;-;9.725739;-1.2076874;0.8111267;-;-;-;-;-;-;-;-;-;-;-;-;-;-;-
1512472284336;-;-;10.18782;-1.0269165;0.7823944;-;-;-;-;-;-;-;-;-;-;-;-;-;-;-
1512472284356;-;-;10.853409;0.92315674;2.7528229;-;-;-;-;-;-;-;-;-;-;-;-;-;-;-
1512472284377;-;-;11.394501;0.6023407;4.2946777;-;-;-;-;-;-;-;-;-;-;-;-;-;-;-
1512472284397;-;-;10.150711;2.1358185;3.9355469;-;-;-;-;-;-;-;-;-;-;-;-;-;-;-
1512472284417;-;-;10.293167;3.2934113;4.9566803;-;-;-;-;-;-;-;-;-;-;-;-;-;-;-
1512472284438;-;-;10.940796;2.4602356;3.892456;-;-;-;-;-;-;-;-;-;-;-;-;-;-;-
1512472284458;-;-;12.391678;1.0691986;-0.5787201;-;-;-;-;-;-;-;-;-;-;-;-;-;-;-
1512472284479;-;-;14.619492;1.813797;-4.1508636;-;-;-;-;-;-;-;-;-;-;-;-;-;-;-
1512472284499;-;-;15.0707855;2.4434814;-4.2143097;-;-;-;-;-;-;-;-;-;-;-;-;-;-;-
1512472284520;-;-;14.002975;1.0943451;-1.5579376;-;-;-;-;-;-;-;-;-;-;-;-;-;-;-
1512472284540;-;-;11.200562;-0.93115234;-5.7681427;-;-;-;-;-;-;-;-;-;-;-;-;-;-;-
1512472284561;-;-;9.585678;-0.79467773;-3.9138336;-;-;-;-;-;-;-;-;-;-;-;-;-;-;-
1512472284581;-;-;8.545395;0.036102295;-1.4346466;-;-;-;-;-;-;-;-;-;-;-;-;-;-;-
1512472284601;-;-;7.69545;-0.109939575;-1.579483;-;-;-;-;-;-;-;-;-;-;-;-;-;-;-
1512472284622;-;-;8.120422;-0.6438446;-1.7279358;-;-;-;-;-;-;-;-;-;-;-;-;-;-;-
1512472284642;-;-;7.453644;0.23721313;-0.52005005;-;-;-;-;-;-;-;-;-;-;-;-;-;-;-
1512472284663;-;-;6.3379364;0.74957275;0.4507904;-;-;-;-;-;-;-;-;-;-;-;-;-;-;-
1512472284683;-;-;5.0845795;0.6274719;0.14433289;-;-;-;-;-;-;-;-;-;-;-;-;-;-;-
1512472284704;-;-;4.130493;0.16897583;-1.2538757;-;-;-;-;-;-;-;-;-;-;-;-;-;-;-
1512472284724;-;-;3.466095;-0.6067352;-0.906723;-;-;-;-;-;-;-;-;-;-;-;-;-;-;-
1512472284745;-;-;3.553482;-1.7236328;0.24609375;-;-;-;-;-;-;-;-;-;-;-;-;-;-;-
1512472284766;-;-;3.7929077;-3.0021362;6.866455E-4;-;-;-;-;-;-;-;-;-;-;-;-;-;-;-
1512472284786;-;-;4.0766144;-3.4354858;-1.3508453;-;-;-;-;-;-;-;-;-;-;-;-;-;-;-
1512472284807;-;-;5.710663;-3.6665344;-1.0886841;-;-;-;-;-;-;-;-;-;-;-;-;-;-;-
1512472284827;-;-;8.068954;-3.7000427;0.76683044;-;-;-;-;-;-;-;-;-;-;-;-;-;-;-
1512472284848;-;-;10.856995;-3.4701996;1.4611511;-;-;-;-;-;-;-;-;-;-;-;-;-;-;-
1512472284868;-;-;13.628281;-3.7144165;1.6538849;-;-;-;-;-;-;-;-;-;-;-;-;-;-;-
1512472284888;-;-;15.30542;-3.139801;2.0010376;-;-;-;-;-;-;-;-;-;-;-;-;-;-;-
1512472284909;-;-;14.448303;-2.317398;2.3613586;-;-;-;-;-;-;-;-;-;-;-;-;-;-;-
1512472284929;-;-;12.574844;-3.455841;2.1004028;-;-;-;-;-;-;-;-;-;-;-;-;-;-;-
1512472284949;-;-;8.969162;-5.4071198;1.5293732;-;-;-;-;-;-;-;-;-;-;-;-;-;-;-
1512472284970;-;-;7.9504395;-6.048752;3.1047668;-;-;-;-;-;-;-;-;-;-;-;-;-;-;-
1512472284991;-;-;8.560959;-5.178467;2.0333557;-;-;-;-;-;-;-;-;-;-;-;-;-;-;-
1512472285010;-;-;11.660248;-3.2631073;-0.27824402;-;-;-;-;-;-;-;-;-;-;-;-;-;-;-
1512472285031;-;-;14.235214;-2.2754974;-2.9429932;-;-;-;-;-;-;-;-;-;-;-;-;-;-;-
1512472285051;-;-;13.619904;-1.2280273;-4.9876404;-;-;-;-;-;-;-;-;-;-;-;-;-;-;-
1512472285072;-;-;12.720886;-1.2160645;-2.120575;-;-;-;-;-;-;-;-;-;-;-;-;-;-;-
1512472285092;-;-;13.001007;0.541275;1.6634521;-;-;-;-;-;-;-;-;-;-;-;-;-;-;-
1512472285113;-;-;12.365341;0.9854126;-2.1780396;-;-;-;-;-;-;-;-;-;-;-;-;-;-;-
1512472285134;-;-;11.224503;-0.45231628;-2.3875275;-;-;-;-;-;-;-;-;-;-;-;-;-;-;-
1512472285154;-;-;10.398514;-1.9750214;0.34664917;-;-;-;-;-;-;-;-;-;-;-;-;-;-;-
1512472285174;-;-;8.614822;-2.6094818;1.1582794;-;-;-;-;-;-;-;-;-;-;-;-;-;-;-
1512472285195;-;-;6.6779175;-2.3078156;-0.107055664;-;-;-;-;-;-;-;-;-;-;-;-;-;-;-
1512472285215;-;-;5.4053955;-1.7368011;-0.93066406;-;-;-;-;-;-;-;-;-;-;-;-;-;-;-
1512472285236;-;-;3.8599396;-0.30267334;-0.3009796;-;-;-;-;-;-;-;-;-;-;-;-;-;-;-
1512472285256;-;-;3.481659;1.461853;-0.6373749;-;-;-;-;-;-;-;-;-;-;-;-;-;-;-
1512472285277;-;-;4.2346344;2.3297424;-1.2718353;-;-;-;-;-;-;-;-;-;-;-;-;-;-;-
1512472285297;-;-;5.8567047;2.3979797;-0.23753357;-;-;-;-;-;-;-;-;-;-;-;-;-;-;-
1512472285317;-;-;6.554611;2.0795593;0.4472046;-;-;-;-;-;-;-;-;-;-;-;-;-;-;-
1512472285338;-;-;6.5869446;1.3888245;0.6950073;-;-;-;-;-;-;-;-;-;-;-;-;-;-;-
1512472285358;-;-;5.7381897;0.23602295;0.11920166;-;-;-;-;-;-;-;-;-;-;-;-;-;-;-
1512472285379;-;-;4.6895294;-0.3361969;0.14553833;-;-;-;-;-;-;-;-;-;-;-;-;-;-;-
1512472285400;-;-;4.8128357;-0.7480011;0.6052246;-;-;-;-;-;-;-;-;-;-;-;-;-;-;-
1512472285420;-;-;6.920929;-0.86531067;1.8825226;-;-;-;-;-;-;-;-;-;-;-;-;-;-;-
1512472285440;-;-;8.332306;0.05885315;2.477478;-;-;-;-;-;-;-;-;-;-;-;-;-;-;-
1512472285461;-;-;9.5354;1.3852386;2.4188232;-;-;-;-;-;-;-;-;-;-;-;-;-;-;-
1512472285482;-;-;10.655884;2.395584;2.556488;-;-;-;-;-;-;-;-;-;-;-;-;-;-;-
1512472285503;-;-;11.486679;3.0803375;2.4523468;-;-;-;-;-;-;-;-;-;-;-;-;-;-;-
1512472285523;-;-;12.117538;3.0994873;2.3003082;-;-;-;-;-;-;-;-;-;-;-;-;-;-;-
1512472285543;-;-;12.63829;2.2136383;2.9886475;-;-;-;-;-;-;-;-;-;-;-;-;-;-;-
1512472285564;-;-;12.919601;1.5061493;4.2934875;-;-;-;-;-;-;-;-;-;-;-;-;-;-;-
1512472285584;-;-;13.215286;0.56044006;3.1502533;-;-;-;-;-;-;-;-;-;-;-;-;-;-;-
1512472285605;-;-;14.064026;0.48382568;-2.4617462;-;-;-;-;-;-;-;-;-;-;-;-;-;-;-
1512472285624;-;-;16.720398;2.1633606;-3.1345215;-;-;-;-;-;-;-;-;-;-;-;-;-;-;-
1512472285645;-;-;10.962341;4.8472595;1.5018463;-;-;-;-;-;-;-;-;-;-;-;-;-;-;-
1512472285665;-;-;13.495407;2.0843506;-5.199524;-;-;-;-;-;-;-;-;-;-;-;-;-;-;-
1512472285686;-;-;10.695389;0.5053711;-3.3524017;-;-;-;-;-;-;-;-;-;-;-;-;-;-;-
1512472285706;-;-;8.590881;1.3098145;-1.2131805;-;-;-;-;-;-;-;-;-;-;-;-;-;-;-
1512472285727;-;-;6.862274;0.5736084;-1.3843689;-;-;-;-;-;-;-;-;-;-;-;-;-;-;-
1512472285747;-;-;7.02269;-0.4918213;-1.9565735;-;-;-;-;-;-;-;-;-;-;-;-;-;-;-
1512472285768;-;-;7.447647;-1.0472717;-0.72595215;-;-;-;-;-;-;-;-;-;-;-;-;-;-;-
1512472285788;-;-;6.1643677;-0.542099;-0.035232544;-;-;-;-;-;-;-;-;-;-;-;-;-;-;-
1512472285809;-;-;4.7577667;0.21208191;0.22813416;-;-;-;-;-;-;-;-;-;-;-;-;-;-;-
1512472285830;-;-;3.6253052;1.0404663;0.44241333;-;-;-;-;-;-;-;-;-;-;-;-;-;-;-
1512472285850;-;-;3.0183868;0.4359436;1.5940247;-;-;-;-;-;-;-;-;-;-;-;-;-;-;-
1512472285869;-;-;3.3140717;-0.49661255;-0.6218109;-;-;-;-;-;-;-;-;-;-;-;-;-;-;-
1512472285890;-;-;3.4170227;-2.2958527;-2.2414856;-;-;-;-;-;-;-;-;-;-;-;-;-;-;-
1512472285910;-;-;3.5091858;-4.2483215;-2.1110077;-;-;-;-;-;-;-;-;-;-;-;-;-;-;-
1512472285930;-;-;3.988037;-5.796173;-0.7846222;-;-;-;-;-;-;-;-;-;-;-;-;-;-;-
1512472285950;-;-;7.26091;-7.4026794;1.7292938;-;-;-;-;-;-;-;-;-;-;-;-;-;-;-
1512472285972;-;-;12.814255;-7.373947;2.6690216;-;-;-;-;-;-;-;-;-;-;-;-;-;-;-
1512472285993;-;-;14.491394;-4.4961243;1.4527588;-;-;-;-;-;-;-;-;-;-;-;-;-;-;-
1512472286013;-;-;14.560822;-2.1306458;1.1044159;-;-;-;-;-;-;-;-;-;-;-;-;-;-;-
1512472286033;-;-;12.152267;-1.4375305;0.3717804;-;-;-;-;-;-;-;-;-;-;-;-;-;-;-
1512472286054;-;-;10.619965;-2.1797333;1.212143;-;-;-;-;-;-;-;-;-;-;-;-;-;-;-
1512472286075;-;-;7.2980194;-3.1182556;1.5006561;-;-;-;-;-;-;-;-;-;-;-;-;-;-;-
1512472286095;-;-;6.3259735;-3.7622986;1.646698;-;-;-;-;-;-;-;-;-;-;-;-;-;-;-
1512472286115;-;-;5.54187;-3.3732452;0.9571686;-;-;-;-;-;-;-;-;-;-;-;-;-;-;-
1512472286136;-;-;5.5945435;-2.8489075;1.0146332;-;-;-;-;-;-;-;-;-;-;-;-;-;-;-
1512472286156;-;-;6.7006683;-2.4646454;1.2324982;-;-;-;-;-;-;-;-;-;-;-;-;-;-;-
1512472286177;-;-;8.898544;-2.724411;1.9651184;-;-;-;-;-;-;-;-;-;-;-;-;-;-;-
1512472286197;-;-;9.754471;-2.9638367;2.5696564;-;-;-;-;-;-;-;-;-;-;-;-;-;-;-
1512472286218;-;-;10.97551;-3.321762;4.3090515;-;-;-;-;-;-;-;-;-;-;-;-;-;-;-
1512472286238;-;-;11.830246;-5.0791016;4.6538086;-;-;-;-;-;-;-;-;-;-;-;-;-;-;-
1512472286258;-;-;12.021774;-6.4078827;5.5061493;-;-;-;-;-;-;-;-;-;-;-;-;-;-;-
1512472286278;-;-;11.7655945;-6.986084;5.2906647;-;-;-;-;-;-;-;-;-;-;-;-;-;-;-
1512472286299;-;-;10.466736;-6.7382965;4.3090515;-;-;-;-;-;-;-;-;-;-;-;-;-;-;-
1512472286319;-;-;10.124374;-4.9330597;1.4635468;-;-;-;-;-;-;-;-;-;-;-;-;-;-;-
1512472286339;-;-;12.880096;-4.060379;-5.966858;-;-;-;-;-;-;-;-;-;-;-;-;-;-;-
1512472286360;-;-;10.490677;-3.7958221;2.0010376;-;-;-;-;-;-;-;-;-;-;-;-;-;-;-
1512472286380;-;-;7.91333;-2.289856;-1.3029633;-;-;-;-;-;-;-;-;-;-;-;-;-;-;-
1512472286400;-;-;9.530609;-1.7787018;-2.017624;-;-;-;-;-;-;-;-;-;-;-;-;-;-;-
1512472286421;-;-;11.19458;-1.0843811;-1.5567474;-;-;-;-;-;-;-;-;-;-;-;-;-;-;-
1512472286440;-;-;11.704544;-0.4954071;-0.6912384;-;-;-;-;-;-;-;-;-;-;-;-;-;-;-
1512472286460;-;-;11.35379;-0.31704712;0.2341156;-;-;-;-;-;-;-;-;-;-;-;-;-;-;-
1512472286481;-;-;9.398926;-1.052063;-0.2758484;-;-;-;-;-;-;-;-;-;-;-;-;-;-;-
1512472286501;-;-;7.5434265;-1.7379913;-0.078323364;-;-;-;-;-;-;-;-;-;-;-;-;-;-;-
1512472286522;-;-;6.585739;-1.4051971;0.30474854;-;-;-;-;-;-;-;-;-;-;-;-;-;-;-
1512472286542;-;-;6.2074585;-0.84376526;0.6961975;-;-;-;-;-;-;-;-;-;-;-;-;-;-;-
1512472286563;-;-;6.2086487;-0.08001709;-0.90911865;-;-;-;-;-;-;-;-;-;-;-;-;-;-;-
1512472286583;-;-;6.8359375;0.4287567;-1.5232239;-;-;-;-;-;-;-;-;-;-;-;-;-;-;-
1512472286603;-;-;6.6072845;0.18814087;-0.1489563;-;-;-;-;-;-;-;-;-;-;-;-;-;-;-
1512472286624;-;-;6.1080933;-0.13627625;0.062927246;-;-;-;-;-;-;-;-;-;-;-;-;-;-;-
1512472286644;-;-;6.2637177;-0.43315125;0.046173096;-;-;-;-;-;-;-;-;-;-;-;-;-;-;-
1512472286665;-;-;6.7688904;-0.59954834;-0.36442566;-;-;-;-;-;-;-;-;-;-;-;-;-;-;-
1512472286684;-;-;7.0214844;-0.44154358;-0.17529297;-;-;-;-;-;-;-;-;-;-;-;-;-;-;-
1512472286705;-;-;7.7888336;-0.26316833;0.35621643;-;-;-;-;-;-;-;-;-;-;-;-;-;-;-
1512472286725;-;-;8.489136;-0.3469696;0.31910706;-;-;-;-;-;-;-;-;-;-;-;-;-;-;-
1512472286745;-;-;8.650742;0.060043335;0.08328247;-;-;-;-;-;-;-;-;-;-;-;-;-;-;-
1512472286766;-;-;8.458008;0.58317566;0.8709717;-;-;-;-;-;-;-;-;-;-;-;-;-;-;-
1512472286786;-;-;7.7648926;0.77111816;0.63035583;-;-;-;-;-;-;-;-;-;-;-;-;-;-;-
1512472286806;-;-;7.636795;0.43115234;1.3426361;-;-;-;-;-;-;-;-;-;-;-;-;-;-;-
1512472286827;-;-;7.296814;0.7424011;1.5605011;-;-;-;-;-;-;-;-;-;-;-;-;-;-;-
1512472286846;-;-;6.5115204;0.76394653;1.9364014;-;-;-;-;-;-;-;-;-;-;-;-;-;-;-
1512472286866;-;-;6.3822327;0.8513336;3.7224731;-;-;-;-;-;-;-;-;-;-;-;-;-;-;-
1512472286887;-;-;7.7936096;0.117507935;3.6877594;-;-;-;-;-;-;-;-;-;-;-;-;-;-;-
1512472286907;-;-;9.427658;-0.9371338;2.0417328;-;-;-;-;-;-;-;-;-;-;-;-;-;-;-
1512472286927;-;-;8.770447;-1.5548401;3.1993408;-;-;-;-;-;-;-;-;-;-;-;-;-;-;-
1512472286948;-;-;10.789963;-1.2507782;3.6961365;-;-;-;-;-;-;-;-;-;-;-;-;-;-;-
1512472286968;-;-;16.740753;-3.1170654;5.21286;-;-;-;-;-;-;-;-;-;-;-;-;-;-;-
1512472286989;-;-;14.743988;-0.81503296;4.082794;-;-;-;-;-;-;-;-;-;-;-;-;-;-;-
1512472287009;-;-;12.547302;2.292633;3.4004517;-;-;-;-;-;-;-;-;-;-;-;-;-;-;-
1512472287030;-;-;9.348648;5.3524323;0.86499023;-;-;-;-;-;-;-;-;-;-;-;-;-;-;-
1512472287050;-;-;10.464355;5.115402;-2.5850525;-;-;-;-;-;-;-;-;-;-;-;-;-;-;-
1512472287070;-;-;16.050018;1.4606476;-4.401062;-;-;-;-;-;-;-;-;-;-;-;-;-;-;-
1512472287091;-;-;14.4973755;-2.5448456;-4.393875;-;-;-;-;-;-;-;-;-;-;-;-;-;-;-
1512472287112;-;-;11.462723;-3.965805;-4.283737;-;-;-;-;-;-;-;-;-;-;-;-;-;-;-
1512472287133;-;-;8.832703;-3.3947906;-4.2490234;-;-;-;-;-;-;-;-;-;-;-;-;-;-;-
1512472287153;-;-;7.973175;-0.7192688;-1.4262543;-;-;-;-;-;-;-;-;-;-;-;-;-;-;-
1512472287173;-;-;7.391388;0.2420044;-0.20881653;-;-;-;-;-;-;-;-;-;-;-;-;-;-;-
1512472287194;-;-;7.375824;-1.0436859;-2.069107;-;-;-;-;-;-;-;-;-;-;-;-;-;-;-
1512472287214;-;-;7.016693;-0.917984;-2.9741058;-;-;-;-;-;-;-;-;-;-;-;-;-;-;-
1512472287235;-;-;6.427719;0.33299255;-2.8101044;-;-;-;-;-;-;-;-;-;-;-;-;-;-;-
1512472287256;-;-;7.189087;1.3636932;-2.7143402;-;-;-;-;-;-;-;-;-;-;-;-;-;-;-
1512472287276;-;-;7.9671936;-0.095581055;-1.8907318;-;-;-;-;-;-;-;-;-;-;-;-;-;-;-
1512472287296;-;-;7.485962;-2.7423706;-2.71315;-;-;-;-;-;-;-;-;-;-;-;-;-;-;-
1512472287316;-;-;7.470398;-3.799408;-2.673645;-;-;-;-;-;-;-;-;-;-;-;-;-;-;-
1512472287337;-;-;8.5849;-4.511688;-2.294159;-;-;-;-;-;-;-;-;-;-;-;-;-;-;-
1512472287357;-;-;10.354218;-4.4147186;-0.8791809;-;-;-;-;-;-;-;-;-;-;-;-;-;-;-
1512472287378;-;-;10.906082;-3.7251892;0.3310852;-;-;-;-;-;-;-;-;-;-;-;-;-;-;-
1512472287399;-;-;10.65947;-3.3828125;0.721344;-;-;-;-;-;-;-;-;-;-;-;-;-;-;-
1512472287419;-;-;10.385345;-4.290222;0.3430481;-;-;-;-;-;-;-;-;-;-;-;-;-;-;-
1512472287439;-;-;9.729324;-5.3233185;0.6770477;-;-;-;-;-;-;-;-;-;-;-;-;-;-;-
1512472287459;-;-;8.521454;-5.112625;1.4551544;-;-;-;-;-;-;-;-;-;-;-;-;-;-;-
1512472287480;-;-;8.097687;-4.941437;2.2488403;-;-;-;-;-;-;-;-;-;-;-;-;-;-;-
1512472287500;-;-;6.9149475;-4.5847015;1.3522034;-;-;-;-;-;-;-;-;-;-;-;-;-;-;-
1512472287521;-;-;5.403;-2.810608;1.6215515;-;-;-;-;-;-;-;-;-;-;-;-;-;-;-
1512472287541;-;-;6.6527863;-2.5089264;2.792328;-;-;-;-;-;-;-;-;-;-;-;-;-;-;-
1512472287562;-;-;6.257736;-2.2647247;2.5133972;-;-;-;-;-;-;-;-;-;-;-;-;-;-;-
1512472287582;-;-;10.239288;-3.8029938;3.5620575;-;-;-;-;-;-;-;-;-;-;-;-;-;-;-
1512472287601;-;-;7.26091;-3.202057;2.2895355;-;-;-;-;-;-;-;-;-;-;-;-;-;-;-
1512472287621;-;-;8.131195;-3.2236023;2.6450806;-;-;-;-;-;-;-;-;-;-;-;-;-;-;-
1512472287642;-;-;9.306747;-3.4414673;2.1602478;-;-;-;-;-;-;-;-;-;-;-;-;-;-;-
1512472287661;-;-;10.3302765;-3.148178;2.4284058;-;-;-;-;-;-;-;-;-;-;-;-;-;-;-
1512472287682;-;-;10.79953;-3.4055634;2.7025452;-;-;-;-;-;-;-;-;-;-;-;-;-;-;-
1512472287702;-;-;11.465118;-4.566742;2.1375122;-;-;-;-;-;-;-;-;-;-;-;-;-;-;-
1512472287723;-;-;12.795105;-5.4454193;1.5605011;-;-;-;-;-;-;-;-;-;-;-;-;-;-;-
1512472287743;-;-;13.880875;-5.578293;0.060531616;-;-;-;-;-;-;-;-;-;-;-;-;-;-;-
1512472287763;-;-;15.605896;-3.792221;0.6782379;-;-;-;-;-;-;-;-;-;-;-;-;-;-;-
1512472287783;-;-;15.767502;-3.249939;-0.54878235;-;-;-;-;-;-;-;-;-;-;-;-;-;-;-
1512472287804;-;-;13.661804;-2.8860168;-3.6804047;-;-;-;-;-;-;-;-;-;-;-;-;-;-;-
1512472287824;-;-;10.897705;-1.7296143;-4.602173;-;-;-;-;-;-;-;-;-;-;-;-;-;-;-
1512472287845;-;-;8.469971;-0.99938965;-2.5718842;-;-;-;-;-;-;-;-;-;-;-;-;-;-;-
1512472287864;-;-;8.094086;0.03730774;-1.4358368;-;-;-;-;-;-;-;-;-;-;-;-;-;-;-
1512472287884;-;-;8.917694;0.30426025;-1.7662354;-;-;-;-;-;-;-;-;-;-;-;-;-;-;-
1512472287905;-;-;8.92128;-0.78630066;-2.39711;-;-;-;-;-;-;-;-;-;-;-;-;-;-;-
1512472287925;-;-;8.969162;-1.6913147;-1.4142914;-;-;-;-;-;-;-;-;-;-;-;-;-;-;-
1512472287946;-;-;9.357025;-1.8182068;-0.6253967;-;-;-;-;-;-;-;-;-;-;-;-;-;-;-
1512472287966;-;-;8.684265;-1.4650574;0.14433289;-;-;-;-;-;-;-;-;-;-;-;-;-;-;-
1512472287987;-;-;6.6503906;-0.39245605;0.053359985;-;-;-;-;-;-;-;-;-;-;-;-;-;-;-
1512472288008;-;-;6.197876;-0.057266235;-0.7558899;-;-;-;-;-;-;-;-;-;-;-;-;-;-;-
1512472288028;-;-;5.6903076;-0.10874939;-0.9330597;-;-;-;-;-;-;-;-;-;-;-;-;-;-;-
1512472288048;-;-;5.6352386;-0.1015625;-0.535614;-;-;-;-;-;-;-;-;-;-;-;-;-;-;-
1512472288069;-;-;4.67157;0.2850952;0.53219604;-;-;-;-;-;-;-;-;-;-;-;-;-;-;-
1512472288089;-;-;4.600952;0.4909973;1.1151886;-;-;-;-;-;-;-;-;-;-;-;-;-;-;-
1512472288109;-;-;5.5861664;0.4072113;1.0158234;-;-;-;-;-;-;-;-;-;-;-;-;-;-;-
1512472288130;-;-;6.8048096;0.41438293;1.2372894;-;-;-;-;-;-;-;-;-;-;-;-;-;-;-
1512472288150;-;-;7.554199;0.730423;1.3222809;-;-;-;-;-;-;-;-;-;-;-;-;-;-;-
1512472288171;-;-;8.684265;0.8788605;1.7460632;-;-;-;-;-;-;-;-;-;-;-;-;-;-;-
1512472288191;-;-;9.589264;1.9179535;2.3410187;-;-;-;-;-;-;-;-;-;-;-;-;-;-;-
1512472288212;-;-;10.669052;2.3848114;2.4224243;-;-;-;-;-;-;-;-;-;-;-;-;-;-;-
1512472288231;-;-;10.789963;3.0803375;2.362564;-;-;-;-;-;-;-;-;-;-;-;-;-;-;-
1512472288251;-;-;10.451187;3.18927;2.769577;-;-;-;-;-;-;-;-;-;-;-;-;-;-;-
1512472288271;-;-;10.992264;2.9498444;2.9323883;-;-;-;-;-;-;-;-;-;-;-;-;-;-;-
1512472288292;-;-;11.0772705;2.521286;3.568039;-;-;-;-;-;-;-;-;-;-;-;-;-;-;-
1512472288312;-;-;10.647507;1.8724518;4.034912;-;-;-;-;-;-;-;-;-;-;-;-;-;-;-
1512472288333;-;-;12.464706;-0.48942566;-2.6173706;-;-;-;-;-;-;-;-;-;-;-;-;-;-;-
1512472288353;-;-;15.450272;3.0671692;-3.0555115;-;-;-;-;-;-;-;-;-;-;-;-;-;-;-
1512472288373;-;-;20.2267;0.299469;-1.9553833;-;-;-;-;-;-;-;-;-;-;-;-;-;-;-
1512472288393;-;-;10.514633;-1.0376892;-3.314087;-;-;-;-;-;-;-;-;-;-;-;-;-;-;-
1512472288414;-;-;6.817978;-0.838974;-0.77264404;-;-;-;-;-;-;-;-;-;-;-;-;-;-;-
1512472288435;-;-;5.624466;-0.1302948;0.87815857;-;-;-;-;-;-;-;-;-;-;-;-;-;-;-
1512472288454;-;-;4.834381;0.71606445;-1.0264282;-;-;-;-;-;-;-;-;-;-;-;-;-;-;-
1512472288476;-;-;3.8000946;0.8716736;-2.915451;-;-;-;-;-;-;-;-;-;-;-;-;-;-;-
1512472288495;-;-;6.339142;0.1905365;-2.2738037;-;-;-;-;-;-;-;-;-;-;-;-;-;-;-
1512472288515;-;-;8.9392395;-0.9323425;-0.51646423;-;-;-;-;-;-;-;-;-;-;-;-;-;-;-
1512472288536;-;-;9.266052;-1.6937103;0.7823944;-;-;-;-;-;-;-;-;-;-;-;-;-;-;-
1512472288556;-;-;9.503082;-1.2088776;-1.021637;-;-;-;-;-;-;-;-;-;-;-;-;-;-;-
1512472288577;-;-;9.464767;-1.2232513;-0.5607605;-;-;-;-;-;-;-;-;-;-;-;-;-;-;-
1512472288596;-;-;8.593277;-1.2352142;-1.2024078;-;-;-;-;-;-;-;-;-;-;-;-;-;-;-
1512472288617;-;-;7.659546;-1.6542053;-0.7750397;-;-;-;-;-;-;-;-;-;-;-;-;-;-;-
1512472288638;-;-;6.044647;-2.3784485;-0.7295532;-;-;-;-;-;-;-;-;-;-;-;-;-;-;-
1512472288658;-;-;4.893036;-2.8608856;-0.059173584;-;-;-;-;-;-;-;-;-;-;-;-;-;-;-
1512472288678;-;-;4.9648743;-2.613083;0.23651123;-;-;-;-;-;-;-;-;-;-;-;-;-;-;-
1512472288699;-;-;6.340332;-2.2754974;1.0505371;-;-;-;-;-;-;-;-;-;-;-;-;-;-;-
1512472288719;-;-;7.1878815;-1.7164459;0.6064148;-;-;-;-;-;-;-;-;-;-;-;-;-;-;-
1512472288739;-;-;8.796783;-1.5763855;1.2887573;-;-;-;-;-;-;-;-;-;-;-;-;-;-;-
1512472288760;-;-;9.444412;-2.004959;1.9782867;-;-;-;-;-;-;-;-;-;-;-;-;-;-;-
1512472288780;-;-;10.06572;-2.2359924;1.7400665;-;-;-;-;-;-;-;-;-;-;-;-;-;-;-
1512472288800;-;-;10.472733;-2.3832397;1.6766205;-;-;-;-;-;-;-;-;-;-;-;-;-;-;-
1512472288821;-;-;10.6271515;-2.834549;2.5888214;-;-;-;-;-;-;-;-;-;-;-;-;-;-;-
1512472288842;-;-;9.725739;-3.344513;2.714508;-;-;-;-;-;-;-;-;-;-;-;-;-;-;-
1512472288862;-;-;9.832275;-3.816162;2.8342133;-;-;-;-;-;-;-;-;-;-;-;-;-;-;-
1512472288883;-;-;10.120773;-3.9394684;2.7192993;-;-;-;-;-;-;-;-;-;-;-;-;-;-;-
1512472288903;-;-;9.63475;-3.179306;0.25805664;-;-;-;-;-;-;-;-;-;-;-;-;-;-;-
1512472288924;-;-;10.089661;-3.8640442;-1.2012024;-;-;-;-;-;-;-;-;-;-;-;-;-;-;-
1512472288944;-;-;14.1214905;-4.048401;0.65071106;-;-;-;-;-;-;-;-;-;-;-;-;-;-;-
1512472288965;-;-;17.631393;-2.3892212;-0.107055664;-;-;-;-;-;-;-;-;-;-;-;-;-;-;-
1512472288985;-;-;17.486542;-1.882843;-1.5459747;-;-;-;-;-;-;-;-;-;-;-;-;-;-;-
1512472289006;-;-;13.551666;-2.5125275;-5.0953827;-;-;-;-;-;-;-;-;-;-;-;-;-;-;-
1512472289026;-;-;10.473923;-1.5763855;-2.508438;-;-;-;-;-;-;-;-;-;-;-;-;-;-;-
1512472289047;-;-;7.087326;0.076812744;-0.48893738;-;-;-;-;-;-;-;-;-;-;-;-;-;-;-
1512472289067;-;-;4.866699;0.51493835;-0.31056213;-;-;-;-;-;-;-;-;-;-;-;-;-;-;-
1512472289088;-;-;6.0374756;-0.28231812;-0.28063965;-;-;-;-;-;-;-;-;-;-;-;-;-;-;-
1512472289108;-;-;7.2046356;-0.7803192;0.7404938;-;-;-;-;-;-;-;-;-;-;-;-;-;-;-
1512472289129;-;-;8.018677;-0.7480011;0.89372253;-;-;-;-;-;-;-;-;-;-;-;-;-;-;-
1512472289159;-;-;7.8833923;-0.8605194;6.866455E-4;-;-;-;-;-;-;-;-;-;-;-;-;-;-;-
1512472289178;-;-;7.0346527;-0.7480011;-1.2945862;-;-;-;-;-;-;-;-;-;-;-;-;-;-;-
1512472289199;-;-;6.3295593;-0.27394104;-0.7702484;-;-;-;-;-;-;-;-;-;-;-;-;-;-;-
1512472289218;-;-;6.6264496;0.25038147;-0.080718994;-;-;-;-;-;-;-;-;-;-;-;-;-;-;-
1512472289239;-;-;6.7736816;0.7830963;0.17546082;-;-;-;-;-;-;-;-;-;-;-;-;-;-;-
1512472289259;-;-;6.7222137;1.4846039;0.18981934;-;-;-;-;-;-;-;-;-;-;-;-;-;-;-
1512472289279;-;-;7.138809;1.7934418;-0.01727295;-;-;-;-;-;-;-;-;-;-;-;-;-;-;-
1512472289300;-;-;6.557007;1.8365479;0.72972107;-;-;-;-;-;-;-;-;-;-;-;-;-;-;-
1512472289320;-;-;7.1376038;1.6091003;0.80513;-;-;-;-;-;-;-;-;-;-;-;-;-;-;-
1512472289342;-;-;7.408142;0.97224426;0.8554077;-;-;-;-;-;-;-;-;-;-;-;-;-;-;-
1512472289361;-;-;8.322739;0.2635498;1.3055267;-;-;-;-;-;-;-;-;-;-;-;-;-;-;-
1512472289382;-;-;8.918884;0.43115234;1.3091125;-;-;-;-;-;-;-;-;-;-;-;-;-;-;-
1512472289402;-;-;10.428436;0.83218384;2.821045;-;-;-;-;-;-;-;-;-;-;-;-;-;-;-
1512472289423;-;-;11.471115;1.6737366;3.0640564;-;-;-;-;-;-;-;-;-;-;-;-;-;-;-
1512472289443;-;-;11.942764;3.0503998;2.3410187;-;-;-;-;-;-;-;-;-;-;-;-;-;-;-
1512472289464;-;-;12.336609;3.5065002;2.3673553;-;-;-;-;-;-;-;-;-;-;-;-;-;-;-
1512472289483;-;-;11.982269;2.4219208;1.4264374;-;-;-;-;-;-;-;-;-;-;-;-;-;-;-
1512472289504;-;-;12.452728;2.181305;1.2899628;-;-;-;-;-;-;-;-;-;-;-;-;-;-;-
1512472289524;-;-;13.394852;1.5659943;1.4204407;-;-;-;-;-;-;-;-;-;-;-;-;-;-;-
1512472289545;-;-;14.566818;2.026886;-1.2203674;-;-;-;-;-;-;-;-;-;-;-;-;-;-;-
1512472289565;-;-;12.214508;0.50057983;-3.753418;-;-;-;-;-;-;-;-;-;-;-;-;-;-;-
1512472289585;-;-;10.025009;-0.1410675;-1.8368683;-;-;-;-;-;-;-;-;-;-;-;-;-;-;-
1512472289606;-;-;7.837906;-0.65940857;-0.372818;-;-;-;-;-;-;-;-;-;-;-;-;-;-;-
1512472289626;-;-;6.9269104;-0.83657837;-0.81933594;-;-;-;-;-;-;-;-;-;-;-;-;-;-;-
1512472289647;-;-;7.813965;0.80584717;-2.3252869;-;-;-;-;-;-;-;-;-;-;-;-;-;-;-
1512472289668;-;-;9.723343;1.0871582;-1.4370422;-;-;-;-;-;-;-;-;-;-;-;-;-;-;-
1512472289688;-;-;10.368576;-0.3397827;-1.4047089;-;-;-;-;-;-;-;-;-;-;-;-;-;-;-
1512472289709;-;-;9.533005;-1.5165405;-0.64216614;-;-;-;-;-;-;-;-;-;-;-;-;-;-;-
1512472289729;-;-;7.968399;-2.22641;-0.3045807;-;-;-;-;-;-;-;-;-;-;-;-;-;-;-
1512472289750;-;-;7.252533;-1.9905853;-0.6804657;-;-;-;-;-;-;-;-;-;-;-;-;-;-;-
1512472289770;-;-;7.1950684;-1.1693726;-0.53681946;-;-;-;-;-;-;-;-;-;-;-;-;-;-;-
1512472289792;-;-;6.8455048;-0.6522217;0.29756165;-;-;-;-;-;-;-;-;-;-;-;-;-;-;-
1512472289812;-;-;5.7573547;-1.146637;0.015045166;-;-;-;-;-;-;-;-;-;-;-;-;-;-;-
1512472289831;-;-;4.9696503;-1.5285034;-0.38238525;-;-;-;-;-;-;-;-;-;-;-;-;-;-;-
1512472289851;-;-;4.4213867;-2.1462097;0.058151245;-;-;-;-;-;-;-;-;-;-;-;-;-;-;-
1512472289872;-;-;4.561447;-2.3221893;0.5860596;-;-;-;-;-;-;-;-;-;-;-;-;-;-;-
1512472289893;-;-;4.848755;-2.262329;1.0409698;-;-;-;-;-;-;-;-;-;-;-;-;-;-;-
1512472289912;-;-;6.9747925;-2.2192383;1.2444763;-;-;-;-;-;-;-;-;-;-;-;-;-;-;-
1512472289933;-;-;9.196625;-2.30542;1.3677673;-;-;-;-;-;-;-;-;-;-;-;-;-;-;-
1512472289953;-;-;11.517792;-3.4606323;1.1151886;-;-;-;-;-;-;-;-;-;-;-;-;-;-;-
1512472289974;-;-;13.23204;-4.1621246;0.91526794;-;-;-;-;-;-;-;-;-;-;-;-;-;-;-
1512472289994;-;-;12.008606;-3.7431488;1.2576447;-;-;-;-;-;-;-;-;-;-;-;-;-;-;-
1512472290014;-;-;11.384918;-4.0867157;1.9567413;-;-;-;-;-;-;-;-;-;-;-;-;-;-;-
1512472290034;-;-;9.877762;-4.6744843;2.2177124;-;-;-;-;-;-;-;-;-;-;-;-;-;-;-
1512472290054;-;-;10.193802;-4.6792755;-0.18247986;-;-;-;-;-;-;-;-;-;-;-;-;-;-;-
1512472290075;-;-;12.633499;-4.0148773;-0.8360901;-;-;-;-;-;-;-;-;-;-;-;-;-;-;-
1512472290096;-;-;14.715256;-3.4330902;-0.2566986;-;-;-;-;-;-;-;-;-;-;-;-;-;-;-
1512472290116;-;-;14.569214;-2.637024;-1.697998;-;-;-;-;-;-;-;-;-;-;-;-;-;-;-
1512472290136;-;-;13.610336;-1.6398315;-0.029251099;-;-;-;-;-;-;-;-;-;-;-;-;-;-;-
1512472290156;-;-;10.372177;-0.7013092;-2.6712494;-;-;-;-;-;-;-;-;-;-;-;-;-;-;-
1512472290177;-;-;9.141556;-0.03453064;-1.6692657;-;-;-;-;-;-;-;-;-;-;-;-;-;-;-
1512472290197;-;-;8.367035;0.3030548;-0.8181305;-;-;-;-;-;-;-;-;-;-;-;-;-;-;-
1512472290221;-;-;7.003525;-0.07043457;-0.5236511;-;-;-;-;-;-;-;-;-;-;-;-;-;-;-
1512472290242;-;-;6.8191833;-1.3070374;0.20059204;-;-;-;-;-;-;-;-;-;-;-;-;-;-;-
1512472290262;-;-;6.546234;-1.843338;0.8302765;-;-;-;-;-;-;-;-;-;-;-;-;-;-;-
1512472290283;-;-;6.3690643;-1.1957092;0.51423645;-;-;-;-;-;-;-;-;-;-;-;-;-;-;-
1512472290303;-;-;5.3108215;0.10194397;-0.6218109;-;-;-;-;-;-;-;-;-;-;-;-;-;-;-
1512472290323;-;-;5.7621307;0.64183044;-1.4537964;-;-;-;-;-;-;-;-;-;-;-;-;-;-;-
1512472290343;-;-;5.5275116;1.2547607;-0.7774353;-;-;-;-;-;-;-;-;-;-;-;-;-;-;-
1512472290364;-;-;5.7573547;1.3636932;0.34664917;-;-;-;-;-;-;-;-;-;-;-;-;-;-;-
1512472290384;-;-;5.959656;1.4414978;0.350235;-;-;-;-;-;-;-;-;-;-;-;-;-;-;-
1512472290405;-;-;6.233795;1.5432587;0.28320313;-;-;-;-;-;-;-;-;-;-;-;-;-;-;-
1512472290425;-;-;6.462433;1.5995178;0.4184723;-;-;-;-;-;-;-;-;-;-;-;-;-;-;-
1512472290446;-;-;6.8910065;1.2080688;0.88534546;-;-;-;-;-;-;-;-;-;-;-;-;-;-;-
1512472290466;-;-;8.449631;0.20249939;1.1247559;-;-;-;-;-;-;-;-;-;-;-;-;-;-;-
1512472290486;-;-;10.068115;0.51135254;1.3929138;-;-;-;-;-;-;-;-;-;-;-;-;-;-;-
1512472290507;-;-;11.19458;1.2774963;1.9567413;-;-;-;-;-;-;-;-;-;-;-;-;-;-;-
1512472290527;-;-;10.95755;1.5276947;2.5612793;-;-;-;-;-;-;-;-;-;-;-;-;-;-;-
1512472290548;-;-;10.827072;1.7814789;2.9886475;-;-;-;-;-;-;-;-;-;-;-;-;-;-;-
1512472290568;-;-;10.545746;1.8497162;3.1239166;-;-;-;-;-;-;-;-;-;-;-;-;-;-;-
1512472290589;-;-;10.093246;1.9059753;3.6697998;-;-;-;-;-;-;-;-;-;-;-;-;-;-;-
1512472290609;-;-;10.951569;1.8580933;1.4611511;-;-;-;-;-;-;-;-;-;-;-;-;-;-;-
1512472290630;-;-;13.360138;2.2890472;-1.2287445;-;-;-;-;-;-;-;-;-;-;-;-;-;-;-
1512472290651;-;-;15.689697;2.5931091;1.3162994;-;-;-;-;-;-;-;-;-;-;-;-;-;-;-
1512472290672;-;-;17.804977;1.6809235;0.33467102;-;-;-;-;-;-;-;-;-;-;-;-;-;-;-
1512472290692;-;-;12.532944;-0.48104858;-4.5530853;-;-;-;-;-;-;-;-;-;-;-;-;-;-;-
1512472290713;-;-;8.411316;0.2743225;-1.7698364;-;-;-;-;-;-;-;-;-;-;-;-;-;-;-
1512472290733;-;-;5.4449005;-0.54808044;-1.100647;-;-;-;-;-;-;-;-;-;-;-;-;-;-;-
1512472290754;-;-;4.0131683;-0.8461609;-1.9134827;-;-;-;-;-;-;-;-;-;-;-;-;-;-;-
1512472290773;-;-;5.854309;-0.1697998;-2.8244781;-;-;-;-;-;-;-;-;-;-;-;-;-;-;-
1512472290794;-;-;10.353012;0.09475708;-1.6884308;-;-;-;-;-;-;-;-;-;-;-;-;-;-;-
1512472290814;-;-;11.125153;0.25875854;-1.0515747;-;-;-;-;-;-;-;-;-;-;-;-;-;-;-
1512472290835;-;-;10.192612;0.24679565;-0.5439911;-;-;-;-;-;-;-;-;-;-;-;-;-;-;-
1512472290855;-;-;8.674683;-0.56243896;-0.8767853;-;-;-;-;-;-;-;-;-;-;-;-;-;-;-
1512472290876;-;-;7.1292267;-1.0999451;-0.5727234;-;-;-;-;-;-;-;-;-;-;-;-;-;-;-
1512472290896;-;-;5.6986847;-1.3609161;-0.48054504;-;-;-;-;-;-;-;-;-;-;-;-;-;-;-
1512472290918;-;-;5.1037292;-1.2603607;-0.14416504;-;-;-;-;-;-;-;-;-;-;-;-;-;-;-
1512472290938;-;-;4.766144;-1.8924255;0.42565918;-;-;-;-;-;-;-;-;-;-;-;-;-;-;-
1512472290958;-;-;4.3770905;-3.258316;0.4005127;-;-;-;-;-;-;-;-;-;-;-;-;-;-;-
1512472290978;-;-;4.5518646;-4.2411346;0.45318604;-;-;-;-;-;-;-;-;-;-;-;-;-;-;-
1512472290999;-;-;6.2661133;-3.9645996;0.47114563;-;-;-;-;-;-;-;-;-;-;-;-;-;-;-
1512472291019;-;-;7.398575;-2.4730225;0.88653564;-;-;-;-;-;-;-;-;-;-;-;-;-;-;-
1512472291040;-;-;7.6667175;-1.3704834;1.2408752;-;-;-;-;-;-;-;-;-;-;-;-;-;-;-
1512472291061;-;-;8.452026;-1.8086243;1.5162201;-;-;-;-;-;-;-;-;-;-;-;-;-;-;-
1512472291081;-;-;10.131561;-2.981781;1.7508392;-;-;-;-;-;-;-;-;-;-;-;-;-;-;-
1512472291101;-;-;12.142685;-2.9638367;2.0249786;-;-;-;-;-;-;-;-;-;-;-;-;-;-;-
1512472291122;-;-;13.25;-2.5316772;2.7504272;-;-;-;-;-;-;-;-;-;-;-;-;-;-;-
1512472291141;-;-;13.165009;-2.638214;2.8833008;-;-;-;-;-;-;-;-;-;-;-;-;-;-;-
1512472291161;-;-;10.552933;-3.7946167;1.7388763;-;-;-;-;-;-;-;-;-;-;-;-;-;-;-
1512472291182;-;-;8.708206;-5.183258;1.3043213;-;-;-;-;-;-;-;-;-;-;-;-;-;-;-
1512472291203;-;-;10.162674;-5.760254;-0.10346985;-;-;-;-;-;-;-;-;-;-;-;-;-;-;-
1512472291223;-;-;14.528503;-4.00531;0.5561371;-;-;-;-;-;-;-;-;-;-;-;-;-;-;-
1512472291244;-;-;15.30542;-1.3022614;-0.016082764;-;-;-;-;-;-;-;-;-;-;-;-;-;-;-
1512472291264;-;-;15.009735;-1.1047363;-2.175644;-;-;-;-;-;-;-;-;-;-;-;-;-;-;-
1512472291284;-;-;12.529343;-2.6884918;-2.148117;-;-;-;-;-;-;-;-;-;-;-;-;-;-;-
1512472291305;-;-;9.9388275;-2.0265045;-1.4980927;-;-;-;-;-;-;-;-;-;-;-;-;-;-;-
1512472291326;-;-;8.938049;-0.9323425;-0.06036377;-;-;-;-;-;-;-;-;-;-;-;-;-;-;-
1512472291346;-;-;8.131195;-0.3864746;-0.8684082;-;-;-;-;-;-;-;-;-;-;-;-;-;-;-
1512472291367;-;-;7.961212;-0.8772888;-0.03881836;-;-;-;-;-;-;-;-;-;-;-;-;-;-;-
1512472291387;-;-;8.0138855;-0.99220276;0.8913269;-;-;-;-;-;-;-;-;-;-;-;-;-;-;-
1512472291407;-;-;7.9181213;-1.0556488;0.5118408;-;-;-;-;-;-;-;-;-;-;-;-;-;-;-
1512472291428;-;-;6.94487;-0.7420044;-0.7451172;-;-;-;-;-;-;-;-;-;-;-;-;-;-;-
1512472291447;-;-;6.1883087;-0.1302948;-1.5830841;-;-;-;-;-;-;-;-;-;-;-;-;-;-;-
1512472291468;-;-;5.671158;0.26475525;-1.7303314;-;-;-;-;-;-;-;-;-;-;-;-;-;-;-
1512472291488;-;-;5.352722;0.8237915;-0.4817505;-;-;-;-;-;-;-;-;-;-;-;-;-;-;-
1512472291509;-;-;5.5275116;1.3110199;0.47473145;-;-;-;-;-;-;-;-;-;-;-;-;-;-;-
1512472291530;-;-;6.2230225;1.5492401;0.9487915;-;-;-;-;-;-;-;-;-;-;-;-;-;-;-
1512472291549;-;-;6.185913;1.7312012;0.71295166;-;-;-;-;-;-;-;-;-;-;-;-;-;-;-
1512472291570;-;-;5.8124084;1.8963928;0.3310852;-;-;-;-;-;-;-;-;-;-;-;-;-;-;-
1512472291590;-;-;5.490387;1.7024689;0.3203125;-;-;-;-;-;-;-;-;-;-;-;-;-;-;-
1512472291610;-;-;7.087326;0.45628357;1.0469513;-;-;-;-;-;-;-;-;-;-;-;-;-;-;-
1512472291631;-;-;7.4297028;0.58078;1.0696869;-;-;-;-;-;-;-;-;-;-;-;-;-;-;-
1512472291651;-;-;8.814743;0.2815094;2.8031006;-;-;-;-;-;-;-;-;-;-;-;-;-;-;-
1512472291671;-;-;9.803543;0.34735107;3.5093842;-;-;-;-;-;-;-;-;-;-;-;-;-;-;-
1512472291692;-;-;10.190216;0.88246155;3.468689;-;-;-;-;-;-;-;-;-;-;-;-;-;-;-
1512472291712;-;-;10.9767;1.6869049;3.4818573;-;-;-;-;-;-;-;-;-;-;-;-;-;-;-
1512472291733;-;-;12.067261;2.6972656;3.090393;-;-;-;-;-;-;-;-;-;-;-;-;-;-;-
1512472291752;-;-;11.939178;3.3125763;1.4527588;-;-;-;-;-;-;-;-;-;-;-;-;-;-;-
1512472291772;-;-;12.874115;3.156952;-1.5172424;-;-;-;-;-;-;-;-;-;-;-;-;-;-;-
1512472291793;-;-;13.719269;2.864853;-2.0092468;-;-;-;-;-;-;-;-;-;-;-;-;-;-;-
1512472291814;-;-;17.711594;2.4530487;1.7281036;-;-;-;-;-;-;-;-;-;-;-;-;-;-;-
1512472291835;-;-;15.468231;2.0855408;-1.6321564;-;-;-;-;-;-;-;-;-;-;-;-;-;-;-
1512472291854;-;-;11.059311;1.2942505;-5.32283;-;-;-;-;-;-;-;-;-;-;-;-;-;-;-
1512472291874;-;-;8.0928955;1.1158905;-0.97735596;-;-;-;-;-;-;-;-;-;-;-;-;-;-;-
1512472291895;-;-;5.572998;-0.114730835;-1.6273804;-;-;-;-;-;-;-;-;-;-;-;-;-;-;-
1512472291915;-;-;3.8407898;-0.67378235;-1.9075012;-;-;-;-;-;-;-;-;-;-;-;-;-;-;-
1512472291936;-;-;6.297241;-1.2040863;-1.911087;-;-;-;-;-;-;-;-;-;-;-;-;-;-;-
1512472291956;-;-;9.169083;-1.7116699;-1.2311401;-;-;-;-;-;-;-;-;-;-;-;-;-;-;-
1512472291977;-;-;10.509842;-1.9714355;-0.5691376;-;-;-;-;-;-;-;-;-;-;-;-;-;-;-
1512472291996;-;-;9.187042;-1.7655334;0.29516602;-;-;-;-;-;-;-;-;-;-;-;-;-;-;-
1512472292016;-;-;8.246124;-1.4758301;0.036590576;-;-;-;-;-;-;-;-;-;-;-;-;-;-;-
1512472292037;-;-;7.257309;-0.8270111;0.058151245;-;-;-;-;-;-;-;-;-;-;-;-;-;-;-
1512472292058;-;-;5.988388;-0.04170227;-0.4530182;-;-;-;-;-;-;-;-;-;-;-;-;-;-;-
1512472292079;-;-;5.7932587;0.43354797;-0.85165405;-;-;-;-;-;-;-;-;-;-;-;-;-;-;-
1512472292099;-;-;5.04747;-0.210495;-0.27345276;-;-;-;-;-;-;-;-;-;-;-;-;-;-;-
1512472292120;-;-;4.80925;-1.4231567;0.023422241;-;-;-;-;-;-;-;-;-;-;-;-;-;-;-
1512472292140;-;-;4.5794067;-2.182129;0.4220581;-;-;-;-;-;-;-;-;-;-;-;-;-;-;-
1512472292161;-;-;5.4365234;-2.969818;1.1403198;-;-;-;-;-;-;-;-;-;-;-;-;-;-;-
1512472292182;-;-;7.1076813;-3.289444;1.4372101;-;-;-;-;-;-;-;-;-;-;-;-;-;-;-
1512472292202;-;-;8.502304;-3.4271088;1.2384796;-;-;-;-;-;-;-;-;-;-;-;-;-;-;-
1512472292223;-;-;9.663483;-3.3061981;0.78718567;-;-;-;-;-;-;-;-;-;-;-;-;-;-;-
1512472292243;-;-;9.388153;-2.9159393;0.23292542;-;-;-;-;-;-;-;-;-;-;-;-;-;-;-
1512472292264;-;-;9.169083;-2.870453;0.18504333;-;-;-;-;-;-;-;-;-;-;-;-;-;-;-
1512472292284;-;-;9.610809;-2.8884125;0.45318604;-;-;-;-;-;-;-;-;-;-;-;-;-;-;-
1512472292305;-;-;10.009445;-3.2176208;1.2732086;-;-;-;-;-;-;-;-;-;-;-;-;-;-;-
1512472292324;-;-;10.12677;-3.5695648;2.3889008;-;-;-;-;-;-;-;-;-;-;-;-;-;-;-
1512472292345;-;-;9.734116;-3.9035492;2.68219;-;-;-;-;-;-;-;-;-;-;-;-;-;-;-
1512472292364;-;-;9.471954;-4.2878265;3.0233612;-;-;-;-;-;-;-;-;-;-;-;-;-;-;-
1512472292385;-;-;8.668701;-4.922287;2.5612793;-;-;-;-;-;-;-;-;-;-;-;-;-;-;-
1512472292405;-;-;9.865799;-5.4274597;2.0166016;-;-;-;-;-;-;-;-;-;-;-;-;-;-;-
1512472292425;-;-;11.639908;-5.739914;-0.028045654;-;-;-;-;-;-;-;-;-;-;-;-;-;-;-
1512472292446;-;-;13.612717;-6.7466736;0.77760315;-;-;-;-;-;-;-;-;-;-;-;-;-;-;-
1512472292466;-;-;14.840942;-5.0850983;1.2265167;-;-;-;-;-;-;-;-;-;-;-;-;-;-;-
1512472292487;-;-;17.7128;-3.0596008;2.539734;-;-;-;-;-;-;-;-;-;-;-;-;-;-;-
1512472292507;-;-;15.219238;-2.3592987;-0.43745422;-;-;-;-;-;-;-;-;-;-;-;-;-;-;-
1512472292527;-;-;10.685806;-2.5460358;-4.694351;-;-;-;-;-;-;-;-;-;-;-;-;-;-;-
1512472292548;-;-;8.18985;0.10673523;-1.9517822;-;-;-;-;-;-;-;-;-;-;-;-;-;-;-
1512472292568;-;-;7.0190887;2.002945;0.55015564;-;-;-;-;-;-;-;-;-;-;-;-;-;-;-
1512472292588;-;-;6.6695404;0.36889648;1.5545197;-;-;-;-;-;-;-;-;-;-;-;-;-;-;-
1512472292609;-;-;6.5630035;-2.5292816;0.1479187;-;-;-;-;-;-;-;-;-;-;-;-;-;-;-
1512472292628;-;-;7.3650513;-3.502533;0.21257019;-;-;-;-;-;-;-;-;-;-;-;-;-;-;-
1512472292648;-;-;8.126404;-2.981781;1.1068115;-;-;-;-;-;-;-;-;-;-;-;-;-;-;-
1512472292669;-;-;7.9037476;-1.7104645;0.3825531;-;-;-;-;-;-;-;-;-;-;-;-;-;-;-
1512472292689;-;-;6.4001923;-0.36013794;-0.2973938;-;-;-;-;-;-;-;-;-;-;-;-;-;-;-
1512472292709;-;-;6.206253;-0.052474976;-1.1449432;-;-;-;-;-;-;-;-;-;-;-;-;-;-;-
1512472292730;-;-;5.521515;0.069625854;-1.5962524;-;-;-;-;-;-;-;-;-;-;-;-;-;-;-
1512472292751;-;-;5.4042053;0.3222046;-0.8468628;-;-;-;-;-;-;-;-;-;-;-;-;-;-;-
1512472292770;-;-;6.038666;0.7016907;0.18981934;-;-;-;-;-;-;-;-;-;-;-;-;-;-;-
1512472292790;-;-;6.363083;1.2320099;-0.049591064;-;-;-;-;-;-;-;-;-;-;-;-;-;-;-
1512472292810;-;-;6.5163116;1.2607422;0.4699402;-;-;-;-;-;-;-;-;-;-;-;-;-;-;-
1512472292831;-;-;6.8323517;0.67655945;0.77401733;-;-;-;-;-;-;-;-;-;-;-;-;-;-;-
1512472292851;-;-;7.344696;-0.21647644;1.1139832;-;-;-;-;-;-;-;-;-;-;-;-;-;-;-
1512472292872;-;-;7.6308136;-0.86291504;0.6758423;-;-;-;-;-;-;-;-;-;-;-;-;-;-;-
1512472292892;-;-;8.334702;-0.59477234;0.860199;-;-;-;-;-;-;-;-;-;-;-;-;-;-;-
1512472292913;-;-;9.009872;-0.08241272;0.89611816;-;-;-;-;-;-;-;-;-;-;-;-;-;-;-
1512472292933;-;-;9.689819;0.22164917;0.87934875;-;-;-;-;-;-;-;-;-;-;-;-;-;-;-
1512472292954;-;-;9.841858;0.3605194;0.9799042;-;-;-;-;-;-;-;-;-;-;-;-;-;-;-
1512472292973;-;-;8.92128;0.9387207;1.196579;-;-;-;-;-;-;-;-;-;-;-;-;-;-;-
1512472292993;-;-;8.043808;1.3469238;2.0130157;-;-;-;-;-;-;-;-;-;-;-;-;-;-;-
1512472293014;-;-;7.4201202;1.3421478;2.2608032;-;-;-;-;-;-;-;-;-;-;-;-;-;-;-
1512472293034;-;-;7.0969086;0.9686432;2.3398132;-;-;-;-;-;-;-;-;-;-;-;-;-;-;-
1512472293055;-;-;7.3686523;0.48980713;2.4750977;-;-;-;-;-;-;-;-;-;-;-;-;-;-;-
1512472293074;-;-;6.2828674;0.76753235;2.9299927;-;-;-;-;-;-;-;-;-;-;-;-;-;-;-
1512472293094;-;-;11.714127;-0.6725769;2.1674347;-;-;-;-;-;-;-;-;-;-;-;-;-;-;-
1512472293115;-;-;10.965927;-0.56604004;2.6307068;-;-;-;-;-;-;-;-;-;-;-;-;-;-;-
1512472293134;-;-;11.19458;-0.6294861;3.2687683;-;-;-;-;-;-;-;-;-;-;-;-;-;-;-
1512472293155;-;-;11.080856;0.43473816;1.1953888;-;-;-;-;-;-;-;-;-;-;-;-;-;-;-
1512472293175;-;-;12.446747;0.7040863;1.0684967;-;-;-;-;-;-;-;-;-;-;-;-;-;-;-
1512472293196;-;-;15.567596;1.5229034;-0.34648132;-;-;-;-;-;-;-;-;-;-;-;-;-;-;-
1512472293217;-;-;12.601166;0.59155273;-1.2275391;-;-;-;-;-;-;-;-;-;-;-;-;-;-;-
1512472293237;-;-;11.483078;-0.40083313;-3.0543213;-;-;-;-;-;-;-;-;-;-;-;-;-;-;-
1512472293257;-;-;9.471954;-1.0592499;-3.0064392;-;-;-;-;-;-;-;-;-;-;-;-;-;-;-
1512472293277;-;-;6.987961;-1.819397;-2.0499573;-;-;-;-;-;-;-;-;-;-;-;-;-;-;-
1512472293298;-;-;5.85791;-1.7667236;-1.3939362;-;-;-;-;-;-;-;-;-;-;-;-;-;-;-
1512472293318;-;-;6.4959564;-0.54808044;-0.9557953;-;-;-;-;-;-;-;-;-;-;-;-;-;-;-
1512472293339;-;-;8.627991;0.62986755;-1.6261749;-;-;-;-;-;-;-;-;-;-;-;-;-;-;-
1512472293359;-;-;10.181839;0.9195709;-2.0978394;-;-;-;-;-;-;-;-;-;-;-;-;-;-;-
1512472293380;-;-;11.384918;0.77830505;-1.6596985;-;-;-;-;-;-;-;-;-;-;-;-;-;-;-
1512472293400;-;-;10.263229;-0.24401855;-1.0156555;-;-;-;-;-;-;-;-;-;-;-;-;-;-;-
1512472293420;-;-;8.375412;-1.3752747;-1.3628082;-;-;-;-;-;-;-;-;-;-;-;-;-;-;-
