TimeStamp[ms];Prox[Cm];Lux[lux];AccX[m/s^2];AccY[m/s^2];AccZ[m/s^2];GyroX[rad/s];GyroY[rad/s];GyroZ[rad/s];MagnX[uT];MagnY[uT];MagnZ[uT];OrienYaw[degrees];OrienPitch[degrees];OrienRoll[degrees];Press[Pa];Temp[C°];Batt[%];Lat;Lng;Speed[m/s]
1511262474701;-;-;9.137955;-0.78630066;-0.9474182;-;-;-;-;-;-;-;-;-;-;-;-;-;-;-
1511262474702;-;-;9.137955;-0.78630066;-0.9474182;-;-;-;-;-;-;-;-;-;-;-;-;-;-;-
1511262474717;-;-;9.347458;-0.9060211;-1.0048828;-;-;-;-;-;-;-;-;-;-;-;-;-;-;-
1511262474738;-;-;9.240906;-0.9215698;-1.0479736;-;-;-;-;-;-;-;-;-;-;-;-;-;-;-
1511262474758;-;-;9.49469;-0.76594543;-0.96777344;-;-;-;-;-;-;-;-;-;-;-;-;-;-;-
1511262474778;-;-;9.457581;-0.5253296;-1.2299347;-;-;-;-;-;-;-;-;-;-;-;-;-;-;-
1511262474799;-;-;9.220566;-0.9359436;-1.124588;-;-;-;-;-;-;-;-;-;-;-;-;-;-;-
1511262474819;-;-;9.299576;-0.79707336;-1.0635376;-;-;-;-;-;-;-;-;-;-;-;-;-;-;-
1511262474840;-;-;8.976349;-0.83418274;-0.75109863;-;-;-;-;-;-;-;-;-;-;-;-;-;-;-
1511262474859;-;-;9.164291;-0.8581238;-0.8576355;-;-;-;-;-;-;-;-;-;-;-;-;-;-;-
1511262474880;-;-;9.328293;-0.74679565;-0.93785095;-;-;-;-;-;-;-;-;-;-;-;-;-;-;-
1511262474900;-;-;9.367798;-0.6713867;-0.93904114;-;-;-;-;-;-;-;-;-;-;-;-;-;-;-
1511262474920;-;-;9.443222;-0.7084961;-0.89953613;-;-;-;-;-;-;-;-;-;-;-;-;-;-;-
1511262474956;-;-;9.438431;-1.1226959;-0.7187805;-;-;-;-;-;-;-;-;-;-;-;-;-;-;-
1511262474961;-;-;9.331894;-1.1885223;-0.55955505;-;-;-;-;-;-;-;-;-;-;-;-;-;-;-
1511262474981;-;-;8.756088;-1.3046417;-0.65652466;-;-;-;-;-;-;-;-;-;-;-;-;-;-;-
1511262475002;-;-;8.308365;-1.0376892;-0.46858215;-;-;-;-;-;-;-;-;-;-;-;-;-;-;-
1511262475025;-;-;10.423645;-1.1274719;-0.14176941;-;-;-;-;-;-;-;-;-;-;-;-;-;-;-
1511262475044;-;-;9.058945;-1.186142;-0.7570801;-;-;-;-;-;-;-;-;-;-;-;-;-;-;-
1511262475065;-;-;9.147537;-0.9874115;-0.3249359;-;-;-;-;-;-;-;-;-;-;-;-;-;-;-
1511262475085;-;-;9.333084;-1.2292328;-0.3009796;-;-;-;-;-;-;-;-;-;-;-;-;-;-;-
1511262475106;-;-;9.091278;-0.933548;-0.25309753;-;-;-;-;-;-;-;-;-;-;-;-;-;-;-
1511262475126;-;-;9.0577545;-1.111908;-0.30337524;-;-;-;-;-;-;-;-;-;-;-;-;-;-;-
1511262475146;-;-;9.3546295;-1.1526184;-0.28781128;-;-;-;-;-;-;-;-;-;-;-;-;-;-;-
1511262475166;-;-;9.301956;-1.1274719;-0.31295776;-;-;-;-;-;-;-;-;-;-;-;-;-;-;-
1511262475187;-;-;9.374985;-1.0843811;-0.3189392;-;-;-;-;-;-;-;-;-;-;-;-;-;-;-
1511262475206;-;-;9.360626;-1.1885223;-0.09388733;-;-;-;-;-;-;-;-;-;-;-;-;-;-;-
1511262475226;-;-;8.977554;-1.4243622;-0.17170715;-;-;-;-;-;-;-;-;-;-;-;-;-;-;-
1511262475246;-;-;9.082901;-1.1574097;-0.24472046;-;-;-;-;-;-;-;-;-;-;-;-;-;-;-
1511262475267;-;-;9.534195;-1.1023407;-0.1381836;-;-;-;-;-;-;-;-;-;-;-;-;-;-;-
1511262475287;-;-;9.291183;-1.1203003;-0.34048462;-;-;-;-;-;-;-;-;-;-;-;-;-;-;-
1511262475308;-;-;9.373795;-1.1179047;-0.25309753;-;-;-;-;-;-;-;-;-;-;-;-;-;-;-
1511262475328;-;-;9.341461;-1.1203003;-0.24353027;-;-;-;-;-;-;-;-;-;-;-;-;-;-;-
1511262475348;-;-;9.049377;-1.2591553;-0.11903381;-;-;-;-;-;-;-;-;-;-;-;-;-;-;-
1511262475368;-;-;9.068527;-1.3070374;-0.016082764;-;-;-;-;-;-;-;-;-;-;-;-;-;-;-
1511262475388;-;-;9.476746;-1.2160645;-0.087905884;-;-;-;-;-;-;-;-;-;-;-;-;-;-;-
1511262475409;-;-;9.23732;-1.388443;-0.32731628;-;-;-;-;-;-;-;-;-;-;-;-;-;-;-
1511262475428;-;-;9.311539;-1.3357697;0.053359985;-;-;-;-;-;-;-;-;-;-;-;-;-;-;-
1511262475448;-;-;9.533005;1.4283295;-0.5978699;-;-;-;-;-;-;-;-;-;-;-;-;-;-;-
1511262475469;-;-;9.548569;-1.1370544;-0.030441284;-;-;-;-;-;-;-;-;-;-;-;-;-;-;-
1511262475489;-;-;9.477936;-2.0743866;-0.54759216;-;-;-;-;-;-;-;-;-;-;-;-;-;-;-
1511262475509;-;-;9.49231;-2.360489;0.30833435;-;-;-;-;-;-;-;-;-;-;-;-;-;-;-
1511262475530;-;-;9.440826;-2.1773376;0.44122314;-;-;-;-;-;-;-;-;-;-;-;-;-;-;-
1511262475550;-;-;9.049377;-1.451889;0.1539154;-;-;-;-;-;-;-;-;-;-;-;-;-;-;-
1511262475570;-;-;9.274429;-1.2244415;0.079696655;-;-;-;-;-;-;-;-;-;-;-;-;-;-;-
1511262475590;-;-;9.118805;-1.0352936;0.39453125;-;-;-;-;-;-;-;-;-;-;-;-;-;-;-
1511262475611;-;-;8.412521;-0.9550934;0.44960022;-;-;-;-;-;-;-;-;-;-;-;-;-;-;-
1511262475631;-;-;8.289215;-0.73243713;0.18504333;-;-;-;-;-;-;-;-;-;-;-;-;-;-;-
1511262475651;-;-;9.23732;-0.9155884;0.24130249;-;-;-;-;-;-;-;-;-;-;-;-;-;-;-
1511262475671;-;-;10.045364;-1.6110992;-0.01008606;-;-;-;-;-;-;-;-;-;-;-;-;-;-;-
1511262475692;-;-;8.703415;-0.51216125;-0.44224548;-;-;-;-;-;-;-;-;-;-;-;-;-;-;-
1511262475712;-;-;9.522232;-1.7080688;-0.15014648;-;-;-;-;-;-;-;-;-;-;-;-;-;-;-
1511262475732;-;-;8.547791;-1.5548401;-0.45062256;-;-;-;-;-;-;-;-;-;-;-;-;-;-;-
1511262475752;-;-;10.013046;-1.7332153;0.13237;-;-;-;-;-;-;-;-;-;-;-;-;-;-;-
1511262475773;-;-;9.21936;-1.2411957;0.29756165;-;-;-;-;-;-;-;-;-;-;-;-;-;-;-
1511262475793;-;-;9.564133;-1.2471924;-0.28182983;-;-;-;-;-;-;-;-;-;-;-;-;-;-;-
1511262475814;-;-;8.966782;-1.0269165;0.27841187;-;-;-;-;-;-;-;-;-;-;-;-;-;-;-
1511262475834;-;-;9.080505;-1.2400055;0.24369812;-;-;-;-;-;-;-;-;-;-;-;-;-;-;-
1511262475854;-;-;9.205002;-1.4423218;0.19940186;-;-;-;-;-;-;-;-;-;-;-;-;-;-;-
1511262475875;-;-;9.103241;-1.151413;0.2448883;-;-;-;-;-;-;-;-;-;-;-;-;-;-;-
1511262475895;-;-;8.786011;-1.1322632;0.03540039;-;-;-;-;-;-;-;-;-;-;-;-;-;-;-
1511262475915;-;-;9.397736;-1.4961853;0.49987793;-;-;-;-;-;-;-;-;-;-;-;-;-;-;-
1511262475935;-;-;9.69342;-1.0724182;0.9822998;-;-;-;-;-;-;-;-;-;-;-;-;-;-;-
1511262475956;-;-;9.768829;-1.2124786;-0.27703857;-;-;-;-;-;-;-;-;-;-;-;-;-;-;-
1511262475976;-;-;9.091278;-1.3764801;-0.2566986;-;-;-;-;-;-;-;-;-;-;-;-;-;-;-
1511262475996;-;-;8.481949;-0.50857544;0.4902954;-;-;-;-;-;-;-;-;-;-;-;-;-;-;-
1511262476016;-;-;8.371811;-0.70610046;-0.051986694;-;-;-;-;-;-;-;-;-;-;-;-;-;-;-
1511262476037;-;-;9.0577545;-0.7707367;-0.044799805;-;-;-;-;-;-;-;-;-;-;-;-;-;-;-
1511262476057;-;-;8.946426;-1.0329132;0.6890106;-;-;-;-;-;-;-;-;-;-;-;-;-;-;-
1511262476077;-;-;8.551376;-0.89164734;0.39093018;-;-;-;-;-;-;-;-;-;-;-;-;-;-;-
1511262476098;-;-;9.695816;-1.641037;0.21138;-;-;-;-;-;-;-;-;-;-;-;-;-;-;-
1511262476118;-;-;9.682648;-1.1729736;0.072509766;-;-;-;-;-;-;-;-;-;-;-;-;-;-;-
1511262476138;-;-;9.895721;-2.1713562;-0.25190735;-;-;-;-;-;-;-;-;-;-;-;-;-;-;-
1511262476158;-;-;6.489975;0.021743774;0.09526062;-;-;-;-;-;-;-;-;-;-;-;-;-;-;-
1511262476179;-;-;8.077332;-1.1681824;1.3438263;-;-;-;-;-;-;-;-;-;-;-;-;-;-;-
1511262476199;-;-;9.63237;-1.1502228;0.13237;-;-;-;-;-;-;-;-;-;-;-;-;-;-;-
1511262476219;-;-;9.621582;-1.4842072;0.28918457;-;-;-;-;-;-;-;-;-;-;-;-;-;-;-
1511262476239;-;-;8.297592;-2.20607;0.76322937;-;-;-;-;-;-;-;-;-;-;-;-;-;-;-
1511262476260;-;-;7.2597046;-1.0329132;-0.64456177;-;-;-;-;-;-;-;-;-;-;-;-;-;-;-
1511262476280;-;-;8.213791;-1.764328;-1.4490051;-;-;-;-;-;-;-;-;-;-;-;-;-;-;-
1511262476300;-;-;12.336609;-4.334503;-0.28182983;-;-;-;-;-;-;-;-;-;-;-;-;-;-;-
1511262476321;-;-;8.270065;-2.143814;3.635086;-;-;-;-;-;-;-;-;-;-;-;-;-;-;-
1511262476340;-;-;7.659546;-2.119873;0.96435547;-;-;-;-;-;-;-;-;-;-;-;-;-;-;-
1511262476360;-;-;7.7493286;-2.2084656;-1.1365662;-;-;-;-;-;-;-;-;-;-;-;-;-;-;-
1511262476380;-;-;9.281616;-2.2647247;-1.2263489;-;-;-;-;-;-;-;-;-;-;-;-;-;-;-
1511262476401;-;-;8.829102;-2.7842712;-1.0096741;-;-;-;-;-;-;-;-;-;-;-;-;-;-;-
1511262476421;-;-;10.760025;-2.9231262;-0.7786255;-;-;-;-;-;-;-;-;-;-;-;-;-;-;-
1511262476441;-;-;7.5398254;-2.4179535;-0.030441284;-;-;-;-;-;-;-;-;-;-;-;-;-;-;-
1511262476461;-;-;7.4835663;-2.348526;-3.4661255;-;-;-;-;-;-;-;-;-;-;-;-;-;-;-
1511262476482;-;-;7.8546753;-2.9111633;-4.3675385;-;-;-;-;-;-;-;-;-;-;-;-;-;-;-
1511262476502;-;-;8.10965;-2.5723724;-2.8855286;-;-;-;-;-;-;-;-;-;-;-;-;-;-;-
1511262476522;-;-;8.76207;-2.439499;-1.0934601;-;-;-;-;-;-;-;-;-;-;-;-;-;-;-
1511262476543;-;-;11.868546;-4.0077057;-11.185028;-;-;-;-;-;-;-;-;-;-;-;-;-;-;-
1511262476563;-;-;9.711365;-3.3732452;-5.860321;-;-;-;-;-;-;-;-;-;-;-;-;-;-;-
1511262476583;-;-;11.480682;-2.7232056;-3.7857513;-;-;-;-;-;-;-;-;-;-;-;-;-;-;-
1511262476604;-;-;12.665817;-4.6565247;-2.2007904;-;-;-;-;-;-;-;-;-;-;-;-;-;-;-
1511262476624;-;-;6.8562927;-2.0695953;0.072509766;-;-;-;-;-;-;-;-;-;-;-;-;-;-;-
1511262476644;-;-;6.3535004;-2.653778;-0.3249359;-;-;-;-;-;-;-;-;-;-;-;-;-;-;-
1511262476665;-;-;9.268448;-3.0512238;-1.9254456;-;-;-;-;-;-;-;-;-;-;-;-;-;-;-
1511262476685;-;-;7.0023346;-2.5364685;-1.0395966;-;-;-;-;-;-;-;-;-;-;-;-;-;-;-
1511262476705;-;-;4.884659;-2.7220154;-0.044799805;-;-;-;-;-;-;-;-;-;-;-;-;-;-;-
1511262476725;-;-;8.58609;-2.5053406;-1.5423737;-;-;-;-;-;-;-;-;-;-;-;-;-;-;-
1511262476746;-;-;10.223724;-3.3325348;-1.2466888;-;-;-;-;-;-;-;-;-;-;-;-;-;-;-
1511262476766;-;-;11.417236;-4.286621;-0.68167114;-;-;-;-;-;-;-;-;-;-;-;-;-;-;-
1511262476786;-;-;8.876999;-2.9590454;-2.5659027;-;-;-;-;-;-;-;-;-;-;-;-;-;-;-
1511262476806;-;-;10.566101;-4.2040253;-4.745819;-;-;-;-;-;-;-;-;-;-;-;-;-;-;-
1511262476827;-;-;8.258087;-0.8174286;-2.1696625;-;-;-;-;-;-;-;-;-;-;-;-;-;-;-
1511262476847;-;-;10.20578;-2.8058167;1.1020203;-;-;-;-;-;-;-;-;-;-;-;-;-;-;-
1511262476867;-;-;8.88298;-2.103119;-1.4107056;-;-;-;-;-;-;-;-;-;-;-;-;-;-;-
1511262476887;-;-;8.58371;-1.9259491;-2.0104523;-;-;-;-;-;-;-;-;-;-;-;-;-;-;-
1511262476908;-;-;10.009445;-3.2331848;-1.3759766;-;-;-;-;-;-;-;-;-;-;-;-;-;-;-
1511262476928;-;-;4.7170715;-2.0025635;1.3905182;-;-;-;-;-;-;-;-;-;-;-;-;-;-;-
1511262476948;-;-;7.3626556;-2.5855408;0.6926117;-;-;-;-;-;-;-;-;-;-;-;-;-;-;-
1511262476969;-;-;7.6655273;-3.3744354;1.2779846;-;-;-;-;-;-;-;-;-;-;-;-;-;-;-
1511262476989;-;-;8.728546;-2.7782745;-0.5392151;-;-;-;-;-;-;-;-;-;-;-;-;-;-;-
1511262477009;-;-;9.602432;-2.4287262;0.137146;-;-;-;-;-;-;-;-;-;-;-;-;-;-;-
1511262477030;-;-;8.557373;-2.3305664;-0.15614319;-;-;-;-;-;-;-;-;-;-;-;-;-;-;-
1511262477050;-;-;9.084091;-2.5220947;-0.32852173;-;-;-;-;-;-;-;-;-;-;-;-;-;-;-
1511262477070;-;-;9.187042;-2.408371;-0.22198486;-;-;-;-;-;-;-;-;-;-;-;-;-;-;-
1511262477091;-;-;8.976349;-2.3066254;-0.2111969;-;-;-;-;-;-;-;-;-;-;-;-;-;-;-
1511262477111;-;-;9.012268;-2.4299164;-0.3249359;-;-;-;-;-;-;-;-;-;-;-;-;-;-;-
1511262477131;-;-;9.0733185;-2.4730225;-0.28901672;-;-;-;-;-;-;-;-;-;-;-;-;-;-;-
1511262477152;-;-;9.12001;-2.479004;-0.2064209;-;-;-;-;-;-;-;-;-;-;-;-;-;-;-
1511262477172;-;-;9.008667;-2.4143677;-0.17050171;-;-;-;-;-;-;-;-;-;-;-;-;-;-;-
1511262477193;-;-;8.8997345;-2.435913;-0.13697815;-;-;-;-;-;-;-;-;-;-;-;-;-;-;-
1511262477214;-;-;8.90213;-2.4191437;-0.14416504;-;-;-;-;-;-;-;-;-;-;-;-;-;-;-
1511262477233;-;-;8.935654;-2.4335175;-0.12261963;-;-;-;-;-;-;-;-;-;-;-;-;-;-;-
1511262477253;-;-;9.031418;-2.5328674;-0.073532104;-;-;-;-;-;-;-;-;-;-;-;-;-;-;-
1511262477273;-;-;9.069733;-2.6430054;-0.12980652;-;-;-;-;-;-;-;-;-;-;-;-;-;-;-
1511262477294;-;-;9.121201;-2.7196198;-0.09030151;-;-;-;-;-;-;-;-;-;-;-;-;-;-;-
1511262477314;-;-;9.155914;-2.7100372;-0.051986694;-;-;-;-;-;-;-;-;-;-;-;-;-;-;-
1511262477334;-;-;9.076904;-2.6082916;-0.05796814;-;-;-;-;-;-;-;-;-;-;-;-;-;-;-
1511262477355;-;-;9.052963;-2.6071014;-0.121414185;-;-;-;-;-;-;-;-;-;-;-;-;-;-;-
1511262477375;-;-;9.127182;-2.692093;-0.099868774;-;-;-;-;-;-;-;-;-;-;-;-;-;-;-
1511262477396;-;-;9.155914;-2.554428;-0.073532104;-;-;-;-;-;-;-;-;-;-;-;-;-;-;-
1511262477416;-;-;8.944031;-2.3592987;-0.22436523;-;-;-;-;-;-;-;-;-;-;-;-;-;-;-
1511262477437;-;-;8.88298;-2.2731018;-0.2351532;-;-;-;-;-;-;-;-;-;-;-;-;-;-;-
1511262477457;-;-;9.046982;-2.3616943;-0.21598816;-;-;-;-;-;-;-;-;-;-;-;-;-;-;-
1511262477478;-;-;9.165497;-2.5400543;-0.11424255;-;-;-;-;-;-;-;-;-;-;-;-;-;-;-
1511262477498;-;-;9.088882;-2.5125275;-0.19085693;-;-;-;-;-;-;-;-;-;-;-;-;-;-;-
1511262477518;-;-;9.163101;-2.5699768;-0.12860107;-;-;-;-;-;-;-;-;-;-;-;-;-;-;-
1511262477538;-;-;9.051773;-2.3988037;-0.054382324;-;-;-;-;-;-;-;-;-;-;-;-;-;-;-
1511262477559;-;-;9.115219;-2.372467;-0.159729;-;-;-;-;-;-;-;-;-;-;-;-;-;-;-
1511262477579;-;-;9.195419;-2.198883;-0.09867859;-;-;-;-;-;-;-;-;-;-;-;-;-;-;-
1511262477599;-;-;9.142746;-2.2395782;-0.107055664;-;-;-;-;-;-;-;-;-;-;-;-;-;-;-
1511262477620;-;-;9.019455;-2.166565;-0.09628296;-;-;-;-;-;-;-;-;-;-;-;-;-;-;-
1511262477639;-;-;9.003891;-2.1677551;-0.044799805;-;-;-;-;-;-;-;-;-;-;-;-;-;-;-
1511262477659;-;-;8.933258;-2.0001678;0.036590576;-;-;-;-;-;-;-;-;-;-;-;-;-;-;-
1511262477679;-;-;8.976349;-1.9199524;0.08328247;-;-;-;-;-;-;-;-;-;-;-;-;-;-;-
1511262477700;-;-;9.00029;-1.9941711;0.024627686;-;-;-;-;-;-;-;-;-;-;-;-;-;-;-
1511262477720;-;-;9.110428;-2.0684052;0.19102478;-;-;-;-;-;-;-;-;-;-;-;-;-;-;-
1511262477741;-;-;9.17627;-2.2862701;0.28320313;-;-;-;-;-;-;-;-;-;-;-;-;-;-;-
1511262477761;-;-;9.15712;-2.377243;0.3131256;-;-;-;-;-;-;-;-;-;-;-;-;-;-;-
1511262477782;-;-;9.033813;-2.3473206;0.27243042;-;-;-;-;-;-;-;-;-;-;-;-;-;-;-
1511262477802;-;-;8.972763;-2.3114166;0.14074707;-;-;-;-;-;-;-;-;-;-;-;-;-;-;-
1511262477823;-;-;8.965576;-2.2563477;0.10722351;-;-;-;-;-;-;-;-;-;-;-;-;-;-;-
1511262477843;-;-;9.06015;-2.3652802;0.096450806;-;-;-;-;-;-;-;-;-;-;-;-;-;-;-
1511262477863;-;-;9.333084;-2.5460358;-0.012481689;-;-;-;-;-;-;-;-;-;-;-;-;-;-;-
1511262477883;-;-;9.331894;-2.2240143;0.022232056;-;-;-;-;-;-;-;-;-;-;-;-;-;-;-
1511262477904;-;-;9.543777;-2.261139;-0.04840088;-;-;-;-;-;-;-;-;-;-;-;-;-;-;-
1511262477924;-;-;9.29837;-2.1210785;-0.029251099;-;-;-;-;-;-;-;-;-;-;-;-;-;-;-
1511262477944;-;-;9.00029;-2.2348022;-0.08670044;-;-;-;-;-;-;-;-;-;-;-;-;-;-;-
1511262477965;-;-;8.74411;-2.3233795;0.23890686;-;-;-;-;-;-;-;-;-;-;-;-;-;-;-
1511262477985;-;-;8.703415;-2.3545074;0.086868286;-;-;-;-;-;-;-;-;-;-;-;-;-;-;-
1511262478005;-;-;8.849457;-2.447876;-0.014877319;-;-;-;-;-;-;-;-;-;-;-;-;-;-;-
1511262478026;-;-;8.912903;-2.5065308;0.0856781;-;-;-;-;-;-;-;-;-;-;-;-;-;-;-
1511262478046;-;-;9.293579;-2.5532227;0.3430481;-;-;-;-;-;-;-;-;-;-;-;-;-;-;-
1511262478067;-;-;9.505478;-2.5604095;0.16947937;-;-;-;-;-;-;-;-;-;-;-;-;-;-;-
1511262478087;-;-;8.905716;-2.6633606;0.094055176;-;-;-;-;-;-;-;-;-;-;-;-;-;-;-
1511262478107;-;-;8.887772;-2.5771637;0.113204956;-;-;-;-;-;-;-;-;-;-;-;-;-;-;-
1511262478127;-;-;8.991913;-2.5005493;0.1251831;-;-;-;-;-;-;-;-;-;-;-;-;-;-;-
1511262478148;-;-;9.143951;-2.3401337;-0.20281982;-;-;-;-;-;-;-;-;-;-;-;-;-;-;-
1511262478168;-;-;9.401321;-2.3545074;-0.2866211;-;-;-;-;-;-;-;-;-;-;-;-;-;-;-
1511262478188;-;-;9.616806;-2.5556183;0.18144226;-;-;-;-;-;-;-;-;-;-;-;-;-;-;-
1511262478208;-;-;9.355835;-2.6358185;0.38494873;-;-;-;-;-;-;-;-;-;-;-;-;-;-;-
1511262478229;-;-;9.088882;-2.447876;0.04736328;-;-;-;-;-;-;-;-;-;-;-;-;-;-;-
1511262478249;-;-;8.610046;-2.502945;0.16947937;-;-;-;-;-;-;-;-;-;-;-;-;-;-;-
1511262478269;-;-;8.315552;-2.7926483;0.33587646;-;-;-;-;-;-;-;-;-;-;-;-;-;-;-
1511262478290;-;-;8.7812195;-2.5867462;-0.29141235;-;-;-;-;-;-;-;-;-;-;-;-;-;-;-
1511262478309;-;-;8.934448;-3.0559998;-0.14656067;-;-;-;-;-;-;-;-;-;-;-;-;-;-;-
1511262478329;-;-;9.425262;-2.9949493;0.5968323;-;-;-;-;-;-;-;-;-;-;-;-;-;-;-
1511262478350;-;-;9.516251;-2.8417206;0.12997437;-;-;-;-;-;-;-;-;-;-;-;-;-;-;-
1511262478369;-;-;9.59166;-2.9087677;0.060531616;-;-;-;-;-;-;-;-;-;-;-;-;-;-;-
1511262478389;-;-;8.818329;-3.2439575;-0.051986694;-;-;-;-;-;-;-;-;-;-;-;-;-;-;-
1511262478409;-;-;8.829102;-2.7854614;-0.1669159;-;-;-;-;-;-;-;-;-;-;-;-;-;-;-
1511262478430;-;-;8.680664;-2.593933;-0.21240234;-;-;-;-;-;-;-;-;-;-;-;-;-;-;-
1511262478450;-;-;8.697433;-2.38443;-0.2973938;-;-;-;-;-;-;-;-;-;-;-;-;-;-;-
1511262478470;-;-;8.654327;-2.1677551;-0.15733337;-;-;-;-;-;-;-;-;-;-;-;-;-;-;-
1511262478491;-;-;8.551376;-2.032486;0.14553833;-;-;-;-;-;-;-;-;-;-;-;-;-;-;-
1511262478511;-;-;8.582504;-2.0935364;0.067718506;-;-;-;-;-;-;-;-;-;-;-;-;-;-;-
1511262478531;-;-;8.489136;-2.143814;-0.14416504;-;-;-;-;-;-;-;-;-;-;-;-;-;-;-
1511262478552;-;-;9.063736;-2.526886;-0.3871765;-;-;-;-;-;-;-;-;-;-;-;-;-;-;-
1511262478572;-;-;9.213379;-2.8967896;-0.38838196;-;-;-;-;-;-;-;-;-;-;-;-;-;-;-
1511262478592;-;-;9.480331;-3.5887146;0.27243042;-;-;-;-;-;-;-;-;-;-;-;-;-;-;-
1511262478612;-;-;9.203796;-3.4582367;0.09764099;-;-;-;-;-;-;-;-;-;-;-;-;-;-;-
1511262478633;-;-;8.592087;-2.9865723;-0.25549316;-;-;-;-;-;-;-;-;-;-;-;-;-;-;-
1511262478654;-;-;8.847061;-2.930313;-0.037628174;-;-;-;-;-;-;-;-;-;-;-;-;-;-;-
1511262478674;-;-;8.656723;-2.5628052;0.32389832;-;-;-;-;-;-;-;-;-;-;-;-;-;-;-
1511262478694;-;-;8.620819;-2.0612183;0.1431427;-;-;-;-;-;-;-;-;-;-;-;-;-;-;-
1511262478715;-;-;9.629974;-2.7818756;0.2341156;-;-;-;-;-;-;-;-;-;-;-;-;-;-;-
1511262478735;-;-;8.375412;-2.4107666;-0.25909424;-;-;-;-;-;-;-;-;-;-;-;-;-;-;-
1511262478755;-;-;8.207809;-1.664978;-0.159729;-;-;-;-;-;-;-;-;-;-;-;-;-;-;-
1511262478775;-;-;8.115631;-1.5321045;-0.28781128;-;-;-;-;-;-;-;-;-;-;-;-;-;-;-
1511262478796;-;-;7.8606567;-1.3764801;-0.5224457;-;-;-;-;-;-;-;-;-;-;-;-;-;-;-
1511262478816;-;-;7.67749;-1.2376099;-1.0599518;-;-;-;-;-;-;-;-;-;-;-;-;-;-;-
1511262478836;-;-;7.435684;-1.2112732;-1.2071991;-;-;-;-;-;-;-;-;-;-;-;-;-;-;-
1511262478857;-;-;7.5051117;-1.2244415;-1.0539703;-;-;-;-;-;-;-;-;-;-;-;-;-;-;-
1511262478877;-;-;8.234146;-1.234024;-0.90312195;-;-;-;-;-;-;-;-;-;-;-;-;-;-;-
1511262478897;-;-;8.07373;-1.6769409;0.923645;-;-;-;-;-;-;-;-;-;-;-;-;-;-;-
1511262478918;-;-;7.9779663;-1.3609161;-1.1868439;-;-;-;-;-;-;-;-;-;-;-;-;-;-;-
1511262478938;-;-;8.807556;-1.2400055;-1.9541779;-;-;-;-;-;-;-;-;-;-;-;-;-;-;-
1511262478958;-;-;9.351044;-1.2819061;-0.76426697;-;-;-;-;-;-;-;-;-;-;-;-;-;-;-
1511262478979;-;-;9.825104;-1.5991364;-0.35365295;-;-;-;-;-;-;-;-;-;-;-;-;-;-;-
1511262478998;-;-;9.960373;-0.80067444;-1.871582;-;-;-;-;-;-;-;-;-;-;-;-;-;-;-
1511262479018;-;-;10.1961975;-0.8497467;-2.1373444;-;-;-;-;-;-;-;-;-;-;-;-;-;-;-
1511262479039;-;-;9.552155;-1.4387207;-1.3795776;-;-;-;-;-;-;-;-;-;-;-;-;-;-;-
1511262479059;-;-;11.5872345;-0.88446045;-5.1552277;-;-;-;-;-;-;-;-;-;-;-;-;-;-;-
1511262479079;-;-;9.75087;-0.799469;-0.50927734;-;-;-;-;-;-;-;-;-;-;-;-;-;-;-
1511262479099;-;-;9.629974;-1.4937897;-1.3149261;-;-;-;-;-;-;-;-;-;-;-;-;-;-;-
1511262479119;-;-;8.746506;-0.95150757;-1.8033447;-;-;-;-;-;-;-;-;-;-;-;-;-;-;-
1511262479140;-;-;7.700241;-1.0017853;-1.5016785;-;-;-;-;-;-;-;-;-;-;-;-;-;-;-
1511262479160;-;-;8.788406;-1.1693726;-1.1341705;-;-;-;-;-;-;-;-;-;-;-;-;-;-;-
1511262479180;-;-;7.9468384;-1.2196503;-1.0934601;-;-;-;-;-;-;-;-;-;-;-;-;-;-;-
1511262479200;-;-;7.4165344;-0.72406006;-2.642517;-;-;-;-;-;-;-;-;-;-;-;-;-;-;-
1511262479221;-;-;7.332733;-0.7623596;-1.258667;-;-;-;-;-;-;-;-;-;-;-;-;-;-;-
1511262479241;-;-;9.501877;-1.190918;-0.89953613;-;-;-;-;-;-;-;-;-;-;-;-;-;-;-
1511262479261;-;-;9.437241;-1.6302643;-1.6034393;-;-;-;-;-;-;-;-;-;-;-;-;-;-;-
1511262479282;-;-;10.136337;-0.7216644;-2.3755646;-;-;-;-;-;-;-;-;-;-;-;-;-;-;-
1511262479301;-;-;8.222183;-0.6438446;-0.71398926;-;-;-;-;-;-;-;-;-;-;-;-;-;-;-
1511262479321;-;-;7.0490265;-1.3417511;-0.63856506;-;-;-;-;-;-;-;-;-;-;-;-;-;-;-
1511262479341;-;-;7.118454;-0.6127167;-2.1660767;-;-;-;-;-;-;-;-;-;-;-;-;-;-;-
1511262479362;-;-;9.062546;0.38565063;-3.4625244;-;-;-;-;-;-;-;-;-;-;-;-;-;-;-
1511262479382;-;-;9.063736;0.3509369;-2.0942383;-;-;-;-;-;-;-;-;-;-;-;-;-;-;-
1511262479402;-;-;9.267242;-1.7930603;-1.5399933;-;-;-;-;-;-;-;-;-;-;-;-;-;-;-
1511262479423;-;-;9.330688;-1.5285034;-1.784195;-;-;-;-;-;-;-;-;-;-;-;-;-;-;-
1511262479443;-;-;7.9815674;-0.25598145;-1.7411041;-;-;-;-;-;-;-;-;-;-;-;-;-;-;-
1511262479463;-;-;9.215775;-0.67855835;-1.9541779;-;-;-;-;-;-;-;-;-;-;-;-;-;-;-
1511262479483;-;-;8.910507;0.6250763;-2.342041;-;-;-;-;-;-;-;-;-;-;-;-;-;-;-
1511262479504;-;-;7.980362;0.04208374;-4.5171814;-;-;-;-;-;-;-;-;-;-;-;-;-;-;-
1511262479524;-;-;8.58609;0.08039856;-0.417099;-;-;-;-;-;-;-;-;-;-;-;-;-;-;-
1511262479545;-;-;9.070923;-0.09197998;-0.69244385;-;-;-;-;-;-;-;-;-;-;-;-;-;-;-
1511262479565;-;-;9.79277;-0.14944458;-0.9079132;-;-;-;-;-;-;-;-;-;-;-;-;-;-;-
1511262479585;-;-;10.027405;-0.3481598;-0.48054504;-;-;-;-;-;-;-;-;-;-;-;-;-;-;-
1511262479605;-;-;10.754044;-0.7886963;0.13356018;-;-;-;-;-;-;-;-;-;-;-;-;-;-;-
1511262479626;-;-;12.979462;-1.0173492;0.11920166;-;-;-;-;-;-;-;-;-;-;-;-;-;-;-
1511262479646;-;-;12.689758;-1.1095276;-1.124588;-;-;-;-;-;-;-;-;-;-;-;-;-;-;-
1511262479666;-;-;12.878906;-0.739624;-3.1740265;-;-;-;-;-;-;-;-;-;-;-;-;-;-;-
1511262479687;-;-;12.076843;-2.353302;-5.187988E-4;-;-;-;-;-;-;-;-;-;-;-;-;-;-;-
1511262479707;-;-;10.497864;-2.0384674;0.3382721;-;-;-;-;-;-;-;-;-;-;-;-;-;-;-
1511262479727;-;-;9.327103;-1.7894745;1.6323242;-;-;-;-;-;-;-;-;-;-;-;-;-;-;-
1511262479748;-;-;8.942825;-2.009735;1.291153;-;-;-;-;-;-;-;-;-;-;-;-;-;-;-
1511262479767;-;-;8.735733;-1.5045624;1.473114;-;-;-;-;-;-;-;-;-;-;-;-;-;-;-
1511262479787;-;-;9.418076;-1.5823822;2.1446838;-;-;-;-;-;-;-;-;-;-;-;-;-;-;-
1511262479807;-;-;9.406113;-0.95150757;1.801117;-;-;-;-;-;-;-;-;-;-;-;-;-;-;-
1511262479828;-;-;9.0793;-0.7384186;1.9124603;-;-;-;-;-;-;-;-;-;-;-;-;-;-;-
1511262479848;-;-;8.410126;-0.7695465;1.7364807;-;-;-;-;-;-;-;-;-;-;-;-;-;-;-
1511262479869;-;-;9.175064;-1.1083221;2.2859497;-;-;-;-;-;-;-;-;-;-;-;-;-;-;-
1511262479889;-;-;9.37738;-0.4379425;0.67225647;-;-;-;-;-;-;-;-;-;-;-;-;-;-;-
1511262479909;-;-;10.420059;-1.0113525;3.058075;-;-;-;-;-;-;-;-;-;-;-;-;-;-;-
1511262479929;-;-;9.781998;-0.1590271;1.0780792;-;-;-;-;-;-;-;-;-;-;-;-;-;-;-
1511262479950;-;-;9.625183;-0.2607727;1.8382263;-;-;-;-;-;-;-;-;-;-;-;-;-;-;-
1511262479970;-;-;8.993118;-0.6067352;2.690567;-;-;-;-;-;-;-;-;-;-;-;-;-;-;-
1511262479990;-;-;9.224152;-0.35653687;2.6019897;-;-;-;-;-;-;-;-;-;-;-;-;-;-;-
1511262480010;-;-;9.251678;-0.55526733;2.6570435;-;-;-;-;-;-;-;-;-;-;-;-;-;-;-
1511262480031;-;-;9.421677;-0.5756073;2.8904877;-;-;-;-;-;-;-;-;-;-;-;-;-;-;-
1511262480051;-;-;9.244507;-0.30148315;2.6642303;-;-;-;-;-;-;-;-;-;-;-;-;-;-;-
1511262480071;-;-;8.896149;-0.112335205;2.5062103;-;-;-;-;-;-;-;-;-;-;-;-;-;-;-
1511262480091;-;-;8.950012;-0.3074646;3.0149841;-;-;-;-;-;-;-;-;-;-;-;-;-;-;-
1511262480112;-;-;8.859039;-0.3397827;2.9132233;-;-;-;-;-;-;-;-;-;-;-;-;-;-;-
1511262480132;-;-;8.768051;0.17376709;1.3629761;-;-;-;-;-;-;-;-;-;-;-;-;-;-;-
1511262480152;-;-;8.611237;-0.2212677;2.321869;-;-;-;-;-;-;-;-;-;-;-;-;-;-;-
1511262480173;-;-;8.807556;0.5341034;1.9890747;-;-;-;-;-;-;-;-;-;-;-;-;-;-;-
1511262480193;-;-;9.051773;-0.81144714;3.5812073;-;-;-;-;-;-;-;-;-;-;-;-;-;-;-
1511262480213;-;-;9.481522;-0.40682983;0.33946228;-;-;-;-;-;-;-;-;-;-;-;-;-;-;-
1511262480234;-;-;9.776016;-1.0879669;1.9914551;-;-;-;-;-;-;-;-;-;-;-;-;-;-;-
1511262480254;-;-;9.755661;-1.4399261;3.1837769;-;-;-;-;-;-;-;-;-;-;-;-;-;-;-
1511262480274;-;-;8.684265;-0.58399963;2.6702118;-;-;-;-;-;-;-;-;-;-;-;-;-;-;-
1511262480295;-;-;8.666306;-0.71447754;3.224472;-;-;-;-;-;-;-;-;-;-;-;-;-;-;-
1511262480315;-;-;8.489136;-0.32781982;2.730072;-;-;-;-;-;-;-;-;-;-;-;-;-;-;-
1511262480335;-;-;8.546585;-0.32063293;3.1813812;-;-;-;-;-;-;-;-;-;-;-;-;-;-;-
1511262480356;-;-;8.2712555;-0.26675415;4.0289307;-;-;-;-;-;-;-;-;-;-;-;-;-;-;-
1511262480376;-;-;9.341461;-0.52293396;3.3058777;-;-;-;-;-;-;-;-;-;-;-;-;-;-;-
1511262480396;-;-;8.734543;0.25398254;2.963501;-;-;-;-;-;-;-;-;-;-;-;-;-;-;-
1511262480416;-;-;8.164719;-0.9934082;4.1869507;-;-;-;-;-;-;-;-;-;-;-;-;-;-;-
1511262480437;-;-;8.623199;1.5588226;2.697754;-;-;-;-;-;-;-;-;-;-;-;-;-;-;-
1511262480457;-;-;8.801575;0.45509338;3.326233;-;-;-;-;-;-;-;-;-;-;-;-;-;-;-
1511262480477;-;-;9.427658;0.38446045;2.7420502;-;-;-;-;-;-;-;-;-;-;-;-;-;-;-
1511262480497;-;-;8.378998;-0.3194275;3.9116058;-;-;-;-;-;-;-;-;-;-;-;-;-;-;-
1511262480518;-;-;7.9863434;0.43115234;5.824585;-;-;-;-;-;-;-;-;-;-;-;-;-;-;-
1511262480538;-;-;8.127609;0.22045898;4.4467163;-;-;-;-;-;-;-;-;-;-;-;-;-;-;-
1511262480559;-;-;7.8642426;0.59754944;0.72972107;-;-;-;-;-;-;-;-;-;-;-;-;-;-;-
1511262480579;-;-;8.912903;0.85491943;3.8074646;-;-;-;-;-;-;-;-;-;-;-;-;-;-;-
1511262480599;-;-;7.4249115;1.406784;3.3956604;-;-;-;-;-;-;-;-;-;-;-;-;-;-;-
1511262480619;-;-;7.851074;1.5731812;2.7324677;-;-;-;-;-;-;-;-;-;-;-;-;-;-;-
1511262480640;-;-;4.8954315;0.7531738;12.108154;-;-;-;-;-;-;-;-;-;-;-;-;-;-;-
1511262480660;-;-;7.063385;-1.2771149;7.4861603;-;-;-;-;-;-;-;-;-;-;-;-;-;-;-
1511262480680;-;-;6.7736816;-0.6833496;5.829361;-;-;-;-;-;-;-;-;-;-;-;-;-;-;-
1511262480700;-;-;7.7577057;-0.87368774;4.908798;-;-;-;-;-;-;-;-;-;-;-;-;-;-;-
1511262480721;-;-;8.396957;-0.7108917;4.2575684;-;-;-;-;-;-;-;-;-;-;-;-;-;-;-
1511262480741;-;-;8.598068;-0.46548462;4.610718;-;-;-;-;-;-;-;-;-;-;-;-;-;-;-
1511262480761;-;-;8.292801;-0.30986023;4.6598053;-;-;-;-;-;-;-;-;-;-;-;-;-;-;-
1511262480782;-;-;8.183868;-0.39485168;4.3258057;-;-;-;-;-;-;-;-;-;-;-;-;-;-;-
1511262480801;-;-;8.462799;-0.48942566;4.3569336;-;-;-;-;-;-;-;-;-;-;-;-;-;-;-
1511262480821;-;-;8.453217;-0.47865295;4.2851105;-;-;-;-;-;-;-;-;-;-;-;-;-;-;-
1511262480841;-;-;8.2317505;-0.7108917;4.355728;-;-;-;-;-;-;-;-;-;-;-;-;-;-;-
1511262480861;-;-;7.9588165;-0.8988342;4.4275665;-;-;-;-;-;-;-;-;-;-;-;-;-;-;-
1511262480882;-;-;7.937271;-0.92277527;4.392853;-;-;-;-;-;-;-;-;-;-;-;-;-;-;-
1511262480902;-;-;7.906143;-0.8377838;4.5652313;-;-;-;-;-;-;-;-;-;-;-;-;-;-;-
1511262480922;-;-;7.9707794;-0.7108917;4.7328186;-;-;-;-;-;-;-;-;-;-;-;-;-;-;-
1511262480942;-;-;8.003113;-0.60913086;4.872879;-;-;-;-;-;-;-;-;-;-;-;-;-;-;-
1511262480963;-;-;7.91333;-0.33259583;5.176941;-;-;-;-;-;-;-;-;-;-;-;-;-;-;-
1511262480982;-;-;7.83432;-0.32182312;5.2571564;-;-;-;-;-;-;-;-;-;-;-;-;-;-;-
1511262481002;-;-;7.6631317;-0.34576416;5.355316;-;-;-;-;-;-;-;-;-;-;-;-;-;-;-
1511262481023;-;-;7.454834;-0.3146515;5.539673;-;-;-;-;-;-;-;-;-;-;-;-;-;-;-
1511262481042;-;-;7.253723;-0.43196106;5.339752;-;-;-;-;-;-;-;-;-;-;-;-;-;-;-
1511262481062;-;-;7.355484;-0.52653503;5.3361664;-;-;-;-;-;-;-;-;-;-;-;-;-;-;-
1511262481082;-;-;7.5434265;-0.22247314;5.540863;-;-;-;-;-;-;-;-;-;-;-;-;-;-;-
1511262481103;-;-;7.5386353;0.05645752;5.7683105;-;-;-;-;-;-;-;-;-;-;-;-;-;-;-
1511262481123;-;-;7.53743;0.06842041;6.12146;-;-;-;-;-;-;-;-;-;-;-;-;-;-;-
1511262481143;-;-;7.4284973;-0.030929565;6.339325;-;-;-;-;-;-;-;-;-;-;-;-;-;-;-
1511262481164;-;-;7.277664;-0.29548645;6.37764;-;-;-;-;-;-;-;-;-;-;-;-;-;-;-
1511262481183;-;-;7.051407;-0.15542603;6.3728485;-;-;-;-;-;-;-;-;-;-;-;-;-;-;-
1511262481203;-;-;6.640808;0.17376709;6.4722137;-;-;-;-;-;-;-;-;-;-;-;-;-;-;-
1511262481223;-;-;6.4373016;0.51135254;6.6421967;-;-;-;-;-;-;-;-;-;-;-;-;-;-;-
1511262481244;-;-;6.489975;0.5197296;6.733185;-;-;-;-;-;-;-;-;-;-;-;-;-;-;-
1511262481264;-;-;6.6946716;0.3497467;6.390808;-;-;-;-;-;-;-;-;-;-;-;-;-;-;-
1511262481284;-;-;6.9987335;-0.12310791;6.5619965;-;-;-;-;-;-;-;-;-;-;-;-;-;-;-
1511262481304;-;-;7.008316;-0.54089355;6.4997406;-;-;-;-;-;-;-;-;-;-;-;-;-;-;-
1511262481325;-;-;7.0095215;-0.7013092;6.5141144;-;-;-;-;-;-;-;-;-;-;-;-;-;-;-
1511262481345;-;-;6.8790283;-0.5528717;6.43869;-;-;-;-;-;-;-;-;-;-;-;-;-;-;-
1511262481365;-;-;6.6300354;-0.42477417;6.3536987;-;-;-;-;-;-;-;-;-;-;-;-;-;-;-
1511262481385;-;-;6.7174225;-0.08241272;6.3058167;-;-;-;-;-;-;-;-;-;-;-;-;-;-;-
1511262481406;-;-;6.9939575;0.13665771;6.4159393;-;-;-;-;-;-;-;-;-;-;-;-;-;-;-
1511262481426;-;-;7.047821;0.122299194;6.2387695;-;-;-;-;-;-;-;-;-;-;-;-;-;-;-
1511262481446;-;-;7.015503;0.13426208;6.3884125;-;-;-;-;-;-;-;-;-;-;-;-;-;-;-
1511262481466;-;-;6.937683;0.0181427;6.466217;-;-;-;-;-;-;-;-;-;-;-;-;-;-;-
1511262481487;-;-;7.02269;0.098358154;6.1190643;-;-;-;-;-;-;-;-;-;-;-;-;-;-;-
1511262481507;-;-;6.752136;-0.050079346;6.4554443;-;-;-;-;-;-;-;-;-;-;-;-;-;-;-
1511262481528;-;-;6.6432037;0.06602478;6.6015015;-;-;-;-;-;-;-;-;-;-;-;-;-;-;-
1511262481547;-;-;6.738968;0.095962524;6.500946;-;-;-;-;-;-;-;-;-;-;-;-;-;-;-
1511262481568;-;-;6.965225;0.3282013;6.5619965;-;-;-;-;-;-;-;-;-;-;-;-;-;-;-
1511262481589;-;-;6.7641144;0.4359436;6.3848267;-;-;-;-;-;-;-;-;-;-;-;-;-;-;-
1511262481609;-;-;6.493561;0.54248047;6.667343;-;-;-;-;-;-;-;-;-;-;-;-;-;-;-
1511262481629;-;-;6.4456787;0.5520477;6.5559998;-;-;-;-;-;-;-;-;-;-;-;-;-;-;-
1511262481650;-;-;6.9149475;0.43952942;6.5895233;-;-;-;-;-;-;-;-;-;-;-;-;-;-;-
1511262481670;-;-;6.703064;0.15222168;6.4554443;-;-;-;-;-;-;-;-;-;-;-;-;-;-;-
1511262481690;-;-;6.296036;0.107925415;7.034851;-;-;-;-;-;-;-;-;-;-;-;-;-;-;-
1511262481711;-;-;6.2864685;0.24320984;7.038437;-;-;-;-;-;-;-;-;-;-;-;-;-;-;-
1511262481730;-;-;6.8239594;0.34495544;6.583542;-;-;-;-;-;-;-;-;-;-;-;-;-;-;-
1511262481750;-;-;6.394211;0.13905334;6.7846527;-;-;-;-;-;-;-;-;-;-;-;-;-;-;-
1511262481771;-;-;6.205063;0.2515869;7.01091;-;-;-;-;-;-;-;-;-;-;-;-;-;-;-
1511262481791;-;-;6.849106;0.07081604;6.669739;-;-;-;-;-;-;-;-;-;-;-;-;-;-;-
1511262481812;-;-;6.8239594;-0.030929565;6.208847;-;-;-;-;-;-;-;-;-;-;-;-;-;-;-
1511262481832;-;-;6.050644;0.06602478;6.9773865;-;-;-;-;-;-;-;-;-;-;-;-;-;-;-
1511262481852;-;-;6.1033173;0.31861877;7.2024384;-;-;-;-;-;-;-;-;-;-;-;-;-;-;-
1511262481873;-;-;6.3966064;0.45509338;6.825348;-;-;-;-;-;-;-;-;-;-;-;-;-;-;-
1511262481893;-;-;6.5246887;0.4766388;6.7954254;-;-;-;-;-;-;-;-;-;-;-;-;-;-;-
1511262481913;-;-;6.809601;0.28988647;6.461441;-;-;-;-;-;-;-;-;-;-;-;-;-;-;-
1511262481933;-;-;6.2433777;0.103149414;6.9378815;-;-;-;-;-;-;-;-;-;-;-;-;-;-;-
1511262481954;-;-;6.0219116;0.2803192;7.3532715;-;-;-;-;-;-;-;-;-;-;-;-;-;-;-
1511262481974;-;-;6.1009216;0.17137146;7.177307;-;-;-;-;-;-;-;-;-;-;-;-;-;-;-
1511262481994;-;-;5.8914185;0.05645752;7.1006927;-;-;-;-;-;-;-;-;-;-;-;-;-;-;-
1511262482015;-;-;6.082962;-0.014175415;7.133011;-;-;-;-;-;-;-;-;-;-;-;-;-;-;-
1511262482035;-;-;6.3139954;0.038497925;7.070755;-;-;-;-;-;-;-;-;-;-;-;-;-;-;-
1511262482055;-;-;6.3511047;0.026535034;7.065979;-;-;-;-;-;-;-;-;-;-;-;-;-;-;-
1511262482076;-;-;6.220627;0.052871704;7.173706;-;-;-;-;-;-;-;-;-;-;-;-;-;-;-
1511262482096;-;-;6.03627;0.20610046;7.201248;-;-;-;-;-;-;-;-;-;-;-;-;-;-;-
1511262482116;-;-;6.0063477;0.4287567;7.213211;-;-;-;-;-;-;-;-;-;-;-;-;-;-;-
1511262482136;-;-;6.0063477;0.54367065;7.141388;-;-;-;-;-;-;-;-;-;-;-;-;-;-;-
1511262482157;-;-;6.1092987;0.5664215;7.0420227;-;-;-;-;-;-;-;-;-;-;-;-;-;-;-
1511262482177;-;-;6.138031;0.45988464;7.0647736;-;-;-;-;-;-;-;-;-;-;-;-;-;-;-
1511262482197;-;-;6.2002716;0.31263733;7.094696;-;-;-;-;-;-;-;-;-;-;-;-;-;-;-
1511262482218;-;-;6.256546;0.23242188;7.148575;-;-;-;-;-;-;-;-;-;-;-;-;-;-;-
1511262482238;-;-;6.2589264;0.105529785;7.10907;-;-;-;-;-;-;-;-;-;-;-;-;-;-;-
1511262482259;-;-;6.2002716;0.08998108;7.16893;-;-;-;-;-;-;-;-;-;-;-;-;-;-;-
1511262482279;-;-;6.078171;0.15701294;7.216812;-;-;-;-;-;-;-;-;-;-;-;-;-;-;-
1511262482299;-;-;5.960861;0.13186646;7.232376;-;-;-;-;-;-;-;-;-;-;-;-;-;-;-
1511262482319;-;-;5.971634;0.15820313;7.2551117;-;-;-;-;-;-;-;-;-;-;-;-;-;-;-
1511262482340;-;-;5.981201;0.16778564;7.240753;-;-;-;-;-;-;-;-;-;-;-;-;-;-;-
1511262482360;-;-;6.038666;0.18214417;7.237152;-;-;-;-;-;-;-;-;-;-;-;-;-;-;-
1511262482380;-;-;6.03627;0.20010376;7.225189;-;-;-;-;-;-;-;-;-;-;-;-;-;-;-
1511262482401;-;-;5.9979706;0.2348175;7.275467;-;-;-;-;-;-;-;-;-;-;-;-;-;-;-
1511262482421;-;-;5.901001;0.33657837;7.292221;-;-;-;-;-;-;-;-;-;-;-;-;-;-;-
1511262482441;-;-;5.902191;0.3222046;7.263489;-;-;-;-;-;-;-;-;-;-;-;-;-;-;-
1511262482461;-;-;5.971634;0.38087463;7.256317;-;-;-;-;-;-;-;-;-;-;-;-;-;-;-
1511262482482;-;-;6.070984;0.37727356;7.1868744;-;-;-;-;-;-;-;-;-;-;-;-;-;-;-
1511262482502;-;-;6.1715393;0.3796692;7.204834;-;-;-;-;-;-;-;-;-;-;-;-;-;-;-
1511262482522;-;-;6.1799316;0.3425598;7.124634;-;-;-;-;-;-;-;-;-;-;-;-;-;-;-
1511262482543;-;-;6.1715393;0.25875854;7.1820984;-;-;-;-;-;-;-;-;-;-;-;-;-;-;-
1511262482562;-;-;6.1080933;0.25875854;7.2778625;-;-;-;-;-;-;-;-;-;-;-;-;-;-;-
1511262482582;-;-;5.9895782;0.18933105;7.28743;-;-;-;-;-;-;-;-;-;-;-;-;-;-;-
1511262482603;-;-;5.9225464;0.1905365;7.282654;-;-;-;-;-;-;-;-;-;-;-;-;-;-;-
1511262482623;-;-;6.0063477;0.16419983;7.243149;-;-;-;-;-;-;-;-;-;-;-;-;-;-;-
1511262482643;-;-;5.9931793;0.20370483;7.2455444;-;-;-;-;-;-;-;-;-;-;-;-;-;-;-
1511262482663;-;-;5.9859924;0.2922821;7.2180023;-;-;-;-;-;-;-;-;-;-;-;-;-;-;-
1511262482684;-;-;5.9189606;0.34016418;7.244339;-;-;-;-;-;-;-;-;-;-;-;-;-;-;-
1511262482704;-;-;5.9153595;0.30665588;7.263489;-;-;-;-;-;-;-;-;-;-;-;-;-;-;-
1511262482724;-;-;5.932129;0.27911377;7.2730713;-;-;-;-;-;-;-;-;-;-;-;-;-;-;-
1511262482745;-;-;5.999161;0.20249939;7.326935;-;-;-;-;-;-;-;-;-;-;-;-;-;-;-
1511262482765;-;-;6.0099335;0.22164917;7.2622986;-;-;-;-;-;-;-;-;-;-;-;-;-;-;-
1511262482785;-;-;6.051834;0.25038147;7.213211;-;-;-;-;-;-;-;-;-;-;-;-;-;-;-
1511262482805;-;-;6.0805664;0.2348175;7.256317;-;-;-;-;-;-;-;-;-;-;-;-;-;-;-
1511262482826;-;-;6.0458527;0.2013092;7.3580627;-;-;-;-;-;-;-;-;-;-;-;-;-;-;-
1511262482846;-;-;6.020706;0.1905365;7.359268;-;-;-;-;-;-;-;-;-;-;-;-;-;-;-
1511262482866;-;-;5.886627;0.24559021;7.291031;-;-;-;-;-;-;-;-;-;-;-;-;-;-;-
1511262482887;-;-;5.8243866;0.2743225;7.299408;-;-;-;-;-;-;-;-;-;-;-;-;-;-;-
1511262482907;-;-;5.814804;0.27552795;7.338913;-;-;-;-;-;-;-;-;-;-;-;-;-;-;-
1511262482927;-;-;5.8746643;0.3030548;7.3496857;-;-;-;-;-;-;-;-;-;-;-;-;-;-;-
1511262482947;-;-;5.8962097;0.3030548;7.302994;-;-;-;-;-;-;-;-;-;-;-;-;-;-;-
1511262482968;-;-;5.9620514;0.32939148;7.2814484;-;-;-;-;-;-;-;-;-;-;-;-;-;-;-
1511262482988;-;-;5.909378;0.33418274;7.326935;-;-;-;-;-;-;-;-;-;-;-;-;-;-;-
1511262483008;-;-;5.9704285;0.30903625;7.3053894;-;-;-;-;-;-;-;-;-;-;-;-;-;-;-
1511262483029;-;-;5.981201;0.27911377;7.2551117;-;-;-;-;-;-;-;-;-;-;-;-;-;-;-
1511262483049;-;-;6.020706;0.2192688;7.276657;-;-;-;-;-;-;-;-;-;-;-;-;-;-;-
1511262483069;-;-;6.020706;0.16659546;7.2814484;-;-;-;-;-;-;-;-;-;-;-;-;-;-;-
1511262483090;-;-;6.038666;0.18334961;7.338913;-;-;-;-;-;-;-;-;-;-;-;-;-;-;-
1511262483110;-;-;6.0266876;0.23123169;7.2886353;-;-;-;-;-;-;-;-;-;-;-;-;-;-;-
1511262483130;-;-;5.9464874;0.26235962;7.323349;-;-;-;-;-;-;-;-;-;-;-;-;-;-;-
1511262483151;-;-;5.8986053;0.25637817;7.362854;-;-;-;-;-;-;-;-;-;-;-;-;-;-;-
1511262483170;-;-;5.8519135;0.2300415;7.322159;-;-;-;-;-;-;-;-;-;-;-;-;-;-;-
1511262483190;-;-;5.8914185;0.2132721;7.3329315;-;-;-;-;-;-;-;-;-;-;-;-;-;-;-
1511262483211;-;-;5.868683;0.25756836;7.3808136;-;-;-;-;-;-;-;-;-;-;-;-;-;-;-
1511262483231;-;-;5.862686;0.26834106;7.429886;-;-;-;-;-;-;-;-;-;-;-;-;-;-;-
1511262483251;-;-;5.866287;0.20610046;7.421509;-;-;-;-;-;-;-;-;-;-;-;-;-;-;-
1511262483272;-;-;5.8040314;0.17018127;7.410736;-;-;-;-;-;-;-;-;-;-;-;-;-;-;-
1511262483291;-;-;5.845932;0.17018127;7.3843994;-;-;-;-;-;-;-;-;-;-;-;-;-;-;-
1511262483311;-;-;5.8363495;0.18693542;7.4131317;-;-;-;-;-;-;-;-;-;-;-;-;-;-;-
1511262483331;-;-;5.8399506;0.16539001;7.4634094;-;-;-;-;-;-;-;-;-;-;-;-;-;-;-
1511262483352;-;-;5.7968445;0.16897583;7.44545;-;-;-;-;-;-;-;-;-;-;-;-;-;-;-
1511262483372;-;-;5.826782;0.13067627;7.4514313;-;-;-;-;-;-;-;-;-;-;-;-;-;-;-
1511262483392;-;-;5.8567047;0.22045898;7.4526367;-;-;-;-;-;-;-;-;-;-;-;-;-;-;-
1511262483412;-;-;5.8638916;0.20610046;7.371231;-;-;-;-;-;-;-;-;-;-;-;-;-;-;-
1511262483433;-;-;5.9225464;0.26115417;7.382004;-;-;-;-;-;-;-;-;-;-;-;-;-;-;-
1511262483453;-;-;5.912964;0.20489502;7.3891907;-;-;-;-;-;-;-;-;-;-;-;-;-;-;-
1511262483473;-;-;5.924942;0.17855835;7.386795;-;-;-;-;-;-;-;-;-;-;-;-;-;-;-
1511262483494;-;-;5.892624;0.17018127;7.354477;-;-;-;-;-;-;-;-;-;-;-;-;-;-;-
1511262483514;-;-;5.853119;0.19412231;7.362854;-;-;-;-;-;-;-;-;-;-;-;-;-;-;-
1511262483534;-;-;5.853119;0.21687317;7.3808136;-;-;-;-;-;-;-;-;-;-;-;-;-;-;-
1511262483555;-;-;5.8567047;0.21687317;7.3843994;-;-;-;-;-;-;-;-;-;-;-;-;-;-;-
1511262483575;-;-;5.9033966;0.20370483;7.3736267;-;-;-;-;-;-;-;-;-;-;-;-;-;-;-
1511262483595;-;-;5.881851;0.17497253;7.306595;-;-;-;-;-;-;-;-;-;-;-;-;-;-;-
1511262483616;-;-;5.8722687;0.17137146;7.326935;-;-;-;-;-;-;-;-;-;-;-;-;-;-;-
1511262483636;-;-;5.901001;0.19651794;7.387985;-;-;-;-;-;-;-;-;-;-;-;-;-;-;-
1511262483657;-;-;5.952469;0.21087646;7.3089905;-;-;-;-;-;-;-;-;-;-;-;-;-;-;-
1511262483677;-;-;5.9943695;0.13426208;7.3089905;-;-;-;-;-;-;-;-;-;-;-;-;-;-;-
1511262483697;-;-;5.9943695;0.11392212;7.316162;-;-;-;-;-;-;-;-;-;-;-;-;-;-;-
1511262483718;-;-;5.933319;0.14025879;7.362854;-;-;-;-;-;-;-;-;-;-;-;-;-;-;-
1511262483738;-;-;5.892624;0.14503479;7.378418;-;-;-;-;-;-;-;-;-;-;-;-;-;-;-
1511262483758;-;-;5.902191;0.15222168;7.387985;-;-;-;-;-;-;-;-;-;-;-;-;-;-;-
1511262483778;-;-;5.889023;0.15701294;7.342499;-;-;-;-;-;-;-;-;-;-;-;-;-;-;-
1511262483799;-;-;5.902191;0.14863586;7.324539;-;-;-;-;-;-;-;-;-;-;-;-;-;-;-
1511262483819;-;-;5.886627;0.22285461;7.34729;-;-;-;-;-;-;-;-;-;-;-;-;-;-;-
1511262483839;-;-;5.8399506;0.22164917;7.3736267;-;-;-;-;-;-;-;-;-;-;-;-;-;-;-
1511262483860;-;-;5.7932587;0.23362732;7.385605;-;-;-;-;-;-;-;-;-;-;-;-;-;-;-
1511262483880;-;-;5.8088226;0.24919128;7.461014;-;-;-;-;-;-;-;-;-;-;-;-;-;-;-
1511262483900;-;-;5.8088226;0.26235962;7.3975677;-;-;-;-;-;-;-;-;-;-;-;-;-;-;-
1511262483920;-;-;5.8088226;0.2527771;7.34848;-;-;-;-;-;-;-;-;-;-;-;-;-;-;-
1511262483941;-;-;5.8016357;0.25038147;7.343704;-;-;-;-;-;-;-;-;-;-;-;-;-;-;-
1511262483961;-;-;5.9429016;0.29588318;7.395172;-;-;-;-;-;-;-;-;-;-;-;-;-;-;-
1511262483981;-;-;6.086548;0.17018127;7.355667;-;-;-;-;-;-;-;-;-;-;-;-;-;-;-
1511262484002;-;-;6.038666;0.20489502;7.3377075;-;-;-;-;-;-;-;-;-;-;-;-;-;-;-
1511262484022;-;-;6.0063477;0.18574524;7.364044;-;-;-;-;-;-;-;-;-;-;-;-;-;-;-
1511262484042;-;-;5.9584656;0.14144897;7.371231;-;-;-;-;-;-;-;-;-;-;-;-;-;-;-
1511262484062;-;-;5.885437;0.110321045;7.370041;-;-;-;-;-;-;-;-;-;-;-;-;-;-;-
1511262484083;-;-;5.8004456;0.093566895;7.4083405;-;-;-;-;-;-;-;-;-;-;-;-;-;-;-
1511262484103;-;-;5.766922;0.08279419;7.4562225;-;-;-;-;-;-;-;-;-;-;-;-;-;-;-
1511262484124;-;-;5.782486;0.12109375;7.4263;-;-;-;-;-;-;-;-;-;-;-;-;-;-;-
1511262484144;-;-;5.885437;0.17616272;7.338913;-;-;-;-;-;-;-;-;-;-;-;-;-;-;-
1511262484164;-;-;5.9620514;0.21208191;7.355667;-;-;-;-;-;-;-;-;-;-;-;-;-;-;-
1511262484185;-;-;5.9704285;0.2420044;7.3532715;-;-;-;-;-;-;-;-;-;-;-;-;-;-;-
1511262484205;-;-;6.0171204;0.22525024;7.252716;-;-;-;-;-;-;-;-;-;-;-;-;-;-;-
1511262484225;-;-;6.031479;0.19770813;7.2311707;-;-;-;-;-;-;-;-;-;-;-;-;-;-;-
1511262484245;-;-;6.0087433;0.2132721;7.243149;-;-;-;-;-;-;-;-;-;-;-;-;-;-;-
1511262484266;-;-;5.9033966;0.2240448;7.3341217;-;-;-;-;-;-;-;-;-;-;-;-;-;-;-
1511262484286;-;-;5.860306;0.1797638;7.3963776;-;-;-;-;-;-;-;-;-;-;-;-;-;-;-
1511262484306;-;-;5.820801;0.19770813;7.398773;-;-;-;-;-;-;-;-;-;-;-;-;-;-;-
1511262484326;-;-;5.8004456;0.24919128;7.4957275;-;-;-;-;-;-;-;-;-;-;-;-;-;-;-
1511262484347;-;-;5.7717133;0.2420044;7.5148773;-;-;-;-;-;-;-;-;-;-;-;-;-;-;-
1511262484367;-;-;5.723831;0.25517273;7.517273;-;-;-;-;-;-;-;-;-;-;-;-;-;-;-
1511262484387;-;-;5.7214355;0.27792358;7.513687;-;-;-;-;-;-;-;-;-;-;-;-;-;-;-
1511262484407;-;-;5.770523;0.28749084;7.4322815;-;-;-;-;-;-;-;-;-;-;-;-;-;-;-
1511262484428;-;-;5.814804;0.21208191;7.3843994;-;-;-;-;-;-;-;-;-;-;-;-;-;-;-
1511262484448;-;-;5.806427;0.14743042;7.398773;-;-;-;-;-;-;-;-;-;-;-;-;-;-;-
1511262484468;-;-;5.7298126;0.10194397;7.3137665;-;-;-;-;-;-;-;-;-;-;-;-;-;-;-
1511262484489;-;-;5.8902283;0.105529785;7.379608;-;-;-;-;-;-;-;-;-;-;-;-;-;-;-
1511262484509;-;-;5.9500732;0.20610046;7.409546;-;-;-;-;-;-;-;-;-;-;-;-;-;-;-
1511262484529;-;-;5.889023;0.14144897;7.355667;-;-;-;-;-;-;-;-;-;-;-;-;-;-;-
1511262484549;-;-;5.897415;0.14743042;7.4155273;-;-;-;-;-;-;-;-;-;-;-;-;-;-;-
1511262484569;-;-;5.909378;0.18574524;7.4286957;-;-;-;-;-;-;-;-;-;-;-;-;-;-;-
1511262484589;-;-;5.8986053;0.22045898;7.4119415;-;-;-;-;-;-;-;-;-;-;-;-;-;-;-
1511262484610;-;-;5.845932;0.17616272;7.3676453;-;-;-;-;-;-;-;-;-;-;-;-;-;-;-
1511262484630;-;-;5.8507233;0.1905365;7.390381;-;-;-;-;-;-;-;-;-;-;-;-;-;-;-
1511262484651;-;-;5.8962097;0.1845398;7.421509;-;-;-;-;-;-;-;-;-;-;-;-;-;-;-
1511262484671;-;-;5.884247;0.19651794;7.433487;-;-;-;-;-;-;-;-;-;-;-;-;-;-;-
1511262484691;-;-;5.8471375;0.16539001;7.3891907;-;-;-;-;-;-;-;-;-;-;-;-;-;-;-
1511262484712;-;-;5.8806458;0.18574524;7.4119415;-;-;-;-;-;-;-;-;-;-;-;-;-;-;-
1511262484731;-;-;5.897415;0.19770813;7.3568726;-;-;-;-;-;-;-;-;-;-;-;-;-;-;-
1511262484751;-;-;5.861496;0.2240448;7.342499;-;-;-;-;-;-;-;-;-;-;-;-;-;-;-
1511262484772;-;-;5.781296;0.18334961;7.405945;-;-;-;-;-;-;-;-;-;-;-;-;-;-;-
1511262484791;-;-;5.7333984;0.18214417;7.42749;-;-;-;-;-;-;-;-;-;-;-;-;-;-;-
1511262484811;-;-;5.7645264;0.16659546;7.4286957;-;-;-;-;-;-;-;-;-;-;-;-;-;-;-
1511262484831;-;-;5.8040314;0.18574524;7.4083405;-;-;-;-;-;-;-;-;-;-;-;-;-;-;-
1511262484852;-;-;5.9512787;0.15342712;7.36644;-;-;-;-;-;-;-;-;-;-;-;-;-;-;-
1511262484872;-;-;5.991974;0.117507935;7.3377075;-;-;-;-;-;-;-;-;-;-;-;-;-;-;-
1511262484892;-;-;6.0147247;0.10913086;7.3365173;-;-;-;-;-;-;-;-;-;-;-;-;-;-;-
1511262484912;-;-;5.941696;0.103149414;7.3461;-;-;-;-;-;-;-;-;-;-;-;-;-;-;-
1511262484932;-;-;5.8962097;0.14144897;7.36644;-;-;-;-;-;-;-;-;-;-;-;-;-;-;-
1511262484953;-;-;5.902191;0.15342712;7.362854;-;-;-;-;-;-;-;-;-;-;-;-;-;-;-
1511262484973;-;-;5.861496;0.1510315;7.362854;-;-;-;-;-;-;-;-;-;-;-;-;-;-;-
1511262484993;-;-;5.818405;0.15940857;7.4239044;-;-;-;-;-;-;-;-;-;-;-;-;-;-;-
1511262485013;-;-;5.751358;0.20848083;7.477768;-;-;-;-;-;-;-;-;-;-;-;-;-;-;-
1511262485033;-;-;5.7489624;0.2132721;7.488556;-;-;-;-;-;-;-;-;-;-;-;-;-;-;-
1511262485054;-;-;5.7405853;0.19172668;7.4478455;-;-;-;-;-;-;-;-;-;-;-;-;-;-;-
1511262485074;-;-;5.8088226;0.18693542;7.3915863;-;-;-;-;-;-;-;-;-;-;-;-;-;-;-
1511262485094;-;-;5.8962097;0.19770813;7.3676453;-;-;-;-;-;-;-;-;-;-;-;-;-;-;-
1511262485115;-;-;5.8710785;0.17497253;7.4526367;-;-;-;-;-;-;-;-;-;-;-;-;-;-;-
1511262485135;-;-;5.6663666;0.20489502;7.4921417;-;-;-;-;-;-;-;-;-;-;-;-;-;-;-
1511262485155;-;-;5.584961;0.20610046;7.5699463;-;-;-;-;-;-;-;-;-;-;-;-;-;-;-
1511262485176;-;-;5.584961;0.21208191;7.611847;-;-;-;-;-;-;-;-;-;-;-;-;-;-;-
1511262485196;-;-;5.6531982;0.22525024;7.6333923;-;-;-;-;-;-;-;-;-;-;-;-;-;-;-
1511262485216;-;-;5.691513;0.18214417;7.615448;-;-;-;-;-;-;-;-;-;-;-;-;-;-;-
1511262485237;-;-;5.636444;0.15701294;7.620224;-;-;-;-;-;-;-;-;-;-;-;-;-;-;-
1511262485257;-;-;5.6065063;0.16539001;7.6333923;-;-;-;-;-;-;-;-;-;-;-;-;-;-;-
1511262485277;-;-;5.5586243;0.19891357;7.651352;-;-;-;-;-;-;-;-;-;-;-;-;-;-;-
1511262485298;-;-;5.5239105;0.23602295;7.6489563;-;-;-;-;-;-;-;-;-;-;-;-;-;-;-
1511262485318;-;-;5.5167236;0.26834106;7.6262207;-;-;-;-;-;-;-;-;-;-;-;-;-;-;-
1511262485338;-;-;5.534683;0.28749084;7.6250153;-;-;-;-;-;-;-;-;-;-;-;-;-;-;-
1511262485358;-;-;5.5753937;0.28271484;7.6645203;-;-;-;-;-;-;-;-;-;-;-;-;-;-;-
1511262485379;-;-;5.56102;0.2132721;7.738739;-;-;-;-;-;-;-;-;-;-;-;-;-;-;-
1511262485399;-;-;5.5155334;0.1845398;7.730362;-;-;-;-;-;-;-;-;-;-;-;-;-;-;-
1511262485419;-;-;5.4880066;0.16539001;7.7255707;-;-;-;-;-;-;-;-;-;-;-;-;-;-;-
1511262485440;-;-;5.4592743;0.23362732;7.7207794;-;-;-;-;-;-;-;-;-;-;-;-;-;-;-
1511262485460;-;-;5.505951;0.24679565;7.6094513;-;-;-;-;-;-;-;-;-;-;-;-;-;-;-
1511262485480;-;-;5.5430603;0.26594543;7.5675507;-;-;-;-;-;-;-;-;-;-;-;-;-;-;-
1511262485501;-;-;5.600525;0.24440002;7.580719;-;-;-;-;-;-;-;-;-;-;-;-;-;-;-
1511262485521;-;-;5.696289;0.20489502;7.563965;-;-;-;-;-;-;-;-;-;-;-;-;-;-;-
1511262485541;-;-;5.707062;0.17736816;7.5424194;-;-;-;-;-;-;-;-;-;-;-;-;-;-;-
1511262485561;-;-;5.6496124;0.14982605;7.6728973;-;-;-;-;-;-;-;-;-;-;-;-;-;-;-
1511262485582;-;-;5.545456;0.20848083;7.7399445;-;-;-;-;-;-;-;-;-;-;-;-;-;-;-
1511262485602;-;-;5.513138;0.19412231;7.6812744;-;-;-;-;-;-;-;-;-;-;-;-;-;-;-
1511262485623;-;-;5.489197;0.21447754;7.675293;-;-;-;-;-;-;-;-;-;-;-;-;-;-;-
1511262485643;-;-;5.525116;0.26235962;7.6262207;-;-;-;-;-;-;-;-;-;-;-;-;-;-;-
1511262485663;-;-;5.517929;0.24798584;7.6465607;-;-;-;-;-;-;-;-;-;-;-;-;-;-;-
1511262485683;-;-;5.5203247;0.2815094;7.6920624;-;-;-;-;-;-;-;-;-;-;-;-;-;-;-
1511262485703;-;-;5.533493;0.2635498;7.6453705;-;-;-;-;-;-;-;-;-;-;-;-;-;-;-
1511262485724;-;-;5.5622253;0.25398254;7.627411;-;-;-;-;-;-;-;-;-;-;-;-;-;-;-
1511262485744;-;-;5.5909576;0.23960876;7.647766;-;-;-;-;-;-;-;-;-;-;-;-;-;-;-
1511262485764;-;-;5.574188;0.21687317;7.6058655;-;-;-;-;-;-;-;-;-;-;-;-;-;-;-
1511262485785;-;-;5.4520874;0.15342712;7.579529;-;-;-;-;-;-;-;-;-;-;-;-;-;-;-
1511262485806;-;-;5.334778;0.14144897;7.735153;-;-;-;-;-;-;-;-;-;-;-;-;-;-;-
1511262485826;-;-;5.2354126;0.1797638;7.8512726;-;-;-;-;-;-;-;-;-;-;-;-;-;-;-
1511262485846;-;-;5.319214;0.18814087;7.880005;-;-;-;-;-;-;-;-;-;-;-;-;-;-;-
1511262485867;-;-;5.2988586;0.21806335;7.8596497;-;-;-;-;-;-;-;-;-;-;-;-;-;-;-
1511262485886;-;-;5.3072357;0.13905334;7.8824005;-;-;-;-;-;-;-;-;-;-;-;-;-;-;-
1511262485906;-;-;5.2785034;0.06124878;7.8871765;-;-;-;-;-;-;-;-;-;-;-;-;-;-;-
1511262485926;-;-;5.295273;0.05406189;7.911133;-;-;-;-;-;-;-;-;-;-;-;-;-;-;-
1511262485947;-;-;5.279709;0.093566895;7.816559;-;-;-;-;-;-;-;-;-;-;-;-;-;-;-
1511262485966;-;-;5.2545624;0.1905365;7.814163;-;-;-;-;-;-;-;-;-;-;-;-;-;-;-
1511262485986;-;-;5.3778687;0.20729065;7.8512726;-;-;-;-;-;-;-;-;-;-;-;-;-;-;-
1511262486007;-;-;5.3563232;0.30903625;7.754303;-;-;-;-;-;-;-;-;-;-;-;-;-;-;-
1511262486026;-;-;5.1647797;0.2013092;7.9207;-;-;-;-;-;-;-;-;-;-;-;-;-;-;-
1511262486046;-;-;5.1947174;0.20729065;7.943451;-;-;-;-;-;-;-;-;-;-;-;-;-;-;-
1511262486067;-;-;5.2126617;0.14624023;7.970978;-;-;-;-;-;-;-;-;-;-;-;-;-;-;-
1511262486087;-;-;5.2354126;0.14743042;7.974579;-;-;-;-;-;-;-;-;-;-;-;-;-;-;-
1511262486107;-;-;5.289276;0.16299438;7.8943634;-;-;-;-;-;-;-;-;-;-;-;-;-;-;-
1511262486127;-;-;5.276108;0.15940857;7.8859863;-;-;-;-;-;-;-;-;-;-;-;-;-;-;-
1511262486148;-;-;5.3407593;0.15820313;7.790222;-;-;-;-;-;-;-;-;-;-;-;-;-;-;-
1511262486167;-;-;5.4532776;0.19651794;7.7207794;-;-;-;-;-;-;-;-;-;-;-;-;-;-;-
1511262486187;-;-;5.502365;0.22045898;7.6453705;-;-;-;-;-;-;-;-;-;-;-;-;-;-;-
1511262486208;-;-;5.478424;0.27552795;7.7842255;-;-;-;-;-;-;-;-;-;-;-;-;-;-;-
1511262486228;-;-;5.410187;0.31143188;7.8189545;-;-;-;-;-;-;-;-;-;-;-;-;-;-;-
1511262486248;-;-;5.431732;0.28630066;7.8285217;-;-;-;-;-;-;-;-;-;-;-;-;-;-;-
1511262486268;-;-;5.3419495;0.21806335;7.8381042;-;-;-;-;-;-;-;-;-;-;-;-;-;-;-
1511262486288;-;-;5.2701263;0.20729065;7.874008;-;-;-;-;-;-;-;-;-;-;-;-;-;-;-
1511262486308;-;-;5.174362;0.14982605;7.8787994;-;-;-;-;-;-;-;-;-;-;-;-;-;-;-
1511262486328;-;-;5.1157074;0.18933105;7.874008;-;-;-;-;-;-;-;-;-;-;-;-;-;-;-
1511262486349;-;-;5.142044;0.20968628;7.93985;-;-;-;-;-;-;-;-;-;-;-;-;-;-;-
1511262486369;-;-;5.1803436;0.2803192;7.905136;-;-;-;-;-;-;-;-;-;-;-;-;-;-;-
1511262486389;-;-;5.268936;0.26475525;7.872818;-;-;-;-;-;-;-;-;-;-;-;-;-;-;-
1511262486410;-;-;5.32399;0.27192688;7.869232;-;-;-;-;-;-;-;-;-;-;-;-;-;-;-
1511262486429;-;-;5.3503265;0.2707367;7.872818;-;-;-;-;-;-;-;-;-;-;-;-;-;-;-
1511262486449;-;-;5.368286;0.2850952;7.8405;-;-;-;-;-;-;-;-;-;-;-;-;-;-;-
1511262486470;-;-;5.370682;0.29348755;7.829727;-;-;-;-;-;-;-;-;-;-;-;-;-;-;-
1511262486489;-;-;5.3491364;0.25398254;7.7722626;-;-;-;-;-;-;-;-;-;-;-;-;-;-;-
1511262486509;-;-;5.3419495;0.22764587;7.7842255;-;-;-;-;-;-;-;-;-;-;-;-;-;-;-
1511262486530;-;-;5.3491364;0.18095398;7.7722626;-;-;-;-;-;-;-;-;-;-;-;-;-;-;-
1511262486550;-;-;5.376663;0.16897583;7.833313;-;-;-;-;-;-;-;-;-;-;-;-;-;-;-
1511262486570;-;-;5.3611145;0.19651794;7.793808;-;-;-;-;-;-;-;-;-;-;-;-;-;-;-
1511262486590;-;-;5.328781;0.13067627;7.832123;-;-;-;-;-;-;-;-;-;-;-;-;-;-;-
1511262486611;-;-;5.347946;0.14263916;7.7878265;-;-;-;-;-;-;-;-;-;-;-;-;-;-;-
1511262486631;-;-;5.3623047;0.17376709;7.833313;-;-;-;-;-;-;-;-;-;-;-;-;-;-;-
1511262486651;-;-;5.406601;0.1905365;7.8201447;-;-;-;-;-;-;-;-;-;-;-;-;-;-;-
1511262486672;-;-;5.367096;0.16419983;7.7842255;-;-;-;-;-;-;-;-;-;-;-;-;-;-;-
1511262486692;-;-;5.375473;0.2192688;7.7950134;-;-;-;-;-;-;-;-;-;-;-;-;-;-;-
1511262486712;-;-;5.376663;0.27192688;7.8189545;-;-;-;-;-;-;-;-;-;-;-;-;-;-;-
1511262486733;-;-;5.3407593;0.21806335;7.8189545;-;-;-;-;-;-;-;-;-;-;-;-;-;-;-
1511262486753;-;-;5.355118;0.2527771;7.8033905;-;-;-;-;-;-;-;-;-;-;-;-;-;-;-
1511262486773;-;-;5.355118;0.22644043;7.7686768;-;-;-;-;-;-;-;-;-;-;-;-;-;-;-
1511262486793;-;-;5.387436;0.2922821;7.730362;-;-;-;-;-;-;-;-;-;-;-;-;-;-;-
1511262486813;-;-;5.3958282;0.25875854;7.76268;-;-;-;-;-;-;-;-;-;-;-;-;-;-;-
1511262486834;-;-;5.4137726;0.22045898;7.817749;-;-;-;-;-;-;-;-;-;-;-;-;-;-;-
1511262486854;-;-;5.4688416;0.2013092;7.7566986;-;-;-;-;-;-;-;-;-;-;-;-;-;-;-
1511262486874;-;-;5.437729;0.19293213;7.7315674;-;-;-;-;-;-;-;-;-;-;-;-;-;-;-
1511262486895;-;-;5.406601;0.2240448;7.7997894;-;-;-;-;-;-;-;-;-;-;-;-;-;-;-
1511262486915;-;-;5.4401093;0.24679565;7.826126;-;-;-;-;-;-;-;-;-;-;-;-;-;-;-
1511262486935;-;-;5.3958282;0.23242188;7.747116;-;-;-;-;-;-;-;-;-;-;-;-;-;-;-
1511262486956;-;-;5.4006042;0.20010376;7.737549;-;-;-;-;-;-;-;-;-;-;-;-;-;-;-
1511262486975;-;-;5.430542;0.17137146;7.674103;-;-;-;-;-;-;-;-;-;-;-;-;-;-;-
1511262486995;-;-;5.4449005;0.16778564;7.707611;-;-;-;-;-;-;-;-;-;-;-;-;-;-;-
1511262487016;-;-;5.446106;0.21447754;7.7291718;-;-;-;-;-;-;-;-;-;-;-;-;-;-;-
1511262487036;-;-;5.4125824;0.26475525;7.7339478;-;-;-;-;-;-;-;-;-;-;-;-;-;-;-
1511262487056;-;-;5.4245605;0.2707367;7.793808;-;-;-;-;-;-;-;-;-;-;-;-;-;-;-
1511262487077;-;-;5.4676514;0.18933105;7.714798;-;-;-;-;-;-;-;-;-;-;-;-;-;-;-
1511262487097;-;-;5.4927826;0.13546753;7.7124023;-;-;-;-;-;-;-;-;-;-;-;-;-;-;-
1511262487117;-;-;5.493988;0.052871704;7.7495117;-;-;-;-;-;-;-;-;-;-;-;-;-;-;-
1511262487138;-;-;5.4520874;0.12948608;7.753113;-;-;-;-;-;-;-;-;-;-;-;-;-;-;-
1511262487158;-;-;5.4365234;0.1330719;7.76149;-;-;-;-;-;-;-;-;-;-;-;-;-;-;-
1511262487179;-;-;5.4281464;0.19172668;7.707611;-;-;-;-;-;-;-;-;-;-;-;-;-;-;-
1511262487199;-;-;5.4963837;0.18214417;7.6537476;-;-;-;-;-;-;-;-;-;-;-;-;-;-;-
1511262487219;-;-;5.525116;0.16419983;7.6776886;-;-;-;-;-;-;-;-;-;-;-;-;-;-;-
1511262487240;-;-;5.552643;0.1725769;7.627411;-;-;-;-;-;-;-;-;-;-;-;-;-;-;-
1511262487259;-;-;5.534683;0.21087646;7.6130524;-;-;-;-;-;-;-;-;-;-;-;-;-;-;-
1511262487279;-;-;5.5358887;0.24798584;7.6489563;-;-;-;-;-;-;-;-;-;-;-;-;-;-;-
1511262487300;-;-;5.5442657;0.23960876;7.6621246;-;-;-;-;-;-;-;-;-;-;-;-;-;-;-
1511262487320;-;-;5.537079;0.21447754;7.619034;-;-;-;-;-;-;-;-;-;-;-;-;-;-;-
1511262487340;-;-;5.5430603;0.25756836;7.611847;-;-;-;-;-;-;-;-;-;-;-;-;-;-;-
1511262487361;-;-;5.505951;0.24081421;7.6693115;-;-;-;-;-;-;-;-;-;-;-;-;-;-;-
1511262487380;-;-;5.4353333;0.2707367;7.735153;-;-;-;-;-;-;-;-;-;-;-;-;-;-;-
1511262487400;-;-;5.4449005;0.2420044;7.730362;-;-;-;-;-;-;-;-;-;-;-;-;-;-;-
1511262487421;-;-;5.455673;0.2635498;7.7447357;-;-;-;-;-;-;-;-;-;-;-;-;-;-;-
1511262487441;-;-;5.486801;0.23123169;7.7052307;-;-;-;-;-;-;-;-;-;-;-;-;-;-;-
1511262487461;-;-;5.501175;0.17616272;7.7004395;-;-;-;-;-;-;-;-;-;-;-;-;-;-;-
1511262487481;-;-;5.5861664;0.17497253;7.6525574;-;-;-;-;-;-;-;-;-;-;-;-;-;-;-
1511262487502;-;-;5.644821;0.1725769;7.579529;-;-;-;-;-;-;-;-;-;-;-;-;-;-;-
1511262487522;-;-;5.5825653;0.14863586;7.579529;-;-;-;-;-;-;-;-;-;-;-;-;-;-;-
1511262487542;-;-;5.616089;0.17137146;7.627411;-;-;-;-;-;-;-;-;-;-;-;-;-;-;-
1511262487563;-;-;5.588562;0.17616272;7.651352;-;-;-;-;-;-;-;-;-;-;-;-;-;-;-
1511262487583;-;-;5.56102;0.17497253;7.678894;-;-;-;-;-;-;-;-;-;-;-;-;-;-;-
1511262487603;-;-;5.495178;0.19891357;7.6705017;-;-;-;-;-;-;-;-;-;-;-;-;-;-;-
1511262487623;-;-;5.4724426;0.2013092;7.7088165;-;-;-;-;-;-;-;-;-;-;-;-;-;-;-
1511262487644;-;-;5.4018097;0.1953125;7.7363434;-;-;-;-;-;-;-;-;-;-;-;-;-;-;-
1511262487664;-;-;5.411392;0.20010376;7.7279663;-;-;-;-;-;-;-;-;-;-;-;-;-;-;-
1511262487685;-;-;5.4209595;0.21687317;7.7339478;-;-;-;-;-;-;-;-;-;-;-;-;-;-;-
1511262487705;-;-;5.4245605;0.2420044;7.735153;-;-;-;-;-;-;-;-;-;-;-;-;-;-;-
1511262487725;-;-;5.450897;0.23123169;7.7447357;-;-;-;-;-;-;-;-;-;-;-;-;-;-;-
1511262487745;-;-;5.510742;0.16419983;7.7124023;-;-;-;-;-;-;-;-;-;-;-;-;-;-;-
1511262487766;-;-;5.5071564;0.19651794;7.678894;-;-;-;-;-;-;-;-;-;-;-;-;-;-;-
1511262487785;-;-;5.528702;0.20370483;7.6525574;-;-;-;-;-;-;-;-;-;-;-;-;-;-;-
1511262487805;-;-;5.574188;0.22764587;7.6262207;-;-;-;-;-;-;-;-;-;-;-;-;-;-;-
1511262487825;-;-;5.5466614;0.23123169;7.6286163;-;-;-;-;-;-;-;-;-;-;-;-;-;-;-
1511262487846;-;-;5.5143433;0.1797638;7.644165;-;-;-;-;-;-;-;-;-;-;-;-;-;-;-
1511262487866;-;-;5.486801;0.14743042;7.6417847;-;-;-;-;-;-;-;-;-;-;-;-;-;-;-
1511262487886;-;-;5.4963837;0.18574524;7.674103;-;-;-;-;-;-;-;-;-;-;-;-;-;-;-
1511262487906;-;-;5.54187;0.21208191;7.678894;-;-;-;-;-;-;-;-;-;-;-;-;-;-;-
1511262487927;-;-;5.576584;0.23362732;7.6130524;-;-;-;-;-;-;-;-;-;-;-;-;-;-;-
1511262487946;-;-;5.569397;0.23602295;7.6142426;-;-;-;-;-;-;-;-;-;-;-;-;-;-;-
1511262487967;-;-;5.5622253;0.26834106;7.647766;-;-;-;-;-;-;-;-;-;-;-;-;-;-;-
1511262487986;-;-;5.4999695;0.24081421;7.6465607;-;-;-;-;-;-;-;-;-;-;-;-;-;-;-
1511262488007;-;-;5.5322876;0.23841858;7.711212;-;-;-;-;-;-;-;-;-;-;-;-;-;-;-
1511262488027;-;-;5.501175;0.21566772;7.675293;-;-;-;-;-;-;-;-;-;-;-;-;-;-;-
1511262488047;-;-;5.5167236;0.22045898;7.68367;-;-;-;-;-;-;-;-;-;-;-;-;-;-;-
1511262488068;-;-;5.505951;0.19172668;7.6705017;-;-;-;-;-;-;-;-;-;-;-;-;-;-;-
1511262488089;-;-;5.438919;0.21806335;7.714798;-;-;-;-;-;-;-;-;-;-;-;-;-;-;-
1511262488109;-;-;5.437729;0.16659546;7.7411346;-;-;-;-;-;-;-;-;-;-;-;-;-;-;-
1511262488129;-;-;5.458069;0.16897583;7.627411;-;-;-;-;-;-;-;-;-;-;-;-;-;-;-
1511262488150;-;-;5.5598297;0.2635498;7.623825;-;-;-;-;-;-;-;-;-;-;-;-;-;-;-
1511262488170;-;-;5.5406647;0.33299255;7.6226196;-;-;-;-;-;-;-;-;-;-;-;-;-;-;-
1511262488191;-;-;5.5562286;0.34136963;7.6968384;-;-;-;-;-;-;-;-;-;-;-;-;-;-;-
1511262488211;-;-;5.513138;0.35932922;7.766281;-;-;-;-;-;-;-;-;-;-;-;-;-;-;-
1511262488231;-;-;5.470047;0.31982422;7.6896667;-;-;-;-;-;-;-;-;-;-;-;-;-;-;-
1511262488251;-;-;5.446106;0.29826355;7.6501617;-;-;-;-;-;-;-;-;-;-;-;-;-;-;-
1511262488272;-;-;5.4688416;0.22045898;7.6333923;-;-;-;-;-;-;-;-;-;-;-;-;-;-;-
1511262488292;-;-;5.4772186;0.20489502;7.6417847;-;-;-;-;-;-;-;-;-;-;-;-;-;-;-
1511262488312;-;-;5.4748383;0.19412231;7.6573334;-;-;-;-;-;-;-;-;-;-;-;-;-;-;-
1511262488333;-;-;5.510742;0.14144897;7.658539;-;-;-;-;-;-;-;-;-;-;-;-;-;-;-
1511262488353;-;-;5.450897;0.088775635;7.6968384;-;-;-;-;-;-;-;-;-;-;-;-;-;-;-
1511262488373;-;-;5.438919;0.0049743652;7.7171936;-;-;-;-;-;-;-;-;-;-;-;-;-;-;-
1511262488394;-;-;5.442505;-0.03453064;7.7399445;-;-;-;-;-;-;-;-;-;-;-;-;-;-;-
1511262488414;-;-;5.4652557;-0.10635376;7.695648;-;-;-;-;-;-;-;-;-;-;-;-;-;-;-
1511262488435;-;-;5.46167;-0.1015625;7.738739;-;-;-;-;-;-;-;-;-;-;-;-;-;-;-
1511262488455;-;-;5.438919;-0.090789795;7.7734528;-;-;-;-;-;-;-;-;-;-;-;-;-;-;-
1511262488475;-;-;5.399414;-0.009384155;7.76268;-;-;-;-;-;-;-;-;-;-;-;-;-;-;-
1511262488495;-;-;5.3455505;0.10194397;7.808182;-;-;-;-;-;-;-;-;-;-;-;-;-;-;-
1511262488516;-;-;5.319214;0.19172668;7.7830353;-;-;-;-;-;-;-;-;-;-;-;-;-;-;-
1511262488536;-;-;5.391037;0.338974;7.759094;-;-;-;-;-;-;-;-;-;-;-;-;-;-;-
1511262488556;-;-;5.430542;0.378479;7.6705017;-;-;-;-;-;-;-;-;-;-;-;-;-;-;-
1511262488577;-;-;5.399414;0.42156982;7.6609344;-;-;-;-;-;-;-;-;-;-;-;-;-;-;-
1511262488596;-;-;5.399414;0.35333252;7.666916;-;-;-;-;-;-;-;-;-;-;-;-;-;-;-
1511262488616;-;-;5.352722;0.16659546;7.6896667;-;-;-;-;-;-;-;-;-;-;-;-;-;-;-
1511262488636;-;-;5.4125824;0.0181427;7.833313;-;-;-;-;-;-;-;-;-;-;-;-;-;-;-
1511262488657;-;-;5.442505;0.115112305;7.880005;-;-;-;-;-;-;-;-;-;-;-;-;-;-;-
1511262488677;-;-;5.46167;0.2707367;7.900345;-;-;-;-;-;-;-;-;-;-;-;-;-;-;-
1511262488697;-;-;5.38385;0.37010193;7.8392944;-;-;-;-;-;-;-;-;-;-;-;-;-;-;-
1511262488718;-;-;5.3299866;0.41558838;7.7327576;-;-;-;-;-;-;-;-;-;-;-;-;-;-;-
1511262488738;-;-;5.3263855;0.48980713;7.7950134;-;-;-;-;-;-;-;-;-;-;-;-;-;-;-
1511262488758;-;-;5.280899;0.5352936;7.8153534;-;-;-;-;-;-;-;-;-;-;-;-;-;-;-
1511262488779;-;-;5.320404;0.4407196;7.8596497;-;-;-;-;-;-;-;-;-;-;-;-;-;-;-
1511262488799;-;-;5.3970184;0.35572815;7.8045807;-;-;-;-;-;-;-;-;-;-;-;-;-;-;-
1511262488819;-;-;5.3491364;0.24679565;7.845291;-;-;-;-;-;-;-;-;-;-;-;-;-;-;-
1511262488840;-;-;5.2940674;0.22164917;7.8752136;-;-;-;-;-;-;-;-;-;-;-;-;-;-;-
1511262488860;-;-;5.260544;0.18095398;7.924286;-;-;-;-;-;-;-;-;-;-;-;-;-;-;-
1511262488880;-;-;5.2354126;0.18933105;7.9075317;-;-;-;-;-;-;-;-;-;-;-;-;-;-;-
1511262488901;-;-;5.210266;0.17855835;7.8405;-;-;-;-;-;-;-;-;-;-;-;-;-;-;-
1511262488921;-;-;5.2282257;0.1438446;7.8405;-;-;-;-;-;-;-;-;-;-;-;-;-;-;-
1511262488941;-;-;5.2581635;0.15940857;7.7997894;-;-;-;-;-;-;-;-;-;-;-;-;-;-;-
1511262488962;-;-;5.288086;0.1330719;7.8392944;-;-;-;-;-;-;-;-;-;-;-;-;-;-;-
1511262488982;-;-;5.2845;0.10913086;7.884796;-;-;-;-;-;-;-;-;-;-;-;-;-;-;-
1511262489003;-;-;5.265335;0.1043396;7.900345;-;-;-;-;-;-;-;-;-;-;-;-;-;-;-
1511262489023;-;-;5.288086;0.09475708;7.865631;-;-;-;-;-;-;-;-;-;-;-;-;-;-;-
1511262489044;-;-;5.279709;0.086380005;7.856064;-;-;-;-;-;-;-;-;-;-;-;-;-;-;-
1511262489064;-;-;5.3024445;0.09715271;7.8787994;-;-;-;-;-;-;-;-;-;-;-;-;-;-;-
1511262489084;-;-;5.351532;0.23362732;7.884796;-;-;-;-;-;-;-;-;-;-;-;-;-;-;-
1511262489104;-;-;5.3611145;0.26115417;7.836899;-;-;-;-;-;-;-;-;-;-;-;-;-;-;-
1511262489125;-;-;5.343155;0.27671814;7.8428955;-;-;-;-;-;-;-;-;-;-;-;-;-;-;-
1511262489145;-;-;5.316818;0.29826355;7.7878265;-;-;-;-;-;-;-;-;-;-;-;-;-;-;-
1511262489165;-;-;5.315613;0.31622314;7.800995;-;-;-;-;-;-;-;-;-;-;-;-;-;-;-
1511262489186;-;-;5.3407593;0.30426025;7.8153534;-;-;-;-;-;-;-;-;-;-;-;-;-;-;-
1511262489206;-;-;5.3647003;0.338974;7.7650757;-;-;-;-;-;-;-;-;-;-;-;-;-;-;-
1511262489226;-;-;5.399414;0.31503296;7.771057;-;-;-;-;-;-;-;-;-;-;-;-;-;-;-
1511262489247;-;-;5.387436;0.29467773;7.7566986;-;-;-;-;-;-;-;-;-;-;-;-;-;-;-
1511262489267;-;-;5.3503265;0.27792358;7.7950134;-;-;-;-;-;-;-;-;-;-;-;-;-;-;-
1511262489287;-;-;5.3611145;0.26834106;7.7890167;-;-;-;-;-;-;-;-;-;-;-;-;-;-;-
1511262489307;-;-;5.3467407;0.259964;7.808182;-;-;-;-;-;-;-;-;-;-;-;-;-;-;-
1511262489328;-;-;5.312027;0.22045898;7.812958;-;-;-;-;-;-;-;-;-;-;-;-;-;-;-
1511262489348;-;-;5.3419495;0.22764587;7.814163;-;-;-;-;-;-;-;-;-;-;-;-;-;-;-
1511262489368;-;-;5.3563232;0.22164917;7.832123;-;-;-;-;-;-;-;-;-;-;-;-;-;-;-
1511262489389;-;-;5.375473;0.19770813;7.817749;-;-;-;-;-;-;-;-;-;-;-;-;-;-;-
1511262489409;-;-;5.4137726;0.20370483;7.711212;-;-;-;-;-;-;-;-;-;-;-;-;-;-;-
1511262489429;-;-;5.3623047;0.23841858;7.7830353;-;-;-;-;-;-;-;-;-;-;-;-;-;-;-
1511262489449;-;-;5.3060455;0.19651794;7.7997894;-;-;-;-;-;-;-;-;-;-;-;-;-;-;-
1511262489470;-;-;5.355118;0.2013092;7.8273315;-;-;-;-;-;-;-;-;-;-;-;-;-;-;-
1511262489490;-;-;5.3383636;0.19770813;7.7411346;-;-;-;-;-;-;-;-;-;-;-;-;-;-;-
1511262489510;-;-;5.3012543;0.21447754;7.8225403;-;-;-;-;-;-;-;-;-;-;-;-;-;-;-
1511262489531;-;-;5.3407593;0.2695465;7.905136;-;-;-;-;-;-;-;-;-;-;-;-;-;-;-
1511262489551;-;-;5.313217;0.30186462;7.9015503;-;-;-;-;-;-;-;-;-;-;-;-;-;-;-
1511262489571;-;-;5.3024445;0.27313232;7.805786;-;-;-;-;-;-;-;-;-;-;-;-;-;-;-
1511262489592;-;-;5.3144226;0.2922821;7.7962036;-;-;-;-;-;-;-;-;-;-;-;-;-;-;-
1511262489612;-;-;5.3419495;0.27671814;7.754303;-;-;-;-;-;-;-;-;-;-;-;-;-;-;-
1511262489632;-;-;5.3383636;0.28988647;7.76268;-;-;-;-;-;-;-;-;-;-;-;-;-;-;-
1511262489653;-;-;5.358719;0.29588318;7.7483215;-;-;-;-;-;-;-;-;-;-;-;-;-;-;-
1511262489673;-;-;5.442505;0.31861877;7.759094;-;-;-;-;-;-;-;-;-;-;-;-;-;-;-
1511262489693;-;-;5.5047607;0.24798584;7.7243805;-;-;-;-;-;-;-;-;-;-;-;-;-;-;-
1511262489714;-;-;5.564621;0.21208191;7.702835;-;-;-;-;-;-;-;-;-;-;-;-;-;-;-
1511262489734;-;-;5.5239105;0.16897583;7.698044;-;-;-;-;-;-;-;-;-;-;-;-;-;-;-
1511262489754;-;-;5.4808197;0.20968628;7.735153;-;-;-;-;-;-;-;-;-;-;-;-;-;-;-
1511262489774;-;-;5.3958282;0.20848083;7.721985;-;-;-;-;-;-;-;-;-;-;-;-;-;-;-
1511262489794;-;-;5.370682;0.23242188;7.6884613;-;-;-;-;-;-;-;-;-;-;-;-;-;-;-
1511262489815;-;-;5.38385;0.29109192;7.7243805;-;-;-;-;-;-;-;-;-;-;-;-;-;-;-
1511262489835;-;-;5.430542;0.26715088;7.7291718;-;-;-;-;-;-;-;-;-;-;-;-;-;-;-
1511262489855;-;-;5.4532776;0.26235962;7.7088165;-;-;-;-;-;-;-;-;-;-;-;-;-;-;-
1511262489875;-;-;5.454483;0.22285461;7.658539;-;-;-;-;-;-;-;-;-;-;-;-;-;-;-
1511262489896;-;-;5.4772186;0.2348175;7.7339478;-;-;-;-;-;-;-;-;-;-;-;-;-;-;-
1511262489916;-;-;5.4963837;0.23841858;7.7040253;-;-;-;-;-;-;-;-;-;-;-;-;-;-;-
1511262489936;-;-;5.4568787;0.21208191;7.7088165;-;-;-;-;-;-;-;-;-;-;-;-;-;-;-
1511262489956;-;-;5.5203247;0.18095398;7.6848755;-;-;-;-;-;-;-;-;-;-;-;-;-;-;-
1511262489977;-;-;5.5406647;0.15701294;7.6860657;-;-;-;-;-;-;-;-;-;-;-;-;-;-;-
1511262489998;-;-;5.529892;0.19770813;7.6693115;-;-;-;-;-;-;-;-;-;-;-;-;-;-;-
1511262490020;-;-;5.478424;0.23602295;7.678894;-;-;-;-;-;-;-;-;-;-;-;-;-;-;-
1511262490040;-;-;5.449692;0.2527771;7.6920624;-;-;-;-;-;-;-;-;-;-;-;-;-;-;-
1511262490060;-;-;5.46167;0.26834106;7.735153;-;-;-;-;-;-;-;-;-;-;-;-;-;-;-
1511262490080;-;-;5.454483;0.2527771;7.6944427;-;-;-;-;-;-;-;-;-;-;-;-;-;-;-
1511262490101;-;-;5.495178;0.2348175;7.723175;-;-;-;-;-;-;-;-;-;-;-;-;-;-;-
1511262490121;-;-;5.5322876;0.22045898;7.695648;-;-;-;-;-;-;-;-;-;-;-;-;-;-;-
