TimeStamp[ms];Prox[Cm];Lux[lux];AccX[m/s^2];AccY[m/s^2];AccZ[m/s^2];GyroX[rad/s];GyroY[rad/s];GyroZ[rad/s];MagnX[uT];MagnY[uT];MagnZ[uT];OrienYaw[degrees];OrienPitch[degrees];OrienRoll[degrees];Press[Pa];Temp[C°];Batt[%];Lat;Lng;Speed[m/s]
1511262811609;-;-;8.838684;-0.93473816;0.16947937;-;-;-;-;-;-;-;-;-;-;-;-;-;-;-
1511262811619;-;-;8.362244;-0.76356506;0.36579895;-;-;-;-;-;-;-;-;-;-;-;-;-;-;-
1511262811639;-;-;8.503494;-0.83657837;0.47712708;-;-;-;-;-;-;-;-;-;-;-;-;-;-;-
1511262811660;-;-;8.6818695;-0.8174286;0.36579895;-;-;-;-;-;-;-;-;-;-;-;-;-;-;-
1511262811680;-;-;9.289993;-0.739624;0.2233429;-;-;-;-;-;-;-;-;-;-;-;-;-;-;-
1511262811701;-;-;9.762848;-0.8976288;0.14433289;-;-;-;-;-;-;-;-;-;-;-;-;-;-;-
1511262811721;-;-;9.407303;-0.8353882;0.22573853;-;-;-;-;-;-;-;-;-;-;-;-;-;-;-
1511262811741;-;-;9.226547;-0.8856659;0.17306519;-;-;-;-;-;-;-;-;-;-;-;-;-;-;-
1511262811762;-;-;9.224152;-0.9539032;0.32270813;-;-;-;-;-;-;-;-;-;-;-;-;-;-;-
1511262811782;-;-;9.044586;-1.0712128;0.3143158;-;-;-;-;-;-;-;-;-;-;-;-;-;-;-
1511262811802;-;-;9.163101;-0.9586792;0.39093018;-;-;-;-;-;-;-;-;-;-;-;-;-;-;-
1511262811822;-;-;9.272034;-0.9143982;0.20298767;-;-;-;-;-;-;-;-;-;-;-;-;-;-;-
1511262811843;-;-;9.197815;-1.0807953;0.3490448;-;-;-;-;-;-;-;-;-;-;-;-;-;-;-
1511262811863;-;-;9.13916;-0.9754486;0.3789673;-;-;-;-;-;-;-;-;-;-;-;-;-;-;-
1511262811882;-;-;9.21817;-0.8641205;0.3322754;-;-;-;-;-;-;-;-;-;-;-;-;-;-;-
1511262811902;-;-;9.312744;-0.8772888;0.2843933;-;-;-;-;-;-;-;-;-;-;-;-;-;-;-
1511262811923;-;-;9.427658;-0.97784424;0.29397583;-;-;-;-;-;-;-;-;-;-;-;-;-;-;-
1511262811943;-;-;9.564133;-1.0400848;0.137146;-;-;-;-;-;-;-;-;-;-;-;-;-;-;-
1511262811963;-;-;9.596451;-1.0640259;0.01625061;-;-;-;-;-;-;-;-;-;-;-;-;-;-;-
1511262811984;-;-;9.401321;-0.9443207;0.1539154;-;-;-;-;-;-;-;-;-;-;-;-;-;-;-
1511262812004;-;-;9.282806;-0.8665161;0.007858276;-;-;-;-;-;-;-;-;-;-;-;-;-;-;-
1511262812024;-;-;8.811157;-1.1741638;0.85661316;-;-;-;-;-;-;-;-;-;-;-;-;-;-;-
1511262812044;-;-;9.032608;-1.1286774;0.5286102;-;-;-;-;-;-;-;-;-;-;-;-;-;-;-
1511262812064;-;-;9.194229;-1.131073;0.5561371;-;-;-;-;-;-;-;-;-;-;-;-;-;-;-
1511262812084;-;-;9.205002;-1.0065765;0.54177856;-;-;-;-;-;-;-;-;-;-;-;-;-;-;-
1511262812105;-;-;9.239716;-0.9586792;0.43043518;-;-;-;-;-;-;-;-;-;-;-;-;-;-;-
1511262812125;-;-;9.165497;-1.0197449;0.5405731;-;-;-;-;-;-;-;-;-;-;-;-;-;-;-
1511262812145;-;-;9.166687;-1.0771942;0.5573273;-;-;-;-;-;-;-;-;-;-;-;-;-;-;-
1511262812166;-;-;9.153519;-1.0999451;0.58966064;-;-;-;-;-;-;-;-;-;-;-;-;-;-;-
1511262812186;-;-;9.199005;-1.0987396;0.60401917;-;-;-;-;-;-;-;-;-;-;-;-;-;-;-
1511262812206;-;-;9.233734;-1.0783997;0.5884552;-;-;-;-;-;-;-;-;-;-;-;-;-;-;-
1511262812227;-;-;9.294785;-1.0185394;0.50346375;-;-;-;-;-;-;-;-;-;-;-;-;-;-;-
1511262812247;-;-;9.2756195;-0.9790344;0.5178375;-;-;-;-;-;-;-;-;-;-;-;-;-;-;-
1511262812267;-;-;9.165497;-1.0017853;0.55255127;-;-;-;-;-;-;-;-;-;-;-;-;-;-;-
1511262812287;-;-;9.154724;-1.0161438;0.54177856;-;-;-;-;-;-;-;-;-;-;-;-;-;-;-
1511262812308;-;-;9.173874;-1.0400848;0.5704956;-;-;-;-;-;-;-;-;-;-;-;-;-;-;-
1511262812328;-;-;9.213379;-1.0484619;0.5884552;-;-;-;-;-;-;-;-;-;-;-;-;-;-;-
1511262812348;-;-;9.208588;-1.0508575;0.57888794;-;-;-;-;-;-;-;-;-;-;-;-;-;-;-
1511262812369;-;-;9.220566;-1.0616302;0.5848694;-;-;-;-;-;-;-;-;-;-;-;-;-;-;-
1511262812389;-;-;9.266052;-1.0352936;0.57170105;-;-;-;-;-;-;-;-;-;-;-;-;-;-;-
1511262812410;-;-;9.262466;-0.97065735;0.5585327;-;-;-;-;-;-;-;-;-;-;-;-;-;-;-
1511262812431;-;-;9.285202;-0.9610748;0.55015564;-;-;-;-;-;-;-;-;-;-;-;-;-;-;-
1511262812451;-;-;9.246902;-0.97065735;0.5202179;-;-;-;-;-;-;-;-;-;-;-;-;-;-;-
1511262812471;-;-;9.234924;-1.0005798;0.5178375;-;-;-;-;-;-;-;-;-;-;-;-;-;-;-
1511262812492;-;-;9.230133;-0.96946716;0.46276855;-;-;-;-;-;-;-;-;-;-;-;-;-;-;-
1511262812512;-;-;9.287598;-0.996994;0.46875;-;-;-;-;-;-;-;-;-;-;-;-;-;-;-
1511262812532;-;-;9.282806;-1.028122;0.45677185;-;-;-;-;-;-;-;-;-;-;-;-;-;-;-
1511262812552;-;-;9.249298;-0.98501587;0.46037292;-;-;-;-;-;-;-;-;-;-;-;-;-;-;-
1511262812573;-;-;9.212173;-0.97424316;0.38615417;-;-;-;-;-;-;-;-;-;-;-;-;-;-;-
1511262812593;-;-;9.17627;-0.9539032;0.38015747;-;-;-;-;-;-;-;-;-;-;-;-;-;-;-
1511262812613;-;-;9.195419;-0.9766388;0.40290833;-;-;-;-;-;-;-;-;-;-;-;-;-;-;-
1511262812634;-;-;9.207397;-0.9934082;0.46875;-;-;-;-;-;-;-;-;-;-;-;-;-;-;-
1511262812654;-;-;9.137955;-0.98861694;0.45439148;-;-;-;-;-;-;-;-;-;-;-;-;-;-;-
1511262812675;-;-;9.173874;-1.0137482;0.44122314;-;-;-;-;-;-;-;-;-;-;-;-;-;-;-
1511262812695;-;-;9.206192;-0.9981842;0.45318604;-;-;-;-;-;-;-;-;-;-;-;-;-;-;-
1511262812714;-;-;9.188232;-0.99220276;0.5190277;-;-;-;-;-;-;-;-;-;-;-;-;-;-;-
1511262812734;-;-;9.1523285;-1.0460815;0.5226135;-;-;-;-;-;-;-;-;-;-;-;-;-;-;-
1511262812754;-;-;9.182251;-1.0640259;0.49388123;-;-;-;-;-;-;-;-;-;-;-;-;-;-;-
1511262812775;-;-;9.230133;-1.0329132;0.5226135;-;-;-;-;-;-;-;-;-;-;-;-;-;-;-
1511262812795;-;-;9.23732;-1.0185394;0.5704956;-;-;-;-;-;-;-;-;-;-;-;-;-;-;-
1511262812815;-;-;9.205002;-1.0544586;0.5369873;-;-;-;-;-;-;-;-;-;-;-;-;-;-;-
1511262812835;-;-;9.199005;-1.0807953;0.587265;-;-;-;-;-;-;-;-;-;-;-;-;-;-;-
1511262812855;-;-;9.1918335;-1.0747986;0.56811523;-;-;-;-;-;-;-;-;-;-;-;-;-;-;-
1511262812876;-;-;9.250488;-1.0628357;0.5202179;-;-;-;-;-;-;-;-;-;-;-;-;-;-;-
1511262812896;-;-;9.239716;-1.067627;0.49508667;-;-;-;-;-;-;-;-;-;-;-;-;-;-;-
1511262812916;-;-;9.282806;-1.067627;0.40649414;-;-;-;-;-;-;-;-;-;-;-;-;-;-;-
1511262812937;-;-;9.284012;-1.0436859;0.49627686;-;-;-;-;-;-;-;-;-;-;-;-;-;-;-
1511262812956;-;-;9.248093;-1.0664215;0.49987793;-;-;-;-;-;-;-;-;-;-;-;-;-;-;-
1511262812976;-;-;9.227737;-1.0496674;0.50346375;-;-;-;-;-;-;-;-;-;-;-;-;-;-;-
1511262812997;-;-;9.181061;-1.012558;0.45318604;-;-;-;-;-;-;-;-;-;-;-;-;-;-;-
1511262813017;-;-;9.17746;-1.0233307;0.4472046;-;-;-;-;-;-;-;-;-;-;-;-;-;-;-
1511262813036;-;-;9.201401;-1.0245209;0.4184723;-;-;-;-;-;-;-;-;-;-;-;-;-;-;-
1511262813056;-;-;9.214569;-1.0233307;0.4507904;-;-;-;-;-;-;-;-;-;-;-;-;-;-;-
1511262813077;-;-;9.263657;-1.0233307;0.38136292;-;-;-;-;-;-;-;-;-;-;-;-;-;-;-
1511262813097;-;-;9.267242;-1.0556488;0.43762207;-;-;-;-;-;-;-;-;-;-;-;-;-;-;-
1511262813118;-;-;9.227737;-1.0412903;0.42086792;-;-;-;-;-;-;-;-;-;-;-;-;-;-;-
1511262813138;-;-;9.214569;-1.0245209;0.38375854;-;-;-;-;-;-;-;-;-;-;-;-;-;-;-
1511262813158;-;-;9.201401;-1.0017853;0.38974;-;-;-;-;-;-;-;-;-;-;-;-;-;-;-
1511262813178;-;-;9.232529;-1.052063;0.43762207;-;-;-;-;-;-;-;-;-;-;-;-;-;-;-
1511262813198;-;-;9.232529;-1.0329132;0.38375854;-;-;-;-;-;-;-;-;-;-;-;-;-;-;-
1511262813218;-;-;9.202606;-0.9550934;0.37538147;-;-;-;-;-;-;-;-;-;-;-;-;-;-;-
1511262813239;-;-;9.161896;-0.8856659;0.33706665;-;-;-;-;-;-;-;-;-;-;-;-;-;-;-
1511262813258;-;-;9.178665;-0.8377838;0.26524353;-;-;-;-;-;-;-;-;-;-;-;-;-;-;-
1511262813278;-;-;9.272034;-0.7767334;0.25326538;-;-;-;-;-;-;-;-;-;-;-;-;-;-;-
1511262813298;-;-;9.511459;-0.90122986;0.23532104;-;-;-;-;-;-;-;-;-;-;-;-;-;-;-
1511262813319;-;-;9.170288;-0.56604004;-0.107055664;-;-;-;-;-;-;-;-;-;-;-;-;-;-;-
1511262813339;-;-;9.329498;-0.36611938;6.866455E-4;-;-;-;-;-;-;-;-;-;-;-;-;-;-;-
1511262813359;-;-;9.410904;-0.37449646;0.010253906;-;-;-;-;-;-;-;-;-;-;-;-;-;-;-
1511262813380;-;-;9.154724;-0.46188354;0.024627686;-;-;-;-;-;-;-;-;-;-;-;-;-;-;-
1511262813400;-;-;9.802353;-0.54689026;0.3885498;-;-;-;-;-;-;-;-;-;-;-;-;-;-;-
1511262813420;-;-;9.380966;-0.68574524;-0.35125732;-;-;-;-;-;-;-;-;-;-;-;-;-;-;-
1511262813441;-;-;9.291183;-0.65940857;6.866455E-4;-;-;-;-;-;-;-;-;-;-;-;-;-;-;-
1511262813461;-;-;9.330688;-0.704895;0.10722351;-;-;-;-;-;-;-;-;-;-;-;-;-;-;-
1511262813481;-;-;9.039795;-0.7779236;0.055755615;-;-;-;-;-;-;-;-;-;-;-;-;-;-;-
1511262813501;-;-;9.330688;-1.0029755;0.117996216;-;-;-;-;-;-;-;-;-;-;-;-;-;-;-
1511262813521;-;-;9.499481;-1.0843811;0.10722351;-;-;-;-;-;-;-;-;-;-;-;-;-;-;-
1511262813542;-;-;8.88298;1.8628845;0.12997437;-;-;-;-;-;-;-;-;-;-;-;-;-;-;-
1511262813563;-;-;9.333084;-1.8170013;0.14433289;-;-;-;-;-;-;-;-;-;-;-;-;-;-;-
1511262813584;-;-;8.600464;-2.2958527;-0.22077942;-;-;-;-;-;-;-;-;-;-;-;-;-;-;-
1511262813605;-;-;9.015854;-1.3860474;0.5860596;-;-;-;-;-;-;-;-;-;-;-;-;-;-;-
1511262813625;-;-;7.5278625;-0.8712921;1.3007355;-;-;-;-;-;-;-;-;-;-;-;-;-;-;-
1511262813645;-;-;8.836288;-0.4271698;2.9216156;-;-;-;-;-;-;-;-;-;-;-;-;-;-;-
1511262813665;-;-;9.6862335;-0.02973938;-0.70440674;-;-;-;-;-;-;-;-;-;-;-;-;-;-;-
1511262813685;-;-;8.8207245;-0.4259796;0.23292542;-;-;-;-;-;-;-;-;-;-;-;-;-;-;-
1511262813705;-;-;9.355835;-0.8126373;0.034194946;-;-;-;-;-;-;-;-;-;-;-;-;-;-;-
1511262813725;-;-;9.3103485;-0.9263611;0.49269104;-;-;-;-;-;-;-;-;-;-;-;-;-;-;-
1511262813746;-;-;9.481522;-1.1262817;0.57888794;-;-;-;-;-;-;-;-;-;-;-;-;-;-;-
1511262813767;-;-;8.740524;-0.9622803;0.31072998;-;-;-;-;-;-;-;-;-;-;-;-;-;-;-
1511262813788;-;-;8.022263;-0.70729065;0.37538147;-;-;-;-;-;-;-;-;-;-;-;-;-;-;-
1511262813808;-;-;8.806366;-0.5708313;0.6171875;-;-;-;-;-;-;-;-;-;-;-;-;-;-;-
1511262813828;-;-;8.953613;-0.3984375;0.38136292;-;-;-;-;-;-;-;-;-;-;-;-;-;-;-
1511262813848;-;-;9.473145;-0.41160583;0.3825531;-;-;-;-;-;-;-;-;-;-;-;-;-;-;-
1511262813868;-;-;9.558136;-0.45829773;-0.04360962;-;-;-;-;-;-;-;-;-;-;-;-;-;-;-
1511262813888;-;-;9.589264;-0.6761627;-0.11424255;-;-;-;-;-;-;-;-;-;-;-;-;-;-;-
1511262813908;-;-;9.346252;-0.48582458;-0.37879944;-;-;-;-;-;-;-;-;-;-;-;-;-;-;-
1511262813928;-;-;8.874603;-0.13627625;-0.7103882;-;-;-;-;-;-;-;-;-;-;-;-;-;-;-
1511262813948;-;-;9.566528;-0.28352356;0.2640381;-;-;-;-;-;-;-;-;-;-;-;-;-;-;-
1511262813969;-;-;9.032608;0.021743774;-1.4059143;-;-;-;-;-;-;-;-;-;-;-;-;-;-;-
1511262813990;-;-;8.18985;0.36531067;-1.3472595;-;-;-;-;-;-;-;-;-;-;-;-;-;-;-
1511262814010;-;-;8.1324005;0.6454315;-1.1593018;-;-;-;-;-;-;-;-;-;-;-;-;-;-;-
1511262814030;-;-;8.26767;0.47424316;-1.0431824;-;-;-;-;-;-;-;-;-;-;-;-;-;-;-
1511262814050;-;-;8.056976;0.9111786;-1.7913818;-;-;-;-;-;-;-;-;-;-;-;-;-;-;-
1511262814070;-;-;8.059372;0.9925842;-2.539566;-;-;-;-;-;-;-;-;-;-;-;-;-;-;-
1511262814090;-;-;8.435257;0.9638519;-2.986084;-;-;-;-;-;-;-;-;-;-;-;-;-;-;-
1511262814110;-;-;5.455673;1.4271393;-2.4785156;-;-;-;-;-;-;-;-;-;-;-;-;-;-;-
1511262814130;-;-;11.497452;-0.56243896;-1.8727875;-;-;-;-;-;-;-;-;-;-;-;-;-;-;-
1511262814150;-;-;9.536591;0.081588745;-2.2726135;-;-;-;-;-;-;-;-;-;-;-;-;-;-;-
1511262814171;-;-;8.927277;0.4072113;-3.5164032;-;-;-;-;-;-;-;-;-;-;-;-;-;-;-
1511262814191;-;-;9.008667;-0.1877594;-3.5259705;-;-;-;-;-;-;-;-;-;-;-;-;-;-;-
1511262814211;-;-;6.961624;-0.63905334;-3.3188782;-;-;-;-;-;-;-;-;-;-;-;-;-;-;-
1511262814232;-;-;6.9508514;-1.0724182;-2.0463562;-;-;-;-;-;-;-;-;-;-;-;-;-;-;-
1511262814252;-;-;7.4716034;-0.45350647;-1.8177185;-;-;-;-;-;-;-;-;-;-;-;-;-;-;-
1511262814272;-;-;7.973175;-0.21170044;-1.1521301;-;-;-;-;-;-;-;-;-;-;-;-;-;-;-
1511262814293;-;-;7.414139;0.29588318;-1.1844482;-;-;-;-;-;-;-;-;-;-;-;-;-;-;-
1511262814313;-;-;8.46759;1.4355164;-3.0591125;-;-;-;-;-;-;-;-;-;-;-;-;-;-;-
1511262814334;-;-;7.8438873;2.0711823;-2.4258423;-;-;-;-;-;-;-;-;-;-;-;-;-;-;-
1511262814353;-;-;7.614044;0.8405609;-1.1186066;-;-;-;-;-;-;-;-;-;-;-;-;-;-;-
1511262814373;-;-;8.315552;-1.0975494;-0.9162903;-;-;-;-;-;-;-;-;-;-;-;-;-;-;-
1511262814393;-;-;9.930435;-0.014175415;-3.2901459;-;-;-;-;-;-;-;-;-;-;-;-;-;-;-
1511262814414;-;-;8.485535;-0.4259796;-2.9597473;-;-;-;-;-;-;-;-;-;-;-;-;-;-;-
1511262814434;-;-;7.1926727;0.52093506;-2.0786743;-;-;-;-;-;-;-;-;-;-;-;-;-;-;-
1511262814454;-;-;7.142395;0.6274719;-2.2342987;-;-;-;-;-;-;-;-;-;-;-;-;-;-;-
1511262814475;-;-;7.851074;0.31263733;-2.132553;-;-;-;-;-;-;-;-;-;-;-;-;-;-;-
1511262814495;-;-;7.485962;0.9399109;-1.8177185;-;-;-;-;-;-;-;-;-;-;-;-;-;-;-
1511262814515;-;-;8.199432;0.44551086;-2.0523376;-;-;-;-;-;-;-;-;-;-;-;-;-;-;-
1511262814536;-;-;9.100845;0.39762878;-3.1428986;-;-;-;-;-;-;-;-;-;-;-;-;-;-;-
1511262814556;-;-;9.33548;0.10913086;-3.381134;-;-;-;-;-;-;-;-;-;-;-;-;-;-;-
1511262814576;-;-;9.0972595;-0.0105896;-2.9022827;-;-;-;-;-;-;-;-;-;-;-;-;-;-;-
1511262814598;-;-;9.262466;0.7076721;-2.175644;-;-;-;-;-;-;-;-;-;-;-;-;-;-;-
1511262814618;-;-;8.885376;1.3840332;-1.9278412;-;-;-;-;-;-;-;-;-;-;-;-;-;-;-
1511262814637;-;-;8.235352;1.1889191;-2.2750092;-;-;-;-;-;-;-;-;-;-;-;-;-;-;-
1511262814657;-;-;8.161133;1.3134155;-2.610199;-;-;-;-;-;-;-;-;-;-;-;-;-;-;-
1511262814678;-;-;8.770447;1.6785278;-2.7119446;-;-;-;-;-;-;-;-;-;-;-;-;-;-;-
1511262814698;-;-;9.257675;2.474594;-2.6604767;-;-;-;-;-;-;-;-;-;-;-;-;-;-;-
1511262814718;-;-;9.79158;2.7008514;-2.6532898;-;-;-;-;-;-;-;-;-;-;-;-;-;-;-
1511262814739;-;-;10.10881;2.208847;-2.2163544;-;-;-;-;-;-;-;-;-;-;-;-;-;-;-
1511262814759;-;-;10.611588;1.4846039;-1.8272858;-;-;-;-;-;-;-;-;-;-;-;-;-;-;-
1511262814779;-;-;11.593216;0.80703735;-1.7638397;-;-;-;-;-;-;-;-;-;-;-;-;-;-;-
1511262814800;-;-;12.100784;0.1558075;-2.0870667;-;-;-;-;-;-;-;-;-;-;-;-;-;-;-
1511262814820;-;-;12.735245;-0.20451355;-2.429428;-;-;-;-;-;-;-;-;-;-;-;-;-;-;-
1511262814840;-;-;13.263168;-0.06086731;-1.8619995;-;-;-;-;-;-;-;-;-;-;-;-;-;-;-
1511262814860;-;-;12.511383;-0.24760437;-1.1904297;-;-;-;-;-;-;-;-;-;-;-;-;-;-;-
1511262814880;-;-;10.392517;-0.9395294;0.19581604;-;-;-;-;-;-;-;-;-;-;-;-;-;-;-
1511262814901;-;-;9.213379;-0.9084015;0.860199;-;-;-;-;-;-;-;-;-;-;-;-;-;-;-
1511262814921;-;-;8.906921;-1.0664215;0.80033875;-;-;-;-;-;-;-;-;-;-;-;-;-;-;-
1511262814941;-;-;8.972763;-1.131073;0.70578;-;-;-;-;-;-;-;-;-;-;-;-;-;-;-
1511262814962;-;-;9.288788;-0.80067444;0.73091125;-;-;-;-;-;-;-;-;-;-;-;-;-;-;-
1511262814982;-;-;9.221756;-0.4666748;0.7345123;-;-;-;-;-;-;-;-;-;-;-;-;-;-;-
1511262815002;-;-;9.216965;-0.1590271;0.71894836;-;-;-;-;-;-;-;-;-;-;-;-;-;-;-
1511262815023;-;-;9.366608;-0.34457397;0.96195984;-;-;-;-;-;-;-;-;-;-;-;-;-;-;-
1511262815043;-;-;9.407303;-0.53730774;1.310318;-;-;-;-;-;-;-;-;-;-;-;-;-;-;-
1511262815063;-;-;9.487518;-0.8712921;1.9220276;-;-;-;-;-;-;-;-;-;-;-;-;-;-;-
1511262815084;-;-;9.339081;-1.0305176;1.9914551;-;-;-;-;-;-;-;-;-;-;-;-;-;-;-
1511262815104;-;-;9.445618;-1.1765594;2.1865845;-;-;-;-;-;-;-;-;-;-;-;-;-;-;-
1511262815124;-;-;9.13916;-1.230423;1.8274536;-;-;-;-;-;-;-;-;-;-;-;-;-;-;-
1511262815145;-;-;8.866211;-1.0975494;2.0632935;-;-;-;-;-;-;-;-;-;-;-;-;-;-;-
1511262815165;-;-;8.833893;-0.7910919;2.3577728;-;-;-;-;-;-;-;-;-;-;-;-;-;-;-
1511262815185;-;-;8.92009;-0.61990356;2.7468262;-;-;-;-;-;-;-;-;-;-;-;-;-;-;-
1511262815206;-;-;9.118805;-0.4559021;2.8833008;-;-;-;-;-;-;-;-;-;-;-;-;-;-;-
1511262815226;-;-;9.300766;-0.26437378;3.1837769;-;-;-;-;-;-;-;-;-;-;-;-;-;-;-
1511262815246;-;-;9.244507;-0.29908752;3.1143494;-;-;-;-;-;-;-;-;-;-;-;-;-;-;-
1511262815267;-;-;8.922485;-0.2679596;3.2687683;-;-;-;-;-;-;-;-;-;-;-;-;-;-;-
1511262815287;-;-;8.673492;0.03012085;3.3334045;-;-;-;-;-;-;-;-;-;-;-;-;-;-;-
1511262815308;-;-;8.572922;0.3030548;3.5034027;-;-;-;-;-;-;-;-;-;-;-;-;-;-;-
1511262815328;-;-;8.3897705;0.556839;3.3633423;-;-;-;-;-;-;-;-;-;-;-;-;-;-;-
1511262815348;-;-;8.528641;0.5987396;3.3513641;-;-;-;-;-;-;-;-;-;-;-;-;-;-;-
1511262815368;-;-;8.689041;0.43952942;3.184967;-;-;-;-;-;-;-;-;-;-;-;-;-;-;-
1511262815389;-;-;8.819534;0.15342712;3.0999756;-;-;-;-;-;-;-;-;-;-;-;-;-;-;-
1511262815409;-;-;8.753693;-0.20930481;2.987442;-;-;-;-;-;-;-;-;-;-;-;-;-;-;-
1511262815429;-;-;8.702209;-0.4774475;2.955124;-;-;-;-;-;-;-;-;-;-;-;-;-;-;-
1511262815450;-;-;8.693832;-0.7384186;2.7288818;-;-;-;-;-;-;-;-;-;-;-;-;-;-;-
1511262815470;-;-;8.856644;-0.80426025;2.697754;-;-;-;-;-;-;-;-;-;-;-;-;-;-;-
1511262815490;-;-;9.006287;-0.71806335;2.556488;-;-;-;-;-;-;-;-;-;-;-;-;-;-;-
1511262815510;-;-;9.128387;-0.49421692;2.5624847;-;-;-;-;-;-;-;-;-;-;-;-;-;-;-
1511262815531;-;-;9.080505;-0.038116455;2.417633;-;-;-;-;-;-;-;-;-;-;-;-;-;-;-
1511262815551;-;-;8.914108;0.057647705;2.481079;-;-;-;-;-;-;-;-;-;-;-;-;-;-;-
1511262815571;-;-;8.8602295;0.16539001;2.5505066;-;-;-;-;-;-;-;-;-;-;-;-;-;-;-
1511262815592;-;-;8.838684;-0.093185425;2.6726074;-;-;-;-;-;-;-;-;-;-;-;-;-;-;-
1511262815612;-;-;8.7764435;-0.24162292;2.6414948;-;-;-;-;-;-;-;-;-;-;-;-;-;-;-
1511262815633;-;-;8.748901;-0.49661255;2.6642303;-;-;-;-;-;-;-;-;-;-;-;-;-;-;-
1511262815653;-;-;8.922485;-0.3182373;2.4427643;-;-;-;-;-;-;-;-;-;-;-;-;-;-;-
1511262815673;-;-;9.019455;-0.18415833;2.132721;-;-;-;-;-;-;-;-;-;-;-;-;-;-;-
1511262815693;-;-;8.906921;-0.15065002;1.7843628;-;-;-;-;-;-;-;-;-;-;-;-;-;-;-
1511262815714;-;-;8.771652;-0.17936707;1.4850922;-;-;-;-;-;-;-;-;-;-;-;-;-;-;-
1511262815734;-;-;8.64476;-0.39006042;1.2492523;-;-;-;-;-;-;-;-;-;-;-;-;-;-;-
1511262815754;-;-;8.863831;-0.064453125;1.4623413;-;-;-;-;-;-;-;-;-;-;-;-;-;-;-
1511262815775;-;-;9.201401;0.36410522;1.5233917;-;-;-;-;-;-;-;-;-;-;-;-;-;-;-
1511262815795;-;-;9.216965;0.1330719;1.7281036;-;-;-;-;-;-;-;-;-;-;-;-;-;-;-
1511262815815;-;-;9.280411;0.18214417;1.7664032;-;-;-;-;-;-;-;-;-;-;-;-;-;-;-
1511262815835;-;-;9.343857;0.7507782;1.3617859;-;-;-;-;-;-;-;-;-;-;-;-;-;-;-
1511262815856;-;-;9.149933;1.288269;1.2863617;-;-;-;-;-;-;-;-;-;-;-;-;-;-;-
1511262815875;-;-;9.108032;1.492981;1.2420807;-;-;-;-;-;-;-;-;-;-;-;-;-;-;-
1511262815895;-;-;9.208588;1.1518097;1.2253113;-;-;-;-;-;-;-;-;-;-;-;-;-;-;-
1511262815916;-;-;9.250488;0.52931213;1.2827759;-;-;-;-;-;-;-;-;-;-;-;-;-;-;-
1511262815935;-;-;9.190628;0.1558075;1.5976105;-;-;-;-;-;-;-;-;-;-;-;-;-;-;-
1511262815955;-;-;9.0793;0.14982605;1.686203;-;-;-;-;-;-;-;-;-;-;-;-;-;-;-
1511262815976;-;-;9.160706;0.38565063;1.4767151;-;-;-;-;-;-;-;-;-;-;-;-;-;-;-
1511262815996;-;-;9.195419;0.62986755;1.152298;-;-;-;-;-;-;-;-;-;-;-;-;-;-;-
1511262816017;-;-;9.322311;0.7842865;0.8230896;-;-;-;-;-;-;-;-;-;-;-;-;-;-;-
1511262816037;-;-;9.463577;0.7819061;0.7249298;-;-;-;-;-;-;-;-;-;-;-;-;-;-;-
1511262816057;-;-;9.390549;0.8010559;0.8482361;-;-;-;-;-;-;-;-;-;-;-;-;-;-;-
1511262816077;-;-;9.278015;0.69091797;1.0313873;-;-;-;-;-;-;-;-;-;-;-;-;-;-;-
1511262816098;-;-;9.188232;0.5951538;1.0218048;-;-;-;-;-;-;-;-;-;-;-;-;-;-;-
1511262816118;-;-;9.091278;0.55085754;0.9416046;-;-;-;-;-;-;-;-;-;-;-;-;-;-;-
1511262816138;-;-;9.011063;0.44192505;0.84584045;-;-;-;-;-;-;-;-;-;-;-;-;-;-;-
1511262816159;-;-;9.062546;0.4371338;0.73091125;-;-;-;-;-;-;-;-;-;-;-;-;-;-;-
1511262816179;-;-;9.189438;0.46228027;0.721344;-;-;-;-;-;-;-;-;-;-;-;-;-;-;-
1511262816199;-;-;9.195419;0.50177;0.75845337;-;-;-;-;-;-;-;-;-;-;-;-;-;-;-
1511262816219;-;-;9.170288;0.58078;0.7249298;-;-;-;-;-;-;-;-;-;-;-;-;-;-;-
1511262816240;-;-;9.164291;0.59036255;0.76802063;-;-;-;-;-;-;-;-;-;-;-;-;-;-;-
1511262816260;-;-;9.161896;0.53289795;0.88414;-;-;-;-;-;-;-;-;-;-;-;-;-;-;-
1511262816280;-;-;9.093674;0.42396545;0.99786377;-;-;-;-;-;-;-;-;-;-;-;-;-;-;-
1511262816301;-;-;9.15712;0.38804626;1.0661011;-;-;-;-;-;-;-;-;-;-;-;-;-;-;-
1511262816321;-;-;9.216965;0.4467163;1.1941986;-;-;-;-;-;-;-;-;-;-;-;-;-;-;-
1511262816341;-;-;9.215775;0.51493835;1.1714478;-;-;-;-;-;-;-;-;-;-;-;-;-;-;-
1511262816361;-;-;9.17627;0.56881714;1.152298;-;-;-;-;-;-;-;-;-;-;-;-;-;-;-
1511262816382;-;-;9.1523285;0.6573944;1.1343384;-;-;-;-;-;-;-;-;-;-;-;-;-;-;-
1511262816402;-;-;9.160706;0.55085754;1.1894073;-;-;-;-;-;-;-;-;-;-;-;-;-;-;-
1511262816422;-;-;9.121201;0.46705627;1.1546936;-;-;-;-;-;-;-;-;-;-;-;-;-;-;-
1511262816443;-;-;9.116409;0.3892517;1.1654663;-;-;-;-;-;-;-;-;-;-;-;-;-;-;-
1511262816463;-;-;9.075714;0.42636108;1.1187744;-;-;-;-;-;-;-;-;-;-;-;-;-;-;-
1511262816484;-;-;9.154724;0.4084015;1.1223602;-;-;-;-;-;-;-;-;-;-;-;-;-;-;-
1511262816504;-;-;9.15712;0.40960693;1.1415253;-;-;-;-;-;-;-;-;-;-;-;-;-;-;-
1511262816524;-;-;9.143951;0.43952942;1.1858063;-;-;-;-;-;-;-;-;-;-;-;-;-;-;-
1511262816544;-;-;9.011063;0.47184753;1.1953888;-;-;-;-;-;-;-;-;-;-;-;-;-;-;-
1511262816565;-;-;9.123596;0.44432068;1.1044159;-;-;-;-;-;-;-;-;-;-;-;-;-;-;-
1511262816585;-;-;9.081696;0.46107483;1.1846161;-;-;-;-;-;-;-;-;-;-;-;-;-;-;-
1511262816605;-;-;9.129578;0.36531067;1.2540436;-;-;-;-;-;-;-;-;-;-;-;-;-;-;-
1511262816626;-;-;9.160706;0.29826355;1.3162994;-;-;-;-;-;-;-;-;-;-;-;-;-;-;-
1511262816645;-;-;9.202606;0.2850952;1.3881226;-;-;-;-;-;-;-;-;-;-;-;-;-;-;-
1511262816665;-;-;9.2313385;0.2922821;1.4084778;-;-;-;-;-;-;-;-;-;-;-;-;-;-;-
1511262816685;-;-;9.206192;0.31861877;1.4982605;-;-;-;-;-;-;-;-;-;-;-;-;-;-;-
1511262816706;-;-;9.134369;0.26715088;1.6814117;-;-;-;-;-;-;-;-;-;-;-;-;-;-;-
1511262816726;-;-;9.096069;0.22883606;1.8394318;-;-;-;-;-;-;-;-;-;-;-;-;-;-;-
1511262816746;-;-;9.129578;0.2192688;1.9471741;-;-;-;-;-;-;-;-;-;-;-;-;-;-;-
1511262816766;-;-;9.324707;0.117507935;1.8274536;-;-;-;-;-;-;-;-;-;-;-;-;-;-;-
1511262816786;-;-;9.382172;0.055252075;1.5030518;-;-;-;-;-;-;-;-;-;-;-;-;-;-;-
1511262816807;-;-;9.200211;0.0756073;1.3761444;-;-;-;-;-;-;-;-;-;-;-;-;-;-;-
1511262816828;-;-;9.015854;0.27911377;1.275589;-;-;-;-;-;-;-;-;-;-;-;-;-;-;-
1511262816848;-;-;9.0733185;0.5065613;1.3091125;-;-;-;-;-;-;-;-;-;-;-;-;-;-;-
1511262816868;-;-;9.054169;0.55444336;1.4108734;-;-;-;-;-;-;-;-;-;-;-;-;-;-;-
1511262816889;-;-;8.932053;0.51493835;1.7137299;-;-;-;-;-;-;-;-;-;-;-;-;-;-;-
1511262816909;-;-;8.836288;0.4909973;1.9244232;-;-;-;-;-;-;-;-;-;-;-;-;-;-;-
1511262816929;-;-;8.890167;0.4012146;1.8633728;-;-;-;-;-;-;-;-;-;-;-;-;-;-;-
1511262816950;-;-;9.036209;0.29467773;1.8298492;-;-;-;-;-;-;-;-;-;-;-;-;-;-;-
1511262816970;-;-;9.117615;0.19651794;1.780777;-;-;-;-;-;-;-;-;-;-;-;-;-;-;-
1511262816990;-;-;9.172684;0.13186646;1.835846;-;-;-;-;-;-;-;-;-;-;-;-;-;-;-
1511262817011;-;-;9.082901;0.11392212;1.864563;-;-;-;-;-;-;-;-;-;-;-;-;-;-;-
1511262817031;-;-;9.07811;0.1438446;1.848999;-;-;-;-;-;-;-;-;-;-;-;-;-;-;-
1511262817051;-;-;9.100845;0.21566772;1.7520447;-;-;-;-;-;-;-;-;-;-;-;-;-;-;-
1511262817071;-;-;9.084091;0.3497467;1.6371155;-;-;-;-;-;-;-;-;-;-;-;-;-;-;-
1511262817092;-;-;9.081696;0.45628357;1.6371155;-;-;-;-;-;-;-;-;-;-;-;-;-;-;-
1511262817112;-;-;9.035004;0.4371338;1.5617065;-;-;-;-;-;-;-;-;-;-;-;-;-;-;-
1511262817132;-;-;8.97995;0.37368774;1.5700836;-;-;-;-;-;-;-;-;-;-;-;-;-;-;-
1511262817153;-;-;9.008667;0.3138275;1.591629;-;-;-;-;-;-;-;-;-;-;-;-;-;-;-
1511262817174;-;-;9.013458;0.26834106;1.6490936;-;-;-;-;-;-;-;-;-;-;-;-;-;-;-
1511262817194;-;-;9.025436;0.3030548;1.7460632;-;-;-;-;-;-;-;-;-;-;-;-;-;-;-
1511262817215;-;-;9.051773;0.29826355;1.8274536;-;-;-;-;-;-;-;-;-;-;-;-;-;-;-
1511262817235;-;-;9.100845;0.35214233;1.7735901;-;-;-;-;-;-;-;-;-;-;-;-;-;-;-
1511262817255;-;-;9.093674;0.38087463;1.7879486;-;-;-;-;-;-;-;-;-;-;-;-;-;-;-
1511262817276;-;-;9.094864;0.41319275;1.7987213;-;-;-;-;-;-;-;-;-;-;-;-;-;-;-
1511262817296;-;-;9.086487;0.4084015;1.7903442;-;-;-;-;-;-;-;-;-;-;-;-;-;-;-
1511262817316;-;-;9.058945;0.41558838;1.8059082;-;-;-;-;-;-;-;-;-;-;-;-;-;-;-
1511262817337;-;-;9.039795;0.38685608;1.8190765;-;-;-;-;-;-;-;-;-;-;-;-;-;-;-
1511262817357;-;-;9.068527;0.38685608;1.7316895;-;-;-;-;-;-;-;-;-;-;-;-;-;-;-
1511262817377;-;-;9.103241;0.4191742;1.749649;-;-;-;-;-;-;-;-;-;-;-;-;-;-;-
1511262817397;-;-;9.085281;0.3892517;1.7197266;-;-;-;-;-;-;-;-;-;-;-;-;-;-;-
1511262817417;-;-;9.076904;0.3425598;1.7245026;-;-;-;-;-;-;-;-;-;-;-;-;-;-;-
1511262817438;-;-;9.110428;0.3497467;1.6885986;-;-;-;-;-;-;-;-;-;-;-;-;-;-;-
1511262817458;-;-;9.07811;0.3617096;1.6287384;-;-;-;-;-;-;-;-;-;-;-;-;-;-;-
1511262817479;-;-;9.066132;0.34854126;1.6059875;-;-;-;-;-;-;-;-;-;-;-;-;-;-;-
1511262817499;-;-;9.064941;0.3030548;1.6730347;-;-;-;-;-;-;-;-;-;-;-;-;-;-;-
1511262817519;-;-;9.0182495;0.35214233;1.6838074;-;-;-;-;-;-;-;-;-;-;-;-;-;-;-
1511262817539;-;-;9.091278;0.33418274;1.7532349;-;-;-;-;-;-;-;-;-;-;-;-;-;-;-
1511262817560;-;-;9.129578;0.41558838;1.7687988;-;-;-;-;-;-;-;-;-;-;-;-;-;-;-
1511262817580;-;-;9.125992;0.41079712;1.765213;-;-;-;-;-;-;-;-;-;-;-;-;-;-;-
1511262817601;-;-;9.07811;0.41438293;1.7640076;-;-;-;-;-;-;-;-;-;-;-;-;-;-;-
1511262817621;-;-;9.091278;0.4586792;1.7711945;-;-;-;-;-;-;-;-;-;-;-;-;-;-;-
1511262817641;-;-;8.97995;0.42396545;1.7843628;-;-;-;-;-;-;-;-;-;-;-;-;-;-;-
1511262817661;-;-;9.007477;0.40361023;1.7771759;-;-;-;-;-;-;-;-;-;-;-;-;-;-;-
1511262817682;-;-;9.008667;0.34136963;1.8478088;-;-;-;-;-;-;-;-;-;-;-;-;-;-;-
1511262817701;-;-;8.977554;0.33059692;1.820282;-;-;-;-;-;-;-;-;-;-;-;-;-;-;-
1511262817722;-;-;8.964386;0.4084015;1.8298492;-;-;-;-;-;-;-;-;-;-;-;-;-;-;-
1511262817742;-;-;9.008667;0.457489;1.8466187;-;-;-;-;-;-;-;-;-;-;-;-;-;-;-
1511262817762;-;-;9.068527;0.54008484;1.785553;-;-;-;-;-;-;-;-;-;-;-;-;-;-;-
1511262817783;-;-;9.084091;0.48382568;1.7664032;-;-;-;-;-;-;-;-;-;-;-;-;-;-;-
1511262817802;-;-;9.074509;0.38206482;1.780777;-;-;-;-;-;-;-;-;-;-;-;-;-;-;-
1511262817822;-;-;9.056564;0.33299255;1.7424622;-;-;-;-;-;-;-;-;-;-;-;-;-;-;-
1511262817843;-;-;9.142746;0.34495544;1.7316895;-;-;-;-;-;-;-;-;-;-;-;-;-;-;-
1511262817862;-;-;9.15831;0.38206482;1.7281036;-;-;-;-;-;-;-;-;-;-;-;-;-;-;-
1511262817882;-;-;9.056564;0.34376526;1.7520447;-;-;-;-;-;-;-;-;-;-;-;-;-;-;-
1511262817902;-;-;8.996704;0.30065918;1.7700043;-;-;-;-;-;-;-;-;-;-;-;-;-;-;-
1511262817923;-;-;9.054169;0.2695465;1.6933899;-;-;-;-;-;-;-;-;-;-;-;-;-;-;-
1511262817943;-;-;9.080505;0.29707336;1.6586609;-;-;-;-;-;-;-;-;-;-;-;-;-;-;-
1511262817963;-;-;9.09845;0.32341003;1.6095886;-;-;-;-;-;-;-;-;-;-;-;-;-;-;-
1511262817984;-;-;9.099655;0.35214233;1.6550751;-;-;-;-;-;-;-;-;-;-;-;-;-;-;-
1511262818004;-;-;9.123596;0.42755127;1.7125397;-;-;-;-;-;-;-;-;-;-;-;-;-;-;-
1511262818024;-;-;9.116409;0.45988464;1.785553;-;-;-;-;-;-;-;-;-;-;-;-;-;-;-
1511262818045;-;-;9.147537;0.49220276;1.6658478;-;-;-;-;-;-;-;-;-;-;-;-;-;-;-
1511262818065;-;-;9.109222;0.45988464;1.6909943;-;-;-;-;-;-;-;-;-;-;-;-;-;-;-
1511262818085;-;-;9.0793;0.4287567;1.7352753;-;-;-;-;-;-;-;-;-;-;-;-;-;-;-
1511262818105;-;-;9.086487;0.3892517;1.7676086;-;-;-;-;-;-;-;-;-;-;-;-;-;-;-
1511262818126;-;-;9.029022;0.4084015;1.8334503;-;-;-;-;-;-;-;-;-;-;-;-;-;-;-
1511262818146;-;-;9.002686;0.4287567;1.8561859;-;-;-;-;-;-;-;-;-;-;-;-;-;-;-
1511262818166;-;-;8.997894;0.39283752;1.8513947;-;-;-;-;-;-;-;-;-;-;-;-;-;-;-
1511262818189;-;-;9.024231;0.3509369;1.7628174;-;-;-;-;-;-;-;-;-;-;-;-;-;-;-
1511262818209;-;-;9.042191;0.31503296;1.7424622;-;-;-;-;-;-;-;-;-;-;-;-;-;-;-
1511262818230;-;-;9.093674;0.31861877;1.7328949;-;-;-;-;-;-;-;-;-;-;-;-;-;-;-
1511262818250;-;-;9.087677;0.31503296;1.7628174;-;-;-;-;-;-;-;-;-;-;-;-;-;-;-
1511262818270;-;-;9.049377;0.34735107;1.7687988;-;-;-;-;-;-;-;-;-;-;-;-;-;-;-
1511262818291;-;-;9.044586;0.35812378;1.765213;-;-;-;-;-;-;-;-;-;-;-;-;-;-;-
1511262818311;-;-;9.030228;0.3712921;1.7939453;-;-;-;-;-;-;-;-;-;-;-;-;-;-;-
1511262818331;-;-;8.997894;0.41558838;1.7137299;-;-;-;-;-;-;-;-;-;-;-;-;-;-;-
1511262818351;-;-;8.957199;0.46466064;1.7544403;-;-;-;-;-;-;-;-;-;-;-;-;-;-;-
1511262818372;-;-;8.932053;0.50416565;1.7245026;-;-;-;-;-;-;-;-;-;-;-;-;-;-;-
1511262818392;-;-;8.938049;0.60113525;1.7209167;-;-;-;-;-;-;-;-;-;-;-;-;-;-;-
1511262818412;-;-;9.012268;0.5077667;1.8238678;-;-;-;-;-;-;-;-;-;-;-;-;-;-;-
1511262818433;-;-;9.020645;0.40361023;1.7376709;-;-;-;-;-;-;-;-;-;-;-;-;-;-;-
1511262818453;-;-;9.167892;0.24320984;1.6981659;-;-;-;-;-;-;-;-;-;-;-;-;-;-;-
1511262818474;-;-;9.203796;0.19891357;1.6107788;-;-;-;-;-;-;-;-;-;-;-;-;-;-;-
1511262818494;-;-;9.213379;0.1905365;1.6478882;-;-;-;-;-;-;-;-;-;-;-;-;-;-;-
1511262818514;-;-;9.15712;0.2922821;1.7328949;-;-;-;-;-;-;-;-;-;-;-;-;-;-;-
1511262818534;-;-;9.090073;0.3210144;1.7616119;-;-;-;-;-;-;-;-;-;-;-;-;-;-;-
1511262818555;-;-;9.033813;0.32699585;1.741272;-;-;-;-;-;-;-;-;-;-;-;-;-;-;-
1511262818575;-;-;9.025436;0.34016418;1.7903442;-;-;-;-;-;-;-;-;-;-;-;-;-;-;-
1511262818595;-;-;9.052963;0.30784607;1.725708;-;-;-;-;-;-;-;-;-;-;-;-;-;-;-
1511262818616;-;-;9.087677;0.32939148;1.8023224;-;-;-;-;-;-;-;-;-;-;-;-;-;-;-
1511262818636;-;-;9.125992;0.33059692;1.7268982;-;-;-;-;-;-;-;-;-;-;-;-;-;-;-
1511262818656;-;-;9.110428;0.3497467;1.6921844;-;-;-;-;-;-;-;-;-;-;-;-;-;-;-
1511262818676;-;-;9.094864;0.30426025;1.5868378;-;-;-;-;-;-;-;-;-;-;-;-;-;-;-
1511262818696;-;-;9.048172;0.38685608;1.5605011;-;-;-;-;-;-;-;-;-;-;-;-;-;-;-
1511262818717;-;-;9.068527;0.4072113;1.5880432;-;-;-;-;-;-;-;-;-;-;-;-;-;-;-
1511262818737;-;-;9.062546;0.47903442;1.6215515;-;-;-;-;-;-;-;-;-;-;-;-;-;-;-
1511262818757;-;-;9.06015;0.46228027;1.6119843;-;-;-;-;-;-;-;-;-;-;-;-;-;-;-
1511262818777;-;-;9.091278;0.47903442;1.5868378;-;-;-;-;-;-;-;-;-;-;-;-;-;-;-
1511262818798;-;-;9.108032;0.44432068;1.5844421;-;-;-;-;-;-;-;-;-;-;-;-;-;-;-
1511262818818;-;-;9.087677;0.4072113;1.5581055;-;-;-;-;-;-;-;-;-;-;-;-;-;-;-
1511262818838;-;-;9.06134;0.4359436;1.6059875;-;-;-;-;-;-;-;-;-;-;-;-;-;-;-
1511262818859;-;-;9.020645;0.45269775;1.6215515;-;-;-;-;-;-;-;-;-;-;-;-;-;-;-
1511262818879;-;-;9.012268;0.46466064;1.662262;-;-;-;-;-;-;-;-;-;-;-;-;-;-;-
1511262818899;-;-;9.052963;0.4012146;1.6239471;-;-;-;-;-;-;-;-;-;-;-;-;-;-;-
1511262818920;-;-;9.124786;0.34016418;1.5844421;-;-;-;-;-;-;-;-;-;-;-;-;-;-;-
1511262818939;-;-;9.1128235;0.30426025;1.5569153;-;-;-;-;-;-;-;-;-;-;-;-;-;-;-
1511262818959;-;-;9.193024;0.32699585;1.5317688;-;-;-;-;-;-;-;-;-;-;-;-;-;-;-
1511262818980;-;-;9.188232;0.30784607;1.5054321;-;-;-;-;-;-;-;-;-;-;-;-;-;-;-
1511262819000;-;-;9.117615;0.24440002;1.4372101;-;-;-;-;-;-;-;-;-;-;-;-;-;-;-
1511262819020;-;-;9.075714;0.2803192;1.5090332;-;-;-;-;-;-;-;-;-;-;-;-;-;-;-
1511262819040;-;-;9.070923;0.21806335;1.5461426;-;-;-;-;-;-;-;-;-;-;-;-;-;-;-
1511262819061;-;-;9.091278;0.20610046;1.4467773;-;-;-;-;-;-;-;-;-;-;-;-;-;-;-
1511262819081;-;-;9.134369;0.2013092;1.4036865;-;-;-;-;-;-;-;-;-;-;-;-;-;-;-
1511262819101;-;-;9.148727;0.22525024;1.3761444;-;-;-;-;-;-;-;-;-;-;-;-;-;-;-
1511262819122;-;-;9.114014;0.22764587;1.370163;-;-;-;-;-;-;-;-;-;-;-;-;-;-;-
1511262819142;-;-;9.167892;0.20489502;1.370163;-;-;-;-;-;-;-;-;-;-;-;-;-;-;-
1511262819162;-;-;9.143951;0.3210144;1.3988953;-;-;-;-;-;-;-;-;-;-;-;-;-;-;-
1511262819183;-;-;9.131973;0.3509369;1.4048767;-;-;-;-;-;-;-;-;-;-;-;-;-;-;-
1511262819203;-;-;9.194229;0.38327026;1.4635468;-;-;-;-;-;-;-;-;-;-;-;-;-;-;-
1511262819223;-;-;9.233734;0.45030212;1.4120636;-;-;-;-;-;-;-;-;-;-;-;-;-;-;-
1511262819244;-;-;9.258865;0.35333252;1.3139038;-;-;-;-;-;-;-;-;-;-;-;-;-;-;-
1511262819264;-;-;9.345062;0.32699585;1.2660217;-;-;-;-;-;-;-;-;-;-;-;-;-;-;-
1511262819285;-;-;9.372589;0.27192688;1.2348938;-;-;-;-;-;-;-;-;-;-;-;-;-;-;-
1511262819305;-;-;9.195419;0.31861877;1.3641815;-;-;-;-;-;-;-;-;-;-;-;-;-;-;-
1511262819325;-;-;8.98114;0.457489;1.528183;-;-;-;-;-;-;-;-;-;-;-;-;-;-;-
1511262819346;-;-;8.806366;0.512558;1.6478882;-;-;-;-;-;-;-;-;-;-;-;-;-;-;-
1511262819366;-;-;8.819534;0.4766388;1.6143799;-;-;-;-;-;-;-;-;-;-;-;-;-;-;-
1511262819386;-;-;8.893753;0.39404297;1.6239471;-;-;-;-;-;-;-;-;-;-;-;-;-;-;-
1511262819406;-;-;9.024231;0.30186462;1.5317688;-;-;-;-;-;-;-;-;-;-;-;-;-;-;-
1511262819426;-;-;9.13916;0.32460022;1.5617065;-;-;-;-;-;-;-;-;-;-;-;-;-;-;-
1511262819446;-;-;9.131973;0.31622314;1.5664978;-;-;-;-;-;-;-;-;-;-;-;-;-;-;-
1511262819465;-;-;9.088882;0.34735107;1.6047974;-;-;-;-;-;-;-;-;-;-;-;-;-;-;-
1511262819486;-;-;9.091278;0.3712921;1.6047974;-;-;-;-;-;-;-;-;-;-;-;-;-;-;-
1511262819506;-;-;9.108032;0.3509369;1.5940247;-;-;-;-;-;-;-;-;-;-;-;-;-;-;-
1511262819526;-;-;9.137955;0.3282013;1.6275482;-;-;-;-;-;-;-;-;-;-;-;-;-;-;-
1511262819547;-;-;9.104446;0.32580566;1.5736694;-;-;-;-;-;-;-;-;-;-;-;-;-;-;-
1511262819566;-;-;9.109222;0.3030548;1.5808563;-;-;-;-;-;-;-;-;-;-;-;-;-;-;-
1511262819586;-;-;9.0793;0.32580566;1.5509338;-;-;-;-;-;-;-;-;-;-;-;-;-;-;-
1511262819607;-;-;9.064941;0.35932922;1.583252;-;-;-;-;-;-;-;-;-;-;-;-;-;-;-
1511262819627;-;-;9.06015;0.35333252;1.5413513;-;-;-;-;-;-;-;-;-;-;-;-;-;-;-
1511262819647;-;-;9.084091;0.3617096;1.5401611;-;-;-;-;-;-;-;-;-;-;-;-;-;-;-
1511262819668;-;-;9.080505;0.3904419;1.5269928;-;-;-;-;-;-;-;-;-;-;-;-;-;-;-
1511262819688;-;-;9.118805;0.3605194;1.5186005;-;-;-;-;-;-;-;-;-;-;-;-;-;-;-
1511262819708;-;-;9.106842;0.40600586;1.4826965;-;-;-;-;-;-;-;-;-;-;-;-;-;-;-
1511262819728;-;-;9.087677;0.36531067;1.5353699;-;-;-;-;-;-;-;-;-;-;-;-;-;-;-
1511262819749;-;-;9.0733185;0.34136963;1.6347198;-;-;-;-;-;-;-;-;-;-;-;-;-;-;-
1511262819769;-;-;9.055359;0.3509369;1.631134;-;-;-;-;-;-;-;-;-;-;-;-;-;-;-
1511262819789;-;-;9.0733185;0.33537292;1.5976105;-;-;-;-;-;-;-;-;-;-;-;-;-;-;-
1511262819810;-;-;9.110428;0.33418274;1.567688;-;-;-;-;-;-;-;-;-;-;-;-;-;-;-
1511262819830;-;-;9.149933;0.29707336;1.4707184;-;-;-;-;-;-;-;-;-;-;-;-;-;-;-
1511262819850;-;-;9.125992;0.31263733;1.433609;-;-;-;-;-;-;-;-;-;-;-;-;-;-;-
1511262819870;-;-;9.105637;0.33776855;1.5760651;-;-;-;-;-;-;-;-;-;-;-;-;-;-;-
1511262819891;-;-;9.0733185;0.32341003;1.725708;-;-;-;-;-;-;-;-;-;-;-;-;-;-;-
1511262819911;-;-;9.009872;0.33059692;1.8214722;-;-;-;-;-;-;-;-;-;-;-;-;-;-;-
1511262819931;-;-;9.019455;0.3461609;1.785553;-;-;-;-;-;-;-;-;-;-;-;-;-;-;-
1511262819952;-;-;9.084091;0.3282013;1.7185211;-;-;-;-;-;-;-;-;-;-;-;-;-;-;-
1511262819972;-;-;9.151123;0.30784607;1.5976105;-;-;-;-;-;-;-;-;-;-;-;-;-;-;-
1511262819992;-;-;9.184647;0.30784607;1.5712738;-;-;-;-;-;-;-;-;-;-;-;-;-;-;-
1511262820013;-;-;9.131973;0.34136963;1.5880432;-;-;-;-;-;-;-;-;-;-;-;-;-;-;-
1511262820033;-;-;9.080505;0.3605194;1.5892334;-;-;-;-;-;-;-;-;-;-;-;-;-;-;-
1511262820053;-;-;9.106842;0.38327026;1.6287384;-;-;-;-;-;-;-;-;-;-;-;-;-;-;-
1511262820073;-;-;9.087677;0.33059692;1.5736694;-;-;-;-;-;-;-;-;-;-;-;-;-;-;-
1511262820094;-;-;9.049377;0.33537292;1.5988159;-;-;-;-;-;-;-;-;-;-;-;-;-;-;-
1511262820114;-;-;9.037399;0.3174286;1.6263428;-;-;-;-;-;-;-;-;-;-;-;-;-;-;-
1511262820134;-;-;9.062546;0.3497467;1.6443024;-;-;-;-;-;-;-;-;-;-;-;-;-;-;-
1511262820155;-;-;9.102051;0.34495544;1.6371155;-;-;-;-;-;-;-;-;-;-;-;-;-;-;-
1511262820175;-;-;9.100845;0.3796692;1.6263428;-;-;-;-;-;-;-;-;-;-;-;-;-;-;-
1511262820196;-;-;9.076904;0.36531067;1.6419067;-;-;-;-;-;-;-;-;-;-;-;-;-;-;-
1511262820216;-;-;9.06134;0.36650085;1.6921844;-;-;-;-;-;-;-;-;-;-;-;-;-;-;-
1511262820236;-;-;9.054169;0.3677063;1.7233124;-;-;-;-;-;-;-;-;-;-;-;-;-;-;-
1511262820256;-;-;9.1128235;0.36889648;1.7268982;-;-;-;-;-;-;-;-;-;-;-;-;-;-;-
1511262820276;-;-;9.228943;0.38206482;1.6059875;-;-;-;-;-;-;-;-;-;-;-;-;-;-;-
1511262820297;-;-;9.303162;0.42156982;1.5652924;-;-;-;-;-;-;-;-;-;-;-;-;-;-;-
1511262820317;-;-;9.258865;0.36410522;1.6323242;-;-;-;-;-;-;-;-;-;-;-;-;-;-;-
1511262820337;-;-;9.094864;0.29588318;1.8370361;-;-;-;-;-;-;-;-;-;-;-;-;-;-;-
1511262820358;-;-;8.911713;0.26834106;1.9639282;-;-;-;-;-;-;-;-;-;-;-;-;-;-;-
1511262820378;-;-;8.748901;0.2815094;1.9519501;-;-;-;-;-;-;-;-;-;-;-;-;-;-;-
1511262820398;-;-;8.843475;0.32580566;1.8430176;-;-;-;-;-;-;-;-;-;-;-;-;-;-;-
1511262820419;-;-;8.976349;0.36889648;1.796341;-;-;-;-;-;-;-;-;-;-;-;-;-;-;-
1511262820439;-;-;9.020645;0.3317871;1.7664032;-;-;-;-;-;-;-;-;-;-;-;-;-;-;-
1511262820459;-;-;9.100845;0.299469;1.7700043;-;-;-;-;-;-;-;-;-;-;-;-;-;-;-
1511262820479;-;-;9.137955;0.3425598;1.8059082;-;-;-;-;-;-;-;-;-;-;-;-;-;-;-
1511262820500;-;-;9.075714;0.39523315;1.8537903;-;-;-;-;-;-;-;-;-;-;-;-;-;-;-
1511262820520;-;-;9.027832;0.5053711;1.796341;-;-;-;-;-;-;-;-;-;-;-;-;-;-;-
1511262820540;-;-;9.007477;0.5233307;1.6957703;-;-;-;-;-;-;-;-;-;-;-;-;-;-;-
1511262820561;-;-;9.036209;0.42515564;1.686203;-;-;-;-;-;-;-;-;-;-;-;-;-;-;-
1511262820582;-;-;9.050568;0.42156982;1.710144;-;-;-;-;-;-;-;-;-;-;-;-;-;-;-
1511262820603;-;-;9.043396;0.4084015;1.7281036;-;-;-;-;-;-;-;-;-;-;-;-;-;-;-
1511262820623;-;-;9.036209;0.4371338;1.7113342;-;-;-;-;-;-;-;-;-;-;-;-;-;-;-
1511262820643;-;-;9.067337;0.46826172;1.7508392;-;-;-;-;-;-;-;-;-;-;-;-;-;-;-
1511262820664;-;-;9.038605;0.4479065;1.686203;-;-;-;-;-;-;-;-;-;-;-;-;-;-;-
1511262820684;-;-;9.082901;0.39523315;1.7125397;-;-;-;-;-;-;-;-;-;-;-;-;-;-;-
1511262820705;-;-;9.074509;0.37368774;1.765213;-;-;-;-;-;-;-;-;-;-;-;-;-;-;-
1511262820725;-;-;9.091278;0.31622314;1.7604218;-;-;-;-;-;-;-;-;-;-;-;-;-;-;-
1511262820745;-;-;9.046982;0.35333252;1.7340851;-;-;-;-;-;-;-;-;-;-;-;-;-;-;-
1511262820765;-;-;9.044586;0.38565063;1.7328949;-;-;-;-;-;-;-;-;-;-;-;-;-;-;-
1511262820786;-;-;9.026627;0.39523315;1.741272;-;-;-;-;-;-;-;-;-;-;-;-;-;-;-
1511262820806;-;-;9.031418;0.3677063;1.7424622;-;-;-;-;-;-;-;-;-;-;-;-;-;-;-
1511262820826;-;-;9.06134;0.31143188;1.765213;-;-;-;-;-;-;-;-;-;-;-;-;-;-;-
1511262820847;-;-;9.0793;0.35572815;1.7436676;-;-;-;-;-;-;-;-;-;-;-;-;-;-;-
1511262820867;-;-;9.094864;0.30665588;1.7364807;-;-;-;-;-;-;-;-;-;-;-;-;-;-;-
1511262820887;-;-;9.076904;0.3569336;1.7484436;-;-;-;-;-;-;-;-;-;-;-;-;-;-;-
1511262820908;-;-;9.054169;0.34016418;1.7436676;-;-;-;-;-;-;-;-;-;-;-;-;-;-;-
1511262820929;-;-;9.081696;0.338974;1.8118896;-;-;-;-;-;-;-;-;-;-;-;-;-;-;-
1511262820949;-;-;9.06134;0.36889648;1.7161255;-;-;-;-;-;-;-;-;-;-;-;-;-;-;-
1511262820969;-;-;9.0793;0.3617096;1.6550751;-;-;-;-;-;-;-;-;-;-;-;-;-;-;-
1511262820989;-;-;9.087677;0.40600586;1.6957703;-;-;-;-;-;-;-;-;-;-;-;-;-;-;-
1511262821009;-;-;9.096069;0.40242004;1.6191559;-;-;-;-;-;-;-;-;-;-;-;-;-;-;-
1511262821029;-;-;9.07811;0.35214233;1.6610565;-;-;-;-;-;-;-;-;-;-;-;-;-;-;-
1511262821049;-;-;9.086487;0.4084015;1.6802216;-;-;-;-;-;-;-;-;-;-;-;-;-;-;-
1511262821069;-;-;9.094864;0.41438293;1.6119843;-;-;-;-;-;-;-;-;-;-;-;-;-;-;-
1511262821089;-;-;9.118805;0.37487793;1.5892334;-;-;-;-;-;-;-;-;-;-;-;-;-;-;-
1511262821109;-;-;9.134369;0.3425598;1.5461426;-;-;-;-;-;-;-;-;-;-;-;-;-;-;-
1511262821130;-;-;9.111618;0.36650085;1.552124;-;-;-;-;-;-;-;-;-;-;-;-;-;-;-
1511262821151;-;-;9.088882;0.40600586;1.5940247;-;-;-;-;-;-;-;-;-;-;-;-;-;-;-
1511262821171;-;-;9.063736;0.4287567;1.6131744;-;-;-;-;-;-;-;-;-;-;-;-;-;-;-
1511262821194;-;-;9.011063;0.39762878;1.6694489;-;-;-;-;-;-;-;-;-;-;-;-;-;-;-
1511262821214;-;-;9.032608;0.39404297;1.7975311;-;-;-;-;-;-;-;-;-;-;-;-;-;-;-
1511262821234;-;-;9.044586;0.3497467;1.7544403;-;-;-;-;-;-;-;-;-;-;-;-;-;-;-
1511262821255;-;-;9.025436;0.3677063;1.7448578;-;-;-;-;-;-;-;-;-;-;-;-;-;-;-
1511262821275;-;-;9.093674;0.3605194;1.6682434;-;-;-;-;-;-;-;-;-;-;-;-;-;-;-
1511262821295;-;-;9.114014;0.35214233;1.6670532;-;-;-;-;-;-;-;-;-;-;-;-;-;-;-
1511262821316;-;-;9.070923;0.33059692;1.7245026;-;-;-;-;-;-;-;-;-;-;-;-;-;-;-
1511262821335;-;-;9.020645;0.3102417;1.6730347;-;-;-;-;-;-;-;-;-;-;-;-;-;-;-
1511262821356;-;-;9.048172;0.34495544;1.6718292;-;-;-;-;-;-;-;-;-;-;-;-;-;-;-
1511262821376;-;-;9.074509;0.38804626;1.6849976;-;-;-;-;-;-;-;-;-;-;-;-;-;-;-
1511262821396;-;-;9.037399;0.3796692;1.6526794;-;-;-;-;-;-;-;-;-;-;-;-;-;-;-
1511262821417;-;-;9.041;0.37249756;1.6646576;-;-;-;-;-;-;-;-;-;-;-;-;-;-;-
1511262821437;-;-;9.075714;0.39404297;1.6873932;-;-;-;-;-;-;-;-;-;-;-;-;-;-;-
1511262821457;-;-;9.0972595;0.40600586;1.6443024;-;-;-;-;-;-;-;-;-;-;-;-;-;-;-
1511262821478;-;-;9.068527;0.43234253;1.6694489;-;-;-;-;-;-;-;-;-;-;-;-;-;-;-
1511262821498;-;-;9.092468;0.417984;1.662262;-;-;-;-;-;-;-;-;-;-;-;-;-;-;-
1511262821519;-;-;9.080505;0.33299255;1.6849976;-;-;-;-;-;-;-;-;-;-;-;-;-;-;-
1511262821538;-;-;9.108032;0.3210144;1.6945801;-;-;-;-;-;-;-;-;-;-;-;-;-;-;-
1511262821558;-;-;9.085281;0.33299255;1.7245026;-;-;-;-;-;-;-;-;-;-;-;-;-;-;-
1511262821578;-;-;9.044586;0.34495544;1.6981659;-;-;-;-;-;-;-;-;-;-;-;-;-;-;-
1511262821599;-;-;9.062546;0.37368774;1.7268982;-;-;-;-;-;-;-;-;-;-;-;-;-;-;-
1511262821619;-;-;9.039795;0.3796692;1.7185211;-;-;-;-;-;-;-;-;-;-;-;-;-;-;-
1511262821639;-;-;9.062546;0.3796692;1.6969757;-;-;-;-;-;-;-;-;-;-;-;-;-;-;-
1511262821660;-;-;9.069733;0.3904419;1.7233124;-;-;-;-;-;-;-;-;-;-;-;-;-;-;-
1511262821680;-;-;9.0577545;0.39881897;1.7125397;-;-;-;-;-;-;-;-;-;-;-;-;-;-;-
1511262821700;-;-;9.070923;0.42515564;1.7137299;-;-;-;-;-;-;-;-;-;-;-;-;-;-;-
1511262821721;-;-;9.046982;0.42037964;1.7065582;-;-;-;-;-;-;-;-;-;-;-;-;-;-;-
1511262821741;-;-;9.075714;0.4191742;1.646698;-;-;-;-;-;-;-;-;-;-;-;-;-;-;-
1511262821761;-;-;9.109222;0.39283752;1.6347198;-;-;-;-;-;-;-;-;-;-;-;-;-;-;-
1511262821782;-;-;9.052963;0.34735107;1.5952148;-;-;-;-;-;-;-;-;-;-;-;-;-;-;-
1511262821802;-;-;9.039795;0.35812378;1.6945801;-;-;-;-;-;-;-;-;-;-;-;-;-;-;-
1511262821822;-;-;9.056564;0.378479;1.7484436;-;-;-;-;-;-;-;-;-;-;-;-;-;-;-
1511262821843;-;-;9.076904;0.37727356;1.8238678;-;-;-;-;-;-;-;-;-;-;-;-;-;-;-
1511262821863;-;-;9.012268;0.3964386;1.8681641;-;-;-;-;-;-;-;-;-;-;-;-;-;-;-
1511262821883;-;-;9.064941;0.31861877;1.825058;-;-;-;-;-;-;-;-;-;-;-;-;-;-;-
1511262821903;-;-;9.118805;0.33059692;1.7388763;-;-;-;-;-;-;-;-;-;-;-;-;-;-;-
1511262821924;-;-;9.0577545;0.39404297;1.8095093;-;-;-;-;-;-;-;-;-;-;-;-;-;-;-
1511262821943;-;-;9.093674;0.39283752;1.7903442;-;-;-;-;-;-;-;-;-;-;-;-;-;-;-
1511262821963;-;-;9.035004;0.4084015;1.8621674;-;-;-;-;-;-;-;-;-;-;-;-;-;-;-
1511262821983;-;-;9.008667;0.4084015;1.7975311;-;-;-;-;-;-;-;-;-;-;-;-;-;-;-
1511262822004;-;-;9.013458;0.3964386;1.7939453;-;-;-;-;-;-;-;-;-;-;-;-;-;-;-
1511262822024;-;-;8.996704;0.37249756;1.7592316;-;-;-;-;-;-;-;-;-;-;-;-;-;-;-
1511262822044;-;-;9.045776;0.38685608;1.7484436;-;-;-;-;-;-;-;-;-;-;-;-;-;-;-
1511262822065;-;-;9.036209;0.35572815;1.7448578;-;-;-;-;-;-;-;-;-;-;-;-;-;-;-
1511262822085;-;-;9.041;0.37727356;1.7340851;-;-;-;-;-;-;-;-;-;-;-;-;-;-;-
1511262822105;-;-;9.070923;0.36650085;1.7747803;-;-;-;-;-;-;-;-;-;-;-;-;-;-;-
1511262822126;-;-;9.080505;0.36410522;1.7580261;-;-;-;-;-;-;-;-;-;-;-;-;-;-;-
1511262822146;-;-;9.06015;0.378479;1.7316895;-;-;-;-;-;-;-;-;-;-;-;-;-;-;-
1511262822166;-;-;9.051773;0.40242004;1.7604218;-;-;-;-;-;-;-;-;-;-;-;-;-;-;-
1511262822187;-;-;9.074509;0.39881897;1.7879486;-;-;-;-;-;-;-;-;-;-;-;-;-;-;-
1511262822207;-;-;9.026627;0.39881897;1.8609772;-;-;-;-;-;-;-;-;-;-;-;-;-;-;-
1511262822227;-;-;9.035004;0.39881897;1.9519501;-;-;-;-;-;-;-;-;-;-;-;-;-;-;-
1511262822247;-;-;9.06134;0.37727356;1.8849182;-;-;-;-;-;-;-;-;-;-;-;-;-;-;-
1511262822268;-;-;9.024231;0.34136963;1.8980865;-;-;-;-;-;-;-;-;-;-;-;-;-;-;-
1511262822288;-;-;9.037399;0.34735107;1.8669586;-;-;-;-;-;-;-;-;-;-;-;-;-;-;-
1511262822308;-;-;9.009872;0.38446045;1.8921051;-;-;-;-;-;-;-;-;-;-;-;-;-;-;-
1511262822329;-;-;9.050568;0.40242004;1.8154907;-;-;-;-;-;-;-;-;-;-;-;-;-;-;-
1511262822349;-;-;9.037399;0.38206482;1.7687988;-;-;-;-;-;-;-;-;-;-;-;-;-;-;-
1511262822369;-;-;9.050568;0.38206482;1.7616119;-;-;-;-;-;-;-;-;-;-;-;-;-;-;-
1511262822389;-;-;9.025436;0.3964386;1.801117;-;-;-;-;-;-;-;-;-;-;-;-;-;-;-
1511262822409;-;-;9.066132;0.37727356;1.8118896;-;-;-;-;-;-;-;-;-;-;-;-;-;-;-
1511262822429;-;-;9.064941;0.36291504;1.7580261;-;-;-;-;-;-;-;-;-;-;-;-;-;-;-
1511262822450;-;-;9.050568;0.3174286;1.7939453;-;-;-;-;-;-;-;-;-;-;-;-;-;-;-
1511262822470;-;-;9.080505;0.3569336;1.8526001;-;-;-;-;-;-;-;-;-;-;-;-;-;-;-
1511262822490;-;-;9.039795;0.39881897;1.8118896;-;-;-;-;-;-;-;-;-;-;-;-;-;-;-
1511262822511;-;-;9.024231;0.39283752;1.7628174;-;-;-;-;-;-;-;-;-;-;-;-;-;-;-
1511262822531;-;-;9.038605;0.3509369;1.7843628;-;-;-;-;-;-;-;-;-;-;-;-;-;-;-
1511262822551;-;-;9.003891;0.3461609;1.7903442;-;-;-;-;-;-;-;-;-;-;-;-;-;-;-
1511262822572;-;-;8.983536;0.36291504;1.8310547;-;-;-;-;-;-;-;-;-;-;-;-;-;-;-
1511262822592;-;-;9.030228;0.37608337;1.8083038;-;-;-;-;-;-;-;-;-;-;-;-;-;-;-
1511262822612;-;-;9.114014;0.2922821;1.7508392;-;-;-;-;-;-;-;-;-;-;-;-;-;-;-
1511262822632;-;-;9.122391;0.2695465;1.7364807;-;-;-;-;-;-;-;-;-;-;-;-;-;-;-
1511262822653;-;-;9.154724;0.3174286;1.6957703;-;-;-;-;-;-;-;-;-;-;-;-;-;-;-
1511262822672;-;-;9.130783;0.37010193;1.6957703;-;-;-;-;-;-;-;-;-;-;-;-;-;-;-
1511262822692;-;-;9.088882;0.41319275;1.7233124;-;-;-;-;-;-;-;-;-;-;-;-;-;-;-
1511262822712;-;-;9.032608;0.378479;1.796341;-;-;-;-;-;-;-;-;-;-;-;-;-;-;-
1511262822732;-;-;9.009872;0.40960693;1.820282;-;-;-;-;-;-;-;-;-;-;-;-;-;-;-
1511262822752;-;-;9.015854;0.37249756;1.7616119;-;-;-;-;-;-;-;-;-;-;-;-;-;-;-
1511262822772;-;-;9.054169;0.3497467;1.6443024;-;-;-;-;-;-;-;-;-;-;-;-;-;-;-
1511262822792;-;-;9.14035;0.31622314;1.6383209;-;-;-;-;-;-;-;-;-;-;-;-;-;-;-
1511262822813;-;-;9.104446;0.3497467;1.6838074;-;-;-;-;-;-;-;-;-;-;-;-;-;-;-
1511262822833;-;-;9.064941;0.34016418;1.7424622;-;-;-;-;-;-;-;-;-;-;-;-;-;-;-
1511262822854;-;-;9.037399;0.3317871;1.7687988;-;-;-;-;-;-;-;-;-;-;-;-;-;-;-
1511262822874;-;-;9.075714;0.34854126;1.7700043;-;-;-;-;-;-;-;-;-;-;-;-;-;-;-
1511262822894;-;-;9.046982;0.3317871;1.7328949;-;-;-;-;-;-;-;-;-;-;-;-;-;-;-
1511262822914;-;-;9.019455;0.338974;1.6873932;-;-;-;-;-;-;-;-;-;-;-;-;-;-;-
1511262822935;-;-;9.037399;0.30065918;1.6933899;-;-;-;-;-;-;-;-;-;-;-;-;-;-;-
1511262822955;-;-;9.099655;0.25875854;1.7077484;-;-;-;-;-;-;-;-;-;-;-;-;-;-;-
1511262822975;-;-;9.109222;0.32341003;1.6814117;-;-;-;-;-;-;-;-;-;-;-;-;-;-;-
1511262822996;-;-;9.0793;0.3904419;1.7233124;-;-;-;-;-;-;-;-;-;-;-;-;-;-;-
1511262823016;-;-;9.093674;0.4287567;1.7544403;-;-;-;-;-;-;-;-;-;-;-;-;-;-;-
1511262823036;-;-;9.067337;0.39881897;1.7364807;-;-;-;-;-;-;-;-;-;-;-;-;-;-;-
1511262823057;-;-;9.045776;0.36889648;1.7137299;-;-;-;-;-;-;-;-;-;-;-;-;-;-;-
1511262823077;-;-;9.042191;0.38565063;1.7316895;-;-;-;-;-;-;-;-;-;-;-;-;-;-;-
1511262823098;-;-;9.051773;0.38206482;1.6454926;-;-;-;-;-;-;-;-;-;-;-;-;-;-;-
1511262823118;-;-;9.033813;0.42636108;1.6443024;-;-;-;-;-;-;-;-;-;-;-;-;-;-;-
1511262823138;-;-;9.052963;0.39881897;1.7053528;-;-;-;-;-;-;-;-;-;-;-;-;-;-;-
1511262823158;-;-;9.049377;0.34495544;1.6538849;-;-;-;-;-;-;-;-;-;-;-;-;-;-;-
1511262823179;-;-;9.052963;0.3210144;1.6658478;-;-;-;-;-;-;-;-;-;-;-;-;-;-;-
1511262823199;-;-;9.062546;0.3677063;1.7029572;-;-;-;-;-;-;-;-;-;-;-;-;-;-;-
1511262823219;-;-;9.087677;0.32460022;1.7053528;-;-;-;-;-;-;-;-;-;-;-;-;-;-;-
1511262823240;-;-;9.080505;0.3509369;1.7532349;-;-;-;-;-;-;-;-;-;-;-;-;-;-;-
1511262823260;-;-;9.081696;0.32699585;1.7352753;-;-;-;-;-;-;-;-;-;-;-;-;-;-;-
1511262823280;-;-;9.068527;0.3317871;1.7125397;-;-;-;-;-;-;-;-;-;-;-;-;-;-;-
1511262823301;-;-;9.0972595;0.36531067;1.6921844;-;-;-;-;-;-;-;-;-;-;-;-;-;-;-
1511262823321;-;-;9.104446;0.34136963;1.6694489;-;-;-;-;-;-;-;-;-;-;-;-;-;-;-
1511262823341;-;-;9.072113;0.35572815;1.6335297;-;-;-;-;-;-;-;-;-;-;-;-;-;-;-
1511262823361;-;-;9.092468;0.3605194;1.6167755;-;-;-;-;-;-;-;-;-;-;-;-;-;-;-
1511262823381;-;-;9.072113;0.38206482;1.6167755;-;-;-;-;-;-;-;-;-;-;-;-;-;-;-
1511262823402;-;-;9.093674;0.38327026;1.6574707;-;-;-;-;-;-;-;-;-;-;-;-;-;-;-
1511262823422;-;-;9.093674;0.34016418;1.6036072;-;-;-;-;-;-;-;-;-;-;-;-;-;-;-
1511262823442;-;-;9.082901;0.3796692;1.6478882;-;-;-;-;-;-;-;-;-;-;-;-;-;-;-
1511262823463;-;-;9.06015;0.37368774;1.7292938;-;-;-;-;-;-;-;-;-;-;-;-;-;-;-
1511262823483;-;-;9.070923;0.3569336;1.7532349;-;-;-;-;-;-;-;-;-;-;-;-;-;-;-
1511262823504;-;-;9.038605;0.37487793;1.7173309;-;-;-;-;-;-;-;-;-;-;-;-;-;-;-
1511262823523;-;-;9.037399;0.3317871;1.6574707;-;-;-;-;-;-;-;-;-;-;-;-;-;-;-
1511262823543;-;-;9.07811;0.31503296;1.6826019;-;-;-;-;-;-;-;-;-;-;-;-;-;-;-
1511262823563;-;-;9.091278;0.31861877;1.6490936;-;-;-;-;-;-;-;-;-;-;-;-;-;-;-
1511262823584;-;-;9.070923;0.3138275;1.6514893;-;-;-;-;-;-;-;-;-;-;-;-;-;-;-
1511262823604;-;-;9.06134;0.3317871;1.6885986;-;-;-;-;-;-;-;-;-;-;-;-;-;-;-
1511262823625;-;-;9.054169;0.31503296;1.686203;-;-;-;-;-;-;-;-;-;-;-;-;-;-;-
1511262823645;-;-;9.0793;0.33537292;1.6550751;-;-;-;-;-;-;-;-;-;-;-;-;-;-;-
1511262823666;-;-;9.099655;0.30903625;1.6826019;-;-;-;-;-;-;-;-;-;-;-;-;-;-;-
1511262823685;-;-;9.074509;0.29348755;1.6730347;-;-;-;-;-;-;-;-;-;-;-;-;-;-;-
1511262823706;-;-;9.093674;0.34854126;1.7149353;-;-;-;-;-;-;-;-;-;-;-;-;-;-;-
1511262823726;-;-;9.062546;0.3282013;1.7209167;-;-;-;-;-;-;-;-;-;-;-;-;-;-;-
1511262823746;-;-;9.081696;0.34376526;1.7209167;-;-;-;-;-;-;-;-;-;-;-;-;-;-;-
1511262823767;-;-;9.102051;0.37487793;1.701767;-;-;-;-;-;-;-;-;-;-;-;-;-;-;-
1511262823787;-;-;9.0793;0.32580566;1.6945801;-;-;-;-;-;-;-;-;-;-;-;-;-;-;-
1511262823808;-;-;9.054169;0.32580566;1.6778259;-;-;-;-;-;-;-;-;-;-;-;-;-;-;-
1511262823828;-;-;9.049377;0.34136963;1.6766205;-;-;-;-;-;-;-;-;-;-;-;-;-;-;-
1511262823848;-;-;9.051773;0.3174286;1.686203;-;-;-;-;-;-;-;-;-;-;-;-;-;-;-
1511262823868;-;-;9.058945;0.34495544;1.6814117;-;-;-;-;-;-;-;-;-;-;-;-;-;-;-
1511262823889;-;-;9.075714;0.3138275;1.701767;-;-;-;-;-;-;-;-;-;-;-;-;-;-;-
1511262823909;-;-;9.064941;0.3497467;1.6754303;-;-;-;-;-;-;-;-;-;-;-;-;-;-;-
1511262823929;-;-;9.106842;0.3509369;1.7125397;-;-;-;-;-;-;-;-;-;-;-;-;-;-;-
1511262823950;-;-;9.111618;0.29588318;1.7281036;-;-;-;-;-;-;-;-;-;-;-;-;-;-;-
1511262823970;-;-;9.09845;0.29588318;1.7376709;-;-;-;-;-;-;-;-;-;-;-;-;-;-;-
1511262823990;-;-;9.075714;0.34136963;1.7376709;-;-;-;-;-;-;-;-;-;-;-;-;-;-;-
1511262824010;-;-;9.062546;0.3461609;1.7209167;-;-;-;-;-;-;-;-;-;-;-;-;-;-;-
1511262824031;-;-;9.037399;0.33418274;1.7197266;-;-;-;-;-;-;-;-;-;-;-;-;-;-;-
1511262824051;-;-;9.076904;0.35214233;1.7137299;-;-;-;-;-;-;-;-;-;-;-;-;-;-;-
1511262824071;-;-;9.087677;0.35214233;1.7316895;-;-;-;-;-;-;-;-;-;-;-;-;-;-;-
1511262824092;-;-;9.092468;0.36531067;1.7628174;-;-;-;-;-;-;-;-;-;-;-;-;-;-;-
1511262824112;-;-;9.046982;0.35932922;1.7568359;-;-;-;-;-;-;-;-;-;-;-;-;-;-;-
1511262824132;-;-;9.044586;0.36531067;1.7735901;-;-;-;-;-;-;-;-;-;-;-;-;-;-;-
1511262824153;-;-;9.041;0.32580566;1.7831726;-;-;-;-;-;-;-;-;-;-;-;-;-;-;-
1511262824173;-;-;9.087677;0.32699585;1.7460632;-;-;-;-;-;-;-;-;-;-;-;-;-;-;-
1511262824193;-;-;9.051773;0.3282013;1.7532349;-;-;-;-;-;-;-;-;-;-;-;-;-;-;-
1511262824213;-;-;9.042191;0.31263733;1.6921844;-;-;-;-;-;-;-;-;-;-;-;-;-;-;-
1511262824235;-;-;9.136765;0.33776855;1.6730347;-;-;-;-;-;-;-;-;-;-;-;-;-;-;-
1511262824254;-;-;9.125992;0.3317871;1.6933899;-;-;-;-;-;-;-;-;-;-;-;-;-;-;-
1511262824274;-;-;9.081696;0.32580566;1.7879486;-;-;-;-;-;-;-;-;-;-;-;-;-;-;-
1511262824295;-;-;9.052963;0.30784607;1.8418274;-;-;-;-;-;-;-;-;-;-;-;-;-;-;-
1511262824315;-;-;9.068527;0.35812378;1.801117;-;-;-;-;-;-;-;-;-;-;-;-;-;-;-
1511262824335;-;-;9.033813;0.33657837;1.7592316;-;-;-;-;-;-;-;-;-;-;-;-;-;-;-
1511262824355;-;-;9.070923;0.34136963;1.7292938;-;-;-;-;-;-;-;-;-;-;-;-;-;-;-
1511262824376;-;-;9.06015;0.3712921;1.7556305;-;-;-;-;-;-;-;-;-;-;-;-;-;-;-
1511262824396;-;-;9.037399;0.39523315;1.789154;-;-;-;-;-;-;-;-;-;-;-;-;-;-;-
1511262824417;-;-;9.081696;0.4000244;1.7328949;-;-;-;-;-;-;-;-;-;-;-;-;-;-;-
1511262824437;-;-;9.082901;0.35214233;1.7113342;-;-;-;-;-;-;-;-;-;-;-;-;-;-;-
1511262824458;-;-;9.067337;0.28271484;1.780777;-;-;-;-;-;-;-;-;-;-;-;-;-;-;-
1511262824478;-;-;9.066132;0.2803192;1.789154;-;-;-;-;-;-;-;-;-;-;-;-;-;-;-
1511262824498;-;-;9.055359;0.3102417;1.864563;-;-;-;-;-;-;-;-;-;-;-;-;-;-;-
1511262824518;-;-;9.056564;0.30784607;1.8095093;-;-;-;-;-;-;-;-;-;-;-;-;-;-;-
1511262824539;-;-;9.026627;0.36531067;1.8310547;-;-;-;-;-;-;-;-;-;-;-;-;-;-;-
1511262824559;-;-;9.025436;0.3317871;1.8777313;-;-;-;-;-;-;-;-;-;-;-;-;-;-;-
1511262824579;-;-;9.066132;0.3904419;1.923233;-;-;-;-;-;-;-;-;-;-;-;-;-;-;-
1511262824600;-;-;8.9991;0.3892517;1.9256134;-;-;-;-;-;-;-;-;-;-;-;-;-;-;-
1511262824620;-;-;8.990723;0.41319275;1.8897095;-;-;-;-;-;-;-;-;-;-;-;-;-;-;-
1511262824640;-;-;8.988327;0.43354797;1.899292;-;-;-;-;-;-;-;-;-;-;-;-;-;-;-
1511262824660;-;-;8.970367;0.44311523;1.8669586;-;-;-;-;-;-;-;-;-;-;-;-;-;-;-
1511262824681;-;-;9.00029;0.41677856;1.8849182;-;-;-;-;-;-;-;-;-;-;-;-;-;-;-
1511262824701;-;-;9.06134;0.4000244;1.8154907;-;-;-;-;-;-;-;-;-;-;-;-;-;-;-
1511262824721;-;-;9.074509;0.35812378;1.7616119;-;-;-;-;-;-;-;-;-;-;-;-;-;-;-
1511262824742;-;-;9.082901;0.3461609;1.7233124;-;-;-;-;-;-;-;-;-;-;-;-;-;-;-
1511262824762;-;-;9.093674;0.35572815;1.7388763;-;-;-;-;-;-;-;-;-;-;-;-;-;-;-
1511262824782;-;-;9.092468;0.30784607;1.7903442;-;-;-;-;-;-;-;-;-;-;-;-;-;-;-
1511262824802;-;-;9.046982;0.299469;1.8765411;-;-;-;-;-;-;-;-;-;-;-;-;-;-;-
1511262824823;-;-;9.0182495;0.32699585;1.8418274;-;-;-;-;-;-;-;-;-;-;-;-;-;-;-
1511262824843;-;-;9.005081;0.36410522;1.8298492;-;-;-;-;-;-;-;-;-;-;-;-;-;-;-
1511262824863;-;-;9.035004;0.35214233;1.8166809;-;-;-;-;-;-;-;-;-;-;-;-;-;-;-
1511262824883;-;-;9.0733185;0.35214233;1.8095093;-;-;-;-;-;-;-;-;-;-;-;-;-;-;-
1511262824903;-;-;9.039795;0.28630066;1.8178864;-;-;-;-;-;-;-;-;-;-;-;-;-;-;-
1511262824923;-;-;9.070923;0.3461609;1.8118896;-;-;-;-;-;-;-;-;-;-;-;-;-;-;-
1511262824944;-;-;9.056564;0.37010193;1.8382263;-;-;-;-;-;-;-;-;-;-;-;-;-;-;-
1511262824964;-;-;9.037399;0.35453796;1.8106995;-;-;-;-;-;-;-;-;-;-;-;-;-;-;-
1511262824984;-;-;9.055359;0.38565063;1.8310547;-;-;-;-;-;-;-;-;-;-;-;-;-;-;-
1511262825005;-;-;9.037399;0.38685608;1.8573914;-;-;-;-;-;-;-;-;-;-;-;-;-;-;-
1511262825024;-;-;9.049377;0.4012146;1.8178864;-;-;-;-;-;-;-;-;-;-;-;-;-;-;-
1511262825044;-;-;9.044586;0.38206482;1.8346405;-;-;-;-;-;-;-;-;-;-;-;-;-;-;-
1511262825065;-;-;9.029022;0.34136963;1.7867584;-;-;-;-;-;-;-;-;-;-;-;-;-;-;-
1511262825085;-;-;9.069733;0.3425598;1.7831726;-;-;-;-;-;-;-;-;-;-;-;-;-;-;-
1511262825105;-;-;9.076904;0.3425598;1.765213;-;-;-;-;-;-;-;-;-;-;-;-;-;-;-
1511262825126;-;-;9.076904;0.32460022;1.7556305;-;-;-;-;-;-;-;-;-;-;-;-;-;-;-
1511262825146;-;-;9.041;0.3102417;1.8178864;-;-;-;-;-;-;-;-;-;-;-;-;-;-;-
1511262825166;-;-;9.011063;0.33059692;1.8932953;-;-;-;-;-;-;-;-;-;-;-;-;-;-;-
1511262825186;-;-;9.035004;0.32460022;1.923233;-;-;-;-;-;-;-;-;-;-;-;-;-;-;-
1511262825207;-;-;9.055359;0.3282013;1.8753357;-;-;-;-;-;-;-;-;-;-;-;-;-;-;-
1511262825227;-;-;9.070923;0.33776855;1.796341;-;-;-;-;-;-;-;-;-;-;-;-;-;-;-
1511262825248;-;-;9.054169;0.33059692;1.8298492;-;-;-;-;-;-;-;-;-;-;-;-;-;-;-
1511262825268;-;-;9.049377;0.338974;1.8502045;-;-;-;-;-;-;-;-;-;-;-;-;-;-;-
1511262825288;-;-;9.055359;0.36650085;1.8454132;-;-;-;-;-;-;-;-;-;-;-;-;-;-;-
1511262825309;-;-;9.031418;0.37368774;1.804718;-;-;-;-;-;-;-;-;-;-;-;-;-;-;-
1511262825329;-;-;9.046982;0.35333252;1.8142853;-;-;-;-;-;-;-;-;-;-;-;-;-;-;-
1511262825349;-;-;9.044586;0.3282013;1.8238678;-;-;-;-;-;-;-;-;-;-;-;-;-;-;-
1511262825369;-;-;9.070923;0.32699585;1.859787;-;-;-;-;-;-;-;-;-;-;-;-;-;-;-
1511262825390;-;-;9.072113;0.3317871;1.8334503;-;-;-;-;-;-;-;-;-;-;-;-;-;-;-
1511262825410;-;-;9.103241;0.3605194;1.8346405;-;-;-;-;-;-;-;-;-;-;-;-;-;-;-
1511262825430;-;-;9.048172;0.34136963;1.8478088;-;-;-;-;-;-;-;-;-;-;-;-;-;-;-
1511262825451;-;-;9.035004;0.31622314;1.8825226;-;-;-;-;-;-;-;-;-;-;-;-;-;-;-
1511262825471;-;-;9.032608;0.31982422;1.8633728;-;-;-;-;-;-;-;-;-;-;-;-;-;-;-
1511262825491;-;-;9.00029;0.3497467;1.880127;-;-;-;-;-;-;-;-;-;-;-;-;-;-;-
1511262825511;-;-;9.0182495;0.31622314;1.8561859;-;-;-;-;-;-;-;-;-;-;-;-;-;-;-
1511262825532;-;-;9.024231;0.3425598;1.9136505;-;-;-;-;-;-;-;-;-;-;-;-;-;-;-
1511262825552;-;-;9.055359;0.34016418;1.8873138;-;-;-;-;-;-;-;-;-;-;-;-;-;-;-
1511262825573;-;-;9.038605;0.31861877;1.8585815;-;-;-;-;-;-;-;-;-;-;-;-;-;-;-
1511262825593;-;-;9.072113;0.3210144;1.8777313;-;-;-;-;-;-;-;-;-;-;-;-;-;-;-
1511262825613;-;-;9.038605;0.3210144;1.8526001;-;-;-;-;-;-;-;-;-;-;-;-;-;-;-
1511262825634;-;-;9.054169;0.3509369;1.8765411;-;-;-;-;-;-;-;-;-;-;-;-;-;-;-
1511262825654;-;-;9.006287;0.36889648;1.883728;-;-;-;-;-;-;-;-;-;-;-;-;-;-;-
1511262825674;-;-;9.023041;0.32341003;1.859787;-;-;-;-;-;-;-;-;-;-;-;-;-;-;-
1511262825695;-;-;9.0182495;0.33776855;1.8813324;-;-;-;-;-;-;-;-;-;-;-;-;-;-;-
1511262825715;-;-;9.075714;0.32460022;1.7987213;-;-;-;-;-;-;-;-;-;-;-;-;-;-;-
1511262825735;-;-;9.039795;0.32939148;1.8083038;-;-;-;-;-;-;-;-;-;-;-;-;-;-;-
1511262825756;-;-;9.052963;0.32341003;1.8382263;-;-;-;-;-;-;-;-;-;-;-;-;-;-;-
1511262825776;-;-;9.09845;0.3569336;1.820282;-;-;-;-;-;-;-;-;-;-;-;-;-;-;-
1511262825796;-;-;9.045776;0.3497467;1.8274536;-;-;-;-;-;-;-;-;-;-;-;-;-;-;-
1511262825817;-;-;9.006287;0.31622314;1.8861237;-;-;-;-;-;-;-;-;-;-;-;-;-;-;-
1511262825836;-;-;9.026627;0.34735107;1.8693542;-;-;-;-;-;-;-;-;-;-;-;-;-;-;-
1511262825856;-;-;9.021835;0.36410522;1.8526001;-;-;-;-;-;-;-;-;-;-;-;-;-;-;-
1511262825876;-;-;9.041;0.28988647;1.8693542;-;-;-;-;-;-;-;-;-;-;-;-;-;-;-
1511262825897;-;-;9.064941;0.30545044;1.8310547;-;-;-;-;-;-;-;-;-;-;-;-;-;-;-
1511262825917;-;-;9.050568;0.33776855;1.883728;-;-;-;-;-;-;-;-;-;-;-;-;-;-;-
1511262825937;-;-;9.044586;0.33657837;1.8681641;-;-;-;-;-;-;-;-;-;-;-;-;-;-;-
1511262825958;-;-;9.029022;0.32699585;1.8226776;-;-;-;-;-;-;-;-;-;-;-;-;-;-;-
1511262825978;-;-;9.041;0.30545044;1.8083038;-;-;-;-;-;-;-;-;-;-;-;-;-;-;-
1511262825998;-;-;9.00029;0.29588318;1.8035126;-;-;-;-;-;-;-;-;-;-;-;-;-;-;-
1511262826018;-;-;9.0182495;0.35812378;1.8262634;-;-;-;-;-;-;-;-;-;-;-;-;-;-;-
1511262826039;-;-;9.076904;0.35572815;1.7843628;-;-;-;-;-;-;-;-;-;-;-;-;-;-;-
1511262826059;-;-;9.046982;0.32699585;1.8071136;-;-;-;-;-;-;-;-;-;-;-;-;-;-;-
1511262826079;-;-;9.036209;0.3317871;1.8394318;-;-;-;-;-;-;-;-;-;-;-;-;-;-;-
1511262826100;-;-;9.029022;0.35333252;1.880127;-;-;-;-;-;-;-;-;-;-;-;-;-;-;-
1511262826120;-;-;9.031418;0.33537292;1.9088593;-;-;-;-;-;-;-;-;-;-;-;-;-;-;-
1511262826140;-;-;9.031418;0.34854126;1.8849182;-;-;-;-;-;-;-;-;-;-;-;-;-;-;-
1511262826161;-;-;9.035004;0.34016418;1.8226776;-;-;-;-;-;-;-;-;-;-;-;-;-;-;-
1511262826181;-;-;9.104446;0.378479;1.6981659;-;-;-;-;-;-;-;-;-;-;-;-;-;-;-
1511262826202;-;-;9.085281;0.34735107;1.710144;-;-;-;-;-;-;-;-;-;-;-;-;-;-;-
1511262826222;-;-;9.085281;0.33299255;1.7029572;-;-;-;-;-;-;-;-;-;-;-;-;-;-;-
1511262826242;-;-;9.038605;0.33059692;1.7316895;-;-;-;-;-;-;-;-;-;-;-;-;-;-;-
1511262826263;-;-;8.995499;0.29826355;1.7508392;-;-;-;-;-;-;-;-;-;-;-;-;-;-;-
1511262826283;-;-;9.066132;0.32580566;1.7508392;-;-;-;-;-;-;-;-;-;-;-;-;-;-;-
1511262826303;-;-;9.09845;0.26715088;1.6730347;-;-;-;-;-;-;-;-;-;-;-;-;-;-;-
1511262826323;-;-;9.12001;0.2850952;1.6897888;-;-;-;-;-;-;-;-;-;-;-;-;-;-;-
1511262826344;-;-;9.109222;0.27552795;1.6778259;-;-;-;-;-;-;-;-;-;-;-;-;-;-;-
1511262826364;-;-;9.069733;0.30665588;1.701767;-;-;-;-;-;-;-;-;-;-;-;-;-;-;-
1511262826384;-;-;9.066132;0.31263733;1.6838074;-;-;-;-;-;-;-;-;-;-;-;-;-;-;-
1511262826405;-;-;9.050568;0.30903625;1.646698;-;-;-;-;-;-;-;-;-;-;-;-;-;-;-
1511262826425;-;-;9.086487;0.27552795;1.583252;-;-;-;-;-;-;-;-;-;-;-;-;-;-;-
1511262826445;-;-;9.075714;0.29707336;1.607193;-;-;-;-;-;-;-;-;-;-;-;-;-;-;-
1511262826466;-;-;9.1128235;0.32580566;1.6012115;-;-;-;-;-;-;-;-;-;-;-;-;-;-;-
1511262826486;-;-;9.137955;0.28749084;1.4826965;-;-;-;-;-;-;-;-;-;-;-;-;-;-;-
1511262826506;-;-;9.173874;0.27192688;1.4611511;-;-;-;-;-;-;-;-;-;-;-;-;-;-;-
1511262826527;-;-;9.1128235;0.2527771;1.5198059;-;-;-;-;-;-;-;-;-;-;-;-;-;-;-
1511262826548;-;-;9.096069;0.25398254;1.5257874;-;-;-;-;-;-;-;-;-;-;-;-;-;-;-
1511262826569;-;-;9.051773;0.26235962;1.622757;-;-;-;-;-;-;-;-;-;-;-;-;-;-;-
1511262826589;-;-;9.024231;0.3102417;1.6419067;-;-;-;-;-;-;-;-;-;-;-;-;-;-;-
1511262826610;-;-;9.032608;0.30545044;1.6000061;-;-;-;-;-;-;-;-;-;-;-;-;-;-;-
1511262826630;-;-;9.09845;0.30065918;1.5736694;-;-;-;-;-;-;-;-;-;-;-;-;-;-;-
1511262826650;-;-;9.127182;0.2850952;1.5868378;-;-;-;-;-;-;-;-;-;-;-;-;-;-;-
1511262826671;-;-;9.130783;0.28390503;1.631134;-;-;-;-;-;-;-;-;-;-;-;-;-;-;-
1511262826691;-;-;9.133179;0.2850952;1.6167755;-;-;-;-;-;-;-;-;-;-;-;-;-;-;-
1511262826711;-;-;9.0733185;0.30665588;1.6203613;-;-;-;-;-;-;-;-;-;-;-;-;-;-;-
1511262826731;-;-;9.082901;0.29588318;1.631134;-;-;-;-;-;-;-;-;-;-;-;-;-;-;-
1511262826752;-;-;9.062546;0.26594543;1.6323242;-;-;-;-;-;-;-;-;-;-;-;-;-;-;-
1511262826772;-;-;9.074509;0.26475525;1.5856476;-;-;-;-;-;-;-;-;-;-;-;-;-;-;-
1511262826792;-;-;9.07811;0.299469;1.6095886;-;-;-;-;-;-;-;-;-;-;-;-;-;-;-
1511262826812;-;-;9.076904;0.3210144;1.6024017;-;-;-;-;-;-;-;-;-;-;-;-;-;-;-
1511262826833;-;-;9.106842;0.33537292;1.6000061;-;-;-;-;-;-;-;-;-;-;-;-;-;-;-
1511262826853;-;-;9.130783;0.30426025;1.6275482;-;-;-;-;-;-;-;-;-;-;-;-;-;-;-
1511262826874;-;-;9.0577545;0.3138275;1.6730347;-;-;-;-;-;-;-;-;-;-;-;-;-;-;-
1511262826894;-;-;9.066132;0.29588318;1.6658478;-;-;-;-;-;-;-;-;-;-;-;-;-;-;-
1511262826914;-;-;9.085281;0.29467773;1.6897888;-;-;-;-;-;-;-;-;-;-;-;-;-;-;-
1511262826934;-;-;9.099655;0.25038147;1.6849976;-;-;-;-;-;-;-;-;-;-;-;-;-;-;-
1511262826955;-;-;9.0972595;0.27671814;1.6024017;-;-;-;-;-;-;-;-;-;-;-;-;-;-;-
1511262826975;-;-;9.072113;0.2300415;1.6682434;-;-;-;-;-;-;-;-;-;-;-;-;-;-;-
1511262826995;-;-;9.100845;0.25517273;1.6646576;-;-;-;-;-;-;-;-;-;-;-;-;-;-;-
1511262827015;-;-;9.096069;0.25875854;1.6395111;-;-;-;-;-;-;-;-;-;-;-;-;-;-;-
1511262827035;-;-;9.044586;0.27792358;1.6933899;-;-;-;-;-;-;-;-;-;-;-;-;-;-;-
1511262827056;-;-;9.058945;0.2635498;1.7137299;-;-;-;-;-;-;-;-;-;-;-;-;-;-;-
1511262827076;-;-;9.046982;0.25038147;1.7364807;-;-;-;-;-;-;-;-;-;-;-;-;-;-;-
1511262827096;-;-;9.050568;0.2886963;1.7173309;-;-;-;-;-;-;-;-;-;-;-;-;-;-;-
1511262827116;-;-;9.0577545;0.2815094;1.6502838;-;-;-;-;-;-;-;-;-;-;-;-;-;-;-
1511262827137;-;-;9.094864;0.27792358;1.6275482;-;-;-;-;-;-;-;-;-;-;-;-;-;-;-
1511262827157;-;-;9.0972595;0.33418274;1.646698;-;-;-;-;-;-;-;-;-;-;-;-;-;-;-
