TimeStamp[ms];Prox[Cm];Lux[lux];AccX[m/s^2];AccY[m/s^2];AccZ[m/s^2];GyroX[rad/s];GyroY[rad/s];GyroZ[rad/s];MagnX[uT];MagnY[uT];MagnZ[uT];OrienYaw[degrees];OrienPitch[degrees];OrienRoll[degrees];Press[Pa];Temp[C°];Batt[%];Lat;Lng;Speed[m/s]
1511264203949;-;-;9.117615;1.4833984;-1.6082153;-;-;-;-;-;-;-;-;-;-;-;-;-;-;-
1511264203949;-;-;9.117615;1.4833984;-1.6082153;-;-;-;-;-;-;-;-;-;-;-;-;-;-;-
1511264203969;-;-;9.104446;1.4798126;-1.5998383;-;-;-;-;-;-;-;-;-;-;-;-;-;-;-
1511264203989;-;-;8.891357;1.5839539;-1.4490051;-;-;-;-;-;-;-;-;-;-;-;-;-;-;-
1511264204009;-;-;8.946426;1.4881897;-1.5136566;-;-;-;-;-;-;-;-;-;-;-;-;-;-;-
1511264204029;-;-;8.928467;1.6940918;-1.574707;-;-;-;-;-;-;-;-;-;-;-;-;-;-;-
1511264204050;-;-;9.385757;1.5600128;-1.590271;-;-;-;-;-;-;-;-;-;-;-;-;-;-;-
1511264204070;-;-;8.892548;0.872879;-1.0958557;-;-;-;-;-;-;-;-;-;-;-;-;-;-;-
1511264204090;-;-;9.500687;1.1793365;-2.0319977;-;-;-;-;-;-;-;-;-;-;-;-;-;-;-
1511264204110;-;-;9.293579;1.4762115;-1.8643951;-;-;-;-;-;-;-;-;-;-;-;-;-;-;-
1511264204131;-;-;8.84227;1.7934418;-1.3328857;-;-;-;-;-;-;-;-;-;-;-;-;-;-;-
1511264204152;-;-;8.905716;1.892807;-1.5651245;-;-;-;-;-;-;-;-;-;-;-;-;-;-;-
1511264204172;-;-;8.825516;1.3313751;-1.3161316;-;-;-;-;-;-;-;-;-;-;-;-;-;-;-
1511264204195;-;-;9.209793;1.1182861;-1.2778168;-;-;-;-;-;-;-;-;-;-;-;-;-;-;-
1511264204213;-;-;9.043396;1.532486;-1.9086914;-;-;-;-;-;-;-;-;-;-;-;-;-;-;-
1511264204233;-;-;9.130783;1.1158905;-1.1030426;-;-;-;-;-;-;-;-;-;-;-;-;-;-;-
1511264204254;-;-;8.606445;1.5109406;-1.7195587;-;-;-;-;-;-;-;-;-;-;-;-;-;-;-
1511264204274;-;-;9.233734;1.1278534;-1.0048828;-;-;-;-;-;-;-;-;-;-;-;-;-;-;-
1511264204295;-;-;9.021835;1.5348816;-1.5387878;-;-;-;-;-;-;-;-;-;-;-;-;-;-;-
1511264204315;-;-;9.284012;1.0261078;-1.9386139;-;-;-;-;-;-;-;-;-;-;-;-;-;-;-
1511264204336;-;-;9.187042;1.0763855;-1.1210022;-;-;-;-;-;-;-;-;-;-;-;-;-;-;-
1511264204355;-;-;9.358231;1.0608215;-1.1892395;-;-;-;-;-;-;-;-;-;-;-;-;-;-;-
1511264204376;-;-;8.789597;1.1051178;-1.3269043;-;-;-;-;-;-;-;-;-;-;-;-;-;-;-
1511264204396;-;-;6.2110443;2.1513824;-1.2957764;-;-;-;-;-;-;-;-;-;-;-;-;-;-;-
1511264204417;-;-;8.6423645;1.382843;-1.069519;-;-;-;-;-;-;-;-;-;-;-;-;-;-;-
1511264204437;-;-;10.28598;1.0787811;-1.6560974;-;-;-;-;-;-;-;-;-;-;-;-;-;-;-
1511264204458;-;-;10.06572;1.0320892;-1.5052643;-;-;-;-;-;-;-;-;-;-;-;-;-;-;-
1511264204478;-;-;9.336685;1.1972961;-1.5339966;-;-;-;-;-;-;-;-;-;-;-;-;-;-;-
1511264204498;-;-;8.624405;1.3481293;-1.3604279;-;-;-;-;-;-;-;-;-;-;-;-;-;-;-
1511264204519;-;-;8.522644;1.4019928;-1.2095795;-;-;-;-;-;-;-;-;-;-;-;-;-;-;-
1511264204539;-;-;8.890167;1.2954559;-1.3831635;-;-;-;-;-;-;-;-;-;-;-;-;-;-;-
1511264204559;-;-;9.142746;1.2032776;-1.4861145;-;-;-;-;-;-;-;-;-;-;-;-;-;-;-
1511264204580;-;-;9.261261;1.2858734;-1.4645691;-;-;-;-;-;-;-;-;-;-;-;-;-;-;-
1511264204600;-;-;9.212173;1.3445435;-1.4609833;-;-;-;-;-;-;-;-;-;-;-;-;-;-;-
1511264204620;-;-;9.067337;1.3780518;-1.4442139;-;-;-;-;-;-;-;-;-;-;-;-;-;-;-
1511264204641;-;-;8.945221;1.3948212;-1.4142914;-;-;-;-;-;-;-;-;-;-;-;-;-;-;-
1511264204661;-;-;8.976349;1.3684845;-1.4023132;-;-;-;-;-;-;-;-;-;-;-;-;-;-;-
1511264204681;-;-;9.036209;1.2810822;-1.3963318;-;-;-;-;-;-;-;-;-;-;-;-;-;-;-
1511264204701;-;-;8.997894;1.2954559;-1.4250641;-;-;-;-;-;-;-;-;-;-;-;-;-;-;-
1511264204722;-;-;8.975159;1.2715149;-1.4514008;-;-;-;-;-;-;-;-;-;-;-;-;-;-;-
1511264204742;-;-;8.973953;1.3086243;-1.4107056;-;-;-;-;-;-;-;-;-;-;-;-;-;-;-
1511264204762;-;-;8.988327;1.2906647;-1.3831635;-;-;-;-;-;-;-;-;-;-;-;-;-;-;-
1511264204783;-;-;8.987122;1.3325653;-1.4059143;-;-;-;-;-;-;-;-;-;-;-;-;-;-;-
1511264204804;-;-;9.019455;1.3289795;-1.392746;-;-;-;-;-;-;-;-;-;-;-;-;-;-;-
1511264204824;-;-;9.006287;1.3026428;-1.3436584;-;-;-;-;-;-;-;-;-;-;-;-;-;-;-
1511264204844;-;-;9.012268;1.2774963;-1.377182;-;-;-;-;-;-;-;-;-;-;-;-;-;-;-
1511264204865;-;-;9.048172;1.2846832;-1.4130859;-;-;-;-;-;-;-;-;-;-;-;-;-;-;-
1511264204885;-;-;9.019455;1.2930603;-1.4047089;-;-;-;-;-;-;-;-;-;-;-;-;-;-;-
1511264204905;-;-;9.009872;1.3182068;-1.3436584;-;-;-;-;-;-;-;-;-;-;-;-;-;-;-
1511264204926;-;-;8.984726;1.3445435;-1.3747864;-;-;-;-;-;-;-;-;-;-;-;-;-;-;-
1511264204945;-;-;8.9991;1.3529205;-1.392746;-;-;-;-;-;-;-;-;-;-;-;-;-;-;-
1511264204965;-;-;9.045776;1.3325653;-1.3640137;-;-;-;-;-;-;-;-;-;-;-;-;-;-;-
1511264204986;-;-;9.038605;1.3014374;-1.3735962;-;-;-;-;-;-;-;-;-;-;-;-;-;-;-
1511264205006;-;-;9.013458;1.3134155;-1.392746;-;-;-;-;-;-;-;-;-;-;-;-;-;-;-
1511264205026;-;-;8.993118;1.3768616;-1.4035187;-;-;-;-;-;-;-;-;-;-;-;-;-;-;-
1511264205047;-;-;8.9991;1.3960114;-1.456192;-;-;-;-;-;-;-;-;-;-;-;-;-;-;-
1511264205067;-;-;9.036209;1.3636932;-1.4286499;-;-;-;-;-;-;-;-;-;-;-;-;-;-;-
1511264205087;-;-;9.090073;1.3780518;-1.4537964;-;-;-;-;-;-;-;-;-;-;-;-;-;-;-
1511264205108;-;-;9.043396;1.3229828;-1.4286499;-;-;-;-;-;-;-;-;-;-;-;-;-;-;-
1511264205128;-;-;9.003891;1.3493195;-1.3628082;-;-;-;-;-;-;-;-;-;-;-;-;-;-;-
1511264205148;-;-;8.993118;1.3265839;-1.4549866;-;-;-;-;-;-;-;-;-;-;-;-;-;-;-
1511264205168;-;-;9.001495;1.3505249;-1.3915405;-;-;-;-;-;-;-;-;-;-;-;-;-;-;-
1511264205189;-;-;9.012268;1.382843;-1.3807678;-;-;-;-;-;-;-;-;-;-;-;-;-;-;-
1511264205209;-;-;9.033813;1.4019928;-1.3735962;-;-;-;-;-;-;-;-;-;-;-;-;-;-;-
1511264205230;-;-;9.029022;1.3720703;-1.3269043;-;-;-;-;-;-;-;-;-;-;-;-;-;-;-
1511264205250;-;-;9.0182495;1.4235382;-1.3496399;-;-;-;-;-;-;-;-;-;-;-;-;-;-;-
1511264205270;-;-;9.042191;1.3457336;-1.3029633;-;-;-;-;-;-;-;-;-;-;-;-;-;-;-
1511264205290;-;-;8.993118;1.3804474;-1.3592224;-;-;-;-;-;-;-;-;-;-;-;-;-;-;-
1511264205311;-;-;8.970367;1.3565063;-1.3843689;-;-;-;-;-;-;-;-;-;-;-;-;-;-;-
1511264205331;-;-;8.98114;1.3924255;-1.3843689;-;-;-;-;-;-;-;-;-;-;-;-;-;-;-
1511264205351;-;-;9.068527;1.3876343;-1.3460541;-;-;-;-;-;-;-;-;-;-;-;-;-;-;-
1511264205371;-;-;9.008667;1.374466;-1.3795776;-;-;-;-;-;-;-;-;-;-;-;-;-;-;-
1511264205392;-;-;8.990723;1.3636932;-1.3436584;-;-;-;-;-;-;-;-;-;-;-;-;-;-;-
1511264205412;-;-;8.97995;1.4271393;-1.298172;-;-;-;-;-;-;-;-;-;-;-;-;-;-;-
1511264205433;-;-;8.935654;1.4031982;-1.3065491;-;-;-;-;-;-;-;-;-;-;-;-;-;-;-
1511264205453;-;-;9.013458;1.3936157;-1.3484497;-;-;-;-;-;-;-;-;-;-;-;-;-;-;-
1511264205473;-;-;9.0793;1.4450989;-1.3424683;-;-;-;-;-;-;-;-;-;-;-;-;-;-;-
1511264205493;-;-;9.087677;1.4295349;-1.2562714;-;-;-;-;-;-;-;-;-;-;-;-;-;-;-
1511264205514;-;-;9.103241;1.4474792;-1.3005676;-;-;-;-;-;-;-;-;-;-;-;-;-;-;-
1511264205533;-;-;9.066132;1.358902;-1.3245087;-;-;-;-;-;-;-;-;-;-;-;-;-;-;-
1511264205553;-;-;9.039795;1.3110199;-1.2897949;-;-;-;-;-;-;-;-;-;-;-;-;-;-;-
1511264205574;-;-;8.975159;1.2727051;-1.2909851;-;-;-;-;-;-;-;-;-;-;-;-;-;-;-
1511264205593;-;-;8.987122;1.2619324;-1.3053589;-;-;-;-;-;-;-;-;-;-;-;-;-;-;-
1511264205613;-;-;8.960785;1.319397;-1.2838135;-;-;-;-;-;-;-;-;-;-;-;-;-;-;-
1511264205634;-;-;9.0182495;1.3182068;-1.3125305;-;-;-;-;-;-;-;-;-;-;-;-;-;-;-
1511264205654;-;-;9.063736;1.382843;-1.3496399;-;-;-;-;-;-;-;-;-;-;-;-;-;-;-
1511264205674;-;-;9.105637;1.3529205;-1.3269043;-;-;-;-;-;-;-;-;-;-;-;-;-;-;-
1511264205694;-;-;9.070923;1.3074188;-1.2885895;-;-;-;-;-;-;-;-;-;-;-;-;-;-;-
1511264205715;-;-;9.002686;1.3182068;-1.2598572;-;-;-;-;-;-;-;-;-;-;-;-;-;-;-
1511264205735;-;-;8.994308;1.3050385;-1.3484497;-;-;-;-;-;-;-;-;-;-;-;-;-;-;-
1511264205755;-;-;9.015854;1.2906647;-1.3628082;-;-;-;-;-;-;-;-;-;-;-;-;-;-;-
1511264205776;-;-;9.036209;1.3241882;-1.3185272;-;-;-;-;-;-;-;-;-;-;-;-;-;-;-
1511264205796;-;-;9.037399;1.3876343;-1.3448639;-;-;-;-;-;-;-;-;-;-;-;-;-;-;-
1511264205816;-;-;9.048172;1.3481293;-1.2646484;-;-;-;-;-;-;-;-;-;-;-;-;-;-;-
1511264205836;-;-;9.039795;1.2739105;-1.203598;-;-;-;-;-;-;-;-;-;-;-;-;-;-;-
1511264205857;-;-;9.033813;1.2200317;-1.2071991;-;-;-;-;-;-;-;-;-;-;-;-;-;-;-
1511264205877;-;-;9.006287;1.3182068;-1.2335358;-;-;-;-;-;-;-;-;-;-;-;-;-;-;-
1511264205897;-;-;9.046982;1.3529205;-1.2443085;-;-;-;-;-;-;-;-;-;-;-;-;-;-;-
1511264205918;-;-;9.033813;1.3505249;-1.2802124;-;-;-;-;-;-;-;-;-;-;-;-;-;-;-
1511264205938;-;-;9.020645;1.3529205;-1.3041534;-;-;-;-;-;-;-;-;-;-;-;-;-;-;-
1511264205958;-;-;8.988327;1.3229828;-1.3125305;-;-;-;-;-;-;-;-;-;-;-;-;-;-;-
1511264205979;-;-;9.011063;1.3182068;-1.2790222;-;-;-;-;-;-;-;-;-;-;-;-;-;-;-
1511264205999;-;-;9.011063;1.3385468;-1.3520355;-;-;-;-;-;-;-;-;-;-;-;-;-;-;-
1511264206019;-;-;9.048172;1.3624878;-1.4430237;-;-;-;-;-;-;-;-;-;-;-;-;-;-;-
1511264206040;-;-;9.042191;1.3768616;-1.4047089;-;-;-;-;-;-;-;-;-;-;-;-;-;-;-
1511264206059;-;-;9.037399;1.4031982;-1.3460541;-;-;-;-;-;-;-;-;-;-;-;-;-;-;-
1511264206079;-;-;9.043396;1.3972015;-1.353241;-;-;-;-;-;-;-;-;-;-;-;-;-;-;-
1511264206100;-;-;8.97995;1.4055939;-1.3113403;-;-;-;-;-;-;-;-;-;-;-;-;-;-;-
1511264206120;-;-;9.0182495;1.4031982;-1.2909851;-;-;-;-;-;-;-;-;-;-;-;-;-;-;-
1511264206140;-;-;9.075714;1.3708649;-1.2957764;-;-;-;-;-;-;-;-;-;-;-;-;-;-;-
1511264206161;-;-;9.091278;1.327774;-1.2275391;-;-;-;-;-;-;-;-;-;-;-;-;-;-;-
1511264206181;-;-;9.030228;1.3349609;-1.3017578;-;-;-;-;-;-;-;-;-;-;-;-;-;-;-
1511264206201;-;-;9.029022;1.3253784;-1.274231;-;-;-;-;-;-;-;-;-;-;-;-;-;-;-
1511264206221;-;-;9.081696;1.2918701;-1.2610626;-;-;-;-;-;-;-;-;-;-;-;-;-;-;-
1511264206242;-;-;9.111618;1.2858734;-1.2502899;-;-;-;-;-;-;-;-;-;-;-;-;-;-;-
1511264206262;-;-;9.011063;1.3505249;-1.1904297;-;-;-;-;-;-;-;-;-;-;-;-;-;-;-
1511264206282;-;-;8.904526;1.3098145;-1.282608;-;-;-;-;-;-;-;-;-;-;-;-;-;-;-
1511264206303;-;-;8.934448;1.2727051;-1.2838135;-;-;-;-;-;-;-;-;-;-;-;-;-;-;-
1511264206323;-;-;9.036209;1.2918701;-1.3304901;-;-;-;-;-;-;-;-;-;-;-;-;-;-;-
1511264206343;-;-;9.160706;1.3002472;-1.3412628;-;-;-;-;-;-;-;-;-;-;-;-;-;-;-
1511264206364;-;-;9.151123;1.2439728;-1.2275391;-;-;-;-;-;-;-;-;-;-;-;-;-;-;-
1511264206384;-;-;9.086487;1.2870789;-1.1509247;-;-;-;-;-;-;-;-;-;-;-;-;-;-;-
1511264206404;-;-;9.033813;1.3325653;-1.2574768;-;-;-;-;-;-;-;-;-;-;-;-;-;-;-
1511264206425;-;-;8.983536;1.3397522;-1.1964111;-;-;-;-;-;-;-;-;-;-;-;-;-;-;-
1511264206445;-;-;8.9787445;1.4008026;-1.2335358;-;-;-;-;-;-;-;-;-;-;-;-;-;-;-
1511264206466;-;-;9.115219;1.3565063;-1.2490845;-;-;-;-;-;-;-;-;-;-;-;-;-;-;-
1511264206486;-;-;9.131973;1.2774963;-1.2490845;-;-;-;-;-;-;-;-;-;-;-;-;-;-;-
1511264206506;-;-;8.984726;1.2571411;-1.1856384;-;-;-;-;-;-;-;-;-;-;-;-;-;-;-
1511264206526;-;-;8.957199;1.3098145;-1.2024078;-;-;-;-;-;-;-;-;-;-;-;-;-;-;-
1511264206547;-;-;8.955994;1.2990417;-1.2251434;-;-;-;-;-;-;-;-;-;-;-;-;-;-;-
1511264206566;-;-;9.0182495;1.3182068;-1.2514801;-;-;-;-;-;-;-;-;-;-;-;-;-;-;-
1511264206586;-;-;9.062546;1.2379913;-1.2969818;-;-;-;-;-;-;-;-;-;-;-;-;-;-;-
1511264206607;-;-;9.087677;1.2032776;-1.1868439;-;-;-;-;-;-;-;-;-;-;-;-;-;-;-
1511264206627;-;-;9.009872;1.2296143;-1.148529;-;-;-;-;-;-;-;-;-;-;-;-;-;-;-
1511264206648;-;-;9.046982;1.3313751;-1.164093;-;-;-;-;-;-;-;-;-;-;-;-;-;-;-
1511264206668;-;-;9.0577545;1.4295349;-1.1724701;-;-;-;-;-;-;-;-;-;-;-;-;-;-;-
1511264206688;-;-;9.135559;1.4833984;-1.2095795;-;-;-;-;-;-;-;-;-;-;-;-;-;-;-
1511264206709;-;-;9.102051;1.4175568;-1.2335358;-;-;-;-;-;-;-;-;-;-;-;-;-;-;-
1511264206728;-;-;9.052963;1.3960114;-1.2000122;-;-;-;-;-;-;-;-;-;-;-;-;-;-;-
1511264206748;-;-;8.96199;1.3780518;-1.1210022;-;-;-;-;-;-;-;-;-;-;-;-;-;-;-
1511264206769;-;-;8.935654;1.4247437;-1.1976166;-;-;-;-;-;-;-;-;-;-;-;-;-;-;-
1511264206788;-;-;8.954803;1.4163666;-1.2407074;-;-;-;-;-;-;-;-;-;-;-;-;-;-;-
1511264206808;-;-;9.038605;1.4175568;-1.2766266;-;-;-;-;-;-;-;-;-;-;-;-;-;-;-
1511264206829;-;-;9.091278;1.4043884;-1.2945862;-;-;-;-;-;-;-;-;-;-;-;-;-;-;-
1511264206848;-;-;9.037399;1.413971;-1.258667;-;-;-;-;-;-;-;-;-;-;-;-;-;-;-
1511264206868;-;-;8.988327;1.4211578;-1.2095795;-;-;-;-;-;-;-;-;-;-;-;-;-;-;-
1511264206889;-;-;9.005081;1.4043884;-1.1030426;-;-;-;-;-;-;-;-;-;-;-;-;-;-;-
1511264206909;-;-;8.989517;1.374466;-1.0503693;-;-;-;-;-;-;-;-;-;-;-;-;-;-;-
1511264206929;-;-;8.9991;1.3864288;-1.0623474;-;-;-;-;-;-;-;-;-;-;-;-;-;-;-
1511264206949;-;-;9.033813;1.4259338;-1.1736755;-;-;-;-;-;-;-;-;-;-;-;-;-;-;-
1511264206970;-;-;9.039795;1.461853;-1.2000122;-;-;-;-;-;-;-;-;-;-;-;-;-;-;-
1511264206990;-;-;9.033813;1.3960114;-1.2562714;-;-;-;-;-;-;-;-;-;-;-;-;-;-;-
1511264207010;-;-;9.033813;1.3600922;-1.2000122;-;-;-;-;-;-;-;-;-;-;-;-;-;-;-
1511264207031;-;-;9.042191;1.3170013;-1.2239532;-;-;-;-;-;-;-;-;-;-;-;-;-;-;-
1511264207051;-;-;9.096069;1.2810822;-1.3017578;-;-;-;-;-;-;-;-;-;-;-;-;-;-;-
1511264207071;-;-;9.084091;1.2547607;-1.2323303;-;-;-;-;-;-;-;-;-;-;-;-;-;-;-
1511264207092;-;-;8.918884;1.2655334;-1.1712799;-;-;-;-;-;-;-;-;-;-;-;-;-;-;-
1511264207112;-;-;8.876999;1.3361511;-1.1928253;-;-;-;-;-;-;-;-;-;-;-;-;-;-;-
1511264207132;-;-;8.886566;1.3696747;-1.1688843;-;-;-;-;-;-;-;-;-;-;-;-;-;-;-
1511264207153;-;-;9.050568;1.3026428;-1.2885895;-;-;-;-;-;-;-;-;-;-;-;-;-;-;-
1511264207173;-;-;9.195419;1.2751007;-1.3065491;-;-;-;-;-;-;-;-;-;-;-;-;-;-;-
1511264207193;-;-;9.203796;1.2966461;-1.2861938;-;-;-;-;-;-;-;-;-;-;-;-;-;-;-
1511264207213;-;-;9.12001;1.3134155;-1.2466888;-;-;-;-;-;-;-;-;-;-;-;-;-;-;-
1511264207234;-;-;9.159515;1.2308044;-1.3424683;-;-;-;-;-;-;-;-;-;-;-;-;-;-;-
1511264207254;-;-;9.092468;1.2499695;-1.3472595;-;-;-;-;-;-;-;-;-;-;-;-;-;-;-
1511264207274;-;-;9.019455;1.2379913;-1.3795776;-;-;-;-;-;-;-;-;-;-;-;-;-;-;-
1511264207295;-;-;9.015854;1.2451782;-1.3963318;-;-;-;-;-;-;-;-;-;-;-;-;-;-;-
1511264207315;-;-;8.9991;1.3026428;-1.4609833;-;-;-;-;-;-;-;-;-;-;-;-;-;-;-
1511264207335;-;-;8.9991;1.2607422;-1.4669647;-;-;-;-;-;-;-;-;-;-;-;-;-;-;-
1511264207356;-;-;9.080505;1.2822876;-1.4178772;-;-;-;-;-;-;-;-;-;-;-;-;-;-;-
1511264207375;-;-;9.099655;1.2715149;-1.495697;-;-;-;-;-;-;-;-;-;-;-;-;-;-;-
1511264207396;-;-;9.024231;1.3361511;-1.4789276;-;-;-;-;-;-;-;-;-;-;-;-;-;-;-
1511264207416;-;-;8.960785;1.4307251;-1.4633789;-;-;-;-;-;-;-;-;-;-;-;-;-;-;-
1511264207436;-;-;8.896149;1.4031982;-1.4370422;-;-;-;-;-;-;-;-;-;-;-;-;-;-;-
1511264207456;-;-;8.917694;1.3600922;-1.4334412;-;-;-;-;-;-;-;-;-;-;-;-;-;-;-
1511264207477;-;-;8.96199;1.367279;-1.4909058;-;-;-;-;-;-;-;-;-;-;-;-;-;-;-
1511264207497;-;-;8.926071;1.4606476;-1.5411835;-;-;-;-;-;-;-;-;-;-;-;-;-;-;-
1511264207518;-;-;8.894943;1.5600128;-1.5232239;-;-;-;-;-;-;-;-;-;-;-;-;-;-;-
1511264207538;-;-;8.893753;1.5205078;-1.5962524;-;-;-;-;-;-;-;-;-;-;-;-;-;-;-
1511264207559;-;-;8.896149;1.4846039;-1.6082153;-;-;-;-;-;-;-;-;-;-;-;-;-;-;-
1511264207579;-;-;9.003891;1.5073395;-1.6130066;-;-;-;-;-;-;-;-;-;-;-;-;-;-;-
1511264207599;-;-;9.161896;1.492981;-1.5878754;-;-;-;-;-;-;-;-;-;-;-;-;-;-;-
1511264207620;-;-;9.172684;1.4558716;-1.5878754;-;-;-;-;-;-;-;-;-;-;-;-;-;-;-
1511264207639;-;-;9.110428;1.4235382;-1.6860352;-;-;-;-;-;-;-;-;-;-;-;-;-;-;-
1511264207659;-;-;9.013458;1.4235382;-1.618988;-;-;-;-;-;-;-;-;-;-;-;-;-;-;-
1511264207679;-;-;8.910507;1.3792572;-1.4502106;-;-;-;-;-;-;-;-;-;-;-;-;-;-;-
1511264207700;-;-;8.946426;1.3792572;-1.650116;-;-;-;-;-;-;-;-;-;-;-;-;-;-;-
1511264207720;-;-;8.893753;1.1745453;-1.4657593;-;-;-;-;-;-;-;-;-;-;-;-;-;-;-
1511264207740;-;-;8.799179;1.3301697;-1.4585876;-;-;-;-;-;-;-;-;-;-;-;-;-;-;-
1511264207760;-;-;8.746506;1.4187622;-1.5256195;-;-;-;-;-;-;-;-;-;-;-;-;-;-;-
1511264207781;-;-;8.782425;1.2942505;-1.48732;-;-;-;-;-;-;-;-;-;-;-;-;-;-;-
1511264207800;-;-;8.875793;0.94470215;-1.322113;-;-;-;-;-;-;-;-;-;-;-;-;-;-;-
1511264207820;-;-;9.1523285;0.3282013;-1.313736;-;-;-;-;-;-;-;-;-;-;-;-;-;-;-
1511264207840;-;-;9.412094;1.006958;-2.5263977;-;-;-;-;-;-;-;-;-;-;-;-;-;-;-
1511264207861;-;-;9.383362;1.7276154;-2.1229706;-;-;-;-;-;-;-;-;-;-;-;-;-;-;-
1511264207881;-;-;9.4492035;1.6426086;-1.5771027;-;-;-;-;-;-;-;-;-;-;-;-;-;-;-
1511264207902;-;-;9.299576;1.5396576;-1.5423737;-;-;-;-;-;-;-;-;-;-;-;-;-;-;-
1511264207922;-;-;8.865021;1.5588226;-1.5579376;-;-;-;-;-;-;-;-;-;-;-;-;-;-;-
1511264207942;-;-;8.56694;1.5240936;-1.3675995;-;-;-;-;-;-;-;-;-;-;-;-;-;-;-
1511264207962;-;-;8.612427;1.532486;-1.3891449;-;-;-;-;-;-;-;-;-;-;-;-;-;-;-
1511264207982;-;-;8.862625;1.5085449;-1.5723114;-;-;-;-;-;-;-;-;-;-;-;-;-;-;-
1511264208002;-;-;8.971558;1.5097351;-1.689621;-;-;-;-;-;-;-;-;-;-;-;-;-;-;-
1511264208023;-;-;8.911713;1.3349609;-1.5639343;-;-;-;-;-;-;-;-;-;-;-;-;-;-;-
1511264208043;-;-;8.813553;1.3912201;-1.555542;-;-;-;-;-;-;-;-;-;-;-;-;-;-;-
1511264208064;-;-;8.791992;1.4283295;-1.5531616;-;-;-;-;-;-;-;-;-;-;-;-;-;-;-
1511264208084;-;-;8.854248;1.437912;-1.440628;-;-;-;-;-;-;-;-;-;-;-;-;-;-;-
1511264208104;-;-;8.938049;1.2954559;-1.3987274;-;-;-;-;-;-;-;-;-;-;-;-;-;-;-
1511264208125;-;-;9.087677;1.209259;-1.3759766;-;-;-;-;-;-;-;-;-;-;-;-;-;-;-
1511264208145;-;-;9.21936;1.130249;-1.3795776;-;-;-;-;-;-;-;-;-;-;-;-;-;-;-
1511264208165;-;-;9.307953;1.2320099;-1.7111664;-;-;-;-;-;-;-;-;-;-;-;-;-;-;-
1511264208186;-;-;9.202606;1.2104645;-1.4837189;-;-;-;-;-;-;-;-;-;-;-;-;-;-;-
1511264208206;-;-;9.075714;1.3229828;-1.480133;-;-;-;-;-;-;-;-;-;-;-;-;-;-;-
1511264208226;-;-;9.15712;1.3469238;-1.5196381;-;-;-;-;-;-;-;-;-;-;-;-;-;-;-
1511264208246;-;-;9.0733185;1.3349609;-1.5040741;-;-;-;-;-;-;-;-;-;-;-;-;-;-;-
1511264208266;-;-;8.970367;1.3960114;-1.4837189;-;-;-;-;-;-;-;-;-;-;-;-;-;-;-
1511264208286;-;-;8.967972;1.3720703;-1.5256195;-;-;-;-;-;-;-;-;-;-;-;-;-;-;-
1511264208307;-;-;8.942825;1.3158112;-1.4466095;-;-;-;-;-;-;-;-;-;-;-;-;-;-;-
1511264208327;-;-;8.98114;1.4235382;-1.5064697;-;-;-;-;-;-;-;-;-;-;-;-;-;-;-
1511264208347;-;-;9.033813;1.437912;-1.4609833;-;-;-;-;-;-;-;-;-;-;-;-;-;-;-
1511264208368;-;-;9.012268;1.3301697;-1.4107056;-;-;-;-;-;-;-;-;-;-;-;-;-;-;-
1511264208388;-;-;9.055359;1.1996918;-1.3316956;-;-;-;-;-;-;-;-;-;-;-;-;-;-;-
1511264208408;-;-;8.953613;1.1960907;-1.3053589;-;-;-;-;-;-;-;-;-;-;-;-;-;-;-
1511264208428;-;-;8.789597;1.1673584;-1.3233032;-;-;-;-;-;-;-;-;-;-;-;-;-;-;-
1511264208449;-;-;8.819534;1.0177307;-1.3975372;-;-;-;-;-;-;-;-;-;-;-;-;-;-;-
1511264208469;-;-;8.878189;1.106308;-1.3999176;-;-;-;-;-;-;-;-;-;-;-;-;-;-;-
1511264208489;-;-;9.049377;1.2810822;-1.3412628;-;-;-;-;-;-;-;-;-;-;-;-;-;-;-
1511264208510;-;-;9.220566;1.398407;-1.3304901;-;-;-;-;-;-;-;-;-;-;-;-;-;-;-
1511264208529;-;-;9.212173;1.2583466;-1.3652039;-;-;-;-;-;-;-;-;-;-;-;-;-;-;-
1511264208549;-;-;9.134369;1.2415924;-1.4202728;-;-;-;-;-;-;-;-;-;-;-;-;-;-;-
1511264208569;-;-;9.038605;1.2547607;-1.4430237;-;-;-;-;-;-;-;-;-;-;-;-;-;-;-
1511264208590;-;-;8.959595;1.3780518;-1.3975372;-;-;-;-;-;-;-;-;-;-;-;-;-;-;-
1511264208610;-;-;8.976349;1.4762115;-1.4430237;-;-;-;-;-;-;-;-;-;-;-;-;-;-;-
1511264208630;-;-;8.985931;1.4869843;-1.480133;-;-;-;-;-;-;-;-;-;-;-;-;-;-;-
1511264208651;-;-;8.963181;1.3241882;-1.4944916;-;-;-;-;-;-;-;-;-;-;-;-;-;-;-
1511264208671;-;-;8.933258;1.1949005;-1.5459747;-;-;-;-;-;-;-;-;-;-;-;-;-;-;-
1511264208691;-;-;9.001495;1.2212372;-1.5998383;-;-;-;-;-;-;-;-;-;-;-;-;-;-;-
1511264208712;-;-;8.997894;1.2810822;-1.5483704;-;-;-;-;-;-;-;-;-;-;-;-;-;-;-
1511264208732;-;-;8.975159;1.3170013;-1.4885101;-;-;-;-;-;-;-;-;-;-;-;-;-;-;-
1511264208753;-;-;8.885376;1.358902;-1.5375977;-;-;-;-;-;-;-;-;-;-;-;-;-;-;-
1511264208773;-;-;8.890167;1.3062286;-1.5962524;-;-;-;-;-;-;-;-;-;-;-;-;-;-;-
1511264208793;-;-;8.916504;1.2619324;-1.6333618;-;-;-;-;-;-;-;-;-;-;-;-;-;-;-
1511264208814;-;-;9.011063;1.2523651;-1.6632843;-;-;-;-;-;-;-;-;-;-;-;-;-;-;-
1511264208834;-;-;9.0793;1.3026428;-1.6273804;-;-;-;-;-;-;-;-;-;-;-;-;-;-;-
1511264208854;-;-;9.032608;1.3002472;-1.5938568;-;-;-;-;-;-;-;-;-;-;-;-;-;-;-
1511264208875;-;-;8.972763;1.3146057;-1.5854797;-;-;-;-;-;-;-;-;-;-;-;-;-;-;-
1511264208895;-;-;8.933258;1.3529205;-1.5615387;-;-;-;-;-;-;-;-;-;-;-;-;-;-;-
1511264208915;-;-;8.959595;1.4163666;-1.650116;-;-;-;-;-;-;-;-;-;-;-;-;-;-;-
1511264208935;-;-;9.017059;1.4307251;-1.7015991;-;-;-;-;-;-;-;-;-;-;-;-;-;-;-
1511264208955;-;-;9.032608;1.4630432;-1.650116;-;-;-;-;-;-;-;-;-;-;-;-;-;-;-
1511264208975;-;-;9.045776;1.4319305;-1.674057;-;-;-;-;-;-;-;-;-;-;-;-;-;-;-
1511264208996;-;-;8.995499;1.4079895;-1.6968079;-;-;-;-;-;-;-;-;-;-;-;-;-;-;-
1511264209015;-;-;8.932053;1.4019928;-1.6752625;-;-;-;-;-;-;-;-;-;-;-;-;-;-;-
1511264209036;-;-;8.950012;1.3912201;-1.7470856;-;-;-;-;-;-;-;-;-;-;-;-;-;-;-
1511264209056;-;-;8.92128;1.3648834;-1.6261749;-;-;-;-;-;-;-;-;-;-;-;-;-;-;-
1511264209076;-;-;8.911713;1.4403076;-1.6285706;-;-;-;-;-;-;-;-;-;-;-;-;-;-;-
1511264209097;-;-;8.9392395;1.4594574;-1.6860352;-;-;-;-;-;-;-;-;-;-;-;-;-;-;-
1511264209117;-;-;9.026627;1.4570618;-1.5926514;-;-;-;-;-;-;-;-;-;-;-;-;-;-;-
1511264209137;-;-;9.100845;1.4414978;-1.5591431;-;-;-;-;-;-;-;-;-;-;-;-;-;-;-
1511264209158;-;-;9.12001;1.4355164;-1.5196381;-;-;-;-;-;-;-;-;-;-;-;-;-;-;-
1511264209178;-;-;9.09845;1.4606476;-1.48732;-;-;-;-;-;-;-;-;-;-;-;-;-;-;-
1511264209198;-;-;9.3498535;1.6689453;-1.3436584;-;-;-;-;-;-;-;-;-;-;-;-;-;-;-
1511264209219;-;-;9.128387;1.8604889;-1.48732;-;-;-;-;-;-;-;-;-;-;-;-;-;-;-
1511264209239;-;-;8.796783;2.058014;-1.7063904;-;-;-;-;-;-;-;-;-;-;-;-;-;-;-
1511264209259;-;-;8.808762;1.7276154;-1.4454193;-;-;-;-;-;-;-;-;-;-;-;-;-;-;-
1511264209280;-;-;8.944031;1.2332001;-1.2215576;-;-;-;-;-;-;-;-;-;-;-;-;-;-;-
1511264209300;-;-;8.853058;0.9530792;-0.98213196;-;-;-;-;-;-;-;-;-;-;-;-;-;-;-
1511264209320;-;-;8.712982;1.1841278;-1.1174164;-;-;-;-;-;-;-;-;-;-;-;-;-;-;-
1511264209341;-;-;8.807556;1.4403076;-1.2526855;-;-;-;-;-;-;-;-;-;-;-;-;-;-;-
1511264209361;-;-;9.135559;1.3852386;-1.3125305;-;-;-;-;-;-;-;-;-;-;-;-;-;-;-
1511264209381;-;-;9.37738;1.224823;-1.2945862;-;-;-;-;-;-;-;-;-;-;-;-;-;-;-
1511264209401;-;-;9.2313385;1.3720703;-1.1605072;-;-;-;-;-;-;-;-;-;-;-;-;-;-;-
1511264209422;-;-;9.046982;1.5097351;-1.006073;-;-;-;-;-;-;-;-;-;-;-;-;-;-;-
1511264209442;-;-;8.984726;1.5600128;-1.3113403;-;-;-;-;-;-;-;-;-;-;-;-;-;-;-
1511264209462;-;-;9.121201;1.4091797;-1.3017578;-;-;-;-;-;-;-;-;-;-;-;-;-;-;-
1511264209483;-;-;9.105637;1.3205872;-1.1389618;-;-;-;-;-;-;-;-;-;-;-;-;-;-;-
1511264209503;-;-;9.042191;1.2523651;-0.94862366;-;-;-;-;-;-;-;-;-;-;-;-;-;-;-
1511264209523;-;-;9.046982;1.2583466;-1.0755157;-;-;-;-;-;-;-;-;-;-;-;-;-;-;-
1511264209544;-;-;8.942825;1.185318;-0.8564453;-;-;-;-;-;-;-;-;-;-;-;-;-;-;-
1511264209564;-;-;8.82312;0.9782257;-0.551178;-;-;-;-;-;-;-;-;-;-;-;-;-;-;-
1511264209584;-;-;9.163101;1.2164459;-0.72595215;-;-;-;-;-;-;-;-;-;-;-;-;-;-;-
1511264209605;-;-;8.718979;1.5384674;-1.3699951;-;-;-;-;-;-;-;-;-;-;-;-;-;-;-
1511264209625;-;-;9.262466;1.5683899;-1.693222;-;-;-;-;-;-;-;-;-;-;-;-;-;-;-
1511264209645;-;-;9.79277;1.6976776;-1.337677;-;-;-;-;-;-;-;-;-;-;-;-;-;-;-
1511264209666;-;-;9.538986;1.5336761;-0.9055176;-;-;-;-;-;-;-;-;-;-;-;-;-;-;-
1511264209686;-;-;8.618423;1.0117493;-0.5021057;-;-;-;-;-;-;-;-;-;-;-;-;-;-;-
1511264209706;-;-;8.558563;0.9866028;-0.5799103;-;-;-;-;-;-;-;-;-;-;-;-;-;-;-
1511264209727;-;-;8.635178;1.085968;-0.4745636;-;-;-;-;-;-;-;-;-;-;-;-;-;-;-
1511264209747;-;-;8.833893;1.1889191;0.216156;-;-;-;-;-;-;-;-;-;-;-;-;-;-;-
1511264209767;-;-;9.23613;1.6270447;-0.31414795;-;-;-;-;-;-;-;-;-;-;-;-;-;-;-
1511264209787;-;-;8.674683;1.8389435;-1.6369476;-;-;-;-;-;-;-;-;-;-;-;-;-;-;-
1511264209808;-;-;9.25528;1.8425293;-1.7458801;-;-;-;-;-;-;-;-;-;-;-;-;-;-;-
1511264209828;-;-;9.699402;1.8748474;-1.219162;-;-;-;-;-;-;-;-;-;-;-;-;-;-;-
1511264209848;-;-;9.280411;1.3325653;-0.79299927;-;-;-;-;-;-;-;-;-;-;-;-;-;-;-
1511264209869;-;-;8.8602295;0.927948;-0.7846222;-;-;-;-;-;-;-;-;-;-;-;-;-;-;-
1511264209889;-;-;8.772842;0.68133545;-0.6218109;-;-;-;-;-;-;-;-;-;-;-;-;-;-;-
1511264209909;-;-;8.82193;0.8668976;-0.38119507;-;-;-;-;-;-;-;-;-;-;-;-;-;-;-
1511264209930;-;-;8.946426;1.2535553;-0.51527405;-;-;-;-;-;-;-;-;-;-;-;-;-;-;-
1511264209950;-;-;8.844666;1.3636932;-0.56555176;-;-;-;-;-;-;-;-;-;-;-;-;-;-;-
1511264209970;-;-;8.58371;1.5839539;-0.62420654;-;-;-;-;-;-;-;-;-;-;-;-;-;-;-
1511264209991;-;-;8.6818695;1.971817;-0.88038635;-;-;-;-;-;-;-;-;-;-;-;-;-;-;-
1511264210011;-;-;9.201401;2.0209045;-1.0228424;-;-;-;-;-;-;-;-;-;-;-;-;-;-;-
1511264210031;-;-;9.675461;1.9059753;-1.0886841;-;-;-;-;-;-;-;-;-;-;-;-;-;-;-
1511264210052;-;-;9.79158;1.750351;-1.0539703;-;-;-;-;-;-;-;-;-;-;-;-;-;-;-
1511264210071;-;-;9.440826;1.5384674;-1.0096741;-;-;-;-;-;-;-;-;-;-;-;-;-;-;-
1511264210092;-;-;8.96199;1.4259338;-0.90911865;-;-;-;-;-;-;-;-;-;-;-;-;-;-;-
1511264210112;-;-;8.735733;1.2655334;-0.8648224;-;-;-;-;-;-;-;-;-;-;-;-;-;-;-
1511264210132;-;-;8.648346;1.066803;-0.77145386;-;-;-;-;-;-;-;-;-;-;-;-;-;-;-
1511264210153;-;-;8.853058;1.0368805;-0.8396759;-;-;-;-;-;-;-;-;-;-;-;-;-;-;-
1511264210173;-;-;9.050568;1.1565857;-1.219162;-;-;-;-;-;-;-;-;-;-;-;-;-;-;-
1511264210193;-;-;9.115219;1.3576965;-1.2239532;-;-;-;-;-;-;-;-;-;-;-;-;-;-;-
1511264210213;-;-;9.246902;1.4666443;-1.1497345;-;-;-;-;-;-;-;-;-;-;-;-;-;-;-
1511264210234;-;-;9.244507;1.5336761;-1.1162109;-;-;-;-;-;-;-;-;-;-;-;-;-;-;-
1511264210254;-;-;9.161896;1.5899353;-1.164093;-;-;-;-;-;-;-;-;-;-;-;-;-;-;-
1511264210274;-;-;9.048172;1.6497955;-1.1365662;-;-;-;-;-;-;-;-;-;-;-;-;-;-;-
1511264210295;-;-;9.008667;1.6414185;-1.100647;-;-;-;-;-;-;-;-;-;-;-;-;-;-;-
1511264210315;-;-;9.024231;1.5779724;-1.140152;-;-;-;-;-;-;-;-;-;-;-;-;-;-;-
1511264210335;-;-;9.148727;1.4989624;-1.1605072;-;-;-;-;-;-;-;-;-;-;-;-;-;-;-
1511264210356;-;-;9.148727;1.5121307;-1.1293793;-;-;-;-;-;-;-;-;-;-;-;-;-;-;-
1511264210375;-;-;8.971558;1.5145264;-1.0467834;-;-;-;-;-;-;-;-;-;-;-;-;-;-;-
1511264210395;-;-;8.809952;1.4822083;-0.927063;-;-;-;-;-;-;-;-;-;-;-;-;-;-;-
1511264210415;-;-;8.891357;1.3912201;-0.91270447;-;-;-;-;-;-;-;-;-;-;-;-;-;-;-
1511264210436;-;-;9.023041;1.3134155;-1.001297;-;-;-;-;-;-;-;-;-;-;-;-;-;-;-
1511264210456;-;-;9.066132;1.2715149;-1.1018524;-;-;-;-;-;-;-;-;-;-;-;-;-;-;-
1511264210476;-;-;9.012268;1.358902;-0.9641876;-;-;-;-;-;-;-;-;-;-;-;-;-;-;-
1511264210497;-;-;8.938049;1.4965668;-0.8169403;-;-;-;-;-;-;-;-;-;-;-;-;-;-;-
1511264210517;-;-;8.863831;1.6054993;-0.7463074;-;-;-;-;-;-;-;-;-;-;-;-;-;-;-
1511264210537;-;-;8.9787445;1.7252197;-0.94862366;-;-;-;-;-;-;-;-;-;-;-;-;-;-;-
1511264210558;-;-;9.17746;1.7156372;-1.0395966;-;-;-;-;-;-;-;-;-;-;-;-;-;-;-
1511264210579;-;-;9.240906;1.7862701;-1.0886841;-;-;-;-;-;-;-;-;-;-;-;-;-;-;-
1511264210599;-;-;9.21817;1.7826691;-1.0826874;-;-;-;-;-;-;-;-;-;-;-;-;-;-;-
1511264210619;-;-;9.037399;1.7515564;-1.0156555;-;-;-;-;-;-;-;-;-;-;-;-;-;-;-
1511264210639;-;-;8.866211;1.7479553;-0.90312195;-;-;-;-;-;-;-;-;-;-;-;-;-;-;-
1511264210659;-;-;8.745316;1.611496;-0.8935547;-;-;-;-;-;-;-;-;-;-;-;-;-;-;-
1511264210680;-;-;8.715378;1.5276947;-0.85523987;-;-;-;-;-;-;-;-;-;-;-;-;-;-;-
1511264210700;-;-;8.849457;1.5612183;-0.9115143;-;-;-;-;-;-;-;-;-;-;-;-;-;-;-
1511264210720;-;-;9.020645;1.5552216;-1.0108643;-;-;-;-;-;-;-;-;-;-;-;-;-;-;-
1511264210740;-;-;9.100845;1.5540314;-0.9438324;-;-;-;-;-;-;-;-;-;-;-;-;-;-;-
1511264210761;-;-;9.133179;1.5695953;-0.89115906;-;-;-;-;-;-;-;-;-;-;-;-;-;-;-
1511264210781;-;-;9.080505;1.5923309;-0.84088135;-;-;-;-;-;-;-;-;-;-;-;-;-;-;-
1511264210801;-;-;8.970367;1.695282;-0.8348999;-;-;-;-;-;-;-;-;-;-;-;-;-;-;-
1511264210822;-;-;8.942825;1.7312012;-0.95339966;-;-;-;-;-;-;-;-;-;-;-;-;-;-;-
1511264210842;-;-;9.042191;1.7072601;-0.99890137;-;-;-;-;-;-;-;-;-;-;-;-;-;-;-
1511264210862;-;-;9.166687;1.679718;-1.0479736;-;-;-;-;-;-;-;-;-;-;-;-;-;-;-
1511264210882;-;-;9.208588;1.6246643;-0.9833374;-;-;-;-;-;-;-;-;-;-;-;-;-;-;-
1511264210903;-;-;9.1523285;1.5516357;-1.0024872;-;-;-;-;-;-;-;-;-;-;-;-;-;-;-
1511264210923;-;-;9.037399;1.4881897;-0.9438324;-;-;-;-;-;-;-;-;-;-;-;-;-;-;-
1511264210944;-;-;8.926071;1.4750214;-0.927063;-;-;-;-;-;-;-;-;-;-;-;-;-;-;-
1511264210964;-;-;8.876999;1.4917755;-0.9809418;-;-;-;-;-;-;-;-;-;-;-;-;-;-;-
1511264210984;-;-;8.909317;1.5109406;-0.9725647;-;-;-;-;-;-;-;-;-;-;-;-;-;-;-
1511264211004;-;-;9.036209;1.5157166;-0.9905243;-;-;-;-;-;-;-;-;-;-;-;-;-;-;-
1511264211025;-;-;9.128387;1.5312805;-1.0324097;-;-;-;-;-;-;-;-;-;-;-;-;-;-;-
1511264211045;-;-;9.108032;1.5396576;-1.0623474;-;-;-;-;-;-;-;-;-;-;-;-;-;-;-
1511264211065;-;-;9.068527;1.571991;-1.0575562;-;-;-;-;-;-;-;-;-;-;-;-;-;-;-
1511264211086;-;-;8.97995;1.5624084;-1.0599518;-;-;-;-;-;-;-;-;-;-;-;-;-;-;-
1511264211107;-;-;8.958389;1.5300903;-1.0240326;-;-;-;-;-;-;-;-;-;-;-;-;-;-;-
1511264211127;-;-;8.905716;1.4750214;-0.95700073;-;-;-;-;-;-;-;-;-;-;-;-;-;-;-
1511264211147;-;-;8.98233;1.4594574;-0.94862366;-;-;-;-;-;-;-;-;-;-;-;-;-;-;-
1511264211168;-;-;9.118805;1.4714355;-0.9725647;-;-;-;-;-;-;-;-;-;-;-;-;-;-;-
1511264211188;-;-;9.154724;1.4905853;-0.9976959;-;-;-;-;-;-;-;-;-;-;-;-;-;-;-
1511264211209;-;-;9.159515;1.4977722;-1.0982513;-;-;-;-;-;-;-;-;-;-;-;-;-;-;-
1511264211229;-;-;9.055359;1.4319305;-1.1018524;-;-;-;-;-;-;-;-;-;-;-;-;-;-;-
1511264211250;-;-;8.946426;1.5887451;-1.069519;-;-;-;-;-;-;-;-;-;-;-;-;-;-;-
1511264211270;-;-;8.950012;1.4702301;-0.93785095;-;-;-;-;-;-;-;-;-;-;-;-;-;-;-
1511264211290;-;-;9.027832;1.5229034;-1.0144653;-;-;-;-;-;-;-;-;-;-;-;-;-;-;-
1511264211310;-;-;9.06015;1.5624084;-1.021637;-;-;-;-;-;-;-;-;-;-;-;-;-;-;-
1511264211331;-;-;9.007477;1.6067047;-0.94862366;-;-;-;-;-;-;-;-;-;-;-;-;-;-;-
1511264211351;-;-;8.965576;1.6737366;-0.9917145;-;-;-;-;-;-;-;-;-;-;-;-;-;-;-
1511264211371;-;-;8.966782;1.5887451;-1.0372009;-;-;-;-;-;-;-;-;-;-;-;-;-;-;-
1511264211391;-;-;9.032608;1.5157166;-1.0994568;-;-;-;-;-;-;-;-;-;-;-;-;-;-;-
1511264211412;-;-;9.045776;1.5193176;-1.1293793;-;-;-;-;-;-;-;-;-;-;-;-;-;-;-
1511264211432;-;-;9.091278;1.4798126;-1.1305847;-;-;-;-;-;-;-;-;-;-;-;-;-;-;-
1511264211452;-;-;9.141556;1.4235382;-1.1221924;-;-;-;-;-;-;-;-;-;-;-;-;-;-;-
1511264211473;-;-;9.116409;1.4199524;-1.1700745;-;-;-;-;-;-;-;-;-;-;-;-;-;-;-
1511264211493;-;-;9.007477;1.4798126;-1.1162109;-;-;-;-;-;-;-;-;-;-;-;-;-;-;-
1511264211513;-;-;8.990723;1.4343262;-1.0779114;-;-;-;-;-;-;-;-;-;-;-;-;-;-;-
1511264211533;-;-;9.021835;1.4043884;-1.1018524;-;-;-;-;-;-;-;-;-;-;-;-;-;-;-
1511264211554;-;-;9.055359;1.4726257;-1.0898743;-;-;-;-;-;-;-;-;-;-;-;-;-;-;-
1511264211574;-;-;9.055359;1.4786072;-1.0934601;-;-;-;-;-;-;-;-;-;-;-;-;-;-;-
1511264211594;-;-;9.103241;1.4546661;-1.0994568;-;-;-;-;-;-;-;-;-;-;-;-;-;-;-
1511264211615;-;-;9.066132;1.4905853;-1.0994568;-;-;-;-;-;-;-;-;-;-;-;-;-;-;-
1511264211635;-;-;9.042191;1.5240936;-1.1221924;-;-;-;-;-;-;-;-;-;-;-;-;-;-;-
1511264211655;-;-;9.087677;1.5276947;-1.109024;-;-;-;-;-;-;-;-;-;-;-;-;-;-;-
1511264211676;-;-;9.086487;1.5648041;-1.1018524;-;-;-;-;-;-;-;-;-;-;-;-;-;-;-
1511264211696;-;-;8.996704;1.5635986;-1.1066284;-;-;-;-;-;-;-;-;-;-;-;-;-;-;-
1511264211716;-;-;8.906921;1.4989624;-1.1066284;-;-;-;-;-;-;-;-;-;-;-;-;-;-;-
1511264211737;-;-;8.906921;1.5528259;-1.1233978;-;-;-;-;-;-;-;-;-;-;-;-;-;-;-
1511264211757;-;-;8.954803;1.6294403;-1.1904297;-;-;-;-;-;-;-;-;-;-;-;-;-;-;-
1511264211777;-;-;8.996704;1.6450043;-1.2227478;-;-;-;-;-;-;-;-;-;-;-;-;-;-;-
1511264211797;-;-;9.067337;1.5971222;-1.2371216;-;-;-;-;-;-;-;-;-;-;-;-;-;-;-
1511264211818;-;-;9.055359;1.5444489;-1.1832428;-;-;-;-;-;-;-;-;-;-;-;-;-;-;-
1511264211838;-;-;8.973953;1.576767;-1.188034;-;-;-;-;-;-;-;-;-;-;-;-;-;-;-
1511264211858;-;-;8.954803;1.5480499;-1.1150208;-;-;-;-;-;-;-;-;-;-;-;-;-;-;-
1511264211879;-;-;8.929672;1.4941711;-1.100647;-;-;-;-;-;-;-;-;-;-;-;-;-;-;-
1511264211899;-;-;8.954803;1.5755768;-1.1281891;-;-;-;-;-;-;-;-;-;-;-;-;-;-;-
1511264211919;-;-;8.976349;1.6138763;-1.2059937;-;-;-;-;-;-;-;-;-;-;-;-;-;-;-
1511264211940;-;-;9.029022;1.6761322;-1.1593018;-;-;-;-;-;-;-;-;-;-;-;-;-;-;-
1511264211960;-;-;9.064941;1.5971222;-1.2299347;-;-;-;-;-;-;-;-;-;-;-;-;-;-;-
1511264211980;-;-;8.993118;1.5420532;-1.1988068;-;-;-;-;-;-;-;-;-;-;-;-;-;-;-
1511264212000;-;-;8.947617;1.4869843;-1.2024078;-;-;-;-;-;-;-;-;-;-;-;-;-;-;-
1511264212021;-;-;8.922485;1.4642487;-1.2048035;-;-;-;-;-;-;-;-;-;-;-;-;-;-;-
1511264212041;-;-;8.977554;1.4594574;-1.2383118;-;-;-;-;-;-;-;-;-;-;-;-;-;-;-
1511264212061;-;-;9.036209;1.3912201;-1.3077545;-;-;-;-;-;-;-;-;-;-;-;-;-;-;-
1511264212082;-;-;9.093674;1.4163666;-1.3089447;-;-;-;-;-;-;-;-;-;-;-;-;-;-;-
1511264212101;-;-;9.075714;1.4630432;-1.3723907;-;-;-;-;-;-;-;-;-;-;-;-;-;-;-
1511264212121;-;-;9.026627;1.4630432;-1.337677;-;-;-;-;-;-;-;-;-;-;-;-;-;-;-
1511264212141;-;-;9.013458;1.5193176;-1.3077545;-;-;-;-;-;-;-;-;-;-;-;-;-;-;-
1511264212162;-;-;8.976349;1.5432587;-1.298172;-;-;-;-;-;-;-;-;-;-;-;-;-;-;-
1511264212182;-;-;8.958389;1.5456543;-1.3556366;-;-;-;-;-;-;-;-;-;-;-;-;-;-;-
1511264212202;-;-;9.055359;1.5384674;-1.416687;-;-;-;-;-;-;-;-;-;-;-;-;-;-;-
1511264212223;-;-;9.032608;1.4762115;-1.3963318;-;-;-;-;-;-;-;-;-;-;-;-;-;-;-
1511264212243;-;-;9.046982;1.422348;-1.3975372;-;-;-;-;-;-;-;-;-;-;-;-;-;-;-
1511264212264;-;-;9.007477;1.4031982;-1.4059143;-;-;-;-;-;-;-;-;-;-;-;-;-;-;-
1511264212284;-;-;9.024231;1.4019928;-1.4394226;-;-;-;-;-;-;-;-;-;-;-;-;-;-;-
1511264212304;-;-;8.938049;1.4905853;-1.5292053;-;-;-;-;-;-;-;-;-;-;-;-;-;-;-
1511264212324;-;-;8.898544;1.532486;-1.5208282;-;-;-;-;-;-;-;-;-;-;-;-;-;-;-
1511264212345;-;-;8.932053;1.5396576;-1.4944916;-;-;-;-;-;-;-;-;-;-;-;-;-;-;-
1511264212364;-;-;8.934448;1.5348816;-1.4693604;-;-;-;-;-;-;-;-;-;-;-;-;-;-;-
1511264212384;-;-;9.011063;1.5588226;-1.590271;-;-;-;-;-;-;-;-;-;-;-;-;-;-;-
1511264212405;-;-;8.964386;1.4846039;-1.579483;-;-;-;-;-;-;-;-;-;-;-;-;-;-;-
1511264212425;-;-;8.9787445;1.5659943;-1.5735016;-;-;-;-;-;-;-;-;-;-;-;-;-;-;-
1511264212445;-;-;8.989517;1.5444489;-1.5339966;-;-;-;-;-;-;-;-;-;-;-;-;-;-;-
1511264212466;-;-;8.98114;1.5552216;-1.4310455;-;-;-;-;-;-;-;-;-;-;-;-;-;-;-
1511264212486;-;-;8.9392395;1.5348816;-1.4502106;-;-;-;-;-;-;-;-;-;-;-;-;-;-;-
1511264212506;-;-;8.88298;1.5205078;-1.516037;-;-;-;-;-;-;-;-;-;-;-;-;-;-;-
1511264212526;-;-;8.891357;1.556427;-1.511261;-;-;-;-;-;-;-;-;-;-;-;-;-;-;-
1511264212547;-;-;8.940445;1.619873;-1.4765472;-;-;-;-;-;-;-;-;-;-;-;-;-;-;-
1511264212567;-;-;9.011063;1.6569824;-1.440628;-;-;-;-;-;-;-;-;-;-;-;-;-;-;-
1511264212587;-;-;8.9991;1.6521912;-1.4418182;-;-;-;-;-;-;-;-;-;-;-;-;-;-;-
1511264212607;-;-;9.026627;1.6126862;-1.4992828;-;-;-;-;-;-;-;-;-;-;-;-;-;-;-
1511264212628;-;-;8.983536;1.611496;-1.5459747;-;-;-;-;-;-;-;-;-;-;-;-;-;-;-
1511264212648;-;-;8.987122;1.5755768;-1.4657593;-;-;-;-;-;-;-;-;-;-;-;-;-;-;-
1511264212668;-;-;8.972763;1.5456543;-1.4849243;-;-;-;-;-;-;-;-;-;-;-;-;-;-;-
1511264212689;-;-;8.958389;1.556427;-1.4549866;-;-;-;-;-;-;-;-;-;-;-;-;-;-;-
1511264212710;-;-;8.976349;1.5683899;-1.4502106;-;-;-;-;-;-;-;-;-;-;-;-;-;-;-
1511264212731;-;-;8.9392395;1.5288849;-1.4490051;-;-;-;-;-;-;-;-;-;-;-;-;-;-;-
1511264212752;-;-;8.983536;1.5061493;-1.4645691;-;-;-;-;-;-;-;-;-;-;-;-;-;-;-
1511264212772;-;-;9.001495;1.5492401;-1.4645691;-;-;-;-;-;-;-;-;-;-;-;-;-;-;-
1511264212792;-;-;9.052963;1.556427;-1.392746;-;-;-;-;-;-;-;-;-;-;-;-;-;-;-
1511264212813;-;-;9.0182495;1.5288849;-1.3675995;-;-;-;-;-;-;-;-;-;-;-;-;-;-;-
1511264212833;-;-;8.9991;1.5037537;-1.3867645;-;-;-;-;-;-;-;-;-;-;-;-;-;-;-
1511264212853;-;-;8.950012;1.5037537;-1.3915405;-;-;-;-;-;-;-;-;-;-;-;-;-;-;-
1511264212874;-;-;8.988327;1.4905853;-1.3688049;-;-;-;-;-;-;-;-;-;-;-;-;-;-;-
1511264212894;-;-;8.98233;1.4367065;-1.3807678;-;-;-;-;-;-;-;-;-;-;-;-;-;-;-
1511264212915;-;-;8.972763;1.477417;-1.3987274;-;-;-;-;-;-;-;-;-;-;-;-;-;-;-
1511264212935;-;-;8.9787445;1.477417;-1.3891449;-;-;-;-;-;-;-;-;-;-;-;-;-;-;-
1511264212955;-;-;8.976349;1.5037537;-1.3963318;-;-;-;-;-;-;-;-;-;-;-;-;-;-;-
1511264212975;-;-;8.927277;1.4642487;-1.3867645;-;-;-;-;-;-;-;-;-;-;-;-;-;-;-
1511264212995;-;-;8.967972;1.5097351;-1.4358368;-;-;-;-;-;-;-;-;-;-;-;-;-;-;-
1511264213016;-;-;9.014664;1.4989624;-1.492096;-;-;-;-;-;-;-;-;-;-;-;-;-;-;-
1511264213036;-;-;9.055359;1.537262;-1.4490051;-;-;-;-;-;-;-;-;-;-;-;-;-;-;-
1511264213056;-;-;9.005081;1.5899353;-1.4753418;-;-;-;-;-;-;-;-;-;-;-;-;-;-;-
1511264213077;-;-;8.971558;1.6150818;-1.3652039;-;-;-;-;-;-;-;-;-;-;-;-;-;-;-
1511264213097;-;-;8.963181;1.6126862;-1.4035187;-;-;-;-;-;-;-;-;-;-;-;-;-;-;-
1511264213117;-;-;9.001495;1.6031036;-1.4298553;-;-;-;-;-;-;-;-;-;-;-;-;-;-;-
1511264213138;-;-;8.987122;1.5468445;-1.4729462;-;-;-;-;-;-;-;-;-;-;-;-;-;-;-
1511264213158;-;-;8.973953;1.516922;-1.4597778;-;-;-;-;-;-;-;-;-;-;-;-;-;-;-
1511264213178;-;-;9.013458;1.477417;-1.4238739;-;-;-;-;-;-;-;-;-;-;-;-;-;-;-
1511264213199;-;-;9.029022;1.4905853;-1.3544312;-;-;-;-;-;-;-;-;-;-;-;-;-;-;-
1511264213218;-;-;9.008667;1.5444489;-1.3185272;-;-;-;-;-;-;-;-;-;-;-;-;-;-;-
1511264213238;-;-;8.994308;1.5528259;-1.3209229;-;-;-;-;-;-;-;-;-;-;-;-;-;-;-
1511264213259;-;-;8.971558;1.5528259;-1.361618;-;-;-;-;-;-;-;-;-;-;-;-;-;-;-
1511264213279;-;-;8.954803;1.6019135;-1.2850037;-;-;-;-;-;-;-;-;-;-;-;-;-;-;-
1511264213299;-;-;9.012268;1.5743866;-1.243103;-;-;-;-;-;-;-;-;-;-;-;-;-;-;-
1511264213319;-;-;9.032608;1.616272;-1.2179718;-;-;-;-;-;-;-;-;-;-;-;-;-;-;-
1511264213340;-;-;8.950012;1.6665497;-1.2227478;-;-;-;-;-;-;-;-;-;-;-;-;-;-;-
1511264213360;-;-;8.898544;1.5971222;-1.1988068;-;-;-;-;-;-;-;-;-;-;-;-;-;-;-
1511264213380;-;-;8.929672;1.5935364;-1.1784668;-;-;-;-;-;-;-;-;-;-;-;-;-;-;-
1511264213400;-;-;8.973953;1.5851593;-1.1497345;-;-;-;-;-;-;-;-;-;-;-;-;-;-;-
1511264213421;-;-;8.994308;1.6342316;-1.2071991;-;-;-;-;-;-;-;-;-;-;-;-;-;-;-
1511264213441;-;-;9.0182495;1.6857147;-1.2203674;-;-;-;-;-;-;-;-;-;-;-;-;-;-;-
1511264213461;-;-;9.037399;1.695282;-1.2000122;-;-;-;-;-;-;-;-;-;-;-;-;-;-;-
1511264213482;-;-;9.017059;1.6916962;-1.1197968;-;-;-;-;-;-;-;-;-;-;-;-;-;-;-
1511264213502;-;-;8.983536;1.7156372;-1.0898743;-;-;-;-;-;-;-;-;-;-;-;-;-;-;-
1511264213522;-;-;8.9991;1.651001;-1.1377563;-;-;-;-;-;-;-;-;-;-;-;-;-;-;-
1511264213543;-;-;8.991913;1.6438141;-1.0707245;-;-;-;-;-;-;-;-;-;-;-;-;-;-;-
1511264213563;-;-;9.009872;1.6150818;-1.0276337;-;-;-;-;-;-;-;-;-;-;-;-;-;-;-
1511264213583;-;-;8.996704;1.6210632;-1.0372009;-;-;-;-;-;-;-;-;-;-;-;-;-;-;-
1511264213603;-;-;8.917694;1.679718;-0.94143677;-;-;-;-;-;-;-;-;-;-;-;-;-;-;-
1511264213624;-;-;8.969162;1.7000732;-0.9474182;-;-;-;-;-;-;-;-;-;-;-;-;-;-;-
1511264213644;-;-;8.969162;1.7000732;-0.89953613;-;-;-;-;-;-;-;-;-;-;-;-;-;-;-
1511264213665;-;-;8.993118;1.7599335;-0.83010864;-;-;-;-;-;-;-;-;-;-;-;-;-;-;-
1511264213684;-;-;9.043396;1.7168274;-0.8899536;-;-;-;-;-;-;-;-;-;-;-;-;-;-;-
1511264213704;-;-;9.014664;1.7132416;-0.97135925;-;-;-;-;-;-;-;-;-;-;-;-;-;-;-
1511264213725;-;-;8.995499;1.6270447;-0.9115143;-;-;-;-;-;-;-;-;-;-;-;-;-;-;-
1511264213744;-;-;8.990723;1.6366272;-0.86361694;-;-;-;-;-;-;-;-;-;-;-;-;-;-;-
1511264213764;-;-;8.983536;1.580368;-0.9174957;-;-;-;-;-;-;-;-;-;-;-;-;-;-;-
1511264213785;-;-;8.952408;1.6282501;-0.8504486;-;-;-;-;-;-;-;-;-;-;-;-;-;-;-
1511264213805;-;-;9.011063;1.6246643;-0.8348999;-;-;-;-;-;-;-;-;-;-;-;-;-;-;-
1511264213825;-;-;8.987122;1.6809235;-0.8887634;-;-;-;-;-;-;-;-;-;-;-;-;-;-;-
1511264213845;-;-;8.972763;1.6833191;-0.93185425;-;-;-;-;-;-;-;-;-;-;-;-;-;-;-
1511264213866;-;-;8.918884;1.6737366;-0.9234772;-;-;-;-;-;-;-;-;-;-;-;-;-;-;-
1511264213886;-;-;8.906921;1.7252197;-0.91030884;-;-;-;-;-;-;-;-;-;-;-;-;-;-;-
1511264213906;-;-;8.96199;1.714447;-0.90312195;-;-;-;-;-;-;-;-;-;-;-;-;-;-;-
1511264213927;-;-;9.030228;1.7407837;-0.927063;-;-;-;-;-;-;-;-;-;-;-;-;-;-;-
1511264213947;-;-;9.076904;1.7599335;-0.9749603;-;-;-;-;-;-;-;-;-;-;-;-;-;-;-
1511264213967;-;-;9.06134;1.698883;-0.91989136;-;-;-;-;-;-;-;-;-;-;-;-;-;-;-
1511264213987;-;-;9.052963;1.6486053;-0.9737549;-;-;-;-;-;-;-;-;-;-;-;-;-;-;-
1511264214008;-;-;9.031418;1.6258545;-0.97854614;-;-;-;-;-;-;-;-;-;-;-;-;-;-;-
1511264214028;-;-;8.965576;1.5983276;-0.9354553;-;-;-;-;-;-;-;-;-;-;-;-;-;-;-
1511264214048;-;-;8.950012;1.5468445;-0.8684082;-;-;-;-;-;-;-;-;-;-;-;-;-;-;-
1511264214068;-;-;8.914108;1.4941711;-0.8971405;-;-;-;-;-;-;-;-;-;-;-;-;-;-;-
1511264214088;-;-;8.940445;1.5300903;-0.88757324;-;-;-;-;-;-;-;-;-;-;-;-;-;-;-
1511264214109;-;-;8.971558;1.5085449;-0.89115906;-;-;-;-;-;-;-;-;-;-;-;-;-;-;-
1511264214129;-;-;9.019455;1.595932;-0.9162903;-;-;-;-;-;-;-;-;-;-;-;-;-;-;-
1511264214149;-;-;9.020645;1.6893005;-0.9653778;-;-;-;-;-;-;-;-;-;-;-;-;-;-;-
1511264214170;-;-;9.0577545;1.6102905;-1.0551605;-;-;-;-;-;-;-;-;-;-;-;-;-;-;-
1511264214190;-;-;9.114014;1.6246643;-1.0671387;-;-;-;-;-;-;-;-;-;-;-;-;-;-;-
1511264214210;-;-;9.21936;1.651001;-0.9941101;-;-;-;-;-;-;-;-;-;-;-;-;-;-;-
1511264214231;-;-;9.122391;1.616272;-0.9641876;-;-;-;-;-;-;-;-;-;-;-;-;-;-;-
1511264214250;-;-;9.102051;1.6414185;-0.9294586;-;-;-;-;-;-;-;-;-;-;-;-;-;-;-
1511264214270;-;-;9.128387;1.5839539;-1.0108643;-;-;-;-;-;-;-;-;-;-;-;-;-;-;-
1511264214291;-;-;9.099655;1.4750214;-1.0623474;-;-;-;-;-;-;-;-;-;-;-;-;-;-;-
1511264214310;-;-;8.976349;1.4881897;-1.0898743;-;-;-;-;-;-;-;-;-;-;-;-;-;-;-
1511264214330;-;-;8.954803;1.4462891;-1.0264282;-;-;-;-;-;-;-;-;-;-;-;-;-;-;-
1511264214351;-;-;8.898544;1.4367065;-1.0204468;-;-;-;-;-;-;-;-;-;-;-;-;-;-;-
1511264214371;-;-;8.875793;1.4211578;-1.0814972;-;-;-;-;-;-;-;-;-;-;-;-;-;-;-
1511264214391;-;-;8.967972;1.4857941;-1.0635376;-;-;-;-;-;-;-;-;-;-;-;-;-;-;-
1511264214411;-;-;9.137955;1.5384674;-1.0791016;-;-;-;-;-;-;-;-;-;-;-;-;-;-;-
1511264214432;-;-;9.182251;1.5827637;-1.104248;-;-;-;-;-;-;-;-;-;-;-;-;-;-;-
1511264214452;-;-;9.181061;1.5659943;-1.1233978;-;-;-;-;-;-;-;-;-;-;-;-;-;-;-
1511264214472;-;-;9.048172;1.5635986;-1.1174164;-;-;-;-;-;-;-;-;-;-;-;-;-;-;-
1511264214493;-;-;8.964386;1.537262;-1.0910797;-;-;-;-;-;-;-;-;-;-;-;-;-;-;-
1511264214513;-;-;8.885376;1.556427;-1.0994568;-;-;-;-;-;-;-;-;-;-;-;-;-;-;-
1511264214533;-;-;8.9787445;1.5288849;-1.109024;-;-;-;-;-;-;-;-;-;-;-;-;-;-;-
1511264214553;-;-;9.029022;1.4822083;-1.188034;-;-;-;-;-;-;-;-;-;-;-;-;-;-;-
1511264214574;-;-;9.017059;1.4678345;-1.2155762;-;-;-;-;-;-;-;-;-;-;-;-;-;-;-
1511264214594;-;-;9.011063;1.4857941;-1.1916351;-;-;-;-;-;-;-;-;-;-;-;-;-;-;-
1511264214614;-;-;9.012268;1.5181122;-1.1832428;-;-;-;-;-;-;-;-;-;-;-;-;-;-;-
1511264214635;-;-;9.050568;1.5145264;-1.1664886;-;-;-;-;-;-;-;-;-;-;-;-;-;-;-
1511264214655;-;-;9.109222;1.4798126;-1.2048035;-;-;-;-;-;-;-;-;-;-;-;-;-;-;-
1511264214675;-;-;9.118805;1.4343262;-1.1593018;-;-;-;-;-;-;-;-;-;-;-;-;-;-;-
1511264214696;-;-;9.087677;1.4163666;-1.1664886;-;-;-;-;-;-;-;-;-;-;-;-;-;-;-
1511264214716;-;-;8.9787445;1.5264893;-1.0898743;-;-;-;-;-;-;-;-;-;-;-;-;-;-;-
1511264214736;-;-;8.924881;1.5923309;-1.0946655;-;-;-;-;-;-;-;-;-;-;-;-;-;-;-
1511264214756;-;-;8.945221;1.5217133;-1.1114197;-;-;-;-;-;-;-;-;-;-;-;-;-;-;-
1511264214777;-;-;8.945221;1.4810028;-1.1832428;-;-;-;-;-;-;-;-;-;-;-;-;-;-;-
1511264214797;-;-;9.029022;1.4989624;-1.1616974;-;-;-;-;-;-;-;-;-;-;-;-;-;-;-
1511264214817;-;-;9.076904;1.4833984;-1.2371216;-;-;-;-;-;-;-;-;-;-;-;-;-;-;-
1511264214838;-;-;9.110428;1.4714355;-1.2179718;-;-;-;-;-;-;-;-;-;-;-;-;-;-;-
1511264214858;-;-;9.088882;1.5049438;-1.2095795;-;-;-;-;-;-;-;-;-;-;-;-;-;-;-
1511264214878;-;-;9.00029;1.4833984;-1.1413574;-;-;-;-;-;-;-;-;-;-;-;-;-;-;-
1511264214899;-;-;8.947617;1.5252991;-1.0743103;-;-;-;-;-;-;-;-;-;-;-;-;-;-;-
1511264214919;-;-;8.991913;1.5097351;-1.1377563;-;-;-;-;-;-;-;-;-;-;-;-;-;-;-
1511264214939;-;-;9.007477;1.5157166;-1.1964111;-;-;-;-;-;-;-;-;-;-;-;-;-;-;-
1511264214960;-;-;9.076904;1.4857941;-1.2107849;-;-;-;-;-;-;-;-;-;-;-;-;-;-;-
1511264214980;-;-;9.050568;1.4678345;-1.2000122;-;-;-;-;-;-;-;-;-;-;-;-;-;-;-
1511264215001;-;-;9.085281;1.4606476;-1.1988068;-;-;-;-;-;-;-;-;-;-;-;-;-;-;-
1511264215022;-;-;9.014664;1.3995972;-1.1904297;-;-;-;-;-;-;-;-;-;-;-;-;-;-;-
1511264215042;-;-;8.989517;1.437912;-1.1784668;-;-;-;-;-;-;-;-;-;-;-;-;-;-;-
1511264215062;-;-;8.975159;1.4977722;-1.1748657;-;-;-;-;-;-;-;-;-;-;-;-;-;-;-
1511264215083;-;-;9.007477;1.532486;-1.2466888;-;-;-;-;-;-;-;-;-;-;-;-;-;-;-
1511264215102;-;-;9.041;1.5444489;-1.2407074;-;-;-;-;-;-;-;-;-;-;-;-;-;-;-
1511264215122;-;-;9.014664;1.5121307;-1.2095795;-;-;-;-;-;-;-;-;-;-;-;-;-;-;-
1511264215143;-;-;8.98114;1.5097351;-1.2239532;-;-;-;-;-;-;-;-;-;-;-;-;-;-;-
1511264215162;-;-;8.952408;1.5288849;-1.1832428;-;-;-;-;-;-;-;-;-;-;-;-;-;-;-
1511264215182;-;-;8.950012;1.5480499;-1.2095795;-;-;-;-;-;-;-;-;-;-;-;-;-;-;-
1511264215203;-;-;9.002686;1.5468445;-1.2263489;-;-;-;-;-;-;-;-;-;-;-;-;-;-;-
1511264215223;-;-;9.045776;1.580368;-1.274231;-;-;-;-;-;-;-;-;-;-;-;-;-;-;-
1511264215243;-;-;9.054169;1.4905853;-1.1916351;-;-;-;-;-;-;-;-;-;-;-;-;-;-;-
1511264215263;-;-;9.045776;1.4726257;-1.1425476;-;-;-;-;-;-;-;-;-;-;-;-;-;-;-
1511264215284;-;-;9.0733185;1.5420532;-1.109024;-;-;-;-;-;-;-;-;-;-;-;-;-;-;-
1511264215304;-;-;9.008667;1.5528259;-1.1509247;-;-;-;-;-;-;-;-;-;-;-;-;-;-;-
1511264215324;-;-;8.993118;1.5887451;-1.1461334;-;-;-;-;-;-;-;-;-;-;-;-;-;-;-
1511264215344;-;-;8.950012;1.5683899;-1.2095795;-;-;-;-;-;-;-;-;-;-;-;-;-;-;-
1511264215364;-;-;8.989517;1.5875549;-1.298172;-;-;-;-;-;-;-;-;-;-;-;-;-;-;-
1511264215384;-;-;9.015854;1.4977722;-1.4370422;-;-;-;-;-;-;-;-;-;-;-;-;-;-;-
1511264215405;-;-;9.064941;1.4031982;-1.4202728;-;-;-;-;-;-;-;-;-;-;-;-;-;-;-
1511264215425;-;-;9.067337;1.437912;-1.3556366;-;-;-;-;-;-;-;-;-;-;-;-;-;-;-
1511264215445;-;-;9.117615;1.4881897;-1.3065491;-;-;-;-;-;-;-;-;-;-;-;-;-;-;-
1511264215465;-;-;9.023041;1.4857941;-1.2861938;-;-;-;-;-;-;-;-;-;-;-;-;-;-;-
1511264215486;-;-;8.959595;1.4199524;-1.2873993;-;-;-;-;-;-;-;-;-;-;-;-;-;-;-
1511264215506;-;-;8.944031;1.3960114;-1.2048035;-;-;-;-;-;-;-;-;-;-;-;-;-;-;-
1511264215527;-;-;8.936844;1.3900299;-1.1257935;-;-;-;-;-;-;-;-;-;-;-;-;-;-;-
1511264215547;-;-;9.050568;1.4750214;-1.1760712;-;-;-;-;-;-;-;-;-;-;-;-;-;-;-
1511264215567;-;-;9.103241;1.4462891;-1.124588;-;-;-;-;-;-;-;-;-;-;-;-;-;-;-
1511264215587;-;-;9.149933;1.477417;-1.1616974;-;-;-;-;-;-;-;-;-;-;-;-;-;-;-
1511264215608;-;-;9.0972595;1.5181122;-1.2957764;-;-;-;-;-;-;-;-;-;-;-;-;-;-;-
1511264215628;-;-;8.917694;1.5085449;-1.1784668;-;-;-;-;-;-;-;-;-;-;-;-;-;-;-
1511264215648;-;-;8.872208;1.461853;-1.148529;-;-;-;-;-;-;-;-;-;-;-;-;-;-;-
1511264215668;-;-;9.006287;1.4115753;-1.1616974;-;-;-;-;-;-;-;-;-;-;-;-;-;-;-
1511264215689;-;-;9.045776;1.3852386;-1.195221;-;-;-;-;-;-;-;-;-;-;-;-;-;-;-
1511264215709;-;-;9.044586;1.4403076;-1.2419128;-;-;-;-;-;-;-;-;-;-;-;-;-;-;-
1511264215729;-;-;9.032608;1.4738159;-1.2598572;-;-;-;-;-;-;-;-;-;-;-;-;-;-;-
1511264215750;-;-;8.98114;1.5061493;-1.1856384;-;-;-;-;-;-;-;-;-;-;-;-;-;-;-
1511264215769;-;-;8.990723;1.5707855;-1.2371216;-;-;-;-;-;-;-;-;-;-;-;-;-;-;-
1511264215789;-;-;8.997894;1.5648041;-1.2048035;-;-;-;-;-;-;-;-;-;-;-;-;-;-;-
1511264215810;-;-;8.990723;1.6904907;-1.2885895;-;-;-;-;-;-;-;-;-;-;-;-;-;-;-
1511264215830;-;-;8.987122;1.6462097;-1.2490845;-;-;-;-;-;-;-;-;-;-;-;-;-;-;-
1511264215850;-;-;8.997894;1.6521912;-1.2275391;-;-;-;-;-;-;-;-;-;-;-;-;-;-;-
1511264215871;-;-;9.029022;1.6282501;-1.1581116;-;-;-;-;-;-;-;-;-;-;-;-;-;-;-
1511264215890;-;-;9.049377;1.5552216;-1.109024;-;-;-;-;-;-;-;-;-;-;-;-;-;-;-
1511264215910;-;-;9.050568;1.516922;-1.1078339;-;-;-;-;-;-;-;-;-;-;-;-;-;-;-
1511264215931;-;-;9.013458;1.5157166;-1.0958557;-;-;-;-;-;-;-;-;-;-;-;-;-;-;-
1511264215951;-;-;8.96199;1.4869843;-1.0755157;-;-;-;-;-;-;-;-;-;-;-;-;-;-;-
1511264215971;-;-;8.948822;1.453476;-1.030014;-;-;-;-;-;-;-;-;-;-;-;-;-;-;-
1511264215992;-;-;9.033813;1.4319305;-1.0419922;-;-;-;-;-;-;-;-;-;-;-;-;-;-;-
1511264216012;-;-;9.032608;1.4714355;-1.0707245;-;-;-;-;-;-;-;-;-;-;-;-;-;-;-
1511264216032;-;-;9.049377;1.5205078;-1.0767059;-;-;-;-;-;-;-;-;-;-;-;-;-;-;-
1511264216053;-;-;9.052963;1.5480499;-1.0934601;-;-;-;-;-;-;-;-;-;-;-;-;-;-;-
1511264216073;-;-;9.056564;1.5947266;-1.0132599;-;-;-;-;-;-;-;-;-;-;-;-;-;-;-
1511264216093;-;-;9.045776;1.595932;-0.98573303;-;-;-;-;-;-;-;-;-;-;-;-;-;-;-
1511264216113;-;-;9.038605;1.6078949;-1.1138153;-;-;-;-;-;-;-;-;-;-;-;-;-;-;-
1511264216134;-;-;8.896149;1.5779724;-1.104248;-;-;-;-;-;-;-;-;-;-;-;-;-;-;-
1511264216154;-;-;8.811157;1.5612183;-1.0575562;-;-;-;-;-;-;-;-;-;-;-;-;-;-;-
1511264216174;-;-;8.888962;1.5659943;-1.0755157;-;-;-;-;-;-;-;-;-;-;-;-;-;-;-
1511264216195;-;-;8.995499;1.5707855;-1.1126251;-;-;-;-;-;-;-;-;-;-;-;-;-;-;-
1511264216215;-;-;9.169083;1.5887451;-1.0360107;-;-;-;-;-;-;-;-;-;-;-;-;-;-;-
1511264216235;-;-;9.258865;1.616272;-1.0958557;-;-;-;-;-;-;-;-;-;-;-;-;-;-;-
1511264216256;-;-;9.099655;1.571991;-1.140152;-;-;-;-;-;-;-;-;-;-;-;-;-;-;-
1511264216276;-;-;8.915298;1.5588226;-1.0910797;-;-;-;-;-;-;-;-;-;-;-;-;-;-;-
1511264216296;-;-;8.783615;1.5312805;-1.0779114;-;-;-;-;-;-;-;-;-;-;-;-;-;-;-
1511264216317;-;-;8.869812;1.6019135;-1.1389618;-;-;-;-;-;-;-;-;-;-;-;-;-;-;-
1511264216337;-;-;8.953613;1.5396576;-1.0970612;-;-;-;-;-;-;-;-;-;-;-;-;-;-;-
1511264216358;-;-;9.118805;1.5947266;-1.104248;-;-;-;-;-;-;-;-;-;-;-;-;-;-;-
1511264216378;-;-;9.06134;1.5995178;-1.2048035;-;-;-;-;-;-;-;-;-;-;-;-;-;-;-
1511264216398;-;-;9.043396;1.6043091;-1.1904297;-;-;-;-;-;-;-;-;-;-;-;-;-;-;-
1511264216418;-;-;9.108032;1.6438141;-1.2179718;-;-;-;-;-;-;-;-;-;-;-;-;-;-;-
1511264216439;-;-;9.12001;1.6294403;-1.2311401;-;-;-;-;-;-;-;-;-;-;-;-;-;-;-
1511264216459;-;-;8.976349;1.6258545;-1.2610626;-;-;-;-;-;-;-;-;-;-;-;-;-;-;-
1511264216479;-;-;8.837494;1.5671997;-1.1820526;-;-;-;-;-;-;-;-;-;-;-;-;-;-;-
1511264216500;-;-;8.802765;1.4738159;-1.1581116;-;-;-;-;-;-;-;-;-;-;-;-;-;-;-
1511264216520;-;-;8.909317;1.5061493;-1.2299347;-;-;-;-;-;-;-;-;-;-;-;-;-;-;-
1511264216540;-;-;9.013458;1.5049438;-1.2251434;-;-;-;-;-;-;-;-;-;-;-;-;-;-;-
1511264216561;-;-;9.0972595;1.5073395;-1.2215576;-;-;-;-;-;-;-;-;-;-;-;-;-;-;-
1511264216581;-;-;9.093674;1.516922;-1.2371216;-;-;-;-;-;-;-;-;-;-;-;-;-;-;-
1511264216601;-;-;8.963181;1.5432587;-1.2395172;-;-;-;-;-;-;-;-;-;-;-;-;-;-;-
1511264216622;-;-;8.954803;1.5791626;-1.2502899;-;-;-;-;-;-;-;-;-;-;-;-;-;-;-
1511264216641;-;-;8.98114;1.616272;-1.2694397;-;-;-;-;-;-;-;-;-;-;-;-;-;-;-
1511264216661;-;-;9.030228;1.6102905;-1.2227478;-;-;-;-;-;-;-;-;-;-;-;-;-;-;-
1511264216682;-;-;9.054169;1.5600128;-1.1808624;-;-;-;-;-;-;-;-;-;-;-;-;-;-;-
1511264216702;-;-;9.019455;1.5312805;-1.2167664;-;-;-;-;-;-;-;-;-;-;-;-;-;-;-
1511264216722;-;-;8.997894;1.5516357;-1.219162;-;-;-;-;-;-;-;-;-;-;-;-;-;-;-
1511264216743;-;-;8.9392395;1.4833984;-1.2299347;-;-;-;-;-;-;-;-;-;-;-;-;-;-;-
1511264216763;-;-;8.923676;1.4869843;-1.2143707;-;-;-;-;-;-;-;-;-;-;-;-;-;-;-
1511264216783;-;-;8.969162;1.4965668;-1.2395172;-;-;-;-;-;-;-;-;-;-;-;-;-;-;-
1511264216803;-;-;9.0793;1.5312805;-1.2754211;-;-;-;-;-;-;-;-;-;-;-;-;-;-;-
1511264216824;-;-;9.124786;1.4750214;-1.2957764;-;-;-;-;-;-;-;-;-;-;-;-;-;-;-
1511264216844;-;-;9.058945;1.4259338;-1.3233032;-;-;-;-;-;-;-;-;-;-;-;-;-;-;-
1511264216864;-;-;9.007477;1.4403076;-1.3041534;-;-;-;-;-;-;-;-;-;-;-;-;-;-;-
1511264216884;-;-;8.957199;1.4355164;-1.3089447;-;-;-;-;-;-;-;-;-;-;-;-;-;-;-
1511264216905;-;-;9.003891;1.477417;-1.2802124;-;-;-;-;-;-;-;-;-;-;-;-;-;-;-
1511264216925;-;-;9.042191;1.5252991;-1.2957764;-;-;-;-;-;-;-;-;-;-;-;-;-;-;-
1511264216945;-;-;9.046982;1.5097351;-1.3269043;-;-;-;-;-;-;-;-;-;-;-;-;-;-;-
1511264216966;-;-;8.985931;1.461853;-1.3460541;-;-;-;-;-;-;-;-;-;-;-;-;-;-;-
1511264216986;-;-;8.92128;1.453476;-1.3628082;-;-;-;-;-;-;-;-;-;-;-;-;-;-;-
1511264217007;-;-;8.988327;1.4798126;-1.3903503;-;-;-;-;-;-;-;-;-;-;-;-;-;-;-
1511264217028;-;-;9.00029;1.4558716;-1.3604279;-;-;-;-;-;-;-;-;-;-;-;-;-;-;-
1511264217048;-;-;9.033813;1.4786072;-1.2766266;-;-;-;-;-;-;-;-;-;-;-;-;-;-;-
1511264217068;-;-;8.989517;1.4654388;-1.3209229;-;-;-;-;-;-;-;-;-;-;-;-;-;-;-
1511264217089;-;-;8.977554;1.4857941;-1.3400726;-;-;-;-;-;-;-;-;-;-;-;-;-;-;-
1511264217110;-;-;8.96199;1.5288849;-1.3652039;-;-;-;-;-;-;-;-;-;-;-;-;-;-;-
1511264217131;-;-;9.014664;1.5468445;-1.3747864;-;-;-;-;-;-;-;-;-;-;-;-;-;-;-
1511264217151;-;-;9.002686;1.5061493;-1.4418182;-;-;-;-;-;-;-;-;-;-;-;-;-;-;-
1511264217171;-;-;8.970367;1.5037537;-1.3879547;-;-;-;-;-;-;-;-;-;-;-;-;-;-;-
1511264217192;-;-;8.965576;1.4869843;-1.3939362;-;-;-;-;-;-;-;-;-;-;-;-;-;-;-
1511264217211;-;-;9.005081;1.4810028;-1.3747864;-;-;-;-;-;-;-;-;-;-;-;-;-;-;-
1511264217231;-;-;8.958389;1.4630432;-1.3807678;-;-;-;-;-;-;-;-;-;-;-;-;-;-;-
1511264217251;-;-;8.9787445;1.5097351;-1.4118958;-;-;-;-;-;-;-;-;-;-;-;-;-;-;-
1511264217272;-;-;8.9787445;1.5456543;-1.452591;-;-;-;-;-;-;-;-;-;-;-;-;-;-;-
1511264217292;-;-;8.965576;1.5420532;-1.3987274;-;-;-;-;-;-;-;-;-;-;-;-;-;-;-
1511264217312;-;-;9.009872;1.5815582;-1.4370422;-;-;-;-;-;-;-;-;-;-;-;-;-;-;-
1511264217333;-;-;9.008667;1.5396576;-1.3819733;-;-;-;-;-;-;-;-;-;-;-;-;-;-;-
1511264217353;-;-;9.0182495;1.5001526;-1.4358368;-;-;-;-;-;-;-;-;-;-;-;-;-;-;-
1511264217373;-;-;9.014664;1.5396576;-1.4298553;-;-;-;-;-;-;-;-;-;-;-;-;-;-;-
1511264217393;-;-;8.9392395;1.5552216;-1.3987274;-;-;-;-;-;-;-;-;-;-;-;-;-;-;-
1511264217414;-;-;8.969162;1.5659943;-1.3903503;-;-;-;-;-;-;-;-;-;-;-;-;-;-;-
1511264217434;-;-;9.00029;1.5133209;-1.4154816;-;-;-;-;-;-;-;-;-;-;-;-;-;-;-
1511264217454;-;-;9.00029;1.4917755;-1.4226685;-;-;-;-;-;-;-;-;-;-;-;-;-;-;-
1511264217474;-;-;8.984726;1.5300903;-1.4226685;-;-;-;-;-;-;-;-;-;-;-;-;-;-;-
1511264217495;-;-;8.967972;1.537262;-1.3819733;-;-;-;-;-;-;-;-;-;-;-;-;-;-;-
1511264217515;-;-;8.959595;1.5755768;-1.4298553;-;-;-;-;-;-;-;-;-;-;-;-;-;-;-
1511264217536;-;-;8.97995;1.5600128;-1.4107056;-;-;-;-;-;-;-;-;-;-;-;-;-;-;-
1511264217555;-;-;8.9991;1.5635986;-1.4585876;-;-;-;-;-;-;-;-;-;-;-;-;-;-;-
1511264217575;-;-;9.0182495;1.540863;-1.4118958;-;-;-;-;-;-;-;-;-;-;-;-;-;-;-
1511264217596;-;-;8.964386;1.5264893;-1.377182;-;-;-;-;-;-;-;-;-;-;-;-;-;-;-
1511264217616;-;-;8.993118;1.5133209;-1.3903503;-;-;-;-;-;-;-;-;-;-;-;-;-;-;-
1511264217636;-;-;8.973953;1.4822083;-1.4214783;-;-;-;-;-;-;-;-;-;-;-;-;-;-;-
1511264217656;-;-;8.951218;1.5145264;-1.392746;-;-;-;-;-;-;-;-;-;-;-;-;-;-;-
1511264217677;-;-;8.984726;1.5252991;-1.3903503;-;-;-;-;-;-;-;-;-;-;-;-;-;-;-
1511264217697;-;-;8.993118;1.571991;-1.3735962;-;-;-;-;-;-;-;-;-;-;-;-;-;-;-
1511264217718;-;-;9.005081;1.540863;-1.3592224;-;-;-;-;-;-;-;-;-;-;-;-;-;-;-
1511264217738;-;-;9.017059;1.5229034;-1.4190826;-;-;-;-;-;-;-;-;-;-;-;-;-;-;-
1511264217758;-;-;9.009872;1.5073395;-1.3975372;-;-;-;-;-;-;-;-;-;-;-;-;-;-;-
1511264217778;-;-;8.970367;1.5360718;-1.3819733;-;-;-;-;-;-;-;-;-;-;-;-;-;-;-
1511264217799;-;-;8.963181;1.5288849;-1.3580322;-;-;-;-;-;-;-;-;-;-;-;-;-;-;-
1511264217819;-;-;8.963181;1.492981;-1.3280945;-;-;-;-;-;-;-;-;-;-;-;-;-;-;-
1511264217839;-;-;8.990723;1.4726257;-1.3795776;-;-;-;-;-;-;-;-;-;-;-;-;-;-;-
1511264217860;-;-;8.997894;1.501358;-1.3604279;-;-;-;-;-;-;-;-;-;-;-;-;-;-;-
1511264217880;-;-;8.967972;1.5252991;-1.3448639;-;-;-;-;-;-;-;-;-;-;-;-;-;-;-
1511264217900;-;-;8.955994;1.5695953;-1.3580322;-;-;-;-;-;-;-;-;-;-;-;-;-;-;-
1511264217920;-;-;8.969162;1.5791626;-1.3340912;-;-;-;-;-;-;-;-;-;-;-;-;-;-;-
1511264217941;-;-;8.995499;1.5420532;-1.3256989;-;-;-;-;-;-;-;-;-;-;-;-;-;-;-
1511264217961;-;-;9.048172;1.5528259;-1.2311401;-;-;-;-;-;-;-;-;-;-;-;-;-;-;-
1511264217981;-;-;9.012268;1.5456543;-1.2287445;-;-;-;-;-;-;-;-;-;-;-;-;-;-;-
1511264218002;-;-;8.97995;1.5827637;-1.2873993;-;-;-;-;-;-;-;-;-;-;-;-;-;-;-
1511264218022;-;-;8.946426;1.5635986;-1.2969818;-;-;-;-;-;-;-;-;-;-;-;-;-;-;-
1511264218042;-;-;8.947617;1.5899353;-1.2359161;-;-;-;-;-;-;-;-;-;-;-;-;-;-;-
1511264218063;-;-;8.936844;1.5516357;-1.2814178;-;-;-;-;-;-;-;-;-;-;-;-;-;-;-
1511264218083;-;-;8.96199;1.4654388;-1.2227478;-;-;-;-;-;-;-;-;-;-;-;-;-;-;-
1511264218103;-;-;8.923676;1.492981;-1.2263489;-;-;-;-;-;-;-;-;-;-;-;-;-;-;-
1511264218124;-;-;8.960785;1.5648041;-1.2323303;-;-;-;-;-;-;-;-;-;-;-;-;-;-;-
1511264218144;-;-;9.086487;1.6102905;-1.2850037;-;-;-;-;-;-;-;-;-;-;-;-;-;-;-
1511264218164;-;-;9.147537;1.5492401;-1.3149261;-;-;-;-;-;-;-;-;-;-;-;-;-;-;-
1511264218184;-;-;9.044586;1.5300903;-1.2730255;-;-;-;-;-;-;-;-;-;-;-;-;-;-;-
1511264218205;-;-;8.935654;1.6054993;-1.2131805;-;-;-;-;-;-;-;-;-;-;-;-;-;-;-
1511264218225;-;-;8.872208;1.5588226;-1.2802124;-;-;-;-;-;-;-;-;-;-;-;-;-;-;-
1511264218245;-;-;8.927277;1.556427;-1.2682495;-;-;-;-;-;-;-;-;-;-;-;-;-;-;-
1511264218266;-;-;9.024231;1.5576172;-1.3424683;-;-;-;-;-;-;-;-;-;-;-;-;-;-;-
1511264218286;-;-;9.015854;1.532486;-1.2838135;-;-;-;-;-;-;-;-;-;-;-;-;-;-;-
1511264218306;-;-;9.006287;1.6258545;-1.2502899;-;-;-;-;-;-;-;-;-;-;-;-;-;-;-
1511264218326;-;-;8.948822;1.6246643;-1.2478943;-;-;-;-;-;-;-;-;-;-;-;-;-;-;-
1511264218347;-;-;8.964386;1.6270447;-1.2933807;-;-;-;-;-;-;-;-;-;-;-;-;-;-;-
1511264218366;-;-;8.964386;1.616272;-1.3053589;-;-;-;-;-;-;-;-;-;-;-;-;-;-;-
1511264218386;-;-;9.052963;1.5863495;-1.353241;-;-;-;-;-;-;-;-;-;-;-;-;-;-;-
1511264218407;-;-;9.070923;1.5468445;-1.3652039;-;-;-;-;-;-;-;-;-;-;-;-;-;-;-
1511264218427;-;-;8.960785;1.4941711;-1.3269043;-;-;-;-;-;-;-;-;-;-;-;-;-;-;-
1511264218447;-;-;8.927277;1.4857941;-1.2993622;-;-;-;-;-;-;-;-;-;-;-;-;-;-;-
1511264218468;-;-;8.886566;1.5217133;-1.2466888;-;-;-;-;-;-;-;-;-;-;-;-;-;-;-
1511264218488;-;-;8.940445;1.5480499;-1.2897949;-;-;-;-;-;-;-;-;-;-;-;-;-;-;-
1511264218507;-;-;8.96199;1.5707855;-1.2921906;-;-;-;-;-;-;-;-;-;-;-;-;-;-;-
1511264218527;-;-;9.043396;1.5288849;-1.3029633;-;-;-;-;-;-;-;-;-;-;-;-;-;-;-
1511264218548;-;-;8.9991;1.4857941;-1.3005676;-;-;-;-;-;-;-;-;-;-;-;-;-;-;-
1511264218567;-;-;8.953613;1.5109406;-1.2873993;-;-;-;-;-;-;-;-;-;-;-;-;-;-;-
1511264218587;-;-;8.952408;1.5396576;-1.3041534;-;-;-;-;-;-;-;-;-;-;-;-;-;-;-
1511264218608;-;-;9.008667;1.5839539;-1.2897949;-;-;-;-;-;-;-;-;-;-;-;-;-;-;-
1511264218628;-;-;9.019455;1.5791626;-1.2646484;-;-;-;-;-;-;-;-;-;-;-;-;-;-;-
1511264218648;-;-;9.072113;1.5504303;-1.3197174;-;-;-;-;-;-;-;-;-;-;-;-;-;-;-
1511264218668;-;-;9.035004;1.5480499;-1.3256989;-;-;-;-;-;-;-;-;-;-;-;-;-;-;-
1511264218689;-;-;8.987122;1.5121307;-1.3041534;-;-;-;-;-;-;-;-;-;-;-;-;-;-;-
1511264218709;-;-;8.955994;1.5300903;-1.298172;-;-;-;-;-;-;-;-;-;-;-;-;-;-;-
1511264218729;-;-;8.9991;1.5683899;-1.2538757;-;-;-;-;-;-;-;-;-;-;-;-;-;-;-
1511264218749;-;-;9.026627;1.5935364;-1.2921906;-;-;-;-;-;-;-;-;-;-;-;-;-;-;-
1511264218770;-;-;9.039795;1.5264893;-1.2850037;-;-;-;-;-;-;-;-;-;-;-;-;-;-;-
1511264218789;-;-;8.955994;1.4810028;-1.2802124;-;-;-;-;-;-;-;-;-;-;-;-;-;-;-
1511264218809;-;-;8.991913;1.4965668;-1.298172;-;-;-;-;-;-;-;-;-;-;-;-;-;-;-
1511264218830;-;-;9.009872;1.4786072;-1.3556366;-;-;-;-;-;-;-;-;-;-;-;-;-;-;-
1511264218850;-;-;9.002686;1.5420532;-1.2957764;-;-;-;-;-;-;-;-;-;-;-;-;-;-;-
1511264218870;-;-;9.036209;1.5683899;-1.3628082;-;-;-;-;-;-;-;-;-;-;-;-;-;-;-
1511264218890;-;-;9.0577545;1.5432587;-1.3185272;-;-;-;-;-;-;-;-;-;-;-;-;-;-;-
1511264218911;-;-;9.001495;1.5635986;-1.2850037;-;-;-;-;-;-;-;-;-;-;-;-;-;-;-
1511264218931;-;-;9.002686;1.5648041;-1.2957764;-;-;-;-;-;-;-;-;-;-;-;-;-;-;-
1511264218951;-;-;9.014664;1.5145264;-1.3113403;-;-;-;-;-;-;-;-;-;-;-;-;-;-;-
1511264218971;-;-;8.972763;1.5217133;-1.3604279;-;-;-;-;-;-;-;-;-;-;-;-;-;-;-
1511264218992;-;-;9.005081;1.516922;-1.3747864;-;-;-;-;-;-;-;-;-;-;-;-;-;-;-
1511264219011;-;-;8.960785;1.5300903;-1.3388672;-;-;-;-;-;-;-;-;-;-;-;-;-;-;-
1511264219031;-;-;8.977554;1.5288849;-1.3592224;-;-;-;-;-;-;-;-;-;-;-;-;-;-;-
1511264219051;-;-;8.977554;1.5348816;-1.3544312;-;-;-;-;-;-;-;-;-;-;-;-;-;-;-
1511264219071;-;-;8.983536;1.5648041;-1.3245087;-;-;-;-;-;-;-;-;-;-;-;-;-;-;-
1511264219092;-;-;8.975159;1.6091003;-1.3256989;-;-;-;-;-;-;-;-;-;-;-;-;-;-;-
1511264219112;-;-;8.914108;1.6102905;-1.2957764;-;-;-;-;-;-;-;-;-;-;-;-;-;-;-
1511264219132;-;-;8.894943;1.6210632;-1.3101501;-;-;-;-;-;-;-;-;-;-;-;-;-;-;-
1511264219152;-;-;8.954803;1.611496;-1.298172;-;-;-;-;-;-;-;-;-;-;-;-;-;-;-
1511264219172;-;-;9.0182495;1.616272;-1.2873993;-;-;-;-;-;-;-;-;-;-;-;-;-;-;-
1511264219193;-;-;9.006287;1.5983276;-1.2478943;-;-;-;-;-;-;-;-;-;-;-;-;-;-;-
1511264219213;-;-;9.009872;1.5827637;-1.2454987;-;-;-;-;-;-;-;-;-;-;-;-;-;-;-
1511264219233;-;-;8.98233;1.6126862;-1.2658539;-;-;-;-;-;-;-;-;-;-;-;-;-;-;-
1511264219254;-;-;8.993118;1.5947266;-1.2215576;-;-;-;-;-;-;-;-;-;-;-;-;-;-;-
1511264219274;-;-;8.989517;1.6186676;-1.2778168;-;-;-;-;-;-;-;-;-;-;-;-;-;-;-
1511264219294;-;-;9.008667;1.5671997;-1.2419128;-;-;-;-;-;-;-;-;-;-;-;-;-;-;-
1511264219314;-;-;9.029022;1.5827637;-1.2670441;-;-;-;-;-;-;-;-;-;-;-;-;-;-;-
1511264219334;-;-;9.0182495;1.5588226;-1.2311401;-;-;-;-;-;-;-;-;-;-;-;-;-;-;-
1511264219355;-;-;9.0182495;1.5659943;-1.2706451;-;-;-;-;-;-;-;-;-;-;-;-;-;-;-
1511264219375;-;-;9.042191;1.5648041;-1.3101501;-;-;-;-;-;-;-;-;-;-;-;-;-;-;-
1511264219396;-;-;9.0733185;1.5923309;-1.2993622;-;-;-;-;-;-;-;-;-;-;-;-;-;-;-
1511264219416;-;-;9.012268;1.5899353;-1.2766266;-;-;-;-;-;-;-;-;-;-;-;-;-;-;-
1511264219435;-;-;8.98114;1.595932;-1.2718353;-;-;-;-;-;-;-;-;-;-;-;-;-;-;-
1511264219455;-;-;8.878189;1.5229034;-1.2790222;-;-;-;-;-;-;-;-;-;-;-;-;-;-;-
1511264219476;-;-;8.848267;1.5456543;-1.2275391;-;-;-;-;-;-;-;-;-;-;-;-;-;-;-
