TimeStamp[ms];Prox[Cm];Lux[lux];AccX[m/s^2];AccY[m/s^2];AccZ[m/s^2];GyroX[rad/s];GyroY[rad/s];GyroZ[rad/s];MagnX[uT];MagnY[uT];MagnZ[uT];OrienYaw[degrees];OrienPitch[degrees];OrienRoll[degrees];Press[Pa];Temp[C°];Batt[%];Lat;Lng;Speed[m/s]
1511264505097;-;-;9.232529;-1.9271393;-0.15493774;-;-;-;-;-;-;-;-;-;-;-;-;-;-;-
1511264505102;-;-;9.165497;-1.9750214;-0.24232483;-;-;-;-;-;-;-;-;-;-;-;-;-;-;-
1511264505123;-;-;8.884171;-1.9283447;-0.13578796;-;-;-;-;-;-;-;-;-;-;-;-;-;-;-
1511264505143;-;-;8.983536;-2.0133362;-0.12261963;-;-;-;-;-;-;-;-;-;-;-;-;-;-;-
1511264505163;-;-;8.983536;-2.1689606;-0.11782837;-;-;-;-;-;-;-;-;-;-;-;-;-;-;-
1511264505183;-;-;9.038605;-2.1462097;0.007858276;-;-;-;-;-;-;-;-;-;-;-;-;-;-;-
1511264505204;-;-;8.932053;-2.1845245;-0.011291504;-;-;-;-;-;-;-;-;-;-;-;-;-;-;-
1511264505223;-;-;9.104446;-2.3892212;0.015045166;-;-;-;-;-;-;-;-;-;-;-;-;-;-;-
1511264505243;-;-;9.020645;-2.210846;0.01625061;-;-;-;-;-;-;-;-;-;-;-;-;-;-;-
1511264505264;-;-;8.98233;-2.2240143;0.09764099;-;-;-;-;-;-;-;-;-;-;-;-;-;-;-
1511264505284;-;-;9.009872;-2.2000732;-0.11303711;-;-;-;-;-;-;-;-;-;-;-;-;-;-;-
1511264505304;-;-;9.023041;-2.1881104;-0.032836914;-;-;-;-;-;-;-;-;-;-;-;-;-;-;-
1511264505324;-;-;9.123596;-2.151001;-0.03163147;-;-;-;-;-;-;-;-;-;-;-;-;-;-;-
1511264505353;-;-;9.099655;-2.04924;-0.12980652;-;-;-;-;-;-;-;-;-;-;-;-;-;-;-
1511264505365;-;-;9.124786;-1.8852386;-0.27824402;-;-;-;-;-;-;-;-;-;-;-;-;-;-;-
1511264505385;-;-;9.043396;-2.0181274;-0.07713318;-;-;-;-;-;-;-;-;-;-;-;-;-;-;-
1511264505406;-;-;8.796783;-1.9833984;-0.0627594;-;-;-;-;-;-;-;-;-;-;-;-;-;-;-
1511264505426;-;-;8.774048;-1.8421478;-0.34887695;-;-;-;-;-;-;-;-;-;-;-;-;-;-;-
1511264505446;-;-;8.88298;-2.111496;0.12397766;-;-;-;-;-;-;-;-;-;-;-;-;-;-;-
1511264505467;-;-;9.260071;-2.3916168;0.2520752;-;-;-;-;-;-;-;-;-;-;-;-;-;-;-
1511264505487;-;-;9.29718;-2.0516357;-0.0053100586;-;-;-;-;-;-;-;-;-;-;-;-;-;-;-
1511264505507;-;-;9.090073;-1.8660889;0.05934143;-;-;-;-;-;-;-;-;-;-;-;-;-;-;-
1511264505528;-;-;9.012268;-1.8086243;-0.11782837;-;-;-;-;-;-;-;-;-;-;-;-;-;-;-
1511264505548;-;-;9.293579;-1.977417;-0.09269714;-;-;-;-;-;-;-;-;-;-;-;-;-;-;-
1511264505569;-;-;9.246902;-2.1773376;0.12637329;-;-;-;-;-;-;-;-;-;-;-;-;-;-;-
1511264505589;-;-;9.31633;-2.1881104;-0.0029144287;-;-;-;-;-;-;-;-;-;-;-;-;-;-;-
1511264505610;-;-;9.295975;-2.2252197;0.046173096;-;-;-;-;-;-;-;-;-;-;-;-;-;-;-
1511264505630;-;-;9.345062;-2.0157318;-0.0029144287;-;-;-;-;-;-;-;-;-;-;-;-;-;-;-
1511264505650;-;-;9.374985;-1.8170013;-0.31414795;-;-;-;-;-;-;-;-;-;-;-;-;-;-;-
1511264505670;-;-;9.31633;-1.8445435;-0.06994629;-;-;-;-;-;-;-;-;-;-;-;-;-;-;-
1511264505690;-;-;9.357025;-2.230011;0.43643188;-;-;-;-;-;-;-;-;-;-;-;-;-;-;-
1511264505711;-;-;9.171478;-2.3066254;-0.6601105;-;-;-;-;-;-;-;-;-;-;-;-;-;-;-
1511264505731;-;-;8.491531;-1.8888397;0.2448883;-;-;-;-;-;-;-;-;-;-;-;-;-;-;-
1511264505751;-;-;8.42569;-1.8912201;0.23052979;-;-;-;-;-;-;-;-;-;-;-;-;-;-;-
1511264505772;-;-;8.576523;-2.1210785;-0.013687134;-;-;-;-;-;-;-;-;-;-;-;-;-;-;-
1511264505792;-;-;9.143951;-2.135437;0.216156;-;-;-;-;-;-;-;-;-;-;-;-;-;-;-
1511264505813;-;-;9.465973;-2.2838745;0.21496582;-;-;-;-;-;-;-;-;-;-;-;-;-;-;-
1511264505834;-;-;9.273239;-2.2946472;0.26763916;-;-;-;-;-;-;-;-;-;-;-;-;-;-;-
1511264505855;-;-;9.151123;-2.2252197;0.29637146;-;-;-;-;-;-;-;-;-;-;-;-;-;-;-
1511264505875;-;-;9.014664;-2.2276154;0.28320313;-;-;-;-;-;-;-;-;-;-;-;-;-;-;-
1511264505895;-;-;9.026627;-2.3784485;0.3382721;-;-;-;-;-;-;-;-;-;-;-;-;-;-;-
1511264505916;-;-;9.06015;-2.4299164;0.30593872;-;-;-;-;-;-;-;-;-;-;-;-;-;-;-
1511264505937;-;-;9.123596;-2.3904114;0.26524353;-;-;-;-;-;-;-;-;-;-;-;-;-;-;-
1511264505958;-;-;9.050568;-2.2168427;0.24967957;-;-;-;-;-;-;-;-;-;-;-;-;-;-;-
1511264505979;-;-;9.024231;-2.103119;0.17785645;-;-;-;-;-;-;-;-;-;-;-;-;-;-;-
1511264505999;-;-;9.207397;-2.1378326;0.04736328;-;-;-;-;-;-;-;-;-;-;-;-;-;-;-
1511264506019;-;-;9.39534;-2.1617737;0.05934143;-;-;-;-;-;-;-;-;-;-;-;-;-;-;-
1511264506039;-;-;9.386963;-2.0540314;0.094055176;-;-;-;-;-;-;-;-;-;-;-;-;-;-;-
1511264506059;-;-;9.145142;-1.9211578;0.13954163;-;-;-;-;-;-;-;-;-;-;-;-;-;-;-
1511264506080;-;-;8.903336;-1.9678345;0.108428955;-;-;-;-;-;-;-;-;-;-;-;-;-;-;-
1511264506100;-;-;8.92009;-1.9893951;0.072509766;-;-;-;-;-;-;-;-;-;-;-;-;-;-;-
1511264506120;-;-;9.007477;-1.922348;0.058151245;-;-;-;-;-;-;-;-;-;-;-;-;-;-;-
1511264506141;-;-;9.025436;-1.8086243;0.028213501;-;-;-;-;-;-;-;-;-;-;-;-;-;-;-
1511264506161;-;-;8.98233;-1.7344055;0.01864624;-;-;-;-;-;-;-;-;-;-;-;-;-;-;-
1511264506181;-;-;8.922485;-1.7463837;0.041381836;-;-;-;-;-;-;-;-;-;-;-;-;-;-;-
1511264506201;-;-;8.969162;-1.8002472;0.13835144;-;-;-;-;-;-;-;-;-;-;-;-;-;-;-
1511264506222;-;-;9.033813;-1.8565063;0.15270996;-;-;-;-;-;-;-;-;-;-;-;-;-;-;-
1511264506242;-;-;9.090073;-1.9127808;0.16468811;-;-;-;-;-;-;-;-;-;-;-;-;-;-;-
1511264506262;-;-;9.167892;-1.9893951;0.17306519;-;-;-;-;-;-;-;-;-;-;-;-;-;-;-
1511264506283;-;-;9.287598;-2.0671997;0.20419312;-;-;-;-;-;-;-;-;-;-;-;-;-;-;-
1511264506303;-;-;9.37619;-2.1366272;0.24728394;-;-;-;-;-;-;-;-;-;-;-;-;-;-;-
1511264506323;-;-;9.272034;-2.1318512;0.26045227;-;-;-;-;-;-;-;-;-;-;-;-;-;-;-
1511264506344;-;-;9.062546;-2.04805;0.2341156;-;-;-;-;-;-;-;-;-;-;-;-;-;-;-
1511264506364;-;-;9.027832;-2.1067047;0.16827393;-;-;-;-;-;-;-;-;-;-;-;-;-;-;-
1511264506385;-;-;9.026627;-2.0600128;0.12757874;-;-;-;-;-;-;-;-;-;-;-;-;-;-;-
1511264506405;-;-;9.067337;-1.977417;0.096450806;-;-;-;-;-;-;-;-;-;-;-;-;-;-;-
1511264506425;-;-;9.09845;-1.9965668;0.09526062;-;-;-;-;-;-;-;-;-;-;-;-;-;-;-
1511264506445;-;-;9.099655;-1.9642487;0.137146;-;-;-;-;-;-;-;-;-;-;-;-;-;-;-
1511264506466;-;-;9.032608;-1.8960114;0.038986206;-;-;-;-;-;-;-;-;-;-;-;-;-;-;-
1511264506485;-;-;9.008667;-1.7966614;0.036590576;-;-;-;-;-;-;-;-;-;-;-;-;-;-;-
1511264506505;-;-;9.030228;-1.8217926;0.034194946;-;-;-;-;-;-;-;-;-;-;-;-;-;-;-
1511264506526;-;-;9.103241;-1.8517303;0.025817871;-;-;-;-;-;-;-;-;-;-;-;-;-;-;-
1511264506546;-;-;9.210983;-1.843338;0.021026611;-;-;-;-;-;-;-;-;-;-;-;-;-;-;-
1511264506566;-;-;9.21817;-1.7607422;0.04736328;-;-;-;-;-;-;-;-;-;-;-;-;-;-;-
1511264506587;-;-;9.209793;-1.7571564;0.050964355;-;-;-;-;-;-;-;-;-;-;-;-;-;-;-
1511264506607;-;-;9.15712;-1.7475739;0.058151245;-;-;-;-;-;-;-;-;-;-;-;-;-;-;-
1511264506627;-;-;9.090073;-1.7619476;0.08807373;-;-;-;-;-;-;-;-;-;-;-;-;-;-;-
1511264506648;-;-;9.141556;-1.8002472;0.058151245;-;-;-;-;-;-;-;-;-;-;-;-;-;-;-
1511264506668;-;-;9.23851;-1.7930603;0.060531616;-;-;-;-;-;-;-;-;-;-;-;-;-;-;-
1511264506688;-;-;9.189438;-1.7715149;0.094055176;-;-;-;-;-;-;-;-;-;-;-;-;-;-;-
1511264506708;-;-;9.102051;-1.7727203;0.07849121;-;-;-;-;-;-;-;-;-;-;-;-;-;-;-
1511264506729;-;-;9.030228;-1.7308197;0.07369995;-;-;-;-;-;-;-;-;-;-;-;-;-;-;-
1511264506750;-;-;9.014664;-1.7619476;0.06652832;-;-;-;-;-;-;-;-;-;-;-;-;-;-;-
1511264506770;-;-;9.032608;-1.7739105;0.05934143;-;-;-;-;-;-;-;-;-;-;-;-;-;-;-
1511264506790;-;-;9.114014;-1.7822876;0.036590576;-;-;-;-;-;-;-;-;-;-;-;-;-;-;-
1511264506811;-;-;9.151123;-1.759552;0.055755615;-;-;-;-;-;-;-;-;-;-;-;-;-;-;-
1511264506831;-;-;9.1128235;-1.8074341;0.07609558;-;-;-;-;-;-;-;-;-;-;-;-;-;-;-
1511264506852;-;-;9.14035;-1.8768616;0.055755615;-;-;-;-;-;-;-;-;-;-;-;-;-;-;-
1511264506872;-;-;9.181061;-1.9319305;0.05934143;-;-;-;-;-;-;-;-;-;-;-;-;-;-;-
1511264506892;-;-;9.234924;-1.9702301;0.050964355;-;-;-;-;-;-;-;-;-;-;-;-;-;-;-
1511264506912;-;-;9.212173;-1.9331207;0.05215454;-;-;-;-;-;-;-;-;-;-;-;-;-;-;-
1511264506933;-;-;9.194229;-1.8924255;0.070114136;-;-;-;-;-;-;-;-;-;-;-;-;-;-;-
1511264506953;-;-;9.136765;-1.9331207;0.094055176;-;-;-;-;-;-;-;-;-;-;-;-;-;-;-
1511264506973;-;-;8.995499;-1.8816528;0.15270996;-;-;-;-;-;-;-;-;-;-;-;-;-;-;-
1511264506993;-;-;9.009872;-1.8289795;0.11680603;-;-;-;-;-;-;-;-;-;-;-;-;-;-;-
1511264507014;-;-;9.056564;-1.8265839;0.067718506;-;-;-;-;-;-;-;-;-;-;-;-;-;-;-
1511264507034;-;-;9.127182;-1.8708801;0.12637329;-;-;-;-;-;-;-;-;-;-;-;-;-;-;-
1511264507054;-;-;9.108032;-1.8996124;0.04736328;-;-;-;-;-;-;-;-;-;-;-;-;-;-;-
1511264507075;-;-;9.135559;-1.9714355;0.0569458;-;-;-;-;-;-;-;-;-;-;-;-;-;-;-
1511264507095;-;-;9.130783;-2.0923462;0.03779602;-;-;-;-;-;-;-;-;-;-;-;-;-;-;-
1511264507115;-;-;9.169083;-2.1952972;-0.0627594;-;-;-;-;-;-;-;-;-;-;-;-;-;-;-
1511264507136;-;-;9.183456;-2.262329;-0.006500244;-;-;-;-;-;-;-;-;-;-;-;-;-;-;-
1511264507156;-;-;9.159515;-2.4071808;-0.05079651;-;-;-;-;-;-;-;-;-;-;-;-;-;-;-
1511264507176;-;-;9.109222;-2.5089264;-0.012481689;-;-;-;-;-;-;-;-;-;-;-;-;-;-;-
1511264507197;-;-;8.987122;-2.5711823;0.19940186;-;-;-;-;-;-;-;-;-;-;-;-;-;-;-
1511264507217;-;-;8.954803;-2.388031;0.15510559;-;-;-;-;-;-;-;-;-;-;-;-;-;-;-
1511264507238;-;-;8.815933;-2.071991;-0.06515503;-;-;-;-;-;-;-;-;-;-;-;-;-;-;-
1511264507258;-;-;8.770447;-1.827774;-0.20402527;-;-;-;-;-;-;-;-;-;-;-;-;-;-;-
1511264507278;-;-;8.967972;-1.6877136;-0.20881653;-;-;-;-;-;-;-;-;-;-;-;-;-;-;-
1511264507299;-;-;9.127182;-1.7308197;-0.21838379;-;-;-;-;-;-;-;-;-;-;-;-;-;-;-
1511264507319;-;-;9.25647;-1.6877136;-0.22676086;-;-;-;-;-;-;-;-;-;-;-;-;-;-;-
1511264507340;-;-;9.239716;-1.6793365;-0.21598816;-;-;-;-;-;-;-;-;-;-;-;-;-;-;-
1511264507360;-;-;9.227737;-1.743988;-0.14656067;-;-;-;-;-;-;-;-;-;-;-;-;-;-;-
1511264507380;-;-;9.266052;-1.8146057;-0.1309967;-;-;-;-;-;-;-;-;-;-;-;-;-;-;-
1511264507401;-;-;9.318726;-1.9079895;-0.0914917;-;-;-;-;-;-;-;-;-;-;-;-;-;-;-
1511264507420;-;-;9.276825;-1.977417;-0.054382324;-;-;-;-;-;-;-;-;-;-;-;-;-;-;-
1511264507440;-;-;9.202606;-2.0432587;-0.061569214;-;-;-;-;-;-;-;-;-;-;-;-;-;-;-
1511264507460;-;-;9.190628;-2.1390228;-0.035232544;-;-;-;-;-;-;-;-;-;-;-;-;-;-;-
1511264507481;-;-;9.172684;-2.1007233;0.038986206;-;-;-;-;-;-;-;-;-;-;-;-;-;-;-
1511264507501;-;-;9.15831;-2.0420685;0.070114136;-;-;-;-;-;-;-;-;-;-;-;-;-;-;-
1511264507521;-;-;8.996704;-1.9570618;0.09046936;-;-;-;-;-;-;-;-;-;-;-;-;-;-;-
1511264507542;-;-;8.945221;-1.9869995;0.09526062;-;-;-;-;-;-;-;-;-;-;-;-;-;-;-
1511264507561;-;-;8.917694;-2.0205078;0.098846436;-;-;-;-;-;-;-;-;-;-;-;-;-;-;-
1511264507581;-;-;8.697433;-2.0600128;0.3203125;-;-;-;-;-;-;-;-;-;-;-;-;-;-;-
1511264507601;-;-;9.019455;-1.9558716;0.077301025;-;-;-;-;-;-;-;-;-;-;-;-;-;-;-
1511264507622;-;-;9.069733;-1.9822083;0.117996216;-;-;-;-;-;-;-;-;-;-;-;-;-;-;-
1511264507642;-;-;9.093674;-2.0073395;0.14193726;-;-;-;-;-;-;-;-;-;-;-;-;-;-;-
1511264507662;-;-;9.0793;-2.0899506;0.15989685;-;-;-;-;-;-;-;-;-;-;-;-;-;-;-
1511264507683;-;-;9.084091;-2.0707855;0.10003662;-;-;-;-;-;-;-;-;-;-;-;-;-;-;-
1511264507703;-;-;9.121201;-1.9810028;0.065322876;-;-;-;-;-;-;-;-;-;-;-;-;-;-;-
1511264507723;-;-;9.145142;-1.9726257;0.079696655;-;-;-;-;-;-;-;-;-;-;-;-;-;-;-
1511264507744;-;-;9.105637;-2.0193176;0.001876831;-;-;-;-;-;-;-;-;-;-;-;-;-;-;-
1511264507764;-;-;9.15831;-2.0971222;0.077301025;-;-;-;-;-;-;-;-;-;-;-;-;-;-;-
1511264507784;-;-;9.105637;-2.0779724;0.001876831;-;-;-;-;-;-;-;-;-;-;-;-;-;-;-
1511264507805;-;-;9.164291;-2.080368;-0.06636047;-;-;-;-;-;-;-;-;-;-;-;-;-;-;-
1511264507825;-;-;9.25528;-2.1533966;0.062927246;-;-;-;-;-;-;-;-;-;-;-;-;-;-;-
1511264507845;-;-;9.069733;-2.111496;0.04975891;-;-;-;-;-;-;-;-;-;-;-;-;-;-;-
1511264507865;-;-;8.960785;-2.1019135;-0.047195435;-;-;-;-;-;-;-;-;-;-;-;-;-;-;-
1511264507886;-;-;8.940445;-2.1019135;-0.03163147;-;-;-;-;-;-;-;-;-;-;-;-;-;-;-
1511264507906;-;-;8.989517;-2.064804;-0.08670044;-;-;-;-;-;-;-;-;-;-;-;-;-;-;-
1511264507926;-;-;8.893753;-2.0265045;-0.05796814;-;-;-;-;-;-;-;-;-;-;-;-;-;-;-
1511264507947;-;-;8.876999;-2.0911407;0.036590576;-;-;-;-;-;-;-;-;-;-;-;-;-;-;-
1511264507966;-;-;8.927277;-2.1162872;0.101242065;-;-;-;-;-;-;-;-;-;-;-;-;-;-;-
1511264507986;-;-;8.945221;-2.2024689;0.12757874;-;-;-;-;-;-;-;-;-;-;-;-;-;-;-
1511264508006;-;-;9.012268;-2.2527466;0.17066956;-;-;-;-;-;-;-;-;-;-;-;-;-;-;-
1511264508027;-;-;9.103241;-2.2575378;0.09046936;-;-;-;-;-;-;-;-;-;-;-;-;-;-;-
1511264508047;-;-;9.202606;-2.2515564;0.15151978;-;-;-;-;-;-;-;-;-;-;-;-;-;-;-
1511264508067;-;-;9.261261;-2.2192383;0.17904663;-;-;-;-;-;-;-;-;-;-;-;-;-;-;-
1511264508087;-;-;9.25647;-2.119873;0.20298767;-;-;-;-;-;-;-;-;-;-;-;-;-;-;-
1511264508108;-;-;9.1918335;-2.0468445;0.15510559;-;-;-;-;-;-;-;-;-;-;-;-;-;-;-
1511264508128;-;-;9.075714;-1.9953766;0.0856781;-;-;-;-;-;-;-;-;-;-;-;-;-;-;-
1511264508148;-;-;9.030228;-1.9917908;0.17904663;-;-;-;-;-;-;-;-;-;-;-;-;-;-;-
1511264508168;-;-;8.989517;-2.0229034;0.22215271;-;-;-;-;-;-;-;-;-;-;-;-;-;-;-
1511264508189;-;-;8.988327;-2.088745;0.20898438;-;-;-;-;-;-;-;-;-;-;-;-;-;-;-
1511264508209;-;-;9.0577545;-2.104309;0.20898438;-;-;-;-;-;-;-;-;-;-;-;-;-;-;-
1511264508229;-;-;9.129578;-2.0911407;0.20179749;-;-;-;-;-;-;-;-;-;-;-;-;-;-;-
1511264508250;-;-;9.155914;-2.0863495;0.171875;-;-;-;-;-;-;-;-;-;-;-;-;-;-;-
1511264508270;-;-;9.090073;-2.0839539;0.15989685;-;-;-;-;-;-;-;-;-;-;-;-;-;-;-
1511264508290;-;-;9.088882;-2.1641693;0.19102478;-;-;-;-;-;-;-;-;-;-;-;-;-;-;-
1511264508311;-;-;9.058945;-2.2312012;0.21138;-;-;-;-;-;-;-;-;-;-;-;-;-;-;-
1511264508330;-;-;9.044586;-2.2479706;0.21376038;-;-;-;-;-;-;-;-;-;-;-;-;-;-;-
1511264508350;-;-;9.1128235;-2.2000732;0.22453308;-;-;-;-;-;-;-;-;-;-;-;-;-;-;-
1511264508371;-;-;9.072113;-2.182129;0.20298767;-;-;-;-;-;-;-;-;-;-;-;-;-;-;-
1511264508391;-;-;9.0793;-2.1533966;0.120391846;-;-;-;-;-;-;-;-;-;-;-;-;-;-;-
1511264508411;-;-;9.070923;-2.1929016;0.20059204;-;-;-;-;-;-;-;-;-;-;-;-;-;-;-
1511264508432;-;-;8.987122;-2.2395782;0.18862915;-;-;-;-;-;-;-;-;-;-;-;-;-;-;-
1511264508451;-;-;9.054169;-2.2359924;0.14672852;-;-;-;-;-;-;-;-;-;-;-;-;-;-;-
1511264508471;-;-;9.103241;-2.221634;0.16947937;-;-;-;-;-;-;-;-;-;-;-;-;-;-;-
1511264508492;-;-;9.085281;-2.2192383;0.16229248;-;-;-;-;-;-;-;-;-;-;-;-;-;-;-
1511264508511;-;-;8.994308;-2.2192383;0.12637329;-;-;-;-;-;-;-;-;-;-;-;-;-;-;-
1511264508531;-;-;8.929672;-2.238388;0.122787476;-;-;-;-;-;-;-;-;-;-;-;-;-;-;-
1511264508552;-;-;8.940445;-2.2192383;0.15989685;-;-;-;-;-;-;-;-;-;-;-;-;-;-;-
1511264508572;-;-;8.990723;-2.2407837;0.20059204;-;-;-;-;-;-;-;-;-;-;-;-;-;-;-
1511264508592;-;-;9.082901;-2.253952;0.1431427;-;-;-;-;-;-;-;-;-;-;-;-;-;-;-
1511264508612;-;-;9.090073;-2.2707062;0.17546082;-;-;-;-;-;-;-;-;-;-;-;-;-;-;-
1511264508633;-;-;9.094864;-2.265915;0.14433289;-;-;-;-;-;-;-;-;-;-;-;-;-;-;-
1511264508653;-;-;9.048172;-2.253952;0.14912415;-;-;-;-;-;-;-;-;-;-;-;-;-;-;-
1511264508673;-;-;9.099655;-2.3078156;0.110809326;-;-;-;-;-;-;-;-;-;-;-;-;-;-;-
1511264508693;-;-;9.084091;-2.2874756;0.16108704;-;-;-;-;-;-;-;-;-;-;-;-;-;-;-
1511264508713;-;-;9.039795;-2.2862701;0.1479187;-;-;-;-;-;-;-;-;-;-;-;-;-;-;-
1511264508734;-;-;9.045776;-2.2431793;0.15270996;-;-;-;-;-;-;-;-;-;-;-;-;-;-;-
1511264508754;-;-;9.0733185;-2.238388;0.15870667;-;-;-;-;-;-;-;-;-;-;-;-;-;-;-
1511264508774;-;-;9.050568;-2.2443695;0.137146;-;-;-;-;-;-;-;-;-;-;-;-;-;-;-
1511264508795;-;-;9.031418;-2.261139;0.17785645;-;-;-;-;-;-;-;-;-;-;-;-;-;-;-
1511264508815;-;-;9.023041;-2.261139;0.11920166;-;-;-;-;-;-;-;-;-;-;-;-;-;-;-
1511264508835;-;-;9.042191;-2.324585;0.15750122;-;-;-;-;-;-;-;-;-;-;-;-;-;-;-
1511264508855;-;-;9.100845;-2.309021;0.12637329;-;-;-;-;-;-;-;-;-;-;-;-;-;-;-
1511264508876;-;-;9.085281;-2.3042297;0.1251831;-;-;-;-;-;-;-;-;-;-;-;-;-;-;-
1511264508896;-;-;9.042191;-2.2743073;0.1479187;-;-;-;-;-;-;-;-;-;-;-;-;-;-;-
1511264508916;-;-;9.072113;-2.2587433;0.137146;-;-;-;-;-;-;-;-;-;-;-;-;-;-;-
1511264508937;-;-;9.006287;-2.262329;0.065322876;-;-;-;-;-;-;-;-;-;-;-;-;-;-;-
1511264508957;-;-;9.008667;-2.2288055;0.110809326;-;-;-;-;-;-;-;-;-;-;-;-;-;-;-
1511264508977;-;-;9.013458;-2.1809235;0.13835144;-;-;-;-;-;-;-;-;-;-;-;-;-;-;-
1511264508997;-;-;9.039795;-2.1629639;0.1431427;-;-;-;-;-;-;-;-;-;-;-;-;-;-;-
1511264509018;-;-;9.009872;-2.1521912;0.15151978;-;-;-;-;-;-;-;-;-;-;-;-;-;-;-
1511264509038;-;-;9.029022;-2.1641693;0.17066956;-;-;-;-;-;-;-;-;-;-;-;-;-;-;-
1511264509058;-;-;9.026627;-2.2096558;0.20658875;-;-;-;-;-;-;-;-;-;-;-;-;-;-;-
1511264509079;-;-;9.008667;-2.2288055;0.25447083;-;-;-;-;-;-;-;-;-;-;-;-;-;-;-
1511264509099;-;-;9.06134;-2.2515564;0.23052979;-;-;-;-;-;-;-;-;-;-;-;-;-;-;-
1511264509119;-;-;9.055359;-2.265915;0.2700348;-;-;-;-;-;-;-;-;-;-;-;-;-;-;-
1511264509140;-;-;9.076904;-2.2671204;0.24848938;-;-;-;-;-;-;-;-;-;-;-;-;-;-;-
1511264509160;-;-;9.067337;-2.238388;0.27243042;-;-;-;-;-;-;-;-;-;-;-;-;-;-;-
1511264509180;-;-;9.070923;-2.2371826;0.27122498;-;-;-;-;-;-;-;-;-;-;-;-;-;-;-
1511264509201;-;-;9.072113;-2.2407837;0.20898438;-;-;-;-;-;-;-;-;-;-;-;-;-;-;-
1511264509220;-;-;9.0733185;-2.2395782;0.2341156;-;-;-;-;-;-;-;-;-;-;-;-;-;-;-
1511264509240;-;-;9.075714;-2.2419739;0.2341156;-;-;-;-;-;-;-;-;-;-;-;-;-;-;-
1511264509261;-;-;9.036209;-2.2156372;0.23171997;-;-;-;-;-;-;-;-;-;-;-;-;-;-;-
1511264509281;-;-;9.130783;-2.2324066;0.21496582;-;-;-;-;-;-;-;-;-;-;-;-;-;-;-
1511264509301;-;-;9.121201;-2.3305664;0.2448883;-;-;-;-;-;-;-;-;-;-;-;-;-;-;-
1511264509321;-;-;9.080505;-2.456253;0.18981934;-;-;-;-;-;-;-;-;-;-;-;-;-;-;-
1511264509342;-;-;9.015854;-2.4778137;0.1874237;-;-;-;-;-;-;-;-;-;-;-;-;-;-;-
1511264509362;-;-;9.037399;-2.3269653;0.22573853;-;-;-;-;-;-;-;-;-;-;-;-;-;-;-
1511264509382;-;-;9.063736;-2.222824;0.23171997;-;-;-;-;-;-;-;-;-;-;-;-;-;-;-
1511264509403;-;-;9.108032;-2.2012787;0.17904663;-;-;-;-;-;-;-;-;-;-;-;-;-;-;-
1511264509424;-;-;9.068527;-2.12706;0.21496582;-;-;-;-;-;-;-;-;-;-;-;-;-;-;-
1511264509444;-;-;8.98114;-2.080368;0.21496582;-;-;-;-;-;-;-;-;-;-;-;-;-;-;-
1511264509464;-;-;8.955994;-2.0863495;0.15031433;-;-;-;-;-;-;-;-;-;-;-;-;-;-;-
1511264509485;-;-;8.972763;-2.088745;0.11680603;-;-;-;-;-;-;-;-;-;-;-;-;-;-;-
1511264509505;-;-;8.984726;-2.071991;0.17306519;-;-;-;-;-;-;-;-;-;-;-;-;-;-;-
1511264509525;-;-;9.001495;-2.0791779;0.21376038;-;-;-;-;-;-;-;-;-;-;-;-;-;-;-
1511264509546;-;-;8.985931;-2.0935364;0.2233429;-;-;-;-;-;-;-;-;-;-;-;-;-;-;-
1511264509566;-;-;9.052963;-2.1653595;0.28678894;-;-;-;-;-;-;-;-;-;-;-;-;-;-;-
1511264509586;-;-;9.131973;-2.2671204;0.26643372;-;-;-;-;-;-;-;-;-;-;-;-;-;-;-
1511264509607;-;-;9.188232;-2.2240143;0.21736145;-;-;-;-;-;-;-;-;-;-;-;-;-;-;-
1511264509627;-;-;9.15712;-2.2000732;0.23052979;-;-;-;-;-;-;-;-;-;-;-;-;-;-;-
1511264509647;-;-;9.124786;-2.1486053;0.22453308;-;-;-;-;-;-;-;-;-;-;-;-;-;-;-
1511264509667;-;-;9.07811;-2.1545868;0.20298767;-;-;-;-;-;-;-;-;-;-;-;-;-;-;-
1511264509688;-;-;9.025436;-2.1462097;0.20179749;-;-;-;-;-;-;-;-;-;-;-;-;-;-;-
1511264509708;-;-;9.033813;-2.1845245;0.2233429;-;-;-;-;-;-;-;-;-;-;-;-;-;-;-
1511264509728;-;-;9.019455;-2.166565;0.26882935;-;-;-;-;-;-;-;-;-;-;-;-;-;-;-
1511264509749;-;-;9.039795;-2.1091003;0.24848938;-;-;-;-;-;-;-;-;-;-;-;-;-;-;-
1511264509768;-;-;9.038605;-2.1330414;0.255661;-;-;-;-;-;-;-;-;-;-;-;-;-;-;-
1511264509788;-;-;9.055359;-2.1210785;0.20298767;-;-;-;-;-;-;-;-;-;-;-;-;-;-;-
1511264509808;-;-;9.055359;-2.135437;0.26524353;-;-;-;-;-;-;-;-;-;-;-;-;-;-;-
1511264509829;-;-;9.054169;-2.1557922;0.2628479;-;-;-;-;-;-;-;-;-;-;-;-;-;-;-
1511264509849;-;-;9.096069;-2.1497955;0.25926208;-;-;-;-;-;-;-;-;-;-;-;-;-;-;-
1511264509870;-;-;9.111618;-2.1306458;0.24249268;-;-;-;-;-;-;-;-;-;-;-;-;-;-;-
1511264509890;-;-;9.100845;-2.119873;0.25447083;-;-;-;-;-;-;-;-;-;-;-;-;-;-;-
1511264509910;-;-;9.105637;-2.1486053;0.25447083;-;-;-;-;-;-;-;-;-;-;-;-;-;-;-
1511264509930;-;-;9.056564;-2.190506;0.24967957;-;-;-;-;-;-;-;-;-;-;-;-;-;-;-
1511264509951;-;-;9.014664;-2.1557922;0.27960205;-;-;-;-;-;-;-;-;-;-;-;-;-;-;-
1511264509970;-;-;9.0793;-2.2156372;0.28320313;-;-;-;-;-;-;-;-;-;-;-;-;-;-;-
1511264509990;-;-;9.084091;-2.2192383;0.2843933;-;-;-;-;-;-;-;-;-;-;-;-;-;-;-
1511264510011;-;-;9.052963;-2.166565;0.31193542;-;-;-;-;-;-;-;-;-;-;-;-;-;-;-
1511264510031;-;-;9.024231;-2.2084656;0.28799438;-;-;-;-;-;-;-;-;-;-;-;-;-;-;-
1511264510051;-;-;9.074509;-2.2324066;0.2843933;-;-;-;-;-;-;-;-;-;-;-;-;-;-;-
1511264510072;-;-;9.07811;-2.2240143;0.27841187;-;-;-;-;-;-;-;-;-;-;-;-;-;-;-
1511264510092;-;-;9.058945;-2.198883;0.30116272;-;-;-;-;-;-;-;-;-;-;-;-;-;-;-
1511264510112;-;-;9.024231;-2.1964874;0.30833435;-;-;-;-;-;-;-;-;-;-;-;-;-;-;-
1511264510133;-;-;9.0733185;-2.2048645;0.24967957;-;-;-;-;-;-;-;-;-;-;-;-;-;-;-
1511264510153;-;-;9.06134;-2.1809235;0.2736206;-;-;-;-;-;-;-;-;-;-;-;-;-;-;-
1511264510173;-;-;9.06134;-2.1581879;0.2927704;-;-;-;-;-;-;-;-;-;-;-;-;-;-;-
1511264510194;-;-;9.084091;-2.1402283;0.20419312;-;-;-;-;-;-;-;-;-;-;-;-;-;-;-
1511264510213;-;-;9.091278;-2.1474;0.23052979;-;-;-;-;-;-;-;-;-;-;-;-;-;-;-
1511264510233;-;-;9.044586;-2.1689606;0.25447083;-;-;-;-;-;-;-;-;-;-;-;-;-;-;-
1511264510254;-;-;9.066132;-2.1342316;0.2616577;-;-;-;-;-;-;-;-;-;-;-;-;-;-;-
1511264510273;-;-;9.085281;-2.0947418;0.24249268;-;-;-;-;-;-;-;-;-;-;-;-;-;-;-
1511264510293;-;-;9.090073;-2.071991;0.2233429;-;-;-;-;-;-;-;-;-;-;-;-;-;-;-
1511264510314;-;-;9.069733;-2.0552368;0.25086975;-;-;-;-;-;-;-;-;-;-;-;-;-;-;-
1511264510333;-;-;9.081696;-2.104309;0.24728394;-;-;-;-;-;-;-;-;-;-;-;-;-;-;-
1511264510353;-;-;9.110428;-2.1414185;0.31671143;-;-;-;-;-;-;-;-;-;-;-;-;-;-;-
1511264510374;-;-;9.090073;-2.071991;0.30714417;-;-;-;-;-;-;-;-;-;-;-;-;-;-;-
1511264510394;-;-;9.090073;-2.0684052;0.3023529;-;-;-;-;-;-;-;-;-;-;-;-;-;-;-
1511264510414;-;-;9.056564;-2.0863495;0.28199768;-;-;-;-;-;-;-;-;-;-;-;-;-;-;-
1511264510435;-;-;9.027832;-2.0731812;0.31072998;-;-;-;-;-;-;-;-;-;-;-;-;-;-;-
1511264510455;-;-;9.044586;-2.1067047;0.31791687;-;-;-;-;-;-;-;-;-;-;-;-;-;-;-
1511264510475;-;-;9.085281;-2.0899506;0.28678894;-;-;-;-;-;-;-;-;-;-;-;-;-;-;-
1511264510496;-;-;9.116409;-2.095932;0.31671143;-;-;-;-;-;-;-;-;-;-;-;-;-;-;-
1511264510515;-;-;9.115219;-2.0707855;0.30593872;-;-;-;-;-;-;-;-;-;-;-;-;-;-;-
1511264510535;-;-;9.1128235;-2.0624084;0.2736206;-;-;-;-;-;-;-;-;-;-;-;-;-;-;-
1511264510555;-;-;9.067337;-2.0612183;0.2736206;-;-;-;-;-;-;-;-;-;-;-;-;-;-;-
1511264510576;-;-;9.0733185;-2.080368;0.30714417;-;-;-;-;-;-;-;-;-;-;-;-;-;-;-
1511264510596;-;-;9.06134;-2.1246643;0.2987671;-;-;-;-;-;-;-;-;-;-;-;-;-;-;-
1511264510616;-;-;9.068527;-2.1234589;0.30833435;-;-;-;-;-;-;-;-;-;-;-;-;-;-;-
1511264510637;-;-;9.066132;-2.1210785;0.3023529;-;-;-;-;-;-;-;-;-;-;-;-;-;-;-
1511264510657;-;-;9.06015;-2.1162872;0.27960205;-;-;-;-;-;-;-;-;-;-;-;-;-;-;-
1511264510677;-;-;9.068527;-2.1617737;0.33706665;-;-;-;-;-;-;-;-;-;-;-;-;-;-;-
1511264510698;-;-;9.038605;-2.174942;0.30593872;-;-;-;-;-;-;-;-;-;-;-;-;-;-;-
1511264510718;-;-;9.005081;-2.1378326;0.33467102;-;-;-;-;-;-;-;-;-;-;-;-;-;-;-
1511264510738;-;-;9.055359;-2.1246643;0.34783936;-;-;-;-;-;-;-;-;-;-;-;-;-;-;-
1511264510759;-;-;9.06134;-2.1126862;0.32987976;-;-;-;-;-;-;-;-;-;-;-;-;-;-;-
1511264510780;-;-;9.054169;-2.1126862;0.2987671;-;-;-;-;-;-;-;-;-;-;-;-;-;-;-
1511264510799;-;-;9.045776;-2.1318512;0.29397583;-;-;-;-;-;-;-;-;-;-;-;-;-;-;-
1511264510819;-;-;9.011063;-2.183319;0.2987671;-;-;-;-;-;-;-;-;-;-;-;-;-;-;-
1511264510840;-;-;9.046982;-2.1689606;0.3418579;-;-;-;-;-;-;-;-;-;-;-;-;-;-;-
1511264510860;-;-;9.052963;-2.1318512;0.34544373;-;-;-;-;-;-;-;-;-;-;-;-;-;-;-
1511264510880;-;-;9.056564;-2.1342316;0.38734436;-;-;-;-;-;-;-;-;-;-;-;-;-;-;-
1511264510900;-;-;9.072113;-2.1138916;0.34544373;-;-;-;-;-;-;-;-;-;-;-;-;-;-;-
1511264510921;-;-;9.070923;-2.1102905;0.3310852;-;-;-;-;-;-;-;-;-;-;-;-;-;-;-
1511264510940;-;-;9.068527;-2.1174774;0.34425354;-;-;-;-;-;-;-;-;-;-;-;-;-;-;-
1511264510960;-;-;9.050568;-2.0791779;0.33946228;-;-;-;-;-;-;-;-;-;-;-;-;-;-;-
1511264510981;-;-;9.030228;-2.1067047;0.3310852;-;-;-;-;-;-;-;-;-;-;-;-;-;-;-
1511264511000;-;-;9.029022;-2.1091003;0.27482605;-;-;-;-;-;-;-;-;-;-;-;-;-;-;-
1511264511020;-;-;9.108032;-2.1258545;0.27960205;-;-;-;-;-;-;-;-;-;-;-;-;-;-;-
1511264511041;-;-;9.12001;-2.1414185;0.2843933;-;-;-;-;-;-;-;-;-;-;-;-;-;-;-
1511264511061;-;-;9.0733185;-2.1162872;0.27482605;-;-;-;-;-;-;-;-;-;-;-;-;-;-;-
1511264511081;-;-;9.084091;-2.119873;0.30714417;-;-;-;-;-;-;-;-;-;-;-;-;-;-;-
1511264511102;-;-;9.074509;-2.1342316;0.30593872;-;-;-;-;-;-;-;-;-;-;-;-;-;-;-
1511264511122;-;-;9.129578;-2.1761322;0.28799438;-;-;-;-;-;-;-;-;-;-;-;-;-;-;-
1511264511142;-;-;9.058945;-2.1258545;0.2915802;-;-;-;-;-;-;-;-;-;-;-;-;-;-;-
1511264511163;-;-;9.068527;-2.0671997;0.24249268;-;-;-;-;-;-;-;-;-;-;-;-;-;-;-
1511264511183;-;-;9.133179;-2.1126862;0.26882935;-;-;-;-;-;-;-;-;-;-;-;-;-;-;-
1511264511203;-;-;9.148727;-2.0815735;0.28199768;-;-;-;-;-;-;-;-;-;-;-;-;-;-;-
1511264511224;-;-;9.049377;-2.1210785;0.26524353;-;-;-;-;-;-;-;-;-;-;-;-;-;-;-
1511264511243;-;-;9.0733185;-2.1246643;0.28559875;-;-;-;-;-;-;-;-;-;-;-;-;-;-;-
1511264511263;-;-;9.088882;-2.0923462;0.30116272;-;-;-;-;-;-;-;-;-;-;-;-;-;-;-
1511264511283;-;-;9.027832;-2.063614;0.30714417;-;-;-;-;-;-;-;-;-;-;-;-;-;-;-
1511264511304;-;-;9.027832;-2.1462097;0.28320313;-;-;-;-;-;-;-;-;-;-;-;-;-;-;-
1511264511324;-;-;9.058945;-2.1210785;0.29637146;-;-;-;-;-;-;-;-;-;-;-;-;-;-;-
1511264511344;-;-;9.093674;-2.1222687;0.32868958;-;-;-;-;-;-;-;-;-;-;-;-;-;-;-
1511264511364;-;-;9.070923;-2.1138916;0.3538208;-;-;-;-;-;-;-;-;-;-;-;-;-;-;-
1511264511384;-;-;9.094864;-2.0312958;0.28678894;-;-;-;-;-;-;-;-;-;-;-;-;-;-;-
1511264511405;-;-;9.100845;-2.0923462;0.27122498;-;-;-;-;-;-;-;-;-;-;-;-;-;-;-
1511264511425;-;-;9.1128235;-2.1246643;0.31910706;-;-;-;-;-;-;-;-;-;-;-;-;-;-;-
1511264511445;-;-;9.096069;-2.0899506;0.33706665;-;-;-;-;-;-;-;-;-;-;-;-;-;-;-
1511264511466;-;-;8.984726;-2.0600128;0.31072998;-;-;-;-;-;-;-;-;-;-;-;-;-;-;-
1511264511486;-;-;8.92128;-2.0420685;0.30714417;-;-;-;-;-;-;-;-;-;-;-;-;-;-;-
1511264511506;-;-;9.070923;-2.0899506;0.3418579;-;-;-;-;-;-;-;-;-;-;-;-;-;-;-
1511264511526;-;-;9.228943;-2.2407837;0.36698914;-;-;-;-;-;-;-;-;-;-;-;-;-;-;-
1511264511547;-;-;9.285202;-2.221634;0.39692688;-;-;-;-;-;-;-;-;-;-;-;-;-;-;-
1511264511567;-;-;9.207397;-2.2156372;0.36698914;-;-;-;-;-;-;-;-;-;-;-;-;-;-;-
1511264511587;-;-;9.019455;-2.1689606;0.36460876;-;-;-;-;-;-;-;-;-;-;-;-;-;-;-
1511264511607;-;-;8.910507;-2.1390228;0.3598175;-;-;-;-;-;-;-;-;-;-;-;-;-;-;-
1511264511627;-;-;8.922485;-2.0863495;0.38974;-;-;-;-;-;-;-;-;-;-;-;-;-;-;-
1511264511648;-;-;8.964386;-2.0983276;0.39811707;-;-;-;-;-;-;-;-;-;-;-;-;-;-;-
1511264511668;-;-;9.002686;-2.0707855;0.3705902;-;-;-;-;-;-;-;-;-;-;-;-;-;-;-
1511264511688;-;-;9.012268;-2.103119;0.34783936;-;-;-;-;-;-;-;-;-;-;-;-;-;-;-
1511264511708;-;-;9.051773;-2.1402283;0.30116272;-;-;-;-;-;-;-;-;-;-;-;-;-;-;-
1511264511729;-;-;9.146347;-2.1521912;0.29397583;-;-;-;-;-;-;-;-;-;-;-;-;-;-;-
1511264511749;-;-;9.155914;-2.1533966;0.2628479;-;-;-;-;-;-;-;-;-;-;-;-;-;-;-
1511264511769;-;-;9.182251;-2.1174774;0.27601624;-;-;-;-;-;-;-;-;-;-;-;-;-;-;-
1511264511789;-;-;9.136765;-2.1294556;0.25326538;-;-;-;-;-;-;-;-;-;-;-;-;-;-;-
1511264511810;-;-;9.103241;-2.1126862;0.27841187;-;-;-;-;-;-;-;-;-;-;-;-;-;-;-
1511264511830;-;-;9.0793;-2.0995178;0.32868958;-;-;-;-;-;-;-;-;-;-;-;-;-;-;-
1511264511850;-;-;9.0182495;-2.0863495;0.31671143;-;-;-;-;-;-;-;-;-;-;-;-;-;-;-
1511264511871;-;-;9.055359;-2.0600128;0.3035431;-;-;-;-;-;-;-;-;-;-;-;-;-;-;-
1511264511891;-;-;9.051773;-2.088745;0.2736206;-;-;-;-;-;-;-;-;-;-;-;-;-;-;-
1511264511911;-;-;9.030228;-2.0660095;0.28559875;-;-;-;-;-;-;-;-;-;-;-;-;-;-;-
1511264511932;-;-;9.052963;-2.0755768;0.34544373;-;-;-;-;-;-;-;-;-;-;-;-;-;-;-
1511264511952;-;-;9.07811;-2.1210785;0.34783936;-;-;-;-;-;-;-;-;-;-;-;-;-;-;-
1511264511972;-;-;9.055359;-2.056427;0.33348083;-;-;-;-;-;-;-;-;-;-;-;-;-;-;-
1511264511993;-;-;9.0733185;-2.024109;0.3310852;-;-;-;-;-;-;-;-;-;-;-;-;-;-;-
1511264512013;-;-;9.074509;-2.044464;0.35263062;-;-;-;-;-;-;-;-;-;-;-;-;-;-;-
1511264512033;-;-;9.116409;-2.0037537;0.37298584;-;-;-;-;-;-;-;-;-;-;-;-;-;-;-
1511264512054;-;-;9.114014;-2.088745;0.33467102;-;-;-;-;-;-;-;-;-;-;-;-;-;-;-
1511264512073;-;-;9.108032;-2.0827637;0.27601624;-;-;-;-;-;-;-;-;-;-;-;-;-;-;-
1511264512093;-;-;9.086487;-2.0731812;0.33587646;-;-;-;-;-;-;-;-;-;-;-;-;-;-;-
1511264512114;-;-;9.06015;-2.1330414;0.35621643;-;-;-;-;-;-;-;-;-;-;-;-;-;-;-
1511264512133;-;-;9.0577545;-2.071991;0.3203125;-;-;-;-;-;-;-;-;-;-;-;-;-;-;-
1511264512153;-;-;9.050568;-2.0923462;0.37417603;-;-;-;-;-;-;-;-;-;-;-;-;-;-;-
1511264512174;-;-;9.070923;-2.142624;0.3885498;-;-;-;-;-;-;-;-;-;-;-;-;-;-;-
1511264512193;-;-;9.084091;-2.104309;0.31671143;-;-;-;-;-;-;-;-;-;-;-;-;-;-;-
1511264512213;-;-;9.0793;-2.1366272;0.38136292;-;-;-;-;-;-;-;-;-;-;-;-;-;-;-
1511264512233;-;-;9.031418;-2.1150818;0.36938477;-;-;-;-;-;-;-;-;-;-;-;-;-;-;-
1511264512254;-;-;9.084091;-2.166565;0.38136292;-;-;-;-;-;-;-;-;-;-;-;-;-;-;-
1511264512274;-;-;9.105637;-2.1474;0.36221313;-;-;-;-;-;-;-;-;-;-;-;-;-;-;-
1511264512294;-;-;9.088882;-2.151001;0.36698914;-;-;-;-;-;-;-;-;-;-;-;-;-;-;-
1511264512314;-;-;9.041;-2.166565;0.3203125;-;-;-;-;-;-;-;-;-;-;-;-;-;-;-
1511264512334;-;-;9.067337;-2.1605682;0.3598175;-;-;-;-;-;-;-;-;-;-;-;-;-;-;-
1511264512355;-;-;9.092468;-2.2024689;0.35144043;-;-;-;-;-;-;-;-;-;-;-;-;-;-;-
1511264512375;-;-;9.088882;-2.1893005;0.38015747;-;-;-;-;-;-;-;-;-;-;-;-;-;-;-
1511264512395;-;-;9.090073;-2.1713562;0.3885498;-;-;-;-;-;-;-;-;-;-;-;-;-;-;-
1511264512415;-;-;9.039795;-2.1210785;0.35263062;-;-;-;-;-;-;-;-;-;-;-;-;-;-;-
1511264512436;-;-;9.015854;-2.1390228;0.3430481;-;-;-;-;-;-;-;-;-;-;-;-;-;-;-
1511264512455;-;-;8.988327;-2.1318512;0.40649414;-;-;-;-;-;-;-;-;-;-;-;-;-;-;-
1511264512475;-;-;8.996704;-2.1773376;0.35742188;-;-;-;-;-;-;-;-;-;-;-;-;-;-;-
1511264512495;-;-;9.063736;-2.1282501;0.34065247;-;-;-;-;-;-;-;-;-;-;-;-;-;-;-
1511264512516;-;-;9.105637;-2.0911407;0.37417603;-;-;-;-;-;-;-;-;-;-;-;-;-;-;-
1511264512536;-;-;9.081696;-2.064804;0.40290833;-;-;-;-;-;-;-;-;-;-;-;-;-;-;-
1511264512556;-;-;9.036209;-2.056427;0.3610077;-;-;-;-;-;-;-;-;-;-;-;-;-;-;-
1511264512576;-;-;9.031418;-2.1222687;0.3598175;-;-;-;-;-;-;-;-;-;-;-;-;-;-;-
1511264512596;-;-;9.050568;-2.1126862;0.38974;-;-;-;-;-;-;-;-;-;-;-;-;-;-;-
1511264512616;-;-;9.084091;-2.0755768;0.36221313;-;-;-;-;-;-;-;-;-;-;-;-;-;-;-
1511264512636;-;-;9.118805;-2.0576172;0.38494873;-;-;-;-;-;-;-;-;-;-;-;-;-;-;-
1511264512656;-;-;9.114014;-2.087555;0.3322754;-;-;-;-;-;-;-;-;-;-;-;-;-;-;-
1511264512676;-;-;9.103241;-2.0731812;0.3538208;-;-;-;-;-;-;-;-;-;-;-;-;-;-;-
1511264512697;-;-;9.0577545;-2.0911407;0.3610077;-;-;-;-;-;-;-;-;-;-;-;-;-;-;-
1511264512717;-;-;9.080505;-2.0552368;0.37538147;-;-;-;-;-;-;-;-;-;-;-;-;-;-;-
1511264512737;-;-;9.049377;-2.0899506;0.33348083;-;-;-;-;-;-;-;-;-;-;-;-;-;-;-
1511264512758;-;-;9.054169;-2.1079102;0.38615417;-;-;-;-;-;-;-;-;-;-;-;-;-;-;-
1511264512777;-;-;9.06134;-2.135437;0.40769958;-;-;-;-;-;-;-;-;-;-;-;-;-;-;-
1511264512797;-;-;9.0733185;-2.1414185;0.4328308;-;-;-;-;-;-;-;-;-;-;-;-;-;-;-
1511264512818;-;-;9.063736;-2.1581879;0.38974;-;-;-;-;-;-;-;-;-;-;-;-;-;-;-
1511264512838;-;-;9.035004;-2.1378326;0.36460876;-;-;-;-;-;-;-;-;-;-;-;-;-;-;-
1511264512858;-;-;9.092468;-2.174942;0.3705902;-;-;-;-;-;-;-;-;-;-;-;-;-;-;-
1511264512879;-;-;9.0793;-2.1689606;0.39453125;-;-;-;-;-;-;-;-;-;-;-;-;-;-;-
1511264512898;-;-;9.109222;-2.1773376;0.3705902;-;-;-;-;-;-;-;-;-;-;-;-;-;-;-
1511264512918;-;-;9.074509;-2.183319;0.35263062;-;-;-;-;-;-;-;-;-;-;-;-;-;-;-
1511264512939;-;-;9.066132;-2.1976929;0.33946228;-;-;-;-;-;-;-;-;-;-;-;-;-;-;-
1511264512959;-;-;9.064941;-2.1617737;0.38136292;-;-;-;-;-;-;-;-;-;-;-;-;-;-;-
1511264512979;-;-;9.066132;-2.2084656;0.36340332;-;-;-;-;-;-;-;-;-;-;-;-;-;-;-
1511264513000;-;-;9.094864;-2.2072601;0.3382721;-;-;-;-;-;-;-;-;-;-;-;-;-;-;-
1511264513020;-;-;9.039795;-2.198883;0.33348083;-;-;-;-;-;-;-;-;-;-;-;-;-;-;-
1511264513040;-;-;9.044586;-2.1893005;0.3310852;-;-;-;-;-;-;-;-;-;-;-;-;-;-;-
1511264513061;-;-;9.055359;-2.1916962;0.3418579;-;-;-;-;-;-;-;-;-;-;-;-;-;-;-
1511264513081;-;-;8.995499;-2.1725464;0.3203125;-;-;-;-;-;-;-;-;-;-;-;-;-;-;-
1511264513101;-;-;8.970367;-2.1462097;0.32510376;-;-;-;-;-;-;-;-;-;-;-;-;-;-;-
1511264513121;-;-;9.030228;-2.1486053;0.3310852;-;-;-;-;-;-;-;-;-;-;-;-;-;-;-
1511264513142;-;-;9.067337;-2.1222687;0.32987976;-;-;-;-;-;-;-;-;-;-;-;-;-;-;-
1511264513162;-;-;9.087677;-2.1450195;0.32270813;-;-;-;-;-;-;-;-;-;-;-;-;-;-;-
1511264513182;-;-;9.09845;-2.166565;0.29516602;-;-;-;-;-;-;-;-;-;-;-;-;-;-;-
1511264513203;-;-;9.0733185;-2.1857147;0.29397583;-;-;-;-;-;-;-;-;-;-;-;-;-;-;-
1511264513223;-;-;9.043396;-2.1390228;0.3418579;-;-;-;-;-;-;-;-;-;-;-;-;-;-;-
1511264513243;-;-;9.084091;-2.0947418;0.34065247;-;-;-;-;-;-;-;-;-;-;-;-;-;-;-
1511264513264;-;-;9.0577545;-2.0779724;0.32987976;-;-;-;-;-;-;-;-;-;-;-;-;-;-;-
1511264513284;-;-;9.042191;-2.1067047;0.3143158;-;-;-;-;-;-;-;-;-;-;-;-;-;-;-
1511264513304;-;-;9.025436;-2.1007233;0.31193542;-;-;-;-;-;-;-;-;-;-;-;-;-;-;-
1511264513324;-;-;8.957199;-2.0624084;0.29516602;-;-;-;-;-;-;-;-;-;-;-;-;-;-;-
1511264513345;-;-;8.988327;-2.016922;0.29516602;-;-;-;-;-;-;-;-;-;-;-;-;-;-;-
1511264513365;-;-;9.041;-2.1067047;0.27243042;-;-;-;-;-;-;-;-;-;-;-;-;-;-;-
1511264513385;-;-;9.0972595;-2.1881104;0.3203125;-;-;-;-;-;-;-;-;-;-;-;-;-;-;-
1511264513406;-;-;9.193024;-2.230011;0.3538208;-;-;-;-;-;-;-;-;-;-;-;-;-;-;-
1511264513426;-;-;9.214569;-2.1521912;0.3705902;-;-;-;-;-;-;-;-;-;-;-;-;-;-;-
1511264513446;-;-;9.184647;-2.064804;0.37298584;-;-;-;-;-;-;-;-;-;-;-;-;-;-;-
1511264513467;-;-;9.0182495;-2.0300903;0.3705902;-;-;-;-;-;-;-;-;-;-;-;-;-;-;-
1511264513487;-;-;8.9787445;-2.0899506;0.37657166;-;-;-;-;-;-;-;-;-;-;-;-;-;-;-
1511264513507;-;-;8.967972;-2.1617737;0.36698914;-;-;-;-;-;-;-;-;-;-;-;-;-;-;-
1511264513527;-;-;9.067337;-2.1845245;0.33587646;-;-;-;-;-;-;-;-;-;-;-;-;-;-;-
1511264513547;-;-;9.14035;-2.2180328;0.34425354;-;-;-;-;-;-;-;-;-;-;-;-;-;-;-
1511264513568;-;-;9.142746;-2.2000732;0.33587646;-;-;-;-;-;-;-;-;-;-;-;-;-;-;-
1511264513588;-;-;9.055359;-2.1617737;0.31791687;-;-;-;-;-;-;-;-;-;-;-;-;-;-;-
1511264513608;-;-;9.023041;-2.166565;0.35263062;-;-;-;-;-;-;-;-;-;-;-;-;-;-;-
1511264513629;-;-;9.012268;-2.1964874;0.30833435;-;-;-;-;-;-;-;-;-;-;-;-;-;-;-
1511264513649;-;-;9.039795;-2.1940918;0.30474854;-;-;-;-;-;-;-;-;-;-;-;-;-;-;-
1511264513668;-;-;9.067337;-2.1976929;0.32510376;-;-;-;-;-;-;-;-;-;-;-;-;-;-;-
1511264513688;-;-;9.049377;-2.1701508;0.31193542;-;-;-;-;-;-;-;-;-;-;-;-;-;-;-
1511264513708;-;-;9.096069;-2.1521912;0.31910706;-;-;-;-;-;-;-;-;-;-;-;-;-;-;-
1511264513729;-;-;9.201401;-2.182129;0.32629395;-;-;-;-;-;-;-;-;-;-;-;-;-;-;-
1511264513749;-;-;9.179855;-2.1557922;0.36460876;-;-;-;-;-;-;-;-;-;-;-;-;-;-;-
1511264513769;-;-;9.075714;-2.1330414;0.42565918;-;-;-;-;-;-;-;-;-;-;-;-;-;-;-
1511264513790;-;-;8.98233;-2.1641693;0.35263062;-;-;-;-;-;-;-;-;-;-;-;-;-;-;-
1511264513810;-;-;9.009872;-2.190506;0.35621643;-;-;-;-;-;-;-;-;-;-;-;-;-;-;-
1511264513830;-;-;9.090073;-2.1605682;0.3418579;-;-;-;-;-;-;-;-;-;-;-;-;-;-;-
1511264513851;-;-;9.141556;-2.056427;0.33467102;-;-;-;-;-;-;-;-;-;-;-;-;-;-;-
1511264513871;-;-;9.09845;-2.0396729;0.32629395;-;-;-;-;-;-;-;-;-;-;-;-;-;-;-
1511264513892;-;-;8.935654;-2.0660095;0.39093018;-;-;-;-;-;-;-;-;-;-;-;-;-;-;-
1511264513912;-;-;8.945221;-2.1342316;0.5597229;-;-;-;-;-;-;-;-;-;-;-;-;-;-;-
1511264513932;-;-;8.952408;-2.2252197;0.46875;-;-;-;-;-;-;-;-;-;-;-;-;-;-;-
1511264513953;-;-;9.06015;-2.2826843;0.4974823;-;-;-;-;-;-;-;-;-;-;-;-;-;-;-
1511264513972;-;-;9.160706;-2.2467651;0.5405731;-;-;-;-;-;-;-;-;-;-;-;-;-;-;-
1511264513992;-;-;9.054169;-2.253952;0.5800781;-;-;-;-;-;-;-;-;-;-;-;-;-;-;-
1511264514012;-;-;8.984726;-2.2419739;0.45558167;-;-;-;-;-;-;-;-;-;-;-;-;-;-;-
1511264514033;-;-;9.123596;-2.2743073;0.53578186;-;-;-;-;-;-;-;-;-;-;-;-;-;-;-
1511264514053;-;-;9.242111;-2.277893;0.56811523;-;-;-;-;-;-;-;-;-;-;-;-;-;-;-
1511264514073;-;-;9.228943;-2.2000732;0.43403625;-;-;-;-;-;-;-;-;-;-;-;-;-;-;-
1511264514094;-;-;9.165497;-2.1258545;0.27960205;-;-;-;-;-;-;-;-;-;-;-;-;-;-;-
1511264514114;-;-;8.906921;-2.0336761;0.20898438;-;-;-;-;-;-;-;-;-;-;-;-;-;-;-
1511264514135;-;-;8.884171;-1.9546814;0.17785645;-;-;-;-;-;-;-;-;-;-;-;-;-;-;-
1511264514155;-;-;8.941635;-2.0229034;0.19940186;-;-;-;-;-;-;-;-;-;-;-;-;-;-;-
1511264514175;-;-;9.0182495;-1.9917908;0.18383789;-;-;-;-;-;-;-;-;-;-;-;-;-;-;-
1511264514196;-;-;9.046982;-2.0121307;0.20658875;-;-;-;-;-;-;-;-;-;-;-;-;-;-;-
1511264514216;-;-;9.001495;-2.088745;0.14672852;-;-;-;-;-;-;-;-;-;-;-;-;-;-;-
1511264514236;-;-;9.035004;-2.2204285;0.1431427;-;-;-;-;-;-;-;-;-;-;-;-;-;-;-
1511264514257;-;-;9.027832;-2.3473206;0.16947937;-;-;-;-;-;-;-;-;-;-;-;-;-;-;-
1511264514277;-;-;9.103241;-2.3940125;0.09286499;-;-;-;-;-;-;-;-;-;-;-;-;-;-;-
1511264514297;-;-;9.141556;-2.3916168;0.001876831;-;-;-;-;-;-;-;-;-;-;-;-;-;-;-
1511264514317;-;-;9.216965;-2.4071808;-0.17887878;-;-;-;-;-;-;-;-;-;-;-;-;-;-;-
1511264514338;-;-;9.0972595;-2.2527466;-0.102264404;-;-;-;-;-;-;-;-;-;-;-;-;-;-;-
1511264514357;-;-;8.871002;-1.9654541;-0.04600525;-;-;-;-;-;-;-;-;-;-;-;-;-;-;-
1511264514377;-;-;8.909317;-1.7104645;0.019836426;-;-;-;-;-;-;-;-;-;-;-;-;-;-;-
1511264514398;-;-;8.973953;-1.641037;-0.080718994;-;-;-;-;-;-;-;-;-;-;-;-;-;-;-
1511264514418;-;-;9.123596;-1.7391968;-0.16810608;-;-;-;-;-;-;-;-;-;-;-;-;-;-;-
1511264514438;-;-;9.358231;-1.9079895;-0.014877319;-;-;-;-;-;-;-;-;-;-;-;-;-;-;-
1511264514459;-;-;9.311539;-2.0312958;0.13237;-;-;-;-;-;-;-;-;-;-;-;-;-;-;-
1511264514479;-;-;9.048172;-2.095932;0.20059204;-;-;-;-;-;-;-;-;-;-;-;-;-;-;-
1511264514499;-;-;8.995499;-2.1629639;0.36579895;-;-;-;-;-;-;-;-;-;-;-;-;-;-;-
1511264514519;-;-;9.038605;-2.2180328;0.4507904;-;-;-;-;-;-;-;-;-;-;-;-;-;-;-
1511264514540;-;-;9.115219;-2.2120514;0.5262146;-;-;-;-;-;-;-;-;-;-;-;-;-;-;-
1511264514559;-;-;9.222961;-2.210846;0.5968323;-;-;-;-;-;-;-;-;-;-;-;-;-;-;-
1511264514579;-;-;9.397736;-2.2719116;0.6064148;-;-;-;-;-;-;-;-;-;-;-;-;-;-;-
1511264514599;-;-;9.359421;-2.3856354;0.62677;-;-;-;-;-;-;-;-;-;-;-;-;-;-;-
1511264514619;-;-;9.242111;-2.439499;0.59085083;-;-;-;-;-;-;-;-;-;-;-;-;-;-;-
1511264514640;-;-;9.063736;-2.3652802;0.60401917;-;-;-;-;-;-;-;-;-;-;-;-;-;-;-
1511264514660;-;-;8.911713;-2.2719116;0.6602783;-;-;-;-;-;-;-;-;-;-;-;-;-;-;-
1511264514680;-;-;8.815933;-2.1641693;0.70817566;-;-;-;-;-;-;-;-;-;-;-;-;-;-;-
1511264514700;-;-;8.857834;-2.1521912;0.6758423;-;-;-;-;-;-;-;-;-;-;-;-;-;-;-
1511264514721;-;-;8.918884;-2.1414185;0.58128357;-;-;-;-;-;-;-;-;-;-;-;-;-;-;-
1511264514740;-;-;9.011063;-2.1845245;0.54177856;-;-;-;-;-;-;-;-;-;-;-;-;-;-;-
1511264514760;-;-;9.122391;-2.2012787;0.49987793;-;-;-;-;-;-;-;-;-;-;-;-;-;-;-
1511264514781;-;-;9.106842;-2.1713562;0.43164063;-;-;-;-;-;-;-;-;-;-;-;-;-;-;-
1511264514801;-;-;9.063736;-2.1486053;0.3825531;-;-;-;-;-;-;-;-;-;-;-;-;-;-;-
1511264514821;-;-;8.971558;-2.095932;0.23890686;-;-;-;-;-;-;-;-;-;-;-;-;-;-;-
1511264514841;-;-;8.938049;-2.008545;0.07369995;-;-;-;-;-;-;-;-;-;-;-;-;-;-;-
1511264514861;-;-;9.091278;-1.8553162;0.082092285;-;-;-;-;-;-;-;-;-;-;-;-;-;-;-
1511264514882;-;-;9.37619;-1.680542;0.10961914;-;-;-;-;-;-;-;-;-;-;-;-;-;-;-
1511264514902;-;-;9.513855;-1.562027;0.094055176;-;-;-;-;-;-;-;-;-;-;-;-;-;-;-
1511264514922;-;-;9.201401;-1.6661682;0.06652832;-;-;-;-;-;-;-;-;-;-;-;-;-;-;-
1511264514942;-;-;8.903336;-1.8732758;0.1144104;-;-;-;-;-;-;-;-;-;-;-;-;-;-;-
1511264514963;-;-;8.784821;-2.1929016;0.24369812;-;-;-;-;-;-;-;-;-;-;-;-;-;-;-
1511264514983;-;-;8.763275;-2.4778137;0.40171814;-;-;-;-;-;-;-;-;-;-;-;-;-;-;-
1511264515003;-;-;8.825516;-2.637024;0.54177856;-;-;-;-;-;-;-;-;-;-;-;-;-;-;-
1511264515024;-;-;8.965576;-2.6717377;0.58247375;-;-;-;-;-;-;-;-;-;-;-;-;-;-;-
1511264515043;-;-;9.012268;-2.6406097;0.65190125;-;-;-;-;-;-;-;-;-;-;-;-;-;-;-
1511264515063;-;-;8.994308;-2.593933;0.6758423;-;-;-;-;-;-;-;-;-;-;-;-;-;-;-
1511264515084;-;-;8.950012;-2.4933624;0.6566925;-;-;-;-;-;-;-;-;-;-;-;-;-;-;-
1511264515103;-;-;8.905716;-2.456253;0.6375427;-;-;-;-;-;-;-;-;-;-;-;-;-;-;-
1511264515123;-;-;8.892548;-2.3042297;0.56811523;-;-;-;-;-;-;-;-;-;-;-;-;-;-;-
1511264515143;-;-;8.909317;-2.2036743;0.4986725;-;-;-;-;-;-;-;-;-;-;-;-;-;-;-
1511264515164;-;-;8.984726;-2.1916962;0.4507904;-;-;-;-;-;-;-;-;-;-;-;-;-;-;-
1511264515183;-;-;8.993118;-2.1486053;0.39572144;-;-;-;-;-;-;-;-;-;-;-;-;-;-;-
1511264515203;-;-;9.075714;-2.0061493;0.42086792;-;-;-;-;-;-;-;-;-;-;-;-;-;-;-
1511264515224;-;-;9.121201;-1.9247437;0.42565918;-;-;-;-;-;-;-;-;-;-;-;-;-;-;-
1511264515243;-;-;9.149933;-1.8900299;0.43164063;-;-;-;-;-;-;-;-;-;-;-;-;-;-;-
1511264515263;-;-;9.092468;-1.9786224;0.40769958;-;-;-;-;-;-;-;-;-;-;-;-;-;-;-
1511264515284;-;-;9.096069;-1.9391174;0.48550415;-;-;-;-;-;-;-;-;-;-;-;-;-;-;-
1511264515303;-;-;9.042191;-1.9271393;0.47833252;-;-;-;-;-;-;-;-;-;-;-;-;-;-;-
1511264515323;-;-;9.0793;-1.9893951;0.47712708;-;-;-;-;-;-;-;-;-;-;-;-;-;-;-
1511264515343;-;-;9.099655;-2.0073395;0.44122314;-;-;-;-;-;-;-;-;-;-;-;-;-;-;-
1511264515364;-;-;9.154724;-2.044464;0.4902954;-;-;-;-;-;-;-;-;-;-;-;-;-;-;-
1511264515383;-;-;9.187042;-2.0133362;0.5178375;-;-;-;-;-;-;-;-;-;-;-;-;-;-;-
1511264515403;-;-;9.086487;-1.9857941;0.5513458;-;-;-;-;-;-;-;-;-;-;-;-;-;-;-
1511264515424;-;-;8.975159;-1.9726257;0.5597229;-;-;-;-;-;-;-;-;-;-;-;-;-;-;-
1511264515444;-;-;8.955994;-1.9510803;0.6483154;-;-;-;-;-;-;-;-;-;-;-;-;-;-;-
1511264515464;-;-;8.987122;-1.9690399;0.6650696;-;-;-;-;-;-;-;-;-;-;-;-;-;-;-
1511264515484;-;-;8.948822;-2.0109406;0.642334;-;-;-;-;-;-;-;-;-;-;-;-;-;-;-
1511264515505;-;-;9.002686;-2.0624084;0.6279602;-;-;-;-;-;-;-;-;-;-;-;-;-;-;-
1511264515525;-;-;9.123596;-2.1102905;0.63275146;-;-;-;-;-;-;-;-;-;-;-;-;-;-;-
1511264515545;-;-;9.243301;-2.1809235;0.5405731;-;-;-;-;-;-;-;-;-;-;-;-;-;-;-
1511264515566;-;-;9.226547;-2.142624;0.4472046;-;-;-;-;-;-;-;-;-;-;-;-;-;-;-
1511264515586;-;-;9.07811;-2.0971222;0.4472046;-;-;-;-;-;-;-;-;-;-;-;-;-;-;-
1511264515606;-;-;8.944031;-1.9726257;0.34664917;-;-;-;-;-;-;-;-;-;-;-;-;-;-;-
1511264515626;-;-;8.813553;-2.0384674;0.36819458;-;-;-;-;-;-;-;-;-;-;-;-;-;-;-
1511264515647;-;-;8.756088;-2.04924;0.37298584;-;-;-;-;-;-;-;-;-;-;-;-;-;-;-
1511264515667;-;-;8.92128;-2.104309;0.350235;-;-;-;-;-;-;-;-;-;-;-;-;-;-;-
1511264515687;-;-;8.964386;-2.080368;0.36579895;-;-;-;-;-;-;-;-;-;-;-;-;-;-;-
1511264515707;-;-;9.12001;-2.0360718;0.35502625;-;-;-;-;-;-;-;-;-;-;-;-;-;-;-
1511264515728;-;-;9.2756195;-1.843338;0.21736145;-;-;-;-;-;-;-;-;-;-;-;-;-;-;-
1511264515748;-;-;9.374985;-1.724823;0.07130432;-;-;-;-;-;-;-;-;-;-;-;-;-;-;-
1511264515768;-;-;9.360626;-1.6721649;-0.01727295;-;-;-;-;-;-;-;-;-;-;-;-;-;-;-
1511264515789;-;-;9.185837;-1.6542053;-0.107055664;-;-;-;-;-;-;-;-;-;-;-;-;-;-;-
1511264515808;-;-;9.041;-1.6147003;-0.024459839;-;-;-;-;-;-;-;-;-;-;-;-;-;-;-
1511264515828;-;-;8.995499;-1.6110992;-0.030441284;-;-;-;-;-;-;-;-;-;-;-;-;-;-;-
1511264515848;-;-;9.035004;-1.6625824;0.023422241;-;-;-;-;-;-;-;-;-;-;-;-;-;-;-
1511264515869;-;-;9.159515;-1.7140503;-0.016082764;-;-;-;-;-;-;-;-;-;-;-;-;-;-;-
1511264515889;-;-;9.194229;-1.7703247;-0.06036377;-;-;-;-;-;-;-;-;-;-;-;-;-;-;-
1511264515909;-;-;9.145142;-1.7715149;-0.111846924;-;-;-;-;-;-;-;-;-;-;-;-;-;-;-
1511264515929;-;-;9.088882;-1.8014526;-0.085510254;-;-;-;-;-;-;-;-;-;-;-;-;-;-;-
1511264515950;-;-;9.070923;-1.8720703;-0.032836914;-;-;-;-;-;-;-;-;-;-;-;-;-;-;-
1511264515970;-;-;9.154724;-1.9175568;-0.047195435;-;-;-;-;-;-;-;-;-;-;-;-;-;-;-
1511264515990;-;-;9.146347;-1.9247437;-0.107055664;-;-;-;-;-;-;-;-;-;-;-;-;-;-;-
1511264516011;-;-;9.214569;-1.9522858;-0.04600525;-;-;-;-;-;-;-;-;-;-;-;-;-;-;-
1511264516030;-;-;9.106842;-1.9905853;-0.028045654;-;-;-;-;-;-;-;-;-;-;-;-;-;-;-
1511264516050;-;-;9.056564;-2.004959;-0.05079651;-;-;-;-;-;-;-;-;-;-;-;-;-;-;-
1511264516071;-;-;9.014664;-2.0312958;-0.03881836;-;-;-;-;-;-;-;-;-;-;-;-;-;-;-
1511264516091;-;-;8.969162;-2.103119;0.041381836;-;-;-;-;-;-;-;-;-;-;-;-;-;-;-
1511264516111;-;-;9.045776;-2.2120514;0.07609558;-;-;-;-;-;-;-;-;-;-;-;-;-;-;-
1511264516132;-;-;9.110428;-2.214447;0.01625061;-;-;-;-;-;-;-;-;-;-;-;-;-;-;-
1511264516152;-;-;9.088882;-2.2754974;0.05934143;-;-;-;-;-;-;-;-;-;-;-;-;-;-;-
1511264516172;-;-;9.093674;-2.313797;0.23890686;-;-;-;-;-;-;-;-;-;-;-;-;-;-;-
1511264516192;-;-;9.146347;-2.3066254;0.28799438;-;-;-;-;-;-;-;-;-;-;-;-;-;-;-
1511264516213;-;-;9.244507;-2.3197937;0.31910706;-;-;-;-;-;-;-;-;-;-;-;-;-;-;-
1511264516233;-;-;9.288788;-2.3042297;0.25086975;-;-;-;-;-;-;-;-;-;-;-;-;-;-;-
1511264516253;-;-;9.392944;-2.3652802;0.09764099;-;-;-;-;-;-;-;-;-;-;-;-;-;-;-
1511264516274;-;-;9.4133;-2.4011993;0.03060913;-;-;-;-;-;-;-;-;-;-;-;-;-;-;-
1511264516294;-;-;9.371399;-2.4933624;0.1946106;-;-;-;-;-;-;-;-;-;-;-;-;-;-;-
1511264516314;-;-;9.029022;-2.54245;0.27960205;-;-;-;-;-;-;-;-;-;-;-;-;-;-;-
1511264516335;-;-;8.780029;-2.5316772;0.23890686;-;-;-;-;-;-;-;-;-;-;-;-;-;-;-
1511264516355;-;-;8.693832;-2.4658356;0.22932434;-;-;-;-;-;-;-;-;-;-;-;-;-;-;-
1511264516375;-;-;8.739319;-2.4598541;0.24130249;-;-;-;-;-;-;-;-;-;-;-;-;-;-;-
1511264516396;-;-;8.777634;-2.4011993;0.15510559;-;-;-;-;-;-;-;-;-;-;-;-;-;-;-
1511264516415;-;-;8.757278;-2.3401337;0.10961914;-;-;-;-;-;-;-;-;-;-;-;-;-;-;-
1511264516436;-;-;8.865021;-2.2491608;0.07369995;-;-;-;-;-;-;-;-;-;-;-;-;-;-;-
1511264516456;-;-;8.987122;-2.1857147;0.120391846;-;-;-;-;-;-;-;-;-;-;-;-;-;-;-
1511264516476;-;-;9.109222;-2.1067047;0.03540039;-;-;-;-;-;-;-;-;-;-;-;-;-;-;-
1511264516496;-;-;9.23613;-2.0109406;-0.19683838;-;-;-;-;-;-;-;-;-;-;-;-;-;-;-
1511264516517;-;-;9.214569;-1.9211578;-0.24832153;-;-;-;-;-;-;-;-;-;-;-;-;-;-;-
1511264516537;-;-;9.1918335;-1.874466;-0.17408752;-;-;-;-;-;-;-;-;-;-;-;-;-;-;-
1511264516557;-;-;9.081696;-1.8684845;-0.085510254;-;-;-;-;-;-;-;-;-;-;-;-;-;-;-
1511264516577;-;-;9.011063;-1.9977722;0.050964355;-;-;-;-;-;-;-;-;-;-;-;-;-;-;-
1511264516597;-;-;9.052963;-2.0899506;0.103637695;-;-;-;-;-;-;-;-;-;-;-;-;-;-;-
1511264516618;-;-;9.145142;-2.1845245;-5.187988E-4;-;-;-;-;-;-;-;-;-;-;-;-;-;-;-
1511264516638;-;-;9.222961;-2.1976929;0.05455017;-;-;-;-;-;-;-;-;-;-;-;-;-;-;-
1511264516658;-;-;9.261261;-2.1893005;0.08088684;-;-;-;-;-;-;-;-;-;-;-;-;-;-;-
1511264516679;-;-;9.151123;-2.1521912;0.1479187;-;-;-;-;-;-;-;-;-;-;-;-;-;-;-
1511264516699;-;-;8.945221;-2.1474;0.1874237;-;-;-;-;-;-;-;-;-;-;-;-;-;-;-
1511264516719;-;-;8.938049;-2.12706;0.09286499;-;-;-;-;-;-;-;-;-;-;-;-;-;-;-
1511264516740;-;-;8.947617;-2.0037537;-0.044799805;-;-;-;-;-;-;-;-;-;-;-;-;-;-;-
1511264516760;-;-;8.947617;-1.8182068;0.03060913;-;-;-;-;-;-;-;-;-;-;-;-;-;-;-
1511264516780;-;-;8.854248;-1.7260284;0.09046936;-;-;-;-;-;-;-;-;-;-;-;-;-;-;-
1511264516801;-;-;8.808762;-2.0336761;0.17425537;-;-;-;-;-;-;-;-;-;-;-;-;-;-;-
1511264516820;-;-;8.698624;-2.2132416;0.20059204;-;-;-;-;-;-;-;-;-;-;-;-;-;-;-
1511264516840;-;-;8.701019;-2.3126068;0.32389832;-;-;-;-;-;-;-;-;-;-;-;-;-;-;-
1511264516860;-;-;8.855438;-2.3281708;0.47712708;-;-;-;-;-;-;-;-;-;-;-;-;-;-;-
1511264516880;-;-;9.0793;-1.9690399;0.42326355;-;-;-;-;-;-;-;-;-;-;-;-;-;-;-
1511264516901;-;-;9.347458;-1.6985016;0.24848938;-;-;-;-;-;-;-;-;-;-;-;-;-;-;-
1511264516921;-;-;9.578491;-1.4554901;0.13595581;-;-;-;-;-;-;-;-;-;-;-;-;-;-;-
1511264516942;-;-;9.63356;-1.2866974;0.055755615;-;-;-;-;-;-;-;-;-;-;-;-;-;-;-
1511264516962;-;-;9.659897;-1.2052917;-0.063964844;-;-;-;-;-;-;-;-;-;-;-;-;-;-;-
1511264516982;-;-;9.598846;-1.2172546;-0.15614319;-;-;-;-;-;-;-;-;-;-;-;-;-;-;-
1511264517002;-;-;9.450409;-1.3393707;-0.24353027;-;-;-;-;-;-;-;-;-;-;-;-;-;-;-
1511264517023;-;-;9.268448;-1.5668182;-0.12501526;-;-;-;-;-;-;-;-;-;-;-;-;-;-;-
1511264517043;-;-;8.927277;-1.7499695;0.007858276;-;-;-;-;-;-;-;-;-;-;-;-;-;-;-
1511264517063;-;-;8.686661;-1.7379913;0.216156;-;-;-;-;-;-;-;-;-;-;-;-;-;-;-
1511264517084;-;-;8.655533;-1.6302643;0.2640381;-;-;-;-;-;-;-;-;-;-;-;-;-;-;-
1511264517103;-;-;8.809952;-1.5931549;0.31910706;-;-;-;-;-;-;-;-;-;-;-;-;-;-;-
1511264517123;-;-;8.942825;-1.5943451;0.2987671;-;-;-;-;-;-;-;-;-;-;-;-;-;-;-
1511264517144;-;-;9.200211;-1.5943451;0.27482605;-;-;-;-;-;-;-;-;-;-;-;-;-;-;-
1511264517163;-;-;9.422867;-1.6338501;0.22692871;-;-;-;-;-;-;-;-;-;-;-;-;-;-;-
1511264517183;-;-;9.430054;-1.6829376;0.2736206;-;-;-;-;-;-;-;-;-;-;-;-;-;-;-
1511264517203;-;-;9.280411;-1.7344055;0.31671143;-;-;-;-;-;-;-;-;-;-;-;-;-;-;-
1511264517224;-;-;9.025436;-1.7870789;0.2915802;-;-;-;-;-;-;-;-;-;-;-;-;-;-;-
1511264517243;-;-;8.873398;-1.922348;0.15750122;-;-;-;-;-;-;-;-;-;-;-;-;-;-;-
1511264517263;-;-;8.90094;-2.0432587;0.23532104;-;-;-;-;-;-;-;-;-;-;-;-;-;-;-
1511264517284;-;-;8.948822;-2.1713562;0.3382721;-;-;-;-;-;-;-;-;-;-;-;-;-;-;-
1511264517304;-;-;9.1128235;-2.2120514;0.38136292;-;-;-;-;-;-;-;-;-;-;-;-;-;-;-
1511264517324;-;-;9.13916;-2.0743866;0.36221313;-;-;-;-;-;-;-;-;-;-;-;-;-;-;-
1511264517345;-;-;9.081696;-1.9762268;0.4807129;-;-;-;-;-;-;-;-;-;-;-;-;-;-;-
1511264517365;-;-;8.975159;-1.9367218;0.51304626;-;-;-;-;-;-;-;-;-;-;-;-;-;-;-
1511264517385;-;-;8.989517;-1.9127808;0.56451416;-;-;-;-;-;-;-;-;-;-;-;-;-;-;-
1511264517406;-;-;9.143951;-1.8409424;0.57528687;-;-;-;-;-;-;-;-;-;-;-;-;-;-;-
1511264517425;-;-;9.2708435;-1.8361664;0.5956421;-;-;-;-;-;-;-;-;-;-;-;-;-;-;-
1511264517445;-;-;9.392944;-1.9055939;0.54655457;-;-;-;-;-;-;-;-;-;-;-;-;-;-;-
1511264517466;-;-;9.346252;-2.0336761;0.50704956;-;-;-;-;-;-;-;-;-;-;-;-;-;-;-
1511264517486;-;-;9.130783;-2.0863495;0.62677;-;-;-;-;-;-;-;-;-;-;-;-;-;-;-
1511264517506;-;-;9.069733;-2.198883;0.7033844;-;-;-;-;-;-;-;-;-;-;-;-;-;-;-
1511264517526;-;-;9.131973;-2.2683105;0.70217896;-;-;-;-;-;-;-;-;-;-;-;-;-;-;-
1511264517547;-;-;9.023041;-2.3006287;0.63993835;-;-;-;-;-;-;-;-;-;-;-;-;-;-;-
1511264517566;-;-;8.977554;-2.269516;0.6782379;-;-;-;-;-;-;-;-;-;-;-;-;-;-;-
1511264517586;-;-;9.032608;-2.2599335;0.66867065;-;-;-;-;-;-;-;-;-;-;-;-;-;-;-
1511264517607;-;-;8.909317;-2.2635193;0.60043335;-;-;-;-;-;-;-;-;-;-;-;-;-;-;-
1511264517627;-;-;8.76207;-2.1761322;0.56811523;-;-;-;-;-;-;-;-;-;-;-;-;-;-;-
1511264517647;-;-;8.667496;-2.0899506;0.5776825;-;-;-;-;-;-;-;-;-;-;-;-;-;-;-
1511264517668;-;-;8.876999;-1.9798126;0.5740967;-;-;-;-;-;-;-;-;-;-;-;-;-;-;-
1511264517688;-;-;9.00029;-1.9690399;0.57289124;-;-;-;-;-;-;-;-;-;-;-;-;-;-;-
1511264517708;-;-;9.149933;-2.04924;0.56451416;-;-;-;-;-;-;-;-;-;-;-;-;-;-;-
1511264517729;-;-;9.252884;-2.1713562;0.55374146;-;-;-;-;-;-;-;-;-;-;-;-;-;-;-
1511264517748;-;-;9.201401;-2.2120514;0.66867065;-;-;-;-;-;-;-;-;-;-;-;-;-;-;-
1511264517769;-;-;9.091278;-2.2467651;0.72972107;-;-;-;-;-;-;-;-;-;-;-;-;-;-;-
1511264517789;-;-;9.015854;-2.309021;0.84703064;-;-;-;-;-;-;-;-;-;-;-;-;-;-;-
1511264517810;-;-;9.069733;-2.4347076;0.8590088;-;-;-;-;-;-;-;-;-;-;-;-;-;-;-
1511264517829;-;-;9.134369;-2.4095764;0.9595642;-;-;-;-;-;-;-;-;-;-;-;-;-;-;-
1511264517849;-;-;9.086487;-2.2838745;1.0122375;-;-;-;-;-;-;-;-;-;-;-;-;-;-;-
1511264517870;-;-;9.025436;-2.245575;1.0218048;-;-;-;-;-;-;-;-;-;-;-;-;-;-;-
1511264517889;-;-;9.074509;-2.1964874;1.0385742;-;-;-;-;-;-;-;-;-;-;-;-;-;-;-
1511264517909;-;-;9.105637;-2.0684052;1.0864563;-;-;-;-;-;-;-;-;-;-;-;-;-;-;-
1511264517929;-;-;9.007477;-2.095932;0.9990692;-;-;-;-;-;-;-;-;-;-;-;-;-;-;-
1511264517950;-;-;8.893753;-2.1773376;0.9009094;-;-;-;-;-;-;-;-;-;-;-;-;-;-;-
1511264517970;-;-;8.930862;-2.2862701;0.7967529;-;-;-;-;-;-;-;-;-;-;-;-;-;-;-
1511264517990;-;-;9.122391;-2.360489;0.7859802;-;-;-;-;-;-;-;-;-;-;-;-;-;-;-
1511264518011;-;-;9.322311;-2.423935;0.5968323;-;-;-;-;-;-;-;-;-;-;-;-;-;-;-
1511264518031;-;-;9.561737;-2.432312;0.33348083;-;-;-;-;-;-;-;-;-;-;-;-;-;-;-
1511264518051;-;-;9.79158;-2.2276154;0.28799438;-;-;-;-;-;-;-;-;-;-;-;-;-;-;-
1511264518072;-;-;9.691025;-1.822998;0.38375854;-;-;-;-;-;-;-;-;-;-;-;-;-;-;-
1511264518092;-;-;9.333084;-1.3920441;0.27482605;-;-;-;-;-;-;-;-;-;-;-;-;-;-;-
1511264518112;-;-;9.012268;-1.0329132;0.32748413;-;-;-;-;-;-;-;-;-;-;-;-;-;-;-
1511264518133;-;-;8.786011;-0.6701813;0.4328308;-;-;-;-;-;-;-;-;-;-;-;-;-;-;-
1511264518152;-;-;8.671097;-0.6031494;0.31910706;-;-;-;-;-;-;-;-;-;-;-;-;-;-;-
1511264518172;-;-;8.929672;-0.8880615;0.08088684;-;-;-;-;-;-;-;-;-;-;-;-;-;-;-
1511264518192;-;-;8.984726;-1.5416718;0.15989685;-;-;-;-;-;-;-;-;-;-;-;-;-;-;-
1511264518212;-;-;8.750107;-2.143814;0.45439148;-;-;-;-;-;-;-;-;-;-;-;-;-;-;-
1511264518232;-;-;8.442444;-2.4191437;0.46395874;-;-;-;-;-;-;-;-;-;-;-;-;-;-;-
1511264518253;-;-;8.384979;-2.5699768;0.45318604;-;-;-;-;-;-;-;-;-;-;-;-;-;-;-
1511264518273;-;-;8.733337;-2.309021;0.4388275;-;-;-;-;-;-;-;-;-;-;-;-;-;-;-
1511264518293;-;-;8.985931;-2.0767822;0.36698914;-;-;-;-;-;-;-;-;-;-;-;-;-;-;-
1511264518314;-;-;9.031418;-2.0468445;0.33946228;-;-;-;-;-;-;-;-;-;-;-;-;-;-;-
1511264518334;-;-;8.954803;-2.2575378;0.29516602;-;-;-;-;-;-;-;-;-;-;-;-;-;-;-
1511264518354;-;-;8.872208;-2.3940125;0.23651123;-;-;-;-;-;-;-;-;-;-;-;-;-;-;-
1511264518375;-;-;8.836288;-2.289856;0.3705902;-;-;-;-;-;-;-;-;-;-;-;-;-;-;-
1511264518395;-;-;8.90094;-2.0863495;0.44599915;-;-;-;-;-;-;-;-;-;-;-;-;-;-;-
1511264518416;-;-;9.155914;-1.9630585;0.35502625;-;-;-;-;-;-;-;-;-;-;-;-;-;-;-
1511264518436;-;-;9.707779;-1.913971;0.35263062;-;-;-;-;-;-;-;-;-;-;-;-;-;-;-
1511264518456;-;-;10.039383;-1.8696747;0.42086792;-;-;-;-;-;-;-;-;-;-;-;-;-;-;-
1511264518476;-;-;9.95079;-1.8110199;0.508255;-;-;-;-;-;-;-;-;-;-;-;-;-;-;-
1511264518497;-;-;9.522232;-1.6398315;0.66986084;-;-;-;-;-;-;-;-;-;-;-;-;-;-;-
1511264518517;-;-;8.917694;-1.2950745;0.7464752;-;-;-;-;-;-;-;-;-;-;-;-;-;-;-
1511264518537;-;-;8.236542;-1.1813507;0.70098877;-;-;-;-;-;-;-;-;-;-;-;-;-;-;-
1511264518557;-;-;7.842697;-1.4135895;0.51304626;-;-;-;-;-;-;-;-;-;-;-;-;-;-;-
1511264518578;-;-;7.9193115;-1.961853;0.017440796;-;-;-;-;-;-;-;-;-;-;-;-;-;-;-
1511264518597;-;-;8.338303;-2.2407837;0.1874237;-;-;-;-;-;-;-;-;-;-;-;-;-;-;-
1511264518617;-;-;9.319916;-2.447876;0.33587646;-;-;-;-;-;-;-;-;-;-;-;-;-;-;-
1511264518638;-;-;10.087265;-2.9327087;0.216156;-;-;-;-;-;-;-;-;-;-;-;-;-;-;-
1511264518658;-;-;9.892136;-3.3157806;0.88534546;-;-;-;-;-;-;-;-;-;-;-;-;-;-;-
1511264518678;-;-;9.529419;-2.8812256;0.77879333;-;-;-;-;-;-;-;-;-;-;-;-;-;-;-
1511264518698;-;-;9.001495;-2.3916168;0.57289124;-;-;-;-;-;-;-;-;-;-;-;-;-;-;-
1511264518718;-;-;8.963181;-2.1222687;0.7931671;-;-;-;-;-;-;-;-;-;-;-;-;-;-;-
1511264518739;-;-;8.941635;-2.0899506;0.5968323;-;-;-;-;-;-;-;-;-;-;-;-;-;-;-
1511264518759;-;-;8.957199;-2.183319;0.18981934;-;-;-;-;-;-;-;-;-;-;-;-;-;-;-
1511264518779;-;-;8.915298;-2.0839539;0.22692871;-;-;-;-;-;-;-;-;-;-;-;-;-;-;-
1511264518800;-;-;8.817139;-1.9558716;0.38734436;-;-;-;-;-;-;-;-;-;-;-;-;-;-;-
1511264518820;-;-;8.763275;-1.7655334;0.46635437;-;-;-;-;-;-;-;-;-;-;-;-;-;-;-
1511264518840;-;-;8.759674;-1.7954559;0.36221313;-;-;-;-;-;-;-;-;-;-;-;-;-;-;-
1511264518861;-;-;8.868607;-2.0396729;0.39453125;-;-;-;-;-;-;-;-;-;-;-;-;-;-;-
1511264518880;-;-;8.995499;-2.320984;0.43522644;-;-;-;-;-;-;-;-;-;-;-;-;-;-;-
1511264518900;-;-;9.066132;-2.535263;0.4400177;-;-;-;-;-;-;-;-;-;-;-;-;-;-;-
1511264518921;-;-;9.165497;-2.6465912;0.48191833;-;-;-;-;-;-;-;-;-;-;-;-;-;-;-
1511264518941;-;-;9.292389;-2.490982;0.44360352;-;-;-;-;-;-;-;-;-;-;-;-;-;-;-
1511264518961;-;-;9.359421;-2.36409;0.41249084;-;-;-;-;-;-;-;-;-;-;-;-;-;-;-
1511264518982;-;-;9.321121;-2.2419739;0.42445374;-;-;-;-;-;-;-;-;-;-;-;-;-;-;-
1511264519002;-;-;9.183456;-2.3281708;0.40290833;-;-;-;-;-;-;-;-;-;-;-;-;-;-;-
1511264519022;-;-;8.98114;-2.54245;0.42086792;-;-;-;-;-;-;-;-;-;-;-;-;-;-;-
1511264519043;-;-;8.959595;-2.6082916;0.41368103;-;-;-;-;-;-;-;-;-;-;-;-;-;-;-
1511264519062;-;-;8.97995;-2.7016602;0.4112854;-;-;-;-;-;-;-;-;-;-;-;-;-;-;-
1511264519082;-;-;9.088882;-2.5388641;0.3933258;-;-;-;-;-;-;-;-;-;-;-;-;-;-;-
1511264519103;-;-;9.1523285;-2.3580933;0.2927704;-;-;-;-;-;-;-;-;-;-;-;-;-;-;-
1511264519122;-;-;9.242111;-2.2168427;0.27122498;-;-;-;-;-;-;-;-;-;-;-;-;-;-;-
1511264519142;-;-;9.136765;-2.2192383;0.2341156;-;-;-;-;-;-;-;-;-;-;-;-;-;-;-
1511264519163;-;-;8.985931;-2.2096558;0.28199768;-;-;-;-;-;-;-;-;-;-;-;-;-;-;-
1511264519183;-;-;8.871002;-2.2707062;0.3143158;-;-;-;-;-;-;-;-;-;-;-;-;-;-;-
1511264519203;-;-;8.954803;-2.3257751;0.28559875;-;-;-;-;-;-;-;-;-;-;-;-;-;-;-
1511264519224;-;-;9.173874;-2.3461304;0.24848938;-;-;-;-;-;-;-;-;-;-;-;-;-;-;-
1511264519244;-;-;9.23613;-2.411972;0.19102478;-;-;-;-;-;-;-;-;-;-;-;-;-;-;-
1511264519264;-;-;9.301956;-2.6023102;-0.11064148;-;-;-;-;-;-;-;-;-;-;-;-;-;-;-
1511264519285;-;-;9.245697;-2.6837158;-0.3871765;-;-;-;-;-;-;-;-;-;-;-;-;-;-;-
1511264519305;-;-;9.155914;-2.5604095;-0.43147278;-;-;-;-;-;-;-;-;-;-;-;-;-;-;-
1511264519325;-;-;8.880585;-2.4203491;-0.011291504;-;-;-;-;-;-;-;-;-;-;-;-;-;-;-
1511264519345;-;-;8.611237;-2.332962;0.48310852;-;-;-;-;-;-;-;-;-;-;-;-;-;-;-
1511264519366;-;-;8.396957;-2.380844;0.5489502;-;-;-;-;-;-;-;-;-;-;-;-;-;-;-
1511264519386;-;-;8.475967;-2.4311218;0.49987793;-;-;-;-;-;-;-;-;-;-;-;-;-;-;-
1511264519406;-;-;8.705811;-2.5783691;0.35621643;-;-;-;-;-;-;-;-;-;-;-;-;-;-;-
1511264519426;-;-;9.049377;-2.7112427;0.32389832;-;-;-;-;-;-;-;-;-;-;-;-;-;-;-
1511264519447;-;-;9.251678;-2.692093;0.30833435;-;-;-;-;-;-;-;-;-;-;-;-;-;-;-
1511264519467;-;-;9.220566;-2.5328674;0.18025208;-;-;-;-;-;-;-;-;-;-;-;-;-;-;-
1511264519488;-;-;9.084091;-2.411972;0.27122498;-;-;-;-;-;-;-;-;-;-;-;-;-;-;-
1511264519508;-;-;8.946426;-2.2790833;0.3322754;-;-;-;-;-;-;-;-;-;-;-;-;-;-;-
1511264519528;-;-;8.795593;-2.2120514;0.47833252;-;-;-;-;-;-;-;-;-;-;-;-;-;-;-
1511264519548;-;-;8.722565;-2.332962;0.5441742;-;-;-;-;-;-;-;-;-;-;-;-;-;-;-
1511264519569;-;-;8.710602;-2.4742126;0.41607666;-;-;-;-;-;-;-;-;-;-;-;-;-;-;-
1511264519589;-;-;8.813553;-2.554428;0.38015747;-;-;-;-;-;-;-;-;-;-;-;-;-;-;-
1511264519609;-;-;9.041;-2.6442108;0.32987976;-;-;-;-;-;-;-;-;-;-;-;-;-;-;-
1511264519630;-;-;9.220566;-2.6190643;0.15151978;-;-;-;-;-;-;-;-;-;-;-;-;-;-;-
1511264519650;-;-;9.321121;-2.5005493;0.027023315;-;-;-;-;-;-;-;-;-;-;-;-;-;-;-
1511264519670;-;-;9.258865;-2.2874756;0.034194946;-;-;-;-;-;-;-;-;-;-;-;-;-;-;-
1511264519690;-;-;9.092468;-2.190506;0.019836426;-;-;-;-;-;-;-;-;-;-;-;-;-;-;-
1511264519711;-;-;8.795593;-2.2012787;0.041381836;-;-;-;-;-;-;-;-;-;-;-;-;-;-;-
1511264519731;-;-;8.668701;-2.320984;0.13116455;-;-;-;-;-;-;-;-;-;-;-;-;-;-;-
1511264519751;-;-;8.802765;-2.3892212;0.2233429;-;-;-;-;-;-;-;-;-;-;-;-;-;-;-
1511264519772;-;-;9.0793;-2.3736572;0.20777893;-;-;-;-;-;-;-;-;-;-;-;-;-;-;-
1511264519792;-;-;9.39653;-2.313797;0.34544373;-;-;-;-;-;-;-;-;-;-;-;-;-;-;-
1511264519812;-;-;9.623978;-2.4442902;0.35144043;-;-;-;-;-;-;-;-;-;-;-;-;-;-;-
1511264519833;-;-;9.537796;-2.597519;0.17306519;-;-;-;-;-;-;-;-;-;-;-;-;-;-;-
1511264519853;-;-;9.382172;-2.7268066;0.15510559;-;-;-;-;-;-;-;-;-;-;-;-;-;-;-
1511264519873;-;-;9.165497;-2.629837;0.24130249;-;-;-;-;-;-;-;-;-;-;-;-;-;-;-
1511264519893;-;-;8.971558;-2.566391;0.17546082;-;-;-;-;-;-;-;-;-;-;-;-;-;-;-
1511264519914;-;-;8.829102;-2.5436401;0.1946106;-;-;-;-;-;-;-;-;-;-;-;-;-;-;-
1511264519934;-;-;8.829102;-2.5400543;0.15870667;-;-;-;-;-;-;-;-;-;-;-;-;-;-;-
1511264519954;-;-;8.847061;-2.4622498;0.11920166;-;-;-;-;-;-;-;-;-;-;-;-;-;-;-
1511264519975;-;-;8.966782;-2.3832397;0.15510559;-;-;-;-;-;-;-;-;-;-;-;-;-;-;-
1511264519995;-;-;9.033813;-2.360489;0.070114136;-;-;-;-;-;-;-;-;-;-;-;-;-;-;-
1511264520015;-;-;8.936844;-2.269516;-0.10586548;-;-;-;-;-;-;-;-;-;-;-;-;-;-;-
1511264520036;-;-;8.790802;-2.2156372;-0.1381836;-;-;-;-;-;-;-;-;-;-;-;-;-;-;-
1511264520055;-;-;8.678268;-2.174942;-0.18008423;-;-;-;-;-;-;-;-;-;-;-;-;-;-;-
1511264520075;-;-;8.661514;-2.1689606;-0.12741089;-;-;-;-;-;-;-;-;-;-;-;-;-;-;-
1511264520096;-;-;8.84108;-2.2012787;-0.111846924;-;-;-;-;-;-;-;-;-;-;-;-;-;-;-
1511264520115;-;-;9.074509;-2.3006287;-0.14537048;-;-;-;-;-;-;-;-;-;-;-;-;-;-;-
1511264520135;-;-;9.251678;-2.3832397;-0.2507019;-;-;-;-;-;-;-;-;-;-;-;-;-;-;-
1511264520155;-;-;9.301956;-2.471817;-0.20521545;-;-;-;-;-;-;-;-;-;-;-;-;-;-;-
1511264520176;-;-;9.352234;-2.6011047;-0.16931152;-;-;-;-;-;-;-;-;-;-;-;-;-;-;-
1511264520196;-;-;9.391739;-2.6789246;-0.09628296;-;-;-;-;-;-;-;-;-;-;-;-;-;-;-
1511264520216;-;-;9.337875;-2.7196198;0.046173096;-;-;-;-;-;-;-;-;-;-;-;-;-;-;-
1511264520237;-;-;9.305557;-2.851303;-0.12261963;-;-;-;-;-;-;-;-;-;-;-;-;-;-;-
1511264520257;-;-;9.13916;-2.842926;-0.16091919;-;-;-;-;-;-;-;-;-;-;-;-;-;-;-
1511264520278;-;-;8.862625;-2.5604095;-0.061569214;-;-;-;-;-;-;-;-;-;-;-;-;-;-;-
1511264520298;-;-;8.537018;-2.2982483;-0.10107422;-;-;-;-;-;-;-;-;-;-;-;-;-;-;-
1511264520319;-;-;8.382584;-2.0612183;-0.11782837;-;-;-;-;-;-;-;-;-;-;-;-;-;-;-
1511264520339;-;-;8.474762;-2.0276947;-0.020858765;-;-;-;-;-;-;-;-;-;-;-;-;-;-;-
1511264520359;-;-;8.771652;-2.1282501;0.06652832;-;-;-;-;-;-;-;-;-;-;-;-;-;-;-
1511264520379;-;-;8.9787445;-2.2120514;0.0138549805;-;-;-;-;-;-;-;-;-;-;-;-;-;-;-
1511264520400;-;-;9.202606;-2.1952972;-0.083114624;-;-;-;-;-;-;-;-;-;-;-;-;-;-;-
1511264520419;-;-;9.147537;-2.142624;-0.13697815;-;-;-;-;-;-;-;-;-;-;-;-;-;-;-
