TimeStamp[ms];Prox[Cm];Lux[lux];AccX[m/s^2];AccY[m/s^2];AccZ[m/s^2];GyroX[rad/s];GyroY[rad/s];GyroZ[rad/s];MagnX[uT];MagnY[uT];MagnZ[uT];OrienYaw[degrees];OrienPitch[degrees];OrienRoll[degrees];Press[Pa];Temp[C°];Batt[%];Lat;Lng;Speed[m/s]
1511263788931;-;-;9.0577545;-0.07762146;-1.5735016;-;-;-;-;-;-;-;-;-;-;-;-;-;-;-
1511263788934;-;-;9.013458;-0.05847168;-1.6441345;-;-;-;-;-;-;-;-;-;-;-;-;-;-;-
1511263788950;-;-;9.020645;-0.078811646;-1.8165131;-;-;-;-;-;-;-;-;-;-;-;-;-;-;-
1511263788971;-;-;9.386963;0.06602478;-1.8380585;-;-;-;-;-;-;-;-;-;-;-;-;-;-;-
1511263788990;-;-;9.386963;0.110321045;-1.8416595;-;-;-;-;-;-;-;-;-;-;-;-;-;-;-
1511263789010;-;-;9.12001;-0.047698975;-1.8775635;-;-;-;-;-;-;-;-;-;-;-;-;-;-;-
1511263789030;-;-;8.92009;-0.20570374;-1.8560181;-;-;-;-;-;-;-;-;-;-;-;-;-;-;-
1511263789050;-;-;8.924881;-0.34936523;-1.7219391;-;-;-;-;-;-;-;-;-;-;-;-;-;-;-
1511263789071;-;-;9.068527;-0.35534668;-1.6393433;-;-;-;-;-;-;-;-;-;-;-;-;-;-;-
1511263789090;-;-;9.153519;-0.23324585;-1.674057;-;-;-;-;-;-;-;-;-;-;-;-;-;-;-
1511263789110;-;-;9.164291;-0.057266235;-1.6608887;-;-;-;-;-;-;-;-;-;-;-;-;-;-;-
1511263789130;-;-;9.135559;-0.026138306;-1.7243347;-;-;-;-;-;-;-;-;-;-;-;-;-;-;-
1511263789150;-;-;9.07811;-0.09677124;-1.674057;-;-;-;-;-;-;-;-;-;-;-;-;-;-;-
1511263789183;-;-;8.918884;-0.14225769;-1.610611;-;-;-;-;-;-;-;-;-;-;-;-;-;-;-
1511263789191;-;-;8.970367;-0.14585876;-1.6237793;-;-;-;-;-;-;-;-;-;-;-;-;-;-;-
1511263789211;-;-;9.069733;-0.08720398;-1.6357574;-;-;-;-;-;-;-;-;-;-;-;-;-;-;-
1511263789231;-;-;9.148727;-0.066848755;-1.5854797;-;-;-;-;-;-;-;-;-;-;-;-;-;-;-
1511263789251;-;-;9.245697;-0.12908936;-1.6321564;-;-;-;-;-;-;-;-;-;-;-;-;-;-;-
1511263789272;-;-;9.185837;-0.119522095;-1.6333618;-;-;-;-;-;-;-;-;-;-;-;-;-;-;-
1511263789292;-;-;9.117615;-0.10874939;-1.6381531;-;-;-;-;-;-;-;-;-;-;-;-;-;-;-
1511263789312;-;-;9.075714;-0.097976685;-1.5854797;-;-;-;-;-;-;-;-;-;-;-;-;-;-;-
1511263789332;-;-;9.135559;-0.076416016;-1.5411835;-;-;-;-;-;-;-;-;-;-;-;-;-;-;-
1511263789352;-;-;9.185837;-0.107543945;-1.6369476;-;-;-;-;-;-;-;-;-;-;-;-;-;-;-
1511263789373;-;-;9.206192;-0.083602905;-1.6836395;-;-;-;-;-;-;-;-;-;-;-;-;-;-;-
1511263789393;-;-;9.193024;-0.083602905;-1.6668854;-;-;-;-;-;-;-;-;-;-;-;-;-;-;-
1511263789413;-;-;9.205002;-0.100372314;-1.6692657;-;-;-;-;-;-;-;-;-;-;-;-;-;-;-
1511263789433;-;-;9.178665;-0.093185425;-1.674057;-;-;-;-;-;-;-;-;-;-;-;-;-;-;-
1511263789453;-;-;9.197815;-0.1015625;-1.6680756;-;-;-;-;-;-;-;-;-;-;-;-;-;-;-
1511263789474;-;-;9.1918335;-0.02494812;-1.7039948;-;-;-;-;-;-;-;-;-;-;-;-;-;-;-
1511263789494;-;-;9.15712;-0.03213501;-1.7398987;-;-;-;-;-;-;-;-;-;-;-;-;-;-;-
1511263789514;-;-;9.096069;-0.018966675;-1.7027893;-;-;-;-;-;-;-;-;-;-;-;-;-;-;-
1511263789534;-;-;9.090073;-0.038116455;-1.6680756;-;-;-;-;-;-;-;-;-;-;-;-;-;-;-
1511263789554;-;-;9.117615;-0.0105896;-1.7027893;-;-;-;-;-;-;-;-;-;-;-;-;-;-;-
1511263789574;-;-;9.124786;0.03970337;-1.6956024;-;-;-;-;-;-;-;-;-;-;-;-;-;-;-
1511263789595;-;-;9.108032;0.112716675;-1.6656799;-;-;-;-;-;-;-;-;-;-;-;-;-;-;-
1511263789615;-;-;9.128387;0.12948608;-1.6908264;-;-;-;-;-;-;-;-;-;-;-;-;-;-;-
1511263789635;-;-;9.151123;0.13186646;-1.674057;-;-;-;-;-;-;-;-;-;-;-;-;-;-;-
1511263789655;-;-;8.650742;1.5300903;-1.5004883;-;-;-;-;-;-;-;-;-;-;-;-;-;-;-
1511263789675;-;-;9.306747;-0.0010070801;-1.4944916;-;-;-;-;-;-;-;-;-;-;-;-;-;-;-
1511263789696;-;-;9.767639;0.05885315;-1.6094208;-;-;-;-;-;-;-;-;-;-;-;-;-;-;-
1511263789716;-;-;8.940445;-0.42118835;-1.3304901;-;-;-;-;-;-;-;-;-;-;-;-;-;-;-
1511263789736;-;-;8.769257;0.05885315;-1.2335358;-;-;-;-;-;-;-;-;-;-;-;-;-;-;-
1511263789756;-;-;9.267242;0.32699585;-1.5974426;-;-;-;-;-;-;-;-;-;-;-;-;-;-;-
1511263789776;-;-;9.576096;-0.32661438;-1.3640137;-;-;-;-;-;-;-;-;-;-;-;-;-;-;-
1511263789797;-;-;8.34787;1.0368805;-1.480133;-;-;-;-;-;-;-;-;-;-;-;-;-;-;-
1511263789816;-;-;8.699814;0.40960693;-1.6285706;-;-;-;-;-;-;-;-;-;-;-;-;-;-;-
1511263789836;-;-;9.215775;-0.12669373;-1.6704712;-;-;-;-;-;-;-;-;-;-;-;-;-;-;-
1511263789856;-;-;9.307953;-0.33021545;-1.7614441;-;-;-;-;-;-;-;-;-;-;-;-;-;-;-
1511263789876;-;-;9.374985;0.18574524;-2.0080566;-;-;-;-;-;-;-;-;-;-;-;-;-;-;-
1511263789896;-;-;9.4133;0.081588745;-1.535202;-;-;-;-;-;-;-;-;-;-;-;-;-;-;-
1511263789917;-;-;9.446808;1.9836426E-4;-1.6764526;-;-;-;-;-;-;-;-;-;-;-;-;-;-;-
1511263789937;-;-;9.062546;0.28390503;-1.8201141;-;-;-;-;-;-;-;-;-;-;-;-;-;-;-
1511263789957;-;-;8.876999;-0.18296814;-1.4537964;-;-;-;-;-;-;-;-;-;-;-;-;-;-;-
1511263789977;-;-;9.339081;0.2192688;-1.777008;-;-;-;-;-;-;-;-;-;-;-;-;-;-;-
1511263789997;-;-;8.987122;0.08039856;-1.887146;-;-;-;-;-;-;-;-;-;-;-;-;-;-;-
1511263790018;-;-;9.153519;0.31861877;-1.6225891;-;-;-;-;-;-;-;-;-;-;-;-;-;-;-
1511263790038;-;-;9.336685;0.124694824;-1.7865906;-;-;-;-;-;-;-;-;-;-;-;-;-;-;-
1511263790058;-;-;9.779602;0.026535034;-1.847641;-;-;-;-;-;-;-;-;-;-;-;-;-;-;-
1511263790078;-;-;9.856216;-0.21170044;-2.5168152;-;-;-;-;-;-;-;-;-;-;-;-;-;-;-
1511263790098;-;-;8.4448395;-0.03453064;-1.6656799;-;-;-;-;-;-;-;-;-;-;-;-;-;-;-
1511263790119;-;-;7.901352;0.78907776;-1.5375977;-;-;-;-;-;-;-;-;-;-;-;-;-;-;-
1511263790139;-;-;9.583282;0.4084015;-1.3280945;-;-;-;-;-;-;-;-;-;-;-;-;-;-;-
1511263790159;-;-;9.937622;-0.42118835;-1.9458008;-;-;-;-;-;-;-;-;-;-;-;-;-;-;-
1511263790179;-;-;8.396957;0.03970337;-1.8488312;-;-;-;-;-;-;-;-;-;-;-;-;-;-;-
1511263790199;-;-;8.948822;0.30186462;-1.9733429;-;-;-;-;-;-;-;-;-;-;-;-;-;-;-
1511263790219;-;-;8.344284;0.97224426;-2.2570496;-;-;-;-;-;-;-;-;-;-;-;-;-;-;-
1511263790240;-;-;9.050568;0.25637817;-1.6680756;-;-;-;-;-;-;-;-;-;-;-;-;-;-;-
1511263790260;-;-;9.0793;-0.2392273;-1.5339966;-;-;-;-;-;-;-;-;-;-;-;-;-;-;-
1511263790280;-;-;7.2465363;0.42277527;-2.0726929;-;-;-;-;-;-;-;-;-;-;-;-;-;-;-
1511263790300;-;-;10.460754;-1.522522;-0.20281982;-;-;-;-;-;-;-;-;-;-;-;-;-;-;-
1511263790320;-;-;9.585678;-0.22486877;-1.6094208;-;-;-;-;-;-;-;-;-;-;-;-;-;-;-
1511263790341;-;-;9.199005;-0.112335205;-2.342041;-;-;-;-;-;-;-;-;-;-;-;-;-;-;-
1511263790361;-;-;9.446808;-0.2320404;-1.8129272;-;-;-;-;-;-;-;-;-;-;-;-;-;-;-
1511263790381;-;-;9.063736;-0.60554504;-1.8931274;-;-;-;-;-;-;-;-;-;-;-;-;-;-;-
1511263790401;-;-;8.780029;0.24440002;-1.7099762;-;-;-;-;-;-;-;-;-;-;-;-;-;-;-
1511263790421;-;-;9.0972595;-0.4666748;-2.0092468;-;-;-;-;-;-;-;-;-;-;-;-;-;-;-
1511263790442;-;-;8.963181;-0.24281311;-1.8057404;-;-;-;-;-;-;-;-;-;-;-;-;-;-;-
1511263790461;-;-;9.510254;-0.8748932;-1.1054382;-;-;-;-;-;-;-;-;-;-;-;-;-;-;-
1511263790481;-;-;9.747284;-1.3788757;-1.0288239;-;-;-;-;-;-;-;-;-;-;-;-;-;-;-
1511263790501;-;-;9.076904;-0.9359436;-1.471756;-;-;-;-;-;-;-;-;-;-;-;-;-;-;-
1511263790521;-;-;8.709396;-0.28231812;-2.012848;-;-;-;-;-;-;-;-;-;-;-;-;-;-;-
1511263790542;-;-;8.964386;-0.22964478;-1.8213043;-;-;-;-;-;-;-;-;-;-;-;-;-;-;-
1511263790562;-;-;9.167892;-0.54927063;-2.0834656;-;-;-;-;-;-;-;-;-;-;-;-;-;-;-
1511263790582;-;-;9.342667;-0.7671509;-1.7794037;-;-;-;-;-;-;-;-;-;-;-;-;-;-;-
1511263790602;-;-;9.032608;-0.57681274;-1.5232239;-;-;-;-;-;-;-;-;-;-;-;-;-;-;-
1511263790622;-;-;8.474762;-0.82221985;-2.0858612;-;-;-;-;-;-;-;-;-;-;-;-;-;-;-
1511263790643;-;-;8.843475;-0.4559021;-1.4861145;-;-;-;-;-;-;-;-;-;-;-;-;-;-;-
1511263790663;-;-;9.81073;-0.12669373;-1.9398193;-;-;-;-;-;-;-;-;-;-;-;-;-;-;-
1511263790683;-;-;9.400131;-0.86531067;-1.7662354;-;-;-;-;-;-;-;-;-;-;-;-;-;-;-
1511263790703;-;-;8.809952;-0.24281311;-0.7989807;-;-;-;-;-;-;-;-;-;-;-;-;-;-;-
1511263790724;-;-;9.163101;0.2348175;-1.5926514;-;-;-;-;-;-;-;-;-;-;-;-;-;-;-
1511263790744;-;-;9.430054;-0.33859253;-1.614212;-;-;-;-;-;-;-;-;-;-;-;-;-;-;-
1511263790764;-;-;9.088882;-0.42358398;-1.5064697;-;-;-;-;-;-;-;-;-;-;-;-;-;-;-
1511263790785;-;-;9.258865;-0.4559021;-1.5938568;-;-;-;-;-;-;-;-;-;-;-;-;-;-;-
1511263790805;-;-;9.164291;-0.38287354;-1.5639343;-;-;-;-;-;-;-;-;-;-;-;-;-;-;-
1511263790825;-;-;9.075714;-0.2787323;-1.4705505;-;-;-;-;-;-;-;-;-;-;-;-;-;-;-
1511263790845;-;-;9.0733185;-0.25479126;-1.4753418;-;-;-;-;-;-;-;-;-;-;-;-;-;-;-
1511263790866;-;-;9.15712;-0.23683167;-1.5399933;-;-;-;-;-;-;-;-;-;-;-;-;-;-;-
1511263790885;-;-;9.213379;-0.26675415;-1.4358368;-;-;-;-;-;-;-;-;-;-;-;-;-;-;-
1511263790905;-;-;9.066132;-0.22007751;-1.5040741;-;-;-;-;-;-;-;-;-;-;-;-;-;-;-
1511263790926;-;-;9.135559;-0.1877594;-1.5459747;-;-;-;-;-;-;-;-;-;-;-;-;-;-;-
1511263790945;-;-;9.008667;-0.07043457;-1.4765472;-;-;-;-;-;-;-;-;-;-;-;-;-;-;-
1511263790965;-;-;9.041;0.010971069;-1.4597778;-;-;-;-;-;-;-;-;-;-;-;-;-;-;-
1511263790985;-;-;9.054169;0.088775635;-1.3544312;-;-;-;-;-;-;-;-;-;-;-;-;-;-;-
1511263791006;-;-;9.164291;0.0049743652;-1.3328857;-;-;-;-;-;-;-;-;-;-;-;-;-;-;-
1511263791026;-;-;9.2756195;-0.08958435;-1.4238739;-;-;-;-;-;-;-;-;-;-;-;-;-;-;-
1511263791046;-;-;9.282806;-0.0069885254;-1.3149261;-;-;-;-;-;-;-;-;-;-;-;-;-;-;-
1511263791067;-;-;9.330688;0.22644043;-1.2227478;-;-;-;-;-;-;-;-;-;-;-;-;-;-;-
1511263791087;-;-;9.430054;0.39283752;-1.085083;-;-;-;-;-;-;-;-;-;-;-;-;-;-;-
1511263791107;-;-;9.565323;0.32939148;-1.2945862;-;-;-;-;-;-;-;-;-;-;-;-;-;-;-
1511263791128;-;-;9.655106;0.23602295;-1.4394226;-;-;-;-;-;-;-;-;-;-;-;-;-;-;-
1511263791147;-;-;9.541382;0.42636108;-1.5890656;-;-;-;-;-;-;-;-;-;-;-;-;-;-;-
1511263791167;-;-;9.309143;0.541275;-1.8248901;-;-;-;-;-;-;-;-;-;-;-;-;-;-;-
1511263791188;-;-;9.215775;0.6957092;-1.8189087;-;-;-;-;-;-;-;-;-;-;-;-;-;-;-
1511263791208;-;-;9.276825;0.56044006;-1.8213043;-;-;-;-;-;-;-;-;-;-;-;-;-;-;-
1511263791228;-;-;9.128387;0.17376709;-1.777008;-;-;-;-;-;-;-;-;-;-;-;-;-;-;-
1511263791249;-;-;8.532227;-0.54689026;-1.243103;-;-;-;-;-;-;-;-;-;-;-;-;-;-;-
1511263791269;-;-;7.8391113;-1.4483032;-0.5068817;-;-;-;-;-;-;-;-;-;-;-;-;-;-;-
1511263791289;-;-;7.090912;-2.451477;0.25686646;-;-;-;-;-;-;-;-;-;-;-;-;-;-;-
1511263791309;-;-;7.9157257;-2.3078156;0.17904663;-;-;-;-;-;-;-;-;-;-;-;-;-;-;-
1511263791330;-;-;9.511459;-0.838974;-0.22557068;-;-;-;-;-;-;-;-;-;-;-;-;-;-;-
1511263791350;-;-;11.284363;0.59394836;-0.31654358;-;-;-;-;-;-;-;-;-;-;-;-;-;-;-
1511263791370;-;-;12.561676;1.2499695;-1.2885895;-;-;-;-;-;-;-;-;-;-;-;-;-;-;-
1511263791391;-;-;11.5920105;0.967453;-1.0479736;-;-;-;-;-;-;-;-;-;-;-;-;-;-;-
1511263791411;-;-;10.452377;-0.06803894;-0.47695923;-;-;-;-;-;-;-;-;-;-;-;-;-;-;-
1511263791432;-;-;9.133179;-0.32661438;-0.3009796;-;-;-;-;-;-;-;-;-;-;-;-;-;-;-
1511263791452;-;-;8.10965;-0.63905334;-0.04600525;-;-;-;-;-;-;-;-;-;-;-;-;-;-;-
1511263791472;-;-;7.574539;-0.90960693;0.31671143;-;-;-;-;-;-;-;-;-;-;-;-;-;-;-
1511263791493;-;-;6.9855804;-1.2076874;0.5369873;-;-;-;-;-;-;-;-;-;-;-;-;-;-;-
1511263791513;-;-;7.3925934;-1.4470978;0.50704956;-;-;-;-;-;-;-;-;-;-;-;-;-;-;-
1511263791533;-;-;8.158737;-1.4291534;0.23052979;-;-;-;-;-;-;-;-;-;-;-;-;-;-;-
1511263791554;-;-;9.006287;-1.107132;-0.19204712;-;-;-;-;-;-;-;-;-;-;-;-;-;-;-
1511263791574;-;-;9.691025;-0.6043396;-0.46020508;-;-;-;-;-;-;-;-;-;-;-;-;-;-;-
1511263791594;-;-;9.883759;-0.17578125;-0.3261261;-;-;-;-;-;-;-;-;-;-;-;-;-;-;-
1511263791614;-;-;9.644333;-0.34457397;-0.26148987;-;-;-;-;-;-;-;-;-;-;-;-;-;-;-
1511263791635;-;-;9.754471;-0.5959625;-0.07713318;-;-;-;-;-;-;-;-;-;-;-;-;-;-;-
1511263791654;-;-;9.892136;-0.19972229;0.0569458;-;-;-;-;-;-;-;-;-;-;-;-;-;-;-
1511263791674;-;-;10.239288;0.7424011;0.3310852;-;-;-;-;-;-;-;-;-;-;-;-;-;-;-
1511263791695;-;-;9.893326;1.4977722;1.0900421;-;-;-;-;-;-;-;-;-;-;-;-;-;-;-
1511263791715;-;-;9.165497;0.9459076;1.3043213;-;-;-;-;-;-;-;-;-;-;-;-;-;-;-
1511263791735;-;-;9.243301;-1.522522;0.51065063;-;-;-;-;-;-;-;-;-;-;-;-;-;-;-
1511263791755;-;-;11.86615;-3.187683;-0.051986694;-;-;-;-;-;-;-;-;-;-;-;-;-;-;-
1511263791776;-;-;13.771942;-2.0935364;-1.3041534;-;-;-;-;-;-;-;-;-;-;-;-;-;-;-
1511263791796;-;-;13.490616;-0.54689026;-1.5962524;-;-;-;-;-;-;-;-;-;-;-;-;-;-;-
1511263791816;-;-;11.430405;-1.0484619;-0.7056122;-;-;-;-;-;-;-;-;-;-;-;-;-;-;-
1511263791836;-;-;9.206192;-1.5715942;-0.788208;-;-;-;-;-;-;-;-;-;-;-;-;-;-;-
1511263791857;-;-;7.884598;-1.7619476;-1.1126251;-;-;-;-;-;-;-;-;-;-;-;-;-;-;-
1511263791877;-;-;6.922119;-1.4985809;-1.9553833;-;-;-;-;-;-;-;-;-;-;-;-;-;-;-
1511263791897;-;-;6.4528656;-1.1131134;-2.6520996;-;-;-;-;-;-;-;-;-;-;-;-;-;-;-
1511263791917;-;-;5.995575;-0.76116943;-2.9633331;-;-;-;-;-;-;-;-;-;-;-;-;-;-;-
1511263791937;-;-;6.098526;-0.5241394;-2.79216;-;-;-;-;-;-;-;-;-;-;-;-;-;-;-
1511263791958;-;-;6.9556427;-0.21528625;-2.4114685;-;-;-;-;-;-;-;-;-;-;-;-;-;-;-
1511263791978;-;-;8.337097;0.46705627;-2.1229706;-;-;-;-;-;-;-;-;-;-;-;-;-;-;-
1511263791999;-;-;10.083664;0.927948;-2.2450714;-;-;-;-;-;-;-;-;-;-;-;-;-;-;-
1511263792019;-;-;11.957138;0.9961853;-2.2295227;-;-;-;-;-;-;-;-;-;-;-;-;-;-;-
1511263792039;-;-;12.9435425;0.1043396;-2.0475616;-;-;-;-;-;-;-;-;-;-;-;-;-;-;-
1511263792059;-;-;12.463501;-0.9191742;-2.08107;-;-;-;-;-;-;-;-;-;-;-;-;-;-;-
1511263792080;-;-;10.845032;-1.273529;-2.223526;-;-;-;-;-;-;-;-;-;-;-;-;-;-;-
1511263792099;-;-;9.046982;-1.2747192;-1.6177979;-;-;-;-;-;-;-;-;-;-;-;-;-;-;-
1511263792119;-;-;7.4021606;-0.8198242;-0.9450226;-;-;-;-;-;-;-;-;-;-;-;-;-;-;-
1511263792140;-;-;6.3810425;0.08279419;-0.37161255;-;-;-;-;-;-;-;-;-;-;-;-;-;-;-
1511263792160;-;-;6.5486298;0.72802734;-0.40034485;-;-;-;-;-;-;-;-;-;-;-;-;-;-;-
1511263792180;-;-;7.533844;1.9347076;-0.75468445;-;-;-;-;-;-;-;-;-;-;-;-;-;-;-
1511263792200;-;-;8.204224;2.5631866;-0.9151001;-;-;-;-;-;-;-;-;-;-;-;-;-;-;-
1511263792221;-;-;8.951218;2.3848114;-1.0671387;-;-;-;-;-;-;-;-;-;-;-;-;-;-;-
1511263792241;-;-;9.29837;1.4833984;-1.3508453;-;-;-;-;-;-;-;-;-;-;-;-;-;-;-
1511263792262;-;-;9.359421;0.5951538;-1.3029633;-;-;-;-;-;-;-;-;-;-;-;-;-;-;-
1511263792281;-;-;8.922485;0.18574524;-1.2478943;-;-;-;-;-;-;-;-;-;-;-;-;-;-;-
1511263792302;-;-;8.18985;0.12109375;-1.0527649;-;-;-;-;-;-;-;-;-;-;-;-;-;-;-
1511263792322;-;-;7.7289734;0.39404297;-0.74391174;-;-;-;-;-;-;-;-;-;-;-;-;-;-;-
1511263792342;-;-;7.703827;0.91596985;-0.087905884;-;-;-;-;-;-;-;-;-;-;-;-;-;-;-
1511263792362;-;-;7.963608;1.1901093;0.16108704;-;-;-;-;-;-;-;-;-;-;-;-;-;-;-
1511263792382;-;-;8.478363;1.1577911;-0.083114624;-;-;-;-;-;-;-;-;-;-;-;-;-;-;-
1511263792403;-;-;9.024231;0.92674255;-0.27226257;-;-;-;-;-;-;-;-;-;-;-;-;-;-;-
1511263792423;-;-;9.330688;0.8632965;-0.29380798;-;-;-;-;-;-;-;-;-;-;-;-;-;-;-
1511263792443;-;-;9.550964;0.85372925;0.006668091;-;-;-;-;-;-;-;-;-;-;-;-;-;-;-
1511263792464;-;-;9.77243;0.714859;0.19221497;-;-;-;-;-;-;-;-;-;-;-;-;-;-;-
1511263792484;-;-;10.009445;0.40242004;0.23532104;-;-;-;-;-;-;-;-;-;-;-;-;-;-;-
1511263792504;-;-;9.925659;0.5460663;0.091659546;-;-;-;-;-;-;-;-;-;-;-;-;-;-;-
1511263792525;-;-;9.584473;1.2152557;0.015045166;-;-;-;-;-;-;-;-;-;-;-;-;-;-;-
1511263792545;-;-;9.718552;1.6450043;0.20419312;-;-;-;-;-;-;-;-;-;-;-;-;-;-;-
1511263792565;-;-;10.845032;0.82499695;-1.5363922;-;-;-;-;-;-;-;-;-;-;-;-;-;-;-
1511263792586;-;-;11.882919;0.7986603;-2.2929688;-;-;-;-;-;-;-;-;-;-;-;-;-;-;-
1511263792605;-;-;12.033752;2.4638214;-2.0978394;-;-;-;-;-;-;-;-;-;-;-;-;-;-;-
1511263792625;-;-;12.131912;2.268692;-2.649704;-;-;-;-;-;-;-;-;-;-;-;-;-;-;-
1511263792646;-;-;11.070084;0.8668976;-2.203186;-;-;-;-;-;-;-;-;-;-;-;-;-;-;-
1511263792666;-;-;10.281189;0.769928;-1.4035187;-;-;-;-;-;-;-;-;-;-;-;-;-;-;-
1511263792687;-;-;8.777634;0.92196655;-0.73672485;-;-;-;-;-;-;-;-;-;-;-;-;-;-;-
1511263792707;-;-;7.5350494;0.77111816;-0.60983276;-;-;-;-;-;-;-;-;-;-;-;-;-;-;-
1511263792727;-;-;6.742569;0.24798584;-0.64694214;-;-;-;-;-;-;-;-;-;-;-;-;-;-;-
1511263792747;-;-;6.5007477;-0.4271698;-0.98812866;-;-;-;-;-;-;-;-;-;-;-;-;-;-;-
1511263792768;-;-;6.5031433;-0.88087463;-1.5196381;-;-;-;-;-;-;-;-;-;-;-;-;-;-;-
1511263792788;-;-;6.9185333;-1.3285828;-1.8703918;-;-;-;-;-;-;-;-;-;-;-;-;-;-;-
1511263792808;-;-;8.177887;-1.7810974;-1.7782135;-;-;-;-;-;-;-;-;-;-;-;-;-;-;-
1511263792829;-;-;9.289993;-1.7188416;-2.1648712;-;-;-;-;-;-;-;-;-;-;-;-;-;-;-
1511263792849;-;-;10.436813;-1.3920441;-2.184021;-;-;-;-;-;-;-;-;-;-;-;-;-;-;-
1511263792869;-;-;11.636307;-0.66539;-1.6261749;-;-;-;-;-;-;-;-;-;-;-;-;-;-;-
1511263792890;-;-;11.360977;-0.07043457;-1.8536224;-;-;-;-;-;-;-;-;-;-;-;-;-;-;-
1511263792910;-;-;11.343018;0.5747986;-1.8428497;-;-;-;-;-;-;-;-;-;-;-;-;-;-;-
1511263792931;-;-;10.909668;0.80345154;-1.5328064;-;-;-;-;-;-;-;-;-;-;-;-;-;-;-
1511263792951;-;-;9.603638;0.48980713;-1.0707245;-;-;-;-;-;-;-;-;-;-;-;-;-;-;-
1511263792971;-;-;8.119232;0.09475708;-0.6732788;-;-;-;-;-;-;-;-;-;-;-;-;-;-;-
1511263792991;-;-;7.0178986;-0.3146515;-0.4733734;-;-;-;-;-;-;-;-;-;-;-;-;-;-;-
1511263793012;-;-;6.533066;-0.7216644;-0.4159088;-;-;-;-;-;-;-;-;-;-;-;-;-;-;-
1511263793031;-;-;6.9819794;-0.8377838;-0.26148987;-;-;-;-;-;-;-;-;-;-;-;-;-;-;-
1511263793051;-;-;7.770874;-1.151413;-0.53681946;-;-;-;-;-;-;-;-;-;-;-;-;-;-;-
1511263793071;-;-;8.539413;-1.1801453;-0.72476196;-;-;-;-;-;-;-;-;-;-;-;-;-;-;-
1511263793092;-;-;9.220566;-0.9395294;-0.6110382;-;-;-;-;-;-;-;-;-;-;-;-;-;-;-
1511263793112;-;-;9.639542;-0.6761627;-0.28182983;-;-;-;-;-;-;-;-;-;-;-;-;-;-;-
1511263793132;-;-;9.801147;-0.6318817;-0.0041046143;-;-;-;-;-;-;-;-;-;-;-;-;-;-;-
1511263793153;-;-;9.663483;-0.62350464;0.06413269;-;-;-;-;-;-;-;-;-;-;-;-;-;-;-
1511263793173;-;-;9.762848;-0.29071045;-0.25549316;-;-;-;-;-;-;-;-;-;-;-;-;-;-;-
1511263793193;-;-;9.609619;0.23602295;-0.33929443;-;-;-;-;-;-;-;-;-;-;-;-;-;-;-
1511263793213;-;-;9.521027;0.66937256;-0.0076904297;-;-;-;-;-;-;-;-;-;-;-;-;-;-;-
1511263793234;-;-;9.33429;0.87646484;-0.33091736;-;-;-;-;-;-;-;-;-;-;-;-;-;-;-
1511263793254;-;-;8.838684;0.65859985;-0.511673;-;-;-;-;-;-;-;-;-;-;-;-;-;-;-
1511263793275;-;-;7.6547546;-0.071640015;-0.2351532;-;-;-;-;-;-;-;-;-;-;-;-;-;-;-
1511263793295;-;-;6.8000183;-0.8988342;0.26643372;-;-;-;-;-;-;-;-;-;-;-;-;-;-;-
1511263793315;-;-;5.806427;-1.5931549;0.9679413;-;-;-;-;-;-;-;-;-;-;-;-;-;-;-
1511263793336;-;-;5.9500732;-1.5991364;1.3881226;-;-;-;-;-;-;-;-;-;-;-;-;-;-;-
1511263793355;-;-;6.5905304;-1.3142242;1.2504578;-;-;-;-;-;-;-;-;-;-;-;-;-;-;-
1511263793375;-;-;7.739746;-1.1238861;1.0625153;-;-;-;-;-;-;-;-;-;-;-;-;-;-;-
1511263793395;-;-;8.422089;-1.0712128;0.91407776;-;-;-;-;-;-;-;-;-;-;-;-;-;-;-
1511263793416;-;-;8.963181;0.38087463;1.2133484;-;-;-;-;-;-;-;-;-;-;-;-;-;-;-
1511263793436;-;-;8.952408;2.160965;1.5485382;-;-;-;-;-;-;-;-;-;-;-;-;-;-;-
1511263793456;-;-;8.186264;2.8624573;1.3929138;-;-;-;-;-;-;-;-;-;-;-;-;-;-;-
1511263793477;-;-;7.4344788;2.1549683;0.51423645;-;-;-;-;-;-;-;-;-;-;-;-;-;-;-
1511263793497;-;-;7.356674;0.8920288;0.6854248;-;-;-;-;-;-;-;-;-;-;-;-;-;-;-
1511263793518;-;-;7.8762207;-0.2392273;1.3234863;-;-;-;-;-;-;-;-;-;-;-;-;-;-;-
1511263793538;-;-;8.103668;-0.43196106;0.25447083;-;-;-;-;-;-;-;-;-;-;-;-;-;-;-
1511263793558;-;-;9.1523285;1.1685638;-1.8057404;-;-;-;-;-;-;-;-;-;-;-;-;-;-;-
1511263793578;-;-;11.242462;2.3656616;-1.8500366;-;-;-;-;-;-;-;-;-;-;-;-;-;-;-
1511263793598;-;-;12.015793;1.5624084;-3.9928436;-;-;-;-;-;-;-;-;-;-;-;-;-;-;-
1511263793619;-;-;11.105988;-0.17459106;-4.4357758;-;-;-;-;-;-;-;-;-;-;-;-;-;-;-
1511263793639;-;-;9.814316;-0.8186188;-2.843628;-;-;-;-;-;-;-;-;-;-;-;-;-;-;-
1511263793659;-;-;9.708984;1.022522;-1.0156555;-;-;-;-;-;-;-;-;-;-;-;-;-;-;-
1511263793680;-;-;13.871292;4.2929993;0.10961914;-;-;-;-;-;-;-;-;-;-;-;-;-;-;-
1511263793700;-;-;17.347672;5.530792;-0.36802673;-;-;-;-;-;-;-;-;-;-;-;-;-;-;-
1511263793720;-;-;16.710815;2.7236023;-0.8863678;-;-;-;-;-;-;-;-;-;-;-;-;-;-;-
1511263793741;-;-;13.154236;-2.214447;0.21855164;-;-;-;-;-;-;-;-;-;-;-;-;-;-;-
1511263793761;-;-;10.77919;-3.9394684;0.80033875;-;-;-;-;-;-;-;-;-;-;-;-;-;-;-
1511263793781;-;-;9.343857;-2.942276;1.2277069;-;-;-;-;-;-;-;-;-;-;-;-;-;-;-
1511263793801;-;-;8.015076;-0.7803192;0.8733673;-;-;-;-;-;-;-;-;-;-;-;-;-;-;-
1511263793822;-;-;7.011902;0.78907776;0.25805664;-;-;-;-;-;-;-;-;-;-;-;-;-;-;-
1511263793842;-;-;6.7605133;1.7180328;-0.06994629;-;-;-;-;-;-;-;-;-;-;-;-;-;-;-
1511263793862;-;-;6.712631;2.2148285;-0.23036194;-;-;-;-;-;-;-;-;-;-;-;-;-;-;-
1511263793882;-;-;7.12204;2.058014;-0.60743713;-;-;-;-;-;-;-;-;-;-;-;-;-;-;-
1511263793903;-;-;8.92128;1.382843;-0.6230011;-;-;-;-;-;-;-;-;-;-;-;-;-;-;-
1511263793923;-;-;10.296753;0.94351196;-0.5894928;-;-;-;-;-;-;-;-;-;-;-;-;-;-;-
1511263793943;-;-;10.5242;0.9291382;-0.69602966;-;-;-;-;-;-;-;-;-;-;-;-;-;-;-
1511263793963;-;-;9.244507;1.3565063;-0.8576355;-;-;-;-;-;-;-;-;-;-;-;-;-;-;-
1511263793984;-;-;8.197037;1.5001526;-0.4350586;-;-;-;-;-;-;-;-;-;-;-;-;-;-;-
1511263794003;-;-;7.4572296;1.1877136;0.067718506;-;-;-;-;-;-;-;-;-;-;-;-;-;-;-
1511263794023;-;-;7.3770294;0.64183044;0.32389832;-;-;-;-;-;-;-;-;-;-;-;-;-;-;-
1511263794043;-;-;7.8367157;0.2695465;0.1658783;-;-;-;-;-;-;-;-;-;-;-;-;-;-;-
1511263794064;-;-;8.460403;0.052871704;0.065322876;-;-;-;-;-;-;-;-;-;-;-;-;-;-;-
1511263794084;-;-;8.844666;0.16659546;0.216156;-;-;-;-;-;-;-;-;-;-;-;-;-;-;-
1511263794104;-;-;9.07811;0.58677673;0.56811523;-;-;-;-;-;-;-;-;-;-;-;-;-;-;-
1511263794124;-;-;8.635178;0.93751526;0.6136017;-;-;-;-;-;-;-;-;-;-;-;-;-;-;-
1511263794145;-;-;7.9600067;0.76394653;0.42326355;-;-;-;-;-;-;-;-;-;-;-;-;-;-;-
1511263794165;-;-;7.277664;0.40242004;0.6950073;-;-;-;-;-;-;-;-;-;-;-;-;-;-;-
1511263794185;-;-;7.169922;-0.2859192;1.2109528;-;-;-;-;-;-;-;-;-;-;-;-;-;-;-
1511263794206;-;-;7.561386;-0.625885;1.7245026;-;-;-;-;-;-;-;-;-;-;-;-;-;-;-
1511263794226;-;-;8.086899;-0.2212677;1.7951355;-;-;-;-;-;-;-;-;-;-;-;-;-;-;-
1511263794246;-;-;8.58371;0.060043335;0.8195038;-;-;-;-;-;-;-;-;-;-;-;-;-;-;-
1511263794267;-;-;9.048172;0.11152649;0.43403625;-;-;-;-;-;-;-;-;-;-;-;-;-;-;-
1511263794286;-;-;9.669479;-0.3074646;1.1247559;-;-;-;-;-;-;-;-;-;-;-;-;-;-;-
1511263794306;-;-;8.692642;-1.4219666;1.53656;-;-;-;-;-;-;-;-;-;-;-;-;-;-;-
1511263794326;-;-;8.141968;-1.9630585;1.7173309;-;-;-;-;-;-;-;-;-;-;-;-;-;-;-
1511263794347;-;-;8.793198;-1.882843;1.9064636;-;-;-;-;-;-;-;-;-;-;-;-;-;-;-
1511263794367;-;-;9.621582;-1.9941711;1.349823;-;-;-;-;-;-;-;-;-;-;-;-;-;-;-
1511263794387;-;-;9.234924;-1.5404816;1.0242004;-;-;-;-;-;-;-;-;-;-;-;-;-;-;-
1511263794408;-;-;8.493927;-0.09437561;0.4507904;-;-;-;-;-;-;-;-;-;-;-;-;-;-;-
1511263794428;-;-;6.84671;0.8812561;0.8482361;-;-;-;-;-;-;-;-;-;-;-;-;-;-;-
1511263794448;-;-;5.5047607;0.83695984;0.54776;-;-;-;-;-;-;-;-;-;-;-;-;-;-;-
1511263794469;-;-;6.491165;0.65141296;-0.55596924;-;-;-;-;-;-;-;-;-;-;-;-;-;-;-
1511263794489;-;-;9.802353;0.07081604;-0.042419434;-;-;-;-;-;-;-;-;-;-;-;-;-;-;-
1511263794509;-;-;12.908829;-0.96707153;-0.2064209;-;-;-;-;-;-;-;-;-;-;-;-;-;-;-
1511263794529;-;-;15.705261;-2.135437;-2.1074066;-;-;-;-;-;-;-;-;-;-;-;-;-;-;-
1511263794550;-;-;17.195648;-1.4315338;-1.7830048;-;-;-;-;-;-;-;-;-;-;-;-;-;-;-
1511263794570;-;-;15.298248;-1.4782257;-1.6800537;-;-;-;-;-;-;-;-;-;-;-;-;-;-;-
1511263794591;-;-;12.544907;-2.973404;0.2700348;-;-;-;-;-;-;-;-;-;-;-;-;-;-;-
1511263794611;-;-;12.246826;-3.6378021;1.0002594;-;-;-;-;-;-;-;-;-;-;-;-;-;-;-
1511263794631;-;-;11.564484;-1.7212372;0.9200592;-;-;-;-;-;-;-;-;-;-;-;-;-;-;-
1511263794652;-;-;9.985504;-0.10874939;1.0278015;-;-;-;-;-;-;-;-;-;-;-;-;-;-;-
1511263794672;-;-;8.027054;0.5783844;0.6363373;-;-;-;-;-;-;-;-;-;-;-;-;-;-;-
1511263794691;-;-;6.6970673;0.55085754;1.0385742;-;-;-;-;-;-;-;-;-;-;-;-;-;-;-
1511263794712;-;-;6.506729;0.6214905;1.0074463;-;-;-;-;-;-;-;-;-;-;-;-;-;-;-
1511263794732;-;-;6.857483;0.14263916;0.6938019;-;-;-;-;-;-;-;-;-;-;-;-;-;-;-
1511263794753;-;-;7.4680023;-0.38887024;0.30714417;-;-;-;-;-;-;-;-;-;-;-;-;-;-;-
1511263794773;-;-;8.4687805;-0.9910126;0.067718506;-;-;-;-;-;-;-;-;-;-;-;-;-;-;-
1511263794793;-;-;9.523422;-1.6553955;0.5573273;-;-;-;-;-;-;-;-;-;-;-;-;-;-;-
1511263794814;-;-;10.113602;-2.0755768;0.64112854;-;-;-;-;-;-;-;-;-;-;-;-;-;-;-
1511263794834;-;-;10.615189;-2.1533966;0.6447296;-;-;-;-;-;-;-;-;-;-;-;-;-;-;-
1511263794854;-;-;10.606796;-1.601532;0.79914856;-;-;-;-;-;-;-;-;-;-;-;-;-;-;-
1511263794875;-;-;9.80954;-1.0089569;0.6351471;-;-;-;-;-;-;-;-;-;-;-;-;-;-;-
1511263794895;-;-;8.788406;-0.55166626;0.7249298;-;-;-;-;-;-;-;-;-;-;-;-;-;-;-
1511263794915;-;-;7.91333;-0.047698975;0.60043335;-;-;-;-;-;-;-;-;-;-;-;-;-;-;-
1511263794936;-;-;7.1447906;0.3102417;0.50227356;-;-;-;-;-;-;-;-;-;-;-;-;-;-;-
1511263794956;-;-;6.442093;-0.3972473;0.6710663;-;-;-;-;-;-;-;-;-;-;-;-;-;-;-
1511263794976;-;-;5.983597;-1.3453522;0.82907104;-;-;-;-;-;-;-;-;-;-;-;-;-;-;-
1511263794997;-;-;5.72023;-1.5404816;0.8434448;-;-;-;-;-;-;-;-;-;-;-;-;-;-;-
1511263795016;-;-;6.078171;-1.7655334;1.5162201;-;-;-;-;-;-;-;-;-;-;-;-;-;-;-
1511263795036;-;-;7.462021;-1.6422272;2.2069397;-;-;-;-;-;-;-;-;-;-;-;-;-;-;-
1511263795057;-;-;8.104858;-1.1406403;2.1853943;-;-;-;-;-;-;-;-;-;-;-;-;-;-;-
1511263795077;-;-;8.062958;0.5341034;1.5880432;-;-;-;-;-;-;-;-;-;-;-;-;-;-;-
1511263795098;-;-;7.643982;2.1549683;0.9056854;-;-;-;-;-;-;-;-;-;-;-;-;-;-;-
1511263795118;-;-;7.738556;2.897171;0.84942627;-;-;-;-;-;-;-;-;-;-;-;-;-;-;-
1511263795138;-;-;7.6739044;2.706833;1.4156494;-;-;-;-;-;-;-;-;-;-;-;-;-;-;-
1511263795158;-;-;7.3267517;2.560791;1.919632;-;-;-;-;-;-;-;-;-;-;-;-;-;-;-
1511263795178;-;-;7.2908325;2.4530487;1.9387817;-;-;-;-;-;-;-;-;-;-;-;-;-;-;-
1511263795199;-;-;7.7253876;1.7683105;0.7285156;-;-;-;-;-;-;-;-;-;-;-;-;-;-;-
1511263795219;-;-;12.056488;-0.114730835;-1.0814972;-;-;-;-;-;-;-;-;-;-;-;-;-;-;-
1511263795239;-;-;16.087128;-1.2771149;-1.1856384;-;-;-;-;-;-;-;-;-;-;-;-;-;-;-
1511263795260;-;-;17.905533;-0.38407898;-1.7830048;-;-;-;-;-;-;-;-;-;-;-;-;-;-;-
1511263795280;-;-;16.607864;1.7754974;-2.350418;-;-;-;-;-;-;-;-;-;-;-;-;-;-;-
1511263795300;-;-;12.955521;2.9869537;-1.5735016;-;-;-;-;-;-;-;-;-;-;-;-;-;-;-
1511263795320;-;-;10.036987;3.0671692;-0.64933777;-;-;-;-;-;-;-;-;-;-;-;-;-;-;-
1511263795341;-;-;8.207809;2.778656;0.6136017;-;-;-;-;-;-;-;-;-;-;-;-;-;-;-
1511263795361;-;-;7.099304;2.905548;1.7592316;-;-;-;-;-;-;-;-;-;-;-;-;-;-;-
1511263795381;-;-;6.9472656;2.7223969;2.1901855;-;-;-;-;-;-;-;-;-;-;-;-;-;-;-
1511263795402;-;-;7.9755707;2.126236;1.7508392;-;-;-;-;-;-;-;-;-;-;-;-;-;-;-
1511263795421;-;-;10.444;1.2954559;0.72612;-;-;-;-;-;-;-;-;-;-;-;-;-;-;-
1511263795442;-;-;12.390488;0.115112305;0.011459351;-;-;-;-;-;-;-;-;-;-;-;-;-;-;-
1511263795462;-;-;12.283936;-0.61750793;-0.18127441;-;-;-;-;-;-;-;-;-;-;-;-;-;-;-
1511263795482;-;-;11.066483;-0.29309082;0.05455017;-;-;-;-;-;-;-;-;-;-;-;-;-;-;-
1511263795502;-;-;9.398926;0.79626465;0.5190277;-;-;-;-;-;-;-;-;-;-;-;-;-;-;-
1511263795523;-;-;8.485535;1.4869843;0.54776;-;-;-;-;-;-;-;-;-;-;-;-;-;-;-
1511263795543;-;-;7.7684784;1.7455597;0.20298767;-;-;-;-;-;-;-;-;-;-;-;-;-;-;-
1511263795564;-;-;7.691864;2.0065308;0.029418945;-;-;-;-;-;-;-;-;-;-;-;-;-;-;-
1511263795584;-;-;7.921707;2.090332;0.25447083;-;-;-;-;-;-;-;-;-;-;-;-;-;-;-
1511263795604;-;-;8.42688;1.9263306;0.115600586;-;-;-;-;-;-;-;-;-;-;-;-;-;-;-
1511263795625;-;-;8.738129;1.5791626;-0.17648315;-;-;-;-;-;-;-;-;-;-;-;-;-;-;-
1511263795645;-;-;8.933258;1.0919495;0.14074707;-;-;-;-;-;-;-;-;-;-;-;-;-;-;-
1511263795666;-;-;8.833893;0.82858276;0.32629395;-;-;-;-;-;-;-;-;-;-;-;-;-;-;-
1511263795686;-;-;8.559753;0.5484619;0.45677185;-;-;-;-;-;-;-;-;-;-;-;-;-;-;-
1511263795706;-;-;8.289215;0.13665771;0.3777771;-;-;-;-;-;-;-;-;-;-;-;-;-;-;-
1511263795726;-;-;8.113235;0.12109375;0.17306519;-;-;-;-;-;-;-;-;-;-;-;-;-;-;-
1511263795747;-;-;7.906143;0.4072113;0.011459351;-;-;-;-;-;-;-;-;-;-;-;-;-;-;-
1511263795767;-;-;7.6547546;0.6681671;0.23171997;-;-;-;-;-;-;-;-;-;-;-;-;-;-;-
1511263795787;-;-;7.9384613;0.70529175;0.7799988;-;-;-;-;-;-;-;-;-;-;-;-;-;-;-
1511263795808;-;-;7.949234;1.0153351;0.5058594;-;-;-;-;-;-;-;-;-;-;-;-;-;-;-
1511263795828;-;-;8.025848;1.4474792;0.14074707;-;-;-;-;-;-;-;-;-;-;-;-;-;-;-
1511263795848;-;-;8.32991;1.5887451;-0.29260254;-;-;-;-;-;-;-;-;-;-;-;-;-;-;-
1511263795869;-;-;7.973175;0.61190796;-1.0372009;-;-;-;-;-;-;-;-;-;-;-;-;-;-;-
1511263795890;-;-;7.2106323;-0.054870605;-0.34048462;-;-;-;-;-;-;-;-;-;-;-;-;-;-;-
1511263795910;-;-;6.6503906;-0.09197998;1.9483643;-;-;-;-;-;-;-;-;-;-;-;-;-;-;-
1511263795931;-;-;6.632431;-0.13388062;2.6055756;-;-;-;-;-;-;-;-;-;-;-;-;-;-;-
1511263795951;-;-;7.4452667;0.38206482;1.9890747;-;-;-;-;-;-;-;-;-;-;-;-;-;-;-
1511263795971;-;-;8.462799;0.5879669;0.9380188;-;-;-;-;-;-;-;-;-;-;-;-;-;-;-
1511263795991;-;-;9.458786;0.40242004;-0.085510254;-;-;-;-;-;-;-;-;-;-;-;-;-;-;-
1511263796012;-;-;9.861008;0.031311035;0.45199585;-;-;-;-;-;-;-;-;-;-;-;-;-;-;-
1511263796032;-;-;9.130783;-0.44033813;1.2037659;-;-;-;-;-;-;-;-;-;-;-;-;-;-;-
1511263796052;-;-;8.03064;-0.73602295;1.3725586;-;-;-;-;-;-;-;-;-;-;-;-;-;-;-
1511263796073;-;-;8.592087;-1.2196503;1.6239471;-;-;-;-;-;-;-;-;-;-;-;-;-;-;-
1511263796092;-;-;9.590469;-1.2447968;0.96673584;-;-;-;-;-;-;-;-;-;-;-;-;-;-;-
1511263796112;-;-;10.090851;-1.8158112;0.91407776;-;-;-;-;-;-;-;-;-;-;-;-;-;-;-
1511263796132;-;-;11.539337;-2.0312958;0.44960022;-;-;-;-;-;-;-;-;-;-;-;-;-;-;-
1511263796153;-;-;12.882492;-1.9690399;-0.2507019;-;-;-;-;-;-;-;-;-;-;-;-;-;-;-
1511263796173;-;-;13.72525;-1.0448761;0.9775238;-;-;-;-;-;-;-;-;-;-;-;-;-;-;-
1511263796194;-;-;14.15741;-1.6110992;0.7907715;-;-;-;-;-;-;-;-;-;-;-;-;-;-;-
1511263796215;-;-;13.682159;-2.8860168;-0.24711609;-;-;-;-;-;-;-;-;-;-;-;-;-;-;-
1511263796235;-;-;12.572449;-2.8752441;0.43762207;-;-;-;-;-;-;-;-;-;-;-;-;-;-;-
1511263796255;-;-;11.856583;-0.64505005;-0.8001709;-;-;-;-;-;-;-;-;-;-;-;-;-;-;-
1511263796276;-;-;11.1610565;0.94351196;-1.2083893;-;-;-;-;-;-;-;-;-;-;-;-;-;-;-
1511263796296;-;-;10.238098;1.7766876;-1.021637;-;-;-;-;-;-;-;-;-;-;-;-;-;-;-
1511263796316;-;-;8.759674;1.4726257;-0.372818;-;-;-;-;-;-;-;-;-;-;-;-;-;-;-
1511263796337;-;-;7.592499;0.45269775;0.54776;-;-;-;-;-;-;-;-;-;-;-;-;-;-;-
1511263796358;-;-;7.383011;-1.0532532;1.1702576;-;-;-;-;-;-;-;-;-;-;-;-;-;-;-
1511263796378;-;-;7.700241;-2.3281708;1.2803802;-;-;-;-;-;-;-;-;-;-;-;-;-;-;-
1511263796404;-;-;7.8163605;-3.5204773;1.7281036;-;-;-;-;-;-;-;-;-;-;-;-;-;-;-
1511263796418;-;-;7.8953705;-3.601883;1.6993713;-;-;-;-;-;-;-;-;-;-;-;-;-;-;-
1511263796439;-;-;8.666306;-3.2535248;1.1894073;-;-;-;-;-;-;-;-;-;-;-;-;-;-;-
1511263796459;-;-;9.675461;-2.535263;0.9116821;-;-;-;-;-;-;-;-;-;-;-;-;-;-;-
1511263796480;-;-;10.46315;-1.6039276;1.0218048;-;-;-;-;-;-;-;-;-;-;-;-;-;-;-
1511263796501;-;-;10.805527;0.16659546;0.6279602;-;-;-;-;-;-;-;-;-;-;-;-;-;-;-
1511263796522;-;-;10.692993;1.2942505;0.23770142;-;-;-;-;-;-;-;-;-;-;-;-;-;-;-
1511263796542;-;-;9.931641;1.2966461;-0.13220215;-;-;-;-;-;-;-;-;-;-;-;-;-;-;-
1511263796562;-;-;9.305557;0.5460663;-0.36083984;-;-;-;-;-;-;-;-;-;-;-;-;-;-;-
1511263796582;-;-;8.304779;-0.4343567;-0.20521545;-;-;-;-;-;-;-;-;-;-;-;-;-;-;-
1511263796603;-;-;7.411743;-0.7264557;0.065322876;-;-;-;-;-;-;-;-;-;-;-;-;-;-;-
1511263796623;-;-;7.059799;-1.0724182;0.031814575;-;-;-;-;-;-;-;-;-;-;-;-;-;-;-
1511263796643;-;-;7.0729675;-1.6529999;-0.26387024;-;-;-;-;-;-;-;-;-;-;-;-;-;-;-
1511263796663;-;-;7.5961;-1.0927582;-0.123809814;-;-;-;-;-;-;-;-;-;-;-;-;-;-;-
1511263796684;-;-;8.637573;-0.39604187;-0.008895874;-;-;-;-;-;-;-;-;-;-;-;-;-;-;-
1511263796704;-;-;8.747711;-0.5097656;-0.24472046;-;-;-;-;-;-;-;-;-;-;-;-;-;-;-
1511263796724;-;-;8.26886;-0.32182312;0.046173096;-;-;-;-;-;-;-;-;-;-;-;-;-;-;-
1511263796745;-;-;7.7014465;-0.18536377;1.0960236;-;-;-;-;-;-;-;-;-;-;-;-;-;-;-
1511263796766;-;-;7.056198;0.1330719;1.9184418;-;-;-;-;-;-;-;-;-;-;-;-;-;-;-
1511263796786;-;-;6.877838;1.5348816;2.2631989;-;-;-;-;-;-;-;-;-;-;-;-;-;-;-
1511263796806;-;-;6.9819794;2.0125122;2.1219482;-;-;-;-;-;-;-;-;-;-;-;-;-;-;-
1511263796827;-;-;7.408142;2.1130676;1.1439209;-;-;-;-;-;-;-;-;-;-;-;-;-;-;-
1511263796847;-;-;7.9576263;1.6581726;1.5186005;-;-;-;-;-;-;-;-;-;-;-;-;-;-;-
1511263796867;-;-;7.971985;1.0368805;2.374527;-;-;-;-;-;-;-;-;-;-;-;-;-;-;-
1511263796887;-;-;7.811569;0.9363251;2.271576;-;-;-;-;-;-;-;-;-;-;-;-;-;-;-
1511263796907;-;-;7.6619415;0.3102417;1.828659;-;-;-;-;-;-;-;-;-;-;-;-;-;-;-
1511263796927;-;-;7.727768;-0.16142273;1.3330536;-;-;-;-;-;-;-;-;-;-;-;-;-;-;-
1511263796948;-;-;7.8127747;0.1438446;1.0254059;-;-;-;-;-;-;-;-;-;-;-;-;-;-;-
1511263796968;-;-;9.920868;0.62628174;0.38974;-;-;-;-;-;-;-;-;-;-;-;-;-;-;-
1511263796988;-;-;11.639908;1.6078949;-1.7327118;-;-;-;-;-;-;-;-;-;-;-;-;-;-;-
1511263797009;-;-;12.349777;1.7826691;-2.5060425;-;-;-;-;-;-;-;-;-;-;-;-;-;-;-
1511263797028;-;-;12.12114;2.7283783;-1.0264282;-;-;-;-;-;-;-;-;-;-;-;-;-;-;-
1511263797048;-;-;13.985016;6.395111;-1.4777374;-;-;-;-;-;-;-;-;-;-;-;-;-;-;-
1511263797069;-;-;16.599487;8.118927;-3.3081055;-;-;-;-;-;-;-;-;-;-;-;-;-;-;-
1511263797089;-;-;16.346909;5.521225;-4.4465485;-;-;-;-;-;-;-;-;-;-;-;-;-;-;-
1511263797109;-;-;14.110718;1.3756561;-1.8057404;-;-;-;-;-;-;-;-;-;-;-;-;-;-;-
1511263797129;-;-;11.542938;-1.2651367;0.7548523;-;-;-;-;-;-;-;-;-;-;-;-;-;-;-
1511263797150;-;-;9.594055;-2.056427;2.2763672;-;-;-;-;-;-;-;-;-;-;-;-;-;-;-
1511263797170;-;-;8.431671;-1.285492;2.5457153;-;-;-;-;-;-;-;-;-;-;-;-;-;-;-
1511263797190;-;-;7.502716;-0.25360107;1.294754;-;-;-;-;-;-;-;-;-;-;-;-;-;-;-
1511263797211;-;-;6.802414;0.5472717;0.45439148;-;-;-;-;-;-;-;-;-;-;-;-;-;-;-
1511263797231;-;-;5.6699524;1.6964874;-0.01727295;-;-;-;-;-;-;-;-;-;-;-;-;-;-;-
1511263797251;-;-;4.8798676;2.5428314;-0.2674713;-;-;-;-;-;-;-;-;-;-;-;-;-;-;-
1511263797272;-;-;5.30365;3.039627;-0.7630615;-;-;-;-;-;-;-;-;-;-;-;-;-;-;-
1511263797292;-;-;6.917343;3.4634094;-0.6804657;-;-;-;-;-;-;-;-;-;-;-;-;-;-;-
1511263797312;-;-;8.966782;3.3496857;-1.0779114;-;-;-;-;-;-;-;-;-;-;-;-;-;-;-
1511263797333;-;-;10.854599;3.0647736;-1.629776;-;-;-;-;-;-;-;-;-;-;-;-;-;-;-
1511263797353;-;-;12.491043;2.6817017;-1.3999176;-;-;-;-;-;-;-;-;-;-;-;-;-;-;-
1511263797373;-;-;11.855377;1.7216187;-0.83010864;-;-;-;-;-;-;-;-;-;-;-;-;-;-;-
1511263797393;-;-;9.784393;1.1889191;-1.1736755;-;-;-;-;-;-;-;-;-;-;-;-;-;-;-
1511263797414;-;-;8.191055;1.0775757;-0.49731445;-;-;-;-;-;-;-;-;-;-;-;-;-;-;-
1511263797433;-;-;7.0107117;1.0249176;0.35861206;-;-;-;-;-;-;-;-;-;-;-;-;-;-;-
1511263797453;-;-;6.436096;0.8812561;0.38136292;-;-;-;-;-;-;-;-;-;-;-;-;-;-;-
1511263797474;-;-;6.6144714;0.512558;-0.23155212;-;-;-;-;-;-;-;-;-;-;-;-;-;-;-
1511263797493;-;-;7.288437;0.48262024;-0.94143677;-;-;-;-;-;-;-;-;-;-;-;-;-;-;-
1511263797513;-;-;7.9073334;1.0428619;-1.5998383;-;-;-;-;-;-;-;-;-;-;-;-;-;-;-
1511263797534;-;-;8.2712555;1.4247437;-0.65652466;-;-;-;-;-;-;-;-;-;-;-;-;-;-;-
1511263797554;-;-;7.906143;1.5133209;0.72612;-;-;-;-;-;-;-;-;-;-;-;-;-;-;-
1511263797574;-;-;6.862274;0.34854126;1.7065582;-;-;-;-;-;-;-;-;-;-;-;-;-;-;-
1511263797594;-;-;6.1296387;-0.97184753;2.52417;-;-;-;-;-;-;-;-;-;-;-;-;-;-;-
1511263797615;-;-;6.19429;-1.6949005;2.5181885;-;-;-;-;-;-;-;-;-;-;-;-;-;-;-
1511263797635;-;-;7.1016846;-1.9127808;1.5209961;-;-;-;-;-;-;-;-;-;-;-;-;-;-;-
1511263797656;-;-;8.795593;-2.0265045;1.2372894;-;-;-;-;-;-;-;-;-;-;-;-;-;-;-
1511263797676;-;-;10.252457;-1.9738312;1.4348145;-;-;-;-;-;-;-;-;-;-;-;-;-;-;-
1511263797696;-;-;10.810303;-1.3668976;2.405655;-;-;-;-;-;-;-;-;-;-;-;-;-;-;-
1511263797716;-;-;10.434418;-0.6546173;2.4583282;-;-;-;-;-;-;-;-;-;-;-;-;-;-;-
1511263797737;-;-;8.793198;-0.29788208;1.3246765;-;-;-;-;-;-;-;-;-;-;-;-;-;-;-
1511263797757;-;-;8.228165;0.10673523;0.7177429;-;-;-;-;-;-;-;-;-;-;-;-;-;-;-
1511263797777;-;-;9.230133;0.52212524;0.80033875;-;-;-;-;-;-;-;-;-;-;-;-;-;-;-
1511263797797;-;-;10.16507;0.24081421;1.2265167;-;-;-;-;-;-;-;-;-;-;-;-;-;-;-
1511263797818;-;-;10.347031;-0.8162384;1.4671326;-;-;-;-;-;-;-;-;-;-;-;-;-;-;-
1511263797838;-;-;9.960373;-1.7787018;1.1331329;-;-;-;-;-;-;-;-;-;-;-;-;-;-;-
1511263797858;-;-;10.848618;-1.0592499;0.3490448;-;-;-;-;-;-;-;-;-;-;-;-;-;-;-
1511263797879;-;-;11.954742;0.10913086;-1.7889862;-;-;-;-;-;-;-;-;-;-;-;-;-;-;-
1511263797899;-;-;12.554489;-0.36732483;-1.6429291;-;-;-;-;-;-;-;-;-;-;-;-;-;-;-
1511263797918;-;-;12.795105;-1.4626617;0.75845337;-;-;-;-;-;-;-;-;-;-;-;-;-;-;-
1511263797938;-;-;13.698914;-3.6378021;-1.3233032;-;-;-;-;-;-;-;-;-;-;-;-;-;-;-
1511263797958;-;-;13.114731;-5.554352;-2.4545746;-;-;-;-;-;-;-;-;-;-;-;-;-;-;-
1511263797979;-;-;10.991074;-4.8133545;-1.7877808;-;-;-;-;-;-;-;-;-;-;-;-;-;-;-
1511263797999;-;-;9.723343;-2.353302;-0.2973938;-;-;-;-;-;-;-;-;-;-;-;-;-;-;-
1511263798019;-;-;9.364212;0.21806335;0.80633545;-;-;-;-;-;-;-;-;-;-;-;-;-;-;-
1511263798040;-;-;8.849457;1.5181122;0.69140625;-;-;-;-;-;-;-;-;-;-;-;-;-;-;-
1511263798060;-;-;8.648346;1.6174774;0.27601624;-;-;-;-;-;-;-;-;-;-;-;-;-;-;-
1511263798081;-;-;9.102051;0.22644043;0.63275146;-;-;-;-;-;-;-;-;-;-;-;-;-;-;-
1511263798101;-;-;9.657501;-1.1873322;1.0673065;-;-;-;-;-;-;-;-;-;-;-;-;-;-;-
1511263798121;-;-;9.47435;-1.8050385;1.0661011;-;-;-;-;-;-;-;-;-;-;-;-;-;-;-
1511263798141;-;-;8.357452;-1.5189362;1.1379242;-;-;-;-;-;-;-;-;-;-;-;-;-;-;-
1511263798162;-;-;7.0382385;-1.210083;0.9009094;-;-;-;-;-;-;-;-;-;-;-;-;-;-;-
1511263798182;-;-;7.473984;-1.5847626;0.67944336;-;-;-;-;-;-;-;-;-;-;-;-;-;-;-
1511263798203;-;-;8.442444;-2.2970428;0.75964355;-;-;-;-;-;-;-;-;-;-;-;-;-;-;-
1511263798223;-;-;9.920868;-2.7974396;0.42565918;-;-;-;-;-;-;-;-;-;-;-;-;-;-;-
1511263798243;-;-;10.904877;-2.6980743;-0.17050171;-;-;-;-;-;-;-;-;-;-;-;-;-;-;-
1511263798263;-;-;11.044937;-1.9271393;-0.01727295;-;-;-;-;-;-;-;-;-;-;-;-;-;-;-
1511263798283;-;-;10.200989;-1.0819855;0.24369812;-;-;-;-;-;-;-;-;-;-;-;-;-;-;-
1511263798304;-;-;9.102051;-0.76475525;0.36938477;-;-;-;-;-;-;-;-;-;-;-;-;-;-;-
1511263798323;-;-;8.213791;-0.47146606;0.54776;-;-;-;-;-;-;-;-;-;-;-;-;-;-;-
1511263798343;-;-;7.904953;-0.20690918;0.82907104;-;-;-;-;-;-;-;-;-;-;-;-;-;-;-
1511263798364;-;-;7.7062225;-0.19374084;0.78118896;-;-;-;-;-;-;-;-;-;-;-;-;-;-;-
1511263798384;-;-;7.906143;-0.41879272;0.88414;-;-;-;-;-;-;-;-;-;-;-;-;-;-;-
1511263798404;-;-;8.273651;-0.7444;1.0002594;-;-;-;-;-;-;-;-;-;-;-;-;-;-;-
1511263798425;-;-;8.5849;-0.5037842;1.0684967;-;-;-;-;-;-;-;-;-;-;-;-;-;-;-
1511263798445;-;-;8.707001;-0.1015625;0.7728119;-;-;-;-;-;-;-;-;-;-;-;-;-;-;-
1511263798465;-;-;8.558563;0.0049743652;0.7177429;-;-;-;-;-;-;-;-;-;-;-;-;-;-;-
1511263798485;-;-;7.772064;-0.6917267;1.3569946;-;-;-;-;-;-;-;-;-;-;-;-;-;-;-
1511263798506;-;-;7.198654;-1.3740845;1.4695282;-;-;-;-;-;-;-;-;-;-;-;-;-;-;-
1511263798525;-;-;7.0298615;-1.4075928;1.2887573;-;-;-;-;-;-;-;-;-;-;-;-;-;-;-
1511263798546;-;-;7.4416656;-0.9287567;1.2815857;-;-;-;-;-;-;-;-;-;-;-;-;-;-;-
1511263798566;-;-;8.107254;-0.21409607;1.2720032;-;-;-;-;-;-;-;-;-;-;-;-;-;-;-
1511263798586;-;-;8.740524;0.96266174;1.7005615;-;-;-;-;-;-;-;-;-;-;-;-;-;-;-
1511263798605;-;-;8.708206;1.4977722;1.1810303;-;-;-;-;-;-;-;-;-;-;-;-;-;-;-
1511263798625;-;-;8.236542;1.4881897;0.44599915;-;-;-;-;-;-;-;-;-;-;-;-;-;-;-
1511263798646;-;-;7.5685577;1.3553162;0.096450806;-;-;-;-;-;-;-;-;-;-;-;-;-;-;-
1511263798665;-;-;7.1244354;1.3313751;1.0457458;-;-;-;-;-;-;-;-;-;-;-;-;-;-;-
1511263798685;-;-;6.522293;0.9087982;1.0864563;-;-;-;-;-;-;-;-;-;-;-;-;-;-;-
1511263798706;-;-;6.711441;0.16778564;0.9344177;-;-;-;-;-;-;-;-;-;-;-;-;-;-;-
1511263798726;-;-;7.7816467;-0.51934814;0.8661804;-;-;-;-;-;-;-;-;-;-;-;-;-;-;-
1511263798746;-;-;8.532227;-0.016571045;0.117996216;-;-;-;-;-;-;-;-;-;-;-;-;-;-;-
1511263798766;-;-;9.438431;1.2870789;-1.4502106;-;-;-;-;-;-;-;-;-;-;-;-;-;-;-
1511263798787;-;-;11.070084;2.7355652;-1.4382324;-;-;-;-;-;-;-;-;-;-;-;-;-;-;-
1511263798807;-;-;11.984665;4.313339;-0.9151001;-;-;-;-;-;-;-;-;-;-;-;-;-;-;-
1511263798827;-;-;13.539703;5.2183533;-0.8720093;-;-;-;-;-;-;-;-;-;-;-;-;-;-;-
1511263798847;-;-;15.483795;5.842041;-3.3344421;-;-;-;-;-;-;-;-;-;-;-;-;-;-;-
1511263798868;-;-;16.841309;4.2343445;-5.0450897;-;-;-;-;-;-;-;-;-;-;-;-;-;-;-
1511263798888;-;-;16.801804;2.5392456;-1.2263489;-;-;-;-;-;-;-;-;-;-;-;-;-;-;-
1511263798908;-;-;13.485825;-0.2859192;1.112793;-;-;-;-;-;-;-;-;-;-;-;-;-;-;-
1511263798929;-;-;10.574478;-2.1952972;2.3003082;-;-;-;-;-;-;-;-;-;-;-;-;-;-;-
1511263798950;-;-;9.323517;-2.5496368;2.572052;-;-;-;-;-;-;-;-;-;-;-;-;-;-;-
1511263798970;-;-;8.420898;-1.7966614;2.18779;-;-;-;-;-;-;-;-;-;-;-;-;-;-;-
1511263798990;-;-;6.822769;-0.2787323;1.1223602;-;-;-;-;-;-;-;-;-;-;-;-;-;-;-
1511263799011;-;-;5.9452972;0.8668976;0.47712708;-;-;-;-;-;-;-;-;-;-;-;-;-;-;-
1511263799031;-;-;4.611725;2.2076416;-0.01727295;-;-;-;-;-;-;-;-;-;-;-;-;-;-;-
1511263799051;-;-;4.8116302;2.4219208;-0.22077942;-;-;-;-;-;-;-;-;-;-;-;-;-;-;-
1511263799071;-;-;5.826782;2.4829865;-0.55955505;-;-;-;-;-;-;-;-;-;-;-;-;-;-;-
1511263799092;-;-;7.1052856;2.8026123;-0.6685028;-;-;-;-;-;-;-;-;-;-;-;-;-;-;-
1511263799112;-;-;8.955994;3.228775;-0.4853363;-;-;-;-;-;-;-;-;-;-;-;-;-;-;-
1511263799132;-;-;10.930023;3.613037;-0.33570862;-;-;-;-;-;-;-;-;-;-;-;-;-;-;-
1511263799153;-;-;12.209717;3.596283;-0.22317505;-;-;-;-;-;-;-;-;-;-;-;-;-;-;-
1511263799172;-;-;11.505829;2.766693;-0.13578796;-;-;-;-;-;-;-;-;-;-;-;-;-;-;-
1511263799192;-;-;9.568924;1.7168274;-0.030441284;-;-;-;-;-;-;-;-;-;-;-;-;-;-;-
1511263799213;-;-;8.474762;0.9614563;-1.040802;-;-;-;-;-;-;-;-;-;-;-;-;-;-;-
1511263799232;-;-;8.527435;1.1482086;-0.93185425;-;-;-;-;-;-;-;-;-;-;-;-;-;-;-
1511263799253;-;-;8.592087;0.7950592;-0.6110382;-;-;-;-;-;-;-;-;-;-;-;-;-;-;-
1511263799273;-;-;8.544205;0.048080444;-0.7702484;-;-;-;-;-;-;-;-;-;-;-;-;-;-;-
1511263799293;-;-;8.46759;-0.51815796;-0.24951172;-;-;-;-;-;-;-;-;-;-;-;-;-;-;-
1511263799313;-;-;7.794815;-0.21647644;0.28320313;-;-;-;-;-;-;-;-;-;-;-;-;-;-;-
1511263799334;-;-;7.0178986;0.44192505;0.3610077;-;-;-;-;-;-;-;-;-;-;-;-;-;-;-
1511263799354;-;-;6.3822327;0.6346588;0.5764923;-;-;-;-;-;-;-;-;-;-;-;-;-;-;-
1511263799374;-;-;6.106903;-0.3757019;0.52500916;-;-;-;-;-;-;-;-;-;-;-;-;-;-;-
1511263799395;-;-;6.158371;-1.6326599;1.1858063;-;-;-;-;-;-;-;-;-;-;-;-;-;-;-
1511263799415;-;-;6.050644;-0.6917267;2.251236;-;-;-;-;-;-;-;-;-;-;-;-;-;-;-
1511263799435;-;-;5.6699524;0.57121277;1.8861237;-;-;-;-;-;-;-;-;-;-;-;-;-;-;-
1511263799455;-;-;5.8351593;1.7060547;0.7428894;-;-;-;-;-;-;-;-;-;-;-;-;-;-;-
1511263799476;-;-;7.2022552;2.4769897;0.4867096;-;-;-;-;-;-;-;-;-;-;-;-;-;-;-
1511263799496;-;-;9.437241;2.4638214;1.0242004;-;-;-;-;-;-;-;-;-;-;-;-;-;-;-
1511263799516;-;-;11.271194;1.8126068;0.7033844;-;-;-;-;-;-;-;-;-;-;-;-;-;-;-
1511263799537;-;-;11.4292145;0.94470215;0.3310852;-;-;-;-;-;-;-;-;-;-;-;-;-;-;-
1511263799557;-;-;10.427231;0.29467773;0.5968323;-;-;-;-;-;-;-;-;-;-;-;-;-;-;-
1511263799577;-;-;8.711792;-0.32781982;2.0632935;-;-;-;-;-;-;-;-;-;-;-;-;-;-;-
1511263799597;-;-;8.728546;-0.7480011;1.840622;-;-;-;-;-;-;-;-;-;-;-;-;-;-;-
1511263799618;-;-;11.365768;-1.8217926;0.95596313;-;-;-;-;-;-;-;-;-;-;-;-;-;-;-
1511263799639;-;-;13.742004;-3.2523346;0.14193726;-;-;-;-;-;-;-;-;-;-;-;-;-;-;-
1511263799659;-;-;15.299438;-3.8365173;0.74887085;-;-;-;-;-;-;-;-;-;-;-;-;-;-;-
1511263799679;-;-;17.159729;-3.2906342;1.5964203;-;-;-;-;-;-;-;-;-;-;-;-;-;-;-
1511263799700;-;-;18.138962;-4.4302826;-0.80137634;-;-;-;-;-;-;-;-;-;-;-;-;-;-;-
1511263799720;-;-;13.624695;-5.5328064;0.7620392;-;-;-;-;-;-;-;-;-;-;-;-;-;-;-
1511263799740;-;-;11.011429;-3.1457825;0.6650696;-;-;-;-;-;-;-;-;-;-;-;-;-;-;-
1511263799761;-;-;8.380188;0.5843811;0.42086792;-;-;-;-;-;-;-;-;-;-;-;-;-;-;-
1511263799781;-;-;7.040634;3.328125;1.4324188;-;-;-;-;-;-;-;-;-;-;-;-;-;-;-
1511263799801;-;-;5.829178;3.6262054;1.9340057;-;-;-;-;-;-;-;-;-;-;-;-;-;-;-
1511263799822;-;-;5.9105835;1.5480499;0.7835846;-;-;-;-;-;-;-;-;-;-;-;-;-;-;-
1511263799842;-;-;6.584549;-0.19613647;0.08328247;-;-;-;-;-;-;-;-;-;-;-;-;-;-;-
1511263799862;-;-;7.3973694;-1.3429565;-0.028045654;-;-;-;-;-;-;-;-;-;-;-;-;-;-;-
1511263799882;-;-;8.7261505;-2.2671204;-0.0076904297;-;-;-;-;-;-;-;-;-;-;-;-;-;-;-
1511263799903;-;-;9.527023;-2.9171448;0.120391846;-;-;-;-;-;-;-;-;-;-;-;-;-;-;-
1511263799922;-;-;10.063324;-3.4330902;0.21138;-;-;-;-;-;-;-;-;-;-;-;-;-;-;-
1511263799942;-;-;9.88855;-3.5767517;0.26045227;-;-;-;-;-;-;-;-;-;-;-;-;-;-;-
1511263799962;-;-;9.647919;-3.0775604;0.44480896;-;-;-;-;-;-;-;-;-;-;-;-;-;-;-
1511263799983;-;-;9.931641;-1.9510803;0.5561371;-;-;-;-;-;-;-;-;-;-;-;-;-;-;-
1511263800003;-;-;9.683838;-0.80545044;0.27720642;-;-;-;-;-;-;-;-;-;-;-;-;-;-;-
1511263800022;-;-;9.032608;-0.30387878;0.30593872;-;-;-;-;-;-;-;-;-;-;-;-;-;-;-
1511263800043;-;-;8.916504;-0.93115234;0.5597229;-;-;-;-;-;-;-;-;-;-;-;-;-;-;-
1511263800063;-;-;8.942825;-1.625473;0.4759369;-;-;-;-;-;-;-;-;-;-;-;-;-;-;-
1511263800083;-;-;9.011063;-1.8505249;0.5166321;-;-;-;-;-;-;-;-;-;-;-;-;-;-;-
1511263800104;-;-;9.172684;-1.6422272;0.37657166;-;-;-;-;-;-;-;-;-;-;-;-;-;-;-
1511263800124;-;-;9.201401;-1.2711334;0.40290833;-;-;-;-;-;-;-;-;-;-;-;-;-;-;-
1511263800144;-;-;9.074509;-1.175354;-0.18008423;-;-;-;-;-;-;-;-;-;-;-;-;-;-;-
1511263800164;-;-;8.898544;-1.0269165;-0.76187134;-;-;-;-;-;-;-;-;-;-;-;-;-;-;-
1511263800184;-;-;8.490326;-0.7515869;-0.5823059;-;-;-;-;-;-;-;-;-;-;-;-;-;-;-
1511263800205;-;-;7.604477;-0.038116455;0.2640381;-;-;-;-;-;-;-;-;-;-;-;-;-;-;-
1511263800225;-;-;7.2908325;0.95188904;0.765625;-;-;-;-;-;-;-;-;-;-;-;-;-;-;-
1511263800246;-;-;7.110077;1.6904907;0.9607544;-;-;-;-;-;-;-;-;-;-;-;-;-;-;-
1511263800266;-;-;7.372238;1.1494141;0.070114136;-;-;-;-;-;-;-;-;-;-;-;-;-;-;-
1511263800286;-;-;7.02388;0.85491943;0.25447083;-;-;-;-;-;-;-;-;-;-;-;-;-;-;-
1511263800306;-;-;6.8131866;0.9530792;1.6514893;-;-;-;-;-;-;-;-;-;-;-;-;-;-;-
1511263800327;-;-;6.412155;0.013366699;2.2021484;-;-;-;-;-;-;-;-;-;-;-;-;-;-;-
1511263800347;-;-;6.4456787;-0.9048157;2.0956116;-;-;-;-;-;-;-;-;-;-;-;-;-;-;-
1511263800367;-;-;7.106476;-1.8864441;2.0824432;-;-;-;-;-;-;-;-;-;-;-;-;-;-;-
1511263800388;-;-;7.9600067;-2.0767822;1.828659;-;-;-;-;-;-;-;-;-;-;-;-;-;-;-
1511263800407;-;-;8.247314;-1.656601;1.0756836;-;-;-;-;-;-;-;-;-;-;-;-;-;-;-
1511263800428;-;-;8.718979;-0.97784424;1.4479828;-;-;-;-;-;-;-;-;-;-;-;-;-;-;-
1511263800447;-;-;8.689041;0.7244415;1.5054321;-;-;-;-;-;-;-;-;-;-;-;-;-;-;-
1511263800467;-;-;8.340698;1.9263306;1.1702576;-;-;-;-;-;-;-;-;-;-;-;-;-;-;-
1511263800488;-;-;9.876572;3.5364227;1.4850922;-;-;-;-;-;-;-;-;-;-;-;-;-;-;-
1511263800508;-;-;13.910797;4.2463074;2.1913757;-;-;-;-;-;-;-;-;-;-;-;-;-;-;-
1511263800528;-;-;19.223541;4.2941895;-1.8703918;-;-;-;-;-;-;-;-;-;-;-;-;-;-;-
1511263800549;-;-;22.722656;-1.3621063;-5.813629;-;-;-;-;-;-;-;-;-;-;-;-;-;-;-
1511263800569;-;-;18.66449;-3.440277;-5.740616;-;-;-;-;-;-;-;-;-;-;-;-;-;-;-
1511263800589;-;-;13.580399;-2.0624084;-1.3113403;-;-;-;-;-;-;-;-;-;-;-;-;-;-;-
1511263800609;-;-;9.738907;-0.84376526;0.37657166;-;-;-;-;-;-;-;-;-;-;-;-;-;-;-
1511263800630;-;-;7.6272125;0.6178894;1.0553284;-;-;-;-;-;-;-;-;-;-;-;-;-;-;-
1511263800650;-;-;6.5079346;2.0412445;0.9404144;-;-;-;-;-;-;-;-;-;-;-;-;-;-;-
1511263800670;-;-;6.038666;2.2734833;0.17785645;-;-;-;-;-;-;-;-;-;-;-;-;-;-;-
1511263800691;-;-;6.6036987;1.3612976;-0.41111755;-;-;-;-;-;-;-;-;-;-;-;-;-;-;-
1511263800711;-;-;6.873047;0.36650085;-0.72476196;-;-;-;-;-;-;-;-;-;-;-;-;-;-;-
1511263800731;-;-;6.8598785;0.0061798096;-0.7295532;-;-;-;-;-;-;-;-;-;-;-;-;-;-;-
1511263800751;-;-;7.1651306;0.4909973;-0.31056213;-;-;-;-;-;-;-;-;-;-;-;-;-;-;-
1511263800772;-;-;8.016281;1.8305664;-0.41830444;-;-;-;-;-;-;-;-;-;-;-;-;-;-;-
1511263800792;-;-;9.346252;1.9598389;-1.3759766;-;-;-;-;-;-;-;-;-;-;-;-;-;-;-
1511263800812;-;-;10.613983;2.06279;-1.2131805;-;-;-;-;-;-;-;-;-;-;-;-;-;-;-
1511263800833;-;-;11.362167;2.018509;-0.3045807;-;-;-;-;-;-;-;-;-;-;-;-;-;-;-
1511263800852;-;-;10.994659;2.0604095;-0.11424255;-;-;-;-;-;-;-;-;-;-;-;-;-;-;-
1511263800872;-;-;9.980713;1.9574585;-0.18486023;-;-;-;-;-;-;-;-;-;-;-;-;-;-;-
1511263800892;-;-;9.562927;1.4450989;0.055755615;-;-;-;-;-;-;-;-;-;-;-;-;-;-;-
1511263800913;-;-;9.213379;0.69091797;0.5274048;-;-;-;-;-;-;-;-;-;-;-;-;-;-;-
1511263800933;-;-;8.600464;-0.25958252;0.68782043;-;-;-;-;-;-;-;-;-;-;-;-;-;-;-
1511263800953;-;-;7.7373505;-0.636673;0.6363373;-;-;-;-;-;-;-;-;-;-;-;-;-;-;-
1511263800973;-;-;7.5757446;-0.15423584;1.0912476;-;-;-;-;-;-;-;-;-;-;-;-;-;-;-
1511263800993;-;-;7.93367;0.26834106;1.6694489;-;-;-;-;-;-;-;-;-;-;-;-;-;-;-
1511263801013;-;-;9.002686;1.169754;0.7141571;-;-;-;-;-;-;-;-;-;-;-;-;-;-;-
1511263801034;-;-;8.6423645;1.9454803;1.7568359;-;-;-;-;-;-;-;-;-;-;-;-;-;-;-
1511263801054;-;-;9.147537;0.26594543;1.4587555;-;-;-;-;-;-;-;-;-;-;-;-;-;-;-
1511263801074;-;-;9.81073;0.10194397;0.23292542;-;-;-;-;-;-;-;-;-;-;-;-;-;-;-
1511263801095;-;-;10.090851;0.9686432;1.0050507;-;-;-;-;-;-;-;-;-;-;-;-;-;-;-
1511263801114;-;-;11.29155;2.081955;2.026184;-;-;-;-;-;-;-;-;-;-;-;-;-;-;-
1511263801134;-;-;12.497025;1.2978516;-1.4729462;-;-;-;-;-;-;-;-;-;-;-;-;-;-;-
1511263801155;-;-;12.719681;1.1553955;-3.0591125;-;-;-;-;-;-;-;-;-;-;-;-;-;-;-
1511263801175;-;-;12.408447;1.5911407;-2.2965546;-;-;-;-;-;-;-;-;-;-;-;-;-;-;-
1511263801195;-;-;11.139511;0.76753235;-2.124176;-;-;-;-;-;-;-;-;-;-;-;-;-;-;-
1511263801216;-;-;9.233734;1.161377;-1.7782135;-;-;-;-;-;-;-;-;-;-;-;-;-;-;-
1511263801236;-;-;8.135986;2.37883;-0.74391174;-;-;-;-;-;-;-;-;-;-;-;-;-;-;-
1511263801256;-;-;7.02507;2.2387695;-0.68644714;-;-;-;-;-;-;-;-;-;-;-;-;-;-;-
1511263801276;-;-;6.091339;1.5683899;-0.64694214;-;-;-;-;-;-;-;-;-;-;-;-;-;-;-
1511263801297;-;-;6.565384;0.26594543;-0.54759216;-;-;-;-;-;-;-;-;-;-;-;-;-;-;-
1511263801318;-;-;8.179077;-0.98861694;-0.48414612;-;-;-;-;-;-;-;-;-;-;-;-;-;-;-
1511263801338;-;-;9.570114;-1.7882843;-0.89834595;-;-;-;-;-;-;-;-;-;-;-;-;-;-;-
1511263801358;-;-;10.052551;-1.843338;-1.1377563;-;-;-;-;-;-;-;-;-;-;-;-;-;-;-
1511263801378;-;-;9.578491;-2.1629639;-0.55836487;-;-;-;-;-;-;-;-;-;-;-;-;-;-;-
1511263801399;-;-;8.4843445;-2.6741333;-0.29141235;-;-;-;-;-;-;-;-;-;-;-;-;-;-;-
1511263801419;-;-;8.229355;-3.0655823;0.103637695;-;-;-;-;-;-;-;-;-;-;-;-;-;-;-
1511263801439;-;-;8.651932;-2.1330414;-5.187988E-4;-;-;-;-;-;-;-;-;-;-;-;-;-;-;-
1511263801460;-;-;9.951996;-0.5899811;-0.7666626;-;-;-;-;-;-;-;-;-;-;-;-;-;-;-
1511263801481;-;-;10.907272;1.0656128;-1.5878754;-;-;-;-;-;-;-;-;-;-;-;-;-;-;-
1511263801501;-;-;11.465118;1.5552216;-1.313736;-;-;-;-;-;-;-;-;-;-;-;-;-;-;-
1511263801521;-;-;10.959946;0.9291382;-0.9330597;-;-;-;-;-;-;-;-;-;-;-;-;-;-;-
1511263801542;-;-;10.171051;-0.114730835;-0.590683;-;-;-;-;-;-;-;-;-;-;-;-;-;-;-
1511263801562;-;-;9.013458;-0.92277527;-0.35604858;-;-;-;-;-;-;-;-;-;-;-;-;-;-;-
1511263801582;-;-;7.1842957;-1.2711334;0.15631104;-;-;-;-;-;-;-;-;-;-;-;-;-;-;-
1511263801603;-;-;5.8483276;-1.3992157;0.43522644;-;-;-;-;-;-;-;-;-;-;-;-;-;-;-
1511263801623;-;-;5.7250214;-1.4734344;0.47354126;-;-;-;-;-;-;-;-;-;-;-;-;-;-;-
1511263801643;-;-;6.5905304;-1.3992157;0.6100006;-;-;-;-;-;-;-;-;-;-;-;-;-;-;-
1511263801664;-;-;8.047409;-1.3477478;0.68063354;-;-;-;-;-;-;-;-;-;-;-;-;-;-;-
1511263801683;-;-;9.108032;-1.2376099;0.6770477;-;-;-;-;-;-;-;-;-;-;-;-;-;-;-
1511263801703;-;-;10.159088;-1.1238861;0.37538147;-;-;-;-;-;-;-;-;-;-;-;-;-;-;-
1511263801723;-;-;10.174652;-1.0472717;0.5441742;-;-;-;-;-;-;-;-;-;-;-;-;-;-;-
1511263801744;-;-;9.610809;-1.3477478;0.57170105;-;-;-;-;-;-;-;-;-;-;-;-;-;-;-
1511263801764;-;-;9.37738;-1.3657074;0.71894836;-;-;-;-;-;-;-;-;-;-;-;-;-;-;-
1511263801785;-;-;9.385757;-0.6067352;0.78118896;-;-;-;-;-;-;-;-;-;-;-;-;-;-;-
1511263801805;-;-;9.385757;0.6322632;1.0206146;-;-;-;-;-;-;-;-;-;-;-;-;-;-;-
1511263801825;-;-;9.221756;1.1793365;0.68782043;-;-;-;-;-;-;-;-;-;-;-;-;-;-;-
1511263801845;-;-;9.585678;0.079193115;0.9571686;-;-;-;-;-;-;-;-;-;-;-;-;-;-;-
1511263801866;-;-;9.4935;-2.2252197;1.5389557;-;-;-;-;-;-;-;-;-;-;-;-;-;-;-
1511263801886;-;-;9.5282135;-3.799408;1.7029572;-;-;-;-;-;-;-;-;-;-;-;-;-;-;-
1511263801906;-;-;11.501038;-5.344864;0.16468811;-;-;-;-;-;-;-;-;-;-;-;-;-;-;-
1511263801927;-;-;14.886444;-5.98172;-0.74272156;-;-;-;-;-;-;-;-;-;-;-;-;-;-;-
1511263801947;-;-;16.149384;-3.9753876;-1.2550812;-;-;-;-;-;-;-;-;-;-;-;-;-;-;-
1511263801967;-;-;15.6753235;-2.0516357;-1.0515747;-;-;-;-;-;-;-;-;-;-;-;-;-;-;-
1511263801988;-;-;12.013397;-2.30542;-1.3209229;-;-;-;-;-;-;-;-;-;-;-;-;-;-;-
1511263802008;-;-;9.042191;-2.6705475;-1.8380585;-;-;-;-;-;-;-;-;-;-;-;-;-;-;-
1511263802028;-;-;6.003952;-2.1282501;-1.9841156;-;-;-;-;-;-;-;-;-;-;-;-;-;-;-
1511263802049;-;-;3.9545135;-1.4782257;-2.8304596;-;-;-;-;-;-;-;-;-;-;-;-;-;-;-
1511263802069;-;-;3.0638733;-0.0045928955;-2.8903198;-;-;-;-;-;-;-;-;-;-;-;-;-;-;-
1511263802089;-;-;3.833603;1.8161926;-2.4174652;-;-;-;-;-;-;-;-;-;-;-;-;-;-;-
1511263802110;-;-;6.13443;2.3979797;-2.120575;-;-;-;-;-;-;-;-;-;-;-;-;-;-;-
1511263802130;-;-;8.527435;2.0065308;-1.9553833;-;-;-;-;-;-;-;-;-;-;-;-;-;-;-
1511263802150;-;-;11.167053;1.3409424;-1.9769287;-;-;-;-;-;-;-;-;-;-;-;-;-;-;-
1511263802171;-;-;13.926361;-0.093185425;-2.2977448;-;-;-;-;-;-;-;-;-;-;-;-;-;-;-
1511263802191;-;-;14.169373;-0.9431305;-2.23909;-;-;-;-;-;-;-;-;-;-;-;-;-;-;-
1511263802211;-;-;12.249222;-1.3549194;-1.3544312;-;-;-;-;-;-;-;-;-;-;-;-;-;-;-
1511263802232;-;-;9.216965;-0.9610748;-0.2507019;-;-;-;-;-;-;-;-;-;-;-;-;-;-;-
1511263802251;-;-;6.6348267;-0.6318817;0.3933258;-;-;-;-;-;-;-;-;-;-;-;-;-;-;-
1511263802272;-;-;5.5622253;-0.55526733;0.686615;-;-;-;-;-;-;-;-;-;-;-;-;-;-;-
1511263802292;-;-;5.9452972;0.07321167;0.7979584;-;-;-;-;-;-;-;-;-;-;-;-;-;-;-
1511263802312;-;-;7.580536;0.6609955;0.6159973;-;-;-;-;-;-;-;-;-;-;-;-;-;-;-
1511263802332;-;-;8.659119;1.0871582;-0.07234192;-;-;-;-;-;-;-;-;-;-;-;-;-;-;-
1511263802353;-;-;9.900513;1.2978516;-1.0671387;-;-;-;-;-;-;-;-;-;-;-;-;-;-;-
1511263802373;-;-;10.852203;0.84773254;-0.8600311;-;-;-;-;-;-;-;-;-;-;-;-;-;-;-
1511263802393;-;-;10.357803;0.47184753;-0.40872192;-;-;-;-;-;-;-;-;-;-;-;-;-;-;-
1511263802413;-;-;9.154724;0.12109375;-5.187988E-4;-;-;-;-;-;-;-;-;-;-;-;-;-;-;-
1511263802434;-;-;8.079727;0.115112305;0.3382721;-;-;-;-;-;-;-;-;-;-;-;-;-;-;-
1511263802454;-;-;7.372238;0.2348175;0.67944336;-;-;-;-;-;-;-;-;-;-;-;-;-;-;-
1511263802474;-;-;7.193863;0.36410522;0.6447296;-;-;-;-;-;-;-;-;-;-;-;-;-;-;-
1511263802495;-;-;7.948044;0.6549988;0.48910522;-;-;-;-;-;-;-;-;-;-;-;-;-;-;-
1511263802515;-;-;9.104446;0.83935547;-0.04360962;-;-;-;-;-;-;-;-;-;-;-;-;-;-;-
1511263802535;-;-;10.044159;0.7795105;-0.06994629;-;-;-;-;-;-;-;-;-;-;-;-;-;-;-
1511263802555;-;-;10.096832;0.18814087;0.019836426;-;-;-;-;-;-;-;-;-;-;-;-;-;-;-
1511263802576;-;-;10.181839;-0.22845459;0.24009705;-;-;-;-;-;-;-;-;-;-;-;-;-;-;-
1511263802596;-;-;9.819107;-0.18536377;0.7285156;-;-;-;-;-;-;-;-;-;-;-;-;-;-;-
1511263802616;-;-;8.890167;0.16897583;1.0876465;-;-;-;-;-;-;-;-;-;-;-;-;-;-;-
1511263802636;-;-;8.126404;0.21566772;1.4850922;-;-;-;-;-;-;-;-;-;-;-;-;-;-;-
1511263802657;-;-;8.857834;0.6957092;1.3869324;-;-;-;-;-;-;-;-;-;-;-;-;-;-;-
1511263802677;-;-;10.860596;0.2815094;-1.3113403;-;-;-;-;-;-;-;-;-;-;-;-;-;-;-
1511263802697;-;-;12.170212;1.2104645;-1.4095001;-;-;-;-;-;-;-;-;-;-;-;-;-;-;-
1511263802717;-;-;12.441956;1.9921722;-1.3245087;-;-;-;-;-;-;-;-;-;-;-;-;-;-;-
1511263802738;-;-;11.665039;1.2703094;-1.6944122;-;-;-;-;-;-;-;-;-;-;-;-;-;-;-
1511263802758;-;-;11.771576;0.41319275;-1.9086914;-;-;-;-;-;-;-;-;-;-;-;-;-;-;-
1511263802779;-;-;10.308731;0.8010559;-1.7183533;-;-;-;-;-;-;-;-;-;-;-;-;-;-;-
1511263802799;-;-;8.541809;1.4271393;-1.045578;-;-;-;-;-;-;-;-;-;-;-;-;-;-;-
1511263802819;-;-;6.972412;1.413971;-0.57032776;-;-;-;-;-;-;-;-;-;-;-;-;-;-;-
1511263802840;-;-;6.3774414;0.6861267;-0.7463074;-;-;-;-;-;-;-;-;-;-;-;-;-;-;-
1511263802860;-;-;6.9424744;-0.39604187;-1.4573822;-;-;-;-;-;-;-;-;-;-;-;-;-;-;-
1511263802880;-;-;7.470398;-0.8413696;-2.2342987;-;-;-;-;-;-;-;-;-;-;-;-;-;-;-
1511263802901;-;-;7.8474884;-1.1274719;-2.1169891;-;-;-;-;-;-;-;-;-;-;-;-;-;-;-
1511263802921;-;-;8.155136;-1.8457336;-1.3388672;-;-;-;-;-;-;-;-;-;-;-;-;-;-;-
1511263802941;-;-;8.952408;-1.7655334;-0.82650757;-;-;-;-;-;-;-;-;-;-;-;-;-;-;-
1511263802962;-;-;10.212952;-1.4291534;-0.8767853;-;-;-;-;-;-;-;-;-;-;-;-;-;-;-
1511263802982;-;-;10.81749;-1.1873322;-1.4334412;-;-;-;-;-;-;-;-;-;-;-;-;-;-;-
1511263803002;-;-;10.95636;0.07321167;-1.5411835;-;-;-;-;-;-;-;-;-;-;-;-;-;-;-
1511263803023;-;-;10.715744;0.70648193;-1.0862885;-;-;-;-;-;-;-;-;-;-;-;-;-;-;-
1511263803043;-;-;10.099228;0.83218384;-0.8648224;-;-;-;-;-;-;-;-;-;-;-;-;-;-;-
1511263803063;-;-;9.036209;0.4945984;-0.906723;-;-;-;-;-;-;-;-;-;-;-;-;-;-;-
1511263803083;-;-;8.076126;0.03251648;-0.7893982;-;-;-;-;-;-;-;-;-;-;-;-;-;-;-
1511263803104;-;-;7.6080627;-0.28710938;-0.28422546;-;-;-;-;-;-;-;-;-;-;-;-;-;-;-
1511263803124;-;-;7.6020813;-0.8126373;0.1144104;-;-;-;-;-;-;-;-;-;-;-;-;-;-;-
1511263803145;-;-;8.144363;-1.0460815;0.3777771;-;-;-;-;-;-;-;-;-;-;-;-;-;-;-
1511263803165;-;-;8.286819;-1.3166199;0.51304626;-;-;-;-;-;-;-;-;-;-;-;-;-;-;-
1511263803184;-;-;8.690247;-1.522522;0.49388123;-;-;-;-;-;-;-;-;-;-;-;-;-;-;-
1511263803204;-;-;9.260071;-1.5404816;0.16827393;-;-;-;-;-;-;-;-;-;-;-;-;-;-;-
1511263803224;-;-;9.415695;-1.1370544;-0.03881836;-;-;-;-;-;-;-;-;-;-;-;-;-;-;-
1511263803245;-;-;9.306747;-0.49780273;-0.12501526;-;-;-;-;-;-;-;-;-;-;-;-;-;-;-
1511263803265;-;-;9.25528;0.12588501;0.16229248;-;-;-;-;-;-;-;-;-;-;-;-;-;-;-
1511263803286;-;-;9.424072;0.52931213;0.086868286;-;-;-;-;-;-;-;-;-;-;-;-;-;-;-
1511263803306;-;-;9.206192;0.54367065;-0.29141235;-;-;-;-;-;-;-;-;-;-;-;-;-;-;-
1511263803326;-;-;9.114014;0.29707336;-0.09509277;-;-;-;-;-;-;-;-;-;-;-;-;-;-;-
1511263803347;-;-;9.169083;-0.18296814;0.16229248;-;-;-;-;-;-;-;-;-;-;-;-;-;-;-
1511263803367;-;-;9.289993;-0.78271484;0.26045227;-;-;-;-;-;-;-;-;-;-;-;-;-;-;-
1511263803387;-;-;8.886566;-1.3932343;0.41368103;-;-;-;-;-;-;-;-;-;-;-;-;-;-;-
1511263803407;-;-;9.12001;-1.5117493;0.4472046;-;-;-;-;-;-;-;-;-;-;-;-;-;-;-
1511263803428;-;-;9.3701935;-1.3154297;0.9404144;-;-;-;-;-;-;-;-;-;-;-;-;-;-;-
1511263803448;-;-;9.450409;-0.8461609;1.294754;-;-;-;-;-;-;-;-;-;-;-;-;-;-;-
1511263803469;-;-;9.75087;-0.70370483;1.2815857;-;-;-;-;-;-;-;-;-;-;-;-;-;-;-
1511263803489;-;-;9.990295;-0.8760834;1.354599;-;-;-;-;-;-;-;-;-;-;-;-;-;-;-
1511263803509;-;-;9.981918;-1.3788757;1.2444763;-;-;-;-;-;-;-;-;-;-;-;-;-;-;-
1511263803530;-;-;10.351822;-1.4375305;-0.2758484;-;-;-;-;-;-;-;-;-;-;-;-;-;-;-
1511263803549;-;-;12.389282;-1.7068787;0.117996216;-;-;-;-;-;-;-;-;-;-;-;-;-;-;-
1511263803569;-;-;11.444778;-2.2204285;-0.9510193;-;-;-;-;-;-;-;-;-;-;-;-;-;-;-
1511263803590;-;-;12.523361;-2.0157318;-1.3867645;-;-;-;-;-;-;-;-;-;-;-;-;-;-;-
1511263803609;-;-;14.369293;-2.5963135;-1.3652039;-;-;-;-;-;-;-;-;-;-;-;-;-;-;-
1511263803629;-;-;13.422379;-2.8524933;-3.3356323;-;-;-;-;-;-;-;-;-;-;-;-;-;-;-
1511263803650;-;-;9.764038;-2.4598541;-4.4956207;-;-;-;-;-;-;-;-;-;-;-;-;-;-;-
1511263803671;-;-;6.536667;-1.4566803;-3.3547974;-;-;-;-;-;-;-;-;-;-;-;-;-;-;-
1511263803691;-;-;4.1244965;0.16659546;-2.6173706;-;-;-;-;-;-;-;-;-;-;-;-;-;-;-
1511263803711;-;-;2.8471985;2.138214;-2.1457214;-;-;-;-;-;-;-;-;-;-;-;-;-;-;-
1511263803732;-;-;4.1783752;2.4674225;-1.9865112;-;-;-;-;-;-;-;-;-;-;-;-;-;-;-
1511263803752;-;-;6.8562927;1.6378326;-2.7191315;-;-;-;-;-;-;-;-;-;-;-;-;-;-;-
1511263803772;-;-;9.8598175;0.47782898;-2.5539246;-;-;-;-;-;-;-;-;-;-;-;-;-;-;-
1511263803792;-;-;12.712509;-1.2005005;-1.9314423;-;-;-;-;-;-;-;-;-;-;-;-;-;-;-
1511263803813;-;-;14.375275;-2.04805;-1.6429291;-;-;-;-;-;-;-;-;-;-;-;-;-;-;-
1511263803833;-;-;14.195709;-1.8792572;-2.2989502;-;-;-;-;-;-;-;-;-;-;-;-;-;-;-
1511263803853;-;-;11.202957;-0.90960693;-2.2259216;-;-;-;-;-;-;-;-;-;-;-;-;-;-;-
1511263803873;-;-;8.055786;-0.06086731;-1.4250641;-;-;-;-;-;-;-;-;-;-;-;-;-;-;-
1511263803894;-;-;6.491165;-0.15663147;-0.6720886;-;-;-;-;-;-;-;-;-;-;-;-;-;-;-
1511263803914;-;-;6.099716;-0.29429626;-0.22198486;-;-;-;-;-;-;-;-;-;-;-;-;-;-;-
1511263803934;-;-;6.956848;-0.2679596;0.1251831;-;-;-;-;-;-;-;-;-;-;-;-;-;-;-
1511263803955;-;-;8.923676;-0.062057495;0.14433289;-;-;-;-;-;-;-;-;-;-;-;-;-;-;-
1511263803975;-;-;10.193802;0.23721313;-0.16212463;-;-;-;-;-;-;-;-;-;-;-;-;-;-;-
1511263803995;-;-;10.734894;0.68014526;-0.39076233;-;-;-;-;-;-;-;-;-;-;-;-;-;-;-
1511263804016;-;-;10.374573;0.9602661;-0.50927734;-;-;-;-;-;-;-;-;-;-;-;-;-;-;-
1511263804036;-;-;8.540604;0.91477966;-0.059173584;-;-;-;-;-;-;-;-;-;-;-;-;-;-;-
1511263804056;-;-;7.684677;0.7028961;0.29756165;-;-;-;-;-;-;-;-;-;-;-;-;-;-;-
1511263804076;-;-;7.2118225;0.24798584;0.70578;-;-;-;-;-;-;-;-;-;-;-;-;-;-;-
1511263804097;-;-;7.224991;-0.03691101;0.28320313;-;-;-;-;-;-;-;-;-;-;-;-;-;-;-
1511263804117;-;-;7.877411;0.6071167;-0.33929443;-;-;-;-;-;-;-;-;-;-;-;-;-;-;-
1511263804138;-;-;8.174301;1.027298;0.44599915;-;-;-;-;-;-;-;-;-;-;-;-;-;-;-
1511263804158;-;-;8.205414;0.5951538;0.8590088;-;-;-;-;-;-;-;-;-;-;-;-;-;-;-
1511263804178;-;-;8.30957;-0.3577423;0.9427948;-;-;-;-;-;-;-;-;-;-;-;-;-;-;-
1511263804198;-;-;7.9121246;-0.83299255;0.70217896;-;-;-;-;-;-;-;-;-;-;-;-;-;-;-
