TimeStamp[ms];Prox[Cm];Lux[lux];AccX[m/s^2];AccY[m/s^2];AccZ[m/s^2];GyroX[rad/s];GyroY[rad/s];GyroZ[rad/s];MagnX[uT];MagnY[uT];MagnZ[uT];OrienYaw[degrees];OrienPitch[degrees];OrienRoll[degrees];Press[Pa];Temp[C°];Batt[%];Lat;Lng;Speed[m/s]
1511263868919;-;-;8.92009;-0.9838257;-0.491333;-;-;-;-;-;-;-;-;-;-;-;-;-;-;-
1511263868932;-;-;9.135559;-0.9610748;-0.51527405;-;-;-;-;-;-;-;-;-;-;-;-;-;-;-
1511263868953;-;-;9.2313385;-0.9251709;-0.5607605;-;-;-;-;-;-;-;-;-;-;-;-;-;-;-
1511263868973;-;-;9.301956;-0.9826355;-0.53800964;-;-;-;-;-;-;-;-;-;-;-;-;-;-;-
1511263868994;-;-;9.264847;-0.957489;-0.56555176;-;-;-;-;-;-;-;-;-;-;-;-;-;-;-
1511263869014;-;-;9.181061;-0.89404297;-0.5691376;-;-;-;-;-;-;-;-;-;-;-;-;-;-;-
1511263869034;-;-;9.163101;-0.86531067;-0.614624;-;-;-;-;-;-;-;-;-;-;-;-;-;-;-
1511263869054;-;-;9.206192;-0.8820648;-0.6553345;-;-;-;-;-;-;-;-;-;-;-;-;-;-;-
1511263869075;-;-;9.1918335;-0.8712921;-0.5344238;-;-;-;-;-;-;-;-;-;-;-;-;-;-;-
1511263869095;-;-;9.202606;-0.89164734;-0.48654175;-;-;-;-;-;-;-;-;-;-;-;-;-;-;-
1511263869115;-;-;9.233734;-0.9646759;-0.47935486;-;-;-;-;-;-;-;-;-;-;-;-;-;-;-
1511263869135;-;-;9.260071;-0.93473816;-0.63856506;-;-;-;-;-;-;-;-;-;-;-;-;-;-;-
1511263869170;-;-;9.216965;-0.8712921;-0.5787201;-;-;-;-;-;-;-;-;-;-;-;-;-;-;-
1511263869176;-;-;9.197815;-0.8701019;-0.5631561;-;-;-;-;-;-;-;-;-;-;-;-;-;-;-
1511263869196;-;-;9.205002;-0.9275665;-0.53082275;-;-;-;-;-;-;-;-;-;-;-;-;-;-;-
1511263869216;-;-;9.093674;-0.86291504;-0.5691376;-;-;-;-;-;-;-;-;-;-;-;-;-;-;-
1511263869236;-;-;9.109222;-0.89045715;-0.49371338;-;-;-;-;-;-;-;-;-;-;-;-;-;-;-
1511263869256;-;-;9.246902;-0.92996216;-0.491333;-;-;-;-;-;-;-;-;-;-;-;-;-;-;-
1511263869276;-;-;9.348648;-0.933548;-0.53681946;-;-;-;-;-;-;-;-;-;-;-;-;-;-;-
1511263869297;-;-;9.329498;-0.8701019;-0.58709717;-;-;-;-;-;-;-;-;-;-;-;-;-;-;-
1511263869317;-;-;9.246902;-0.80067444;-0.5439911;-;-;-;-;-;-;-;-;-;-;-;-;-;-;-
1511263869336;-;-;9.200211;-0.7503967;-0.55477905;-;-;-;-;-;-;-;-;-;-;-;-;-;-;-
1511263869357;-;-;9.190628;-0.7623596;-0.57751465;-;-;-;-;-;-;-;-;-;-;-;-;-;-;-
1511263869377;-;-;9.203796;-0.8210144;-0.5894928;-;-;-;-;-;-;-;-;-;-;-;-;-;-;-
1511263869397;-;-;9.203796;-0.89164734;-0.6517334;-;-;-;-;-;-;-;-;-;-;-;-;-;-;-
1511263869417;-;-;9.252884;-0.8305969;-0.6804657;-;-;-;-;-;-;-;-;-;-;-;-;-;-;-
1511263869438;-;-;9.221756;-0.8353882;-0.630188;-;-;-;-;-;-;-;-;-;-;-;-;-;-;-
1511263869458;-;-;9.262466;-0.9000244;-0.5966644;-;-;-;-;-;-;-;-;-;-;-;-;-;-;-
1511263869478;-;-;9.274429;-0.9251709;-0.6601105;-;-;-;-;-;-;-;-;-;-;-;-;-;-;-
1511263869499;-;-;9.244507;-0.89045715;-0.7606659;-;-;-;-;-;-;-;-;-;-;-;-;-;-;-
1511263869519;-;-;9.250488;-0.7803192;-0.7965851;-;-;-;-;-;-;-;-;-;-;-;-;-;-;-
1511263869539;-;-;9.268448;-0.70729065;-0.6888428;-;-;-;-;-;-;-;-;-;-;-;-;-;-;-
1511263869559;-;-;9.172684;-0.72525024;-0.63616943;-;-;-;-;-;-;-;-;-;-;-;-;-;-;-
1511263869580;-;-;9.160706;-0.77433777;-0.6996155;-;-;-;-;-;-;-;-;-;-;-;-;-;-;-
1511263869600;-;-;9.142746;-0.7480011;-0.7475128;-;-;-;-;-;-;-;-;-;-;-;-;-;-;-
1511263869621;-;-;9.155914;-0.7108917;-0.7271576;-;-;-;-;-;-;-;-;-;-;-;-;-;-;-
1511263869641;-;-;9.269638;-0.6821594;-0.77145386;-;-;-;-;-;-;-;-;-;-;-;-;-;-;-
1511263869661;-;-;9.337875;-0.5899811;-0.87080383;-;-;-;-;-;-;-;-;-;-;-;-;-;-;-
1511263869682;-;-;9.424072;-0.44631958;-0.8791809;-;-;-;-;-;-;-;-;-;-;-;-;-;-;-
1511263869701;-;-;9.312744;-0.35295105;-0.8205261;-;-;-;-;-;-;-;-;-;-;-;-;-;-;-
1511263869721;-;-;9.228943;-0.33021545;-0.81573486;-;-;-;-;-;-;-;-;-;-;-;-;-;-;-
1511263869741;-;-;9.103241;-0.5145569;-0.7738342;-;-;-;-;-;-;-;-;-;-;-;-;-;-;-
1511263869762;-;-;9.13916;-0.60913086;-0.89115906;-;-;-;-;-;-;-;-;-;-;-;-;-;-;-
1511263869782;-;-;9.252884;-0.6007538;-0.7690582;-;-;-;-;-;-;-;-;-;-;-;-;-;-;-
1511263869802;-;-;9.336685;-0.6354675;-0.76187134;-;-;-;-;-;-;-;-;-;-;-;-;-;-;-
1511263869823;-;-;9.262466;-0.8533478;-0.6720886;-;-;-;-;-;-;-;-;-;-;-;-;-;-;-
1511263869842;-;-;9.272034;-0.93115234;-0.77983093;-;-;-;-;-;-;-;-;-;-;-;-;-;-;-
1511263869862;-;-;9.291183;-1.0269165;-0.7606659;-;-;-;-;-;-;-;-;-;-;-;-;-;-;-
1511263869882;-;-;9.258865;-1.0736084;-0.80137634;-;-;-;-;-;-;-;-;-;-;-;-;-;-;-
1511263869903;-;-;9.242111;-1.0233307;-0.80496216;-;-;-;-;-;-;-;-;-;-;-;-;-;-;-
1511263869923;-;-;9.254074;-1.0089569;-0.8971405;-;-;-;-;-;-;-;-;-;-;-;-;-;-;-
1511263869943;-;-;9.225342;-0.97065735;-0.7630615;-;-;-;-;-;-;-;-;-;-;-;-;-;-;-
1511263869964;-;-;9.249298;-0.9287567;-0.5727234;-;-;-;-;-;-;-;-;-;-;-;-;-;-;-
1511263869984;-;-;9.244507;-0.8988342;-0.7415161;-;-;-;-;-;-;-;-;-;-;-;-;-;-;-
1511263870004;-;-;9.145142;-0.9251709;-0.7582855;-;-;-;-;-;-;-;-;-;-;-;-;-;-;-
1511263870024;-;-;9.147537;-0.9275665;-0.72117615;-;-;-;-;-;-;-;-;-;-;-;-;-;-;-
1511263870045;-;-;9.212173;-0.8988342;-0.73313904;-;-;-;-;-;-;-;-;-;-;-;-;-;-;-
1511263870065;-;-;9.29837;-0.9191742;-0.7786255;-;-;-;-;-;-;-;-;-;-;-;-;-;-;-
1511263870085;-;-;9.345062;-0.89164734;-0.8660126;-;-;-;-;-;-;-;-;-;-;-;-;-;-;-
1511263870106;-;-;9.371399;-0.9395294;-0.8971405;-;-;-;-;-;-;-;-;-;-;-;-;-;-;-
1511263870126;-;-;9.329498;-1.0077667;-0.85884094;-;-;-;-;-;-;-;-;-;-;-;-;-;-;-
1511263870146;-;-;9.342667;-1.0652313;-0.8325043;-;-;-;-;-;-;-;-;-;-;-;-;-;-;-
1511263870166;-;-;9.318726;-1.0879669;-0.85523987;-;-;-;-;-;-;-;-;-;-;-;-;-;-;-
1511263870186;-;-;9.284012;-1.0712128;-0.90312195;-;-;-;-;-;-;-;-;-;-;-;-;-;-;-
1511263870207;-;-;9.166687;-1.0269165;-0.90193176;-;-;-;-;-;-;-;-;-;-;-;-;-;-;-
1511263870227;-;-;9.044586;-1.0149536;-0.7008209;-;-;-;-;-;-;-;-;-;-;-;-;-;-;-
1511263870248;-;-;8.950012;-1.0161438;-0.6409607;-;-;-;-;-;-;-;-;-;-;-;-;-;-;-
1511263870268;-;-;9.043396;-1.0927582;-0.669693;-;-;-;-;-;-;-;-;-;-;-;-;-;-;-
1511263870288;-;-;9.193024;-1.0724182;-0.63497925;-;-;-;-;-;-;-;-;-;-;-;-;-;-;-
1511263870308;-;-;9.2708435;-1.0987396;-0.5858917;-;-;-;-;-;-;-;-;-;-;-;-;-;-;-
1511263870329;-;-;9.274429;-1.170578;-0.6266022;-;-;-;-;-;-;-;-;-;-;-;-;-;-;-
1511263870349;-;-;9.163101;-1.151413;-0.5140686;-;-;-;-;-;-;-;-;-;-;-;-;-;-;-
1511263870369;-;-;9.14035;-1.0700226;-0.4925232;-;-;-;-;-;-;-;-;-;-;-;-;-;-;-
1511263870390;-;-;9.164291;-1.0221252;-0.56555176;-;-;-;-;-;-;-;-;-;-;-;-;-;-;-
1511263870410;-;-;9.280411;-0.9084015;-0.5535736;-;-;-;-;-;-;-;-;-;-;-;-;-;-;-
1511263870430;-;-;9.234924;-0.9000244;-0.50090027;-;-;-;-;-;-;-;-;-;-;-;-;-;-;-
1511263870451;-;-;9.173874;-0.9682617;-0.45062256;-;-;-;-;-;-;-;-;-;-;-;-;-;-;-
1511263870471;-;-;9.201401;-1.0305176;-0.4745636;-;-;-;-;-;-;-;-;-;-;-;-;-;-;-
1511263870491;-;-;9.193024;-1.0161438;-0.451828;-;-;-;-;-;-;-;-;-;-;-;-;-;-;-
1511263870511;-;-;9.29718;-0.9622803;-0.37161255;-;-;-;-;-;-;-;-;-;-;-;-;-;-;-
1511263870532;-;-;9.323517;-1.0664215;-0.4637909;-;-;-;-;-;-;-;-;-;-;-;-;-;-;-
1511263870552;-;-;9.2756195;-1.0532532;-0.511673;-;-;-;-;-;-;-;-;-;-;-;-;-;-;-
1511263870572;-;-;9.147537;-1.0424805;-0.38119507;-;-;-;-;-;-;-;-;-;-;-;-;-;-;-
1511263870592;-;-;9.232529;-1.0855713;-0.3584442;-;-;-;-;-;-;-;-;-;-;-;-;-;-;-
1511263870612;-;-;9.4096985;-1.1825409;-0.5715332;-;-;-;-;-;-;-;-;-;-;-;-;-;-;-
1511263870633;-;-;9.418076;-1.2028961;-0.6505432;-;-;-;-;-;-;-;-;-;-;-;-;-;-;-
1511263870653;-;-;9.244507;-1.0700226;-0.5320282;-;-;-;-;-;-;-;-;-;-;-;-;-;-;-
1511263870673;-;-;9.041;-1.1190948;-0.4338684;-;-;-;-;-;-;-;-;-;-;-;-;-;-;-
1511263870694;-;-;9.003891;-1.1166992;-0.4530182;-;-;-;-;-;-;-;-;-;-;-;-;-;-;-
1511263870714;-;-;9.143951;-1.1765594;-0.5392151;-;-;-;-;-;-;-;-;-;-;-;-;-;-;-
1511263870734;-;-;9.268448;-1.1322632;-0.590683;-;-;-;-;-;-;-;-;-;-;-;-;-;-;-
1511263870755;-;-;9.292389;-1.0903625;-0.630188;-;-;-;-;-;-;-;-;-;-;-;-;-;-;-
1511263870775;-;-;9.196625;-1.0532532;-0.44943237;-;-;-;-;-;-;-;-;-;-;-;-;-;-;-
1511263870795;-;-;9.064941;-1.1681824;-0.33210754;-;-;-;-;-;-;-;-;-;-;-;-;-;-;-
1511263870815;-;-;9.036209;-1.1418457;-0.41351318;-;-;-;-;-;-;-;-;-;-;-;-;-;-;-
1511263870836;-;-;9.153519;-1.1226959;-0.53800964;-;-;-;-;-;-;-;-;-;-;-;-;-;-;-
1511263870856;-;-;9.21817;-1.0927582;-0.50808716;-;-;-;-;-;-;-;-;-;-;-;-;-;-;-
1511263870876;-;-;9.187042;-1.1298676;-0.40992737;-;-;-;-;-;-;-;-;-;-;-;-;-;-;-
1511263870897;-;-;9.282806;-1.2567596;-0.46858215;-;-;-;-;-;-;-;-;-;-;-;-;-;-;-
1511263870917;-;-;9.348648;-1.2950745;-0.7199707;-;-;-;-;-;-;-;-;-;-;-;-;-;-;-
1511263870937;-;-;9.291183;-1.1729736;-0.7103882;-;-;-;-;-;-;-;-;-;-;-;-;-;-;-
1511263870957;-;-;9.149933;-1.0556488;-0.58828735;-;-;-;-;-;-;-;-;-;-;-;-;-;-;-
1511263870978;-;-;9.080505;-1.0341034;-0.40753174;-;-;-;-;-;-;-;-;-;-;-;-;-;-;-
1511263870998;-;-;9.06015;-1.0628357;-0.511673;-;-;-;-;-;-;-;-;-;-;-;-;-;-;-
1511263871018;-;-;9.06015;-1.0005798;-0.6325836;-;-;-;-;-;-;-;-;-;-;-;-;-;-;-
1511263871038;-;-;9.128387;-0.8282013;-0.59547424;-;-;-;-;-;-;-;-;-;-;-;-;-;-;-
1511263871059;-;-;9.017059;-0.6115265;-0.22557068;-;-;-;-;-;-;-;-;-;-;-;-;-;-;-
1511263871079;-;-;8.997894;-0.6043396;0.28678894;-;-;-;-;-;-;-;-;-;-;-;-;-;-;-
1511263871099;-;-;9.25528;-0.87249756;-0.11064148;-;-;-;-;-;-;-;-;-;-;-;-;-;-;-
1511263871120;-;-;9.744888;-1.0341034;-0.7020111;-;-;-;-;-;-;-;-;-;-;-;-;-;-;-
1511263871139;-;-;10.166275;-0.7264557;-0.7163849;-;-;-;-;-;-;-;-;-;-;-;-;-;-;-
1511263871159;-;-;10.059723;-0.6318817;-0.59547424;-;-;-;-;-;-;-;-;-;-;-;-;-;-;-
1511263871179;-;-;9.617996;-0.7815094;-0.5212555;-;-;-;-;-;-;-;-;-;-;-;-;-;-;-
1511263871200;-;-;9.202606;-0.957489;-0.5966644;-;-;-;-;-;-;-;-;-;-;-;-;-;-;-
1511263871220;-;-;8.932053;-1.0484619;-0.61701965;-;-;-;-;-;-;-;-;-;-;-;-;-;-;-
1511263871240;-;-;8.605255;-1.0771942;-0.43266296;-;-;-;-;-;-;-;-;-;-;-;-;-;-;-
1511263871261;-;-;8.357452;-1.0807953;-0.5715332;-;-;-;-;-;-;-;-;-;-;-;-;-;-;-
1511263871281;-;-;8.311966;-1.2136688;-0.6253967;-;-;-;-;-;-;-;-;-;-;-;-;-;-;-
1511263871301;-;-;8.44603;-1.4758301;-0.68167114;-;-;-;-;-;-;-;-;-;-;-;-;-;-;-
1511263871321;-;-;8.733337;-1.6972961;-0.6218109;-;-;-;-;-;-;-;-;-;-;-;-;-;-;-
1511263871342;-;-;9.160706;-1.6745453;-0.45899963;-;-;-;-;-;-;-;-;-;-;-;-;-;-;-
1511263871362;-;-;9.590469;-1.2819061;0.060531616;-;-;-;-;-;-;-;-;-;-;-;-;-;-;-
1511263871382;-;-;9.993881;-1.2974701;-0.13458252;-;-;-;-;-;-;-;-;-;-;-;-;-;-;-
1511263871402;-;-;10.260834;-0.98861694;-0.6876526;-;-;-;-;-;-;-;-;-;-;-;-;-;-;-
1511263871422;-;-;10.396118;-0.36611938;-0.8181305;-;-;-;-;-;-;-;-;-;-;-;-;-;-;-
1511263871443;-;-;10.199783;0.14144897;-0.7475128;-;-;-;-;-;-;-;-;-;-;-;-;-;-;-
1511263871463;-;-;9.868195;0.40960693;-0.927063;-;-;-;-;-;-;-;-;-;-;-;-;-;-;-
1511263871483;-;-;9.401321;0.5269165;-0.7582855;-;-;-;-;-;-;-;-;-;-;-;-;-;-;-
1511263871503;-;-;8.797989;0.42037964;-0.39315796;-;-;-;-;-;-;-;-;-;-;-;-;-;-;-
1511263871524;-;-;8.332306;-0.059661865;-0.23036194;-;-;-;-;-;-;-;-;-;-;-;-;-;-;-
1511263871544;-;-;8.447235;-0.700119;-0.5332184;-;-;-;-;-;-;-;-;-;-;-;-;-;-;-
1511263871564;-;-;8.837494;-1.1657867;-0.24472046;-;-;-;-;-;-;-;-;-;-;-;-;-;-;-
1511263871585;-;-;9.243301;-1.3034515;-0.073532104;-;-;-;-;-;-;-;-;-;-;-;-;-;-;-
1511263871605;-;-;9.524628;-1.2208557;-0.2064209;-;-;-;-;-;-;-;-;-;-;-;-;-;-;-
1511263871625;-;-;9.407303;-0.8641205;-0.46618652;-;-;-;-;-;-;-;-;-;-;-;-;-;-;-
1511263871646;-;-;9.14035;-0.5133667;-0.53800964;-;-;-;-;-;-;-;-;-;-;-;-;-;-;-
1511263871665;-;-;9.014664;-0.4092102;-0.22198486;-;-;-;-;-;-;-;-;-;-;-;-;-;-;-
1511263871686;-;-;9.342667;-0.680954;-0.34169006;-;-;-;-;-;-;-;-;-;-;-;-;-;-;-
1511263871706;-;-;9.500687;-0.86531067;-0.36802673;-;-;-;-;-;-;-;-;-;-;-;-;-;-;-
1511263871726;-;-;9.452805;-0.8701019;-0.29499817;-;-;-;-;-;-;-;-;-;-;-;-;-;-;-
1511263871747;-;-;9.3546295;-0.88087463;-0.31295776;-;-;-;-;-;-;-;-;-;-;-;-;-;-;-
1511263871767;-;-;9.280411;-0.72406006;-0.23634338;-;-;-;-;-;-;-;-;-;-;-;-;-;-;-
1511263871787;-;-;9.15831;-0.7503967;-0.06515503;-;-;-;-;-;-;-;-;-;-;-;-;-;-;-
1511263871808;-;-;9.0733185;-0.8186188;-0.26986694;-;-;-;-;-;-;-;-;-;-;-;-;-;-;-
1511263871828;-;-;8.905716;-0.79467773;-0.159729;-;-;-;-;-;-;-;-;-;-;-;-;-;-;-
1511263871848;-;-;9.037399;-0.70729065;6.866455E-4;-;-;-;-;-;-;-;-;-;-;-;-;-;-;-
1511263871868;-;-;9.181061;-0.7886963;-0.15254211;-;-;-;-;-;-;-;-;-;-;-;-;-;-;-
1511263871889;-;-;9.3151245;-0.66300964;-0.36921692;-;-;-;-;-;-;-;-;-;-;-;-;-;-;-
1511263871909;-;-;9.260071;-0.41879272;0.04498291;-;-;-;-;-;-;-;-;-;-;-;-;-;-;-
1511263871929;-;-;8.945221;-0.55526733;0.24009705;-;-;-;-;-;-;-;-;-;-;-;-;-;-;-
1511263871950;-;-;8.876999;-0.7228546;-0.01727295;-;-;-;-;-;-;-;-;-;-;-;-;-;-;-
1511263871970;-;-;8.891357;-0.7096863;-0.0076904297;-;-;-;-;-;-;-;-;-;-;-;-;-;-;-
1511263871991;-;-;9.093674;-0.720459;0.072509766;-;-;-;-;-;-;-;-;-;-;-;-;-;-;-
1511263872011;-;-;9.380966;-0.9155884;0.18025208;-;-;-;-;-;-;-;-;-;-;-;-;-;-;-
1511263872031;-;-;9.476746;-0.9981842;0.070114136;-;-;-;-;-;-;-;-;-;-;-;-;-;-;-
1511263872051;-;-;9.445618;-0.6989136;-0.22676086;-;-;-;-;-;-;-;-;-;-;-;-;-;-;-
1511263872072;-;-;9.43364;-0.3589325;-0.34887695;-;-;-;-;-;-;-;-;-;-;-;-;-;-;-
1511263872092;-;-;9.448013;-0.13388062;-0.24951172;-;-;-;-;-;-;-;-;-;-;-;-;-;-;-
1511263872112;-;-;9.378571;-0.011779785;-0.071136475;-;-;-;-;-;-;-;-;-;-;-;-;-;-;-
1511263872133;-;-;9.161896;-0.074035645;0.32748413;-;-;-;-;-;-;-;-;-;-;-;-;-;-;-
1511263872153;-;-;9.167892;-0.48942566;0.508255;-;-;-;-;-;-;-;-;-;-;-;-;-;-;-
1511263872173;-;-;9.285202;-0.46907043;0.50346375;-;-;-;-;-;-;-;-;-;-;-;-;-;-;-
1511263872194;-;-;9.465973;-0.0021972656;0.57289124;-;-;-;-;-;-;-;-;-;-;-;-;-;-;-
1511263872213;-;-;9.592865;0.71725464;0.76802063;-;-;-;-;-;-;-;-;-;-;-;-;-;-;-
1511263872234;-;-;9.239716;1.2427826;0.9799042;-;-;-;-;-;-;-;-;-;-;-;-;-;-;-
1511263872254;-;-;8.989517;1.1637726;0.61239624;-;-;-;-;-;-;-;-;-;-;-;-;-;-;-
1511263872274;-;-;10.121979;-0.0021972656;0.5573273;-;-;-;-;-;-;-;-;-;-;-;-;-;-;-
1511263872294;-;-;10.992264;-1.5285034;0.53938293;-;-;-;-;-;-;-;-;-;-;-;-;-;-;-
1511263872315;-;-;11.5082245;-1.8601074;-0.20881653;-;-;-;-;-;-;-;-;-;-;-;-;-;-;-
1511263872335;-;-;14.244797;-1.0221252;-0.6577301;-;-;-;-;-;-;-;-;-;-;-;-;-;-;-
1511263872355;-;-;13.027344;-0.7707367;-1.6872253;-;-;-;-;-;-;-;-;-;-;-;-;-;-;-
1511263872375;-;-;10.233307;-1.0029755;-1.9924927;-;-;-;-;-;-;-;-;-;-;-;-;-;-;-
1511263872396;-;-;7.59729;-1.0987396;-2.5527344;-;-;-;-;-;-;-;-;-;-;-;-;-;-;-
1511263872416;-;-;6.158371;-1.388443;-2.7071533;-;-;-;-;-;-;-;-;-;-;-;-;-;-;-
1511263872437;-;-;4.96846;-0.9874115;-2.3073273;-;-;-;-;-;-;-;-;-;-;-;-;-;-;-
1511263872457;-;-;4.541092;-0.24162292;-1.7063904;-;-;-;-;-;-;-;-;-;-;-;-;-;-;-
1511263872477;-;-;5.6412354;0.12709045;-1.4729462;-;-;-;-;-;-;-;-;-;-;-;-;-;-;-
1511263872497;-;-;8.893753;-0.066848755;-1.7865906;-;-;-;-;-;-;-;-;-;-;-;-;-;-;-
1511263872518;-;-;12.191757;-0.66539;-1.4190826;-;-;-;-;-;-;-;-;-;-;-;-;-;-;-
1511263872538;-;-;14.198105;-1.4363251;-1.0671387;-;-;-;-;-;-;-;-;-;-;-;-;-;-;-
1511263872558;-;-;14.700882;-1.9343262;-1.6022339;-;-;-;-;-;-;-;-;-;-;-;-;-;-;-
1511263872579;-;-;11.849396;-1.696106;-2.3216858;-;-;-;-;-;-;-;-;-;-;-;-;-;-;-
1511263872599;-;-;8.685455;-0.84495544;-1.6369476;-;-;-;-;-;-;-;-;-;-;-;-;-;-;-
1511263872619;-;-;6.4875793;-0.3086548;-0.49731445;-;-;-;-;-;-;-;-;-;-;-;-;-;-;-
1511263872640;-;-;6.244568;-0.1877594;0.3023529;-;-;-;-;-;-;-;-;-;-;-;-;-;-;-
1511263872660;-;-;7.4799805;-0.61990356;0.21376038;-;-;-;-;-;-;-;-;-;-;-;-;-;-;-
1511263872680;-;-;8.672287;-0.7563782;-0.3368988;-;-;-;-;-;-;-;-;-;-;-;-;-;-;-
1511263872701;-;-;9.274429;-0.107543945;-0.5715332;-;-;-;-;-;-;-;-;-;-;-;-;-;-;-
1511263872720;-;-;9.511459;0.6549988;-0.35246277;-;-;-;-;-;-;-;-;-;-;-;-;-;-;-
1511263872740;-;-;9.424072;1.0727997;-0.078323364;-;-;-;-;-;-;-;-;-;-;-;-;-;-;-
1511263872760;-;-;8.881775;0.95188904;0.01864624;-;-;-;-;-;-;-;-;-;-;-;-;-;-;-
1511263872781;-;-;8.550186;0.7040863;-0.12980652;-;-;-;-;-;-;-;-;-;-;-;-;-;-;-
1511263872801;-;-;8.15155;-0.15663147;-0.23753357;-;-;-;-;-;-;-;-;-;-;-;-;-;-;-
1511263872822;-;-;8.1371765;-0.636673;-0.89953613;-;-;-;-;-;-;-;-;-;-;-;-;-;-;-
1511263872842;-;-;7.669113;0.0181427;-0.083114624;-;-;-;-;-;-;-;-;-;-;-;-;-;-;-
1511263872862;-;-;7.430893;0.07800293;1.018219;-;-;-;-;-;-;-;-;-;-;-;-;-;-;-
1511263872882;-;-;7.806778;-0.5600586;1.3964996;-;-;-;-;-;-;-;-;-;-;-;-;-;-;-
1511263872903;-;-;8.376602;-1.4375305;1.1163788;-;-;-;-;-;-;-;-;-;-;-;-;-;-;-
1511263872924;-;-;8.356247;-1.8457336;0.0569458;-;-;-;-;-;-;-;-;-;-;-;-;-;-;-
1511263872945;-;-;7.940857;-1.5285034;0.63035583;-;-;-;-;-;-;-;-;-;-;-;-;-;-;-
1511263872965;-;-;7.7253876;-1.2220459;1.3139038;-;-;-;-;-;-;-;-;-;-;-;-;-;-;-
1511263872985;-;-;7.6020813;-0.7084961;1.5617065;-;-;-;-;-;-;-;-;-;-;-;-;-;-;-
1511263873005;-;-;7.4105377;0.036102295;1.5581055;-;-;-;-;-;-;-;-;-;-;-;-;-;-;-
1511263873026;-;-;7.6272125;1.4642487;1.7113342;-;-;-;-;-;-;-;-;-;-;-;-;-;-;-
1511263873046;-;-;8.892548;2.5512085;1.4862823;-;-;-;-;-;-;-;-;-;-;-;-;-;-;-
1511263873066;-;-;10.076492;2.8265533;1.330658;-;-;-;-;-;-;-;-;-;-;-;-;-;-;-
1511263873087;-;-;9.540192;1.2667236;1.0613098;-;-;-;-;-;-;-;-;-;-;-;-;-;-;-
1511263873107;-;-;8.218582;-0.30267334;1.1451111;-;-;-;-;-;-;-;-;-;-;-;-;-;-;-
1511263873127;-;-;6.9508514;-0.98861694;0.7967529;-;-;-;-;-;-;-;-;-;-;-;-;-;-;-
1511263873147;-;-;7.375824;-1.0017853;1.1295471;-;-;-;-;-;-;-;-;-;-;-;-;-;-;-
1511263873168;-;-;9.0793;-1.2843018;2.4439697;-;-;-;-;-;-;-;-;-;-;-;-;-;-;-
1511263873187;-;-;10.570892;-2.0612183;2.5457153;-;-;-;-;-;-;-;-;-;-;-;-;-;-;-
1511263873207;-;-;10.742081;-3.2678986;1.5772705;-;-;-;-;-;-;-;-;-;-;-;-;-;-;-
1511263873227;-;-;10.564911;-2.9841766;1.270813;-;-;-;-;-;-;-;-;-;-;-;-;-;-;-
1511263873248;-;-;9.042191;-1.6553955;2.062088;-;-;-;-;-;-;-;-;-;-;-;-;-;-;-
1511263873268;-;-;7.451248;-1.036499;1.710144;-;-;-;-;-;-;-;-;-;-;-;-;-;-;-
1511263873289;-;-;6.928116;-0.083602905;0.99069214;-;-;-;-;-;-;-;-;-;-;-;-;-;-;-
1511263873309;-;-;7.269287;-0.11352539;0.33348083;-;-;-;-;-;-;-;-;-;-;-;-;-;-;-
1511263873329;-;-;10.898895;0.3461609;0.66986084;-;-;-;-;-;-;-;-;-;-;-;-;-;-;-
1511263873349;-;-;15.601105;0.119903564;0.83506775;-;-;-;-;-;-;-;-;-;-;-;-;-;-;-
1511263873369;-;-;21.05989;-2.8441162;-1.7051849;-;-;-;-;-;-;-;-;-;-;-;-;-;-;-
1511263873390;-;-;17.540405;-4.1286163;-3.448166;-;-;-;-;-;-;-;-;-;-;-;-;-;-;-
1511263873410;-;-;13.636658;-1.8565063;-2.3013458;-;-;-;-;-;-;-;-;-;-;-;-;-;-;-
1511263873430;-;-;9.626373;0.038497925;-0.82173157;-;-;-;-;-;-;-;-;-;-;-;-;-;-;-
1511263873451;-;-;7.861847;0.7531738;0.011459351;-;-;-;-;-;-;-;-;-;-;-;-;-;-;-
1511263873471;-;-;6.0853577;0.09715271;0.20059204;-;-;-;-;-;-;-;-;-;-;-;-;-;-;-
1511263873491;-;-;4.8631134;-1.5560455;0.28559875;-;-;-;-;-;-;-;-;-;-;-;-;-;-;-
1511263873512;-;-;5.593338;-2.4071808;0.6447296;-;-;-;-;-;-;-;-;-;-;-;-;-;-;-
1511263873532;-;-;7.161545;-2.4538574;0.14912415;-;-;-;-;-;-;-;-;-;-;-;-;-;-;-
1511263873553;-;-;8.280838;-2.2252197;-0.18247986;-;-;-;-;-;-;-;-;-;-;-;-;-;-;-
1511263873573;-;-;9.358231;-2.0193176;-0.26268005;-;-;-;-;-;-;-;-;-;-;-;-;-;-;-
1511263873592;-;-;10.238098;-1.992981;-0.1669159;-;-;-;-;-;-;-;-;-;-;-;-;-;-;-
1511263873612;-;-;10.872559;-1.7415924;-0.120224;-;-;-;-;-;-;-;-;-;-;-;-;-;-;-
1511263873632;-;-;11.53096;-1.3345795;-0.46020508;-;-;-;-;-;-;-;-;-;-;-;-;-;-;-
1511263873653;-;-;11.459137;-1.0508575;-0.69602966;-;-;-;-;-;-;-;-;-;-;-;-;-;-;-
1511263873673;-;-;10.804321;-1.1837463;-0.4745636;-;-;-;-;-;-;-;-;-;-;-;-;-;-;-
1511263873693;-;-;9.664688;-1.4937897;-0.48054504;-;-;-;-;-;-;-;-;-;-;-;-;-;-;-
1511263873713;-;-;8.654327;-1.4949799;-0.2686615;-;-;-;-;-;-;-;-;-;-;-;-;-;-;-
1511263873734;-;-;8.054581;-1.2615509;-0.01966858;-;-;-;-;-;-;-;-;-;-;-;-;-;-;-
1511263873754;-;-;7.8331146;-1.115509;-5.187988E-4;-;-;-;-;-;-;-;-;-;-;-;-;-;-;-
1511263873774;-;-;7.9707794;-0.9562988;0.082092285;-;-;-;-;-;-;-;-;-;-;-;-;-;-;-
1511263873794;-;-;8.404144;-1.0197449;0.15750122;-;-;-;-;-;-;-;-;-;-;-;-;-;-;-
1511263873815;-;-;8.735733;-1.249588;0.0856781;-;-;-;-;-;-;-;-;-;-;-;-;-;-;-
1511263873835;-;-;9.100845;-1.5488586;0.2616577;-;-;-;-;-;-;-;-;-;-;-;-;-;-;-
1511263873855;-;-;9.343857;-1.9846039;0.23890686;-;-;-;-;-;-;-;-;-;-;-;-;-;-;-
1511263873875;-;-;9.702988;-2.253952;0.3382721;-;-;-;-;-;-;-;-;-;-;-;-;-;-;-
1511263873895;-;-;9.819107;-2.0755768;0.34065247;-;-;-;-;-;-;-;-;-;-;-;-;-;-;-
1511263873916;-;-;9.754471;-1.6350555;0.35263062;-;-;-;-;-;-;-;-;-;-;-;-;-;-;-
1511263873936;-;-;9.47554;-1.0556488;0.4184723;-;-;-;-;-;-;-;-;-;-;-;-;-;-;-
1511263873956;-;-;9.122391;-0.6127167;0.29397583;-;-;-;-;-;-;-;-;-;-;-;-;-;-;-
1511263873977;-;-;8.952408;-0.25958252;0.61239624;-;-;-;-;-;-;-;-;-;-;-;-;-;-;-
1511263873996;-;-;8.817139;-0.4152069;0.89372253;-;-;-;-;-;-;-;-;-;-;-;-;-;-;-
1511263874016;-;-;8.72377;-1.0173492;0.7752075;-;-;-;-;-;-;-;-;-;-;-;-;-;-;-
1511263874036;-;-;8.480759;-1.6326599;0.4795227;-;-;-;-;-;-;-;-;-;-;-;-;-;-;-
1511263874057;-;-;8.1922455;-2.0205078;0.30593872;-;-;-;-;-;-;-;-;-;-;-;-;-;-;-
1511263874077;-;-;8.475967;-1.7320099;0.3095398;-;-;-;-;-;-;-;-;-;-;-;-;-;-;-
1511263874097;-;-;8.881775;-0.3397827;-0.07234192;-;-;-;-;-;-;-;-;-;-;-;-;-;-;-
1511263874118;-;-;9.09845;0.67774963;-0.5056915;-;-;-;-;-;-;-;-;-;-;-;-;-;-;-
1511263874137;-;-;9.030228;0.78907776;-0.78700256;-;-;-;-;-;-;-;-;-;-;-;-;-;-;-
1511263874157;-;-;8.443649;0.51016235;-0.91389465;-;-;-;-;-;-;-;-;-;-;-;-;-;-;-
1511263874178;-;-;7.9552307;0.28988647;-1.1186066;-;-;-;-;-;-;-;-;-;-;-;-;-;-;-
1511263874198;-;-;7.221405;-0.03930664;-0.27105713;-;-;-;-;-;-;-;-;-;-;-;-;-;-;-
1511263874219;-;-;6.8048096;-0.7228546;0.47233582;-;-;-;-;-;-;-;-;-;-;-;-;-;-;-
1511263874239;-;-;6.7653046;-1.4267578;1.7340851;-;-;-;-;-;-;-;-;-;-;-;-;-;-;-
1511263874259;-;-;6.888611;-0.9766388;1.8214722;-;-;-;-;-;-;-;-;-;-;-;-;-;-;-
1511263874279;-;-;6.84671;-0.009384155;0.96315;-;-;-;-;-;-;-;-;-;-;-;-;-;-;-
1511263874300;-;-;7.315979;1.1685638;1.749649;-;-;-;-;-;-;-;-;-;-;-;-;-;-;-
1511263874319;-;-;7.1531677;1.4869843;1.6790161;-;-;-;-;-;-;-;-;-;-;-;-;-;-;-
1511263874339;-;-;7.3889923;1.3948212;1.552124;-;-;-;-;-;-;-;-;-;-;-;-;-;-;-
1511263874359;-;-;7.497925;1.070404;1.160675;-;-;-;-;-;-;-;-;-;-;-;-;-;-;-
1511263874379;-;-;7.2860413;1.0644073;1.8573914;-;-;-;-;-;-;-;-;-;-;-;-;-;-;-
1511263874400;-;-;8.246124;1.161377;0.9463959;-;-;-;-;-;-;-;-;-;-;-;-;-;-;-
1511263874420;-;-;10.069305;3.2000427;0.83865356;-;-;-;-;-;-;-;-;-;-;-;-;-;-;-
1511263874440;-;-;13.228455;4.4570007;-0.47935486;-;-;-;-;-;-;-;-;-;-;-;-;-;-;-
1511263874460;-;-;14.444702;3.6477509;-1.3424683;-;-;-;-;-;-;-;-;-;-;-;-;-;-;-
1511263874481;-;-;12.595184;-0.9359436;1.3917084;-;-;-;-;-;-;-;-;-;-;-;-;-;-;-
1511263874501;-;-;12.647858;-0.3577423;1.4084778;-;-;-;-;-;-;-;-;-;-;-;-;-;-;-
1511263874521;-;-;14.439926;0.42396545;0.09046936;-;-;-;-;-;-;-;-;-;-;-;-;-;-;-
1511263874542;-;-;14.831375;1.3265839;-3.3332367;-;-;-;-;-;-;-;-;-;-;-;-;-;-;-
1511263874562;-;-;12.00621;1.7766876;-2.5778656;-;-;-;-;-;-;-;-;-;-;-;-;-;-;-
1511263874582;-;-;9.625183;1.0811768;-1.3269043;-;-;-;-;-;-;-;-;-;-;-;-;-;-;-
1511263874602;-;-;8.119232;0.5305023;-0.1489563;-;-;-;-;-;-;-;-;-;-;-;-;-;-;-
1511263874623;-;-;8.179077;0.6214905;1.2839813;-;-;-;-;-;-;-;-;-;-;-;-;-;-;-
1511263874643;-;-;7.585327;0.74598694;0.6351471;-;-;-;-;-;-;-;-;-;-;-;-;-;-;-
1511263874664;-;-;7.2752686;1.406784;0.28559875;-;-;-;-;-;-;-;-;-;-;-;-;-;-;-
1511263874684;-;-;8.654327;1.8102112;-0.2973938;-;-;-;-;-;-;-;-;-;-;-;-;-;-;-
1511263874704;-;-;9.900513;1.5612183;-0.44822693;-;-;-;-;-;-;-;-;-;-;-;-;-;-;-
1511263874725;-;-;10.581665;0.7340088;-0.5104828;-;-;-;-;-;-;-;-;-;-;-;-;-;-;-
1511263874745;-;-;10.106415;0.49220276;-0.5978699;-;-;-;-;-;-;-;-;-;-;-;-;-;-;-
1511263874765;-;-;9.109222;1.3553162;-0.4446411;-;-;-;-;-;-;-;-;-;-;-;-;-;-;-
1511263874785;-;-;8.367035;2.4219208;-0.059173584;-;-;-;-;-;-;-;-;-;-;-;-;-;-;-
1511263874806;-;-;8.611237;2.9773865;0.21376038;-;-;-;-;-;-;-;-;-;-;-;-;-;-;-
1511263874825;-;-;9.075714;2.6840973;0.058151245;-;-;-;-;-;-;-;-;-;-;-;-;-;-;-
1511263874845;-;-;9.292389;1.1123047;0.053359985;-;-;-;-;-;-;-;-;-;-;-;-;-;-;-
1511263874865;-;-;9.052963;0.38087463;0.60043335;-;-;-;-;-;-;-;-;-;-;-;-;-;-;-
1511263874886;-;-;8.873398;0.18693542;0.71295166;-;-;-;-;-;-;-;-;-;-;-;-;-;-;-
1511263874906;-;-;8.833893;0.4084015;0.5693054;-;-;-;-;-;-;-;-;-;-;-;-;-;-;-
1511263874926;-;-;8.418503;0.6921234;0.36819458;-;-;-;-;-;-;-;-;-;-;-;-;-;-;-
1511263874947;-;-;8.313156;1.130249;0.4974823;-;-;-;-;-;-;-;-;-;-;-;-;-;-;-
1511263874967;-;-;8.619614;1.4055939;0.9811096;-;-;-;-;-;-;-;-;-;-;-;-;-;-;-
1511263874988;-;-;8.72496;1.4666443;0.88653564;-;-;-;-;-;-;-;-;-;-;-;-;-;-;-
1511263875008;-;-;8.880585;1.6378326;-0.06515503;-;-;-;-;-;-;-;-;-;-;-;-;-;-;-
1511263875028;-;-;8.90094;1.8365479;-0.58828735;-;-;-;-;-;-;-;-;-;-;-;-;-;-;-
1511263875048;-;-;8.316742;1.7060547;-0.82650757;-;-;-;-;-;-;-;-;-;-;-;-;-;-;-
1511263875069;-;-;7.731369;0.7424011;-1.4346466;-;-;-;-;-;-;-;-;-;-;-;-;-;-;-
1511263875089;-;-;7.5470123;-0.31225586;-1.4909058;-;-;-;-;-;-;-;-;-;-;-;-;-;-;-
1511263875109;-;-;7.746933;-0.8820648;-0.3584442;-;-;-;-;-;-;-;-;-;-;-;-;-;-;-
1511263875130;-;-;7.7062225;-0.60554504;1.1678619;-;-;-;-;-;-;-;-;-;-;-;-;-;-;-
1511263875150;-;-;7.1998596;0.100753784;1.4958649;-;-;-;-;-;-;-;-;-;-;-;-;-;-;-
1511263875170;-;-;6.5486298;0.6573944;1.449173;-;-;-;-;-;-;-;-;-;-;-;-;-;-;-
1511263875190;-;-;5.9452972;0.3509369;1.1103973;-;-;-;-;-;-;-;-;-;-;-;-;-;-;-
1511263875211;-;-;5.8483276;-0.56843567;1.0325775;-;-;-;-;-;-;-;-;-;-;-;-;-;-;-
1511263875231;-;-;6.387024;-0.9048157;0.78479004;-;-;-;-;-;-;-;-;-;-;-;-;-;-;-
1511263875251;-;-;7.470398;-0.5133667;1.2504578;-;-;-;-;-;-;-;-;-;-;-;-;-;-;-
1511263875272;-;-;9.137955;-0.08720398;0.93562317;-;-;-;-;-;-;-;-;-;-;-;-;-;-;-
1511263875292;-;-;10.241684;0.68133545;1.1187744;-;-;-;-;-;-;-;-;-;-;-;-;-;-;-
1511263875312;-;-;10.853409;0.9782257;1.9124603;-;-;-;-;-;-;-;-;-;-;-;-;-;-;-
1511263875333;-;-;10.14711;0.19891357;0.22573853;-;-;-;-;-;-;-;-;-;-;-;-;-;-;-
1511263875353;-;-;8.972763;-0.46907043;-0.456604;-;-;-;-;-;-;-;-;-;-;-;-;-;-;-
1511263875374;-;-;8.537018;-1.4028168;1.2899628;-;-;-;-;-;-;-;-;-;-;-;-;-;-;-
1511263875394;-;-;9.363022;-1.937912;1.5964203;-;-;-;-;-;-;-;-;-;-;-;-;-;-;-
1511263875415;-;-;11.900864;-2.4107666;-0.09269714;-;-;-;-;-;-;-;-;-;-;-;-;-;-;-
1511263875435;-;-;14.035294;-2.7962341;-2.468933;-;-;-;-;-;-;-;-;-;-;-;-;-;-;-
1511263875455;-;-;13.582794;-1.764328;0.65908813;-;-;-;-;-;-;-;-;-;-;-;-;-;-;-
1511263875476;-;-;15.505341;-1.5524445;2.453537;-;-;-;-;-;-;-;-;-;-;-;-;-;-;-
1511263875496;-;-;17.63379;-4.3871765;-1.0635376;-;-;-;-;-;-;-;-;-;-;-;-;-;-;-
1511263875516;-;-;14.371689;-5.633362;0.28320313;-;-;-;-;-;-;-;-;-;-;-;-;-;-;-
1511263875537;-;-;11.199371;-3.3540802;0.642334;-;-;-;-;-;-;-;-;-;-;-;-;-;-;-
1511263875557;-;-;7.221405;-0.88446045;1.1379242;-;-;-;-;-;-;-;-;-;-;-;-;-;-;-
1511263875577;-;-;5.142044;0.5664215;1.5114288;-;-;-;-;-;-;-;-;-;-;-;-;-;-;-
1511263875597;-;-;4.4944;0.68733215;0.4400177;-;-;-;-;-;-;-;-;-;-;-;-;-;-;-
1511263875618;-;-;5.442505;-0.7982788;-0.4637909;-;-;-;-;-;-;-;-;-;-;-;-;-;-;-
1511263875638;-;-;7.1603546;-1.2711334;-0.49491882;-;-;-;-;-;-;-;-;-;-;-;-;-;-;-
1511263875658;-;-;9.688629;-1.1059265;-0.46858215;-;-;-;-;-;-;-;-;-;-;-;-;-;-;-
1511263875678;-;-;12.129517;-0.72883606;-0.17648315;-;-;-;-;-;-;-;-;-;-;-;-;-;-;-
1511263875699;-;-;13.065643;-0.6582184;-0.1669159;-;-;-;-;-;-;-;-;-;-;-;-;-;-;-
1511263875719;-;-;12.125931;-1.0604401;-0.13220215;-;-;-;-;-;-;-;-;-;-;-;-;-;-;-
1511263875740;-;-;10.564911;-1.2627563;0.08807373;-;-;-;-;-;-;-;-;-;-;-;-;-;-;-
1511263875760;-;-;9.2756195;-0.86172485;0.40888977;-;-;-;-;-;-;-;-;-;-;-;-;-;-;-
1511263875780;-;-;7.6236267;-0.6821594;0.49508667;-;-;-;-;-;-;-;-;-;-;-;-;-;-;-
1511263875800;-;-;6.8910065;-0.82580566;0.5298004;-;-;-;-;-;-;-;-;-;-;-;-;-;-;-
1511263875821;-;-;6.727005;-1.1166992;0.6997833;-;-;-;-;-;-;-;-;-;-;-;-;-;-;-
1511263875841;-;-;7.2201996;-1.210083;0.92245483;-;-;-;-;-;-;-;-;-;-;-;-;-;-;-
1511263875861;-;-;8.40892;-1.2687378;0.8925171;-;-;-;-;-;-;-;-;-;-;-;-;-;-;-
1511263875881;-;-;9.410904;-0.5612488;0.37538147;-;-;-;-;-;-;-;-;-;-;-;-;-;-;-
1511263875902;-;-;10.033386;0.02053833;-0.09867859;-;-;-;-;-;-;-;-;-;-;-;-;-;-;-
1511263875922;-;-;10.307526;0.29348755;0.15989685;-;-;-;-;-;-;-;-;-;-;-;-;-;-;-
1511263875942;-;-;9.25528;0.086380005;-0.08430481;-;-;-;-;-;-;-;-;-;-;-;-;-;-;-
1511263875963;-;-;7.5206757;-0.7408142;-0.5619507;-;-;-;-;-;-;-;-;-;-;-;-;-;-;-
1511263875982;-;-;7.130417;-1.4387207;0.35621643;-;-;-;-;-;-;-;-;-;-;-;-;-;-;-
1511263876002;-;-;7.062195;-2.143814;1.3354492;-;-;-;-;-;-;-;-;-;-;-;-;-;-;-
1511263876022;-;-;6.5198975;-1.8768616;1.2456665;-;-;-;-;-;-;-;-;-;-;-;-;-;-;-
1511263876043;-;-;6.1691437;-0.8988342;0.7153473;-;-;-;-;-;-;-;-;-;-;-;-;-;-;-
1511263876063;-;-;6.2625275;0.03012085;0.34425354;-;-;-;-;-;-;-;-;-;-;-;-;-;-;-
1511263876083;-;-;6.5390472;1.145813;0.09764099;-;-;-;-;-;-;-;-;-;-;-;-;-;-;-
1511263876103;-;-;7.580536;2.450653;0.15270996;-;-;-;-;-;-;-;-;-;-;-;-;-;-;-
1511263876124;-;-;7.9468384;3.070755;0.23292542;-;-;-;-;-;-;-;-;-;-;-;-;-;-;-
1511263876144;-;-;8.266464;2.8876038;1.2564392;-;-;-;-;-;-;-;-;-;-;-;-;-;-;-
1511263876164;-;-;8.613632;2.002945;1.4946594;-;-;-;-;-;-;-;-;-;-;-;-;-;-;-
1511263876185;-;-;8.692642;1.130249;1.701767;-;-;-;-;-;-;-;-;-;-;-;-;-;-;-
1511263876206;-;-;8.18985;0.29826355;1.5066376;-;-;-;-;-;-;-;-;-;-;-;-;-;-;-
1511263876226;-;-;7.778061;-0.6330719;1.370163;-;-;-;-;-;-;-;-;-;-;-;-;-;-;-
1511263876246;-;-;7.8211517;-0.50857544;0.28799438;-;-;-;-;-;-;-;-;-;-;-;-;-;-;-
1511263876266;-;-;9.590469;1.5612183;0.22692871;-;-;-;-;-;-;-;-;-;-;-;-;-;-;-
1511263876286;-;-;13.272751;3.0025177;3.161026;-;-;-;-;-;-;-;-;-;-;-;-;-;-;-
1511263876307;-;-;18.532806;6.860779;0.12159729;-;-;-;-;-;-;-;-;-;-;-;-;-;-;-
1511263876326;-;-;22.095383;9.767334;-7.3794403;-;-;-;-;-;-;-;-;-;-;-;-;-;-;-
1511263876347;-;-;16.539642;2.058014;-7.429718;-;-;-;-;-;-;-;-;-;-;-;-;-;-;-
1511263876367;-;-;11.398087;-1.3321838;-2.6353302;-;-;-;-;-;-;-;-;-;-;-;-;-;-;-
1511263876388;-;-;8.062958;-2.9937592;2.0632935;-;-;-;-;-;-;-;-;-;-;-;-;-;-;-
1511263876408;-;-;6.2733;-3.0236816;3.8816833;-;-;-;-;-;-;-;-;-;-;-;-;-;-;-
1511263876428;-;-;5.355118;-1.2244415;3.5596619;-;-;-;-;-;-;-;-;-;-;-;-;-;-;-
1511263876448;-;-;5.3311768;0.69929504;2.5433197;-;-;-;-;-;-;-;-;-;-;-;-;-;-;-
1511263876468;-;-;6.4923706;1.4115753;2.0824432;-;-;-;-;-;-;-;-;-;-;-;-;-;-;-
1511263876489;-;-;7.779251;1.1170807;1.4108734;-;-;-;-;-;-;-;-;-;-;-;-;-;-;-
1511263876509;-;-;9.507858;0.7759094;-0.2973938;-;-;-;-;-;-;-;-;-;-;-;-;-;-;-
1511263876529;-;-;10.977905;0.8513336;-1.5986481;-;-;-;-;-;-;-;-;-;-;-;-;-;-;-
1511263876549;-;-;11.599197;1.4558716;-1.4789276;-;-;-;-;-;-;-;-;-;-;-;-;-;-;-
1511263876570;-;-;11.092819;2.473404;-0.28063965;-;-;-;-;-;-;-;-;-;-;-;-;-;-;-
1511263876590;-;-;10.277603;2.8947754;0.04019165;-;-;-;-;-;-;-;-;-;-;-;-;-;-;-
1511263876612;-;-;9.480331;2.3453064;-0.30937195;-;-;-;-;-;-;-;-;-;-;-;-;-;-;-
1511263876632;-;-;8.74292;1.453476;-0.575119;-;-;-;-;-;-;-;-;-;-;-;-;-;-;-
1511263876653;-;-;7.7972107;1.169754;-0.2351532;-;-;-;-;-;-;-;-;-;-;-;-;-;-;-
1511263876673;-;-;7.099304;0.9638519;0.8302765;-;-;-;-;-;-;-;-;-;-;-;-;-;-;-
1511263876694;-;-;6.849106;0.6166992;1.1738434;-;-;-;-;-;-;-;-;-;-;-;-;-;-;-
1511263876714;-;-;6.78566;0.37010193;0.83625793;-;-;-;-;-;-;-;-;-;-;-;-;-;-;-
1511263876734;-;-;6.9951477;0.33537292;0.32510376;-;-;-;-;-;-;-;-;-;-;-;-;-;-;-
1511263876755;-;-;7.940857;0.6921234;0.074905396;-;-;-;-;-;-;-;-;-;-;-;-;-;-;-
1511263876775;-;-;9.002686;1.1936951;-0.37042236;-;-;-;-;-;-;-;-;-;-;-;-;-;-;-
1511263876795;-;-;9.6862335;1.4881897;-1.0970612;-;-;-;-;-;-;-;-;-;-;-;-;-;-;-
1511263876815;-;-;9.901718;1.3301697;-1.6560974;-;-;-;-;-;-;-;-;-;-;-;-;-;-;-
1511263876836;-;-;9.69342;0.71606445;-1.2000122;-;-;-;-;-;-;-;-;-;-;-;-;-;-;-
1511263876856;-;-;9.378571;-0.10395813;0.3382721;-;-;-;-;-;-;-;-;-;-;-;-;-;-;-
1511263876876;-;-;8.361038;-0.2966919;1.6526794;-;-;-;-;-;-;-;-;-;-;-;-;-;-;-
1511263876896;-;-;6.6348267;0.115112305;1.9735107;-;-;-;-;-;-;-;-;-;-;-;-;-;-;-
1511263876917;-;-;5.2521667;0.49220276;2.0728607;-;-;-;-;-;-;-;-;-;-;-;-;-;-;-
1511263876937;-;-;5.121689;0.30186462;1.607193;-;-;-;-;-;-;-;-;-;-;-;-;-;-;-
1511263876957;-;-;5.675949;-0.39006042;1.9208374;-;-;-;-;-;-;-;-;-;-;-;-;-;-;-
1511263876978;-;-;6.541443;-1.2507782;2.3446045;-;-;-;-;-;-;-;-;-;-;-;-;-;-;-
1511263876998;-;-;7.2980194;-0.9359436;2.5026245;-;-;-;-;-;-;-;-;-;-;-;-;-;-;-
1511263877018;-;-;7.997116;-0.14225769;2.44516;-;-;-;-;-;-;-;-;-;-;-;-;-;-;-
1511263877039;-;-;8.382584;0.26834106;2.2368622;-;-;-;-;-;-;-;-;-;-;-;-;-;-;-
1511263877059;-;-;8.72496;0.48382568;2.4547424;-;-;-;-;-;-;-;-;-;-;-;-;-;-;-
1511263877079;-;-;9.771225;0.16059875;2.4068604;-;-;-;-;-;-;-;-;-;-;-;-;-;-;-
1511263877099;-;-;10.872559;-0.5444946;1.4431915;-;-;-;-;-;-;-;-;-;-;-;-;-;-;-
1511263877120;-;-;10.835449;-0.28710938;0.89372253;-;-;-;-;-;-;-;-;-;-;-;-;-;-;-
1511263877140;-;-;10.490677;0.52093506;1.4695282;-;-;-;-;-;-;-;-;-;-;-;-;-;-;-
1511263877160;-;-;10.692993;0.4479065;0.94758606;-;-;-;-;-;-;-;-;-;-;-;-;-;-;-
1511263877181;-;-;10.5242;-0.4343567;3.5369263;-;-;-;-;-;-;-;-;-;-;-;-;-;-;-
1511263877200;-;-;14.031708;-2.8249664;4.22406;-;-;-;-;-;-;-;-;-;-;-;-;-;-;-
1511263877221;-;-;20.685196;-9.150452;-2.7586365;-;-;-;-;-;-;-;-;-;-;-;-;-;-;-
1511263877241;-;-;21.72548;-10.638443;-3.104599;-;-;-;-;-;-;-;-;-;-;-;-;-;-;-
1511263877261;-;-;12.601166;-0.26437378;-2.5599213;-;-;-;-;-;-;-;-;-;-;-;-;-;-;-
1511263877282;-;-;7.6176453;3.692047;-0.9689636;-;-;-;-;-;-;-;-;-;-;-;-;-;-;-
1511263877301;-;-;5.607712;3.8644257;-0.0076904297;-;-;-;-;-;-;-;-;-;-;-;-;-;-;-
1511263877321;-;-;5.370682;2.1118774;0.43643188;-;-;-;-;-;-;-;-;-;-;-;-;-;-;-
1511263877341;-;-;5.829178;-1.0065765;0.11201477;-;-;-;-;-;-;-;-;-;-;-;-;-;-;-
1511263877362;-;-;6.3822327;-1.6458282;0.6351471;-;-;-;-;-;-;-;-;-;-;-;-;-;-;-
1511263877382;-;-;7.6068726;-1.491394;1.1534882;-;-;-;-;-;-;-;-;-;-;-;-;-;-;-
1511263877402;-;-;8.808762;-1.0819855;0.70217896;-;-;-;-;-;-;-;-;-;-;-;-;-;-;-
1511263877423;-;-;8.84227;-1.1370544;-0.31056213;-;-;-;-;-;-;-;-;-;-;-;-;-;-;-
1511263877443;-;-;9.954376;-1.2196503;0.14193726;-;-;-;-;-;-;-;-;-;-;-;-;-;-;-
1511263877463;-;-;11.396896;-1.3046417;0.60401917;-;-;-;-;-;-;-;-;-;-;-;-;-;-;-
1511263877484;-;-;12.08522;-1.0616302;0.51065063;-;-;-;-;-;-;-;-;-;-;-;-;-;-;-
1511263877504;-;-;11.434006;-0.8581238;0.30593872;-;-;-;-;-;-;-;-;-;-;-;-;-;-;-
1511263877524;-;-;9.743698;-0.9155884;0.5010681;-;-;-;-;-;-;-;-;-;-;-;-;-;-;-
1511263877545;-;-;7.612854;-1.1238861;1.0481415;-;-;-;-;-;-;-;-;-;-;-;-;-;-;-
1511263877566;-;-;6.379837;-1.2388;1.3773499;-;-;-;-;-;-;-;-;-;-;-;-;-;-;-
1511263877586;-;-;6.977188;-1.1741638;1.5078278;-;-;-;-;-;-;-;-;-;-;-;-;-;-;-
1511263877606;-;-;8.297592;-0.98023987;1.0744781;-;-;-;-;-;-;-;-;-;-;-;-;-;-;-
1511263877627;-;-;9.200211;-0.5241394;0.7943573;-;-;-;-;-;-;-;-;-;-;-;-;-;-;-
1511263877646;-;-;9.681442;-0.20570374;0.43043518;-;-;-;-;-;-;-;-;-;-;-;-;-;-;-
1511263877666;-;-;9.5677185;-0.5061798;0.32987976;-;-;-;-;-;-;-;-;-;-;-;-;-;-;-
1511263877687;-;-;9.133179;-1.0843811;0.30593872;-;-;-;-;-;-;-;-;-;-;-;-;-;-;-
1511263877707;-;-;8.912903;-1.6829376;-0.18965149;-;-;-;-;-;-;-;-;-;-;-;-;-;-;-
1511263877727;-;-;9.044586;-1.743988;0.80992126;-;-;-;-;-;-;-;-;-;-;-;-;-;-;-
1511263877748;-;-;9.038605;-0.62828064;0.89012146;-;-;-;-;-;-;-;-;-;-;-;-;-;-;-
1511263877768;-;-;8.422089;0.5951538;0.56211853;-;-;-;-;-;-;-;-;-;-;-;-;-;-;-
1511263877788;-;-;8.135986;0.81062317;0.93562317;-;-;-;-;-;-;-;-;-;-;-;-;-;-;-
1511263877808;-;-;8.610046;0.70648193;0.81829834;-;-;-;-;-;-;-;-;-;-;-;-;-;-;-
1511263877829;-;-;8.608841;0.39523315;0.4986725;-;-;-;-;-;-;-;-;-;-;-;-;-;-;-
1511263877848;-;-;8.282028;0.38327026;0.20898438;-;-;-;-;-;-;-;-;-;-;-;-;-;-;-
1511263877868;-;-;7.9827576;0.13186646;-0.20761108;-;-;-;-;-;-;-;-;-;-;-;-;-;-;-
1511263877889;-;-;7.6822815;-0.40802002;-0.10824585;-;-;-;-;-;-;-;-;-;-;-;-;-;-;-
1511263877909;-;-;7.621231;-0.88087463;0.5597229;-;-;-;-;-;-;-;-;-;-;-;-;-;-;-
1511263877929;-;-;7.803192;-0.9048157;1.2181396;-;-;-;-;-;-;-;-;-;-;-;-;-;-;-
1511263877950;-;-;8.065353;-0.30267334;1.5569153;-;-;-;-;-;-;-;-;-;-;-;-;-;-;-
1511263877970;-;-;8.296402;1.046463;1.3988953;-;-;-;-;-;-;-;-;-;-;-;-;-;-;-
1511263877990;-;-;8.265274;1.8975983;2.1937714;-;-;-;-;-;-;-;-;-;-;-;-;-;-;-
1511263878010;-;-;7.8486786;1.4343262;2.4260101;-;-;-;-;-;-;-;-;-;-;-;-;-;-;-
1511263878031;-;-;7.593704;1.085968;2.4822693;-;-;-;-;-;-;-;-;-;-;-;-;-;-;-
1511263878051;-;-;7.308792;0.9243469;2.2668;-;-;-;-;-;-;-;-;-;-;-;-;-;-;-
1511263878071;-;-;7.055008;0.9470978;2.4463654;-;-;-;-;-;-;-;-;-;-;-;-;-;-;-
1511263878091;-;-;7.197464;1.2128601;2.9371643;-;-;-;-;-;-;-;-;-;-;-;-;-;-;-
1511263878112;-;-;8.560959;1.2044678;2.0848389;-;-;-;-;-;-;-;-;-;-;-;-;-;-;-
1511263878132;-;-;10.214157;0.21087646;0.75845337;-;-;-;-;-;-;-;-;-;-;-;-;-;-;-
1511263878151;-;-;11.105988;1.616272;-0.39675903;-;-;-;-;-;-;-;-;-;-;-;-;-;-;-
1511263878172;-;-;13.31105;3.6405792;0.08088684;-;-;-;-;-;-;-;-;-;-;-;-;-;-;-
1511263878192;-;-;15.71962;6.7721863;-1.4944916;-;-;-;-;-;-;-;-;-;-;-;-;-;-;-
1511263878212;-;-;18.126984;7.625717;-5.8184204;-;-;-;-;-;-;-;-;-;-;-;-;-;-;-
1511263878232;-;-;15.887222;1.7874603;-4.2526093;-;-;-;-;-;-;-;-;-;-;-;-;-;-;-
1511263878253;-;-;13.004593;-1.3621063;-1.143753;-;-;-;-;-;-;-;-;-;-;-;-;-;-;-
1511263878273;-;-;10.318298;-2.7890472;1.7065582;-;-;-;-;-;-;-;-;-;-;-;-;-;-;-
1511263878293;-;-;8.1922455;-2.6753235;2.457138;-;-;-;-;-;-;-;-;-;-;-;-;-;-;-
1511263878314;-;-;6.743759;-1.585968;2.4547424;-;-;-;-;-;-;-;-;-;-;-;-;-;-;-
1511263878334;-;-;6.0614166;-0.030929565;2.3649597;-;-;-;-;-;-;-;-;-;-;-;-;-;-;-
1511263878354;-;-;5.928528;0.98420715;2.1004028;-;-;-;-;-;-;-;-;-;-;-;-;-;-;-
1511263878374;-;-;6.0769806;1.753952;1.2337036;-;-;-;-;-;-;-;-;-;-;-;-;-;-;-
1511263878395;-;-;6.5821533;2.449463;0.51065063;-;-;-;-;-;-;-;-;-;-;-;-;-;-;-
1511263878415;-;-;7.051407;2.7319794;-0.05079651;-;-;-;-;-;-;-;-;-;-;-;-;-;-;-
1511263878435;-;-;8.116837;2.998932;0.27122498;-;-;-;-;-;-;-;-;-;-;-;-;-;-;-
1511263878456;-;-;9.697006;3.2180023;-0.05558777;-;-;-;-;-;-;-;-;-;-;-;-;-;-;-
1511263878476;-;-;11.122757;3.1916656;-0.36802673;-;-;-;-;-;-;-;-;-;-;-;-;-;-;-
1511263878497;-;-;11.937973;2.6529694;-0.86961365;-;-;-;-;-;-;-;-;-;-;-;-;-;-;-
1511263878517;-;-;11.382523;1.4427032;-0.43266296;-;-;-;-;-;-;-;-;-;-;-;-;-;-;-
1511263878537;-;-;10.457169;0.7411957;0.22932434;-;-;-;-;-;-;-;-;-;-;-;-;-;-;-
1511263878557;-;-;9.011063;0.62028503;0.7799988;-;-;-;-;-;-;-;-;-;-;-;-;-;-;-
1511263878578;-;-;7.454834;0.7795105;1.0684967;-;-;-;-;-;-;-;-;-;-;-;-;-;-;-
1511263878597;-;-;6.5187073;1.0213165;1.0278015;-;-;-;-;-;-;-;-;-;-;-;-;-;-;-
1511263878617;-;-;5.7848816;0.9650574;0.69021606;-;-;-;-;-;-;-;-;-;-;-;-;-;-;-
1511263878638;-;-;5.7226257;0.89442444;0.43164063;-;-;-;-;-;-;-;-;-;-;-;-;-;-;-
1511263878658;-;-;6.308014;1.3445435;-0.61701965;-;-;-;-;-;-;-;-;-;-;-;-;-;-;-
1511263878678;-;-;6.6743317;2.011322;-1.3149261;-;-;-;-;-;-;-;-;-;-;-;-;-;-;-
1511263878699;-;-;7.5518036;2.1166687;-0.7965851;-;-;-;-;-;-;-;-;-;-;-;-;-;-;-
1511263878719;-;-;9.777206;1.5731812;0.31072998;-;-;-;-;-;-;-;-;-;-;-;-;-;-;-
1511263878739;-;-;10.982697;0.091171265;0.45558167;-;-;-;-;-;-;-;-;-;-;-;-;-;-;-
1511263878759;-;-;9.25528;-1.1598053;1.2684174;-;-;-;-;-;-;-;-;-;-;-;-;-;-;-
1511263878780;-;-;6.735382;-1.0819855;3.0987854;-;-;-;-;-;-;-;-;-;-;-;-;-;-;-
1511263878799;-;-;5.5406647;-1.0652313;4.7124786;-;-;-;-;-;-;-;-;-;-;-;-;-;-;-
1511263878819;-;-;4.49321;-2.20607;3.9355469;-;-;-;-;-;-;-;-;-;-;-;-;-;-;-
1511263878840;-;-;6.4720154;-3.8221588;3.026947;-;-;-;-;-;-;-;-;-;-;-;-;-;-;-
1511263878859;-;-;9.086487;-4.9438324;4.552063;-;-;-;-;-;-;-;-;-;-;-;-;-;-;-
1511263878879;-;-;10.302734;-3.3181763;4.14624;-;-;-;-;-;-;-;-;-;-;-;-;-;-;-
1511263878900;-;-;9.884949;-2.3066254;4.089981;-;-;-;-;-;-;-;-;-;-;-;-;-;-;-
1511263878920;-;-;9.082901;-1.4267578;2.7228851;-;-;-;-;-;-;-;-;-;-;-;-;-;-;-
1511263878940;-;-;8.070145;-0.15782166;2.3027039;-;-;-;-;-;-;-;-;-;-;-;-;-;-;-
1511263878960;-;-;8.373016;1.1936951;2.2620087;-;-;-;-;-;-;-;-;-;-;-;-;-;-;-
1511263878981;-;-;9.264847;2.0568085;1.7089386;-;-;-;-;-;-;-;-;-;-;-;-;-;-;-
1511263879001;-;-;10.836639;1.8628845;0.1826477;-;-;-;-;-;-;-;-;-;-;-;-;-;-;-
1511263879021;-;-;11.930801;0.76753235;0.053359985;-;-;-;-;-;-;-;-;-;-;-;-;-;-;-
1511263879041;-;-;12.886078;-0.8928528;0.429245;-;-;-;-;-;-;-;-;-;-;-;-;-;-;-
1511263879061;-;-;14.323807;-2.2431793;1.5485382;-;-;-;-;-;-;-;-;-;-;-;-;-;-;-
1511263879082;-;-;17.886368;-4.300995;0.28559875;-;-;-;-;-;-;-;-;-;-;-;-;-;-;-
1511263879102;-;-;17.919891;-6.7586365;-1.3640137;-;-;-;-;-;-;-;-;-;-;-;-;-;-;-
1511263879122;-;-;12.6311035;-3.0859375;-0.97854614;-;-;-;-;-;-;-;-;-;-;-;-;-;-;-
1511263879143;-;-;7.8391113;0.18814087;0.83506775;-;-;-;-;-;-;-;-;-;-;-;-;-;-;-
1511263879163;-;-;5.134857;2.0244904;1.6550751;-;-;-;-;-;-;-;-;-;-;-;-;-;-;-
1511263879183;-;-;4.7374115;2.0173035;1.6778259;-;-;-;-;-;-;-;-;-;-;-;-;-;-;-
1511263879203;-;-;5.54187;0.7112732;1.0146332;-;-;-;-;-;-;-;-;-;-;-;-;-;-;-
1511263879224;-;-;6.2733;-0.16021729;0.7692261;-;-;-;-;-;-;-;-;-;-;-;-;-;-;-
1511263879244;-;-;7.581726;-0.5361023;1.0589142;-;-;-;-;-;-;-;-;-;-;-;-;-;-;-
1511263879264;-;-;9.471954;-0.6246948;0.6950073;-;-;-;-;-;-;-;-;-;-;-;-;-;-;-
1511263879285;-;-;11.341827;-0.8533478;0.1826477;-;-;-;-;-;-;-;-;-;-;-;-;-;-;-
1511263879305;-;-;11.536957;-1.0688171;0.006668091;-;-;-;-;-;-;-;-;-;-;-;-;-;-;-
1511263879325;-;-;11.032974;-1.4590759;0.82907104;-;-;-;-;-;-;-;-;-;-;-;-;-;-;-
1511263879345;-;-;10.02861;-2.1258545;1.883728;-;-;-;-;-;-;-;-;-;-;-;-;-;-;-
1511263879365;-;-;9.169083;-2.8177795;2.1183472;-;-;-;-;-;-;-;-;-;-;-;-;-;-;-
1511263879385;-;-;8.298798;-2.7902527;2.3889008;-;-;-;-;-;-;-;-;-;-;-;-;-;-;-
1511263879405;-;-;7.908539;-2.4813995;2.0034332;-;-;-;-;-;-;-;-;-;-;-;-;-;-;-
1511263879426;-;-;7.7050323;-2.103119;1.4539642;-;-;-;-;-;-;-;-;-;-;-;-;-;-;-
1511263879446;-;-;7.770874;-1.4842072;0.642334;-;-;-;-;-;-;-;-;-;-;-;-;-;-;-
1511263879466;-;-;8.353867;-0.9048157;0.38494873;-;-;-;-;-;-;-;-;-;-;-;-;-;-;-
1511263879486;-;-;9.410904;-0.6989136;-0.18247986;-;-;-;-;-;-;-;-;-;-;-;-;-;-;-
1511263879507;-;-;10.233307;0.1618042;-0.0914917;-;-;-;-;-;-;-;-;-;-;-;-;-;-;-
1511263879527;-;-;10.502655;1.619873;-0.30218506;-;-;-;-;-;-;-;-;-;-;-;-;-;-;-
1511263879547;-;-;11.225708;2.4542542;0.16229248;-;-;-;-;-;-;-;-;-;-;-;-;-;-;-
1511263879568;-;-;10.139938;1.2439728;0.20898438;-;-;-;-;-;-;-;-;-;-;-;-;-;-;-
1511263879588;-;-;9.085281;0.5161438;0.53338623;-;-;-;-;-;-;-;-;-;-;-;-;-;-;-
1511263879608;-;-;8.436462;0.6921234;1.6945801;-;-;-;-;-;-;-;-;-;-;-;-;-;-;-
1511263879629;-;-;7.7205963;0.028915405;2.8294373;-;-;-;-;-;-;-;-;-;-;-;-;-;-;-
1511263879649;-;-;7.1004944;-0.25837708;2.5816345;-;-;-;-;-;-;-;-;-;-;-;-;-;-;-
1511263879669;-;-;6.388214;-0.22845459;2.1590576;-;-;-;-;-;-;-;-;-;-;-;-;-;-;-
1511263879689;-;-;6.090149;-0.82580566;1.6263428;-;-;-;-;-;-;-;-;-;-;-;-;-;-;-
1511263879709;-;-;6.3606873;-1.1825409;1.0637054;-;-;-;-;-;-;-;-;-;-;-;-;-;-;-
1511263879729;-;-;6.9939575;-0.7096863;0.7512665;-;-;-;-;-;-;-;-;-;-;-;-;-;-;-
1511263879750;-;-;7.1819;0.115112305;1.0445557;-;-;-;-;-;-;-;-;-;-;-;-;-;-;-
1511263879770;-;-;7.28125;0.67056274;1.5257874;-;-;-;-;-;-;-;-;-;-;-;-;-;-;-
1511263879790;-;-;7.241745;0.927948;1.2061615;-;-;-;-;-;-;-;-;-;-;-;-;-;-;-
1511263879811;-;-;6.3977966;1.0009613;1.6694489;-;-;-;-;-;-;-;-;-;-;-;-;-;-;-
1511263879831;-;-;5.995575;0.52212524;2.2177124;-;-;-;-;-;-;-;-;-;-;-;-;-;-;-
1511263879851;-;-;5.4485016;0.20010376;1.4539642;-;-;-;-;-;-;-;-;-;-;-;-;-;-;-
1511263879872;-;-;6.7677;0.33776855;1.2037659;-;-;-;-;-;-;-;-;-;-;-;-;-;-;-
1511263879892;-;-;8.364639;1.0213165;3.0544891;-;-;-;-;-;-;-;-;-;-;-;-;-;-;-
1511263879913;-;-;9.59166;2.390808;0.5381775;-;-;-;-;-;-;-;-;-;-;-;-;-;-;-
1511263879933;-;-;12.854965;3.652542;-0.5128784;-;-;-;-;-;-;-;-;-;-;-;-;-;-;-
1511263879953;-;-;15.522095;4.504883;-1.832077;-;-;-;-;-;-;-;-;-;-;-;-;-;-;-
1511263879973;-;-;16.127838;2.9354858;-1.9673462;-;-;-;-;-;-;-;-;-;-;-;-;-;-;-
1511263879994;-;-;16.70842;0.2743225;-1.3999176;-;-;-;-;-;-;-;-;-;-;-;-;-;-;-
1511263880014;-;-;16.516891;-0.20570374;-1.3688049;-;-;-;-;-;-;-;-;-;-;-;-;-;-;-
1511263880034;-;-;15.037277;1.303833;-0.496109;-;-;-;-;-;-;-;-;-;-;-;-;-;-;-
1511263880055;-;-;12.165436;2.098709;1.4036865;-;-;-;-;-;-;-;-;-;-;-;-;-;-;-
1511263880076;-;-;9.014664;1.0847626;2.6259308;-;-;-;-;-;-;-;-;-;-;-;-;-;-;-
1511263880097;-;-;7.3614655;-0.5672302;2.855774;-;-;-;-;-;-;-;-;-;-;-;-;-;-;-
1511263880117;-;-;7.93248;-1.2723236;2.3876953;-;-;-;-;-;-;-;-;-;-;-;-;-;-;-
1511263880138;-;-;8.578918;-1.0951538;1.3354492;-;-;-;-;-;-;-;-;-;-;-;-;-;-;-
1511263880158;-;-;8.669891;-0.5217438;0.122787476;-;-;-;-;-;-;-;-;-;-;-;-;-;-;-
1511263880178;-;-;8.302383;0.41438293;0.03540039;-;-;-;-;-;-;-;-;-;-;-;-;-;-;-
1511263880199;-;-;7.34111;1.3074188;0.3418579;-;-;-;-;-;-;-;-;-;-;-;-;-;-;-
1511263880218;-;-;6.7162323;1.8808441;0.05455017;-;-;-;-;-;-;-;-;-;-;-;-;-;-;-
1511263880238;-;-;6.4803925;2.1250458;-0.078323364;-;-;-;-;-;-;-;-;-;-;-;-;-;-;-
1511263880259;-;-;6.9113464;2.0759583;-0.123809814;-;-;-;-;-;-;-;-;-;-;-;-;-;-;-
1511263880278;-;-;7.1998596;1.908371;-0.026855469;-;-;-;-;-;-;-;-;-;-;-;-;-;-;-
1511263880298;-;-;7.1639404;1.7156372;-1.1736755;-;-;-;-;-;-;-;-;-;-;-;-;-;-;-
1511263880318;-;-;6.711441;1.0488586;-0.922287;-;-;-;-;-;-;-;-;-;-;-;-;-;-;-
1511263880339;-;-;5.741791;-0.25958252;0.08807373;-;-;-;-;-;-;-;-;-;-;-;-;-;-;-
1511263880359;-;-;5.268936;-0.8569336;1.3725586;-;-;-;-;-;-;-;-;-;-;-;-;-;-;-
1511263880379;-;-;5.79924;-0.22845459;1.4204407;-;-;-;-;-;-;-;-;-;-;-;-;-;-;-
1511263880400;-;-;7.205841;0.74957275;0.12397766;-;-;-;-;-;-;-;-;-;-;-;-;-;-;-
1511263880420;-;-;9.570114;1.9011841;-0.9151001;-;-;-;-;-;-;-;-;-;-;-;-;-;-;-
1511263880441;-;-;11.940369;1.4367065;-0.6900482;-;-;-;-;-;-;-;-;-;-;-;-;-;-;-
1511263880461;-;-;14.259155;-0.8425598;0.5489502;-;-;-;-;-;-;-;-;-;-;-;-;-;-;-
1511263880481;-;-;13.148254;-1.6075134;2.60318;-;-;-;-;-;-;-;-;-;-;-;-;-;-;-
1511263880501;-;-;11.006638;-2.0037537;3.3453827;-;-;-;-;-;-;-;-;-;-;-;-;-;-;-
1511263880522;-;-;8.808762;-2.4335175;4.3521423;-;-;-;-;-;-;-;-;-;-;-;-;-;-;-
1511263880541;-;-;7.2752686;-2.882431;4.9459076;-;-;-;-;-;-;-;-;-;-;-;-;-;-;-
1511263880561;-;-;6.6791077;-2.7052612;4.354538;-;-;-;-;-;-;-;-;-;-;-;-;-;-;-
1511263880582;-;-;6.901779;-1.0388947;3.425583;-;-;-;-;-;-;-;-;-;-;-;-;-;-;-
1511263880601;-;-;7.6104584;0.31143188;1.4407959;-;-;-;-;-;-;-;-;-;-;-;-;-;-;-
1511263880621;-;-;7.8403015;1.3936157;1.334259;-;-;-;-;-;-;-;-;-;-;-;-;-;-;-
1511263880642;-;-;7.715805;2.2339783;3.1873627;-;-;-;-;-;-;-;-;-;-;-;-;-;-;-
1511263880661;-;-;6.960434;1.2439728;3.8158417;-;-;-;-;-;-;-;-;-;-;-;-;-;-;-
1511263880681;-;-;6.2505493;-0.17459106;2.2955322;-;-;-;-;-;-;-;-;-;-;-;-;-;-;-
1511263880702;-;-;6.340332;-1.1921234;1.8717499;-;-;-;-;-;-;-;-;-;-;-;-;-;-;-
1511263880722;-;-;6.7365723;-1.0508575;1.646698;-;-;-;-;-;-;-;-;-;-;-;-;-;-;-
1511263880742;-;-;9.826294;-1.4842072;0.44360352;-;-;-;-;-;-;-;-;-;-;-;-;-;-;-
1511263880763;-;-;14.563217;-0.4379425;-0.28901672;-;-;-;-;-;-;-;-;-;-;-;-;-;-;-
1511263880783;-;-;19.926239;1.2715149;1.236084;-;-;-;-;-;-;-;-;-;-;-;-;-;-;-
1511263880803;-;-;25.89737;-1.1203003;-2.4114685;-;-;-;-;-;-;-;-;-;-;-;-;-;-;-
1511263880823;-;-;17.703217;-4.870819;-5.930954;-;-;-;-;-;-;-;-;-;-;-;-;-;-;-
1511263880844;-;-;12.968689;-3.289444;-2.1433258;-;-;-;-;-;-;-;-;-;-;-;-;-;-;-
1511263880864;-;-;5.6376343;-0.5732269;-0.40992737;-;-;-;-;-;-;-;-;-;-;-;-;-;-;-
1511263880884;-;-;4.141266;1.0129395;0.38136292;-;-;-;-;-;-;-;-;-;-;-;-;-;-;-
1511263880904;-;-;3.9389496;0.98779297;0.7033844;-;-;-;-;-;-;-;-;-;-;-;-;-;-;-
1511263880925;-;-;5.69989;0.31143188;0.71894836;-;-;-;-;-;-;-;-;-;-;-;-;-;-;-
1511263880945;-;-;7.8714294;-0.4379425;0.5561371;-;-;-;-;-;-;-;-;-;-;-;-;-;-;-
1511263880965;-;-;10.064514;-1.4949799;0.7799988;-;-;-;-;-;-;-;-;-;-;-;-;-;-;-
1511263880985;-;-;11.618347;-1.7942657;0.10003662;-;-;-;-;-;-;-;-;-;-;-;-;-;-;-
1511263881006;-;-;12.501816;-1.5847626;-0.46139526;-;-;-;-;-;-;-;-;-;-;-;-;-;-;-
1511263881027;-;-;10.734894;-1.5189362;-0.48054504;-;-;-;-;-;-;-;-;-;-;-;-;-;-;-
1511263881047;-;-;8.8051605;-1.4937897;-0.15853882;-;-;-;-;-;-;-;-;-;-;-;-;-;-;-
1511263881067;-;-;7.5242615;-1.530899;0.5118408;-;-;-;-;-;-;-;-;-;-;-;-;-;-;-
1511263881088;-;-;7.550598;-1.9474945;0.83506775;-;-;-;-;-;-;-;-;-;-;-;-;-;-;-
1511263881108;-;-;8.471176;-1.9211578;0.6650696;-;-;-;-;-;-;-;-;-;-;-;-;-;-;-
1511263881128;-;-;9.31633;-1.6589966;0.14074707;-;-;-;-;-;-;-;-;-;-;-;-;-;-;-
1511263881149;-;-;9.610809;-1.3908386;-0.2171936;-;-;-;-;-;-;-;-;-;-;-;-;-;-;-
1511263881169;-;-;9.645538;-1.0161438;-0.25909424;-;-;-;-;-;-;-;-;-;-;-;-;-;-;-
1511263881189;-;-;9.659897;-0.7276459;-0.07473755;-;-;-;-;-;-;-;-;-;-;-;-;-;-;-
1511263881209;-;-;9.589264;-0.8353882;0.15750122;-;-;-;-;-;-;-;-;-;-;-;-;-;-;-
1511263881230;-;-;8.928467;-1.1083221;0.20059204;-;-;-;-;-;-;-;-;-;-;-;-;-;-;-
1511263881251;-;-;8.40892;-0.9945984;0.2927704;-;-;-;-;-;-;-;-;-;-;-;-;-;-;-
1511263881271;-;-;8.121628;-0.5349121;0.58366394;-;-;-;-;-;-;-;-;-;-;-;-;-;-;-
1511263881291;-;-;7.8546753;-0.36611938;0.7249298;-;-;-;-;-;-;-;-;-;-;-;-;-;-;-
1511263881311;-;-;8.001907;-0.80426025;0.06652832;-;-;-;-;-;-;-;-;-;-;-;-;-;-;-
1511263881332;-;-;8.74292;-0.8772888;-0.67448425;-;-;-;-;-;-;-;-;-;-;-;-;-;-;-
1511263881352;-;-;8.923676;0.4287567;-0.64456177;-;-;-;-;-;-;-;-;-;-;-;-;-;-;-
1511263881372;-;-;9.995087;1.0392761;-0.049591064;-;-;-;-;-;-;-;-;-;-;-;-;-;-;-
1511263881393;-;-;10.758835;0.83695984;1.275589;-;-;-;-;-;-;-;-;-;-;-;-;-;-;-
1511263881413;-;-;10.95636;0.576004;1.6790161;-;-;-;-;-;-;-;-;-;-;-;-;-;-;-
1511263881432;-;-;10.773193;-0.42237854;1.1499023;-;-;-;-;-;-;-;-;-;-;-;-;-;-;-
1511263881453;-;-;9.506668;-1.2866974;0.7368927;-;-;-;-;-;-;-;-;-;-;-;-;-;-;-
1511263881473;-;-;9.00029;-1.5332947;0.8374634;-;-;-;-;-;-;-;-;-;-;-;-;-;-;-
1511263881493;-;-;9.892136;-2.5137177;-0.57032776;-;-;-;-;-;-;-;-;-;-;-;-;-;-;-
1511263881514;-;-;11.23288;-3.8688354;-0.6732788;-;-;-;-;-;-;-;-;-;-;-;-;-;-;-
1511263881534;-;-;11.594406;-2.183319;-0.85284424;-;-;-;-;-;-;-;-;-;-;-;-;-;-;-
1511263881554;-;-;13.616318;-0.97184753;-1.069519;-;-;-;-;-;-;-;-;-;-;-;-;-;-;-
1511263881575;-;-;13.0620575;-1.5380859;-1.2730255;-;-;-;-;-;-;-;-;-;-;-;-;-;-;-
1511263881595;-;-;11.050934;-2.372467;-1.9829102;-;-;-;-;-;-;-;-;-;-;-;-;-;-;-
1511263881615;-;-;8.519058;-2.009735;-1.4633789;-;-;-;-;-;-;-;-;-;-;-;-;-;-;-
1511263881635;-;-;6.0027466;-0.97424316;-1.3915405;-;-;-;-;-;-;-;-;-;-;-;-;-;-;-
1511263881656;-;-;4.4142;-0.112335205;-2.2594452;-;-;-;-;-;-;-;-;-;-;-;-;-;-;-
1511263881676;-;-;4.3806763;0.31982422;-2.4258423;-;-;-;-;-;-;-;-;-;-;-;-;-;-;-
1511263881696;-;-;5.54187;0.53289795;-2.1924133;-;-;-;-;-;-;-;-;-;-;-;-;-;-;-
1511263881717;-;-;6.94368;1.4762115;-2.7837677;-;-;-;-;-;-;-;-;-;-;-;-;-;-;-
1511263881737;-;-;9.431244;1.4869843;-3.111786;-;-;-;-;-;-;-;-;-;-;-;-;-;-;-
1511263881757;-;-;11.426819;0.86450195;-2.8927155;-;-;-;-;-;-;-;-;-;-;-;-;-;-;-
1511263881777;-;-;12.534134;-0.61990356;-2.4042969;-;-;-;-;-;-;-;-;-;-;-;-;-;-;-
1511263881798;-;-;12.356964;-1.0305176;-2.614975;-;-;-;-;-;-;-;-;-;-;-;-;-;-;-
1511263881819;-;-;11.496246;-1.1981049;-3.033966;-;-;-;-;-;-;-;-;-;-;-;-;-;-;-
1511263881839;-;-;10.195007;-0.57681274;-1.5615387;-;-;-;-;-;-;-;-;-;-;-;-;-;-;-
1511263881859;-;-;8.814743;-0.28112793;-1.1329651;-;-;-;-;-;-;-;-;-;-;-;-;-;-;-
1511263881880;-;-;7.10289;-0.0105896;-1.6513214;-;-;-;-;-;-;-;-;-;-;-;-;-;-;-
1511263881900;-;-;5.9584656;0.24320984;-1.456192;-;-;-;-;-;-;-;-;-;-;-;-;-;-;-
1511263881920;-;-;6.841919;0.47903442;-1.2466888;-;-;-;-;-;-;-;-;-;-;-;-;-;-;-
1511263881940;-;-;8.748901;0.79745483;-1.2335358;-;-;-;-;-;-;-;-;-;-;-;-;-;-;-
1511263881961;-;-;10.630753;1.2296143;-1.3508453;-;-;-;-;-;-;-;-;-;-;-;-;-;-;-
1511263881981;-;-;11.314285;1.1577911;-1.5962524;-;-;-;-;-;-;-;-;-;-;-;-;-;-;-
1511263882001;-;-;10.385345;0.9602661;-1.5076599;-;-;-;-;-;-;-;-;-;-;-;-;-;-;-
1511263882021;-;-;9.250488;0.65141296;-0.98812866;-;-;-;-;-;-;-;-;-;-;-;-;-;-;-
1511263882042;-;-;8.559753;0.45628357;-0.6792755;-;-;-;-;-;-;-;-;-;-;-;-;-;-;-
1511263882062;-;-;7.85347;-0.14225769;-0.037628174;-;-;-;-;-;-;-;-;-;-;-;-;-;-;-
1511263882083;-;-;7.707428;-0.46907043;-0.1489563;-;-;-;-;-;-;-;-;-;-;-;-;-;-;-
1511263882103;-;-;7.995926;-0.50019836;-0.040023804;-;-;-;-;-;-;-;-;-;-;-;-;-;-;-
1511263882123;-;-;8.361038;-0.121917725;0.2053833;-;-;-;-;-;-;-;-;-;-;-;-;-;-;-
1511263882143;-;-;8.616028;0.12588501;0.52381897;-;-;-;-;-;-;-;-;-;-;-;-;-;-;-
1511263882164;-;-;9.125992;0.046875;0.6842346;-;-;-;-;-;-;-;-;-;-;-;-;-;-;-
1511263882184;-;-;9.675461;-0.14346313;0.74768066;-;-;-;-;-;-;-;-;-;-;-;-;-;-;-
1511263882204;-;-;9.674255;-0.1925354;0.9056854;-;-;-;-;-;-;-;-;-;-;-;-;-;-;-
1511263882224;-;-;9.361816;-0.17098999;0.721344;-;-;-;-;-;-;-;-;-;-;-;-;-;-;-
1511263882245;-;-;9.094864;-0.26556396;0.6100006;-;-;-;-;-;-;-;-;-;-;-;-;-;-;-
1511263882265;-;-;9.31633;-0.23443604;0.9463959;-;-;-;-;-;-;-;-;-;-;-;-;-;-;-
1511263882286;-;-;9.640747;-0.35176086;1.1989746;-;-;-;-;-;-;-;-;-;-;-;-;-;-;-
1511263882306;-;-;9.9077;-0.8461609;1.1319427;-;-;-;-;-;-;-;-;-;-;-;-;-;-;-
1511263882325;-;-;10.22493;-1.1801453;0.9128723;-;-;-;-;-;-;-;-;-;-;-;-;-;-;-
1511263882345;-;-;9.895721;-1.2088776;0.9499817;-;-;-;-;-;-;-;-;-;-;-;-;-;-;-
1511263882365;-;-;9.2313385;-0.85572815;0.8374634;-;-;-;-;-;-;-;-;-;-;-;-;-;-;-
1511263882385;-;-;8.756088;-0.71687317;0.8913269;-;-;-;-;-;-;-;-;-;-;-;-;-;-;-
1511263882406;-;-;8.32872;-0.502594;0.95596313;-;-;-;-;-;-;-;-;-;-;-;-;-;-;-
1511263882426;-;-;8.180283;-0.16500854;1.1786346;-;-;-;-;-;-;-;-;-;-;-;-;-;-;-
1511263882447;-;-;8.774048;0.29588318;0.7428894;-;-;-;-;-;-;-;-;-;-;-;-;-;-;-
1511263882467;-;-;9.785599;1.0380707;-0.9079132;-;-;-;-;-;-;-;-;-;-;-;-;-;-;-
1511263882487;-;-;13.994598;0.86569214;-3.025589;-;-;-;-;-;-;-;-;-;-;-;-;-;-;-
1511263882507;-;-;12.469498;2.0520172;-3.9282074;-;-;-;-;-;-;-;-;-;-;-;-;-;-;-
1511263882527;-;-;12.414429;3.3616486;-4.2178955;-;-;-;-;-;-;-;-;-;-;-;-;-;-;-
1511263882548;-;-;10.634338;1.8676758;-2.2750092;-;-;-;-;-;-;-;-;-;-;-;-;-;-;-
1511263882568;-;-;9.77243;1.0811768;-1.0898743;-;-;-;-;-;-;-;-;-;-;-;-;-;-;-
1511263882588;-;-;8.291611;0.3617096;-0.5032959;-;-;-;-;-;-;-;-;-;-;-;-;-;-;-
1511263882609;-;-;7.4105377;-0.050079346;0.04019165;-;-;-;-;-;-;-;-;-;-;-;-;-;-;-
1511263882629;-;-;6.8000183;-0.23085022;-0.1776886;-;-;-;-;-;-;-;-;-;-;-;-;-;-;-
1511263882649;-;-;7.292038;-0.641449;-1.2371216;-;-;-;-;-;-;-;-;-;-;-;-;-;-;-
1511263882670;-;-;7.4332886;-1.0987396;-2.0248108;-;-;-;-;-;-;-;-;-;-;-;-;-;-;-
1511263882690;-;-;7.7026367;-1.5907593;-2.3288727;-;-;-;-;-;-;-;-;-;-;-;-;-;-;-
1511263882710;-;-;8.333511;-1.5153351;-2.0224152;-;-;-;-;-;-;-;-;-;-;-;-;-;-;-
1511263882731;-;-;8.740524;-0.8210144;-1.6908264;-;-;-;-;-;-;-;-;-;-;-;-;-;-;-
1511263882751;-;-;9.379776;0.33537292;-1.1868439;-;-;-;-;-;-;-;-;-;-;-;-;-;-;-
1511263882771;-;-;9.718552;1.7359924;-0.91389465;-;-;-;-;-;-;-;-;-;-;-;-;-;-;-
1511263882792;-;-;10.487091;2.7451477;-0.72117615;-;-;-;-;-;-;-;-;-;-;-;-;-;-;-
1511263882811;-;-;11.277176;2.6733246;-0.6601105;-;-;-;-;-;-;-;-;-;-;-;-;-;-;-
1511263882831;-;-;11.326263;1.4343262;-0.9653778;-;-;-;-;-;-;-;-;-;-;-;-;-;-;-
1511263882852;-;-;10.537369;0.36889648;-0.9438324;-;-;-;-;-;-;-;-;-;-;-;-;-;-;-
1511263882872;-;-;8.794388;-0.29548645;-0.34527588;-;-;-;-;-;-;-;-;-;-;-;-;-;-;-
1511263882893;-;-;6.712631;-0.90960693;0.34664917;-;-;-;-;-;-;-;-;-;-;-;-;-;-;-
1511263882913;-;-;6.2278137;-1.1430359;0.8506317;-;-;-;-;-;-;-;-;-;-;-;-;-;-;-
1511263882932;-;-;6.742569;-1.3022614;0.5944519;-;-;-;-;-;-;-;-;-;-;-;-;-;-;-
1511263882952;-;-;7.8786163;-0.9275665;0.28199768;-;-;-;-;-;-;-;-;-;-;-;-;-;-;-
1511263882973;-;-;8.847061;-0.32063293;0.065322876;-;-;-;-;-;-;-;-;-;-;-;-;-;-;-
1511263882993;-;-;9.540192;0.072021484;0.084472656;-;-;-;-;-;-;-;-;-;-;-;-;-;-;-
1511263883013;-;-;9.770035;0.33299255;0.42684937;-;-;-;-;-;-;-;-;-;-;-;-;-;-;-
1511263883034;-;-;9.770035;0.35453796;0.53100586;-;-;-;-;-;-;-;-;-;-;-;-;-;-;-
1511263883054;-;-;9.333084;0.16059875;0.7644348;-;-;-;-;-;-;-;-;-;-;-;-;-;-;-
1511263883074;-;-;9.147537;-0.052474976;1.0397644;-;-;-;-;-;-;-;-;-;-;-;-;-;-;-
1511263883094;-;-;9.020645;-0.097976685;0.8925171;-;-;-;-;-;-;-;-;-;-;-;-;-;-;-
1511263883115;-;-;9.020645;-0.1482544;0.923645;-;-;-;-;-;-;-;-;-;-;-;-;-;-;-
1511263883135;-;-;9.039795;-0.093185425;0.8482361;-;-;-;-;-;-;-;-;-;-;-;-;-;-;-
1511263883156;-;-;9.082901;-0.20570374;0.7225342;-;-;-;-;-;-;-;-;-;-;-;-;-;-;-
1511263883176;-;-;8.8602295;-0.86291504;0.45677185;-;-;-;-;-;-;-;-;-;-;-;-;-;-;-
1511263883196;-;-;9.129578;-1.6996918;0.51065063;-;-;-;-;-;-;-;-;-;-;-;-;-;-;-
1511263883217;-;-;9.485123;-1.874466;0.7907715;-;-;-;-;-;-;-;-;-;-;-;-;-;-;-
1511263883236;-;-;9.831085;-1.9271393;1.0098419;-;-;-;-;-;-;-;-;-;-;-;-;-;-;-
1511263883256;-;-;9.906494;-2.490982;1.3905182;-;-;-;-;-;-;-;-;-;-;-;-;-;-;-
1511263883276;-;-;9.3941345;-2.353302;1.9854736;-;-;-;-;-;-;-;-;-;-;-;-;-;-;-
1511263883297;-;-;8.859039;-2.5723724;1.7999268;-;-;-;-;-;-;-;-;-;-;-;-;-;-;-
1511263883317;-;-;9.822708;-1.9247437;0.96554565;-;-;-;-;-;-;-;-;-;-;-;-;-;-;-
1511263883337;-;-;11.152679;-1.5093536;1.0924377;-;-;-;-;-;-;-;-;-;-;-;-;-;-;-
1511263883358;-;-;10.793549;-2.2192383;-1.0767059;-;-;-;-;-;-;-;-;-;-;-;-;-;-;-
1511263883378;-;-;12.829819;-2.2563477;-1.2275391;-;-;-;-;-;-;-;-;-;-;-;-;-;-;-
1511263883399;-;-;15.106705;-1.8553162;-0.76187134;-;-;-;-;-;-;-;-;-;-;-;-;-;-;-
1511263883418;-;-;12.837006;-1.8792572;-2.768219;-;-;-;-;-;-;-;-;-;-;-;-;-;-;-
1511263883439;-;-;9.911285;-1.7092743;-2.5754852;-;-;-;-;-;-;-;-;-;-;-;-;-;-;-
1511263883459;-;-;6.8443146;-0.9359436;-1.8584137;-;-;-;-;-;-;-;-;-;-;-;-;-;-;-
1511263883479;-;-;4.6392517;0.15820313;-1.8656006;-;-;-;-;-;-;-;-;-;-;-;-;-;-;-
1511263883500;-;-;3.8838806;1.2080688;-2.0643158;-;-;-;-;-;-;-;-;-;-;-;-;-;-;-
1511263883520;-;-;4.5554657;1.8233795;-1.9314423;-;-;-;-;-;-;-;-;-;-;-;-;-;-;-
1511263883541;-;-;6.5474396;1.4869843;-1.7267303;-;-;-;-;-;-;-;-;-;-;-;-;-;-;-
1511263883561;-;-;9.037399;0.39881897;-1.4980927;-;-;-;-;-;-;-;-;-;-;-;-;-;-;-
1511263883581;-;-;11.155075;-0.76475525;-1.258667;-;-;-;-;-;-;-;-;-;-;-;-;-;-;-
1511263883601;-;-;12.313873;-1.7487793;-1.1736755;-;-;-;-;-;-;-;-;-;-;-;-;-;-;-
1511263883621;-;-;13.817429;-2.3952026;-1.258667;-;-;-;-;-;-;-;-;-;-;-;-;-;-;-
1511263883642;-;-;13.305069;-1.6051178;-1.4154816;-;-;-;-;-;-;-;-;-;-;-;-;-;-;-
1511263883662;-;-;10.372177;-0.7671509;-1.6273804;-;-;-;-;-;-;-;-;-;-;-;-;-;-;-
1511263883682;-;-;7.700241;-0.8988342;-1.0802917;-;-;-;-;-;-;-;-;-;-;-;-;-;-;-
1511263883703;-;-;6.791641;-1.0616302;-0.13578796;-;-;-;-;-;-;-;-;-;-;-;-;-;-;-
1511263883723;-;-;6.7485504;-0.59954834;0.3023529;-;-;-;-;-;-;-;-;-;-;-;-;-;-;-
1511263883744;-;-;7.5518036;0.04447937;-0.16810608;-;-;-;-;-;-;-;-;-;-;-;-;-;-;-
1511263883764;-;-;8.517868;0.44311523;-0.5894928;-;-;-;-;-;-;-;-;-;-;-;-;-;-;-
1511263883784;-;-;9.353439;0.34136963;-0.8396759;-;-;-;-;-;-;-;-;-;-;-;-;-;-;-
1511263883805;-;-;9.49469;0.09715271;-0.5930786;-;-;-;-;-;-;-;-;-;-;-;-;-;-;-
1511263883825;-;-;9.808334;-0.19493103;-0.47097778;-;-;-;-;-;-;-;-;-;-;-;-;-;-;-
1511263883845;-;-;9.655106;-0.44273376;-0.3009796;-;-;-;-;-;-;-;-;-;-;-;-;-;-;-
1511263883865;-;-;9.249298;-0.37928772;-0.38478088;-;-;-;-;-;-;-;-;-;-;-;-;-;-;-
1511263883885;-;-;8.493927;-0.3254242;-0.3261261;-;-;-;-;-;-;-;-;-;-;-;-;-;-;-
1511263883906;-;-;8.019867;-0.20211792;-0.2794342;-;-;-;-;-;-;-;-;-;-;-;-;-;-;-
1511263883926;-;-;8.07373;0.083984375;-0.23394775;-;-;-;-;-;-;-;-;-;-;-;-;-;-;-
1511263883946;-;-;8.373016;0.35453796;0.082092285;-;-;-;-;-;-;-;-;-;-;-;-;-;-;-
1511263883966;-;-;8.778824;0.87527466;-0.2507019;-;-;-;-;-;-;-;-;-;-;-;-;-;-;-
1511263883986;-;-;9.123596;1.7048645;-0.4051361;-;-;-;-;-;-;-;-;-;-;-;-;-;-;-
1511263884006;-;-;9.111618;1.6785278;-0.12860107;-;-;-;-;-;-;-;-;-;-;-;-;-;-;-
1511263884026;-;-;9.043396;0.96984863;0.30474854;-;-;-;-;-;-;-;-;-;-;-;-;-;-;-
1511263884047;-;-;9.210983;0.19770813;0.7225342;-;-;-;-;-;-;-;-;-;-;-;-;-;-;-
1511263884066;-;-;9.444412;-0.48703003;0.8913269;-;-;-;-;-;-;-;-;-;-;-;-;-;-;-
1511263884086;-;-;9.695816;-0.7982788;0.6710663;-;-;-;-;-;-;-;-;-;-;-;-;-;-;-
1511263884106;-;-;9.799957;-1.0005798;0.7979584;-;-;-;-;-;-;-;-;-;-;-;-;-;-;-
1511263884127;-;-;9.613205;-0.9084015;0.7763977;-;-;-;-;-;-;-;-;-;-;-;-;-;-;-
1511263884147;-;-;9.017059;-0.5528717;0.90449524;-;-;-;-;-;-;-;-;-;-;-;-;-;-;-
1511263884167;-;-;8.558563;-0.46427917;0.98469543;-;-;-;-;-;-;-;-;-;-;-;-;-;-;-
1511263884188;-;-;8.357452;-0.33021545;1.057724;-;-;-;-;-;-;-;-;-;-;-;-;-;-;-
1511263884208;-;-;8.400543;-0.30506897;1.1307526;-;-;-;-;-;-;-;-;-;-;-;-;-;-;-
1511263884228;-;-;8.299988;0.07321167;0.8625946;-;-;-;-;-;-;-;-;-;-;-;-;-;-;-
