TimeStamp[ms];Prox[Cm];Lux[lux];AccX[m/s^2];AccY[m/s^2];AccZ[m/s^2];GyroX[rad/s];GyroY[rad/s];GyroZ[rad/s];MagnX[uT];MagnY[uT];MagnZ[uT];OrienYaw[degrees];OrienPitch[degrees];OrienRoll[degrees];Press[Pa];Temp[C°];Batt[%];Lat;Lng;Speed[m/s]
1511264022950;-;-;9.188232;-0.7851105;-1.025238;-;-;-;-;-;-;-;-;-;-;-;-;-;-;-
1511264022949;-;-;9.188232;-0.7851105;-1.025238;-;-;-;-;-;-;-;-;-;-;-;-;-;-;-
1511264022966;-;-;9.220566;-0.7384186;-1.2502899;-;-;-;-;-;-;-;-;-;-;-;-;-;-;-
1511264022987;-;-;9.164291;-0.7384186;-1.1700745;-;-;-;-;-;-;-;-;-;-;-;-;-;-;-
1511264023007;-;-;9.148727;-0.7480011;-1.2048035;-;-;-;-;-;-;-;-;-;-;-;-;-;-;-
1511264023027;-;-;9.263657;-0.85214233;-1.2119751;-;-;-;-;-;-;-;-;-;-;-;-;-;-;-
1511264023047;-;-;9.343857;-0.77433777;-1.2251434;-;-;-;-;-;-;-;-;-;-;-;-;-;-;-
1511264023068;-;-;9.257675;-0.76834106;-1.1078339;-;-;-;-;-;-;-;-;-;-;-;-;-;-;-
1511264023088;-;-;9.12001;-0.7815094;-1.1784668;-;-;-;-;-;-;-;-;-;-;-;-;-;-;-
1511264023108;-;-;9.149933;-0.8820648;-1.1916351;-;-;-;-;-;-;-;-;-;-;-;-;-;-;-
1511264023128;-;-;9.252884;-0.89045715;-1.148529;-;-;-;-;-;-;-;-;-;-;-;-;-;-;-
1511264023148;-;-;9.359421;-0.78990173;-1.0994568;-;-;-;-;-;-;-;-;-;-;-;-;-;-;-
1511264023168;-;-;9.239716;-0.9503021;-1.0264282;-;-;-;-;-;-;-;-;-;-;-;-;-;-;-
1511264023200;-;-;9.195419;-0.95988464;-0.9294586;-;-;-;-;-;-;-;-;-;-;-;-;-;-;-
1511264023209;-;-;9.521027;-0.94073486;-1.1066284;-;-;-;-;-;-;-;-;-;-;-;-;-;-;-
1511264023229;-;-;8.946426;-0.71328735;-0.087905884;-;-;-;-;-;-;-;-;-;-;-;-;-;-;-
1511264023249;-;-;9.245697;-0.996994;-1.5411835;-;-;-;-;-;-;-;-;-;-;-;-;-;-;-
1511264023270;-;-;9.378571;-0.9431305;-0.74391174;-;-;-;-;-;-;-;-;-;-;-;-;-;-;-
1511264023290;-;-;9.199005;-0.86531067;-0.90312195;-;-;-;-;-;-;-;-;-;-;-;-;-;-;-
1511264023310;-;-;9.15712;-0.9060211;-0.9258728;-;-;-;-;-;-;-;-;-;-;-;-;-;-;-
1511264023331;-;-;9.194229;-0.92277527;-0.8791809;-;-;-;-;-;-;-;-;-;-;-;-;-;-;-
1511264023351;-;-;9.232529;-0.89404297;-0.90911865;-;-;-;-;-;-;-;-;-;-;-;-;-;-;-
1511264023371;-;-;9.234924;-0.8964386;-0.93066406;-;-;-;-;-;-;-;-;-;-;-;-;-;-;-
1511264023392;-;-;9.201401;-0.9143982;-0.9043274;-;-;-;-;-;-;-;-;-;-;-;-;-;-;-
1511264023412;-;-;9.149933;-0.8712921;-0.88757324;-;-;-;-;-;-;-;-;-;-;-;-;-;-;-
1511264023433;-;-;9.173874;-0.8174286;-0.97016907;-;-;-;-;-;-;-;-;-;-;-;-;-;-;-
1511264023452;-;-;9.184647;-0.85453796;-0.9342499;-;-;-;-;-;-;-;-;-;-;-;-;-;-;-
1511264023472;-;-;9.203796;-0.8282013;-0.8576355;-;-;-;-;-;-;-;-;-;-;-;-;-;-;-
1511264023492;-;-;9.13916;-0.87968445;-0.8660126;-;-;-;-;-;-;-;-;-;-;-;-;-;-;-
1511264023513;-;-;9.128387;-0.8641205;-0.91389465;-;-;-;-;-;-;-;-;-;-;-;-;-;-;-
1511264023533;-;-;9.141556;-0.8413696;-0.93185425;-;-;-;-;-;-;-;-;-;-;-;-;-;-;-
1511264023553;-;-;9.205002;-0.8461609;-0.97016907;-;-;-;-;-;-;-;-;-;-;-;-;-;-;-
1511264023574;-;-;9.240906;-0.89164734;-0.9809418;-;-;-;-;-;-;-;-;-;-;-;-;-;-;-
1511264023594;-;-;9.281616;-0.8317871;-0.9953003;-;-;-;-;-;-;-;-;-;-;-;-;-;-;-
1511264023614;-;-;9.227737;-0.8270111;-0.97735596;-;-;-;-;-;-;-;-;-;-;-;-;-;-;-
1511264023635;-;-;9.173874;-0.8186188;-0.9522095;-;-;-;-;-;-;-;-;-;-;-;-;-;-;-
1511264023654;-;-;9.165497;-0.84376526;-0.9557953;-;-;-;-;-;-;-;-;-;-;-;-;-;-;-
1511264023674;-;-;9.123596;-0.8976288;-0.9366455;-;-;-;-;-;-;-;-;-;-;-;-;-;-;-
1511264023694;-;-;9.115219;-0.8162384;-1.0132599;-;-;-;-;-;-;-;-;-;-;-;-;-;-;-
1511264023715;-;-;9.099655;-0.74560547;-1.0743103;-;-;-;-;-;-;-;-;-;-;-;-;-;-;-
1511264023735;-;-;9.142746;-0.7276459;-1.1210022;-;-;-;-;-;-;-;-;-;-;-;-;-;-;-
1511264023755;-;-;9.141556;-0.8210144;-1.1820526;-;-;-;-;-;-;-;-;-;-;-;-;-;-;-
1511264023776;-;-;9.187042;-0.77194214;-1.2574768;-;-;-;-;-;-;-;-;-;-;-;-;-;-;-
1511264023795;-;-;9.189438;-0.67736816;-1.1688843;-;-;-;-;-;-;-;-;-;-;-;-;-;-;-
1511264023815;-;-;9.131973;-0.5672302;-0.961792;-;-;-;-;-;-;-;-;-;-;-;-;-;-;-
1511264023836;-;-;9.209793;-0.47265625;-1.1341705;-;-;-;-;-;-;-;-;-;-;-;-;-;-;-
1511264023856;-;-;9.346252;-0.5241394;-1.2083893;-;-;-;-;-;-;-;-;-;-;-;-;-;-;-
1511264023876;-;-;9.374985;-0.63427734;-1.155716;-;-;-;-;-;-;-;-;-;-;-;-;-;-;-
1511264023896;-;-;9.401321;-0.8976288;-0.88757324;-;-;-;-;-;-;-;-;-;-;-;-;-;-;-
1511264023917;-;-;9.232529;-1.0137482;-1.2155762;-;-;-;-;-;-;-;-;-;-;-;-;-;-;-
1511264023937;-;-;9.130783;-1.0652313;-1.2778168;-;-;-;-;-;-;-;-;-;-;-;-;-;-;-
1511264023957;-;-;9.153519;-1.1166992;-1.0431824;-;-;-;-;-;-;-;-;-;-;-;-;-;-;-
1511264023977;-;-;9.273239;-1.0927582;-0.9953003;-;-;-;-;-;-;-;-;-;-;-;-;-;-;-
1511264023998;-;-;9.254074;-1.0185394;-0.94143677;-;-;-;-;-;-;-;-;-;-;-;-;-;-;-
1511264024018;-;-;9.23851;-1.0352936;-0.9342499;-;-;-;-;-;-;-;-;-;-;-;-;-;-;-
1511264024038;-;-;9.036209;-1.0424805;-0.86361694;-;-;-;-;-;-;-;-;-;-;-;-;-;-;-
1511264024059;-;-;8.90213;-1.1059265;-0.93904114;-;-;-;-;-;-;-;-;-;-;-;-;-;-;-
1511264024078;-;-;8.916504;-1.2172546;-0.9761505;-;-;-;-;-;-;-;-;-;-;-;-;-;-;-
1511264024098;-;-;9.051773;-1.249588;-1.0443878;-;-;-;-;-;-;-;-;-;-;-;-;-;-;-
1511264024119;-;-;9.203796;-1.2615509;-1.1581116;-;-;-;-;-;-;-;-;-;-;-;-;-;-;-
1511264024138;-;-;9.225342;-1.2352142;-1.1593018;-;-;-;-;-;-;-;-;-;-;-;-;-;-;-
1511264024159;-;-;9.292389;-1.3273926;-1.2179718;-;-;-;-;-;-;-;-;-;-;-;-;-;-;-
1511264024180;-;-;9.200211;-1.3525391;-1.2383118;-;-;-;-;-;-;-;-;-;-;-;-;-;-;-
1511264024200;-;-;9.105637;-1.2459869;-1.1616974;-;-;-;-;-;-;-;-;-;-;-;-;-;-;-
1511264024220;-;-;9.063736;-1.1885223;-1.0336151;-;-;-;-;-;-;-;-;-;-;-;-;-;-;-
1511264024241;-;-;9.020645;-1.2184601;-0.961792;-;-;-;-;-;-;-;-;-;-;-;-;-;-;-
1511264024261;-;-;8.960785;-1.2567596;-1.0384064;-;-;-;-;-;-;-;-;-;-;-;-;-;-;-
1511264024281;-;-;9.026627;-1.1789551;-1.0779114;-;-;-;-;-;-;-;-;-;-;-;-;-;-;-
1511264024301;-;-;9.209793;-1.1274719;-1.0910797;-;-;-;-;-;-;-;-;-;-;-;-;-;-;-
1511264024322;-;-;9.213379;-1.1502228;-1.1389618;-;-;-;-;-;-;-;-;-;-;-;-;-;-;-
1511264024342;-;-;9.213379;-1.225647;-0.946228;-;-;-;-;-;-;-;-;-;-;-;-;-;-;-
1511264024362;-;-;9.254074;-1.3273926;-0.91989136;-;-;-;-;-;-;-;-;-;-;-;-;-;-;-
1511264024383;-;-;9.29837;-1.3585205;-1.1126251;-;-;-;-;-;-;-;-;-;-;-;-;-;-;-
1511264024403;-;-;9.279221;-1.4459076;-1.2048035;-;-;-;-;-;-;-;-;-;-;-;-;-;-;-
1511264024423;-;-;9.301956;-1.451889;-1.2574768;-;-;-;-;-;-;-;-;-;-;-;-;-;-;-
1511264024443;-;-;9.3701935;-1.5512543;-1.1844482;-;-;-;-;-;-;-;-;-;-;-;-;-;-;-
1511264024463;-;-;9.319916;-1.6841278;-1.1197968;-;-;-;-;-;-;-;-;-;-;-;-;-;-;-
1511264024484;-;-;9.248093;-1.740387;-1.0168457;-;-;-;-;-;-;-;-;-;-;-;-;-;-;-
1511264024504;-;-;9.209793;-1.764328;-0.88397217;-;-;-;-;-;-;-;-;-;-;-;-;-;-;-
1511264024524;-;-;9.185837;-1.7655334;-0.99650574;-;-;-;-;-;-;-;-;-;-;-;-;-;-;-
1511264024545;-;-;9.085281;-1.5237122;-1.1126251;-;-;-;-;-;-;-;-;-;-;-;-;-;-;-
1511264024565;-;-;9.067337;-1.3345795;-1.1138153;-;-;-;-;-;-;-;-;-;-;-;-;-;-;-
1511264024585;-;-;9.122391;-1.194519;-1.3987274;-;-;-;-;-;-;-;-;-;-;-;-;-;-;-
1511264024606;-;-;9.196625;-1.1669769;-1.8428497;-;-;-;-;-;-;-;-;-;-;-;-;-;-;-
1511264024626;-;-;9.127182;-1.0879669;-2.5048523;-;-;-;-;-;-;-;-;-;-;-;-;-;-;-
1511264024646;-;-;8.729752;-0.9874115;-2.8352509;-;-;-;-;-;-;-;-;-;-;-;-;-;-;-
1511264024666;-;-;8.118027;-0.6043396;-2.7035675;-;-;-;-;-;-;-;-;-;-;-;-;-;-;-
1511264024686;-;-;7.8091736;-0.24880981;-2.2833862;-;-;-;-;-;-;-;-;-;-;-;-;-;-;-
1511264024707;-;-;8.8602295;-0.13388062;-1.7877808;-;-;-;-;-;-;-;-;-;-;-;-;-;-;-
1511264024727;-;-;10.081268;-0.19493103;-1.8452454;-;-;-;-;-;-;-;-;-;-;-;-;-;-;-
1511264024748;-;-;11.0030365;-0.17459106;-1.8643951;-;-;-;-;-;-;-;-;-;-;-;-;-;-;-
1511264024768;-;-;11.0772705;-0.3481598;-1.2131805;-;-;-;-;-;-;-;-;-;-;-;-;-;-;-
1511264024788;-;-;10.633133;-0.8210144;-0.6685028;-;-;-;-;-;-;-;-;-;-;-;-;-;-;-
1511264024809;-;-;9.710175;-1.1585999;-0.82650757;-;-;-;-;-;-;-;-;-;-;-;-;-;-;-
1511264024829;-;-;8.963181;-1.076004;-1.1664886;-;-;-;-;-;-;-;-;-;-;-;-;-;-;-
1511264024849;-;-;7.969589;-1.1143036;-1.2814178;-;-;-;-;-;-;-;-;-;-;-;-;-;-;-
1511264024870;-;-;7.621231;-1.0843811;-1.3005676;-;-;-;-;-;-;-;-;-;-;-;-;-;-;-
1511264024890;-;-;8.431671;-1.115509;-1.2000122;-;-;-;-;-;-;-;-;-;-;-;-;-;-;-
1511264024910;-;-;9.3103485;-1.0843811;-1.2909851;-;-;-;-;-;-;-;-;-;-;-;-;-;-;-
1511264024931;-;-;9.880157;-0.8246155;-1.4621735;-;-;-;-;-;-;-;-;-;-;-;-;-;-;-
1511264024951;-;-;10.297958;-0.66539;-1.571106;-;-;-;-;-;-;-;-;-;-;-;-;-;-;-
1511264024971;-;-;9.783203;-0.30986023;-1.5124512;-;-;-;-;-;-;-;-;-;-;-;-;-;-;-
1511264024992;-;-;9.048172;-0.1925354;-1.0683289;-;-;-;-;-;-;-;-;-;-;-;-;-;-;-
1511264025012;-;-;8.119232;-0.4559021;-0.68525696;-;-;-;-;-;-;-;-;-;-;-;-;-;-;-
1511264025032;-;-;7.667923;-0.8162384;-0.15853882;-;-;-;-;-;-;-;-;-;-;-;-;-;-;-
1511264025052;-;-;7.8175507;-0.95988464;-0.1309967;-;-;-;-;-;-;-;-;-;-;-;-;-;-;-
1511264025073;-;-;8.079727;-0.69651794;-0.29978943;-;-;-;-;-;-;-;-;-;-;-;-;-;-;-
1511264025093;-;-;8.626801;-0.37449646;-0.28901672;-;-;-;-;-;-;-;-;-;-;-;-;-;-;-
1511264025113;-;-;9.21936;-0.1985321;-0.11543274;-;-;-;-;-;-;-;-;-;-;-;-;-;-;-
1511264025134;-;-;9.59166;-0.07762146;0.12757874;-;-;-;-;-;-;-;-;-;-;-;-;-;-;-
1511264025154;-;-;9.603638;-0.20930481;0.34065247;-;-;-;-;-;-;-;-;-;-;-;-;-;-;-
1511264025174;-;-;9.523422;-0.28352356;0.35861206;-;-;-;-;-;-;-;-;-;-;-;-;-;-;-
1511264025195;-;-;9.489914;-0.838974;0.78956604;-;-;-;-;-;-;-;-;-;-;-;-;-;-;-
1511264025214;-;-;9.583282;-1.388443;0.52500916;-;-;-;-;-;-;-;-;-;-;-;-;-;-;-
1511264025234;-;-;9.878967;-1.7116699;0.2915802;-;-;-;-;-;-;-;-;-;-;-;-;-;-;-
1511264025254;-;-;9.947205;-1.3525391;0.58966064;-;-;-;-;-;-;-;-;-;-;-;-;-;-;-
1511264025275;-;-;10.76123;-0.5217438;-0.5021057;-;-;-;-;-;-;-;-;-;-;-;-;-;-;-
1511264025295;-;-;12.303101;-0.25360107;-2.124176;-;-;-;-;-;-;-;-;-;-;-;-;-;-;-
1511264025315;-;-;12.901642;0.7950592;-2.9118652;-;-;-;-;-;-;-;-;-;-;-;-;-;-;-
1511264025336;-;-;12.123535;1.5312805;-2.3528137;-;-;-;-;-;-;-;-;-;-;-;-;-;-;-
1511264025355;-;-;11.35379;1.8353424;-1.3364716;-;-;-;-;-;-;-;-;-;-;-;-;-;-;-
1511264025375;-;-;10.953964;0.75675964;-1.0036774;-;-;-;-;-;-;-;-;-;-;-;-;-;-;-
1511264025395;-;-;9.87059;0.08758545;-1.6285706;-;-;-;-;-;-;-;-;-;-;-;-;-;-;-
1511264025416;-;-;8.436462;-0.05847168;-1.8165131;-;-;-;-;-;-;-;-;-;-;-;-;-;-;-
1511264025436;-;-;6.576172;-0.05607605;-1.8356628;-;-;-;-;-;-;-;-;-;-;-;-;-;-;-
1511264025456;-;-;5.7453766;-0.17219543;-1.9912872;-;-;-;-;-;-;-;-;-;-;-;-;-;-;-
1511264025477;-;-;5.447296;-0.6582184;-2.567093;-;-;-;-;-;-;-;-;-;-;-;-;-;-;-
1511264025496;-;-;5.9824066;-0.66539;-3.080658;-;-;-;-;-;-;-;-;-;-;-;-;-;-;-
1511264025516;-;-;7.5781403;-0.24520874;-3.685196;-;-;-;-;-;-;-;-;-;-;-;-;-;-;-
1511264025537;-;-;9.068527;0.20729065;-3.954544;-;-;-;-;-;-;-;-;-;-;-;-;-;-;-
1511264025557;-;-;9.664688;0.793869;-3.6756134;-;-;-;-;-;-;-;-;-;-;-;-;-;-;-
1511264025577;-;-;9.981918;1.413971;-3.1177673;-;-;-;-;-;-;-;-;-;-;-;-;-;-;-
1511264025597;-;-;10.18782;1.6246643;-2.8292694;-;-;-;-;-;-;-;-;-;-;-;-;-;-;-
1511264025617;-;-;10.843826;1.1326447;-2.5216064;-;-;-;-;-;-;-;-;-;-;-;-;-;-;-
1511264025638;-;-;10.763626;-0.00340271;-2.764618;-;-;-;-;-;-;-;-;-;-;-;-;-;-;-
1511264025658;-;-;9.445618;-0.5097656;-2.7023773;-;-;-;-;-;-;-;-;-;-;-;-;-;-;-
1511264025678;-;-;8.1527405;-0.55885315;-1.7387085;-;-;-;-;-;-;-;-;-;-;-;-;-;-;-
1511264025698;-;-;7.3542786;-0.7384186;-0.7774353;-;-;-;-;-;-;-;-;-;-;-;-;-;-;-
1511264025719;-;-;7.3470917;-0.86172485;-0.451828;-;-;-;-;-;-;-;-;-;-;-;-;-;-;-
1511264025739;-;-;8.027054;-0.6821594;-0.4063263;-;-;-;-;-;-;-;-;-;-;-;-;-;-;-
1511264025759;-;-;8.387375;-0.5133667;-0.71517944;-;-;-;-;-;-;-;-;-;-;-;-;-;-;-
1511264025779;-;-;8.753693;-0.27394104;-0.85884094;-;-;-;-;-;-;-;-;-;-;-;-;-;-;-
1511264025800;-;-;8.897339;-0.08480835;-0.7187805;-;-;-;-;-;-;-;-;-;-;-;-;-;-;-
1511264025819;-;-;8.915298;-0.014175415;-0.5212555;-;-;-;-;-;-;-;-;-;-;-;-;-;-;-
1511264025839;-;-;8.851852;-0.076416016;-0.32852173;-;-;-;-;-;-;-;-;-;-;-;-;-;-;-
1511264025859;-;-;8.601654;-0.25598145;-0.31295776;-;-;-;-;-;-;-;-;-;-;-;-;-;-;-
1511264025880;-;-;8.581314;-0.27394104;-0.11663818;-;-;-;-;-;-;-;-;-;-;-;-;-;-;-
1511264025900;-;-;8.734543;-0.24641418;-0.011291504;-;-;-;-;-;-;-;-;-;-;-;-;-;-;-
1511264025920;-;-;8.996704;-0.41281128;0.007858276;-;-;-;-;-;-;-;-;-;-;-;-;-;-;-
1511264025941;-;-;9.25647;-0.40203857;-0.15853882;-;-;-;-;-;-;-;-;-;-;-;-;-;-;-
1511264025961;-;-;9.248093;-0.38049316;-0.5140686;-;-;-;-;-;-;-;-;-;-;-;-;-;-;-
1511264025982;-;-;9.390549;-0.36732483;-0.59547424;-;-;-;-;-;-;-;-;-;-;-;-;-;-;-
1511264026002;-;-;9.536591;0.008575439;-0.6481476;-;-;-;-;-;-;-;-;-;-;-;-;-;-;-
1511264026022;-;-;9.766434;0.48860168;-0.03163147;-;-;-;-;-;-;-;-;-;-;-;-;-;-;-
1511264026043;-;-;9.977127;0.378479;0.15151978;-;-;-;-;-;-;-;-;-;-;-;-;-;-;-
1511264026063;-;-;10.035782;-0.24880981;-0.39076233;-;-;-;-;-;-;-;-;-;-;-;-;-;-;-
1511264026083;-;-;10.588852;-0.22366333;-1.4621735;-;-;-;-;-;-;-;-;-;-;-;-;-;-;-
1511264026104;-;-;11.954742;-0.8210144;-1.7554626;-;-;-;-;-;-;-;-;-;-;-;-;-;-;-
1511264026124;-;-;13.25;-2.024109;-2.531189;-;-;-;-;-;-;-;-;-;-;-;-;-;-;-
1511264026144;-;-;14.065231;-2.1126862;-2.563507;-;-;-;-;-;-;-;-;-;-;-;-;-;-;-
1511264026164;-;-;11.6710205;-0.54089355;-2.2558594;-;-;-;-;-;-;-;-;-;-;-;-;-;-;-
1511264026185;-;-;10.600815;0.45030212;-2.4102783;-;-;-;-;-;-;-;-;-;-;-;-;-;-;-
1511264026205;-;-;9.61441;0.36650085;-3.0615082;-;-;-;-;-;-;-;-;-;-;-;-;-;-;-
1511264026225;-;-;7.189087;-0.021362305;-3.9952393;-;-;-;-;-;-;-;-;-;-;-;-;-;-;-
1511264026246;-;-;5.039093;-0.2272644;-4.4142303;-;-;-;-;-;-;-;-;-;-;-;-;-;-;-
1511264026266;-;-;3.7557983;0.01574707;-4.141281;-;-;-;-;-;-;-;-;-;-;-;-;-;-;-
1511264026286;-;-;3.379898;1.1589813;-2.9429932;-;-;-;-;-;-;-;-;-;-;-;-;-;-;-
1511264026307;-;-;5.229431;3.094696;-1.5184326;-;-;-;-;-;-;-;-;-;-;-;-;-;-;-
1511264026327;-;-;7.837906;2.430313;-2.3193054;-;-;-;-;-;-;-;-;-;-;-;-;-;-;-
1511264026347;-;-;10.230911;0.6107178;-4.1855774;-;-;-;-;-;-;-;-;-;-;-;-;-;-;-
1511264026368;-;-;12.312668;-1.6194916;-3.6205444;-;-;-;-;-;-;-;-;-;-;-;-;-;-;-
1511264026388;-;-;13.002197;-2.8309479;-2.0882568;-;-;-;-;-;-;-;-;-;-;-;-;-;-;-
1511264026408;-;-;13.148254;-2.5723724;-2.3181;-;-;-;-;-;-;-;-;-;-;-;-;-;-;-
1511264026429;-;-;10.712143;-1.1107178;-3.2243042;-;-;-;-;-;-;-;-;-;-;-;-;-;-;-
1511264026449;-;-;8.667496;-0.028533936;-3.0136108;-;-;-;-;-;-;-;-;-;-;-;-;-;-;-
1511264026469;-;-;7.2034454;1.030899;-2.0319977;-;-;-;-;-;-;-;-;-;-;-;-;-;-;-
1511264026490;-;-;6.5007477;1.8413391;-1.4537964;-;-;-;-;-;-;-;-;-;-;-;-;-;-;-
1511264026510;-;-;6.7641144;2.0460358;-1.353241;-;-;-;-;-;-;-;-;-;-;-;-;-;-;-
1511264026529;-;-;6.667145;1.758728;-1.2526855;-;-;-;-;-;-;-;-;-;-;-;-;-;-;-
1511264026549;-;-;8.5047;1.2547607;-1.5914612;-;-;-;-;-;-;-;-;-;-;-;-;-;-;-
1511264026570;-;-;9.600037;0.61550903;-2.065506;-;-;-;-;-;-;-;-;-;-;-;-;-;-;-
1511264026590;-;-;10.157883;0.14982605;-1.9398193;-;-;-;-;-;-;-;-;-;-;-;-;-;-;-
1511264026610;-;-;9.540192;0.09954834;-1.6177979;-;-;-;-;-;-;-;-;-;-;-;-;-;-;-
1511264026631;-;-;9.746094;-0.12789917;-1.4897003;-;-;-;-;-;-;-;-;-;-;-;-;-;-;-
1511264026651;-;-;8.7417145;0.23602295;-1.0970612;-;-;-;-;-;-;-;-;-;-;-;-;-;-;-
1511264026671;-;-;8.061768;0.63705444;-1.2610626;-;-;-;-;-;-;-;-;-;-;-;-;-;-;-
1511264026691;-;-;7.948044;0.9363251;-1.5016785;-;-;-;-;-;-;-;-;-;-;-;-;-;-;-
1511264026712;-;-;8.50589;1.0775757;-1.4765472;-;-;-;-;-;-;-;-;-;-;-;-;-;-;-
1511264026732;-;-;9.00029;1.4283295;-1.5471649;-;-;-;-;-;-;-;-;-;-;-;-;-;-;-
1511264026753;-;-;9.269638;1.6533813;-1.5842743;-;-;-;-;-;-;-;-;-;-;-;-;-;-;-
1511264026773;-;-;9.261261;1.6126862;-1.4083099;-;-;-;-;-;-;-;-;-;-;-;-;-;-;-
1511264026793;-;-;9.09845;1.3624878;-1.1293793;-;-;-;-;-;-;-;-;-;-;-;-;-;-;-
1511264026814;-;-;8.886566;1.0261078;-0.86242676;-;-;-;-;-;-;-;-;-;-;-;-;-;-;-
1511264026834;-;-;8.833893;0.8453522;-0.5344238;-;-;-;-;-;-;-;-;-;-;-;-;-;-;-
1511264026854;-;-;8.7764435;0.809433;-0.6900482;-;-;-;-;-;-;-;-;-;-;-;-;-;-;-
1511264026874;-;-;8.60405;1.1230774;-0.6086426;-;-;-;-;-;-;-;-;-;-;-;-;-;-;-
1511264026895;-;-;8.669891;1.5540314;-0.6792755;-;-;-;-;-;-;-;-;-;-;-;-;-;-;-
1511264026915;-;-;9.037399;1.6881104;-0.6840515;-;-;-;-;-;-;-;-;-;-;-;-;-;-;-
1511264026935;-;-;9.246902;1.0296936;-1.8883362;-;-;-;-;-;-;-;-;-;-;-;-;-;-;-
1511264026956;-;-;9.422867;1.2439728;-2.772995;-;-;-;-;-;-;-;-;-;-;-;-;-;-;-
1511264026976;-;-;10.469131;2.3596802;-2.6532898;-;-;-;-;-;-;-;-;-;-;-;-;-;-;-
1511264026996;-;-;12.390488;3.4825592;-2.488083;-;-;-;-;-;-;-;-;-;-;-;-;-;-;-
1511264027017;-;-;13.818619;3.1689148;-2.8867188;-;-;-;-;-;-;-;-;-;-;-;-;-;-;-
1511264027037;-;-;14.6158905;2.3620758;-3.0160065;-;-;-;-;-;-;-;-;-;-;-;-;-;-;-
1511264027057;-;-;12.829819;1.5851593;-3.1428986;-;-;-;-;-;-;-;-;-;-;-;-;-;-;-
1511264027077;-;-;10.965927;1.6701508;-2.9597473;-;-;-;-;-;-;-;-;-;-;-;-;-;-;-
1511264027098;-;-;9.627579;2.1501923;-3.1584625;-;-;-;-;-;-;-;-;-;-;-;-;-;-;-
1511264027118;-;-;8.894943;2.6529694;-3.5068207;-;-;-;-;-;-;-;-;-;-;-;-;-;-;-
1511264027138;-;-;8.636368;2.6577606;-4.1580505;-;-;-;-;-;-;-;-;-;-;-;-;-;-;-
1511264027159;-;-;8.620819;1.8652802;-4.4309845;-;-;-;-;-;-;-;-;-;-;-;-;-;-;-
1511264027179;-;-;8.786011;1.027298;-4.9014435;-;-;-;-;-;-;-;-;-;-;-;-;-;-;-
1511264027199;-;-;9.313934;-0.49421692;-4.969681;-;-;-;-;-;-;-;-;-;-;-;-;-;-;-
1511264027220;-;-;10.153107;-1.2005005;-4.76976;-;-;-;-;-;-;-;-;-;-;-;-;-;-;-
1511264027240;-;-;10.64032;-0.89164734;-4.053894;-;-;-;-;-;-;-;-;-;-;-;-;-;-;-
1511264027260;-;-;10.051346;-0.46548462;-3.725891;-;-;-;-;-;-;-;-;-;-;-;-;-;-;-
1511264027281;-;-;8.130005;-0.27394104;-3.3356323;-;-;-;-;-;-;-;-;-;-;-;-;-;-;-
1511264027301;-;-;6.1080933;0.02772522;-2.7107544;-;-;-;-;-;-;-;-;-;-;-;-;-;-;-
1511264027321;-;-;4.214279;-0.057266235;-1.9637604;-;-;-;-;-;-;-;-;-;-;-;-;-;-;-
1511264027341;-;-;3.778534;-0.46548462;-1.6680756;-;-;-;-;-;-;-;-;-;-;-;-;-;-;-
1511264027362;-;-;3.9269867;-0.9036255;-1.8248901;-;-;-;-;-;-;-;-;-;-;-;-;-;-;-
1511264027382;-;-;4.5231323;-1.3166199;-1.7985535;-;-;-;-;-;-;-;-;-;-;-;-;-;-;-
1511264027403;-;-;5.102539;-1.7499695;-1.8141174;-;-;-;-;-;-;-;-;-;-;-;-;-;-;-
1511264027423;-;-;5.960861;-1.9008026;-2.2366943;-;-;-;-;-;-;-;-;-;-;-;-;-;-;-
1511264027443;-;-;6.8921967;-1.9714355;-2.5204163;-;-;-;-;-;-;-;-;-;-;-;-;-;-;-
1511264027464;-;-;8.513077;-2.0971222;-2.9669342;-;-;-;-;-;-;-;-;-;-;-;-;-;-;-
1511264027484;-;-;9.902908;-1.9091797;-2.9082794;-;-;-;-;-;-;-;-;-;-;-;-;-;-;-
1511264027504;-;-;10.871368;-1.6039276;-2.8627777;-;-;-;-;-;-;-;-;-;-;-;-;-;-;-
1511264027524;-;-;11.359787;-1.3704834;-2.579071;-;-;-;-;-;-;-;-;-;-;-;-;-;-;-
1511264027545;-;-;11.27359;-1.230423;-2.5563202;-;-;-;-;-;-;-;-;-;-;-;-;-;-;-
1511264027565;-;-;10.751648;-1.6087189;-2.6724396;-;-;-;-;-;-;-;-;-;-;-;-;-;-;-
1511264027586;-;-;10.230911;-1.9199524;-2.4425964;-;-;-;-;-;-;-;-;-;-;-;-;-;-;-
1511264027606;-;-;9.364212;-1.8565063;-2.0487518;-;-;-;-;-;-;-;-;-;-;-;-;-;-;-
1511264027626;-;-;8.070145;-1.5093536;-1.7758179;-;-;-;-;-;-;-;-;-;-;-;-;-;-;-
1511264027646;-;-;7.454834;-0.89404297;-1.7997589;-;-;-;-;-;-;-;-;-;-;-;-;-;-;-
1511264027667;-;-;7.035858;-0.28471375;-1.7602539;-;-;-;-;-;-;-;-;-;-;-;-;-;-;-
1511264027687;-;-;6.941284;-0.13388062;-1.8201141;-;-;-;-;-;-;-;-;-;-;-;-;-;-;-
1511264027707;-;-;7.5122986;-0.72525024;-1.6417389;-;-;-;-;-;-;-;-;-;-;-;-;-;-;-
1511264027728;-;-;8.282028;-1.7308197;-1.4490051;-;-;-;-;-;-;-;-;-;-;-;-;-;-;-
1511264027747;-;-;8.763275;-2.471817;-1.4286499;-;-;-;-;-;-;-;-;-;-;-;-;-;-;-
1511264027767;-;-;9.213379;-2.851303;-0.95339966;-;-;-;-;-;-;-;-;-;-;-;-;-;-;-
1511264027787;-;-;9.513855;-3.060791;-0.8325043;-;-;-;-;-;-;-;-;-;-;-;-;-;-;-
1511264027808;-;-;9.7413025;-2.8249664;-0.9151001;-;-;-;-;-;-;-;-;-;-;-;-;-;-;-
1511264027828;-;-;10.513428;-2.3257751;-0.8504486;-;-;-;-;-;-;-;-;-;-;-;-;-;-;-
1511264027848;-;-;11.521393;-2.1713562;-0.94981384;-;-;-;-;-;-;-;-;-;-;-;-;-;-;-
1511264027869;-;-;12.125931;-2.087555;-2.0583344;-;-;-;-;-;-;-;-;-;-;-;-;-;-;-
1511264027889;-;-;12.0576935;-2.6896973;-2.5407562;-;-;-;-;-;-;-;-;-;-;-;-;-;-;-
1511264027909;-;-;11.465118;-3.7814484;-2.9501648;-;-;-;-;-;-;-;-;-;-;-;-;-;-;-
1511264027930;-;-;13.066849;-4.747513;-2.1888123;-;-;-;-;-;-;-;-;-;-;-;-;-;-;-
1511264027950;-;-;15.259933;-5.0503693;-2.757431;-;-;-;-;-;-;-;-;-;-;-;-;-;-;-
1511264027970;-;-;15.438309;-3.558792;-5.216278;-;-;-;-;-;-;-;-;-;-;-;-;-;-;-
1511264027990;-;-;12.383301;-2.8752441;-6.2493744;-;-;-;-;-;-;-;-;-;-;-;-;-;-;-
1511264028011;-;-;9.716156;-1.9762268;-5.0762177;-;-;-;-;-;-;-;-;-;-;-;-;-;-;-
1511264028031;-;-;6.956848;-0.47625732;-3.3667603;-;-;-;-;-;-;-;-;-;-;-;-;-;-;-
1511264028051;-;-;4.7733307;0.34016418;-3.5642853;-;-;-;-;-;-;-;-;-;-;-;-;-;-;-
1511264028072;-;-;4.6931305;0.7627411;-3.8444061;-;-;-;-;-;-;-;-;-;-;-;-;-;-;-
1511264028092;-;-;5.4401093;0.6394501;-3.5547028;-;-;-;-;-;-;-;-;-;-;-;-;-;-;-
1511264028112;-;-;6.7174225;-0.13748169;-2.8340454;-;-;-;-;-;-;-;-;-;-;-;-;-;-;-
1511264028133;-;-;8.198242;-1.1741638;-2.144516;-;-;-;-;-;-;-;-;-;-;-;-;-;-;-
1511264028152;-;-;8.746506;-1.8612976;-1.6333618;-;-;-;-;-;-;-;-;-;-;-;-;-;-;-
1511264028172;-;-;8.077332;-2.071991;-1.8679962;-;-;-;-;-;-;-;-;-;-;-;-;-;-;-
1511264028192;-;-;7.044235;-1.740387;-2.2175446;-;-;-;-;-;-;-;-;-;-;-;-;-;-;-
1511264028213;-;-;5.3024445;-1.1322632;-2.282196;-;-;-;-;-;-;-;-;-;-;-;-;-;-;-
1511264028232;-;-;4.114929;-0.2679596;-2.5060425;-;-;-;-;-;-;-;-;-;-;-;-;-;-;-
1511264028252;-;-;3.58461;0.74598694;-2.0978394;-;-;-;-;-;-;-;-;-;-;-;-;-;-;-
1511264028272;-;-;4.3148346;1.6426086;-1.8368683;-;-;-;-;-;-;-;-;-;-;-;-;-;-;-
1511264028293;-;-;5.513138;1.9658356;-2.2642365;-;-;-;-;-;-;-;-;-;-;-;-;-;-;-
1511264028313;-;-;7.869034;1.374466;-2.7478638;-;-;-;-;-;-;-;-;-;-;-;-;-;-;-
1511264028333;-;-;10.28717;0.6035309;-2.6389313;-;-;-;-;-;-;-;-;-;-;-;-;-;-;-
1511264028354;-;-;11.958328;0.5257263;-3.2554321;-;-;-;-;-;-;-;-;-;-;-;-;-;-;-
1511264028374;-;-;13.367325;1.4630432;-4.4956207;-;-;-;-;-;-;-;-;-;-;-;-;-;-;-
1511264028394;-;-;12.821442;2.390808;-5.1588287;-;-;-;-;-;-;-;-;-;-;-;-;-;-;-
1511264028415;-;-;11.301117;2.469818;-4.053894;-;-;-;-;-;-;-;-;-;-;-;-;-;-;-
1511264028435;-;-;9.6622925;1.8832245;-2.5335846;-;-;-;-;-;-;-;-;-;-;-;-;-;-;-
1511264028455;-;-;8.218582;1.2439728;-1.203598;-;-;-;-;-;-;-;-;-;-;-;-;-;-;-
1511264028475;-;-;7.161545;0.82618713;-1.0982513;-;-;-;-;-;-;-;-;-;-;-;-;-;-;-
1511264028496;-;-;6.977188;1.1625824;-0.654129;-;-;-;-;-;-;-;-;-;-;-;-;-;-;-
1511264028516;-;-;6.826355;0.82499695;-1.9494019;-;-;-;-;-;-;-;-;-;-;-;-;-;-;-
1511264028536;-;-;7.28006;0.81781006;-4.7745514;-;-;-;-;-;-;-;-;-;-;-;-;-;-;-
1511264028557;-;-;10.160278;1.303833;-4.967285;-;-;-;-;-;-;-;-;-;-;-;-;-;-;-
1511264028577;-;-;13.184158;2.0053406;-6.0542603;-;-;-;-;-;-;-;-;-;-;-;-;-;-;-
1511264028598;-;-;12.186981;1.8509064;-8.095306;-;-;-;-;-;-;-;-;-;-;-;-;-;-;-
1511264028618;-;-;10.4535675;1.7024689;-6.8144073;-;-;-;-;-;-;-;-;-;-;-;-;-;-;-
1511264028638;-;-;8.756088;1.4151611;-4.7817383;-;-;-;-;-;-;-;-;-;-;-;-;-;-;-
1511264028659;-;-;7.0585938;1.0967407;-3.583435;-;-;-;-;-;-;-;-;-;-;-;-;-;-;-
1511264028679;-;-;6.414551;0.8716736;-3.2207184;-;-;-;-;-;-;-;-;-;-;-;-;-;-;-
1511264028699;-;-;6.1332397;0.66937256;-3.5786438;-;-;-;-;-;-;-;-;-;-;-;-;-;-;-
1511264028720;-;-;7.633209;0.19293213;-3.1716309;-;-;-;-;-;-;-;-;-;-;-;-;-;-;-
1511264028740;-;-;9.453995;-0.49899292;-4.3483887;-;-;-;-;-;-;-;-;-;-;-;-;-;-;-
1511264028760;-;-;9.487518;-0.5217438;-4.5183716;-;-;-;-;-;-;-;-;-;-;-;-;-;-;-
1511264028781;-;-;8.695038;-0.9562988;-4.03714;-;-;-;-;-;-;-;-;-;-;-;-;-;-;-
1511264028801;-;-;8.116837;-1.4734344;-3.6672363;-;-;-;-;-;-;-;-;-;-;-;-;-;-;-
1511264028821;-;-;7.7373505;-1.5596313;-3.203949;-;-;-;-;-;-;-;-;-;-;-;-;-;-;-
1511264028842;-;-;6.699463;-1.254364;-2.8304596;-;-;-;-;-;-;-;-;-;-;-;-;-;-;-
1511264028862;-;-;5.933319;-0.7551727;-2.4473877;-;-;-;-;-;-;-;-;-;-;-;-;-;-;-
1511264028882;-;-;5.802841;-0.41041565;-2.2450714;-;-;-;-;-;-;-;-;-;-;-;-;-;-;-
1511264028902;-;-;5.8327637;-0.12310791;-2.4030914;-;-;-;-;-;-;-;-;-;-;-;-;-;-;-
1511264028923;-;-;6.0853577;-0.2787323;-2.65448;-;-;-;-;-;-;-;-;-;-;-;-;-;-;-
1511264028943;-;-;6.8957977;-0.41400146;-2.610199;-;-;-;-;-;-;-;-;-;-;-;-;-;-;-
1511264028963;-;-;7.9205017;-0.6031494;-2.4904785;-;-;-;-;-;-;-;-;-;-;-;-;-;-;-
1511264028984;-;-;8.757278;-1.2112732;-2.491684;-;-;-;-;-;-;-;-;-;-;-;-;-;-;-
1511264029004;-;-;9.65271;-1.6362457;-2.7119446;-;-;-;-;-;-;-;-;-;-;-;-;-;-;-
1511264029024;-;-;9.759262;-1.9175568;-2.6329346;-;-;-;-;-;-;-;-;-;-;-;-;-;-;-
1511264029045;-;-;9.541382;-2.0540314;-2.606598;-;-;-;-;-;-;-;-;-;-;-;-;-;-;-
1511264029065;-;-;9.21817;-1.9846039;-2.421051;-;-;-;-;-;-;-;-;-;-;-;-;-;-;-
1511264029085;-;-;9.278015;-2.1079102;-1.9326324;-;-;-;-;-;-;-;-;-;-;-;-;-;-;-
1511264029106;-;-;9.67067;-2.435913;-1.5459747;-;-;-;-;-;-;-;-;-;-;-;-;-;-;-
1511264029126;-;-;10.610397;-2.3904114;-1.5687103;-;-;-;-;-;-;-;-;-;-;-;-;-;-;-
1511264029146;-;-;11.619553;-1.827774;-1.590271;-;-;-;-;-;-;-;-;-;-;-;-;-;-;-
1511264029167;-;-;10.578079;-1.5237122;-2.3540192;-;-;-;-;-;-;-;-;-;-;-;-;-;-;-
1511264029187;-;-;9.163101;-2.3988037;-2.6640625;-;-;-;-;-;-;-;-;-;-;-;-;-;-;-
1511264029207;-;-;9.979523;-2.9267273;-3.350006;-;-;-;-;-;-;-;-;-;-;-;-;-;-;-
1511264029227;-;-;12.59639;-3.4845734;-3.2398682;-;-;-;-;-;-;-;-;-;-;-;-;-;-;-
1511264029248;-;-;13.3302;-3.0141144;-4.554291;-;-;-;-;-;-;-;-;-;-;-;-;-;-;-
1511264029267;-;-;12.77356;-2.008545;-6.1631927;-;-;-;-;-;-;-;-;-;-;-;-;-;-;-
1511264029287;-;-;12.525757;-1.9762268;-6.286484;-;-;-;-;-;-;-;-;-;-;-;-;-;-;-
1511264029307;-;-;10.837845;-1.0891724;-5.8232117;-;-;-;-;-;-;-;-;-;-;-;-;-;-;-
1511264029328;-;-;8.4292755;0.091171265;-4.586609;-;-;-;-;-;-;-;-;-;-;-;-;-;-;-
1511264029348;-;-;6.407379;0.42156982;-3.5882263;-;-;-;-;-;-;-;-;-;-;-;-;-;-;-
1511264029368;-;-;6.284073;-1.052063;-2.6221619;-;-;-;-;-;-;-;-;-;-;-;-;-;-;-
1511264029389;-;-;7.640381;-2.5472412;-2.120575;-;-;-;-;-;-;-;-;-;-;-;-;-;-;-
1511264029409;-;-;9.515045;-3.399582;-1.5926514;-;-;-;-;-;-;-;-;-;-;-;-;-;-;-
1511264029429;-;-;10.767212;-2.9159393;-1.5735016;-;-;-;-;-;-;-;-;-;-;-;-;-;-;-
1511264029449;-;-;10.315903;-1.6314545;-1.942215;-;-;-;-;-;-;-;-;-;-;-;-;-;-;-
1511264029469;-;-;8.462799;-0.56843567;-2.6377258;-;-;-;-;-;-;-;-;-;-;-;-;-;-;-
1511264029490;-;-;6.4396973;0.38685608;-3.1249542;-;-;-;-;-;-;-;-;-;-;-;-;-;-;-
1511264029509;-;-;4.6021423;1.1984863;-2.7825775;-;-;-;-;-;-;-;-;-;-;-;-;-;-;-
1511264029529;-;-;3.6648102;1.9897766;-2.4545746;-;-;-;-;-;-;-;-;-;-;-;-;-;-;-
1511264029550;-;-;3.5163727;2.1956787;-2.08107;-;-;-;-;-;-;-;-;-;-;-;-;-;-;-
1511264029570;-;-;3.9868317;1.9454803;-1.808136;-;-;-;-;-;-;-;-;-;-;-;-;-;-;-
1511264029590;-;-;5.233017;0.60113525;-1.9170685;-;-;-;-;-;-;-;-;-;-;-;-;-;-;-
1511264029610;-;-;6.5510254;-0.2392273;-1.9709473;-;-;-;-;-;-;-;-;-;-;-;-;-;-;-
1511264029631;-;-;8.436462;-0.064453125;-1.9757233;-;-;-;-;-;-;-;-;-;-;-;-;-;-;-
1511264029651;-;-;9.337875;0.62028503;-2.2738037;-;-;-;-;-;-;-;-;-;-;-;-;-;-;-
1511264029671;-;-;10.180634;1.3170013;-2.7227173;-;-;-;-;-;-;-;-;-;-;-;-;-;-;-
1511264029691;-;-;11.341827;2.29982;-3.661255;-;-;-;-;-;-;-;-;-;-;-;-;-;-;-
1511264029711;-;-;11.770386;2.8444977;-4.5447083;-;-;-;-;-;-;-;-;-;-;-;-;-;-;-
1511264029732;-;-;11.120361;2.097519;-3.6241455;-;-;-;-;-;-;-;-;-;-;-;-;-;-;-
1511264029752;-;-;9.874176;1.798233;-2.9980621;-;-;-;-;-;-;-;-;-;-;-;-;-;-;-
1511264029772;-;-;9.645538;1.2583466;-1.7255402;-;-;-;-;-;-;-;-;-;-;-;-;-;-;-
1511264029793;-;-;10.050156;0.9638519;-0.8863678;-;-;-;-;-;-;-;-;-;-;-;-;-;-;-
1511264029813;-;-;9.920868;0.6789551;-1.2682495;-;-;-;-;-;-;-;-;-;-;-;-;-;-;-
1511264029833;-;-;8.6028595;1.0596313;-3.9832764;-;-;-;-;-;-;-;-;-;-;-;-;-;-;-
1511264029853;-;-;9.527023;1.9394989;-4.7709656;-;-;-;-;-;-;-;-;-;-;-;-;-;-;-
1511264029874;-;-;9.560532;1.868866;-5.725052;-;-;-;-;-;-;-;-;-;-;-;-;-;-;-
1511264029894;-;-;10.634338;1.8329468;-5.239029;-;-;-;-;-;-;-;-;-;-;-;-;-;-;-
1511264029914;-;-;9.477936;0.49699402;-6.4086;-;-;-;-;-;-;-;-;-;-;-;-;-;-;-
1511264029935;-;-;8.6028595;1.082367;-4.9804535;-;-;-;-;-;-;-;-;-;-;-;-;-;-;-
1511264029955;-;-;6.937683;1.6342316;-3.8647614;-;-;-;-;-;-;-;-;-;-;-;-;-;-;-
1511264029975;-;-;6.0925293;1.4175568;-3.1668396;-;-;-;-;-;-;-;-;-;-;-;-;-;-;-
1511264029995;-;-;6.601303;1.4474792;-2.97052;-;-;-;-;-;-;-;-;-;-;-;-;-;-;-
1511264030015;-;-;8.031845;1.3421478;-3.4984436;-;-;-;-;-;-;-;-;-;-;-;-;-;-;-
1511264030035;-;-;8.942825;0.53289795;-3.7677917;-;-;-;-;-;-;-;-;-;-;-;-;-;-;-
1511264030056;-;-;8.944031;-0.26914978;-4.385498;-;-;-;-;-;-;-;-;-;-;-;-;-;-;-
1511264030076;-;-;9.130783;-1.0077667;-4.021576;-;-;-;-;-;-;-;-;-;-;-;-;-;-;-
1511264030096;-;-;8.988327;-1.2531738;-3.1728363;-;-;-;-;-;-;-;-;-;-;-;-;-;-;-
1511264030117;-;-;7.91333;-1.6039276;-2.570694;-;-;-;-;-;-;-;-;-;-;-;-;-;-;-
1511264030137;-;-;6.4528656;-1.779892;-2.6245575;-;-;-;-;-;-;-;-;-;-;-;-;-;-;-
1511264030157;-;-;5.1731567;-1.8529205;-2.5108337;-;-;-;-;-;-;-;-;-;-;-;-;-;-;-
1511264030177;-;-;5.113312;-1.6877136;-2.4557648;-;-;-;-;-;-;-;-;-;-;-;-;-;-;-
1511264030198;-;-;5.845932;-1.249588;-2.3588104;-;-;-;-;-;-;-;-;-;-;-;-;-;-;-
1511264030218;-;-;6.7736816;-0.44992065;-2.3875275;-;-;-;-;-;-;-;-;-;-;-;-;-;-;-
1511264030239;-;-;7.4895477;-0.2679596;-2.5958252;-;-;-;-;-;-;-;-;-;-;-;-;-;-;-
1511264030259;-;-;8.387375;-0.3577423;-2.7634277;-;-;-;-;-;-;-;-;-;-;-;-;-;-;-
1511264030279;-;-;8.654327;-0.59835815;-2.7382813;-;-;-;-;-;-;-;-;-;-;-;-;-;-;-
1511264030300;-;-;8.9991;-1.0736084;-2.6532898;-;-;-;-;-;-;-;-;-;-;-;-;-;-;-
1511264030319;-;-;9.438431;-1.5644226;-2.6281433;-;-;-;-;-;-;-;-;-;-;-;-;-;-;-
1511264030339;-;-;9.57251;-1.8421478;-2.3767548;-;-;-;-;-;-;-;-;-;-;-;-;-;-;-
1511264030360;-;-;9.577301;-2.0684052;-2.1864166;-;-;-;-;-;-;-;-;-;-;-;-;-;-;-
1511264030380;-;-;9.926849;-2.2683105;-1.6884308;-;-;-;-;-;-;-;-;-;-;-;-;-;-;-
1511264030400;-;-;10.150711;-2.3796387;-1.3999176;-;-;-;-;-;-;-;-;-;-;-;-;-;-;-
1511264030421;-;-;10.694199;-2.348526;-1.3484497;-;-;-;-;-;-;-;-;-;-;-;-;-;-;-
1511264030442;-;-;10.661865;-1.9163666;-1.2706451;-;-;-;-;-;-;-;-;-;-;-;-;-;-;-
1511264030462;-;-;10.221344;-2.1366272;-1.4310455;-;-;-;-;-;-;-;-;-;-;-;-;-;-;-
1511264030483;-;-;9.781998;-2.166565;-2.4581604;-;-;-;-;-;-;-;-;-;-;-;-;-;-;-
1511264030503;-;-;9.668274;-1.4291534;-3.6492767;-;-;-;-;-;-;-;-;-;-;-;-;-;-;-
1511264030524;-;-;10.026215;-2.4849854;-4.234665;-;-;-;-;-;-;-;-;-;-;-;-;-;-;-
1511264030544;-;-;13.039307;-3.6904755;-3.3715515;-;-;-;-;-;-;-;-;-;-;-;-;-;-;-
1511264030565;-;-;15.106705;-3.1936798;-5.097763;-;-;-;-;-;-;-;-;-;-;-;-;-;-;-
1511264030585;-;-;13.78511;-3.2164154;-6.8622894;-;-;-;-;-;-;-;-;-;-;-;-;-;-;-
1511264030605;-;-;11.847;-2.4191437;-5.83638;-;-;-;-;-;-;-;-;-;-;-;-;-;-;-
1511264030626;-;-;9.129578;-1.2411957;-4.1305084;-;-;-;-;-;-;-;-;-;-;-;-;-;-;-
1511264030646;-;-;6.5163116;-0.44752502;-3.661255;-;-;-;-;-;-;-;-;-;-;-;-;-;-;-
1511264030666;-;-;5.2306213;0.1953125;-2.9525604;-;-;-;-;-;-;-;-;-;-;-;-;-;-;-
1511264030687;-;-;5.87706;0.2348175;-2.8903198;-;-;-;-;-;-;-;-;-;-;-;-;-;-;-
1511264030707;-;-;7.830719;-1.1238861;-3.151291;-;-;-;-;-;-;-;-;-;-;-;-;-;-;-
1511264030726;-;-;8.866211;-1.7272186;-3.267395;-;-;-;-;-;-;-;-;-;-;-;-;-;-;-
1511264030746;-;-;9.311539;-2.2335968;-3.3547974;-;-;-;-;-;-;-;-;-;-;-;-;-;-;-
1511264030766;-;-;8.795593;-2.3042297;-2.7837677;-;-;-;-;-;-;-;-;-;-;-;-;-;-;-
1511264030787;-;-;7.403366;-1.5476532;-2.9334106;-;-;-;-;-;-;-;-;-;-;-;-;-;-;-
1511264030807;-;-;5.0522614;0.04447937;-3.12854;-;-;-;-;-;-;-;-;-;-;-;-;-;-;-
1511264030827;-;-;3.7725525;1.7228241;-2.8819427;-;-;-;-;-;-;-;-;-;-;-;-;-;-;-
1511264030848;-;-;3.5247498;2.6062775;-2.3827515;-;-;-;-;-;-;-;-;-;-;-;-;-;-;-
1511264030868;-;-;3.758194;2.1334229;-2.1744537;-;-;-;-;-;-;-;-;-;-;-;-;-;-;-
1511264030889;-;-;4.719467;1.0488586;-2.0583344;-;-;-;-;-;-;-;-;-;-;-;-;-;-;-
1511264030909;-;-;7.1842957;-0.07762146;-2.0750885;-;-;-;-;-;-;-;-;-;-;-;-;-;-;-
1511264030929;-;-;9.06015;-0.32182312;-2.5144196;-;-;-;-;-;-;-;-;-;-;-;-;-;-;-
1511264030949;-;-;10.38414;0.52212524;-2.8053284;-;-;-;-;-;-;-;-;-;-;-;-;-;-;-
1511264030969;-;-;11.438782;1.3960114;-3.3643646;-;-;-;-;-;-;-;-;-;-;-;-;-;-;-
1511264030989;-;-;11.564484;1.7922516;-5.125305;-;-;-;-;-;-;-;-;-;-;-;-;-;-;-
1511264031010;-;-;11.29274;1.6186676;-4.539917;-;-;-;-;-;-;-;-;-;-;-;-;-;-;-
1511264031030;-;-;10.211761;0.9064026;-2.3959198;-;-;-;-;-;-;-;-;-;-;-;-;-;-;-
1511264031050;-;-;9.6862335;0.39762878;-1.6237793;-;-;-;-;-;-;-;-;-;-;-;-;-;-;-
1511264031070;-;-;8.461594;0.12588501;-1.9446106;-;-;-;-;-;-;-;-;-;-;-;-;-;-;-
1511264031091;-;-;7.5961;1.319397;-2.5443573;-;-;-;-;-;-;-;-;-;-;-;-;-;-;-
1511264031111;-;-;9.442017;3.8404846;-3.7761688;-;-;-;-;-;-;-;-;-;-;-;-;-;-;-
1511264031131;-;-;12.167816;2.2651062;-3.7378693;-;-;-;-;-;-;-;-;-;-;-;-;-;-;-
1511264031152;-;-;13.434357;3.2551117;-7.4871826;-;-;-;-;-;-;-;-;-;-;-;-;-;-;-
1511264031172;-;-;12.516174;2.1130676;-8.806381;-;-;-;-;-;-;-;-;-;-;-;-;-;-;-
1511264031192;-;-;11.307114;1.2751007;-6.7665253;-;-;-;-;-;-;-;-;-;-;-;-;-;-;-
1511264031213;-;-;8.430481;0.15940857;-4.9014435;-;-;-;-;-;-;-;-;-;-;-;-;-;-;-
1511264031233;-;-;5.904587;-0.48582458;-3.9557343;-;-;-;-;-;-;-;-;-;-;-;-;-;-;-
1511264031253;-;-;6.264923;0.21687317;-2.5168152;-;-;-;-;-;-;-;-;-;-;-;-;-;-;-
1511264031273;-;-;7.561386;0.8345642;-2.7143402;-;-;-;-;-;-;-;-;-;-;-;-;-;-;-
1511264031294;-;-;8.244919;0.67655945;-3.1500854;-;-;-;-;-;-;-;-;-;-;-;-;-;-;-
1511264031314;-;-;8.302383;0.09954834;-4.052704;-;-;-;-;-;-;-;-;-;-;-;-;-;-;-
1511264031334;-;-;8.371811;-0.19134521;-4.2418365;-;-;-;-;-;-;-;-;-;-;-;-;-;-;-
1511264031354;-;-;8.321533;-0.59477234;-3.2757874;-;-;-;-;-;-;-;-;-;-;-;-;-;-;-
1511264031375;-;-;7.3459015;-1.1490326;-2.381546;-;-;-;-;-;-;-;-;-;-;-;-;-;-;-
1511264031395;-;-;5.8483276;-1.8074341;-2.231903;-;-;-;-;-;-;-;-;-;-;-;-;-;-;-
1511264031415;-;-;4.343567;-2.2156372;-2.1493073;-;-;-;-;-;-;-;-;-;-;-;-;-;-;-
1511264031436;-;-;3.355957;-1.9319305;-2.1169891;-;-;-;-;-;-;-;-;-;-;-;-;-;-;-
1511264031456;-;-;3.912613;-1.4662628;-2.1624756;-;-;-;-;-;-;-;-;-;-;-;-;-;-;-
1511264031476;-;-;4.921768;-0.8641205;-2.5012512;-;-;-;-;-;-;-;-;-;-;-;-;-;-;-
1511264031497;-;-;6.3906097;-0.33380127;-2.5048523;-;-;-;-;-;-;-;-;-;-;-;-;-;-;-
1511264031517;-;-;8.443649;-0.34457397;-2.6508942;-;-;-;-;-;-;-;-;-;-;-;-;-;-;-
1511264031537;-;-;10.713348;-0.8198242;-3.2997284;-;-;-;-;-;-;-;-;-;-;-;-;-;-;-
1511264031558;-;-;11.976288;-1.8182068;-3.7354736;-;-;-;-;-;-;-;-;-;-;-;-;-;-;-
1511264031577;-;-;11.9236145;-2.9506683;-3.8539886;-;-;-;-;-;-;-;-;-;-;-;-;-;-;-
1511264031597;-;-;10.648697;-3.2223969;-2.5407562;-;-;-;-;-;-;-;-;-;-;-;-;-;-;-
1511264031617;-;-;9.173874;-2.0037537;-1.8500366;-;-;-;-;-;-;-;-;-;-;-;-;-;-;-
1511264031638;-;-;8.432861;-0.80307007;-2.168457;-;-;-;-;-;-;-;-;-;-;-;-;-;-;-
1511264031658;-;-;7.841507;0.20489502;-1.6489258;-;-;-;-;-;-;-;-;-;-;-;-;-;-;-
1511264031679;-;-;8.289215;-0.1877594;-1.361618;-;-;-;-;-;-;-;-;-;-;-;-;-;-;-
1511264031699;-;-;9.664688;-0.74320984;-1.4753418;-;-;-;-;-;-;-;-;-;-;-;-;-;-;-
1511264031719;-;-;10.924042;-1.8720703;-1.9158783;-;-;-;-;-;-;-;-;-;-;-;-;-;-;-
1511264031740;-;-;10.684616;-3.139801;-2.124176;-;-;-;-;-;-;-;-;-;-;-;-;-;-;-
1511264031760;-;-;10.843826;-2.6681519;-3.0854492;-;-;-;-;-;-;-;-;-;-;-;-;-;-;-
1511264031780;-;-;11.006638;-2.7495422;-4.282547;-;-;-;-;-;-;-;-;-;-;-;-;-;-;-
1511264031800;-;-;12.482666;-4.1884613;-4.0586853;-;-;-;-;-;-;-;-;-;-;-;-;-;-;-
1511264031821;-;-;13.6642;-5.0587616;-3.8216553;-;-;-;-;-;-;-;-;-;-;-;-;-;-;-
1511264031842;-;-;13.538498;-3.45224;-5.9201813;-;-;-;-;-;-;-;-;-;-;-;-;-;-;-
1511264031862;-;-;12.5125885;-2.0133362;-6.504364;-;-;-;-;-;-;-;-;-;-;-;-;-;-;-
1511264031882;-;-;10.102829;-0.67855835;-5.116928;-;-;-;-;-;-;-;-;-;-;-;-;-;-;-
1511264031903;-;-;7.633209;0.51374817;-3.448166;-;-;-;-;-;-;-;-;-;-;-;-;-;-;-
1511264031923;-;-;5.0642242;0.48143005;-2.728714;-;-;-;-;-;-;-;-;-;-;-;-;-;-;-
1511264031943;-;-;5.723831;0.2803192;-2.1074066;-;-;-;-;-;-;-;-;-;-;-;-;-;-;-
1511264031964;-;-;7.51828;-0.4163971;-2.1313477;-;-;-;-;-;-;-;-;-;-;-;-;-;-;-
1511264031985;-;-;9.8203125;-0.9981842;-3.2255096;-;-;-;-;-;-;-;-;-;-;-;-;-;-;-
1511264032005;-;-;10.985092;-1.6661682;-4.211914;-;-;-;-;-;-;-;-;-;-;-;-;-;-;-
1511264032026;-;-;10.300339;-1.8541107;-4.081436;-;-;-;-;-;-;-;-;-;-;-;-;-;-;-
1511264032046;-;-;8.0138855;-0.8018646;-3.6516724;-;-;-;-;-;-;-;-;-;-;-;-;-;-;-
1511264032066;-;-;5.7010803;0.33299255;-3.5463257;-;-;-;-;-;-;-;-;-;-;-;-;-;-;-
1511264032086;-;-;4.2633667;1.3660889;-3.0878448;-;-;-;-;-;-;-;-;-;-;-;-;-;-;-
1511264032107;-;-;3.6684113;2.0041351;-2.6365356;-;-;-;-;-;-;-;-;-;-;-;-;-;-;-
1511264032126;-;-;4.053879;2.1489868;-2.6233673;-;-;-;-;-;-;-;-;-;-;-;-;-;-;-
1511264032146;-;-;5.000778;1.5707855;-2.6999817;-;-;-;-;-;-;-;-;-;-;-;-;-;-;-
1511264032167;-;-;6.0973206;0.7795105;-2.8304596;-;-;-;-;-;-;-;-;-;-;-;-;-;-;-
1511264032188;-;-;7.055008;0.32460022;-2.8484192;-;-;-;-;-;-;-;-;-;-;-;-;-;-;-
1511264032207;-;-;7.477585;0.37608337;-3.0267792;-;-;-;-;-;-;-;-;-;-;-;-;-;-;-
1511264032227;-;-;7.8678436;0.378479;-2.7658234;-;-;-;-;-;-;-;-;-;-;-;-;-;-;-
1511264032248;-;-;8.569336;0.62628174;-2.796936;-;-;-;-;-;-;-;-;-;-;-;-;-;-;-
1511264032268;-;-;8.463989;1.0656128;-2.7694092;-;-;-;-;-;-;-;-;-;-;-;-;-;-;-
1511264032289;-;-;8.135986;1.3134155;-2.591034;-;-;-;-;-;-;-;-;-;-;-;-;-;-;-
1511264032309;-;-;8.436462;1.5504303;-2.168457;-;-;-;-;-;-;-;-;-;-;-;-;-;-;-
1511264032329;-;-;9.104446;1.7467651;-1.4490051;-;-;-;-;-;-;-;-;-;-;-;-;-;-;-
1511264032349;-;-;10.758835;1.3576965;-0.8181305;-;-;-;-;-;-;-;-;-;-;-;-;-;-;-
1511264032370;-;-;10.477524;2.097519;-1.9170685;-;-;-;-;-;-;-;-;-;-;-;-;-;-;-
1511264032390;-;-;9.444412;2.418335;-1.1629028;-;-;-;-;-;-;-;-;-;-;-;-;-;-;-
1511264032410;-;-;8.778824;1.0356903;-4.721878;-;-;-;-;-;-;-;-;-;-;-;-;-;-;-
1511264032430;-;-;10.160278;3.283844;-3.6444855;-;-;-;-;-;-;-;-;-;-;-;-;-;-;-
1511264032451;-;-;14.101135;5.8193054;-1.7566681;-;-;-;-;-;-;-;-;-;-;-;-;-;-;-
1511264032471;-;-;13.416397;4.941818;-6.0746;-;-;-;-;-;-;-;-;-;-;-;-;-;-;-
1511264032492;-;-;9.675461;4.154129;-10.014267;-;-;-;-;-;-;-;-;-;-;-;-;-;-;-
1511264032512;-;-;9.434845;2.1633606;-5.91658;-;-;-;-;-;-;-;-;-;-;-;-;-;-;-
1511264032532;-;-;6.3427277;1.0021667;-4.5375214;-;-;-;-;-;-;-;-;-;-;-;-;-;-;-
1511264032553;-;-;4.7517853;0.5341034;-5.5059814;-;-;-;-;-;-;-;-;-;-;-;-;-;-;-
1511264032573;-;-;6.7377777;0.7112732;-5.3204346;-;-;-;-;-;-;-;-;-;-;-;-;-;-;-
1511264032593;-;-;9.151123;1.616272;-5.033127;-;-;-;-;-;-;-;-;-;-;-;-;-;-;-
1511264032613;-;-;9.421677;2.4638214;-5.8938446;-;-;-;-;-;-;-;-;-;-;-;-;-;-;-
1511264032634;-;-;9.744888;2.2160187;-5.4676666;-;-;-;-;-;-;-;-;-;-;-;-;-;-;-
1511264032655;-;-;10.045364;1.022522;-4.2574005;-;-;-;-;-;-;-;-;-;-;-;-;-;-;-
1511264032675;-;-;9.892136;-0.06564331;-3.6576538;-;-;-;-;-;-;-;-;-;-;-;-;-;-;-
1511264032695;-;-;8.213791;-0.4834442;-3.1452942;-;-;-;-;-;-;-;-;-;-;-;-;-;-;-
1511264032715;-;-;5.8567047;-0.6318817;-2.796936;-;-;-;-;-;-;-;-;-;-;-;-;-;-;-
1511264032736;-;-;3.9233856;-0.72883606;-2.6173706;-;-;-;-;-;-;-;-;-;-;-;-;-;-;-
1511264032756;-;-;3.2697754;-0.7695465;-2.3552094;-;-;-;-;-;-;-;-;-;-;-;-;-;-;-
1511264032776;-;-;3.5977783;-0.9934082;-2.172058;-;-;-;-;-;-;-;-;-;-;-;-;-;-;-
1511264032797;-;-;4.5542603;-1.1358643;-2.1145935;-;-;-;-;-;-;-;-;-;-;-;-;-;-;-
1511264032817;-;-;6.0638123;-1.1454315;-2.5766754;-;-;-;-;-;-;-;-;-;-;-;-;-;-;-
1511264032837;-;-;7.3231506;-0.9874115;-3.191986;-;-;-;-;-;-;-;-;-;-;-;-;-;-;-
1511264032858;-;-;9.003891;-0.3984375;-3.3727417;-;-;-;-;-;-;-;-;-;-;-;-;-;-;-
1511264032878;-;-;9.766434;-0.114730835;-3.4541473;-;-;-;-;-;-;-;-;-;-;-;-;-;-;-
1511264032898;-;-;10.074097;-0.20211792;-3.5295715;-;-;-;-;-;-;-;-;-;-;-;-;-;-;-
1511264032919;-;-;9.850235;-0.56604004;-3.2817688;-;-;-;-;-;-;-;-;-;-;-;-;-;-;-
1511264032938;-;-;9.5282135;-0.80784607;-2.5754852;-;-;-;-;-;-;-;-;-;-;-;-;-;-;-
1511264032958;-;-;8.929672;-0.6713867;-2.0391846;-;-;-;-;-;-;-;-;-;-;-;-;-;-;-
1511264032979;-;-;7.988739;-0.62350464;-1.2083893;-;-;-;-;-;-;-;-;-;-;-;-;-;-;-
1511264032999;-;-;7.5122986;-0.62709045;-0.9330597;-;-;-;-;-;-;-;-;-;-;-;-;-;-;-
1511264033019;-;-;7.707428;-0.49421692;-1.550766;-;-;-;-;-;-;-;-;-;-;-;-;-;-;-
1511264033040;-;-;9.009872;-0.088394165;-1.5771027;-;-;-;-;-;-;-;-;-;-;-;-;-;-;-
1511264033060;-;-;10.172256;0.42515564;-1.3891449;-;-;-;-;-;-;-;-;-;-;-;-;-;-;-
1511264033080;-;-;10.588852;1.279892;-1.0898743;-;-;-;-;-;-;-;-;-;-;-;-;-;-;-
1511264033101;-;-;9.65271;1.3373566;-1.5771027;-;-;-;-;-;-;-;-;-;-;-;-;-;-;-
1511264033121;-;-;8.904526;0.008575439;-2.614975;-;-;-;-;-;-;-;-;-;-;-;-;-;-;-
1511264033141;-;-;8.892548;-1.1717682;-2.7718048;-;-;-;-;-;-;-;-;-;-;-;-;-;-;-
1511264033162;-;-;7.624832;-2.071991;-2.1888123;-;-;-;-;-;-;-;-;-;-;-;-;-;-;-
1511264033182;-;-;8.950012;-0.8473511;-2.8927155;-;-;-;-;-;-;-;-;-;-;-;-;-;-;-
1511264033202;-;-;11.569275;-1.3860474;-2.4593658;-;-;-;-;-;-;-;-;-;-;-;-;-;-;-
1511264033222;-;-;13.866516;-3.5492096;-6.4121857;-;-;-;-;-;-;-;-;-;-;-;-;-;-;-
1511264033242;-;-;12.428787;-1.254364;-8.036652;-;-;-;-;-;-;-;-;-;-;-;-;-;-;-
1511264033263;-;-;9.825104;-0.057266235;-6.011154;-;-;-;-;-;-;-;-;-;-;-;-;-;-;-
1511264033283;-;-;7.403366;1.8006287;-3.6947632;-;-;-;-;-;-;-;-;-;-;-;-;-;-;-
1511264033304;-;-;5.5191193;3.1401825;-1.8739777;-;-;-;-;-;-;-;-;-;-;-;-;-;-;-
1511264033323;-;-;4.5841827;3.2227936;-1.8057404;-;-;-;-;-;-;-;-;-;-;-;-;-;-;-
1511264033343;-;-;5.726227;1.5193176;-2.1888123;-;-;-;-;-;-;-;-;-;-;-;-;-;-;-
1511264033364;-;-;7.2501373;0.016952515;-1.7159576;-;-;-;-;-;-;-;-;-;-;-;-;-;-;-
1511264033383;-;-;9.0577545;-0.5061798;-1.1545258;-;-;-;-;-;-;-;-;-;-;-;-;-;-;-
1511264033403;-;-;10.083664;-0.5384979;-1.0419922;-;-;-;-;-;-;-;-;-;-;-;-;-;-;-
1511264033424;-;-;10.534973;0.026535034;-1.9062958;-;-;-;-;-;-;-;-;-;-;-;-;-;-;-
1511264033444;-;-;10.341049;0.77711487;-2.630539;-;-;-;-;-;-;-;-;-;-;-;-;-;-;-
1511264033464;-;-;9.55455;1.3229828;-2.6113892;-;-;-;-;-;-;-;-;-;-;-;-;-;-;-
1511264033485;-;-;8.490326;1.5025482;-2.0032654;-;-;-;-;-;-;-;-;-;-;-;-;-;-;-
1511264033505;-;-;7.556595;1.3636932;-1.4669647;-;-;-;-;-;-;-;-;-;-;-;-;-;-;-
1511264033526;-;-;7.125641;1.0943451;-1.0384064;-;-;-;-;-;-;-;-;-;-;-;-;-;-;-
1511264033546;-;-;7.1244354;0.9901886;-1.0503693;-;-;-;-;-;-;-;-;-;-;-;-;-;-;-
1511264033566;-;-;7.3782196;1.085968;-1.4454193;-;-;-;-;-;-;-;-;-;-;-;-;-;-;-
1511264033586;-;-;7.8726196;0.9961853;-1.5004883;-;-;-;-;-;-;-;-;-;-;-;-;-;-;-
1511264033607;-;-;8.280838;0.9315338;-1.1844482;-;-;-;-;-;-;-;-;-;-;-;-;-;-;-
1511264033627;-;-;8.528641;0.9973755;-1.0132599;-;-;-;-;-;-;-;-;-;-;-;-;-;-;-
1511264033647;-;-;8.594482;0.88246155;-1.0635376;-;-;-;-;-;-;-;-;-;-;-;-;-;-;-
1511264033668;-;-;8.414917;0.47424316;-0.9474182;-;-;-;-;-;-;-;-;-;-;-;-;-;-;-
1511264033688;-;-;8.18866;0.1953125;-0.52604675;-;-;-;-;-;-;-;-;-;-;-;-;-;-;-
1511264033708;-;-;8.367035;-0.0069885254;-0.15493774;-;-;-;-;-;-;-;-;-;-;-;-;-;-;-
1511264033729;-;-;9.464767;-0.4152069;0.036590576;-;-;-;-;-;-;-;-;-;-;-;-;-;-;-
1511264033749;-;-;10.361404;-0.7731323;0.9284363;-;-;-;-;-;-;-;-;-;-;-;-;-;-;-
1511264033769;-;-;11.03656;-1.2675323;0.56092834;-;-;-;-;-;-;-;-;-;-;-;-;-;-;-
1511264033789;-;-;11.503433;-0.6498413;0.17425537;-;-;-;-;-;-;-;-;-;-;-;-;-;-;-
1511264033809;-;-;10.24408;1.185318;0.021026611;-;-;-;-;-;-;-;-;-;-;-;-;-;-;-
1511264033830;-;-;9.612015;2.3261566;0.5286102;-;-;-;-;-;-;-;-;-;-;-;-;-;-;-
1511264033850;-;-;9.737701;3.589096;-1.5208282;-;-;-;-;-;-;-;-;-;-;-;-;-;-;-
1511264033870;-;-;10.514633;5.4314423;-3.5630798;-;-;-;-;-;-;-;-;-;-;-;-;-;-;-
1511264033890;-;-;13.866516;5.485306;-5.0917816;-;-;-;-;-;-;-;-;-;-;-;-;-;-;-
1511264033911;-;-;16.004532;2.955841;-7.883423;-;-;-;-;-;-;-;-;-;-;-;-;-;-;-
1511264033931;-;-;12.839401;0.37727356;-9.4791565;-;-;-;-;-;-;-;-;-;-;-;-;-;-;-
1511264033951;-;-;8.015076;-0.042907715;-8.443665;-;-;-;-;-;-;-;-;-;-;-;-;-;-;-
1511264033972;-;-;4.4944;-0.22845459;-5.2366333;-;-;-;-;-;-;-;-;-;-;-;-;-;-;-
1511264033992;-;-;3.145279;-1.1262817;-2.4773102;-;-;-;-;-;-;-;-;-;-;-;-;-;-;-
1511264034012;-;-;3.3068848;-1.9941711;-1.401123;-;-;-;-;-;-;-;-;-;-;-;-;-;-;-
1511264034033;-;-;5.1324615;-2.2335968;-1.5854797;-;-;-;-;-;-;-;-;-;-;-;-;-;-;-
1511264034053;-;-;8.10965;-1.5285034;-3.0854492;-;-;-;-;-;-;-;-;-;-;-;-;-;-;-
1511264034073;-;-;10.355408;-0.095581055;-3.851593;-;-;-;-;-;-;-;-;-;-;-;-;-;-;-
1511264034093;-;-;10.760025;0.45388794;-4.784134;-;-;-;-;-;-;-;-;-;-;-;-;-;-;-
1511264034114;-;-;10.350616;0.21806335;-4.879898;-;-;-;-;-;-;-;-;-;-;-;-;-;-;-
1511264034134;-;-;9.428848;0.33418274;-4.635681;-;-;-;-;-;-;-;-;-;-;-;-;-;-;-
1511264034154;-;-;9.114014;-0.033325195;-3.44458;-;-;-;-;-;-;-;-;-;-;-;-;-;-;-
1511264034175;-;-;9.143951;-1.324997;-2.5347748;-;-;-;-;-;-;-;-;-;-;-;-;-;-;-
1511264034195;-;-;8.868607;-2.471817;-2.4701385;-;-;-;-;-;-;-;-;-;-;-;-;-;-;-
1511264034215;-;-;8.5849;-3.0069275;-1.6860352;-;-;-;-;-;-;-;-;-;-;-;-;-;-;-
1511264034235;-;-;8.315552;-3.0787506;-1.0336151;-;-;-;-;-;-;-;-;-;-;-;-;-;-;-
1511264034256;-;-;8.367035;-2.1557922;-0.87080383;-;-;-;-;-;-;-;-;-;-;-;-;-;-;-
1511264034276;-;-;8.4843445;-0.933548;-1.2850037;-;-;-;-;-;-;-;-;-;-;-;-;-;-;-
1511264034296;-;-;8.905716;-0.61631775;-1.5100555;-;-;-;-;-;-;-;-;-;-;-;-;-;-;-
1511264034317;-;-;9.085281;-0.9000244;-1.8153229;-;-;-;-;-;-;-;-;-;-;-;-;-;-;-
1511264034337;-;-;8.848267;-1.3046417;-1.8165131;-;-;-;-;-;-;-;-;-;-;-;-;-;-;-
1511264034358;-;-;8.480759;-2.0300903;-1.4597778;-;-;-;-;-;-;-;-;-;-;-;-;-;-;-
1511264034378;-;-;7.9145203;-2.3796387;-1.2562714;-;-;-;-;-;-;-;-;-;-;-;-;-;-;-
1511264034398;-;-;7.842697;-1.992981;-1.0599518;-;-;-;-;-;-;-;-;-;-;-;-;-;-;-
1511264034418;-;-;8.48793;-1.7463837;-0.8887634;-;-;-;-;-;-;-;-;-;-;-;-;-;-;-
1511264034439;-;-;8.8602295;-2.1581879;-0.9007416;-;-;-;-;-;-;-;-;-;-;-;-;-;-;-
1511264034459;-;-;9.264847;-2.7112427;-1.0862885;-;-;-;-;-;-;-;-;-;-;-;-;-;-;-
1511264034479;-;-;9.580887;-2.8572845;-1.2598572;-;-;-;-;-;-;-;-;-;-;-;-;-;-;-
1511264034500;-;-;9.920868;-2.399994;-1.5172424;-;-;-;-;-;-;-;-;-;-;-;-;-;-;-
1511264034520;-;-;9.833481;-1.843338;-1.7794037;-;-;-;-;-;-;-;-;-;-;-;-;-;-;-
1511264034540;-;-;9.819107;-1.0747986;-2.1708527;-;-;-;-;-;-;-;-;-;-;-;-;-;-;-
1511264034561;-;-;10.855804;-0.028533936;-2.7143402;-;-;-;-;-;-;-;-;-;-;-;-;-;-;-
1511264034581;-;-;11.874527;0.1953125;-2.9202423;-;-;-;-;-;-;-;-;-;-;-;-;-;-;-
1511264034601;-;-;12.842987;-0.0069885254;-4.4154205;-;-;-;-;-;-;-;-;-;-;-;-;-;-;-
1511264034622;-;-;12.939957;-2.4502716;-4.5770264;-;-;-;-;-;-;-;-;-;-;-;-;-;-;-
1511264034642;-;-;13.767151;-6.2163544;-2.828064;-;-;-;-;-;-;-;-;-;-;-;-;-;-;-
1511264034663;-;-;11.982269;-6.8915253;-3.9054565;-;-;-;-;-;-;-;-;-;-;-;-;-;-;-
1511264034683;-;-;12.882492;-5.004883;-4.4621124;-;-;-;-;-;-;-;-;-;-;-;-;-;-;-
1511264034703;-;-;11.551315;-1.7164459;-5.6891327;-;-;-;-;-;-;-;-;-;-;-;-;-;-;-
1511264034723;-;-;8.717773;0.34016418;-6.1033325;-;-;-;-;-;-;-;-;-;-;-;-;-;-;-
1511264034744;-;-;4.216675;1.6174774;-6.4828186;-;-;-;-;-;-;-;-;-;-;-;-;-;-;-
1511264034764;-;-;3.3260345;1.3852386;-6.0638275;-;-;-;-;-;-;-;-;-;-;-;-;-;-;-
1511264034784;-;-;5.568207;0.34854126;-5.235443;-;-;-;-;-;-;-;-;-;-;-;-;-;-;-
1511264034804;-;-;7.4440613;-0.9682617;-5.0079803;-;-;-;-;-;-;-;-;-;-;-;-;-;-;-
1511264034824;-;-;9.268448;-2.0671997;-4.887085;-;-;-;-;-;-;-;-;-;-;-;-;-;-;-
1511264034844;-;-;9.505478;-2.5364685;-4.6488495;-;-;-;-;-;-;-;-;-;-;-;-;-;-;-
1511264034864;-;-;9.147537;-2.289856;-4.507599;-;-;-;-;-;-;-;-;-;-;-;-;-;-;-
1511264034885;-;-;8.90094;-1.4231567;-4.076645;-;-;-;-;-;-;-;-;-;-;-;-;-;-;-
1511264034904;-;-;8.495117;-0.5732269;-3.583435;-;-;-;-;-;-;-;-;-;-;-;-;-;-;-
1511264034924;-;-;7.525467;0.074417114;-2.9884796;-;-;-;-;-;-;-;-;-;-;-;-;-;-;-
1511264034944;-;-;5.965637;0.58677673;-3.4230194;-;-;-;-;-;-;-;-;-;-;-;-;-;-;-
1511264034965;-;-;5.418564;0.68133545;-3.7234955;-;-;-;-;-;-;-;-;-;-;-;-;-;-;-
1511264034985;-;-;5.236603;0.9207611;-3.5463257;-;-;-;-;-;-;-;-;-;-;-;-;-;-;-
1511264035006;-;-;5.411392;1.4115753;-3.678009;-;-;-;-;-;-;-;-;-;-;-;-;-;-;-
1511264035026;-;-;6.178726;1.4486847;-4.085022;-;-;-;-;-;-;-;-;-;-;-;-;-;-;-
1511264035045;-;-;7.502716;1.0129395;-3.7199097;-;-;-;-;-;-;-;-;-;-;-;-;-;-;-
1511264035065;-;-;8.181473;0.42515564;-3.473297;-;-;-;-;-;-;-;-;-;-;-;-;-;-;-
1511264035086;-;-;7.9576263;0.04208374;-3.6109772;-;-;-;-;-;-;-;-;-;-;-;-;-;-;-
1511264035106;-;-;7.9348755;-0.42358398;-3.678009;-;-;-;-;-;-;-;-;-;-;-;-;-;-;-
1511264035126;-;-;8.217392;-0.58877563;-3.2662048;-;-;-;-;-;-;-;-;-;-;-;-;-;-;-
1511264035146;-;-;8.481949;-0.1697998;-2.915451;-;-;-;-;-;-;-;-;-;-;-;-;-;-;-
1511264035166;-;-;8.463989;0.22644043;-2.9884796;-;-;-;-;-;-;-;-;-;-;-;-;-;-;-
1511264035187;-;-;8.116837;0.8585205;-2.9848938;-;-;-;-;-;-;-;-;-;-;-;-;-;-;-
1511264035207;-;-;7.85347;1.4103699;-2.7514496;-;-;-;-;-;-;-;-;-;-;-;-;-;-;-
1511264035227;-;-;7.9264984;1.947876;-2.6903992;-;-;-;-;-;-;-;-;-;-;-;-;-;-;-
1511264035248;-;-;7.8726196;2.1465912;-2.665268;-;-;-;-;-;-;-;-;-;-;-;-;-;-;-
1511264035268;-;-;8.031845;1.6845093;-2.488083;-;-;-;-;-;-;-;-;-;-;-;-;-;-;-
1511264035289;-;-;8.537018;1.1996918;-2.191208;-;-;-;-;-;-;-;-;-;-;-;-;-;-;-
1511264035309;-;-;9.17627;0.46826172;-2.0260162;-;-;-;-;-;-;-;-;-;-;-;-;-;-;-
1511264035328;-;-;9.117615;0.6442261;-2.836441;-;-;-;-;-;-;-;-;-;-;-;-;-;-;-
1511264035348;-;-;8.103668;1.0201263;-3.0950165;-;-;-;-;-;-;-;-;-;-;-;-;-;-;-
1511264035368;-;-;8.599258;2.679306;-3.6528625;-;-;-;-;-;-;-;-;-;-;-;-;-;-;-
1511264035389;-;-;10.124374;4.2343445;-4.378311;-;-;-;-;-;-;-;-;-;-;-;-;-;-;-
1511264035409;-;-;12.068466;5.148926;-4.9996033;-;-;-;-;-;-;-;-;-;-;-;-;-;-;-
1511264035429;-;-;13.093185;3.8404846;-6.907791;-;-;-;-;-;-;-;-;-;-;-;-;-;-;-
1511264035450;-;-;13.325424;2.7080383;-8.0438385;-;-;-;-;-;-;-;-;-;-;-;-;-;-;-
1511264035470;-;-;12.353378;2.435089;-6.837158;-;-;-;-;-;-;-;-;-;-;-;-;-;-;-
1511264035490;-;-;10.554138;1.5887451;-5.0271454;-;-;-;-;-;-;-;-;-;-;-;-;-;-;-
1511264035510;-;-;8.114441;-0.121917725;-4.0826263;-;-;-;-;-;-;-;-;-;-;-;-;-;-;-
1511264035531;-;-;7.0286713;-1.313034;-3.9952393;-;-;-;-;-;-;-;-;-;-;-;-;-;-;-
1511264035551;-;-;6.738968;-2.135437;-4.132904;-;-;-;-;-;-;-;-;-;-;-;-;-;-;-
1511264035572;-;-;6.9305115;-2.143814;-4.085022;-;-;-;-;-;-;-;-;-;-;-;-;-;-;-
1511264035591;-;-;7.738556;-1.1143036;-4.1113586;-;-;-;-;-;-;-;-;-;-;-;-;-;-;-
1511264035611;-;-;8.669891;0.38206482;-4.021576;-;-;-;-;-;-;-;-;-;-;-;-;-;-;-
1511264035632;-;-;9.169083;1.1529999;-4.1748047;-;-;-;-;-;-;-;-;-;-;-;-;-;-;-
1511264035651;-;-;9.476746;1.1039124;-4.7278595;-;-;-;-;-;-;-;-;-;-;-;-;-;-;-
1511264035671;-;-;9.069733;0.5700073;-5.3240204;-;-;-;-;-;-;-;-;-;-;-;-;-;-;-
1511264035692;-;-;8.065353;0.013366699;-4.993622;-;-;-;-;-;-;-;-;-;-;-;-;-;-;-
1511264035712;-;-;6.163162;-1.0544586;-3.420639;-;-;-;-;-;-;-;-;-;-;-;-;-;-;-
1511264035733;-;-;4.9828186;-1.5931549;-2.4390106;-;-;-;-;-;-;-;-;-;-;-;-;-;-;-
1511264035753;-;-;4.600952;-1.799057;-1.9374237;-;-;-;-;-;-;-;-;-;-;-;-;-;-;-
1511264035773;-;-;4.4752502;-1.6637726;-1.8619995;-;-;-;-;-;-;-;-;-;-;-;-;-;-;-
1511264035793;-;-;4.715866;-1.4147797;-1.9912872;-;-;-;-;-;-;-;-;-;-;-;-;-;-;-
1511264035814;-;-;5.3934326;-1.4375305;-2.108612;-;-;-;-;-;-;-;-;-;-;-;-;-;-;-
1511264035834;-;-;6.6036987;-1.3716888;-2.562317;-;-;-;-;-;-;-;-;-;-;-;-;-;-;-
1511264035854;-;-;7.5877075;-1.3561249;-2.9801025;-;-;-;-;-;-;-;-;-;-;-;-;-;-;-
1511264035874;-;-;8.462799;-0.8748932;-3.1105804;-;-;-;-;-;-;-;-;-;-;-;-;-;-;-
1511264035895;-;-;8.551376;-0.8665161;-3.100998;-;-;-;-;-;-;-;-;-;-;-;-;-;-;-
1511264035914;-;-;8.814743;-1.6865234;-2.9022827;-;-;-;-;-;-;-;-;-;-;-;-;-;-;-
1511264035934;-;-;8.831497;-2.6190643;-2.5682983;-;-;-;-;-;-;-;-;-;-;-;-;-;-;-
1511264035954;-;-;8.893753;-3.2080383;-2.570694;-;-;-;-;-;-;-;-;-;-;-;-;-;-;-
1511264035974;-;-;9.594055;-3.2140198;-2.484497;-;-;-;-;-;-;-;-;-;-;-;-;-;-;-
1511264035995;-;-;10.299149;-2.6669464;-2.4641418;-;-;-;-;-;-;-;-;-;-;-;-;-;-;-
1511264036015;-;-;10.813904;-1.8924255;-2.3396454;-;-;-;-;-;-;-;-;-;-;-;-;-;-;-
1511264036035;-;-;11.040161;-1.313034;-1.9960785;-;-;-;-;-;-;-;-;-;-;-;-;-;-;-
1511264036056;-;-;9.650314;-1.4961853;-2.163681;-;-;-;-;-;-;-;-;-;-;-;-;-;-;-
1511264036075;-;-;9.838257;-2.0528412;-2.175644;-;-;-;-;-;-;-;-;-;-;-;-;-;-;-
1511264036095;-;-;11.814682;-1.680542;-1.6417389;-;-;-;-;-;-;-;-;-;-;-;-;-;-;-
1511264036116;-;-;12.105576;-0.7623596;-3.2853546;-;-;-;-;-;-;-;-;-;-;-;-;-;-;-
1511264036135;-;-;11.709335;-2.1330414;-5.0678406;-;-;-;-;-;-;-;-;-;-;-;-;-;-;-
1511264036155;-;-;13.579208;-6.725128;-3.6791992;-;-;-;-;-;-;-;-;-;-;-;-;-;-;-
1511264036175;-;-;14.4375305;-7.7306824;-5.057068;-;-;-;-;-;-;-;-;-;-;-;-;-;-;-
1511264036196;-;-;12.87291;-4.7582855;-5.4341583;-;-;-;-;-;-;-;-;-;-;-;-;-;-;-
1511264036216;-;-;10.302734;-2.269516;-4.270569;-;-;-;-;-;-;-;-;-;-;-;-;-;-;-
1511264036236;-;-;7.1555634;-0.51934814;-3.3320465;-;-;-;-;-;-;-;-;-;-;-;-;-;-;-
1511264036257;-;-;4.319626;-0.03453064;-3.2901459;-;-;-;-;-;-;-;-;-;-;-;-;-;-;-
1511264036277;-;-;4.356735;-0.32302856;-3.0267792;-;-;-;-;-;-;-;-;-;-;-;-;-;-;-
1511264036297;-;-;5.5801697;-1.6134949;-2.4066925;-;-;-;-;-;-;-;-;-;-;-;-;-;-;-
1511264036318;-;-;8.235352;-3.1445923;-2.5754852;-;-;-;-;-;-;-;-;-;-;-;-;-;-;-
1511264036337;-;-;9.011063;-3.0727692;-2.7933502;-;-;-;-;-;-;-;-;-;-;-;-;-;-;-
1511264036357;-;-;9.248093;-2.3832397;-3.5415344;-;-;-;-;-;-;-;-;-;-;-;-;-;-;-
1511264036377;-;-;8.164719;-1.1645813;-3.314087;-;-;-;-;-;-;-;-;-;-;-;-;-;-;-
1511264036397;-;-;6.4528656;-0.40203857;-3.096222;-;-;-;-;-;-;-;-;-;-;-;-;-;-;-
1511264036417;-;-;4.7769165;0.37727356;-3.065094;-;-;-;-;-;-;-;-;-;-;-;-;-;-;-
1511264036438;-;-;4.0167694;1.0871582;-3.1620636;-;-;-;-;-;-;-;-;-;-;-;-;-;-;-
1511264036458;-;-;3.8874817;1.8892212;-2.9896698;-;-;-;-;-;-;-;-;-;-;-;-;-;-;-
1511264036478;-;-;4.39624;2.0951233;-2.9872742;-;-;-;-;-;-;-;-;-;-;-;-;-;-;-
1511264036498;-;-;5.2150574;1.651001;-2.9190521;-;-;-;-;-;-;-;-;-;-;-;-;-;-;-
1511264036519;-;-;6.315201;0.872879;-3.100998;-;-;-;-;-;-;-;-;-;-;-;-;-;-;-
1511264036539;-;-;7.8091736;0.25398254;-3.3356323;-;-;-;-;-;-;-;-;-;-;-;-;-;-;-
1511264036559;-;-;10.021423;0.2527771;-3.3356323;-;-;-;-;-;-;-;-;-;-;-;-;-;-;-
1511264036579;-;-;11.376541;0.4479065;-3.4709167;-;-;-;-;-;-;-;-;-;-;-;-;-;-;-
1511264036600;-;-;11.580048;0.69091797;-3.4517517;-;-;-;-;-;-;-;-;-;-;-;-;-;-;-
1511264036620;-;-;11.005432;0.7507782;-3.1931763;-;-;-;-;-;-;-;-;-;-;-;-;-;-;-
1511264036640;-;-;10.053741;0.70529175;-2.2486725;-;-;-;-;-;-;-;-;-;-;-;-;-;-;-
1511264036661;-;-;9.039795;0.37608337;-1.9314423;-;-;-;-;-;-;-;-;-;-;-;-;-;-;-
1511264036681;-;-;8.748901;0.57240295;-1.6046295;-;-;-;-;-;-;-;-;-;-;-;-;-;-;-
1511264036701;-;-;8.396957;0.69810486;-1.3735962;-;-;-;-;-;-;-;-;-;-;-;-;-;-;-
1511264036722;-;-;8.6423645;1.4331207;-1.4861145;-;-;-;-;-;-;-;-;-;-;-;-;-;-;-
1511264036742;-;-;9.250488;1.2032776;-1.4669647;-;-;-;-;-;-;-;-;-;-;-;-;-;-;-
1511264036762;-;-;9.566528;0.03730774;-2.5371704;-;-;-;-;-;-;-;-;-;-;-;-;-;-;-
1511264036782;-;-;10.357803;0.82618713;-3.630127;-;-;-;-;-;-;-;-;-;-;-;-;-;-;-
1511264036803;-;-;11.298721;3.5471954;-6.2888794;-;-;-;-;-;-;-;-;-;-;-;-;-;-;-
1511264036823;-;-;12.584412;6.008438;-6.002777;-;-;-;-;-;-;-;-;-;-;-;-;-;-;-
1511264036843;-;-;11.048538;4.0248413;-6.521118;-;-;-;-;-;-;-;-;-;-;-;-;-;-;-
1511264036864;-;-;10.14711;1.0117493;-6.045868;-;-;-;-;-;-;-;-;-;-;-;-;-;-;-
1511264036884;-;-;8.985931;-0.48104858;-4.907425;-;-;-;-;-;-;-;-;-;-;-;-;-;-;-
1511264036904;-;-;7.8438873;-2.269516;-3.4948578;-;-;-;-;-;-;-;-;-;-;-;-;-;-;-
1511264036925;-;-;7.3423157;-2.4287262;-2.8735504;-;-;-;-;-;-;-;-;-;-;-;-;-;-;-
1511264036946;-;-;6.754532;-0.39604187;-3.6744232;-;-;-;-;-;-;-;-;-;-;-;-;-;-;-
1511264036966;-;-;7.1603546;0.86808777;-4.338806;-;-;-;-;-;-;-;-;-;-;-;-;-;-;-
1511264036986;-;-;8.392166;1.2535553;-4.930176;-;-;-;-;-;-;-;-;-;-;-;-;-;-;-
1511264037006;-;-;9.546173;1.0632172;-5.0678406;-;-;-;-;-;-;-;-;-;-;-;-;-;-;-
1511264037026;-;-;10.053741;0.01574707;-4.357956;-;-;-;-;-;-;-;-;-;-;-;-;-;-;-
1511264037047;-;-;9.175064;-0.56243896;-3.6025848;-;-;-;-;-;-;-;-;-;-;-;-;-;-;-
1511264037067;-;-;7.4955444;-1.0736084;-3.1860046;-;-;-;-;-;-;-;-;-;-;-;-;-;-;-
1511264037087;-;-;5.8710785;-1.6266632;-2.8627777;-;-;-;-;-;-;-;-;-;-;-;-;-;-;-
1511264037108;-;-;4.7673492;-2.1162872;-2.5575256;-;-;-;-;-;-;-;-;-;-;-;-;-;-;-
1511264037128;-;-;4.2657623;-2.2970428;-2.3133087;-;-;-;-;-;-;-;-;-;-;-;-;-;-;-
1511264037148;-;-;4.4884186;-1.9558716;-2.2929688;-;-;-;-;-;-;-;-;-;-;-;-;-;-;-
1511264037169;-;-;5.1240845;-1.0999451;-2.151703;-;-;-;-;-;-;-;-;-;-;-;-;-;-;-
1511264037189;-;-;6.403778;-0.5313263;-2.2378998;-;-;-;-;-;-;-;-;-;-;-;-;-;-;-
1511264037209;-;-;7.6571503;-0.59716797;-2.3755646;-;-;-;-;-;-;-;-;-;-;-;-;-;-;-
1511264037229;-;-;8.917694;-1.012558;-2.9106598;-;-;-;-;-;-;-;-;-;-;-;-;-;-;-
1511264037250;-;-;9.29837;-1.3776703;-3.4182434;-;-;-;-;-;-;-;-;-;-;-;-;-;-;-
1511264037270;-;-;9.768829;-1.3716888;-3.46492;-;-;-;-;-;-;-;-;-;-;-;-;-;-;-
1511264037290;-;-;9.8645935;-1.5105438;-3.136917;-;-;-;-;-;-;-;-;-;-;-;-;-;-;-
1511264037311;-;-;9.9436035;-1.9474945;-2.7753906;-;-;-;-;-;-;-;-;-;-;-;-;-;-;-
1511264037331;-;-;9.404907;-2.4490814;-2.3540192;-;-;-;-;-;-;-;-;-;-;-;-;-;-;-
1511264037352;-;-;9.184647;-2.2348022;-1.3735962;-;-;-;-;-;-;-;-;-;-;-;-;-;-;-
1511264037371;-;-;9.525818;-1.4375305;-0.8660126;-;-;-;-;-;-;-;-;-;-;-;-;-;-;-
1511264037391;-;-;9.894531;-1.269928;-0.86361694;-;-;-;-;-;-;-;-;-;-;-;-;-;-;-
1511264037411;-;-;9.744888;-1.6206818;-0.9546051;-;-;-;-;-;-;-;-;-;-;-;-;-;-;-
1511264037432;-;-;9.774811;-1.8553162;-2.2127533;-;-;-;-;-;-;-;-;-;-;-;-;-;-;-
1511264037452;-;-;10.432022;-2.6896973;-4.1197357;-;-;-;-;-;-;-;-;-;-;-;-;-;-;-
1511264037472;-;-;12.202545;-4.0855103;-4.627304;-;-;-;-;-;-;-;-;-;-;-;-;-;-;-
1511264037493;-;-;14.244797;-3.953827;-4.4429626;-;-;-;-;-;-;-;-;-;-;-;-;-;-;-
1511264037513;-;-;14.824188;-3.5252686;-6.8587036;-;-;-;-;-;-;-;-;-;-;-;-;-;-;-
1511264037533;-;-;13.076416;-3.4199219;-7.101715;-;-;-;-;-;-;-;-;-;-;-;-;-;-;-
1511264037554;-;-;8.757278;-2.2120514;-5.409012;-;-;-;-;-;-;-;-;-;-;-;-;-;-;-
1511264037574;-;-;5.4688416;-1.3273926;-4.9134216;-;-;-;-;-;-;-;-;-;-;-;-;-;-;-
1511264037594;-;-;4.0;-0.9646759;-3.9282074;-;-;-;-;-;-;-;-;-;-;-;-;-;-;-
1511264037615;-;-;5.0546417;-0.5756073;-3.1620636;-;-;-;-;-;-;-;-;-;-;-;-;-;-;-
1511264037635;-;-;7.8953705;-0.6797638;-3.5870209;-;-;-;-;-;-;-;-;-;-;-;-;-;-;-
1511264037655;-;-;9.857422;-1.4363251;-5.0953827;-;-;-;-;-;-;-;-;-;-;-;-;-;-;-
1511264037676;-;-;9.470749;-2.0684052;-4.234665;-;-;-;-;-;-;-;-;-;-;-;-;-;-;-
1511264037696;-;-;9.75087;-2.4227448;-3.3128967;-;-;-;-;-;-;-;-;-;-;-;-;-;-;-
1511264037716;-;-;9.69342;-1.9115753;-3.2207184;-;-;-;-;-;-;-;-;-;-;-;-;-;-;-
1511264037737;-;-;8.017471;-0.7312317;-3.7366638;-;-;-;-;-;-;-;-;-;-;-;-;-;-;-
1511264037757;-;-;5.8878326;0.4407196;-3.7773743;-;-;-;-;-;-;-;-;-;-;-;-;-;-;-
1511264037777;-;-;4.541092;1.279892;-3.28656;-;-;-;-;-;-;-;-;-;-;-;-;-;-;-
1511264037797;-;-;4.0095825;1.453476;-2.8125;-;-;-;-;-;-;-;-;-;-;-;-;-;-;-
1511264037818;-;-;4.0371094;1.3397522;-3.1548767;-;-;-;-;-;-;-;-;-;-;-;-;-;-;-
1511264037838;-;-;4.3447723;0.6071167;-3.3883057;-;-;-;-;-;-;-;-;-;-;-;-;-;-;-
1511264037858;-;-;5.959656;0.14503479;-3.1931763;-;-;-;-;-;-;-;-;-;-;-;-;-;-;-
1511264037878;-;-;6.7018585;0.1953125;-3.1812134;-;-;-;-;-;-;-;-;-;-;-;-;-;-;-
1511264037899;-;-;7.660736;-0.15663147;-3.2650146;-;-;-;-;-;-;-;-;-;-;-;-;-;-;-
1511264037919;-;-;9.224152;-0.3146515;-3.3583832;-;-;-;-;-;-;-;-;-;-;-;-;-;-;-
1511264037939;-;-;9.974731;-0.19972229;-3.8444061;-;-;-;-;-;-;-;-;-;-;-;-;-;-;-
1511264037960;-;-;9.894531;0.22285461;-3.753418;-;-;-;-;-;-;-;-;-;-;-;-;-;-;-
1511264037980;-;-;9.9831085;0.97224426;-3.2889557;-;-;-;-;-;-;-;-;-;-;-;-;-;-;-
1511264038000;-;-;10.479904;1.5887451;-2.2331085;-;-;-;-;-;-;-;-;-;-;-;-;-;-;-
1511264038021;-;-;11.111984;1.9143524;-1.8560181;-;-;-;-;-;-;-;-;-;-;-;-;-;-;-
1511264038040;-;-;9.691025;2.5308685;-2.6449127;-;-;-;-;-;-;-;-;-;-;-;-;-;-;-
1511264038061;-;-;8.777634;2.4793854;-1.8955231;-;-;-;-;-;-;-;-;-;-;-;-;-;-;-
1511264038081;-;-;8.134796;0.97224426;-3.666031;-;-;-;-;-;-;-;-;-;-;-;-;-;-;-
1511264038101;-;-;9.558136;1.7443695;-5.00679;-;-;-;-;-;-;-;-;-;-;-;-;-;-;-
1511264038122;-;-;13.816223;2.3189697;-2.9848938;-;-;-;-;-;-;-;-;-;-;-;-;-;-;-
1511264038142;-;-;14.556046;1.7826691;-6.638443;-;-;-;-;-;-;-;-;-;-;-;-;-;-;-
1511264038162;-;-;10.93959;2.433899;-10.100449;-;-;-;-;-;-;-;-;-;-;-;-;-;-;-
1511264038183;-;-;10.177048;1.0057526;-5.3204346;-;-;-;-;-;-;-;-;-;-;-;-;-;-;-
1511264038203;-;-;8.390976;0.26235962;-4.2969055;-;-;-;-;-;-;-;-;-;-;-;-;-;-;-
1511264038223;-;-;6.118866;-0.6713867;-3.9258118;-;-;-;-;-;-;-;-;-;-;-;-;-;-;-
1511264038244;-;-;5.0642242;-0.74560547;-3.073471;-;-;-;-;-;-;-;-;-;-;-;-;-;-;-
