TimeStamp[ms];Prox[Cm];Lux[lux];AccX[m/s^2];AccY[m/s^2];AccZ[m/s^2];GyroX[rad/s];GyroY[rad/s];GyroZ[rad/s];MagnX[uT];MagnY[uT];MagnZ[uT];OrienYaw[degrees];OrienPitch[degrees];OrienRoll[degrees];Press[Pa];Temp[C°];Batt[%];Lat;Lng;Speed[m/s]
1511264081268;-;-;9.100845;-0.9060211;-2.1229706;-;-;-;-;-;-;-;-;-;-;-;-;-;-;-
1511264081271;-;-;9.020645;-0.92396545;-2.1277618;-;-;-;-;-;-;-;-;-;-;-;-;-;-;-
1511264081292;-;-;8.778824;-0.9107971;-2.1457214;-;-;-;-;-;-;-;-;-;-;-;-;-;-;-
1511264081312;-;-;8.911713;-0.98143005;-2.13974;-;-;-;-;-;-;-;-;-;-;-;-;-;-;-
1511264081332;-;-;9.068527;-1.036499;-2.1457214;-;-;-;-;-;-;-;-;-;-;-;-;-;-;-
1511264081352;-;-;9.123596;-0.94192505;-2.0523376;-;-;-;-;-;-;-;-;-;-;-;-;-;-;-
1511264081373;-;-;9.014664;-0.8964386;-2.0307922;-;-;-;-;-;-;-;-;-;-;-;-;-;-;-
1511264081393;-;-;9.027832;-1.0341034;-1.753067;-;-;-;-;-;-;-;-;-;-;-;-;-;-;-
1511264081413;-;-;9.434845;-1.0544586;-2.0667114;-;-;-;-;-;-;-;-;-;-;-;-;-;-;-
1511264081433;-;-;9.123596;-0.92396545;-2.0702972;-;-;-;-;-;-;-;-;-;-;-;-;-;-;-
1511264081454;-;-;9.306747;-0.92996216;-1.871582;-;-;-;-;-;-;-;-;-;-;-;-;-;-;-
1511264081474;-;-;9.105637;-0.9000244;-1.887146;-;-;-;-;-;-;-;-;-;-;-;-;-;-;-
1511264081495;-;-;8.56575;-0.878479;-1.7039948;-;-;-;-;-;-;-;-;-;-;-;-;-;-;-
1511264081522;-;-;8.970367;-0.9275665;-1.8260956;-;-;-;-;-;-;-;-;-;-;-;-;-;-;-
1511264081534;-;-;8.643555;-1.012558;-1.8847504;-;-;-;-;-;-;-;-;-;-;-;-;-;-;-
1511264081555;-;-;8.818329;-0.97184753;-1.7794037;-;-;-;-;-;-;-;-;-;-;-;-;-;-;-
1511264081576;-;-;8.96199;-0.8605194;-2.4258423;-;-;-;-;-;-;-;-;-;-;-;-;-;-;-
1511264081596;-;-;9.242111;-0.89404297;-1.3352814;-;-;-;-;-;-;-;-;-;-;-;-;-;-;-
1511264081616;-;-;9.129578;-0.9838257;-1.6560974;-;-;-;-;-;-;-;-;-;-;-;-;-;-;-
1511264081637;-;-;9.058945;-0.80307007;-2.136139;-;-;-;-;-;-;-;-;-;-;-;-;-;-;-
1511264081657;-;-;9.207397;-0.8198242;-1.4107056;-;-;-;-;-;-;-;-;-;-;-;-;-;-;-
1511264081677;-;-;9.432449;-0.9143982;-1.8727875;-;-;-;-;-;-;-;-;-;-;-;-;-;-;-
1511264081697;-;-;9.352234;-0.94073486;-1.9230652;-;-;-;-;-;-;-;-;-;-;-;-;-;-;-
1511264081718;-;-;9.246902;-0.99938965;-2.093048;-;-;-;-;-;-;-;-;-;-;-;-;-;-;-
1511264081737;-;-;9.122391;-1.0341034;-1.9146729;-;-;-;-;-;-;-;-;-;-;-;-;-;-;-
1511264081757;-;-;9.026627;-1.0400848;-1.7578583;-;-;-;-;-;-;-;-;-;-;-;-;-;-;-
1511264081778;-;-;8.917694;-0.957489;-1.8093262;-;-;-;-;-;-;-;-;-;-;-;-;-;-;-
1511264081798;-;-;8.9392395;-0.90122986;-1.7614441;-;-;-;-;-;-;-;-;-;-;-;-;-;-;-
1511264081818;-;-;9.045776;-0.96707153;-1.8847504;-;-;-;-;-;-;-;-;-;-;-;-;-;-;-
1511264081839;-;-;9.029022;-1.0245209;-1.8811646;-;-;-;-;-;-;-;-;-;-;-;-;-;-;-
1511264081859;-;-;9.128387;-1.0245209;-1.9003143;-;-;-;-;-;-;-;-;-;-;-;-;-;-;-
1511264081879;-;-;9.172684;-0.9826355;-1.9062958;-;-;-;-;-;-;-;-;-;-;-;-;-;-;-
1511264081900;-;-;9.104446;-0.8988342;-1.9362335;-;-;-;-;-;-;-;-;-;-;-;-;-;-;-
1511264081920;-;-;9.062546;-0.8712921;-1.8500366;-;-;-;-;-;-;-;-;-;-;-;-;-;-;-
1511264081940;-;-;9.102051;-0.9060211;-1.8619995;-;-;-;-;-;-;-;-;-;-;-;-;-;-;-
1511264081960;-;-;9.102051;-0.9072113;-1.8428497;-;-;-;-;-;-;-;-;-;-;-;-;-;-;-
1511264081981;-;-;9.058945;-0.88327026;-1.871582;-;-;-;-;-;-;-;-;-;-;-;-;-;-;-
1511264082001;-;-;9.019455;-0.81144714;-1.8308868;-;-;-;-;-;-;-;-;-;-;-;-;-;-;-
1511264082021;-;-;9.007477;-0.8892517;-1.8787689;-;-;-;-;-;-;-;-;-;-;-;-;-;-;-
1511264082042;-;-;8.995499;-0.8976288;-1.8763733;-;-;-;-;-;-;-;-;-;-;-;-;-;-;-
1511264082062;-;-;8.987122;-0.88446045;-1.8308868;-;-;-;-;-;-;-;-;-;-;-;-;-;-;-
1511264082082;-;-;8.990723;-0.9359436;-1.9015045;-;-;-;-;-;-;-;-;-;-;-;-;-;-;-
1511264082103;-;-;9.0972595;-0.9060211;-1.9793243;-;-;-;-;-;-;-;-;-;-;-;-;-;-;-
1511264082123;-;-;9.13916;-0.89164734;-1.9015045;-;-;-;-;-;-;-;-;-;-;-;-;-;-;-
1511264082143;-;-;9.008667;-0.8461609;-1.8213043;-;-;-;-;-;-;-;-;-;-;-;-;-;-;-
1511264082163;-;-;9.063736;-0.8317871;-1.8883362;-;-;-;-;-;-;-;-;-;-;-;-;-;-;-
1511264082183;-;-;9.178665;-0.85572815;-1.7590485;-;-;-;-;-;-;-;-;-;-;-;-;-;-;-
1511264082204;-;-;9.304352;-0.9586792;-1.8213043;-;-;-;-;-;-;-;-;-;-;-;-;-;-;-
1511264082223;-;-;9.258865;-0.91319275;-1.7087708;-;-;-;-;-;-;-;-;-;-;-;-;-;-;-
1511264082244;-;-;9.008667;-0.68933105;-1.4861145;-;-;-;-;-;-;-;-;-;-;-;-;-;-;-
1511264082264;-;-;8.825516;-0.6043396;-1.4633789;-;-;-;-;-;-;-;-;-;-;-;-;-;-;-
1511264082284;-;-;8.753693;-0.85453796;-1.4095001;-;-;-;-;-;-;-;-;-;-;-;-;-;-;-
1511264082304;-;-;8.965576;-0.87968445;-1.5543518;-;-;-;-;-;-;-;-;-;-;-;-;-;-;-
1511264082325;-;-;9.12001;-0.9084015;-1.6549072;-;-;-;-;-;-;-;-;-;-;-;-;-;-;-
1511264082345;-;-;9.3941345;-0.9084015;-1.4885101;-;-;-;-;-;-;-;-;-;-;-;-;-;-;-
1511264082365;-;-;9.199005;-0.7156677;-1.5519562;-;-;-;-;-;-;-;-;-;-;-;-;-;-;-
1511264082386;-;-;9.06134;-0.8066559;-1.516037;-;-;-;-;-;-;-;-;-;-;-;-;-;-;-
1511264082406;-;-;9.115219;-0.933548;-1.9003143;-;-;-;-;-;-;-;-;-;-;-;-;-;-;-
1511264082426;-;-;9.883759;-1.1322632;-2.012848;-;-;-;-;-;-;-;-;-;-;-;-;-;-;-
1511264082447;-;-;9.242111;-1.0293121;-1.535202;-;-;-;-;-;-;-;-;-;-;-;-;-;-;-
1511264082466;-;-;8.886566;-0.9107971;-1.4837189;-;-;-;-;-;-;-;-;-;-;-;-;-;-;-
1511264082486;-;-;8.793198;-0.9586792;-1.6920166;-;-;-;-;-;-;-;-;-;-;-;-;-;-;-
1511264082506;-;-;8.832703;-0.7910919;-1.7315216;-;-;-;-;-;-;-;-;-;-;-;-;-;-;-
1511264082527;-;-;8.963181;-0.78990173;-1.3987274;-;-;-;-;-;-;-;-;-;-;-;-;-;-;-
1511264082547;-;-;9.209793;-0.9323425;-1.061142;-;-;-;-;-;-;-;-;-;-;-;-;-;-;-
1511264082567;-;-;9.318726;-0.8976288;-0.9402313;-;-;-;-;-;-;-;-;-;-;-;-;-;-;-
1511264082587;-;-;9.353439;-0.88087463;-1.0395966;-;-;-;-;-;-;-;-;-;-;-;-;-;-;-
1511264082608;-;-;9.268448;-0.9084015;-1.1233978;-;-;-;-;-;-;-;-;-;-;-;-;-;-;-
1511264082628;-;-;9.213379;-0.9323425;-1.1724701;-;-;-;-;-;-;-;-;-;-;-;-;-;-;-
1511264082648;-;-;9.025436;-1.067627;-1.2155762;-;-;-;-;-;-;-;-;-;-;-;-;-;-;-
1511264082669;-;-;9.125992;-1.2627563;-1.361618;-;-;-;-;-;-;-;-;-;-;-;-;-;-;-
1511264082689;-;-;9.142746;-1.2591553;-1.7351074;-;-;-;-;-;-;-;-;-;-;-;-;-;-;-
1511264082709;-;-;9.118805;-1.0400848;-2.4473877;-;-;-;-;-;-;-;-;-;-;-;-;-;-;-
1511264082730;-;-;9.06134;-0.8270111;-3.1093903;-;-;-;-;-;-;-;-;-;-;-;-;-;-;-
1511264082750;-;-;9.118805;-0.6833496;-3.420639;-;-;-;-;-;-;-;-;-;-;-;-;-;-;-
1511264082771;-;-;8.520264;-0.581604;-3.4158478;-;-;-;-;-;-;-;-;-;-;-;-;-;-;-
1511264082791;-;-;7.8283386;-0.28352356;-2.859192;-;-;-;-;-;-;-;-;-;-;-;-;-;-;-
1511264082811;-;-;7.53743;0.64782715;-1.4071045;-;-;-;-;-;-;-;-;-;-;-;-;-;-;-
1511264082831;-;-;7.9671936;1.3445435;-0.6577301;-;-;-;-;-;-;-;-;-;-;-;-;-;-;-
1511264082852;-;-;9.043396;1.0129395;-0.9162903;-;-;-;-;-;-;-;-;-;-;-;-;-;-;-
1511264082872;-;-;10.081268;0.024139404;-1.3652039;-;-;-;-;-;-;-;-;-;-;-;-;-;-;-
1511264082892;-;-;10.97551;-1.0963593;-1.0946655;-;-;-;-;-;-;-;-;-;-;-;-;-;-;-
1511264082913;-;-;11.094025;-1.7619476;-1.1186066;-;-;-;-;-;-;-;-;-;-;-;-;-;-;-
1511264082933;-;-;10.664261;-1.0891724;-1.4861145;-;-;-;-;-;-;-;-;-;-;-;-;-;-;-
1511264082953;-;-;9.464767;0.010971069;-1.7566681;-;-;-;-;-;-;-;-;-;-;-;-;-;-;-
1511264082974;-;-;8.095291;1.085968;-1.610611;-;-;-;-;-;-;-;-;-;-;-;-;-;-;-
1511264082994;-;-;7.5589905;1.3696747;-1.2514801;-;-;-;-;-;-;-;-;-;-;-;-;-;-;-
1511264083014;-;-;7.7565002;1.0320892;-0.9809418;-;-;-;-;-;-;-;-;-;-;-;-;-;-;-
1511264083034;-;-;8.01149;0.4862213;-1.1389618;-;-;-;-;-;-;-;-;-;-;-;-;-;-;-
1511264083055;-;-;8.266464;0.014556885;-1.2682495;-;-;-;-;-;-;-;-;-;-;-;-;-;-;-
1511264083075;-;-;8.612427;-0.105148315;-1.282608;-;-;-;-;-;-;-;-;-;-;-;-;-;-;-
1511264083096;-;-;9.091278;0.045684814;-1.1545258;-;-;-;-;-;-;-;-;-;-;-;-;-;-;-
1511264083116;-;-;9.606033;0.3461609;-1.3436584;-;-;-;-;-;-;-;-;-;-;-;-;-;-;-
1511264083136;-;-;9.59166;0.41079712;-1.234726;-;-;-;-;-;-;-;-;-;-;-;-;-;-;-
1511264083156;-;-;9.450409;0.11869812;-0.927063;-;-;-;-;-;-;-;-;-;-;-;-;-;-;-
1511264083177;-;-;9.149933;0.048080444;-0.6122284;-;-;-;-;-;-;-;-;-;-;-;-;-;-;-
1511264083197;-;-;8.938049;-0.04649353;-0.22198486;-;-;-;-;-;-;-;-;-;-;-;-;-;-;-
1511264083217;-;-;9.189438;-0.4451294;0.3885498;-;-;-;-;-;-;-;-;-;-;-;-;-;-;-
1511264083238;-;-;9.538986;-0.7731323;0.5764923;-;-;-;-;-;-;-;-;-;-;-;-;-;-;-
1511264083258;-;-;9.589264;-0.7156677;0.2520752;-;-;-;-;-;-;-;-;-;-;-;-;-;-;-
1511264083279;-;-;9.245697;-0.37809753;-0.6517334;-;-;-;-;-;-;-;-;-;-;-;-;-;-;-
1511264083298;-;-;9.054169;0.54008484;-2.6832123;-;-;-;-;-;-;-;-;-;-;-;-;-;-;-
1511264083318;-;-;10.356613;3.1138458;-3.6828003;-;-;-;-;-;-;-;-;-;-;-;-;-;-;-
1511264083338;-;-;11.460342;4.806549;-4.189163;-;-;-;-;-;-;-;-;-;-;-;-;-;-;-
1511264083359;-;-;12.6311035;4.138565;-4.9816437;-;-;-;-;-;-;-;-;-;-;-;-;-;-;-
1511264083379;-;-;13.200928;1.2332001;-6.287689;-;-;-;-;-;-;-;-;-;-;-;-;-;-;-
1511264083399;-;-;12.961502;-0.8461609;-5.3312073;-;-;-;-;-;-;-;-;-;-;-;-;-;-;-
1511264083420;-;-;9.937622;0.5951538;-3.3045197;-;-;-;-;-;-;-;-;-;-;-;-;-;-;-
1511264083440;-;-;7.5314484;1.2978516;-1.8153229;-;-;-;-;-;-;-;-;-;-;-;-;-;-;-
1511264083460;-;-;5.886627;0.8848419;-1.2885895;-;-;-;-;-;-;-;-;-;-;-;-;-;-;-
1511264083481;-;-;5.569397;-0.3254242;-2.483307;-;-;-;-;-;-;-;-;-;-;-;-;-;-;-
1511264083501;-;-;6.4720154;-1.0412903;-3.6911774;-;-;-;-;-;-;-;-;-;-;-;-;-;-;-
1511264083521;-;-;7.064575;-1.735611;-4.4154205;-;-;-;-;-;-;-;-;-;-;-;-;-;-;-
1511264083542;-;-;7.2704773;-1.5811768;-4.5734406;-;-;-;-;-;-;-;-;-;-;-;-;-;-;-
1511264083562;-;-;7.9205017;-1.1023407;-4.144882;-;-;-;-;-;-;-;-;-;-;-;-;-;-;-
1511264083582;-;-;8.722565;-0.52293396;-3.78096;-;-;-;-;-;-;-;-;-;-;-;-;-;-;-
1511264083602;-;-;9.269638;0.25875854;-4.0119934;-;-;-;-;-;-;-;-;-;-;-;-;-;-;-
1511264083622;-;-;9.722153;0.48980713;-4.448944;-;-;-;-;-;-;-;-;-;-;-;-;-;-;-
1511264083643;-;-;10.064514;0.16659546;-4.7422333;-;-;-;-;-;-;-;-;-;-;-;-;-;-;-
1511264083663;-;-;9.900513;-0.3481598;-3.9605255;-;-;-;-;-;-;-;-;-;-;-;-;-;-;-
1511264083684;-;-;9.188232;-0.85214233;-3.2721863;-;-;-;-;-;-;-;-;-;-;-;-;-;-;-
1511264083704;-;-;8.054581;-1.2950745;-2.820877;-;-;-;-;-;-;-;-;-;-;-;-;-;-;-
1511264083724;-;-;7.094513;-1.5129395;-2.6832123;-;-;-;-;-;-;-;-;-;-;-;-;-;-;-
1511264083744;-;-;6.6312256;-1.7655334;-2.8184967;-;-;-;-;-;-;-;-;-;-;-;-;-;-;-
1511264083765;-;-;7.0609894;-1.7284241;-3.3200684;-;-;-;-;-;-;-;-;-;-;-;-;-;-;-
1511264083784;-;-;7.91333;-1.6039276;-3.393097;-;-;-;-;-;-;-;-;-;-;-;-;-;-;-
1511264083804;-;-;8.695038;-1.5548401;-3.238678;-;-;-;-;-;-;-;-;-;-;-;-;-;-;-
1511264083824;-;-;9.263657;-1.4818115;-3.3236694;-;-;-;-;-;-;-;-;-;-;-;-;-;-;-
1511264083844;-;-;9.615601;-1.696106;-3.4661255;-;-;-;-;-;-;-;-;-;-;-;-;-;-;-
1511264083864;-;-;9.346252;-1.874466;-3.2697906;-;-;-;-;-;-;-;-;-;-;-;-;-;-;-
1511264083885;-;-;8.887772;-2.0384674;-3.017212;-;-;-;-;-;-;-;-;-;-;-;-;-;-;-
1511264083906;-;-;8.511871;-2.080368;-2.7143402;-;-;-;-;-;-;-;-;-;-;-;-;-;-;-
1511264083927;-;-;8.441254;-1.9031982;-2.4461975;-;-;-;-;-;-;-;-;-;-;-;-;-;-;-
1511264083947;-;-;8.522644;-1.7535553;-2.2606354;-;-;-;-;-;-;-;-;-;-;-;-;-;-;-
1511264083967;-;-;8.351471;-1.7523651;-2.412674;-;-;-;-;-;-;-;-;-;-;-;-;-;-;-
1511264083988;-;-;8.316742;-1.8864441;-2.1624756;-;-;-;-;-;-;-;-;-;-;-;-;-;-;-
1511264084007;-;-;8.317947;-2.1809235;-1.7698364;-;-;-;-;-;-;-;-;-;-;-;-;-;-;-
1511264084027;-;-;8.638763;-2.693283;-1.6656799;-;-;-;-;-;-;-;-;-;-;-;-;-;-;-
1511264084047;-;-;8.7213745;-2.7279968;-1.8500366;-;-;-;-;-;-;-;-;-;-;-;-;-;-;-
1511264084068;-;-;8.854248;-2.5556183;-1.8763733;-;-;-;-;-;-;-;-;-;-;-;-;-;-;-
1511264084088;-;-;8.888962;-2.3832397;-1.8440552;-;-;-;-;-;-;-;-;-;-;-;-;-;-;-
1511264084108;-;-;8.659119;-2.1629639;-1.8536224;-;-;-;-;-;-;-;-;-;-;-;-;-;-;-
1511264084128;-;-;8.812347;-1.822998;-1.8847504;-;-;-;-;-;-;-;-;-;-;-;-;-;-;-
1511264084149;-;-;8.914108;-1.6745453;-1.8009491;-;-;-;-;-;-;-;-;-;-;-;-;-;-;-
1511264084169;-;-;9.131973;-1.4423218;-1.6956024;-;-;-;-;-;-;-;-;-;-;-;-;-;-;-
1511264084189;-;-;9.244507;-1.3621063;-1.6728668;-;-;-;-;-;-;-;-;-;-;-;-;-;-;-
1511264084210;-;-;9.143951;-1.5285034;-1.7662354;-;-;-;-;-;-;-;-;-;-;-;-;-;-;-
1511264084230;-;-;8.7261505;-1.724823;-1.8464508;-;-;-;-;-;-;-;-;-;-;-;-;-;-;-
1511264084250;-;-;8.849457;-1.9295349;-1.8512268;-;-;-;-;-;-;-;-;-;-;-;-;-;-;-
1511264084271;-;-;8.74292;-2.063614;-1.8608093;-;-;-;-;-;-;-;-;-;-;-;-;-;-;-
1511264084290;-;-;8.745316;-2.2048645;-2.0403748;-;-;-;-;-;-;-;-;-;-;-;-;-;-;-
1511264084310;-;-;9.210983;-2.095932;-2.1457214;-;-;-;-;-;-;-;-;-;-;-;-;-;-;-
1511264084331;-;-;9.473145;-1.7822876;-2.2139587;-;-;-;-;-;-;-;-;-;-;-;-;-;-;-
1511264084351;-;-;10.003464;-1.2388;-2.9429932;-;-;-;-;-;-;-;-;-;-;-;-;-;-;-
1511264084371;-;-;10.901291;-1.3800659;-3.472107;-;-;-;-;-;-;-;-;-;-;-;-;-;-;-
1511264084391;-;-;11.183807;-2.1486053;-2.5252075;-;-;-;-;-;-;-;-;-;-;-;-;-;-;-
1511264084412;-;-;11.82785;-3.1685333;-2.065506;-;-;-;-;-;-;-;-;-;-;-;-;-;-;-
1511264084432;-;-;12.511383;-4.0627747;-2.3324738;-;-;-;-;-;-;-;-;-;-;-;-;-;-;-
1511264084452;-;-;12.052902;-3.7311707;-1.8201141;-;-;-;-;-;-;-;-;-;-;-;-;-;-;-
1511264084473;-;-;13.821014;-3.2223969;-3.2063446;-;-;-;-;-;-;-;-;-;-;-;-;-;-;-
1511264084493;-;-;15.122269;-2.471817;-5.259384;-;-;-;-;-;-;-;-;-;-;-;-;-;-;-
1511264084513;-;-;13.992203;-2.159378;-5.18396;-;-;-;-;-;-;-;-;-;-;-;-;-;-;-
1511264084533;-;-;10.818695;-1.4866028;-4.1819916;-;-;-;-;-;-;-;-;-;-;-;-;-;-;-
1511264084554;-;-;8.305969;-1.3944244;-4.136505;-;-;-;-;-;-;-;-;-;-;-;-;-;-;-
1511264084574;-;-;6.1368256;-1.7691193;-3.7438507;-;-;-;-;-;-;-;-;-;-;-;-;-;-;-
1511264084594;-;-;4.4800415;-2.3784485;-3.7067413;-;-;-;-;-;-;-;-;-;-;-;-;-;-;-
1511264084614;-;-;5.4927826;-2.0468445;-3.9449615;-;-;-;-;-;-;-;-;-;-;-;-;-;-;-
1511264084635;-;-;7.143585;-1.6925049;-4.3172607;-;-;-;-;-;-;-;-;-;-;-;-;-;-;-
1511264084656;-;-;9.849045;-1.7882843;-4.3926697;-;-;-;-;-;-;-;-;-;-;-;-;-;-;-
1511264084676;-;-;12.196548;-1.2196503;-4.022766;-;-;-;-;-;-;-;-;-;-;-;-;-;-;-
1511264084696;-;-;12.412033;-0.109939575;-4.2382507;-;-;-;-;-;-;-;-;-;-;-;-;-;-;-
1511264084716;-;-;9.267242;0.17376709;-3.2123413;-;-;-;-;-;-;-;-;-;-;-;-;-;-;-
1511264084737;-;-;6.3499146;-0.19493103;-2.7023773;-;-;-;-;-;-;-;-;-;-;-;-;-;-;-
1511264084757;-;-;3.2027283;-0.19732666;-2.0391846;-;-;-;-;-;-;-;-;-;-;-;-;-;-;-
1511264084777;-;-;0.8264923;-0.093185425;-1.3304901;-;-;-;-;-;-;-;-;-;-;-;-;-;-;-
1511264084798;-;-;0.40031433;0.009765625;-0.9079132;-;-;-;-;-;-;-;-;-;-;-;-;-;-;-
1511264084818;-;-;2.02359;0.8345642;-0.30577087;-;-;-;-;-;-;-;-;-;-;-;-;-;-;-
1511264084838;-;-;3.6277008;1.0356903;-0.669693;-;-;-;-;-;-;-;-;-;-;-;-;-;-;-
1511264084858;-;-;6.2984314;0.71965027;-1.9733429;-;-;-;-;-;-;-;-;-;-;-;-;-;-;-
1511264084879;-;-;8.195847;0.10913086;-3.5307617;-;-;-;-;-;-;-;-;-;-;-;-;-;-;-
1511264084899;-;-;8.699814;-0.35295105;-4.4142303;-;-;-;-;-;-;-;-;-;-;-;-;-;-;-
1511264084920;-;-;9.929245;-0.16381836;-4.4716797;-;-;-;-;-;-;-;-;-;-;-;-;-;-;-
1511264084940;-;-;11.382523;0.69810486;-4.0119934;-;-;-;-;-;-;-;-;-;-;-;-;-;-;-
1511264084960;-;-;11.947556;1.6773376;-3.1943817;-;-;-;-;-;-;-;-;-;-;-;-;-;-;-
1511264084981;-;-;10.089661;1.868866;-2.946579;-;-;-;-;-;-;-;-;-;-;-;-;-;-;-
1511264085001;-;-;8.156342;0.9758301;-2.7634277;-;-;-;-;-;-;-;-;-;-;-;-;-;-;-
1511264085021;-;-;7.9025574;0.43354797;-2.0702972;-;-;-;-;-;-;-;-;-;-;-;-;-;-;-
1511264085041;-;-;8.66391;0.19891357;-1.5076599;-;-;-;-;-;-;-;-;-;-;-;-;-;-;-
1511264085062;-;-;9.586868;0.39404297;-1.7315216;-;-;-;-;-;-;-;-;-;-;-;-;-;-;-
1511264085082;-;-;10.818695;0.43354797;-1.7638397;-;-;-;-;-;-;-;-;-;-;-;-;-;-;-
1511264085102;-;-;11.237671;0.57958984;-3.3057098;-;-;-;-;-;-;-;-;-;-;-;-;-;-;-
1511264085123;-;-;11.442383;1.4163666;-3.9605255;-;-;-;-;-;-;-;-;-;-;-;-;-;-;-
1511264085143;-;-;12.2994995;3.3532715;-3.5535126;-;-;-;-;-;-;-;-;-;-;-;-;-;-;-
1511264085163;-;-;12.288727;3.6561432;-4.263397;-;-;-;-;-;-;-;-;-;-;-;-;-;-;-
1511264085183;-;-;12.477875;1.8808441;-5.7478027;-;-;-;-;-;-;-;-;-;-;-;-;-;-;-
1511264085204;-;-;10.819885;1.7479553;-6.2386017;-;-;-;-;-;-;-;-;-;-;-;-;-;-;-
1511264085224;-;-;9.957977;1.6450043;-6.025528;-;-;-;-;-;-;-;-;-;-;-;-;-;-;-
1511264085244;-;-;8.600464;1.7850647;-4.5135803;-;-;-;-;-;-;-;-;-;-;-;-;-;-;-
1511264085265;-;-;6.37027;1.3170013;-4.1305084;-;-;-;-;-;-;-;-;-;-;-;-;-;-;-
1511264085284;-;-;5.7381897;0.8585205;-4.2023315;-;-;-;-;-;-;-;-;-;-;-;-;-;-;-
1511264085304;-;-;6.410965;-0.210495;-4.389084;-;-;-;-;-;-;-;-;-;-;-;-;-;-;-
1511264085325;-;-;8.217392;-1.7906647;-4.784134;-;-;-;-;-;-;-;-;-;-;-;-;-;-;-
1511264085345;-;-;9.37619;-2.4610443;-4.5925903;-;-;-;-;-;-;-;-;-;-;-;-;-;-;-
1511264085365;-;-;10.088455;-2.210846;-4.5111847;-;-;-;-;-;-;-;-;-;-;-;-;-;-;-
1511264085385;-;-;9.883759;-1.7774963;-3.7857513;-;-;-;-;-;-;-;-;-;-;-;-;-;-;-
1511264085406;-;-;9.096069;-1.3573151;-3.104599;-;-;-;-;-;-;-;-;-;-;-;-;-;-;-
1511264085426;-;-;7.7684784;-0.9287567;-2.6556854;-;-;-;-;-;-;-;-;-;-;-;-;-;-;-
1511264085446;-;-;6.905365;-0.8988342;-2.3049316;-;-;-;-;-;-;-;-;-;-;-;-;-;-;-
1511264085467;-;-;6.466034;-1.0257263;-2.5096436;-;-;-;-;-;-;-;-;-;-;-;-;-;-;-
1511264085487;-;-;5.861496;-1.214859;-2.567093;-;-;-;-;-;-;-;-;-;-;-;-;-;-;-
1511264085507;-;-;5.1492157;-1.1621857;-2.0906525;-;-;-;-;-;-;-;-;-;-;-;-;-;-;-
1511264085528;-;-;4.4477234;-1.036499;-1.6872253;-;-;-;-;-;-;-;-;-;-;-;-;-;-;-
1511264085547;-;-;4.359131;-1.0472717;-1.5471649;-;-;-;-;-;-;-;-;-;-;-;-;-;-;-
1511264085567;-;-;4.8128357;-1.2016907;-1.4944916;-;-;-;-;-;-;-;-;-;-;-;-;-;-;-
1511264085587;-;-;6.1523895;-1.2591553;-1.5639343;-;-;-;-;-;-;-;-;-;-;-;-;-;-;-
1511264085608;-;-;7.7265778;-1.4099884;-1.5124512;-;-;-;-;-;-;-;-;-;-;-;-;-;-;-
1511264085628;-;-;9.266052;-1.8553162;-1.5914612;-;-;-;-;-;-;-;-;-;-;-;-;-;-;-
1511264085649;-;-;10.326675;-2.692093;-1.6608887;-;-;-;-;-;-;-;-;-;-;-;-;-;-;-
1511264085668;-;-;10.979095;-3.4319;-2.3767548;-;-;-;-;-;-;-;-;-;-;-;-;-;-;-
1511264085689;-;-;11.169434;-3.5432281;-2.7849731;-;-;-;-;-;-;-;-;-;-;-;-;-;-;-
1511264085709;-;-;10.772003;-3.3349304;-2.3252869;-;-;-;-;-;-;-;-;-;-;-;-;-;-;-
1511264085729;-;-;10.063324;-2.6837158;-1.7973633;-;-;-;-;-;-;-;-;-;-;-;-;-;-;-
1511264085749;-;-;9.710175;-1.8409424;-1.6513214;-;-;-;-;-;-;-;-;-;-;-;-;-;-;-
1511264085770;-;-;9.980713;-0.9981842;-1.1449432;-;-;-;-;-;-;-;-;-;-;-;-;-;-;-
1511264085790;-;-;9.702988;-0.9934082;-0.7965851;-;-;-;-;-;-;-;-;-;-;-;-;-;-;-
1511264085810;-;-;9.641937;-1.2711334;-1.526825;-;-;-;-;-;-;-;-;-;-;-;-;-;-;-
1511264085830;-;-;9.293579;-1.7547607;-2.6808167;-;-;-;-;-;-;-;-;-;-;-;-;-;-;-
1511264085850;-;-;10.756439;-2.6346283;-3.4218292;-;-;-;-;-;-;-;-;-;-;-;-;-;-;-
1511264085870;-;-;13.601944;-3.519287;-2.524002;-;-;-;-;-;-;-;-;-;-;-;-;-;-;-
1511264085890;-;-;15.166565;-3.2379608;-3.8072968;-;-;-;-;-;-;-;-;-;-;-;-;-;-;-
1511264085911;-;-;15.511322;-3.0512238;-7.0837555;-;-;-;-;-;-;-;-;-;-;-;-;-;-;-
1511264085931;-;-;13.855728;-3.1924744;-6.6851196;-;-;-;-;-;-;-;-;-;-;-;-;-;-;-
1511264085951;-;-;8.929672;-2.0336761;-4.6847687;-;-;-;-;-;-;-;-;-;-;-;-;-;-;-
1511264085971;-;-;5.2856903;-1.562027;-3.9772797;-;-;-;-;-;-;-;-;-;-;-;-;-;-;-
1511264085992;-;-;4.117325;-1.4961853;-3.871933;-;-;-;-;-;-;-;-;-;-;-;-;-;-;-
1511264086012;-;-;4.6931305;-0.81144714;-4.073044;-;-;-;-;-;-;-;-;-;-;-;-;-;-;-
1511264086032;-;-;5.9668427;-0.22247314;-4.234665;-;-;-;-;-;-;-;-;-;-;-;-;-;-;-
1511264086053;-;-;8.311966;-0.41999817;-3.9880524;-;-;-;-;-;-;-;-;-;-;-;-;-;-;-
1511264086073;-;-;9.758057;-1.0724182;-3.8683472;-;-;-;-;-;-;-;-;-;-;-;-;-;-;-
1511264086093;-;-;9.710175;-1.3010559;-3.7234955;-;-;-;-;-;-;-;-;-;-;-;-;-;-;-
1511264086113;-;-;7.827133;-1.2795105;-3.338028;-;-;-;-;-;-;-;-;-;-;-;-;-;-;-
1511264086134;-;-;6.1033173;-1.2603607;-2.7430725;-;-;-;-;-;-;-;-;-;-;-;-;-;-;-
1511264086154;-;-;3.960495;-0.9395294;-2.191208;-;-;-;-;-;-;-;-;-;-;-;-;-;-;-
1511264086174;-;-;2.988449;-0.0728302;-2.3288727;-;-;-;-;-;-;-;-;-;-;-;-;-;-;-
1511264086195;-;-;2.8340302;0.85491943;-2.3444366;-;-;-;-;-;-;-;-;-;-;-;-;-;-;-
1511264086215;-;-;3.735443;1.8736572;-2.306137;-;-;-;-;-;-;-;-;-;-;-;-;-;-;-
1511264086235;-;-;5.1911163;2.3848114;-2.7873688;-;-;-;-;-;-;-;-;-;-;-;-;-;-;-
1511264086256;-;-;6.983185;2.0484314;-3.219513;-;-;-;-;-;-;-;-;-;-;-;-;-;-;-
1511264086275;-;-;8.795593;1.0177307;-3.346405;-;-;-;-;-;-;-;-;-;-;-;-;-;-;-
1511264086295;-;-;10.509842;0.016952515;-3.5798492;-;-;-;-;-;-;-;-;-;-;-;-;-;-;-
1511264086316;-;-;12.107971;-0.21170044;-3.8252563;-;-;-;-;-;-;-;-;-;-;-;-;-;-;-
1511264086336;-;-;11.912842;0.4479065;-3.5882263;-;-;-;-;-;-;-;-;-;-;-;-;-;-;-
1511264086356;-;-;11.141907;1.2296143;-3.1656494;-;-;-;-;-;-;-;-;-;-;-;-;-;-;-
1511264086377;-;-;9.9783325;1.6126862;-2.9214478;-;-;-;-;-;-;-;-;-;-;-;-;-;-;-
1511264086397;-;-;9.06134;1.9155579;-2.6808167;-;-;-;-;-;-;-;-;-;-;-;-;-;-;-
1511264086417;-;-;9.0182495;1.5588226;-2.3767548;-;-;-;-;-;-;-;-;-;-;-;-;-;-;-
1511264086437;-;-;9.90889;0.8010559;-2.0726929;-;-;-;-;-;-;-;-;-;-;-;-;-;-;-
1511264086458;-;-;9.738907;0.68014526;-2.7275085;-;-;-;-;-;-;-;-;-;-;-;-;-;-;-
1511264086478;-;-;9.403717;1.3912201;-2.1098022;-;-;-;-;-;-;-;-;-;-;-;-;-;-;-
1511264086498;-;-;10.9384;-1.2471924;-2.2019806;-;-;-;-;-;-;-;-;-;-;-;-;-;-;-
1511264086519;-;-;12.344986;-3.1781158;-4.4118347;-;-;-;-;-;-;-;-;-;-;-;-;-;-;-
1511264086539;-;-;11.601593;-1.0221252;-8.159958;-;-;-;-;-;-;-;-;-;-;-;-;-;-;-
1511264086559;-;-;12.652649;1.7599335;-6.243393;-;-;-;-;-;-;-;-;-;-;-;-;-;-;-
1511264086580;-;-;10.596024;0.98420715;-5.662796;-;-;-;-;-;-;-;-;-;-;-;-;-;-;-
1511264086600;-;-;9.462372;1.3289795;-4.4321747;-;-;-;-;-;-;-;-;-;-;-;-;-;-;-
1511264086620;-;-;6.6743317;1.6964874;-4.9397583;-;-;-;-;-;-;-;-;-;-;-;-;-;-;-
1511264086641;-;-;5.097748;1.6689453;-4.994812;-;-;-;-;-;-;-;-;-;-;-;-;-;-;-
1511264086661;-;-;5.347946;1.1182861;-3.7498322;-;-;-;-;-;-;-;-;-;-;-;-;-;-;-
1511264086681;-;-;7.2429504;0.23242188;-3.6768036;-;-;-;-;-;-;-;-;-;-;-;-;-;-;-
1511264086701;-;-;9.33548;-0.77194214;-4.9648895;-;-;-;-;-;-;-;-;-;-;-;-;-;-;-
1511264086722;-;-;9.88974;-1.5237122;-5.65921;-;-;-;-;-;-;-;-;-;-;-;-;-;-;-
1511264086741;-;-;9.866989;-1.4758301;-4.8224335;-;-;-;-;-;-;-;-;-;-;-;-;-;-;-
1511264086761;-;-;9.260071;-0.9443207;-3.78096;-;-;-;-;-;-;-;-;-;-;-;-;-;-;-
1511264086782;-;-;7.952835;-0.95150757;-3.259018;-;-;-;-;-;-;-;-;-;-;-;-;-;-;-
1511264086802;-;-;6.177536;-1.0472717;-3.0854492;-;-;-;-;-;-;-;-;-;-;-;-;-;-;-
1511264086822;-;-;4.312454;-1.0807953;-2.7430725;-;-;-;-;-;-;-;-;-;-;-;-;-;-;-
1511264086842;-;-;2.9106445;-1.254364;-1.6908264;-;-;-;-;-;-;-;-;-;-;-;-;-;-;-
1511264086862;-;-;3.2158966;-1.427948;-1.2574768;-;-;-;-;-;-;-;-;-;-;-;-;-;-;-
1511264086883;-;-;4.094574;-1.7858887;-1.1281891;-;-;-;-;-;-;-;-;-;-;-;-;-;-;-
1511264086903;-;-;5.3060455;-2.2371826;-1.4214783;-;-;-;-;-;-;-;-;-;-;-;-;-;-;-
1511264086923;-;-;7.2046356;-2.490982;-1.5986481;-;-;-;-;-;-;-;-;-;-;-;-;-;-;-
1511264086943;-;-;9.124786;-2.6549835;-2.2163544;-;-;-;-;-;-;-;-;-;-;-;-;-;-;-
1511264086964;-;-;10.712143;-2.5448456;-2.2761993;-;-;-;-;-;-;-;-;-;-;-;-;-;-;-
1511264086984;-;-;11.649475;-2.5891418;-2.1648712;-;-;-;-;-;-;-;-;-;-;-;-;-;-;-
1511264087004;-;-;11.654266;-2.930313;-2.247467;-;-;-;-;-;-;-;-;-;-;-;-;-;-;-
1511264087025;-;-;11.220917;-3.4749908;-2.1828308;-;-;-;-;-;-;-;-;-;-;-;-;-;-;-
1511264087045;-;-;10.555328;-3.3097992;-1.8643951;-;-;-;-;-;-;-;-;-;-;-;-;-;-;-
1511264087065;-;-;10.44519;-2.530487;-1.7470856;-;-;-;-;-;-;-;-;-;-;-;-;-;-;-
1511264087086;-;-;10.4823;-1.9187622;-2.005661;-;-;-;-;-;-;-;-;-;-;-;-;-;-;-
1511264087106;-;-;8.424484;-2.269516;-2.4569702;-;-;-;-;-;-;-;-;-;-;-;-;-;-;-
1511264087127;-;-;8.373016;-1.4411163;-3.729477;-;-;-;-;-;-;-;-;-;-;-;-;-;-;-
1511264087147;-;-;10.337448;-3.1924744;-4.9217987;-;-;-;-;-;-;-;-;-;-;-;-;-;-;-
1511264087167;-;-;12.173813;-4.534424;-5.4257813;-;-;-;-;-;-;-;-;-;-;-;-;-;-;-
1511264087188;-;-;15.173737;-3.3181763;-6.552246;-;-;-;-;-;-;-;-;-;-;-;-;-;-;-
1511264087207;-;-;16.070374;-1.838562;-9.133194;-;-;-;-;-;-;-;-;-;-;-;-;-;-;-
1511264087227;-;-;13.904816;-1.570404;-6.619278;-;-;-;-;-;-;-;-;-;-;-;-;-;-;-
1511264087248;-;-;9.210983;-0.8413696;-3.9126434;-;-;-;-;-;-;-;-;-;-;-;-;-;-;-
1511264087267;-;-;6.059021;-0.94073486;-2.6137848;-;-;-;-;-;-;-;-;-;-;-;-;-;-;-
1511264087287;-;-;5.32399;-0.89164734;-2.71315;-;-;-;-;-;-;-;-;-;-;-;-;-;-;-
1511264087308;-;-;5.763336;-1.0640259;-2.6508942;-;-;-;-;-;-;-;-;-;-;-;-;-;-;-
1511264087328;-;-;6.070984;-1.9103851;-3.2243042;-;-;-;-;-;-;-;-;-;-;-;-;-;-;-
1511264087348;-;-;6.62764;-2.0552368;-3.0471344;-;-;-;-;-;-;-;-;-;-;-;-;-;-;-
1511264087369;-;-;7.2238007;-1.4902039;-2.4270325;-;-;-;-;-;-;-;-;-;-;-;-;-;-;-
1511264087389;-;-;6.7880554;-1.1478271;-1.950592;-;-;-;-;-;-;-;-;-;-;-;-;-;-;-
1511264087409;-;-;6.3295593;-0.7300415;-2.444992;-;-;-;-;-;-;-;-;-;-;-;-;-;-;-
1511264087429;-;-;5.663971;-0.1985321;-3.6839905;-;-;-;-;-;-;-;-;-;-;-;-;-;-;-
1511264087449;-;-;4.8703003;0.41079712;-4.251419;-;-;-;-;-;-;-;-;-;-;-;-;-;-;-
1511264087469;-;-;4.216675;1.2080688;-3.361969;-;-;-;-;-;-;-;-;-;-;-;-;-;-;-
1511264087489;-;-;4.4201813;1.1290588;-2.1768494;-;-;-;-;-;-;-;-;-;-;-;-;-;-;-
1511264087510;-;-;6.0566254;0.7723236;-1.7183533;-;-;-;-;-;-;-;-;-;-;-;-;-;-;-
1511264087530;-;-;8.253296;0.49339294;-1.3304901;-;-;-;-;-;-;-;-;-;-;-;-;-;-;-
1511264087550;-;-;9.51265;0.4862213;-1.9062958;-;-;-;-;-;-;-;-;-;-;-;-;-;-;-
1511264087571;-;-;9.914871;0.55085754;-2.3683777;-;-;-;-;-;-;-;-;-;-;-;-;-;-;-
1511264087590;-;-;9.840652;0.730423;-2.6006165;-;-;-;-;-;-;-;-;-;-;-;-;-;-;-
1511264087610;-;-;9.609619;0.9016113;-2.4138641;-;-;-;-;-;-;-;-;-;-;-;-;-;-;-
1511264087631;-;-;9.105637;0.9494934;-2.1612854;-;-;-;-;-;-;-;-;-;-;-;-;-;-;-
1511264087650;-;-;8.678268;0.8848419;-1.7171631;-;-;-;-;-;-;-;-;-;-;-;-;-;-;-
1511264087671;-;-;8.539413;0.8800659;-1.392746;-;-;-;-;-;-;-;-;-;-;-;-;-;-;-
1511264087691;-;-;9.246902;0.6669769;-1.0707245;-;-;-;-;-;-;-;-;-;-;-;-;-;-;-
1511264087712;-;-;10.102829;0.46228027;-0.73672485;-;-;-;-;-;-;-;-;-;-;-;-;-;-;-
1511264087731;-;-;9.252884;0.967453;-2.5455475;-;-;-;-;-;-;-;-;-;-;-;-;-;-;-
1511264087751;-;-;8.576523;1.9514618;-3.6911774;-;-;-;-;-;-;-;-;-;-;-;-;-;-;-
1511264087772;-;-;10.380554;2.098709;-4.381897;-;-;-;-;-;-;-;-;-;-;-;-;-;-;-
1511264087792;-;-;12.918411;3.2694702;-5.0043945;-;-;-;-;-;-;-;-;-;-;-;-;-;-;-
1511264087812;-;-;14.205292;2.1011047;-7.7194214;-;-;-;-;-;-;-;-;-;-;-;-;-;-;-
1511264087833;-;-;13.854538;1.6617737;-8.36705;-;-;-;-;-;-;-;-;-;-;-;-;-;-;-
1511264087853;-;-;12.12233;1.2308044;-6.049469;-;-;-;-;-;-;-;-;-;-;-;-;-;-;-
1511264087873;-;-;9.209793;0.5879669;-4.9098206;-;-;-;-;-;-;-;-;-;-;-;-;-;-;-
1511264087894;-;-;6.8526917;0.3030548;-4.0634766;-;-;-;-;-;-;-;-;-;-;-;-;-;-;-
1511264087914;-;-;5.4724426;0.033706665;-4.1149445;-;-;-;-;-;-;-;-;-;-;-;-;-;-;-
1511264087934;-;-;6.2325897;-0.1590271;-3.7797546;-;-;-;-;-;-;-;-;-;-;-;-;-;-;-
1511264087954;-;-;7.9157257;-0.5241394;-4.3196564;-;-;-;-;-;-;-;-;-;-;-;-;-;-;-
1511264087975;-;-;8.607651;-0.7707367;-4.633301;-;-;-;-;-;-;-;-;-;-;-;-;-;-;-
1511264087995;-;-;9.090073;-1.0592499;-4.0718536;-;-;-;-;-;-;-;-;-;-;-;-;-;-;-
1511264088015;-;-;9.094864;-0.80784607;-3.5211945;-;-;-;-;-;-;-;-;-;-;-;-;-;-;-
1511264088035;-;-;8.422089;-0.7910919;-3.0914307;-;-;-;-;-;-;-;-;-;-;-;-;-;-;-
1511264088056;-;-;6.924515;-0.86172485;-2.879547;-;-;-;-;-;-;-;-;-;-;-;-;-;-;-
1511264088076;-;-;5.1049347;-0.8712921;-2.6784363;-;-;-;-;-;-;-;-;-;-;-;-;-;-;-
1511264088097;-;-;4.014374;-1.230423;-1.7830048;-;-;-;-;-;-;-;-;-;-;-;-;-;-;-
1511264088117;-;-;3.5810242;-1.9762268;-1.3759766;-;-;-;-;-;-;-;-;-;-;-;-;-;-;-
1511264088137;-;-;3.960495;-2.3221893;-1.6381531;-;-;-;-;-;-;-;-;-;-;-;-;-;-;-
1511264088157;-;-;5.0618286;-2.1414185;-1.9936829;-;-;-;-;-;-;-;-;-;-;-;-;-;-;-
1511264088178;-;-;6.2864685;-1.8062286;-2.084671;-;-;-;-;-;-;-;-;-;-;-;-;-;-;-
1511264088199;-;-;8.062958;-1.5021667;-2.3671875;-;-;-;-;-;-;-;-;-;-;-;-;-;-;-
1511264088219;-;-;9.566528;-1.4375305;-2.725113;-;-;-;-;-;-;-;-;-;-;-;-;-;-;-
1511264088239;-;-;10.390121;-1.1777496;-3.001648;-;-;-;-;-;-;-;-;-;-;-;-;-;-;-
1511264088259;-;-;10.773193;-1.234024;-3.6133575;-;-;-;-;-;-;-;-;-;-;-;-;-;-;-
1511264088280;-;-;10.945587;-1.4734344;-3.6600494;-;-;-;-;-;-;-;-;-;-;-;-;-;-;-
1511264088300;-;-;11.11438;-1.4075928;-3.135727;-;-;-;-;-;-;-;-;-;-;-;-;-;-;-
1511264088320;-;-;11.240067;-2.016922;-1.753067;-;-;-;-;-;-;-;-;-;-;-;-;-;-;-
1511264088341;-;-;11.541733;-2.1294556;-1.219162;-;-;-;-;-;-;-;-;-;-;-;-;-;-;-
1511264088360;-;-;10.588852;-2.6896973;-0.7199707;-;-;-;-;-;-;-;-;-;-;-;-;-;-;-
1511264088380;-;-;9.459976;-2.8465118;-1.8045502;-;-;-;-;-;-;-;-;-;-;-;-;-;-;-
1511264088401;-;-;10.348236;-1.0831909;-2.6796265;-;-;-;-;-;-;-;-;-;-;-;-;-;-;-
1511264088421;-;-;11.593216;-0.31584167;-3.9641113;-;-;-;-;-;-;-;-;-;-;-;-;-;-;-
1511264088442;-;-;10.618774;-3.6713104;-5.1743774;-;-;-;-;-;-;-;-;-;-;-;-;-;-;-
1511264088462;-;-;11.696167;-5.741104;-5.338394;-;-;-;-;-;-;-;-;-;-;-;-;-;-;-
1511264088482;-;-;13.613922;-2.5783691;-7.444092;-;-;-;-;-;-;-;-;-;-;-;-;-;-;-
1511264088503;-;-;13.23085;-1.7451782;-5.692734;-;-;-;-;-;-;-;-;-;-;-;-;-;-;-
1511264088523;-;-;9.602432;-1.1203003;-3.9724884;-;-;-;-;-;-;-;-;-;-;-;-;-;-;-
1511264088543;-;-;6.3690643;-0.6067352;-3.168045;-;-;-;-;-;-;-;-;-;-;-;-;-;-;-
1511264088564;-;-;5.46286;-0.44992065;-2.8424377;-;-;-;-;-;-;-;-;-;-;-;-;-;-;-
1511264088584;-;-;6.596512;-0.43914795;-1.8224945;-;-;-;-;-;-;-;-;-;-;-;-;-;-;-
1511264088604;-;-;7.9037476;-1.9187622;-2.5371704;-;-;-;-;-;-;-;-;-;-;-;-;-;-;-
1511264088624;-;-;8.460403;-2.70047;-3.136917;-;-;-;-;-;-;-;-;-;-;-;-;-;-;-
1511264088645;-;-;8.241333;-2.8285522;-3.0854492;-;-;-;-;-;-;-;-;-;-;-;-;-;-;-
1511264088665;-;-;6.9472656;-1.6087189;-2.8448334;-;-;-;-;-;-;-;-;-;-;-;-;-;-;-
1511264088685;-;-;5.2354126;0.34495544;-2.594635;-;-;-;-;-;-;-;-;-;-;-;-;-;-;-
1511264088705;-;-;3.6348877;1.6881104;-2.658081;-;-;-;-;-;-;-;-;-;-;-;-;-;-;-
1511264088726;-;-;2.4329987;2.490158;-3.2446594;-;-;-;-;-;-;-;-;-;-;-;-;-;-;-
1511264088745;-;-;2.2785797;2.395584;-3.646881;-;-;-;-;-;-;-;-;-;-;-;-;-;-;-
1511264088765;-;-;3.5175781;1.4786072;-3.646881;-;-;-;-;-;-;-;-;-;-;-;-;-;-;-
1511264088786;-;-;5.3850555;0.19891357;-3.5882263;-;-;-;-;-;-;-;-;-;-;-;-;-;-;-
1511264088805;-;-;7.5601807;-1.1238861;-3.2398682;-;-;-;-;-;-;-;-;-;-;-;-;-;-;-
1511264088825;-;-;9.443222;-1.6949005;-3.3069;-;-;-;-;-;-;-;-;-;-;-;-;-;-;-
1511264088845;-;-;10.894104;-0.67855835;-4.0167847;-;-;-;-;-;-;-;-;-;-;-;-;-;-;-
1511264088866;-;-;11.602798;0.14144897;-4.239441;-;-;-;-;-;-;-;-;-;-;-;-;-;-;-
1511264088886;-;-;12.147476;0.4072113;-4.3352203;-;-;-;-;-;-;-;-;-;-;-;-;-;-;-
1511264088906;-;-;10.830658;0.8585205;-4.3268433;-;-;-;-;-;-;-;-;-;-;-;-;-;-;-
1511264088927;-;-;9.360626;0.675354;-3.6708221;-;-;-;-;-;-;-;-;-;-;-;-;-;-;-
1511264088946;-;-;8.452026;0.92555237;-2.7442627;-;-;-;-;-;-;-;-;-;-;-;-;-;-;-
1511264088966;-;-;8.472366;0.7950592;-2.0523376;-;-;-;-;-;-;-;-;-;-;-;-;-;-;-
1511264088987;-;-;8.596878;0.7615509;-1.9745331;-;-;-;-;-;-;-;-;-;-;-;-;-;-;-
1511264089007;-;-;7.884598;0.30426025;-4.760193;-;-;-;-;-;-;-;-;-;-;-;-;-;-;-
1511264089027;-;-;9.9879;1.9730072;-5.6807556;-;-;-;-;-;-;-;-;-;-;-;-;-;-;-
1511264089047;-;-;14.269928;2.2112427;-7.1591797;-;-;-;-;-;-;-;-;-;-;-;-;-;-;-
1511264089067;-;-;15.312607;2.2256012;-7.914551;-;-;-;-;-;-;-;-;-;-;-;-;-;-;-
1511264089088;-;-;9.954376;0.31143188;-9.765259;-;-;-;-;-;-;-;-;-;-;-;-;-;-;-
1511264089108;-;-;9.544968;0.37487793;-5.4353485;-;-;-;-;-;-;-;-;-;-;-;-;-;-;-
1511264089128;-;-;7.4967346;0.64183044;-2.9274292;-;-;-;-;-;-;-;-;-;-;-;-;-;-;-
1511264089148;-;-;5.082184;0.41558838;-2.6377258;-;-;-;-;-;-;-;-;-;-;-;-;-;-;-
1511264089168;-;-;4.4991913;-0.054870605;-3.7953186;-;-;-;-;-;-;-;-;-;-;-;-;-;-;-
1511264089189;-;-;6.2864685;-0.18655396;-4.301697;-;-;-;-;-;-;-;-;-;-;-;-;-;-;-
1511264089209;-;-;8.454422;-0.07043457;-5.0714264;-;-;-;-;-;-;-;-;-;-;-;-;-;-;-
1511264089229;-;-;9.898117;-0.062057495;-5.072632;-;-;-;-;-;-;-;-;-;-;-;-;-;-;-
1511264089249;-;-;10.423645;-0.1769867;-4.6285095;-;-;-;-;-;-;-;-;-;-;-;-;-;-;-
1511264089270;-;-;9.941208;-0.63427734;-4.004822;-;-;-;-;-;-;-;-;-;-;-;-;-;-;-
1511264089290;-;-;8.182678;-1.8469391;-3.381134;-;-;-;-;-;-;-;-;-;-;-;-;-;-;-
1511264089310;-;-;5.741791;-2.7387695;-2.4342194;-;-;-;-;-;-;-;-;-;-;-;-;-;-;-
1511264089331;-;-;3.710312;-2.8836212;-1.697998;-;-;-;-;-;-;-;-;-;-;-;-;-;-;-
1511264089351;-;-;2.6700287;-2.46344;-1.5699158;-;-;-;-;-;-;-;-;-;-;-;-;-;-;-
1511264089371;-;-;2.813675;-1.6745453;-1.8955231;-;-;-;-;-;-;-;-;-;-;-;-;-;-;-
1511264089391;-;-;3.9533234;-1.1226959;-2.381546;-;-;-;-;-;-;-;-;-;-;-;-;-;-;-
1511264089412;-;-;5.4329376;-0.74320984;-2.6664581;-;-;-;-;-;-;-;-;-;-;-;-;-;-;-
1511264089432;-;-;7.629608;-0.43554688;-3.6528625;-;-;-;-;-;-;-;-;-;-;-;-;-;-;-
1511264089452;-;-;9.299576;-0.38287354;-4.0874176;-;-;-;-;-;-;-;-;-;-;-;-;-;-;-
1511264089473;-;-;10.663071;-0.20809937;-4.228668;-;-;-;-;-;-;-;-;-;-;-;-;-;-;-
1511264089493;-;-;10.618774;-0.77194214;-4.325638;-;-;-;-;-;-;-;-;-;-;-;-;-;-;-
1511264089513;-;-;9.935226;-1.6051178;-4.123337;-;-;-;-;-;-;-;-;-;-;-;-;-;-;-
1511264089534;-;-;9.200211;-2.2371826;-3.5259705;-;-;-;-;-;-;-;-;-;-;-;-;-;-;-
1511264089554;-;-;8.499908;-2.6118774;-3.0914307;-;-;-;-;-;-;-;-;-;-;-;-;-;-;-
1511264089574;-;-;7.9228973;-2.9087677;-3.111786;-;-;-;-;-;-;-;-;-;-;-;-;-;-;-
1511264089594;-;-;7.9073334;-2.6669464;-2.7658234;-;-;-;-;-;-;-;-;-;-;-;-;-;-;-
1511264089614;-;-;8.448425;-2.4981537;-2.0619202;-;-;-;-;-;-;-;-;-;-;-;-;-;-;-
1511264089635;-;-;9.185837;-2.04924;-1.1856384;-;-;-;-;-;-;-;-;-;-;-;-;-;-;-
1511264089656;-;-;9.410904;-1.0400848;-2.1457214;-;-;-;-;-;-;-;-;-;-;-;-;-;-;-
1511264089676;-;-;9.814316;-0.7444;-5.412613;-;-;-;-;-;-;-;-;-;-;-;-;-;-;-
1511264089696;-;-;9.240906;-3.2559204;-5.10376;-;-;-;-;-;-;-;-;-;-;-;-;-;-;-
1511264089716;-;-;12.497025;-6.077484;-3.1237488;-;-;-;-;-;-;-;-;-;-;-;-;-;-;-
1511264089737;-;-;14.510544;-4.1094513;-9.328323;-;-;-;-;-;-;-;-;-;-;-;-;-;-;-
1511264089757;-;-;16.23677;-3.0596008;-13.173416;-;-;-;-;-;-;-;-;-;-;-;-;-;-;-
1511264089777;-;-;13.996994;-2.677719;-9.366638;-;-;-;-;-;-;-;-;-;-;-;-;-;-;-
1511264089797;-;-;9.410904;-0.76356506;-6.910187;-;-;-;-;-;-;-;-;-;-;-;-;-;-;-
1511264089818;-;-;5.87706;0.41438293;-4.004822;-;-;-;-;-;-;-;-;-;-;-;-;-;-;-
1511264089838;-;-;5.201889;1.2715149;-2.567093;-;-;-;-;-;-;-;-;-;-;-;-;-;-;-
1511264089858;-;-;5.826782;0.36889648;-2.4617462;-;-;-;-;-;-;-;-;-;-;-;-;-;-;-
1511264089878;-;-;6.2625275;-1.3992157;-3.370346;-;-;-;-;-;-;-;-;-;-;-;-;-;-;-
1511264089899;-;-;6.6587677;-1.7715149;-3.4900665;-;-;-;-;-;-;-;-;-;-;-;-;-;-;-
1511264089919;-;-;7.374634;-1.6709595;-3.0136108;-;-;-;-;-;-;-;-;-;-;-;-;-;-;-
1511264089939;-;-;7.691864;-0.90242004;-2.0786743;-;-;-;-;-;-;-;-;-;-;-;-;-;-;-
1511264089960;-;-;7.035858;0.2515869;-2.282196;-;-;-;-;-;-;-;-;-;-;-;-;-;-;-
1511264089980;-;-;5.933319;1.4810028;-3.4936523;-;-;-;-;-;-;-;-;-;-;-;-;-;-;-
1511264090001;-;-;5.3563232;2.098709;-3.6193542;-;-;-;-;-;-;-;-;-;-;-;-;-;-;-
1511264090020;-;-;5.0642242;1.9071808;-3.1297302;-;-;-;-;-;-;-;-;-;-;-;-;-;-;-
1511264090040;-;-;5.300049;1.2499695;-2.828064;-;-;-;-;-;-;-;-;-;-;-;-;-;-;-
1511264090060;-;-;5.6268616;0.3138275;-3.1273346;-;-;-;-;-;-;-;-;-;-;-;-;-;-;-
1511264090081;-;-;6.2313995;0.18814087;-3.254242;-;-;-;-;-;-;-;-;-;-;-;-;-;-;-
1511264090101;-;-;6.4995575;0.97343445;-3.1788177;-;-;-;-;-;-;-;-;-;-;-;-;-;-;-
1511264090121;-;-;7.166336;1.4474792;-3.0459442;-;-;-;-;-;-;-;-;-;-;-;-;-;-;-
1511264090142;-;-;8.273651;0.9866028;-2.8615875;-;-;-;-;-;-;-;-;-;-;-;-;-;-;-
1511264090161;-;-;9.110428;0.27671814;-2.5455475;-;-;-;-;-;-;-;-;-;-;-;-;-;-;-
1511264090182;-;-;9.379776;-0.22486877;-2.270218;-;-;-;-;-;-;-;-;-;-;-;-;-;-;-
1511264090202;-;-;8.879379;-0.7982788;-1.8967285;-;-;-;-;-;-;-;-;-;-;-;-;-;-;-
1511264090222;-;-;8.054581;-1.0424805;-1.3448639;-;-;-;-;-;-;-;-;-;-;-;-;-;-;-
1511264090243;-;-;7.4524384;-0.6689911;-0.49731445;-;-;-;-;-;-;-;-;-;-;-;-;-;-;-
1511264090263;-;-;7.3075867;-0.03213501;0.028213501;-;-;-;-;-;-;-;-;-;-;-;-;-;-;-
1511264090283;-;-;6.7294006;0.82858276;-0.2111969;-;-;-;-;-;-;-;-;-;-;-;-;-;-;-
1511264090303;-;-;6.7257996;1.7467651;-0.10346985;-;-;-;-;-;-;-;-;-;-;-;-;-;-;-
1511264090324;-;-;7.6631317;2.4602356;-0.67448425;-;-;-;-;-;-;-;-;-;-;-;-;-;-;-
1511264090344;-;-;7.5290527;2.1441956;-1.7398987;-;-;-;-;-;-;-;-;-;-;-;-;-;-;-
1511264090364;-;-;8.855438;0.22764587;-1.1150208;-;-;-;-;-;-;-;-;-;-;-;-;-;-;-
1511264090385;-;-;10.994659;-1.764328;0.7345123;-;-;-;-;-;-;-;-;-;-;-;-;-;-;-
1511264090405;-;-;14.618286;-4.3632355;0.77879333;-;-;-;-;-;-;-;-;-;-;-;-;-;-;-
1511264090425;-;-;14.490204;-2.2766876;-1.2048035;-;-;-;-;-;-;-;-;-;-;-;-;-;-;-
1511264090446;-;-;16.322952;2.2339783;-3.614563;-;-;-;-;-;-;-;-;-;-;-;-;-;-;-
1511264090465;-;-;10.702576;5.9976654;-4.6296997;-;-;-;-;-;-;-;-;-;-;-;-;-;-;-
1511264090485;-;-;11.659058;7.2234955;-0.9761505;-;-;-;-;-;-;-;-;-;-;-;-;-;-;-
1511264090506;-;-;12.817856;4.4270782;-2.7011719;-;-;-;-;-;-;-;-;-;-;-;-;-;-;-
1511264090525;-;-;9.771225;-0.05847168;-9.972366;-;-;-;-;-;-;-;-;-;-;-;-;-;-;-
1511264090545;-;-;7.3662567;0.6214905;-8.073761;-;-;-;-;-;-;-;-;-;-;-;-;-;-;-
1511264090565;-;-;5.370682;1.710846;-4.6763916;-;-;-;-;-;-;-;-;-;-;-;-;-;-;-
1511264090585;-;-;4.2980804;1.200882;-2.231903;-;-;-;-;-;-;-;-;-;-;-;-;-;-;-
1511264090605;-;-;3.6073608;-0.40682983;-2.2570496;-;-;-;-;-;-;-;-;-;-;-;-;-;-;-
1511264090626;-;-;6.1595764;-1.9055939;-3.3571777;-;-;-;-;-;-;-;-;-;-;-;-;-;-;-
1511264090646;-;-;8.161133;-2.4335175;-3.238678;-;-;-;-;-;-;-;-;-;-;-;-;-;-;-
1511264090666;-;-;9.967545;-2.1138916;-2.8723602;-;-;-;-;-;-;-;-;-;-;-;-;-;-;-
1511264090686;-;-;10.422455;-0.8688965;-3.7582092;-;-;-;-;-;-;-;-;-;-;-;-;-;-;-
1511264090707;-;-;10.092056;0.55804443;-4.0347443;-;-;-;-;-;-;-;-;-;-;-;-;-;-;-
1511264090727;-;-;9.201401;1.4857941;-3.3332367;-;-;-;-;-;-;-;-;-;-;-;-;-;-;-
1511264090747;-;-;8.679474;1.837738;-2.938202;-;-;-;-;-;-;-;-;-;-;-;-;-;-;-
1511264090768;-;-;8.30957;1.3876343;-2.9405975;-;-;-;-;-;-;-;-;-;-;-;-;-;-;-
1511264090788;-;-;8.010284;0.33776855;-2.7346954;-;-;-;-;-;-;-;-;-;-;-;-;-;-;-
1511264090809;-;-;7.877411;-0.5349121;-2.7718048;-;-;-;-;-;-;-;-;-;-;-;-;-;-;-
1511264090829;-;-;7.7026367;-1.3453522;-2.468933;-;-;-;-;-;-;-;-;-;-;-;-;-;-;-
1511264090849;-;-;7.715805;-1.4171753;-1.7602539;-;-;-;-;-;-;-;-;-;-;-;-;-;-;-
1511264090869;-;-;7.846283;-1.0987396;-1.4095001;-;-;-;-;-;-;-;-;-;-;-;-;-;-;-
1511264090890;-;-;8.197037;-0.7731323;-1.4681549;-;-;-;-;-;-;-;-;-;-;-;-;-;-;-
1511264090910;-;-;8.787216;-0.7096863;-1.4597778;-;-;-;-;-;-;-;-;-;-;-;-;-;-;-
1511264090930;-;-;9.613205;-0.6067352;-0.630188;-;-;-;-;-;-;-;-;-;-;-;-;-;-;-
1511264090951;-;-;9.759262;-0.4487152;-0.7056122;-;-;-;-;-;-;-;-;-;-;-;-;-;-;-
1511264090971;-;-;9.498291;0.18574524;-0.73194885;-;-;-;-;-;-;-;-;-;-;-;-;-;-;-
1511264090991;-;-;9.035004;-1.2208557;-1.9924927;-;-;-;-;-;-;-;-;-;-;-;-;-;-;-
1511264091011;-;-;10.487091;-0.42477417;-0.8289032;-;-;-;-;-;-;-;-;-;-;-;-;-;-;-
1511264091032;-;-;10.130356;0.8166199;-0.5320282;-;-;-;-;-;-;-;-;-;-;-;-;-;-;-
1511264091051;-;-;10.584061;1.5755768;0.10482788;-;-;-;-;-;-;-;-;-;-;-;-;-;-;-
1511264091071;-;-;9.764038;3.0899048;-4.76857;-;-;-;-;-;-;-;-;-;-;-;-;-;-;-
1511264091092;-;-;12.856155;4.59227;-2.1301575;-;-;-;-;-;-;-;-;-;-;-;-;-;-;-
1511264091112;-;-;9.371399;-2.4299164;-3.5403442;-;-;-;-;-;-;-;-;-;-;-;-;-;-;-
1511264091132;-;-;13.260773;-5.2323303;-5.239029;-;-;-;-;-;-;-;-;-;-;-;-;-;-;-
1511264091153;-;-;13.90123;-2.2072601;-5.859131;-;-;-;-;-;-;-;-;-;-;-;-;-;-;-
1511264091173;-;-;9.999878;-0.6821594;-5.2366333;-;-;-;-;-;-;-;-;-;-;-;-;-;-;-
1511264091193;-;-;7.396179;0.8213959;-5.092987;-;-;-;-;-;-;-;-;-;-;-;-;-;-;-
1511264091213;-;-;5.662781;2.3297424;-3.3751373;-;-;-;-;-;-;-;-;-;-;-;-;-;-;-
1511264091234;-;-;3.0531006;1.9574585;-1.8057404;-;-;-;-;-;-;-;-;-;-;-;-;-;-;-
1511264091254;-;-;3.9964142;-0.23564148;-1.2897949;-;-;-;-;-;-;-;-;-;-;-;-;-;-;-
1511264091274;-;-;6.225418;-1.6266632;-1.768631;-;-;-;-;-;-;-;-;-;-;-;-;-;-;-
1511264091294;-;-;8.908112;-2.399994;-1.9206696;-;-;-;-;-;-;-;-;-;-;-;-;-;-;-
1511264091315;-;-;11.722504;-2.4885864;-1.8213043;-;-;-;-;-;-;-;-;-;-;-;-;-;-;-
1511264091334;-;-;12.896851;-1.1609955;-2.286972;-;-;-;-;-;-;-;-;-;-;-;-;-;-;-
1511264091354;-;-;11.578842;0.7232361;-2.859192;-;-;-;-;-;-;-;-;-;-;-;-;-;-;-
1511264091374;-;-;9.082901;2.4638214;-2.7945404;-;-;-;-;-;-;-;-;-;-;-;-;-;-;-
1511264091395;-;-;7.1819;2.5105133;-2.4904785;-;-;-;-;-;-;-;-;-;-;-;-;-;-;-
1511264091415;-;-;6.209854;1.6821136;-1.4334412;-;-;-;-;-;-;-;-;-;-;-;-;-;-;-
1511264091435;-;-;6.0638123;0.8597107;-0.8576355;-;-;-;-;-;-;-;-;-;-;-;-;-;-;-
1511264091456;-;-;6.229004;0.64782715;-0.59906006;-;-;-;-;-;-;-;-;-;-;-;-;-;-;-
1511264091476;-;-;7.134018;0.7735138;-0.4925232;-;-;-;-;-;-;-;-;-;-;-;-;-;-;-
1511264091496;-;-;8.262878;0.9866028;-0.7810211;-;-;-;-;-;-;-;-;-;-;-;-;-;-;-
1511264091516;-;-;9.424072;1.264328;-1.021637;-;-;-;-;-;-;-;-;-;-;-;-;-;-;-
1511264091536;-;-;10.5720825;0.98062134;-1.2215576;-;-;-;-;-;-;-;-;-;-;-;-;-;-;-
1511264091556;-;-;11.228104;0.37249756;-1.1856384;-;-;-;-;-;-;-;-;-;-;-;-;-;-;-
1511264091576;-;-;10.415268;-0.6713867;-0.8947449;-;-;-;-;-;-;-;-;-;-;-;-;-;-;-
1511264091597;-;-;9.128387;-1.1526184;-0.26507568;-;-;-;-;-;-;-;-;-;-;-;-;-;-;-
1511264091617;-;-;8.416107;-1.1107178;0.2341156;-;-;-;-;-;-;-;-;-;-;-;-;-;-;-
1511264091637;-;-;8.131195;-0.31225586;0.16468811;-;-;-;-;-;-;-;-;-;-;-;-;-;-;-
1511264091657;-;-;7.8319244;0.7687378;-0.38957214;-;-;-;-;-;-;-;-;-;-;-;-;-;-;-
1511264091677;-;-;7.6870728;1.6282501;-0.38478088;-;-;-;-;-;-;-;-;-;-;-;-;-;-;-
1511264091698;-;-;8.083313;1.3684845;0.10482788;-;-;-;-;-;-;-;-;-;-;-;-;-;-;-
1511264091719;-;-;8.813553;0.81781006;0.61239624;-;-;-;-;-;-;-;-;-;-;-;-;-;-;-
1511264091739;-;-;10.355408;1.537262;-0.43984985;-;-;-;-;-;-;-;-;-;-;-;-;-;-;-
1511264091759;-;-;11.466324;3.022873;-2.3312683;-;-;-;-;-;-;-;-;-;-;-;-;-;-;-
1511264091780;-;-;13.106354;4.8316956;-3.6744232;-;-;-;-;-;-;-;-;-;-;-;-;-;-;-
1511264091800;-;-;13.545685;4.7299347;-2.9717255;-;-;-;-;-;-;-;-;-;-;-;-;-;-;-
1511264091820;-;-;12.892075;2.4542542;-3.5140076;-;-;-;-;-;-;-;-;-;-;-;-;-;-;-
1511264091841;-;-;11.270004;0.32580566;-5.1863556;-;-;-;-;-;-;-;-;-;-;-;-;-;-;-
1511264091861;-;-;8.405334;-1.0616302;-4.425003;-;-;-;-;-;-;-;-;-;-;-;-;-;-;-
1511264091881;-;-;5.5358887;-1.2016907;-2.7167358;-;-;-;-;-;-;-;-;-;-;-;-;-;-;-
1511264091901;-;-;4.307663;-2.36409;-0.85284424;-;-;-;-;-;-;-;-;-;-;-;-;-;-;-
1511264091922;-;-;6.454056;-3.0835419;-0.6433563;-;-;-;-;-;-;-;-;-;-;-;-;-;-;-
1511264091942;-;-;9.639542;-2.416748;-3.1464996;-;-;-;-;-;-;-;-;-;-;-;-;-;-;-
1511264091962;-;-;11.763199;-1.309433;-4.413025;-;-;-;-;-;-;-;-;-;-;-;-;-;-;-
1511264091982;-;-;12.238449;-0.39485168;-4.6955414;-;-;-;-;-;-;-;-;-;-;-;-;-;-;-
1511264092003;-;-;11.565674;0.39404297;-3.0399475;-;-;-;-;-;-;-;-;-;-;-;-;-;-;-
1511264092024;-;-;10.777985;-0.011779785;-2.6365356;-;-;-;-;-;-;-;-;-;-;-;-;-;-;-
1511264092043;-;-;9.322311;-0.26316833;-2.563507;-;-;-;-;-;-;-;-;-;-;-;-;-;-;-
1511264092064;-;-;7.7361603;-0.8677063;-2.168457;-;-;-;-;-;-;-;-;-;-;-;-;-;-;-
1511264092083;-;-;6.6623535;-1.3908386;-1.5603333;-;-;-;-;-;-;-;-;-;-;-;-;-;-;-
1511264092103;-;-;6.482788;-1.6194916;-0.8253174;-;-;-;-;-;-;-;-;-;-;-;-;-;-;-
1511264092123;-;-;6.9424744;-1.6087189;-0.84088135;-;-;-;-;-;-;-;-;-;-;-;-;-;-;-
1511264092144;-;-;7.394989;-1.5919495;-0.84207153;-;-;-;-;-;-;-;-;-;-;-;-;-;-;-
1511264092164;-;-;7.964798;-1.7296143;-0.8863678;-;-;-;-;-;-;-;-;-;-;-;-;-;-;-
1511264092185;-;-;8.437653;-1.7272186;-0.7570801;-;-;-;-;-;-;-;-;-;-;-;-;-;-;-
1511264092205;-;-;9.977127;-1.6817322;-0.89953613;-;-;-;-;-;-;-;-;-;-;-;-;-;-;-
1511264092225;-;-;10.866577;-1.6781464;-0.95700073;-;-;-;-;-;-;-;-;-;-;-;-;-;-;-
1511264092245;-;-;10.617584;-1.8577118;-0.83369446;-;-;-;-;-;-;-;-;-;-;-;-;-;-;-
1511264092265;-;-;9.13916;-1.4506989;-0.7582855;-;-;-;-;-;-;-;-;-;-;-;-;-;-;-
1511264092286;-;-;8.100067;-1.0807953;-0.41830444;-;-;-;-;-;-;-;-;-;-;-;-;-;-;-
1511264092306;-;-;7.667923;-0.67736816;-0.24232483;-;-;-;-;-;-;-;-;-;-;-;-;-;-;-
1511264092326;-;-;7.6631317;-0.5827942;-0.29978943;-;-;-;-;-;-;-;-;-;-;-;-;-;-;-
1511264092346;-;-;8.264084;-0.7982788;-0.28182983;-;-;-;-;-;-;-;-;-;-;-;-;-;-;-
1511264092366;-;-;8.678268;-1.1609955;-0.2459259;-;-;-;-;-;-;-;-;-;-;-;-;-;-;-
1511264092386;-;-;9.45639;-1.5344849;-0.120224;-;-;-;-;-;-;-;-;-;-;-;-;-;-;-
1511264092406;-;-;10.238098;-1.5715942;-0.51527405;-;-;-;-;-;-;-;-;-;-;-;-;-;-;-
1511264092427;-;-;10.694199;-1.1562042;-0.77983093;-;-;-;-;-;-;-;-;-;-;-;-;-;-;-
1511264092447;-;-;9.975937;-0.680954;-0.669693;-;-;-;-;-;-;-;-;-;-;-;-;-;-;-
1511264092467;-;-;9.465973;-0.3254242;-0.9689636;-;-;-;-;-;-;-;-;-;-;-;-;-;-;-
1511264092487;-;-;9.919662;-1.7104645;-0.21598816;-;-;-;-;-;-;-;-;-;-;-;-;-;-;-
1511264092508;-;-;10.825867;-2.6202545;-0.16452026;-;-;-;-;-;-;-;-;-;-;-;-;-;-;-
1511264092528;-;-;13.6642;-3.6797028;-0.38957214;-;-;-;-;-;-;-;-;-;-;-;-;-;-;-
1511264092548;-;-;14.98819;-3.0141144;-1.353241;-;-;-;-;-;-;-;-;-;-;-;-;-;-;-
1511264092568;-;-;15.528091;-3.210434;-2.546753;-;-;-;-;-;-;-;-;-;-;-;-;-;-;-
1511264092589;-;-;14.850525;-3.7694855;-3.1345215;-;-;-;-;-;-;-;-;-;-;-;-;-;-;-
1511264092609;-;-;12.786728;-3.1697388;-3.8455963;-;-;-;-;-;-;-;-;-;-;-;-;-;-;-
1511264092629;-;-;9.808334;-1.9893951;-4.409439;-;-;-;-;-;-;-;-;-;-;-;-;-;-;-
1511264092650;-;-;6.901779;-0.8976288;-4.966095;-;-;-;-;-;-;-;-;-;-;-;-;-;-;-
1511264092669;-;-;5.9859924;-0.43914795;-4.560272;-;-;-;-;-;-;-;-;-;-;-;-;-;-;-
1511264092689;-;-;6.0769806;0.5736084;-4.307678;-;-;-;-;-;-;-;-;-;-;-;-;-;-;-
1511264092709;-;-;6.3666687;1.3409424;-4.0742493;-;-;-;-;-;-;-;-;-;-;-;-;-;-;-
1511264092730;-;-;7.1172485;1.1158905;-3.3248596;-;-;-;-;-;-;-;-;-;-;-;-;-;-;-
1511264092750;-;-;9.240906;-0.38887024;-3.5451355;-;-;-;-;-;-;-;-;-;-;-;-;-;-;-
1511264092770;-;-;10.787567;-2.0600128;-3.6085815;-;-;-;-;-;-;-;-;-;-;-;-;-;-;-
1511264092790;-;-;11.335831;-3.2152252;-3.2494507;-;-;-;-;-;-;-;-;-;-;-;-;-;-;-
1511264092810;-;-;11.143097;-3.4426727;-3.0040436;-;-;-;-;-;-;-;-;-;-;-;-;-;-;-
1511264092831;-;-;9.675461;-2.969818;-2.5838623;-;-;-;-;-;-;-;-;-;-;-;-;-;-;-
1511264092851;-;-;7.430893;-1.9415131;-2.6161804;-;-;-;-;-;-;-;-;-;-;-;-;-;-;-
1511264092871;-;-;4.9469147;-0.18536377;-2.405487;-;-;-;-;-;-;-;-;-;-;-;-;-;-;-
1511264092892;-;-;3.4217987;0.512558;-1.9757233;-;-;-;-;-;-;-;-;-;-;-;-;-;-;-
1511264092911;-;-;3.2063293;0.8668976;-1.3460541;-;-;-;-;-;-;-;-;-;-;-;-;-;-;-
1511264092931;-;-;4.0347137;0.6059265;-1.2478943;-;-;-;-;-;-;-;-;-;-;-;-;-;-;-
1511264092952;-;-;5.315613;0.11631775;-1.555542;-;-;-;-;-;-;-;-;-;-;-;-;-;-;-
1511264092972;-;-;6.794037;0.18933105;-1.8907318;-;-;-;-;-;-;-;-;-;-;-;-;-;-;-
1511264092992;-;-;8.01268;0.58677673;-2.0092468;-;-;-;-;-;-;-;-;-;-;-;-;-;-;-
1511264093012;-;-;8.657928;0.49220276;-2.2378998;-;-;-;-;-;-;-;-;-;-;-;-;-;-;-
1511264093033;-;-;9.309143;0.107925415;-2.3480225;-;-;-;-;-;-;-;-;-;-;-;-;-;-;-
1511264093052;-;-;9.990295;-0.22366333;-2.5694885;-;-;-;-;-;-;-;-;-;-;-;-;-;-;-
1511264093072;-;-;9.835876;0.008575439;-2.5455475;-;-;-;-;-;-;-;-;-;-;-;-;-;-;-
1511264093092;-;-;9.576096;0.92196655;-2.0547333;-;-;-;-;-;-;-;-;-;-;-;-;-;-;-
1511264093113;-;-;9.13916;0.9183655;-1.4490051;-;-;-;-;-;-;-;-;-;-;-;-;-;-;-
1511264093133;-;-;9.008667;0.9973755;-0.8791809;-;-;-;-;-;-;-;-;-;-;-;-;-;-;-
1511264093153;-;-;9.171478;1.1901093;-0.6289978;-;-;-;-;-;-;-;-;-;-;-;-;-;-;-
1511264093174;-;-;9.683838;0.96624756;-0.8648224;-;-;-;-;-;-;-;-;-;-;-;-;-;-;-
1511264093193;-;-;9.79158;0.9099884;-1.3017578;-;-;-;-;-;-;-;-;-;-;-;-;-;-;-
1511264093213;-;-;9.823898;0.68733215;-2.4006958;-;-;-;-;-;-;-;-;-;-;-;-;-;-;-
1511264093234;-;-;10.315903;1.6031036;-3.796524;-;-;-;-;-;-;-;-;-;-;-;-;-;-;-
1511264093254;-;-;12.493439;3.4645996;-5.0056;-;-;-;-;-;-;-;-;-;-;-;-;-;-;-
1511264093274;-;-;14.578781;3.8081665;-5.515564;-;-;-;-;-;-;-;-;-;-;-;-;-;-;-
1511264093294;-;-;13.449921;1.4115753;-9.086517;-;-;-;-;-;-;-;-;-;-;-;-;-;-;-
1511264093315;-;-;12.116348;1.200882;-7.564987;-;-;-;-;-;-;-;-;-;-;-;-;-;-;-
1511264093335;-;-;10.1566925;0.60472107;-5.285721;-;-;-;-;-;-;-;-;-;-;-;-;-;-;-
1511264093355;-;-;7.916916;-0.21170044;-4.306488;-;-;-;-;-;-;-;-;-;-;-;-;-;-;-
1511264093376;-;-;5.6927032;-0.52293396;-3.927002;-;-;-;-;-;-;-;-;-;-;-;-;-;-;-
1511264093396;-;-;4.656021;-0.10395813;-3.6768036;-;-;-;-;-;-;-;-;-;-;-;-;-;-;-
1511264093416;-;-;6.038666;0.32699585;-3.8743286;-;-;-;-;-;-;-;-;-;-;-;-;-;-;-
1511264093437;-;-;6.8910065;-0.20570374;-4.049103;-;-;-;-;-;-;-;-;-;-;-;-;-;-;-
1511264093457;-;-;7.1004944;-1.5656128;-3.1728363;-;-;-;-;-;-;-;-;-;-;-;-;-;-;-
1511264093477;-;-;7.6415863;-2.399994;-2.4821014;-;-;-;-;-;-;-;-;-;-;-;-;-;-;-
1511264093498;-;-;8.065353;-2.763916;-2.2378998;-;-;-;-;-;-;-;-;-;-;-;-;-;-;-
1511264093518;-;-;7.9396667;-2.4107666;-2.522812;-;-;-;-;-;-;-;-;-;-;-;-;-;-;-
1511264093538;-;-;7.264496;-1.7427826;-2.9489746;-;-;-;-;-;-;-;-;-;-;-;-;-;-;-
1511264093559;-;-;6.585739;-1.0065765;-2.6640625;-;-;-;-;-;-;-;-;-;-;-;-;-;-;-
1511264093579;-;-;6.376251;-0.27514648;-2.1433258;-;-;-;-;-;-;-;-;-;-;-;-;-;-;-
1511264093599;-;-;5.8243866;-0.17459106;-2.3695831;-;-;-;-;-;-;-;-;-;-;-;-;-;-;-
1511264093619;-;-;5.9824066;-0.3397827;-2.3827515;-;-;-;-;-;-;-;-;-;-;-;-;-;-;-
1511264093640;-;-;6.6934814;-0.5157623;-2.3791504;-;-;-;-;-;-;-;-;-;-;-;-;-;-;-
1511264093660;-;-;7.7612915;-0.700119;-2.6054077;-;-;-;-;-;-;-;-;-;-;-;-;-;-;-
1511264093680;-;-;9.0182495;-1.2052917;-2.65448;-;-;-;-;-;-;-;-;-;-;-;-;-;-;-
1511264093700;-;-;9.5354;-1.8541107;-3.0519257;-;-;-;-;-;-;-;-;-;-;-;-;-;-;-
1511264093721;-;-;10.030991;-2.5244904;-3.1105804;-;-;-;-;-;-;-;-;-;-;-;-;-;-;-
1511264093741;-;-;10.3697815;-2.6681519;-2.685608;-;-;-;-;-;-;-;-;-;-;-;-;-;-;-
1511264093761;-;-;10.590042;-2.341339;-2.0355835;-;-;-;-;-;-;-;-;-;-;-;-;-;-;-
1511264093781;-;-;10.585251;-2.6442108;-1.2945862;-;-;-;-;-;-;-;-;-;-;-;-;-;-;-
1511264093801;-;-;10.828262;-2.6310425;-0.8684082;-;-;-;-;-;-;-;-;-;-;-;-;-;-;-
1511264093822;-;-;9.385757;-3.1350098;-1.452591;-;-;-;-;-;-;-;-;-;-;-;-;-;-;-
1511264093842;-;-;9.665878;-2.5041504;-1.4968872;-;-;-;-;-;-;-;-;-;-;-;-;-;-;-
1511264093862;-;-;10.332672;-0.5612488;-3.1824036;-;-;-;-;-;-;-;-;-;-;-;-;-;-;-
1511264093883;-;-;8.905716;-0.5780029;-6.3116302;-;-;-;-;-;-;-;-;-;-;-;-;-;-;-
1511264093902;-;-;10.214157;-3.8927765;-3.5164032;-;-;-;-;-;-;-;-;-;-;-;-;-;-;-
1511264093922;-;-;13.143463;-5.536392;-2.978897;-;-;-;-;-;-;-;-;-;-;-;-;-;-;-
1511264093942;-;-;13.393646;-3.4761963;-6.584564;-;-;-;-;-;-;-;-;-;-;-;-;-;-;-
1511264093963;-;-;12.370132;-1.7607422;-6.449295;-;-;-;-;-;-;-;-;-;-;-;-;-;-;-
1511264093982;-;-;9.918472;-0.8425598;-4.270569;-;-;-;-;-;-;-;-;-;-;-;-;-;-;-
1511264094002;-;-;6.3858185;-0.1410675;-2.9609375;-;-;-;-;-;-;-;-;-;-;-;-;-;-;-
1511264094022;-;-;4.269348;-0.3864746;-2.4665375;-;-;-;-;-;-;-;-;-;-;-;-;-;-;-
1511264094043;-;-;5.2066803;-0.89523315;-1.8416595;-;-;-;-;-;-;-;-;-;-;-;-;-;-;-
1511264094063;-;-;6.924515;-1.5943451;-2.08107;-;-;-;-;-;-;-;-;-;-;-;-;-;-;-
1511264094083;-;-;9.159515;-2.3030243;-3.2721863;-;-;-;-;-;-;-;-;-;-;-;-;-;-;-
1511264094103;-;-;10.634338;-2.3736572;-3.6791992;-;-;-;-;-;-;-;-;-;-;-;-;-;-;-
1511264094123;-;-;10.927628;-1.8708801;-3.4924622;-;-;-;-;-;-;-;-;-;-;-;-;-;-;-
1511264094144;-;-;9.979523;-1.2651367;-3.0459442;-;-;-;-;-;-;-;-;-;-;-;-;-;-;-
1511264094164;-;-;8.270065;-0.5217438;-3.4266205;-;-;-;-;-;-;-;-;-;-;-;-;-;-;-
1511264094184;-;-;6.138031;0.33299255;-3.575058;-;-;-;-;-;-;-;-;-;-;-;-;-;-;-
1511264094205;-;-;4.893036;0.541275;-3.199173;-;-;-;-;-;-;-;-;-;-;-;-;-;-;-
1511264094225;-;-;4.695526;0.47305298;-2.8424377;-;-;-;-;-;-;-;-;-;-;-;-;-;-;-
1511264094245;-;-;4.4788513;-0.13148499;-2.515625;-;-;-;-;-;-;-;-;-;-;-;-;-;-;-
1511264094266;-;-;5.344345;-0.17936707;-2.132553;-;-;-;-;-;-;-;-;-;-;-;-;-;-;-
1511264094286;-;-;6.1368256;0.42277527;-2.5168152;-;-;-;-;-;-;-;-;-;-;-;-;-;-;-
1511264094306;-;-;7.0131073;0.9099884;-2.9334106;-;-;-;-;-;-;-;-;-;-;-;-;-;-;-
1511264094327;-;-;8.065353;1.288269;-3.2111359;-;-;-;-;-;-;-;-;-;-;-;-;-;-;-
1511264094346;-;-;8.872208;0.848938;-3.1033936;-;-;-;-;-;-;-;-;-;-;-;-;-;-;-
1511264094366;-;-;10.378159;0.27671814;-2.326477;-;-;-;-;-;-;-;-;-;-;-;-;-;-;-
1511264094387;-;-;10.886917;-0.09916687;-2.271408;-;-;-;-;-;-;-;-;-;-;-;-;-;-;-
1511264094407;-;-;10.714539;-0.23085022;-2.8472137;-;-;-;-;-;-;-;-;-;-;-;-;-;-;-
1511264094427;-;-;10.8246765;0.076812744;-3.3320465;-;-;-;-;-;-;-;-;-;-;-;-;-;-;-
1511264094447;-;-;11.637512;1.5181122;-2.7394867;-;-;-;-;-;-;-;-;-;-;-;-;-;-;-
1511264094467;-;-;11.799118;1.5827637;-2.3875275;-;-;-;-;-;-;-;-;-;-;-;-;-;-;-
1511264094488;-;-;10.810303;1.9897766;-2.8651733;-;-;-;-;-;-;-;-;-;-;-;-;-;-;-
1511264094508;-;-;9.538986;1.3349609;-2.7849731;-;-;-;-;-;-;-;-;-;-;-;-;-;-;-
1511264094528;-;-;8.926071;1.6019135;-4.1101685;-;-;-;-;-;-;-;-;-;-;-;-;-;-;-
1511264094549;-;-;9.17746;1.9574585;-3.7366638;-;-;-;-;-;-;-;-;-;-;-;-;-;-;-
1511264094569;-;-;9.905304;4.4989014;-4.890671;-;-;-;-;-;-;-;-;-;-;-;-;-;-;-
1511264094589;-;-;10.192612;3.814148;-6.3870544;-;-;-;-;-;-;-;-;-;-;-;-;-;-;-
1511264094609;-;-;11.575256;1.0644073;-5.693924;-;-;-;-;-;-;-;-;-;-;-;-;-;-;-
1511264094630;-;-;10.28598;0.42277527;-5.480835;-;-;-;-;-;-;-;-;-;-;-;-;-;-;-
1511264094650;-;-;7.8091736;-0.4846344;-4.871521;-;-;-;-;-;-;-;-;-;-;-;-;-;-;-
1511264094670;-;-;7.126831;-1.0341034;-3.8922882;-;-;-;-;-;-;-;-;-;-;-;-;-;-;-
1511264094691;-;-;7.8151703;-1.2986603;-2.9118652;-;-;-;-;-;-;-;-;-;-;-;-;-;-;-
1511264094711;-;-;9.234924;-1.4997711;-3.1584625;-;-;-;-;-;-;-;-;-;-;-;-;-;-;-
1511264094731;-;-;10.28479;-1.4291534;-4.347183;-;-;-;-;-;-;-;-;-;-;-;-;-;-;-
1511264094751;-;-;10.221344;-1.1059265;-4.223892;-;-;-;-;-;-;-;-;-;-;-;-;-;-;-
1511264094771;-;-;9.225342;-0.4559021;-3.5846405;-;-;-;-;-;-;-;-;-;-;-;-;-;-;-
1511264094792;-;-;7.963608;-0.015365601;-2.8113098;-;-;-;-;-;-;-;-;-;-;-;-;-;-;-
1511264094812;-;-;6.3331604;0.12588501;-2.551529;-;-;-;-;-;-;-;-;-;-;-;-;-;-;-
1511264094832;-;-;4.3136444;0.12948608;-2.5575256;-;-;-;-;-;-;-;-;-;-;-;-;-;-;-
1511264094852;-;-;2.9669037;-0.32302856;-2.460556;-;-;-;-;-;-;-;-;-;-;-;-;-;-;-
1511264094873;-;-;2.9393768;-0.6713867;-2.2331085;-;-;-;-;-;-;-;-;-;-;-;-;-;-;-
1511264094893;-;-;3.3439941;-0.9479065;-2.3169098;-;-;-;-;-;-;-;-;-;-;-;-;-;-;-
1511264094913;-;-;4.3663177;-1.5524445;-1.792572;-;-;-;-;-;-;-;-;-;-;-;-;-;-;-
1511264094934;-;-;5.9309235;-1.9235535;-1.6596985;-;-;-;-;-;-;-;-;-;-;-;-;-;-;-
1511264094954;-;-;7.75531;-2.0851593;-2.0726929;-;-;-;-;-;-;-;-;-;-;-;-;-;-;-
1511264094974;-;-;9.677856;-2.0396729;-2.4246368;-;-;-;-;-;-;-;-;-;-;-;-;-;-;-
1511264094995;-;-;10.722916;-1.9893951;-2.8963013;-;-;-;-;-;-;-;-;-;-;-;-;-;-;-
1511264095015;-;-;10.979095;-2.0528412;-3.5427399;-;-;-;-;-;-;-;-;-;-;-;-;-;-;-
1511264095035;-;-;10.70137;-2.2766876;-3.2422638;-;-;-;-;-;-;-;-;-;-;-;-;-;-;-
1511264095056;-;-;10.192612;-2.001358;-2.8843231;-;-;-;-;-;-;-;-;-;-;-;-;-;-;-
1511264095076;-;-;9.5354;-1.6134949;-2.7634277;-;-;-;-;-;-;-;-;-;-;-;-;-;-;-
1511264095096;-;-;10.232117;-1.1741638;-2.2618408;-;-;-;-;-;-;-;-;-;-;-;-;-;-;-
1511264095117;-;-;11.894882;-0.5061798;-1.8464508;-;-;-;-;-;-;-;-;-;-;-;-;-;-;-
1511264095137;-;-;9.8645935;-0.83418274;-2.6748352;-;-;-;-;-;-;-;-;-;-;-;-;-;-;-
1511264095157;-;-;8.369415;-1.8469391;-2.8651733;-;-;-;-;-;-;-;-;-;-;-;-;-;-;-
1511264095178;-;-;10.629547;-1.0065765;-2.2798004;-;-;-;-;-;-;-;-;-;-;-;-;-;-;-
1511264095197;-;-;12.26239;-1.3788757;-1.8416595;-;-;-;-;-;-;-;-;-;-;-;-;-;-;-
1511264095217;-;-;11.188599;-2.5017548;-2.685608;-;-;-;-;-;-;-;-;-;-;-;-;-;-;-
1511264095237;-;-;10.994659;-3.2080383;-5.326416;-;-;-;-;-;-;-;-;-;-;-;-;-;-;-
1511264095257;-;-;11.908051;-3.0931244;-5.484436;-;-;-;-;-;-;-;-;-;-;-;-;-;-;-
1511264095278;-;-;11.060501;-1.9857941;-4.729065;-;-;-;-;-;-;-;-;-;-;-;-;-;-;-
1511264095298;-;-;9.148727;-1.451889;-4.951721;-;-;-;-;-;-;-;-;-;-;-;-;-;-;-
1511264095318;-;-;7.3782196;-1.1669769;-5.013977;-;-;-;-;-;-;-;-;-;-;-;-;-;-;-
1511264095339;-;-;7.1328125;-0.4259796;-5.1109314;-;-;-;-;-;-;-;-;-;-;-;-;-;-;-
1511264095360;-;-;7.719391;0.29588318;-5.2342377;-;-;-;-;-;-;-;-;-;-;-;-;-;-;-
1511264095381;-;-;8.260483;0.47782898;-5.5490723;-;-;-;-;-;-;-;-;-;-;-;-;-;-;-
1511264095401;-;-;8.554977;-0.052474976;-4.5734406;-;-;-;-;-;-;-;-;-;-;-;-;-;-;-
1511264095421;-;-;9.209793;-1.052063;-3.9222107;-;-;-;-;-;-;-;-;-;-;-;-;-;-;-
1511264095442;-;-;9.570114;-1.6218872;-3.2650146;-;-;-;-;-;-;-;-;-;-;-;-;-;-;-
1511264095462;-;-;9.062546;-1.922348;-2.79216;-;-;-;-;-;-;-;-;-;-;-;-;-;-;-
1511264095482;-;-;7.7960052;-1.9319305;-2.5204163;-;-;-;-;-;-;-;-;-;-;-;-;-;-;-
1511264095503;-;-;6.2266083;-1.8026428;-2.508438;-;-;-;-;-;-;-;-;-;-;-;-;-;-;-
1511264095523;-;-;4.501587;-1.2819061;-2.922638;-;-;-;-;-;-;-;-;-;-;-;-;-;-;-
1511264095543;-;-;3.4529266;-0.24281311;-2.7358856;-;-;-;-;-;-;-;-;-;-;-;-;-;-;-
1511264095564;-;-;3.6684113;1.1805267;-2.1349487;-;-;-;-;-;-;-;-;-;-;-;-;-;-;-
1511264095584;-;-;4.221466;2.287857;-2.3121185;-;-;-;-;-;-;-;-;-;-;-;-;-;-;-
1511264095604;-;-;5.4915924;2.3453064;-2.6197662;-;-;-;-;-;-;-;-;-;-;-;-;-;-;-
1511264095624;-;-;7.2082367;1.6857147;-3.1740265;-;-;-;-;-;-;-;-;-;-;-;-;-;-;-
1511264095645;-;-;8.830307;0.79985046;-3.135727;-;-;-;-;-;-;-;-;-;-;-;-;-;-;-
1511264095665;-;-;10.349426;0.39523315;-2.8448334;-;-;-;-;-;-;-;-;-;-;-;-;-;-;-
1511264095685;-;-;10.962341;0.3210144;-2.8807373;-;-;-;-;-;-;-;-;-;-;-;-;-;-;-
1511264095706;-;-;11.313095;0.6609955;-3.1608582;-;-;-;-;-;-;-;-;-;-;-;-;-;-;-
1511264095725;-;-;10.361404;1.114685;-3.3954926;-;-;-;-;-;-;-;-;-;-;-;-;-;-;-
1511264095745;-;-;9.716156;1.1960907;-2.5682983;-;-;-;-;-;-;-;-;-;-;-;-;-;-;-
1511264095765;-;-;9.4935;0.87646484;-1.7937775;-;-;-;-;-;-;-;-;-;-;-;-;-;-;-
1511264095785;-;-;9.100845;0.22285461;-1.9062958;-;-;-;-;-;-;-;-;-;-;-;-;-;-;-
1511264095806;-;-;7.6463776;0.8561249;-2.5323792;-;-;-;-;-;-;-;-;-;-;-;-;-;-;-
1511264095826;-;-;7.5003204;0.517334;-2.144516;-;-;-;-;-;-;-;-;-;-;-;-;-;-;-
1511264095846;-;-;9.511459;2.663742;-3.2518463;-;-;-;-;-;-;-;-;-;-;-;-;-;-;-
1511264095866;-;-;11.03656;3.1557465;-5.0450897;-;-;-;-;-;-;-;-;-;-;-;-;-;-;-
1511264095886;-;-;13.904816;2.8696442;-6.4935913;-;-;-;-;-;-;-;-;-;-;-;-;-;-;-
1511264095906;-;-;13.623505;1.0141296;-9.17868;-;-;-;-;-;-;-;-;-;-;-;-;-;-;-
1511264095926;-;-;12.663422;1.3313751;-7.3135986;-;-;-;-;-;-;-;-;-;-;-;-;-;-;-
1511264095947;-;-;11.074875;1.7671051;-4.633301;-;-;-;-;-;-;-;-;-;-;-;-;-;-;-
1511264095967;-;-;7.806778;1.7958374;-3.353592;-;-;-;-;-;-;-;-;-;-;-;-;-;-;-
1511264095987;-;-;5.7573547;1.062027;-3.3200684;-;-;-;-;-;-;-;-;-;-;-;-;-;-;-
1511264096007;-;-;4.6236877;0.49578857;-3.7665863;-;-;-;-;-;-;-;-;-;-;-;-;-;-;-
1511264096028;-;-;6.0889435;0.22644043;-4.4692993;-;-;-;-;-;-;-;-;-;-;-;-;-;-;-
1511264096048;-;-;8.229355;-0.10874939;-4.298111;-;-;-;-;-;-;-;-;-;-;-;-;-;-;-
1511264096068;-;-;9.013458;-0.14346313;-4.314865;-;-;-;-;-;-;-;-;-;-;-;-;-;-;-
1511264096089;-;-;9.431244;-0.6222992;-4.2167053;-;-;-;-;-;-;-;-;-;-;-;-;-;-;-
1511264096108;-;-;9.443222;-1.3106384;-3.8336334;-;-;-;-;-;-;-;-;-;-;-;-;-;-;-
1511264096128;-;-;8.6651;-1.7332153;-3.2123413;-;-;-;-;-;-;-;-;-;-;-;-;-;-;-
1511264096149;-;-;6.8395233;-1.8768616;-2.7418823;-;-;-;-;-;-;-;-;-;-;-;-;-;-;-
1511264096169;-;-;4.4165955;-1.6123047;-2.132553;-;-;-;-;-;-;-;-;-;-;-;-;-;-;-
1511264096189;-;-;3.5319366;-1.3692932;-1.7363129;-;-;-;-;-;-;-;-;-;-;-;-;-;-;-
1511264096209;-;-;3.5079956;-1.309433;-1.6956024;-;-;-;-;-;-;-;-;-;-;-;-;-;-;-
1511264096230;-;-;4.501587;-1.1921234;-1.8979187;-;-;-;-;-;-;-;-;-;-;-;-;-;-;-
1511264096249;-;-;5.8279724;-1.4267578;-2.230713;-;-;-;-;-;-;-;-;-;-;-;-;-;-;-
1511264096269;-;-;7.114853;-1.5811768;-2.7598267;-;-;-;-;-;-;-;-;-;-;-;-;-;-;-
1511264096290;-;-;8.247314;-1.7272186;-3.2578278;-;-;-;-;-;-;-;-;-;-;-;-;-;-;-
1511264096309;-;-;9.3546295;-1.641037;-3.4673157;-;-;-;-;-;-;-;-;-;-;-;-;-;-;-
1511264096329;-;-;10.684616;-1.2926788;-3.6600494;-;-;-;-;-;-;-;-;-;-;-;-;-;-;-
1511264096349;-;-;10.751648;-0.80545044;-3.5798492;-;-;-;-;-;-;-;-;-;-;-;-;-;-;-
1511264096370;-;-;10.193802;-0.43675232;-3.2123413;-;-;-;-;-;-;-;-;-;-;-;-;-;-;-
1511264096390;-;-;8.867416;-0.86172485;-2.8735504;-;-;-;-;-;-;-;-;-;-;-;-;-;-;-
1511264096410;-;-;7.7301636;-1.5380859;-2.5898438;-;-;-;-;-;-;-;-;-;-;-;-;-;-;-
1511264096431;-;-;7.178299;-2.0001678;-2.3384552;-;-;-;-;-;-;-;-;-;-;-;-;-;-;-
1511264096451;-;-;7.317169;-2.2766876;-1.9960785;-;-;-;-;-;-;-;-;-;-;-;-;-;-;-
1511264096471;-;-;7.9228973;-2.2766876;-1.8763733;-;-;-;-;-;-;-;-;-;-;-;-;-;-;-
1511264096491;-;-;8.699814;-1.9450989;-1.9003143;-;-;-;-;-;-;-;-;-;-;-;-;-;-;-
1511264096511;-;-;9.39534;-1.5919495;-2.0547333;-;-;-;-;-;-;-;-;-;-;-;-;-;-;-
1511264096532;-;-;10.180634;-0.83657837;-1.1497345;-;-;-;-;-;-;-;-;-;-;-;-;-;-;-
1511264096551;-;-;10.418854;-0.55526733;-0.5834961;-;-;-;-;-;-;-;-;-;-;-;-;-;-;-
